{"last_updated":1726308511,"ttl":30,"version":"2.2","data":{"bikes":[{"bike_id":"bc35aeaa-3e4d-43e6-9935-c8f1110a4b4c","system_id":"levelo_inurba_marseille","lat":43.30518,"lon":5.367,"is_reserved":false,"is_disabled":false,"rental_uris":{"android":"levelo://app?vid=bc35aeaa-3e4d-43e6-9935-c8f1110a4b4c","ios":"levelo://app?vid=bc35aeaa-3e4d-43e6-9935-c8f1110a4b4c"},"vehicle_type_id":"4","last_reported":1726308511,"current_range_meters":33200,"station_id":"ce4bgrp2rcd13ifvqc9g","pricing_plan_id":"cebpf4jnsgd1na2vs0mg"},{"bike_id":"eb87fb95-d7e8-4523-9c3a-8580e30ec6d8","system_id":"levelo_inurba_marseille","lat":43.2445,"lon":5.37585,"is_reserved":false,"is_disabled":false,"rental_uris":{"android":"levelo://app?vid=eb87fb95-d7e8-4523-9c3a-8580e30ec6d8","ios":"levelo://app?vid=eb87fb95-d7e8-4523-9c3a-8580e30ec6d8"},"vehicle_type_id":"4","last_reported":1726308511,"current_range_meters":38000,"station_id":"ce4bhhh2rcd13ifvqfk0","pricing_plan_id":"cebpf4jnsgd1na2vs0mg"},{"bike_id":"7488844e-9712-4d16-b591-982105126093","system_id":"levelo_inurba_marseille","lat":43.294281,"lon":5.38682,"is_reserved":false,"is_disabled":false,"rental_uris":{"android":"levelo://app?vid=7488844e-9712-4d16-b591-982105126093","ios":"levelo://app?vid=7488844e-9712-4d16-b591-982105126093"},"vehicle_type_id":"4","last_reported":1726308511,"current_range_meters":16800,"station_id":"ce4bh2h2rcd13ifvqdh0","pricing_plan_id":"cebpf4jnsgd1na2vs0mg"},{"bike_id":"436cf2d0-47d5-45b8-b9e9-e05936c9b5ce","system_id":"levelo_inurba_marseille","lat":43.30527,"lon":5.36538,"is_reserved":false,"is_disabled":false,"rental_uris":{"android":"levelo://app?vid=436cf2d0-47d5-45b8-b9e9-e05936c9b5ce","ios":"levelo://app?vid=436cf2d0-47d5-45b8-b9e9-e05936c9b5ce"},"vehicle_type_id":"4","last_reported":1726308511,"current_range_meters":39200,"station_id":"ce4bgs12rcd13ifvqcag","pricing_plan_id":"cebpf4jnsgd1na2vs0mg"},{"bike_id":"1433cc86-19c5-4d38-a0b5-c5c087739e0a","system_id":"levelo_inurba_marseille","lat":43.22928,"lon":5.3538,"is_reserved":false,"is_disabled":false,"rental_uris":{"android":"levelo://app?vid=1433cc86-19c5-4d38-a0b5-c5c087739e0a","ios":"levelo://app?vid=1433cc86-19c5-4d38-a0b5-c5c087739e0a"},"vehicle_type_id":"4","last_reported":1726308511,"current_range_meters":26800,"station_id":"cpo3532slgdg3j2ikp40","pricing_plan_id":"cebpf4jnsgd1na2vs0mg"},{"bike_id":"fa812e62-5a7a-4bc9-bad6-c22c286d9c5d","system_id":"levelo_inurba_marseille","lat":43.30481,"lon":5.379,"is_reserved":false,"is_disabled":false,"rental_uris":{"android":"levelo://app?vid=fa812e62-5a7a-4bc9-bad6-c22c286d9c5d","ios":"levelo://app?vid=fa812e62-5a7a-4bc9-bad6-c22c286d9c5d"},"vehicle_type_id":"4","last_reported":1726308511,"current_range_meters":38400,"station_id":"ce4bgup2rcd13ifvqcn0","pricing_plan_id":"cebpf4jnsgd1na2vs0mg"},{"bike_id":"d7d24460-acbd-4257-b223-ad3f559fe71e","system_id":"levelo_inurba_marseille","lat":43.28472,"lon":5.38418,"is_reserved":false,"is_disabled":false,"rental_uris":{"android":"levelo://app?vid=d7d24460-acbd-4257-b223-ad3f559fe71e","ios":"levelo://app?vid=d7d24460-acbd-4257-b223-ad3f559fe71e"},"vehicle_type_id":"4","last_reported":1726308511,"current_range_meters":24400,"station_id":"ce4bh512rcd13ifvqe3g","pricing_plan_id":"cebpf4jnsgd1na2vs0mg"},{"bike_id":"083984dd-1abd-4a7d-84c6-e8ceb7b63abe","system_id":"levelo_inurba_marseille","lat":43.31094,"lon":5.37765,"is_reserved":false,"is_disabled":false,"rental_uris":{"android":"levelo://app?vid=083984dd-1abd-4a7d-84c6-e8ceb7b63abe","ios":"levelo://app?vid=083984dd-1abd-4a7d-84c6-e8ceb7b63abe"},"vehicle_type_id":"4","last_reported":1726308511,"current_range_meters":36800,"station_id":"ce4bgt92rcd13ifvqcg0","pricing_plan_id":"cebpf4jnsgd1na2vs0mg"},{"bike_id":"312c32aa-7767-4e9c-bdb0-d63bd304be96","system_id":"levelo_inurba_marseille","lat":43.30545,"lon":5.36531,"is_reserved":false,"is_disabled":false,"rental_uris":{"android":"levelo://app?vid=312c32aa-7767-4e9c-bdb0-d63bd304be96","ios":"levelo://app?vid=312c32aa-7767-4e9c-bdb0-d63bd304be96"},"vehicle_type_id":"4","last_reported":1726308511,"current_range_meters":22400,"station_id":"ce4bgs12rcd13ifvqcag","pricing_plan_id":"cebpf4jnsgd1na2vs0mg"},{"bike_id":"f2aab370-6e0a-414f-a9aa-b82870be9ba4","system_id":"levelo_inurba_marseille","lat":43.28609,"lon":5.35099,"is_reserved":false,"is_disabled":false,"rental_uris":{"android":"levelo://app?vid=f2aab370-6e0a-414f-a9aa-b82870be9ba4","ios":"levelo://app?vid=f2aab370-6e0a-414f-a9aa-b82870be9ba4"},"vehicle_type_id":"4","last_reported":1726308511,"current_range_meters":16800,"station_id":"ce4bhch2rcd13ifvqeug","pricing_plan_id":"cebpf4jnsgd1na2vs0mg"},{"bike_id":"9769237a-f4e8-4a9f-93a0-e8512c7ffb1d","system_id":"levelo_inurba_marseille","lat":43.33611,"lon":5.41023,"is_reserved":false,"is_disabled":false,"rental_uris":{"android":"levelo://app?vid=9769237a-f4e8-4a9f-93a0-e8512c7ffb1d","ios":"levelo://app?vid=9769237a-f4e8-4a9f-93a0-e8512c7ffb1d"},"vehicle_type_id":"4","last_reported":1726308511,"current_range_meters":38800,"station_id":"ce4bhqh2rcd13ifvqhmg","pricing_plan_id":"cebpf4jnsgd1na2vs0mg"},{"bike_id":"d362d51d-5366-4644-a1ab-ebb7c7522b7d","system_id":"levelo_inurba_marseille","lat":43.25826,"lon":5.39431,"is_reserved":false,"is_disabled":false,"rental_uris":{"android":"levelo://app?vid=d362d51d-5366-4644-a1ab-ebb7c7522b7d","ios":"levelo://app?vid=d362d51d-5366-4644-a1ab-ebb7c7522b7d"},"vehicle_type_id":"4","last_reported":1726308511,"current_range_meters":5600,"station_id":"ce4bhip2rcd13ifvqft0","pricing_plan_id":"cebpf4jnsgd1na2vs0mg"},{"bike_id":"3b61ab88-5896-4ca7-9bca-5f83d377a56b","system_id":"levelo_inurba_marseille","lat":43.296265,"lon":5.377018,"is_reserved":false,"is_disabled":false,"rental_uris":{"android":"levelo://app?vid=3b61ab88-5896-4ca7-9bca-5f83d377a56b","ios":"levelo://app?vid=3b61ab88-5896-4ca7-9bca-5f83d377a56b"},"vehicle_type_id":"4","last_reported":1726308511,"current_range_meters":39200,"station_id":"ce4bgi92rcd13ifvqb90","pricing_plan_id":"cebpf4jnsgd1na2vs0mg"},{"bike_id":"61243aa4-690d-48f7-bcd0-569922f18355","system_id":"levelo_inurba_marseille","lat":43.29223,"lon":5.36065,"is_reserved":false,"is_disabled":false,"rental_uris":{"android":"levelo://app?vid=61243aa4-690d-48f7-bcd0-569922f18355","ios":"levelo://app?vid=61243aa4-690d-48f7-bcd0-569922f18355"},"vehicle_type_id":"4","last_reported":1726308511,"current_range_meters":24800,"station_id":"ce4bhbh2rcd13ifvqeqg","pricing_plan_id":"cebpf4jnsgd1na2vs0mg"},{"bike_id":"57078c0b-9beb-4ca6-9619-12066e4ed91f","system_id":"levelo_inurba_marseille","lat":43.31756,"lon":5.39018,"is_reserved":false,"is_disabled":false,"rental_uris":{"android":"levelo://app?vid=57078c0b-9beb-4ca6-9619-12066e4ed91f","ios":"levelo://app?vid=57078c0b-9beb-4ca6-9619-12066e4ed91f"},"vehicle_type_id":"4","last_reported":1726308511,"current_range_meters":38800,"station_id":"ce4bhqp2rcd13ifvqhng","pricing_plan_id":"cebpf4jnsgd1na2vs0mg"},{"bike_id":"351a1e0b-c0ef-4032-8c4e-f94be7284501","system_id":"levelo_inurba_marseille","lat":43.28266,"lon":5.35072,"is_reserved":false,"is_disabled":false,"rental_uris":{"android":"levelo://app?vid=351a1e0b-c0ef-4032-8c4e-f94be7284501","ios":"levelo://app?vid=351a1e0b-c0ef-4032-8c4e-f94be7284501"},"vehicle_type_id":"4","last_reported":1726308511,"current_range_meters":34000,"station_id":"ce4bhbp2rcd13ifvqerg","pricing_plan_id":"cebpf4jnsgd1na2vs0mg"},{"bike_id":"e7d45257-ad22-433b-8efd-985cbd08d967","system_id":"levelo_inurba_marseille","lat":43.29219,"lon":5.36075,"is_reserved":false,"is_disabled":false,"rental_uris":{"android":"levelo://app?vid=e7d45257-ad22-433b-8efd-985cbd08d967","ios":"levelo://app?vid=e7d45257-ad22-433b-8efd-985cbd08d967"},"vehicle_type_id":"4","last_reported":1726308511,"current_range_meters":35200,"station_id":"ce4bhbh2rcd13ifvqeqg","pricing_plan_id":"cebpf4jnsgd1na2vs0mg"},{"bike_id":"b57d008e-cedc-4b84-9bf6-15384cb281cd","system_id":"levelo_inurba_marseille","lat":43.29843,"lon":5.36276,"is_reserved":false,"is_disabled":false,"rental_uris":{"android":"levelo://app?vid=b57d008e-cedc-4b84-9bf6-15384cb281cd","ios":"levelo://app?vid=b57d008e-cedc-4b84-9bf6-15384cb281cd"},"vehicle_type_id":"4","last_reported":1726308511,"current_range_meters":32000,"station_id":"ce4bgpp2rcd13ifvqc3g","pricing_plan_id":"cebpf4jnsgd1na2vs0mg"},{"bike_id":"13ec4916-f0ea-4897-8afc-596425b42c42","system_id":"levelo_inurba_marseille","lat":43.23187,"lon":5.3556,"is_reserved":false,"is_disabled":false,"rental_uris":{"android":"levelo://app?vid=13ec4916-f0ea-4897-8afc-596425b42c42","ios":"levelo://app?vid=13ec4916-f0ea-4897-8afc-596425b42c42"},"vehicle_type_id":"4","last_reported":1726308511,"current_range_meters":27600,"station_id":"ce4bhu92rcd13ifvqi70","pricing_plan_id":"cebpf4jnsgd1na2vs0mg"},{"bike_id":"24488cd7-95f2-407c-929c-705ff14ed417","system_id":"levelo_inurba_marseille","lat":43.261962,"lon":5.374473,"is_reserved":false,"is_disabled":false,"rental_uris":{"android":"levelo://app?vid=24488cd7-95f2-407c-929c-705ff14ed417","ios":"levelo://app?vid=24488cd7-95f2-407c-929c-705ff14ed417"},"vehicle_type_id":"4","last_reported":1726308511,"current_range_meters":32000,"station_id":"ce4bhgp2rcd13ifvqfc0","pricing_plan_id":"cebpf4jnsgd1na2vs0mg"},{"bike_id":"cb0eaffb-2812-4bc5-9ace-6454d6cac3eb","system_id":"levelo_inurba_marseille","lat":43.28617,"lon":5.35103,"is_reserved":false,"is_disabled":false,"rental_uris":{"android":"levelo://app?vid=cb0eaffb-2812-4bc5-9ace-6454d6cac3eb","ios":"levelo://app?vid=cb0eaffb-2812-4bc5-9ace-6454d6cac3eb"},"vehicle_type_id":"4","last_reported":1726308511,"current_range_meters":30400,"station_id":"ce4bhch2rcd13ifvqeug","pricing_plan_id":"cebpf4jnsgd1na2vs0mg"},{"bike_id":"a2360ee0-db48-4fec-8e3b-4fc7ef820ca3","system_id":"levelo_inurba_marseille","lat":43.29901,"lon":5.38135,"is_reserved":false,"is_disabled":false,"rental_uris":{"android":"levelo://app?vid=a2360ee0-db48-4fec-8e3b-4fc7ef820ca3","ios":"levelo://app?vid=a2360ee0-db48-4fec-8e3b-4fc7ef820ca3"},"vehicle_type_id":"4","last_reported":1726308511,"current_range_meters":33600,"station_id":"ce4bgj12rcd13ifvqbc0","pricing_plan_id":"cebpf4jnsgd1na2vs0mg"},{"bike_id":"3f1e932a-540c-4c5d-a4f8-ac49240977b8","system_id":"levelo_inurba_marseille","lat":43.24387,"lon":5.37054,"is_reserved":false,"is_disabled":false,"rental_uris":{"android":"levelo://app?vid=3f1e932a-540c-4c5d-a4f8-ac49240977b8","ios":"levelo://app?vid=3f1e932a-540c-4c5d-a4f8-ac49240977b8"},"vehicle_type_id":"4","last_reported":1726308511,"current_range_meters":38800,"station_id":"ce4bhhh2rcd13ifvqfk0","pricing_plan_id":"cebpf4jnsgd1na2vs0mg"},{"bike_id":"1b69e28d-b657-4802-b5dd-aa17fb5a768b","system_id":"levelo_inurba_marseille","lat":43.27139,"lon":5.42781,"is_reserved":false,"is_disabled":false,"rental_uris":{"android":"levelo://app?vid=1b69e28d-b657-4802-b5dd-aa17fb5a768b","ios":"levelo://app?vid=1b69e28d-b657-4802-b5dd-aa17fb5a768b"},"vehicle_type_id":"4","last_reported":1726308511,"current_range_meters":27200,"station_id":"","pricing_plan_id":"cebpf4jnsgd1na2vs0mg"},{"bike_id":"ed6ea6a8-7a12-489f-a3ff-5481318940c4","system_id":"levelo_inurba_marseille","lat":43.2318,"lon":5.39986,"is_reserved":false,"is_disabled":false,"rental_uris":{"android":"levelo://app?vid=ed6ea6a8-7a12-489f-a3ff-5481318940c4","ios":"levelo://app?vid=ed6ea6a8-7a12-489f-a3ff-5481318940c4"},"vehicle_type_id":"4","last_reported":1726308511,"current_range_meters":24400,"station_id":"ce4bhn12rcd13ifvqgqg","pricing_plan_id":"cebpf4jnsgd1na2vs0mg"},{"bike_id":"b5154539-e049-453b-b74f-72c79cc3648b","system_id":"levelo_inurba_marseille","lat":43.30593,"lon":5.39368,"is_reserved":false,"is_disabled":false,"rental_uris":{"android":"levelo://app?vid=b5154539-e049-453b-b74f-72c79cc3648b","ios":"levelo://app?vid=b5154539-e049-453b-b74f-72c79cc3648b"},"vehicle_type_id":"4","last_reported":1726308511,"current_range_meters":18000,"station_id":"ce4bh0p2rcd13ifvqd80","pricing_plan_id":"cebpf4jnsgd1na2vs0mg"},{"bike_id":"c3438b8a-011a-4279-88d6-3c98904bfa89","system_id":"levelo_inurba_marseille","lat":43.29148,"lon":5.37174,"is_reserved":false,"is_disabled":false,"rental_uris":{"android":"levelo://app?vid=c3438b8a-011a-4279-88d6-3c98904bfa89","ios":"levelo://app?vid=c3438b8a-011a-4279-88d6-3c98904bfa89"},"vehicle_type_id":"4","last_reported":1726308511,"current_range_meters":22000,"station_id":"ce4bha92rcd13ifvqeh0","pricing_plan_id":"cebpf4jnsgd1na2vs0mg"},{"bike_id":"9cd2a406-ae62-4c6b-ba9d-5c4321c6dbf1","system_id":"levelo_inurba_marseille","lat":43.29287,"lon":5.40117,"is_reserved":false,"is_disabled":false,"rental_uris":{"android":"levelo://app?vid=9cd2a406-ae62-4c6b-ba9d-5c4321c6dbf1","ios":"levelo://app?vid=9cd2a406-ae62-4c6b-ba9d-5c4321c6dbf1"},"vehicle_type_id":"4","last_reported":1726308511,"current_range_meters":12400,"station_id":"ce4bh312rcd13ifvqdk0","pricing_plan_id":"cebpf4jnsgd1na2vs0mg"},{"bike_id":"8a96ac3c-cfde-4784-806c-e3b436c12acb","system_id":"levelo_inurba_marseille","lat":43.28267,"lon":5.3508,"is_reserved":false,"is_disabled":false,"rental_uris":{"android":"levelo://app?vid=8a96ac3c-cfde-4784-806c-e3b436c12acb","ios":"levelo://app?vid=8a96ac3c-cfde-4784-806c-e3b436c12acb"},"vehicle_type_id":"4","last_reported":1726308511,"current_range_meters":17600,"station_id":"ce4bhbp2rcd13ifvqerg","pricing_plan_id":"cebpf4jnsgd1na2vs0mg"},{"bike_id":"995d3a7e-289e-4ebd-b785-9d2da426ad57","system_id":"levelo_inurba_marseille","lat":43.23193,"lon":5.35543,"is_reserved":false,"is_disabled":false,"rental_uris":{"android":"levelo://app?vid=995d3a7e-289e-4ebd-b785-9d2da426ad57","ios":"levelo://app?vid=995d3a7e-289e-4ebd-b785-9d2da426ad57"},"vehicle_type_id":"4","last_reported":1726308511,"current_range_meters":21600,"station_id":"ce4bhu92rcd13ifvqi70","pricing_plan_id":"cebpf4jnsgd1na2vs0mg"},{"bike_id":"74c67d55-8a5f-40c9-8066-d68354718f8c","system_id":"levelo_inurba_marseille","lat":43.23189,"lon":5.35555,"is_reserved":false,"is_disabled":false,"rental_uris":{"android":"levelo://app?vid=74c67d55-8a5f-40c9-8066-d68354718f8c","ios":"levelo://app?vid=74c67d55-8a5f-40c9-8066-d68354718f8c"},"vehicle_type_id":"4","last_reported":1726308511,"current_range_meters":26000,"station_id":"ce4bhu92rcd13ifvqi70","pricing_plan_id":"cebpf4jnsgd1na2vs0mg"},{"bike_id":"63e00bcb-368b-405a-bfef-e17356283c35","system_id":"levelo_inurba_marseille","lat":43.26499,"lon":5.39541,"is_reserved":false,"is_disabled":false,"rental_uris":{"android":"levelo://app?vid=63e00bcb-368b-405a-bfef-e17356283c35","ios":"levelo://app?vid=63e00bcb-368b-405a-bfef-e17356283c35"},"vehicle_type_id":"4","last_reported":1726308511,"current_range_meters":32000,"station_id":"ce4bhi12rcd13ifvqfq0","pricing_plan_id":"cebpf4jnsgd1na2vs0mg"},{"bike_id":"bbff06e8-e26c-4f4a-87c2-0dbc5a84f5ee","system_id":"levelo_inurba_marseille","lat":43.30556,"lon":5.36533,"is_reserved":false,"is_disabled":false,"rental_uris":{"android":"levelo://app?vid=bbff06e8-e26c-4f4a-87c2-0dbc5a84f5ee","ios":"levelo://app?vid=bbff06e8-e26c-4f4a-87c2-0dbc5a84f5ee"},"vehicle_type_id":"4","last_reported":1726308511,"current_range_meters":39200,"station_id":"ce4bgs12rcd13ifvqcag","pricing_plan_id":"cebpf4jnsgd1na2vs0mg"},{"bike_id":"7b8f0448-0e62-4ddf-954d-9a1cb08af85d","system_id":"levelo_inurba_marseille","lat":43.28437,"lon":5.39205,"is_reserved":false,"is_disabled":false,"rental_uris":{"android":"levelo://app?vid=7b8f0448-0e62-4ddf-954d-9a1cb08af85d","ios":"levelo://app?vid=7b8f0448-0e62-4ddf-954d-9a1cb08af85d"},"vehicle_type_id":"4","last_reported":1726308511,"current_range_meters":12400,"station_id":"ce4bhoh2rcd13ifvqh5g","pricing_plan_id":"cebpf4jnsgd1na2vs0mg"},{"bike_id":"e6d2b9be-8141-4d34-980d-b8c382f7d74a","system_id":"levelo_inurba_marseille","lat":43.30541,"lon":5.36552,"is_reserved":false,"is_disabled":false,"rental_uris":{"android":"levelo://app?vid=e6d2b9be-8141-4d34-980d-b8c382f7d74a","ios":"levelo://app?vid=e6d2b9be-8141-4d34-980d-b8c382f7d74a"},"vehicle_type_id":"4","last_reported":1726308511,"current_range_meters":34800,"station_id":"ce4bgs12rcd13ifvqcag","pricing_plan_id":"cebpf4jnsgd1na2vs0mg"},{"bike_id":"24674f4b-bcb6-4d3e-a74d-7d8a6acb125c","system_id":"levelo_inurba_marseille","lat":43.24996,"lon":5.38943,"is_reserved":false,"is_disabled":false,"rental_uris":{"android":"levelo://app?vid=24674f4b-bcb6-4d3e-a74d-7d8a6acb125c","ios":"levelo://app?vid=24674f4b-bcb6-4d3e-a74d-7d8a6acb125c"},"vehicle_type_id":"4","last_reported":1726308511,"current_range_meters":27600,"station_id":"ce4bhgp2rcd13ifvqfd0","pricing_plan_id":"cebpf4jnsgd1na2vs0mg"},{"bike_id":"a701c6fe-87bb-45a1-95bf-9b0a32cda324","system_id":"levelo_inurba_marseille","lat":43.30903,"lon":5.36836,"is_reserved":false,"is_disabled":false,"rental_uris":{"android":"levelo://app?vid=a701c6fe-87bb-45a1-95bf-9b0a32cda324","ios":"levelo://app?vid=a701c6fe-87bb-45a1-95bf-9b0a32cda324"},"vehicle_type_id":"4","last_reported":1726308511,"current_range_meters":20400,"station_id":"ce4bgn92rcd13ifvqbvg","pricing_plan_id":"cebpf4jnsgd1na2vs0mg"},{"bike_id":"b3c121d4-4ded-48f7-a589-8d21ce3eb1a9","system_id":"levelo_inurba_marseille","lat":43.24391,"lon":5.37058,"is_reserved":false,"is_disabled":false,"rental_uris":{"android":"levelo://app?vid=b3c121d4-4ded-48f7-a589-8d21ce3eb1a9","ios":"levelo://app?vid=b3c121d4-4ded-48f7-a589-8d21ce3eb1a9"},"vehicle_type_id":"4","last_reported":1726308511,"current_range_meters":15200,"station_id":"ce4bhhh2rcd13ifvqfk0","pricing_plan_id":"cebpf4jnsgd1na2vs0mg"},{"bike_id":"c2783bea-96ba-4a98-9b28-b3e13cfe5c59","system_id":"levelo_inurba_marseille","lat":43.29744,"lon":5.37912,"is_reserved":false,"is_disabled":false,"rental_uris":{"android":"levelo://app?vid=c2783bea-96ba-4a98-9b28-b3e13cfe5c59","ios":"levelo://app?vid=c2783bea-96ba-4a98-9b28-b3e13cfe5c59"},"vehicle_type_id":"4","last_reported":1726308511,"current_range_meters":2000,"station_id":"","pricing_plan_id":"cebpf4jnsgd1na2vs0mg"},{"bike_id":"e1b7e339-05d0-4021-893d-95da1d1b4f3e","system_id":"levelo_inurba_marseille","lat":43.28072,"lon":5.39648,"is_reserved":false,"is_disabled":false,"rental_uris":{"android":"levelo://app?vid=e1b7e339-05d0-4021-893d-95da1d1b4f3e","ios":"levelo://app?vid=e1b7e339-05d0-4021-893d-95da1d1b4f3e"},"vehicle_type_id":"4","last_reported":1726308511,"current_range_meters":24400,"station_id":"ce4bho12rcd13ifvqh2g","pricing_plan_id":"cebpf4jnsgd1na2vs0mg"},{"bike_id":"c00a267b-9f51-4707-9b6f-5420e973cb11","system_id":"levelo_inurba_marseille","lat":43.25724,"lon":5.41108,"is_reserved":false,"is_disabled":false,"rental_uris":{"android":"levelo://app?vid=c00a267b-9f51-4707-9b6f-5420e973cb11","ios":"levelo://app?vid=c00a267b-9f51-4707-9b6f-5420e973cb11"},"vehicle_type_id":"4","last_reported":1726308511,"current_range_meters":28800,"station_id":"ce4bhkp2rcd13ifvqgd0","pricing_plan_id":"cebpf4jnsgd1na2vs0mg"},{"bike_id":"e6bea8cd-bd1a-48c2-8a52-de5e2a98c0f4","system_id":"levelo_inurba_marseille","lat":43.25939,"lon":5.409,"is_reserved":false,"is_disabled":false,"rental_uris":{"android":"levelo://app?vid=e6bea8cd-bd1a-48c2-8a52-de5e2a98c0f4","ios":"levelo://app?vid=e6bea8cd-bd1a-48c2-8a52-de5e2a98c0f4"},"vehicle_type_id":"4","last_reported":1726308511,"current_range_meters":32800,"station_id":"ce4bhm92rcd13ifvqglg","pricing_plan_id":"cebpf4jnsgd1na2vs0mg"},{"bike_id":"9c28ec0f-4c95-4721-aa62-afca5f4a4fb7","system_id":"levelo_inurba_marseille","lat":43.30332,"lon":5.38019,"is_reserved":false,"is_disabled":false,"rental_uris":{"android":"levelo://app?vid=9c28ec0f-4c95-4721-aa62-afca5f4a4fb7","ios":"levelo://app?vid=9c28ec0f-4c95-4721-aa62-afca5f4a4fb7"},"vehicle_type_id":"4","last_reported":1726308511,"current_range_meters":9600,"station_id":"","pricing_plan_id":"cebpf4jnsgd1na2vs0mg"},{"bike_id":"44f09c39-e560-4787-855a-6c24192c7f7b","system_id":"levelo_inurba_marseille","lat":43.33028,"lon":5.39048,"is_reserved":false,"is_disabled":false,"rental_uris":{"android":"levelo://app?vid=44f09c39-e560-4787-855a-6c24192c7f7b","ios":"levelo://app?vid=44f09c39-e560-4787-855a-6c24192c7f7b"},"vehicle_type_id":"4","last_reported":1726308511,"current_range_meters":22000,"station_id":"ce4bhr92rcd13ifvqhrg","pricing_plan_id":"cebpf4jnsgd1na2vs0mg"},{"bike_id":"f6713ad3-7513-48a2-b8ca-11d19bd31ada","system_id":"levelo_inurba_marseille","lat":43.3136,"lon":5.38491,"is_reserved":false,"is_disabled":false,"rental_uris":{"android":"levelo://app?vid=f6713ad3-7513-48a2-b8ca-11d19bd31ada","ios":"levelo://app?vid=f6713ad3-7513-48a2-b8ca-11d19bd31ada"},"vehicle_type_id":"4","last_reported":1726308511,"current_range_meters":29600,"station_id":"ce4bgt92rcd13ifvqcf0","pricing_plan_id":"cebpf4jnsgd1na2vs0mg"},{"bike_id":"7e862e61-75da-4e7f-8e5f-793a48533c82","system_id":"levelo_inurba_marseille","lat":43.24805,"lon":5.37454,"is_reserved":false,"is_disabled":false,"rental_uris":{"android":"levelo://app?vid=7e862e61-75da-4e7f-8e5f-793a48533c82","ios":"levelo://app?vid=7e862e61-75da-4e7f-8e5f-793a48533c82"},"vehicle_type_id":"4","last_reported":1726308511,"current_range_meters":11200,"station_id":"ce4bhgh2rcd13ifvqfb0","pricing_plan_id":"cebpf4jnsgd1na2vs0mg"},{"bike_id":"34721204-9cc8-4128-8304-5b698c26b1e6","system_id":"levelo_inurba_marseille","lat":43.23182,"lon":5.3998,"is_reserved":false,"is_disabled":false,"rental_uris":{"android":"levelo://app?vid=34721204-9cc8-4128-8304-5b698c26b1e6","ios":"levelo://app?vid=34721204-9cc8-4128-8304-5b698c26b1e6"},"vehicle_type_id":"4","last_reported":1726308511,"current_range_meters":38800,"station_id":"ce4bhn12rcd13ifvqgqg","pricing_plan_id":"cebpf4jnsgd1na2vs0mg"},{"bike_id":"7ed33938-c7db-4cac-9cdc-6edba2702770","system_id":"levelo_inurba_marseille","lat":43.31319,"lon":5.39697,"is_reserved":false,"is_disabled":false,"rental_uris":{"android":"levelo://app?vid=7ed33938-c7db-4cac-9cdc-6edba2702770","ios":"levelo://app?vid=7ed33938-c7db-4cac-9cdc-6edba2702770"},"vehicle_type_id":"4","last_reported":1726308511,"current_range_meters":22800,"station_id":"ce4bgvp2rcd13ifvqcu0","pricing_plan_id":"cebpf4jnsgd1na2vs0mg"},{"bike_id":"0124e22a-940d-4592-a669-5febf603375d","system_id":"levelo_inurba_marseille","lat":43.28075,"lon":5.39646,"is_reserved":false,"is_disabled":false,"rental_uris":{"android":"levelo://app?vid=0124e22a-940d-4592-a669-5febf603375d","ios":"levelo://app?vid=0124e22a-940d-4592-a669-5febf603375d"},"vehicle_type_id":"4","last_reported":1726308511,"current_range_meters":38800,"station_id":"ce4bho12rcd13ifvqh2g","pricing_plan_id":"cebpf4jnsgd1na2vs0mg"},{"bike_id":"ad723d0b-19fc-4bd0-8eec-a408c1d7f33b","system_id":"levelo_inurba_marseille","lat":43.25497,"lon":5.37647,"is_reserved":false,"is_disabled":false,"rental_uris":{"android":"levelo://app?vid=ad723d0b-19fc-4bd0-8eec-a408c1d7f33b","ios":"levelo://app?vid=ad723d0b-19fc-4bd0-8eec-a408c1d7f33b"},"vehicle_type_id":"4","last_reported":1726308511,"current_range_meters":33200,"station_id":"ce4bhh12rcd13ifvqff0","pricing_plan_id":"cebpf4jnsgd1na2vs0mg"},{"bike_id":"b3c64ca3-fb28-47f1-8c09-61986e06e763","system_id":"levelo_inurba_marseille","lat":43.29794,"lon":5.38102,"is_reserved":false,"is_disabled":false,"rental_uris":{"android":"levelo://app?vid=b3c64ca3-fb28-47f1-8c09-61986e06e763","ios":"levelo://app?vid=b3c64ca3-fb28-47f1-8c09-61986e06e763"},"vehicle_type_id":"4","last_reported":1726308511,"current_range_meters":38800,"station_id":"ce4bgip2rcd13ifvqbb0","pricing_plan_id":"cebpf4jnsgd1na2vs0mg"},{"bike_id":"151e20e5-6fd3-4eb4-a3da-5c2fa286920a","system_id":"levelo_inurba_marseille","lat":43.28417,"lon":5.34989,"is_reserved":false,"is_disabled":false,"rental_uris":{"android":"levelo://app?vid=151e20e5-6fd3-4eb4-a3da-5c2fa286920a","ios":"levelo://app?vid=151e20e5-6fd3-4eb4-a3da-5c2fa286920a"},"vehicle_type_id":"4","last_reported":1726308511,"current_range_meters":37600,"station_id":"ce4bhbh2rcd13ifvqepg","pricing_plan_id":"cebpf4jnsgd1na2vs0mg"},{"bike_id":"9f170da9-85ae-44f2-9aef-27e2b778f211","system_id":"levelo_inurba_marseille","lat":43.296509,"lon":5.400147,"is_reserved":false,"is_disabled":false,"rental_uris":{"android":"levelo://app?vid=9f170da9-85ae-44f2-9aef-27e2b778f211","ios":"levelo://app?vid=9f170da9-85ae-44f2-9aef-27e2b778f211"},"vehicle_type_id":"4","last_reported":1726308511,"current_range_meters":38400,"station_id":"ce4bh312rcd13ifvqdj0","pricing_plan_id":"cebpf4jnsgd1na2vs0mg"},{"bike_id":"c03fa551-e893-47fb-9ad4-c0c733efd12b","system_id":"levelo_inurba_marseille","lat":43.29437,"lon":5.39755,"is_reserved":false,"is_disabled":false,"rental_uris":{"android":"levelo://app?vid=c03fa551-e893-47fb-9ad4-c0c733efd12b","ios":"levelo://app?vid=c03fa551-e893-47fb-9ad4-c0c733efd12b"},"vehicle_type_id":"4","last_reported":1726308511,"current_range_meters":16400,"station_id":"ce4bh3h2rcd13ifvqdo0","pricing_plan_id":"cebpf4jnsgd1na2vs0mg"},{"bike_id":"fd91b403-f526-48c3-b89c-96d9876a97c7","system_id":"levelo_inurba_marseille","lat":43.2721,"lon":5.39192,"is_reserved":false,"is_disabled":false,"rental_uris":{"android":"levelo://app?vid=fd91b403-f526-48c3-b89c-96d9876a97c7","ios":"levelo://app?vid=fd91b403-f526-48c3-b89c-96d9876a97c7"},"vehicle_type_id":"4","last_reported":1726308511,"current_range_meters":19200,"station_id":"ce4bhhp2rcd13ifvqfm0","pricing_plan_id":"cebpf4jnsgd1na2vs0mg"},{"bike_id":"46cc3877-36d1-49fa-ae53-704c9f61cf67","system_id":"levelo_inurba_marseille","lat":43.30462,"lon":5.37903,"is_reserved":false,"is_disabled":false,"rental_uris":{"android":"levelo://app?vid=46cc3877-36d1-49fa-ae53-704c9f61cf67","ios":"levelo://app?vid=46cc3877-36d1-49fa-ae53-704c9f61cf67"},"vehicle_type_id":"4","last_reported":1726308511,"current_range_meters":26000,"station_id":"ce4bgup2rcd13ifvqcn0","pricing_plan_id":"cebpf4jnsgd1na2vs0mg"},{"bike_id":"9b6951c4-56f4-49d2-8134-d8e9d8ca99b7","system_id":"levelo_inurba_marseille","lat":43.29622,"lon":5.37172,"is_reserved":false,"is_disabled":false,"rental_uris":{"android":"levelo://app?vid=9b6951c4-56f4-49d2-8134-d8e9d8ca99b7","ios":"levelo://app?vid=9b6951c4-56f4-49d2-8134-d8e9d8ca99b7"},"vehicle_type_id":"4","last_reported":1726308511,"current_range_meters":36800,"station_id":"ce4bgnh2rcd13ifvqc0g","pricing_plan_id":"cebpf4jnsgd1na2vs0mg"},{"bike_id":"23df41e1-78a9-4dc6-b5c8-3ea2a5ebb493","system_id":"levelo_inurba_marseille","lat":43.24392,"lon":5.37051,"is_reserved":false,"is_disabled":false,"rental_uris":{"android":"levelo://app?vid=23df41e1-78a9-4dc6-b5c8-3ea2a5ebb493","ios":"levelo://app?vid=23df41e1-78a9-4dc6-b5c8-3ea2a5ebb493"},"vehicle_type_id":"4","last_reported":1726308511,"current_range_meters":28000,"station_id":"ce4bhhh2rcd13ifvqfk0","pricing_plan_id":"cebpf4jnsgd1na2vs0mg"},{"bike_id":"cade2501-95bb-491a-b8de-c573db7615e8","system_id":"levelo_inurba_marseille","lat":43.2749,"lon":5.42454,"is_reserved":false,"is_disabled":false,"rental_uris":{"android":"levelo://app?vid=cade2501-95bb-491a-b8de-c573db7615e8","ios":"levelo://app?vid=cade2501-95bb-491a-b8de-c573db7615e8"},"vehicle_type_id":"4","last_reported":1726308511,"current_range_meters":38800,"station_id":"ce4bhn92rcd13ifvqgrg","pricing_plan_id":"cebpf4jnsgd1na2vs0mg"},{"bike_id":"167dcbe0-0b8e-498d-a7a8-f00bd5343840","system_id":"levelo_inurba_marseille","lat":43.27675,"lon":5.38948,"is_reserved":false,"is_disabled":false,"rental_uris":{"android":"levelo://app?vid=167dcbe0-0b8e-498d-a7a8-f00bd5343840","ios":"levelo://app?vid=167dcbe0-0b8e-498d-a7a8-f00bd5343840"},"vehicle_type_id":"4","last_reported":1726308511,"current_range_meters":34000,"station_id":"ce4bh512rcd13ifvqe2g","pricing_plan_id":"cebpf4jnsgd1na2vs0mg"},{"bike_id":"28e30fa6-be7f-4a31-a2e0-4418b4e72d15","system_id":"levelo_inurba_marseille","lat":43.31363,"lon":5.38497,"is_reserved":false,"is_disabled":false,"rental_uris":{"android":"levelo://app?vid=28e30fa6-be7f-4a31-a2e0-4418b4e72d15","ios":"levelo://app?vid=28e30fa6-be7f-4a31-a2e0-4418b4e72d15"},"vehicle_type_id":"4","last_reported":1726308511,"current_range_meters":25600,"station_id":"ce4bgt92rcd13ifvqcf0","pricing_plan_id":"cebpf4jnsgd1na2vs0mg"},{"bike_id":"3ff49cd6-2a38-448d-a324-90182f8f251b","system_id":"levelo_inurba_marseille","lat":43.305504,"lon":5.365285,"is_reserved":false,"is_disabled":false,"rental_uris":{"android":"levelo://app?vid=3ff49cd6-2a38-448d-a324-90182f8f251b","ios":"levelo://app?vid=3ff49cd6-2a38-448d-a324-90182f8f251b"},"vehicle_type_id":"4","last_reported":1726308511,"current_range_meters":26800,"station_id":"ce4bgs12rcd13ifvqcag","pricing_plan_id":"cebpf4jnsgd1na2vs0mg"},{"bike_id":"dbc5e236-e325-4b10-b35b-2dfae7a1bac7","system_id":"levelo_inurba_marseille","lat":43.23192,"lon":5.39984,"is_reserved":false,"is_disabled":false,"rental_uris":{"android":"levelo://app?vid=dbc5e236-e325-4b10-b35b-2dfae7a1bac7","ios":"levelo://app?vid=dbc5e236-e325-4b10-b35b-2dfae7a1bac7"},"vehicle_type_id":"4","last_reported":1726308511,"current_range_meters":8800,"station_id":"ce4bhn12rcd13ifvqgqg","pricing_plan_id":"cebpf4jnsgd1na2vs0mg"},{"bike_id":"cdef0686-2dc7-487e-bb9f-c214262370fb","system_id":"levelo_inurba_marseille","lat":43.303101,"lon":5.402479,"is_reserved":false,"is_disabled":false,"rental_uris":{"android":"levelo://app?vid=cdef0686-2dc7-487e-bb9f-c214262370fb","ios":"levelo://app?vid=cdef0686-2dc7-487e-bb9f-c214262370fb"},"vehicle_type_id":"4","last_reported":1726308511,"current_range_meters":30800,"station_id":"ce4bh0h2rcd13ifvqd60","pricing_plan_id":"cebpf4jnsgd1na2vs0mg"},{"bike_id":"eaf3218e-3b2a-4dde-9c15-99a6c4254e56","system_id":"levelo_inurba_marseille","lat":43.29898,"lon":5.43657,"is_reserved":false,"is_disabled":false,"rental_uris":{"android":"levelo://app?vid=eaf3218e-3b2a-4dde-9c15-99a6c4254e56","ios":"levelo://app?vid=eaf3218e-3b2a-4dde-9c15-99a6c4254e56"},"vehicle_type_id":"4","last_reported":1726308511,"current_range_meters":38800,"station_id":"ce4bhpp2rcd13ifvqhfg","pricing_plan_id":"cebpf4jnsgd1na2vs0mg"},{"bike_id":"a03a0ae7-946e-441a-8e2d-f41af6552839","system_id":"levelo_inurba_marseille","lat":43.30466,"lon":5.37912,"is_reserved":false,"is_disabled":false,"rental_uris":{"android":"levelo://app?vid=a03a0ae7-946e-441a-8e2d-f41af6552839","ios":"levelo://app?vid=a03a0ae7-946e-441a-8e2d-f41af6552839"},"vehicle_type_id":"4","last_reported":1726308511,"current_range_meters":22000,"station_id":"ce4bgup2rcd13ifvqcn0","pricing_plan_id":"cebpf4jnsgd1na2vs0mg"},{"bike_id":"3ebe834e-6547-4974-b9cc-dd70adefa392","system_id":"levelo_inurba_marseille","lat":43.32365,"lon":5.38886,"is_reserved":false,"is_disabled":false,"rental_uris":{"android":"levelo://app?vid=3ebe834e-6547-4974-b9cc-dd70adefa392","ios":"levelo://app?vid=3ebe834e-6547-4974-b9cc-dd70adefa392"},"vehicle_type_id":"4","last_reported":1726308511,"current_range_meters":11600,"station_id":"ce4bhqp2rcd13ifvqhog","pricing_plan_id":"cebpf4jnsgd1na2vs0mg"},{"bike_id":"16ca6d91-7513-415c-9a61-5d33eb8ad677","system_id":"levelo_inurba_marseille","lat":43.22934,"lon":5.35374,"is_reserved":false,"is_disabled":false,"rental_uris":{"android":"levelo://app?vid=16ca6d91-7513-415c-9a61-5d33eb8ad677","ios":"levelo://app?vid=16ca6d91-7513-415c-9a61-5d33eb8ad677"},"vehicle_type_id":"4","last_reported":1726308511,"current_range_meters":22800,"station_id":"cpo3532slgdg3j2ikp40","pricing_plan_id":"cebpf4jnsgd1na2vs0mg"},{"bike_id":"4f3610d8-0f1e-42c2-a70b-a788cb60d0c5","system_id":"levelo_inurba_marseille","lat":43.29431,"lon":5.39754,"is_reserved":false,"is_disabled":false,"rental_uris":{"android":"levelo://app?vid=4f3610d8-0f1e-42c2-a70b-a788cb60d0c5","ios":"levelo://app?vid=4f3610d8-0f1e-42c2-a70b-a788cb60d0c5"},"vehicle_type_id":"4","last_reported":1726308511,"current_range_meters":10800,"station_id":"ce4bh3h2rcd13ifvqdo0","pricing_plan_id":"cebpf4jnsgd1na2vs0mg"},{"bike_id":"10cedbb4-1c1f-4b0e-acdf-6f0391c23bdc","system_id":"levelo_inurba_marseille","lat":43.28036,"lon":5.36934,"is_reserved":false,"is_disabled":false,"rental_uris":{"android":"levelo://app?vid=10cedbb4-1c1f-4b0e-acdf-6f0391c23bdc","ios":"levelo://app?vid=10cedbb4-1c1f-4b0e-acdf-6f0391c23bdc"},"vehicle_type_id":"4","last_reported":1726308511,"current_range_meters":6800,"station_id":"ce4bha12rcd13ifvqef0","pricing_plan_id":"cebpf4jnsgd1na2vs0mg"},{"bike_id":"12823922-388d-4e91-9b37-f6b4da0c5e53","system_id":"levelo_inurba_marseille","lat":43.24672,"lon":5.38163,"is_reserved":false,"is_disabled":false,"rental_uris":{"android":"levelo://app?vid=12823922-388d-4e91-9b37-f6b4da0c5e53","ios":"levelo://app?vid=12823922-388d-4e91-9b37-f6b4da0c5e53"},"vehicle_type_id":"4","last_reported":1726308511,"current_range_meters":37600,"station_id":"ce4bhih2rcd13ifvqfr0","pricing_plan_id":"cebpf4jnsgd1na2vs0mg"},{"bike_id":"8dbef727-3abe-4559-9357-508168275edd","system_id":"levelo_inurba_marseille","lat":43.24082,"lon":5.37745,"is_reserved":false,"is_disabled":false,"rental_uris":{"android":"levelo://app?vid=8dbef727-3abe-4559-9357-508168275edd","ios":"levelo://app?vid=8dbef727-3abe-4559-9357-508168275edd"},"vehicle_type_id":"4","last_reported":1726308511,"current_range_meters":26800,"station_id":"ce4bhnp2rcd13ifvqgvg","pricing_plan_id":"cebpf4jnsgd1na2vs0mg"},{"bike_id":"92953846-fb47-4a2e-9d8c-0c99f59c2fc6","system_id":"levelo_inurba_marseille","lat":43.2931,"lon":5.37167,"is_reserved":false,"is_disabled":false,"rental_uris":{"android":"levelo://app?vid=92953846-fb47-4a2e-9d8c-0c99f59c2fc6","ios":"levelo://app?vid=92953846-fb47-4a2e-9d8c-0c99f59c2fc6"},"vehicle_type_id":"4","last_reported":1726308511,"current_range_meters":33600,"station_id":"ce4bgh92rcd13ifvqb40","pricing_plan_id":"cebpf4jnsgd1na2vs0mg"},{"bike_id":"f4c36463-ddf2-4e8a-90a8-c12391e72ce0","system_id":"levelo_inurba_marseille","lat":43.28267,"lon":5.35076,"is_reserved":false,"is_disabled":false,"rental_uris":{"android":"levelo://app?vid=f4c36463-ddf2-4e8a-90a8-c12391e72ce0","ios":"levelo://app?vid=f4c36463-ddf2-4e8a-90a8-c12391e72ce0"},"vehicle_type_id":"4","last_reported":1726308511,"current_range_meters":9600,"station_id":"ce4bhbp2rcd13ifvqerg","pricing_plan_id":"cebpf4jnsgd1na2vs0mg"},{"bike_id":"ce45b02b-b167-4654-b305-eb82cd566863","system_id":"levelo_inurba_marseille","lat":43.23195,"lon":5.35561,"is_reserved":false,"is_disabled":false,"rental_uris":{"android":"levelo://app?vid=ce45b02b-b167-4654-b305-eb82cd566863","ios":"levelo://app?vid=ce45b02b-b167-4654-b305-eb82cd566863"},"vehicle_type_id":"4","last_reported":1726308511,"current_range_meters":26800,"station_id":"ce4bhu92rcd13ifvqi70","pricing_plan_id":"cebpf4jnsgd1na2vs0mg"},{"bike_id":"17d98c94-7ef9-4977-99cb-b3bf6932fcd4","system_id":"levelo_inurba_marseille","lat":43.302502,"lon":5.400797,"is_reserved":false,"is_disabled":false,"rental_uris":{"android":"levelo://app?vid=17d98c94-7ef9-4977-99cb-b3bf6932fcd4","ios":"levelo://app?vid=17d98c94-7ef9-4977-99cb-b3bf6932fcd4"},"vehicle_type_id":"4","last_reported":1726308511,"current_range_meters":38000,"station_id":"ce4bgvh2rcd13ifvqcs0","pricing_plan_id":"cebpf4jnsgd1na2vs0mg"},{"bike_id":"adcb2799-f98b-4211-8486-bfe52e35b9d0","system_id":"levelo_inurba_marseille","lat":43.295563,"lon":5.394924,"is_reserved":false,"is_disabled":false,"rental_uris":{"android":"levelo://app?vid=adcb2799-f98b-4211-8486-bfe52e35b9d0","ios":"levelo://app?vid=adcb2799-f98b-4211-8486-bfe52e35b9d0"},"vehicle_type_id":"4","last_reported":1726308511,"current_range_meters":31200,"station_id":"ce4bh092rcd13ifvqd20","pricing_plan_id":"cebpf4jnsgd1na2vs0mg"},{"bike_id":"fe1b4570-ae08-4fd8-95d8-351879e12f8a","system_id":"levelo_inurba_marseille","lat":43.32046,"lon":5.41528,"is_reserved":false,"is_disabled":false,"rental_uris":{"android":"levelo://app?vid=fe1b4570-ae08-4fd8-95d8-351879e12f8a","ios":"levelo://app?vid=fe1b4570-ae08-4fd8-95d8-351879e12f8a"},"vehicle_type_id":"4","last_reported":1726308511,"current_range_meters":36800,"station_id":"ce4bhq92rcd13ifvqhkg","pricing_plan_id":"cebpf4jnsgd1na2vs0mg"},{"bike_id":"43fdcb14-ac18-4289-83f9-be7bf1bd4e28","system_id":"levelo_inurba_marseille","lat":43.28991,"lon":5.35605,"is_reserved":false,"is_disabled":false,"rental_uris":{"android":"levelo://app?vid=43fdcb14-ac18-4289-83f9-be7bf1bd4e28","ios":"levelo://app?vid=43fdcb14-ac18-4289-83f9-be7bf1bd4e28"},"vehicle_type_id":"4","last_reported":1726308511,"current_range_meters":38800,"station_id":"ce4bhb92rcd13ifvqen0","pricing_plan_id":"cebpf4jnsgd1na2vs0mg"},{"bike_id":"7360b60f-035d-4b2d-8d84-55384039775e","system_id":"levelo_inurba_marseille","lat":43.27999,"lon":5.40016,"is_reserved":false,"is_disabled":false,"rental_uris":{"android":"levelo://app?vid=7360b60f-035d-4b2d-8d84-55384039775e","ios":"levelo://app?vid=7360b60f-035d-4b2d-8d84-55384039775e"},"vehicle_type_id":"4","last_reported":1726308511,"current_range_meters":36000,"station_id":"ce4bho92rcd13ifvqh4g","pricing_plan_id":"cebpf4jnsgd1na2vs0mg"},{"bike_id":"920ab188-b742-46ff-82da-fa33f8f84c2e","system_id":"levelo_inurba_marseille","lat":43.23067,"lon":5.35496,"is_reserved":false,"is_disabled":false,"rental_uris":{"android":"levelo://app?vid=920ab188-b742-46ff-82da-fa33f8f84c2e","ios":"levelo://app?vid=920ab188-b742-46ff-82da-fa33f8f84c2e"},"vehicle_type_id":"4","last_reported":1726308511,"current_range_meters":25600,"station_id":"cpo3342slgdg3j2ifvpg","pricing_plan_id":"cebpf4jnsgd1na2vs0mg"},{"bike_id":"91e5d359-0ebb-406d-8593-1760bc320986","system_id":"levelo_inurba_marseille","lat":43.29522,"lon":5.39037,"is_reserved":false,"is_disabled":false,"rental_uris":{"android":"levelo://app?vid=91e5d359-0ebb-406d-8593-1760bc320986","ios":"levelo://app?vid=91e5d359-0ebb-406d-8593-1760bc320986"},"vehicle_type_id":"4","last_reported":1726308511,"current_range_meters":28400,"station_id":"ce4bh3p2rcd13ifvqdp0","pricing_plan_id":"cebpf4jnsgd1na2vs0mg"},{"bike_id":"a4b844b7-7a6f-4640-8855-fe0618daaeae","system_id":"levelo_inurba_marseille","lat":43.305948,"lon":5.393636,"is_reserved":false,"is_disabled":false,"rental_uris":{"android":"levelo://app?vid=a4b844b7-7a6f-4640-8855-fe0618daaeae","ios":"levelo://app?vid=a4b844b7-7a6f-4640-8855-fe0618daaeae"},"vehicle_type_id":"4","last_reported":1726308511,"current_range_meters":19200,"station_id":"ce4bh0p2rcd13ifvqd80","pricing_plan_id":"cebpf4jnsgd1na2vs0mg"},{"bike_id":"26db0265-0a91-4c66-8aa8-67a94f7eef0d","system_id":"levelo_inurba_marseille","lat":43.26939,"lon":5.40059,"is_reserved":false,"is_disabled":false,"rental_uris":{"android":"levelo://app?vid=26db0265-0a91-4c66-8aa8-67a94f7eef0d","ios":"levelo://app?vid=26db0265-0a91-4c66-8aa8-67a94f7eef0d"},"vehicle_type_id":"4","last_reported":1726308511,"current_range_meters":17600,"station_id":"","pricing_plan_id":"cebpf4jnsgd1na2vs0mg"},{"bike_id":"9b49fc06-69dc-4375-9bc8-2ab31283d424","system_id":"levelo_inurba_marseille","lat":43.299,"lon":5.43666,"is_reserved":false,"is_disabled":false,"rental_uris":{"android":"levelo://app?vid=9b49fc06-69dc-4375-9bc8-2ab31283d424","ios":"levelo://app?vid=9b49fc06-69dc-4375-9bc8-2ab31283d424"},"vehicle_type_id":"4","last_reported":1726308511,"current_range_meters":33200,"station_id":"ce4bhpp2rcd13ifvqhfg","pricing_plan_id":"cebpf4jnsgd1na2vs0mg"},{"bike_id":"4d75d199-02f1-485e-aa16-89176ed2c212","system_id":"levelo_inurba_marseille","lat":43.31173,"lon":5.39343,"is_reserved":false,"is_disabled":false,"rental_uris":{"android":"levelo://app?vid=4d75d199-02f1-485e-aa16-89176ed2c212","ios":"levelo://app?vid=4d75d199-02f1-485e-aa16-89176ed2c212"},"vehicle_type_id":"4","last_reported":1726308511,"current_range_meters":27600,"station_id":"","pricing_plan_id":"cebpf4jnsgd1na2vs0mg"},{"bike_id":"0e59936b-2cb0-40ad-87e8-203ca2744bf3","system_id":"levelo_inurba_marseille","lat":43.293671,"lon":5.378492,"is_reserved":false,"is_disabled":false,"rental_uris":{"android":"levelo://app?vid=0e59936b-2cb0-40ad-87e8-203ca2744bf3","ios":"levelo://app?vid=0e59936b-2cb0-40ad-87e8-203ca2744bf3"},"vehicle_type_id":"4","last_reported":1726308511,"current_range_meters":33200,"station_id":"ce4bgjh2rcd13ifvqbf0","pricing_plan_id":"cebpf4jnsgd1na2vs0mg"},{"bike_id":"bfb40118-1a1a-4aec-9b1e-92d44aceadd6","system_id":"levelo_inurba_marseille","lat":43.297083,"lon":5.376864,"is_reserved":false,"is_disabled":false,"rental_uris":{"android":"levelo://app?vid=bfb40118-1a1a-4aec-9b1e-92d44aceadd6","ios":"levelo://app?vid=bfb40118-1a1a-4aec-9b1e-92d44aceadd6"},"vehicle_type_id":"4","last_reported":1726308511,"current_range_meters":32800,"station_id":"ce4bgkh2rcd13ifvqbl0","pricing_plan_id":"cebpf4jnsgd1na2vs0mg"},{"bike_id":"c7cd67a6-2f65-43e6-9e58-1489cab32866","system_id":"levelo_inurba_marseille","lat":43.24168,"lon":5.36397,"is_reserved":false,"is_disabled":false,"rental_uris":{"android":"levelo://app?vid=c7cd67a6-2f65-43e6-9e58-1489cab32866","ios":"levelo://app?vid=c7cd67a6-2f65-43e6-9e58-1489cab32866"},"vehicle_type_id":"4","last_reported":1726308511,"current_range_meters":38800,"station_id":"cpo36qri1sfpv3e86is0","pricing_plan_id":"cebpf4jnsgd1na2vs0mg"},{"bike_id":"1378d9b7-aa84-48e9-9c1b-9b129112f4dc","system_id":"levelo_inurba_marseille","lat":43.28612,"lon":5.35092,"is_reserved":false,"is_disabled":false,"rental_uris":{"android":"levelo://app?vid=1378d9b7-aa84-48e9-9c1b-9b129112f4dc","ios":"levelo://app?vid=1378d9b7-aa84-48e9-9c1b-9b129112f4dc"},"vehicle_type_id":"4","last_reported":1726308511,"current_range_meters":30000,"station_id":"ce4bhch2rcd13ifvqeug","pricing_plan_id":"cebpf4jnsgd1na2vs0mg"},{"bike_id":"29630ce8-9731-4825-b46c-649b98b42a5a","system_id":"levelo_inurba_marseille","lat":43.30152,"lon":5.38088,"is_reserved":false,"is_disabled":false,"rental_uris":{"android":"levelo://app?vid=29630ce8-9731-4825-b46c-649b98b42a5a","ios":"levelo://app?vid=29630ce8-9731-4825-b46c-649b98b42a5a"},"vehicle_type_id":"4","last_reported":1726308511,"current_range_meters":27200,"station_id":"ce4bgjp2rcd13ifvqbh0","pricing_plan_id":"cebpf4jnsgd1na2vs0mg"},{"bike_id":"a3a9dae5-ec07-44c5-a17c-64dff4681462","system_id":"levelo_inurba_marseille","lat":43.25499,"lon":5.37651,"is_reserved":false,"is_disabled":false,"rental_uris":{"android":"levelo://app?vid=a3a9dae5-ec07-44c5-a17c-64dff4681462","ios":"levelo://app?vid=a3a9dae5-ec07-44c5-a17c-64dff4681462"},"vehicle_type_id":"4","last_reported":1726308511,"current_range_meters":35600,"station_id":"ce4bhh12rcd13ifvqff0","pricing_plan_id":"cebpf4jnsgd1na2vs0mg"},{"bike_id":"02092a38-546f-4b64-9ad0-5742c060056e","system_id":"levelo_inurba_marseille","lat":43.29371,"lon":5.37858,"is_reserved":false,"is_disabled":false,"rental_uris":{"android":"levelo://app?vid=02092a38-546f-4b64-9ad0-5742c060056e","ios":"levelo://app?vid=02092a38-546f-4b64-9ad0-5742c060056e"},"vehicle_type_id":"4","last_reported":1726308511,"current_range_meters":36800,"station_id":"ce4bgjh2rcd13ifvqbf0","pricing_plan_id":"cebpf4jnsgd1na2vs0mg"},{"bike_id":"e00d038a-00c7-4258-ab4b-259bdb081cfd","system_id":"levelo_inurba_marseille","lat":43.23192,"lon":5.35547,"is_reserved":false,"is_disabled":false,"rental_uris":{"android":"levelo://app?vid=e00d038a-00c7-4258-ab4b-259bdb081cfd","ios":"levelo://app?vid=e00d038a-00c7-4258-ab4b-259bdb081cfd"},"vehicle_type_id":"4","last_reported":1726308511,"current_range_meters":36400,"station_id":"ce4bhu92rcd13ifvqi70","pricing_plan_id":"cebpf4jnsgd1na2vs0mg"},{"bike_id":"4f847161-8733-40c0-9d1a-924c211b3057","system_id":"levelo_inurba_marseille","lat":43.23194,"lon":5.35551,"is_reserved":false,"is_disabled":false,"rental_uris":{"android":"levelo://app?vid=4f847161-8733-40c0-9d1a-924c211b3057","ios":"levelo://app?vid=4f847161-8733-40c0-9d1a-924c211b3057"},"vehicle_type_id":"4","last_reported":1726308511,"current_range_meters":38000,"station_id":"ce4bhu92rcd13ifvqi70","pricing_plan_id":"cebpf4jnsgd1na2vs0mg"},{"bike_id":"05ed5f33-71e8-43e5-bfe2-b8d2f324e6ff","system_id":"levelo_inurba_marseille","lat":43.27206,"lon":5.39176,"is_reserved":false,"is_disabled":false,"rental_uris":{"android":"levelo://app?vid=05ed5f33-71e8-43e5-bfe2-b8d2f324e6ff","ios":"levelo://app?vid=05ed5f33-71e8-43e5-bfe2-b8d2f324e6ff"},"vehicle_type_id":"4","last_reported":1726308511,"current_range_meters":12000,"station_id":"ce4bhhp2rcd13ifvqfm0","pricing_plan_id":"cebpf4jnsgd1na2vs0mg"},{"bike_id":"8ce4abbe-aae7-434c-b92a-9bec98856472","system_id":"levelo_inurba_marseille","lat":43.25577,"lon":5.38234,"is_reserved":false,"is_disabled":false,"rental_uris":{"android":"levelo://app?vid=8ce4abbe-aae7-434c-b92a-9bec98856472","ios":"levelo://app?vid=8ce4abbe-aae7-434c-b92a-9bec98856472"},"vehicle_type_id":"4","last_reported":1726308511,"current_range_meters":19600,"station_id":"ce4bhih2rcd13ifvqfs0","pricing_plan_id":"cebpf4jnsgd1na2vs0mg"},{"bike_id":"bc228a8b-5182-46d0-884a-049cfc5937a9","system_id":"levelo_inurba_marseille","lat":43.30596,"lon":5.3935,"is_reserved":false,"is_disabled":false,"rental_uris":{"android":"levelo://app?vid=bc228a8b-5182-46d0-884a-049cfc5937a9","ios":"levelo://app?vid=bc228a8b-5182-46d0-884a-049cfc5937a9"},"vehicle_type_id":"4","last_reported":1726308511,"current_range_meters":34000,"station_id":"ce4bh0p2rcd13ifvqd80","pricing_plan_id":"cebpf4jnsgd1na2vs0mg"},{"bike_id":"6bd1576a-e467-440f-aff2-c72956e0823a","system_id":"levelo_inurba_marseille","lat":43.30433,"lon":5.38892,"is_reserved":false,"is_disabled":false,"rental_uris":{"android":"levelo://app?vid=6bd1576a-e467-440f-aff2-c72956e0823a","ios":"levelo://app?vid=6bd1576a-e467-440f-aff2-c72956e0823a"},"vehicle_type_id":"4","last_reported":1726308511,"current_range_meters":38800,"station_id":"ce4bgk12rcd13ifvqbi0","pricing_plan_id":"cebpf4jnsgd1na2vs0mg"},{"bike_id":"8acc2489-6139-4244-afff-2e0a167a395a","system_id":"levelo_inurba_marseille","lat":43.30551,"lon":5.3653,"is_reserved":false,"is_disabled":false,"rental_uris":{"android":"levelo://app?vid=8acc2489-6139-4244-afff-2e0a167a395a","ios":"levelo://app?vid=8acc2489-6139-4244-afff-2e0a167a395a"},"vehicle_type_id":"4","last_reported":1726308511,"current_range_meters":24400,"station_id":"ce4bgs12rcd13ifvqcag","pricing_plan_id":"cebpf4jnsgd1na2vs0mg"},{"bike_id":"e49e0e63-4a78-4593-8d17-e59df6861fc6","system_id":"levelo_inurba_marseille","lat":43.23143,"lon":5.43726,"is_reserved":false,"is_disabled":false,"rental_uris":{"android":"levelo://app?vid=e49e0e63-4a78-4593-8d17-e59df6861fc6","ios":"levelo://app?vid=e49e0e63-4a78-4593-8d17-e59df6861fc6"},"vehicle_type_id":"4","last_reported":1726308511,"current_range_meters":39200,"station_id":"ce4bhmp2rcd13ifvqgog","pricing_plan_id":"cebpf4jnsgd1na2vs0mg"},{"bike_id":"a3b6e75f-7f23-467c-9e34-59b21486d6b6","system_id":"levelo_inurba_marseille","lat":43.29956,"lon":5.41317,"is_reserved":false,"is_disabled":false,"rental_uris":{"android":"levelo://app?vid=a3b6e75f-7f23-467c-9e34-59b21486d6b6","ios":"levelo://app?vid=a3b6e75f-7f23-467c-9e34-59b21486d6b6"},"vehicle_type_id":"4","last_reported":1726308511,"current_range_meters":21600,"station_id":"ce4bhp12rcd13ifvqh9g","pricing_plan_id":"cebpf4jnsgd1na2vs0mg"},{"bike_id":"9e6b05d9-5b9e-4e8c-a7ed-a6aa23fe9a42","system_id":"levelo_inurba_marseille","lat":43.28608,"lon":5.35104,"is_reserved":false,"is_disabled":false,"rental_uris":{"android":"levelo://app?vid=9e6b05d9-5b9e-4e8c-a7ed-a6aa23fe9a42","ios":"levelo://app?vid=9e6b05d9-5b9e-4e8c-a7ed-a6aa23fe9a42"},"vehicle_type_id":"4","last_reported":1726308511,"current_range_meters":28000,"station_id":"ce4bhch2rcd13ifvqeug","pricing_plan_id":"cebpf4jnsgd1na2vs0mg"},{"bike_id":"7832068e-cb42-4de0-b6b2-e8ebbbbcfb22","system_id":"levelo_inurba_marseille","lat":43.23968,"lon":5.36635,"is_reserved":false,"is_disabled":false,"rental_uris":{"android":"levelo://app?vid=7832068e-cb42-4de0-b6b2-e8ebbbbcfb22","ios":"levelo://app?vid=7832068e-cb42-4de0-b6b2-e8ebbbbcfb22"},"vehicle_type_id":"4","last_reported":1726308511,"current_range_meters":39200,"station_id":"ce4bhi12rcd13ifvqfp0","pricing_plan_id":"cebpf4jnsgd1na2vs0mg"},{"bike_id":"692a548b-dcff-47c3-8de7-2a5894122f3e","system_id":"levelo_inurba_marseille","lat":43.30951,"lon":5.39048,"is_reserved":false,"is_disabled":false,"rental_uris":{"android":"levelo://app?vid=692a548b-dcff-47c3-8de7-2a5894122f3e","ios":"levelo://app?vid=692a548b-dcff-47c3-8de7-2a5894122f3e"},"vehicle_type_id":"4","last_reported":1726308511,"current_range_meters":20400,"station_id":"ce4bgup2rcd13ifvqco0","pricing_plan_id":"cebpf4jnsgd1na2vs0mg"},{"bike_id":"7d61f96e-3af9-4905-8791-7729f86bc4f8","system_id":"levelo_inurba_marseille","lat":43.32485,"lon":5.36572,"is_reserved":false,"is_disabled":false,"rental_uris":{"android":"levelo://app?vid=7d61f96e-3af9-4905-8791-7729f86bc4f8","ios":"levelo://app?vid=7d61f96e-3af9-4905-8791-7729f86bc4f8"},"vehicle_type_id":"4","last_reported":1726308511,"current_range_meters":9600,"station_id":"ce4bhs12rcd13ifvqhvg","pricing_plan_id":"cebpf4jnsgd1na2vs0mg"},{"bike_id":"5f73522a-6d77-4158-aee6-8c14f8a47df1","system_id":"levelo_inurba_marseille","lat":43.25579,"lon":5.3824,"is_reserved":false,"is_disabled":false,"rental_uris":{"android":"levelo://app?vid=5f73522a-6d77-4158-aee6-8c14f8a47df1","ios":"levelo://app?vid=5f73522a-6d77-4158-aee6-8c14f8a47df1"},"vehicle_type_id":"4","last_reported":1726308511,"current_range_meters":24000,"station_id":"ce4bhih2rcd13ifvqfs0","pricing_plan_id":"cebpf4jnsgd1na2vs0mg"},{"bike_id":"bd733ee2-da49-4c8b-871d-66718d075a25","system_id":"levelo_inurba_marseille","lat":43.26932,"lon":5.38918,"is_reserved":false,"is_disabled":false,"rental_uris":{"android":"levelo://app?vid=bd733ee2-da49-4c8b-871d-66718d075a25","ios":"levelo://app?vid=bd733ee2-da49-4c8b-871d-66718d075a25"},"vehicle_type_id":"4","last_reported":1726308511,"current_range_meters":17200,"station_id":"ce4bhhh2rcd13ifvqfl0","pricing_plan_id":"cebpf4jnsgd1na2vs0mg"},{"bike_id":"51efaa28-be78-438d-9593-a5c65646c0fd","system_id":"levelo_inurba_marseille","lat":43.25932,"lon":5.40909,"is_reserved":false,"is_disabled":false,"rental_uris":{"android":"levelo://app?vid=51efaa28-be78-438d-9593-a5c65646c0fd","ios":"levelo://app?vid=51efaa28-be78-438d-9593-a5c65646c0fd"},"vehicle_type_id":"4","last_reported":1726308511,"current_range_meters":34800,"station_id":"ce4bhm92rcd13ifvqglg","pricing_plan_id":"cebpf4jnsgd1na2vs0mg"},{"bike_id":"21f1670a-78a5-44cc-b6c0-5152ed0c65f9","system_id":"levelo_inurba_marseille","lat":43.2762,"lon":5.36112,"is_reserved":false,"is_disabled":false,"rental_uris":{"android":"levelo://app?vid=21f1670a-78a5-44cc-b6c0-5152ed0c65f9","ios":"levelo://app?vid=21f1670a-78a5-44cc-b6c0-5152ed0c65f9"},"vehicle_type_id":"4","last_reported":1726308511,"current_range_meters":38800,"station_id":"ce4bgj92rcd13ifvqbe0","pricing_plan_id":"cebpf4jnsgd1na2vs0mg"},{"bike_id":"0dcb0cf3-4f84-446d-80df-3d7a71fc7f35","system_id":"levelo_inurba_marseille","lat":43.26495,"lon":5.39544,"is_reserved":false,"is_disabled":false,"rental_uris":{"android":"levelo://app?vid=0dcb0cf3-4f84-446d-80df-3d7a71fc7f35","ios":"levelo://app?vid=0dcb0cf3-4f84-446d-80df-3d7a71fc7f35"},"vehicle_type_id":"4","last_reported":1726308511,"current_range_meters":37600,"station_id":"ce4bhi12rcd13ifvqfq0","pricing_plan_id":"cebpf4jnsgd1na2vs0mg"},{"bike_id":"39088654-1493-49de-a50e-7af120c7f37c","system_id":"levelo_inurba_marseille","lat":43.2396,"lon":5.3663,"is_reserved":false,"is_disabled":false,"rental_uris":{"android":"levelo://app?vid=39088654-1493-49de-a50e-7af120c7f37c","ios":"levelo://app?vid=39088654-1493-49de-a50e-7af120c7f37c"},"vehicle_type_id":"4","last_reported":1726308511,"current_range_meters":38000,"station_id":"ce4bhi12rcd13ifvqfp0","pricing_plan_id":"cebpf4jnsgd1na2vs0mg"},{"bike_id":"1238613a-5efd-4b1b-b7cc-529d0a2a4cc8","system_id":"levelo_inurba_marseille","lat":43.2836,"lon":5.3863,"is_reserved":false,"is_disabled":false,"rental_uris":{"android":"levelo://app?vid=1238613a-5efd-4b1b-b7cc-529d0a2a4cc8","ios":"levelo://app?vid=1238613a-5efd-4b1b-b7cc-529d0a2a4cc8"},"vehicle_type_id":"4","last_reported":1726308511,"current_range_meters":24400,"station_id":"ce4bh492rcd13ifvqdvg","pricing_plan_id":"cebpf4jnsgd1na2vs0mg"},{"bike_id":"edcdd66b-fe1d-479a-b4d9-d2a7476c64a7","system_id":"levelo_inurba_marseille","lat":43.29291,"lon":5.37468,"is_reserved":false,"is_disabled":false,"rental_uris":{"android":"levelo://app?vid=edcdd66b-fe1d-479a-b4d9-d2a7476c64a7","ios":"levelo://app?vid=edcdd66b-fe1d-479a-b4d9-d2a7476c64a7"},"vehicle_type_id":"4","last_reported":1726308511,"current_range_meters":19600,"station_id":"ce4bgi12rcd13ifvqb70","pricing_plan_id":"cebpf4jnsgd1na2vs0mg"},{"bike_id":"f1409f60-76f3-4334-898a-55e433cde666","system_id":"levelo_inurba_marseille","lat":43.26635,"lon":5.40182,"is_reserved":false,"is_disabled":false,"rental_uris":{"android":"levelo://app?vid=f1409f60-76f3-4334-898a-55e433cde666","ios":"levelo://app?vid=f1409f60-76f3-4334-898a-55e433cde666"},"vehicle_type_id":"4","last_reported":1726308511,"current_range_meters":33600,"station_id":"","pricing_plan_id":"cebpf4jnsgd1na2vs0mg"},{"bike_id":"3b04105b-3d4a-4d6b-a0c7-58da2ab327f7","system_id":"levelo_inurba_marseille","lat":43.30148,"lon":5.38088,"is_reserved":false,"is_disabled":false,"rental_uris":{"android":"levelo://app?vid=3b04105b-3d4a-4d6b-a0c7-58da2ab327f7","ios":"levelo://app?vid=3b04105b-3d4a-4d6b-a0c7-58da2ab327f7"},"vehicle_type_id":"4","last_reported":1726308511,"current_range_meters":8400,"station_id":"ce4bgjp2rcd13ifvqbh0","pricing_plan_id":"cebpf4jnsgd1na2vs0mg"},{"bike_id":"1736b8b4-947f-4dd1-87b3-aa07671ab603","system_id":"levelo_inurba_marseille","lat":43.29006,"lon":5.3561,"is_reserved":false,"is_disabled":false,"rental_uris":{"android":"levelo://app?vid=1736b8b4-947f-4dd1-87b3-aa07671ab603","ios":"levelo://app?vid=1736b8b4-947f-4dd1-87b3-aa07671ab603"},"vehicle_type_id":"4","last_reported":1726308511,"current_range_meters":32000,"station_id":"ce4bhb92rcd13ifvqen0","pricing_plan_id":"cebpf4jnsgd1na2vs0mg"},{"bike_id":"75c35499-0de6-41a0-acf5-7c9b58381038","system_id":"levelo_inurba_marseille","lat":43.23189,"lon":5.3997,"is_reserved":false,"is_disabled":false,"rental_uris":{"android":"levelo://app?vid=75c35499-0de6-41a0-acf5-7c9b58381038","ios":"levelo://app?vid=75c35499-0de6-41a0-acf5-7c9b58381038"},"vehicle_type_id":"4","last_reported":1726308511,"current_range_meters":38800,"station_id":"ce4bhn12rcd13ifvqgqg","pricing_plan_id":"cebpf4jnsgd1na2vs0mg"},{"bike_id":"3c837de5-748f-4446-9620-60b67ca367e2","system_id":"levelo_inurba_marseille","lat":43.29804,"lon":5.38093,"is_reserved":false,"is_disabled":false,"rental_uris":{"android":"levelo://app?vid=3c837de5-748f-4446-9620-60b67ca367e2","ios":"levelo://app?vid=3c837de5-748f-4446-9620-60b67ca367e2"},"vehicle_type_id":"4","last_reported":1726308511,"current_range_meters":38800,"station_id":"ce4bgip2rcd13ifvqbb0","pricing_plan_id":"cebpf4jnsgd1na2vs0mg"},{"bike_id":"f14c9fac-0734-46e0-873d-3ff1997022a4","system_id":"levelo_inurba_marseille","lat":43.246618,"lon":5.381668,"is_reserved":false,"is_disabled":false,"rental_uris":{"android":"levelo://app?vid=f14c9fac-0734-46e0-873d-3ff1997022a4","ios":"levelo://app?vid=f14c9fac-0734-46e0-873d-3ff1997022a4"},"vehicle_type_id":"4","last_reported":1726308511,"current_range_meters":38800,"station_id":"ce4bhih2rcd13ifvqfr0","pricing_plan_id":"cebpf4jnsgd1na2vs0mg"},{"bike_id":"48eca6de-6069-43ec-8c80-bc8a2038b3c9","system_id":"levelo_inurba_marseille","lat":43.24178,"lon":5.39715,"is_reserved":false,"is_disabled":false,"rental_uris":{"android":"levelo://app?vid=48eca6de-6069-43ec-8c80-bc8a2038b3c9","ios":"levelo://app?vid=48eca6de-6069-43ec-8c80-bc8a2038b3c9"},"vehicle_type_id":"4","last_reported":1726308511,"current_range_meters":33600,"station_id":"ce4bhn12rcd13ifvqgpg","pricing_plan_id":"cebpf4jnsgd1na2vs0mg"},{"bike_id":"1efe36c8-cb99-42b6-a655-7caf564d7976","system_id":"levelo_inurba_marseille","lat":43.28358,"lon":5.38632,"is_reserved":false,"is_disabled":false,"rental_uris":{"android":"levelo://app?vid=1efe36c8-cb99-42b6-a655-7caf564d7976","ios":"levelo://app?vid=1efe36c8-cb99-42b6-a655-7caf564d7976"},"vehicle_type_id":"4","last_reported":1726308511,"current_range_meters":27200,"station_id":"ce4bh492rcd13ifvqdvg","pricing_plan_id":"cebpf4jnsgd1na2vs0mg"},{"bike_id":"883ab9a5-a8ae-4b02-9338-fefbb805e829","system_id":"levelo_inurba_marseille","lat":43.31363,"lon":5.36699,"is_reserved":false,"is_disabled":false,"rental_uris":{"android":"levelo://app?vid=883ab9a5-a8ae-4b02-9338-fefbb805e829","ios":"levelo://app?vid=883ab9a5-a8ae-4b02-9338-fefbb805e829"},"vehicle_type_id":"4","last_reported":1726308511,"current_range_meters":12400,"station_id":"ce4bgr92rcd13ifvqc6g","pricing_plan_id":"cebpf4jnsgd1na2vs0mg"},{"bike_id":"b645ac77-0d58-4fa9-8ad3-947af8bdb1d9","system_id":"levelo_inurba_marseille","lat":43.29902,"lon":5.43658,"is_reserved":false,"is_disabled":false,"rental_uris":{"android":"levelo://app?vid=b645ac77-0d58-4fa9-8ad3-947af8bdb1d9","ios":"levelo://app?vid=b645ac77-0d58-4fa9-8ad3-947af8bdb1d9"},"vehicle_type_id":"4","last_reported":1726308511,"current_range_meters":38400,"station_id":"ce4bhpp2rcd13ifvqhfg","pricing_plan_id":"cebpf4jnsgd1na2vs0mg"},{"bike_id":"8d4d88c0-60b7-4adf-b7ea-6736625041f9","system_id":"levelo_inurba_marseille","lat":43.28661,"lon":5.36345,"is_reserved":false,"is_disabled":false,"rental_uris":{"android":"levelo://app?vid=8d4d88c0-60b7-4adf-b7ea-6736625041f9","ios":"levelo://app?vid=8d4d88c0-60b7-4adf-b7ea-6736625041f9"},"vehicle_type_id":"4","last_reported":1726308511,"current_range_meters":20000,"station_id":"ce4bhah2rcd13ifvqej0","pricing_plan_id":"cebpf4jnsgd1na2vs0mg"},{"bike_id":"91d155a1-0e95-42f4-9cf2-24e586735a13","system_id":"levelo_inurba_marseille","lat":43.33725,"lon":5.39178,"is_reserved":false,"is_disabled":false,"rental_uris":{"android":"levelo://app?vid=91d155a1-0e95-42f4-9cf2-24e586735a13","ios":"levelo://app?vid=91d155a1-0e95-42f4-9cf2-24e586735a13"},"vehicle_type_id":"4","last_reported":1726308511,"current_range_meters":38800,"station_id":"ce4bhr92rcd13ifvqhsg","pricing_plan_id":"cebpf4jnsgd1na2vs0mg"},{"bike_id":"d39402b9-097a-428a-a77c-a930020d3ebb","system_id":"levelo_inurba_marseille","lat":43.285467,"lon":5.383762,"is_reserved":false,"is_disabled":false,"rental_uris":{"android":"levelo://app?vid=d39402b9-097a-428a-a77c-a930020d3ebb","ios":"levelo://app?vid=d39402b9-097a-428a-a77c-a930020d3ebb"},"vehicle_type_id":"4","last_reported":1726308511,"current_range_meters":17200,"station_id":"ce4bh512rcd13ifvqe3g","pricing_plan_id":"cebpf4jnsgd1na2vs0mg"},{"bike_id":"d9931328-279b-40b1-88f7-9438094b8986","system_id":"levelo_inurba_marseille","lat":43.25501,"lon":5.37655,"is_reserved":false,"is_disabled":false,"rental_uris":{"android":"levelo://app?vid=d9931328-279b-40b1-88f7-9438094b8986","ios":"levelo://app?vid=d9931328-279b-40b1-88f7-9438094b8986"},"vehicle_type_id":"4","last_reported":1726308511,"current_range_meters":35200,"station_id":"ce4bhh12rcd13ifvqff0","pricing_plan_id":"cebpf4jnsgd1na2vs0mg"},{"bike_id":"23a55eff-686e-4ee7-943c-5bb1cacd94d3","system_id":"levelo_inurba_marseille","lat":43.27375,"lon":5.36254,"is_reserved":false,"is_disabled":false,"rental_uris":{"android":"levelo://app?vid=23a55eff-686e-4ee7-943c-5bb1cacd94d3","ios":"levelo://app?vid=23a55eff-686e-4ee7-943c-5bb1cacd94d3"},"vehicle_type_id":"4","last_reported":1726308511,"current_range_meters":17200,"station_id":"ce4bhbh2rcd13ifvqeo0","pricing_plan_id":"cebpf4jnsgd1na2vs0mg"},{"bike_id":"f6dd4168-8894-423f-8422-3152e0738d50","system_id":"levelo_inurba_marseille","lat":43.31716,"lon":5.42392,"is_reserved":false,"is_disabled":false,"rental_uris":{"android":"levelo://app?vid=f6dd4168-8894-423f-8422-3152e0738d50","ios":"levelo://app?vid=f6dd4168-8894-423f-8422-3152e0738d50"},"vehicle_type_id":"4","last_reported":1726308511,"current_range_meters":27600,"station_id":"ce4bhp92rcd13ifvqhbg","pricing_plan_id":"cebpf4jnsgd1na2vs0mg"},{"bike_id":"204711fb-e15c-43c7-9d9c-bbc1d0d42d99","system_id":"levelo_inurba_marseille","lat":43.30465,"lon":5.3791,"is_reserved":false,"is_disabled":false,"rental_uris":{"android":"levelo://app?vid=204711fb-e15c-43c7-9d9c-bbc1d0d42d99","ios":"levelo://app?vid=204711fb-e15c-43c7-9d9c-bbc1d0d42d99"},"vehicle_type_id":"4","last_reported":1726308511,"current_range_meters":31200,"station_id":"ce4bgup2rcd13ifvqcn0","pricing_plan_id":"cebpf4jnsgd1na2vs0mg"},{"bike_id":"b639ef5e-598d-45f6-bd36-f097c668fc53","system_id":"levelo_inurba_marseille","lat":43.26215,"lon":5.37441,"is_reserved":false,"is_disabled":false,"rental_uris":{"android":"levelo://app?vid=b639ef5e-598d-45f6-bd36-f097c668fc53","ios":"levelo://app?vid=b639ef5e-598d-45f6-bd36-f097c668fc53"},"vehicle_type_id":"4","last_reported":1726308511,"current_range_meters":26800,"station_id":"ce4bhgp2rcd13ifvqfc0","pricing_plan_id":"cebpf4jnsgd1na2vs0mg"},{"bike_id":"a8408bc0-1ad0-4261-92e7-4324637d7c82","system_id":"levelo_inurba_marseille","lat":43.28994,"lon":5.35625,"is_reserved":false,"is_disabled":false,"rental_uris":{"android":"levelo://app?vid=a8408bc0-1ad0-4261-92e7-4324637d7c82","ios":"levelo://app?vid=a8408bc0-1ad0-4261-92e7-4324637d7c82"},"vehicle_type_id":"4","last_reported":1726308511,"current_range_meters":37600,"station_id":"ce4bhb92rcd13ifvqen0","pricing_plan_id":"cebpf4jnsgd1na2vs0mg"},{"bike_id":"0d9f035c-8e47-426d-8593-e2bc7f05f235","system_id":"levelo_inurba_marseille","lat":43.30454,"lon":5.36497,"is_reserved":false,"is_disabled":false,"rental_uris":{"android":"levelo://app?vid=0d9f035c-8e47-426d-8593-e2bc7f05f235","ios":"levelo://app?vid=0d9f035c-8e47-426d-8593-e2bc7f05f235"},"vehicle_type_id":"4","last_reported":1726308511,"current_range_meters":11200,"station_id":"","pricing_plan_id":"cebpf4jnsgd1na2vs0mg"},{"bike_id":"25f18187-4b35-4c65-a771-73d737ef7005","system_id":"levelo_inurba_marseille","lat":43.33022,"lon":5.39038,"is_reserved":false,"is_disabled":false,"rental_uris":{"android":"levelo://app?vid=25f18187-4b35-4c65-a771-73d737ef7005","ios":"levelo://app?vid=25f18187-4b35-4c65-a771-73d737ef7005"},"vehicle_type_id":"4","last_reported":1726308511,"current_range_meters":38000,"station_id":"ce4bhr92rcd13ifvqhrg","pricing_plan_id":"cebpf4jnsgd1na2vs0mg"},{"bike_id":"bee2b2eb-ca41-4dbc-b747-eff031d74362","system_id":"levelo_inurba_marseille","lat":43.33759,"lon":5.37454,"is_reserved":false,"is_disabled":false,"rental_uris":{"android":"levelo://app?vid=bee2b2eb-ca41-4dbc-b747-eff031d74362","ios":"levelo://app?vid=bee2b2eb-ca41-4dbc-b747-eff031d74362"},"vehicle_type_id":"4","last_reported":1726308511,"current_range_meters":16000,"station_id":"","pricing_plan_id":"cebpf4jnsgd1na2vs0mg"},{"bike_id":"f6e51dab-cf3a-4edf-bf16-bae07db4471d","system_id":"levelo_inurba_marseille","lat":43.2927,"lon":5.36856,"is_reserved":false,"is_disabled":false,"rental_uris":{"android":"levelo://app?vid=f6e51dab-cf3a-4edf-bf16-bae07db4471d","ios":"levelo://app?vid=f6e51dab-cf3a-4edf-bf16-bae07db4471d"},"vehicle_type_id":"4","last_reported":1726308511,"current_range_meters":22800,"station_id":"ce4bhbp2rcd13ifvqesg","pricing_plan_id":"cebpf4jnsgd1na2vs0mg"},{"bike_id":"b3f9e9a0-5175-493b-95b9-0c666d52c0bf","system_id":"levelo_inurba_marseille","lat":43.30462,"lon":5.3791,"is_reserved":false,"is_disabled":false,"rental_uris":{"android":"levelo://app?vid=b3f9e9a0-5175-493b-95b9-0c666d52c0bf","ios":"levelo://app?vid=b3f9e9a0-5175-493b-95b9-0c666d52c0bf"},"vehicle_type_id":"4","last_reported":1726308511,"current_range_meters":26800,"station_id":"ce4bgup2rcd13ifvqcn0","pricing_plan_id":"cebpf4jnsgd1na2vs0mg"},{"bike_id":"7740e5ef-e555-42a9-b370-43d6e38180e8","system_id":"levelo_inurba_marseille","lat":43.26686,"lon":5.38276,"is_reserved":false,"is_disabled":false,"rental_uris":{"android":"levelo://app?vid=7740e5ef-e555-42a9-b370-43d6e38180e8","ios":"levelo://app?vid=7740e5ef-e555-42a9-b370-43d6e38180e8"},"vehicle_type_id":"4","last_reported":1726308511,"current_range_meters":34000,"station_id":"ce4bhg92rcd13ifvqf90","pricing_plan_id":"cebpf4jnsgd1na2vs0mg"},{"bike_id":"8f4b4484-53fc-4f85-8943-e3d97316949e","system_id":"levelo_inurba_marseille","lat":43.24994,"lon":5.3893,"is_reserved":false,"is_disabled":false,"rental_uris":{"android":"levelo://app?vid=8f4b4484-53fc-4f85-8943-e3d97316949e","ios":"levelo://app?vid=8f4b4484-53fc-4f85-8943-e3d97316949e"},"vehicle_type_id":"4","last_reported":1726308511,"current_range_meters":39200,"station_id":"ce4bhgp2rcd13ifvqfd0","pricing_plan_id":"cebpf4jnsgd1na2vs0mg"},{"bike_id":"10005c25-bdc9-4737-a161-1d7df8b95f68","system_id":"levelo_inurba_marseille","lat":43.30461,"lon":5.37904,"is_reserved":false,"is_disabled":false,"rental_uris":{"android":"levelo://app?vid=10005c25-bdc9-4737-a161-1d7df8b95f68","ios":"levelo://app?vid=10005c25-bdc9-4737-a161-1d7df8b95f68"},"vehicle_type_id":"4","last_reported":1726308511,"current_range_meters":12800,"station_id":"ce4bgup2rcd13ifvqcn0","pricing_plan_id":"cebpf4jnsgd1na2vs0mg"},{"bike_id":"c6ffdf6e-aaff-457f-9912-065c6b5267ed","system_id":"levelo_inurba_marseille","lat":43.295835,"lon":5.375006,"is_reserved":false,"is_disabled":false,"rental_uris":{"android":"levelo://app?vid=c6ffdf6e-aaff-457f-9912-065c6b5267ed","ios":"levelo://app?vid=c6ffdf6e-aaff-457f-9912-065c6b5267ed"},"vehicle_type_id":"4","last_reported":1726308511,"current_range_meters":28800,"station_id":"ce4bgh92rcd13ifvqb50","pricing_plan_id":"cebpf4jnsgd1na2vs0mg"},{"bike_id":"f81c9c0a-c2a9-4feb-9288-9725e8c2c56f","system_id":"levelo_inurba_marseille","lat":43.23151,"lon":5.43713,"is_reserved":false,"is_disabled":false,"rental_uris":{"android":"levelo://app?vid=f81c9c0a-c2a9-4feb-9288-9725e8c2c56f","ios":"levelo://app?vid=f81c9c0a-c2a9-4feb-9288-9725e8c2c56f"},"vehicle_type_id":"4","last_reported":1726308511,"current_range_meters":35600,"station_id":"ce4bhmp2rcd13ifvqgog","pricing_plan_id":"cebpf4jnsgd1na2vs0mg"},{"bike_id":"8690c89e-d61f-4631-960b-0818529639d8","system_id":"levelo_inurba_marseille","lat":43.29908,"lon":5.3813,"is_reserved":false,"is_disabled":false,"rental_uris":{"android":"levelo://app?vid=8690c89e-d61f-4631-960b-0818529639d8","ios":"levelo://app?vid=8690c89e-d61f-4631-960b-0818529639d8"},"vehicle_type_id":"4","last_reported":1726308511,"current_range_meters":36000,"station_id":"ce4bgj12rcd13ifvqbc0","pricing_plan_id":"cebpf4jnsgd1na2vs0mg"},{"bike_id":"f82b7809-0068-4a43-be6b-46ec85cbb6b9","system_id":"levelo_inurba_marseille","lat":43.30562,"lon":5.36534,"is_reserved":false,"is_disabled":false,"rental_uris":{"android":"levelo://app?vid=f82b7809-0068-4a43-be6b-46ec85cbb6b9","ios":"levelo://app?vid=f82b7809-0068-4a43-be6b-46ec85cbb6b9"},"vehicle_type_id":"4","last_reported":1726308511,"current_range_meters":38800,"station_id":"ce4bgs12rcd13ifvqcag","pricing_plan_id":"cebpf4jnsgd1na2vs0mg"},{"bike_id":"552ccea4-a0ab-4fa2-9015-1ea8da64cd61","system_id":"levelo_inurba_marseille","lat":43.25578,"lon":5.38241,"is_reserved":false,"is_disabled":false,"rental_uris":{"android":"levelo://app?vid=552ccea4-a0ab-4fa2-9015-1ea8da64cd61","ios":"levelo://app?vid=552ccea4-a0ab-4fa2-9015-1ea8da64cd61"},"vehicle_type_id":"4","last_reported":1726308511,"current_range_meters":6000,"station_id":"ce4bhih2rcd13ifvqfs0","pricing_plan_id":"cebpf4jnsgd1na2vs0mg"},{"bike_id":"0982fb6a-cbe7-4033-ac7c-281723d984ed","system_id":"levelo_inurba_marseille","lat":43.30888,"lon":5.39645,"is_reserved":false,"is_disabled":false,"rental_uris":{"android":"levelo://app?vid=0982fb6a-cbe7-4033-ac7c-281723d984ed","ios":"levelo://app?vid=0982fb6a-cbe7-4033-ac7c-281723d984ed"},"vehicle_type_id":"4","last_reported":1726308511,"current_range_meters":4400,"station_id":"ce4bh012rcd13ifvqcv0","pricing_plan_id":"cebpf4jnsgd1na2vs0mg"},{"bike_id":"2fc4c478-2556-4a17-b51c-120a74f1070e","system_id":"levelo_inurba_marseille","lat":43.30464,"lon":5.37907,"is_reserved":false,"is_disabled":false,"rental_uris":{"android":"levelo://app?vid=2fc4c478-2556-4a17-b51c-120a74f1070e","ios":"levelo://app?vid=2fc4c478-2556-4a17-b51c-120a74f1070e"},"vehicle_type_id":"4","last_reported":1726308511,"current_range_meters":37600,"station_id":"ce4bgup2rcd13ifvqcn0","pricing_plan_id":"cebpf4jnsgd1na2vs0mg"},{"bike_id":"f018b721-2f50-4e45-a514-159c19b53e44","system_id":"levelo_inurba_marseille","lat":43.29617,"lon":5.37169,"is_reserved":false,"is_disabled":false,"rental_uris":{"android":"levelo://app?vid=f018b721-2f50-4e45-a514-159c19b53e44","ios":"levelo://app?vid=f018b721-2f50-4e45-a514-159c19b53e44"},"vehicle_type_id":"4","last_reported":1726308511,"current_range_meters":38800,"station_id":"ce4bgnh2rcd13ifvqc0g","pricing_plan_id":"cebpf4jnsgd1na2vs0mg"},{"bike_id":"ddf39514-b6fc-4f16-b6a4-7cf559302973","system_id":"levelo_inurba_marseille","lat":43.25578,"lon":5.38241,"is_reserved":false,"is_disabled":false,"rental_uris":{"android":"levelo://app?vid=ddf39514-b6fc-4f16-b6a4-7cf559302973","ios":"levelo://app?vid=ddf39514-b6fc-4f16-b6a4-7cf559302973"},"vehicle_type_id":"4","last_reported":1726308511,"current_range_meters":37600,"station_id":"ce4bhih2rcd13ifvqfs0","pricing_plan_id":"cebpf4jnsgd1na2vs0mg"},{"bike_id":"ce70a22a-06ed-4f56-a13f-4b01cff9a4e7","system_id":"levelo_inurba_marseille","lat":43.30801,"lon":5.43529,"is_reserved":false,"is_disabled":false,"rental_uris":{"android":"levelo://app?vid=ce70a22a-06ed-4f56-a13f-4b01cff9a4e7","ios":"levelo://app?vid=ce70a22a-06ed-4f56-a13f-4b01cff9a4e7"},"vehicle_type_id":"4","last_reported":1726308511,"current_range_meters":38800,"station_id":"ce4bhph2rcd13ifvqheg","pricing_plan_id":"cebpf4jnsgd1na2vs0mg"},{"bike_id":"3275e4b1-5584-4c59-b3d9-e163da6a34fe","system_id":"levelo_inurba_marseille","lat":43.24671,"lon":5.38163,"is_reserved":false,"is_disabled":false,"rental_uris":{"android":"levelo://app?vid=3275e4b1-5584-4c59-b3d9-e163da6a34fe","ios":"levelo://app?vid=3275e4b1-5584-4c59-b3d9-e163da6a34fe"},"vehicle_type_id":"4","last_reported":1726308511,"current_range_meters":6000,"station_id":"ce4bhih2rcd13ifvqfr0","pricing_plan_id":"cebpf4jnsgd1na2vs0mg"},{"bike_id":"fe32e728-6780-4f12-82b7-637790f2f905","system_id":"levelo_inurba_marseille","lat":43.30542,"lon":5.36724,"is_reserved":false,"is_disabled":false,"rental_uris":{"android":"levelo://app?vid=fe32e728-6780-4f12-82b7-637790f2f905","ios":"levelo://app?vid=fe32e728-6780-4f12-82b7-637790f2f905"},"vehicle_type_id":"4","last_reported":1726308511,"current_range_meters":38800,"station_id":"ce4bgrp2rcd13ifvqc9g","pricing_plan_id":"cebpf4jnsgd1na2vs0mg"},{"bike_id":"0f49a5b1-4d79-4c1f-84bc-34dd7c25b54e","system_id":"levelo_inurba_marseille","lat":43.30912,"lon":5.36847,"is_reserved":false,"is_disabled":false,"rental_uris":{"android":"levelo://app?vid=0f49a5b1-4d79-4c1f-84bc-34dd7c25b54e","ios":"levelo://app?vid=0f49a5b1-4d79-4c1f-84bc-34dd7c25b54e"},"vehicle_type_id":"4","last_reported":1726308511,"current_range_meters":16400,"station_id":"ce4bgn92rcd13ifvqbvg","pricing_plan_id":"cebpf4jnsgd1na2vs0mg"},{"bike_id":"d85ab2af-d7ee-47c5-b97a-f55f599627be","system_id":"levelo_inurba_marseille","lat":43.24166,"lon":5.36392,"is_reserved":false,"is_disabled":false,"rental_uris":{"android":"levelo://app?vid=d85ab2af-d7ee-47c5-b97a-f55f599627be","ios":"levelo://app?vid=d85ab2af-d7ee-47c5-b97a-f55f599627be"},"vehicle_type_id":"4","last_reported":1726308511,"current_range_meters":38000,"station_id":"cpo36qri1sfpv3e86is0","pricing_plan_id":"cebpf4jnsgd1na2vs0mg"},{"bike_id":"53a2d874-293d-47cc-bdbd-a03b3468623b","system_id":"levelo_inurba_marseille","lat":43.29901,"lon":5.43674,"is_reserved":false,"is_disabled":false,"rental_uris":{"android":"levelo://app?vid=53a2d874-293d-47cc-bdbd-a03b3468623b","ios":"levelo://app?vid=53a2d874-293d-47cc-bdbd-a03b3468623b"},"vehicle_type_id":"4","last_reported":1726308511,"current_range_meters":9600,"station_id":"ce4bhpp2rcd13ifvqhfg","pricing_plan_id":"cebpf4jnsgd1na2vs0mg"},{"bike_id":"25ffd765-ea9f-4375-822a-88fabf990947","system_id":"levelo_inurba_marseille","lat":43.2928,"lon":5.368977,"is_reserved":false,"is_disabled":false,"rental_uris":{"android":"levelo://app?vid=25ffd765-ea9f-4375-822a-88fabf990947","ios":"levelo://app?vid=25ffd765-ea9f-4375-822a-88fabf990947"},"vehicle_type_id":"4","last_reported":1726308511,"current_range_meters":34000,"station_id":"ce4bhbp2rcd13ifvqesg","pricing_plan_id":"cebpf4jnsgd1na2vs0mg"},{"bike_id":"efd434e6-1017-42dc-a03c-1c3d92ee3360","system_id":"levelo_inurba_marseille","lat":43.253693,"lon":5.376032,"is_reserved":false,"is_disabled":false,"rental_uris":{"android":"levelo://app?vid=efd434e6-1017-42dc-a03c-1c3d92ee3360","ios":"levelo://app?vid=efd434e6-1017-42dc-a03c-1c3d92ee3360"},"vehicle_type_id":"4","last_reported":1726308511,"current_range_meters":21600,"station_id":"ce4bhh12rcd13ifvqff0","pricing_plan_id":"cebpf4jnsgd1na2vs0mg"},{"bike_id":"bb7acf50-b6bc-4b2d-adf4-833abc23b24c","system_id":"levelo_inurba_marseille","lat":43.23187,"lon":5.35542,"is_reserved":false,"is_disabled":false,"rental_uris":{"android":"levelo://app?vid=bb7acf50-b6bc-4b2d-adf4-833abc23b24c","ios":"levelo://app?vid=bb7acf50-b6bc-4b2d-adf4-833abc23b24c"},"vehicle_type_id":"4","last_reported":1726308511,"current_range_meters":38800,"station_id":"ce4bhu92rcd13ifvqi70","pricing_plan_id":"cebpf4jnsgd1na2vs0mg"},{"bike_id":"51e98b7e-927f-4115-88ff-1743d130de1e","system_id":"levelo_inurba_marseille","lat":43.28464,"lon":5.3842,"is_reserved":false,"is_disabled":false,"rental_uris":{"android":"levelo://app?vid=51e98b7e-927f-4115-88ff-1743d130de1e","ios":"levelo://app?vid=51e98b7e-927f-4115-88ff-1743d130de1e"},"vehicle_type_id":"4","last_reported":1726308511,"current_range_meters":38000,"station_id":"ce4bh512rcd13ifvqe3g","pricing_plan_id":"cebpf4jnsgd1na2vs0mg"},{"bike_id":"f6de5503-3f64-4c45-a987-7e74ca5c7044","system_id":"levelo_inurba_marseille","lat":43.24168,"lon":5.36396,"is_reserved":false,"is_disabled":false,"rental_uris":{"android":"levelo://app?vid=f6de5503-3f64-4c45-a987-7e74ca5c7044","ios":"levelo://app?vid=f6de5503-3f64-4c45-a987-7e74ca5c7044"},"vehicle_type_id":"4","last_reported":1726308511,"current_range_meters":33600,"station_id":"cpo36qri1sfpv3e86is0","pricing_plan_id":"cebpf4jnsgd1na2vs0mg"},{"bike_id":"1203d57f-700e-4a15-b8be-7311e1c2ce03","system_id":"levelo_inurba_marseille","lat":43.30905,"lon":5.3686,"is_reserved":false,"is_disabled":false,"rental_uris":{"android":"levelo://app?vid=1203d57f-700e-4a15-b8be-7311e1c2ce03","ios":"levelo://app?vid=1203d57f-700e-4a15-b8be-7311e1c2ce03"},"vehicle_type_id":"4","last_reported":1726308511,"current_range_meters":20800,"station_id":"ce4bgn92rcd13ifvqbvg","pricing_plan_id":"cebpf4jnsgd1na2vs0mg"},{"bike_id":"bc8be1fd-7bee-49c5-817c-184bdd69b536","system_id":"levelo_inurba_marseille","lat":43.27374,"lon":5.41942,"is_reserved":false,"is_disabled":false,"rental_uris":{"android":"levelo://app?vid=bc8be1fd-7bee-49c5-817c-184bdd69b536","ios":"levelo://app?vid=bc8be1fd-7bee-49c5-817c-184bdd69b536"},"vehicle_type_id":"4","last_reported":1726308511,"current_range_meters":26000,"station_id":"","pricing_plan_id":"cebpf4jnsgd1na2vs0mg"},{"bike_id":"12edca80-4470-4a5b-903b-dc7b60e8cb16","system_id":"levelo_inurba_marseille","lat":43.2937,"lon":5.37853,"is_reserved":false,"is_disabled":false,"rental_uris":{"android":"levelo://app?vid=12edca80-4470-4a5b-903b-dc7b60e8cb16","ios":"levelo://app?vid=12edca80-4470-4a5b-903b-dc7b60e8cb16"},"vehicle_type_id":"4","last_reported":1726308511,"current_range_meters":27600,"station_id":"ce4bgjh2rcd13ifvqbf0","pricing_plan_id":"cebpf4jnsgd1na2vs0mg"},{"bike_id":"245843b1-e971-44ee-938f-59186df4edde","system_id":"levelo_inurba_marseille","lat":43.29023,"lon":5.3813,"is_reserved":false,"is_disabled":false,"rental_uris":{"android":"levelo://app?vid=245843b1-e971-44ee-938f-59186df4edde","ios":"levelo://app?vid=245843b1-e971-44ee-938f-59186df4edde"},"vehicle_type_id":"4","last_reported":1726308511,"current_range_meters":37600,"station_id":"ce4bh4p2rcd13ifvqe1g","pricing_plan_id":"cebpf4jnsgd1na2vs0mg"},{"bike_id":"d008cb99-abde-452f-827e-8789eee7795a","system_id":"levelo_inurba_marseille","lat":43.2718,"lon":5.4099,"is_reserved":false,"is_disabled":false,"rental_uris":{"android":"levelo://app?vid=d008cb99-abde-452f-827e-8789eee7795a","ios":"levelo://app?vid=d008cb99-abde-452f-827e-8789eee7795a"},"vehicle_type_id":"4","last_reported":1726308511,"current_range_meters":39200,"station_id":"ce4bhl12rcd13ifvqgf0","pricing_plan_id":"cebpf4jnsgd1na2vs0mg"},{"bike_id":"5b8d0983-a39e-42ef-b930-2c3695850d77","system_id":"levelo_inurba_marseille","lat":43.30145,"lon":5.38082,"is_reserved":false,"is_disabled":false,"rental_uris":{"android":"levelo://app?vid=5b8d0983-a39e-42ef-b930-2c3695850d77","ios":"levelo://app?vid=5b8d0983-a39e-42ef-b930-2c3695850d77"},"vehicle_type_id":"4","last_reported":1726308511,"current_range_meters":28000,"station_id":"ce4bgjp2rcd13ifvqbh0","pricing_plan_id":"cebpf4jnsgd1na2vs0mg"},{"bike_id":"8ca05ae7-7cf6-4e85-b02a-7644e936e4d7","system_id":"levelo_inurba_marseille","lat":43.23177,"lon":5.39993,"is_reserved":false,"is_disabled":false,"rental_uris":{"android":"levelo://app?vid=8ca05ae7-7cf6-4e85-b02a-7644e936e4d7","ios":"levelo://app?vid=8ca05ae7-7cf6-4e85-b02a-7644e936e4d7"},"vehicle_type_id":"4","last_reported":1726308511,"current_range_meters":33200,"station_id":"ce4bhn12rcd13ifvqgqg","pricing_plan_id":"cebpf4jnsgd1na2vs0mg"},{"bike_id":"3776deff-ce7a-45a8-bb48-b6c05c0132df","system_id":"levelo_inurba_marseille","lat":43.29019,"lon":5.38138,"is_reserved":false,"is_disabled":false,"rental_uris":{"android":"levelo://app?vid=3776deff-ce7a-45a8-bb48-b6c05c0132df","ios":"levelo://app?vid=3776deff-ce7a-45a8-bb48-b6c05c0132df"},"vehicle_type_id":"4","last_reported":1726308511,"current_range_meters":5600,"station_id":"ce4bh4p2rcd13ifvqe1g","pricing_plan_id":"cebpf4jnsgd1na2vs0mg"},{"bike_id":"81f1a965-ff8b-4d74-9682-ff18567684f9","system_id":"levelo_inurba_marseille","lat":43.33025,"lon":5.3904,"is_reserved":false,"is_disabled":false,"rental_uris":{"android":"levelo://app?vid=81f1a965-ff8b-4d74-9682-ff18567684f9","ios":"levelo://app?vid=81f1a965-ff8b-4d74-9682-ff18567684f9"},"vehicle_type_id":"4","last_reported":1726308511,"current_range_meters":38000,"station_id":"ce4bhr92rcd13ifvqhrg","pricing_plan_id":"cebpf4jnsgd1na2vs0mg"},{"bike_id":"b6a5802b-4786-42a9-9b22-5e0b280071e6","system_id":"levelo_inurba_marseille","lat":43.3048,"lon":5.36809,"is_reserved":false,"is_disabled":false,"rental_uris":{"android":"levelo://app?vid=b6a5802b-4786-42a9-9b22-5e0b280071e6","ios":"levelo://app?vid=b6a5802b-4786-42a9-9b22-5e0b280071e6"},"vehicle_type_id":"4","last_reported":1726308511,"current_range_meters":20800,"station_id":"","pricing_plan_id":"cebpf4jnsgd1na2vs0mg"},{"bike_id":"2c2448de-2bd8-43b6-b7b7-b3e21de71516","system_id":"levelo_inurba_marseille","lat":43.33759,"lon":5.37458,"is_reserved":false,"is_disabled":false,"rental_uris":{"android":"levelo://app?vid=2c2448de-2bd8-43b6-b7b7-b3e21de71516","ios":"levelo://app?vid=2c2448de-2bd8-43b6-b7b7-b3e21de71516"},"vehicle_type_id":"4","last_reported":1726308511,"current_range_meters":36000,"station_id":"","pricing_plan_id":"cebpf4jnsgd1na2vs0mg"},{"bike_id":"04690ead-e478-41e5-9793-9e06233c0816","system_id":"levelo_inurba_marseille","lat":43.2941,"lon":5.38623,"is_reserved":false,"is_disabled":false,"rental_uris":{"android":"levelo://app?vid=04690ead-e478-41e5-9793-9e06233c0816","ios":"levelo://app?vid=04690ead-e478-41e5-9793-9e06233c0816"},"vehicle_type_id":"4","last_reported":1726308511,"current_range_meters":22800,"station_id":"ce4bh2h2rcd13ifvqdh0","pricing_plan_id":"cebpf4jnsgd1na2vs0mg"},{"bike_id":"f085b662-b8d6-44a0-bd3a-a5ecba855718","system_id":"levelo_inurba_marseille","lat":43.299744,"lon":5.371879,"is_reserved":false,"is_disabled":false,"rental_uris":{"android":"levelo://app?vid=f085b662-b8d6-44a0-bd3a-a5ecba855718","ios":"levelo://app?vid=f085b662-b8d6-44a0-bd3a-a5ecba855718"},"vehicle_type_id":"4","last_reported":1726308511,"current_range_meters":2800,"station_id":"ce4bgr92rcd13ifvqc7g","pricing_plan_id":"cebpf4jnsgd1na2vs0mg"},{"bike_id":"d63b08fd-7716-422a-94e4-8f1dfff5bb11","system_id":"levelo_inurba_marseille","lat":43.28616,"lon":5.35101,"is_reserved":false,"is_disabled":false,"rental_uris":{"android":"levelo://app?vid=d63b08fd-7716-422a-94e4-8f1dfff5bb11","ios":"levelo://app?vid=d63b08fd-7716-422a-94e4-8f1dfff5bb11"},"vehicle_type_id":"4","last_reported":1726308511,"current_range_meters":36000,"station_id":"ce4bhch2rcd13ifvqeug","pricing_plan_id":"cebpf4jnsgd1na2vs0mg"},{"bike_id":"c14b51b2-bf43-4357-aae5-c79ce5284397","system_id":"levelo_inurba_marseille","lat":43.29602,"lon":5.37726,"is_reserved":false,"is_disabled":false,"rental_uris":{"android":"levelo://app?vid=c14b51b2-bf43-4357-aae5-c79ce5284397","ios":"levelo://app?vid=c14b51b2-bf43-4357-aae5-c79ce5284397"},"vehicle_type_id":"4","last_reported":1726308511,"current_range_meters":24800,"station_id":"ce4bgi92rcd13ifvqb90","pricing_plan_id":"cebpf4jnsgd1na2vs0mg"},{"bike_id":"6aba4959-da2b-4012-9d8e-ecda8624f043","system_id":"levelo_inurba_marseille","lat":43.303294,"lon":5.404374,"is_reserved":false,"is_disabled":false,"rental_uris":{"android":"levelo://app?vid=6aba4959-da2b-4012-9d8e-ecda8624f043","ios":"levelo://app?vid=6aba4959-da2b-4012-9d8e-ecda8624f043"},"vehicle_type_id":"4","last_reported":1726308511,"current_range_meters":37600,"station_id":"ce4bh012rcd13ifvqd10","pricing_plan_id":"cebpf4jnsgd1na2vs0mg"},{"bike_id":"026a8105-a313-4bd8-96fb-a8d6d1b140a9","system_id":"levelo_inurba_marseille","lat":43.23187,"lon":5.35541,"is_reserved":false,"is_disabled":false,"rental_uris":{"android":"levelo://app?vid=026a8105-a313-4bd8-96fb-a8d6d1b140a9","ios":"levelo://app?vid=026a8105-a313-4bd8-96fb-a8d6d1b140a9"},"vehicle_type_id":"4","last_reported":1726308511,"current_range_meters":38000,"station_id":"ce4bhu92rcd13ifvqi70","pricing_plan_id":"cebpf4jnsgd1na2vs0mg"},{"bike_id":"f7895c69-0c82-4105-9f66-dc2416af2f55","system_id":"levelo_inurba_marseille","lat":43.25495,"lon":5.37651,"is_reserved":false,"is_disabled":false,"rental_uris":{"android":"levelo://app?vid=f7895c69-0c82-4105-9f66-dc2416af2f55","ios":"levelo://app?vid=f7895c69-0c82-4105-9f66-dc2416af2f55"},"vehicle_type_id":"4","last_reported":1726308511,"current_range_meters":31200,"station_id":"ce4bhh12rcd13ifvqff0","pricing_plan_id":"cebpf4jnsgd1na2vs0mg"},{"bike_id":"bcf3cc13-0ef0-4ea1-a1a2-7244e004f9cf","system_id":"levelo_inurba_marseille","lat":43.28032,"lon":5.36934,"is_reserved":false,"is_disabled":false,"rental_uris":{"android":"levelo://app?vid=bcf3cc13-0ef0-4ea1-a1a2-7244e004f9cf","ios":"levelo://app?vid=bcf3cc13-0ef0-4ea1-a1a2-7244e004f9cf"},"vehicle_type_id":"4","last_reported":1726308511,"current_range_meters":28400,"station_id":"ce4bha12rcd13ifvqef0","pricing_plan_id":"cebpf4jnsgd1na2vs0mg"},{"bike_id":"2b1d1d87-754b-4746-8040-b7847974e140","system_id":"levelo_inurba_marseille","lat":43.27489,"lon":5.42463,"is_reserved":false,"is_disabled":false,"rental_uris":{"android":"levelo://app?vid=2b1d1d87-754b-4746-8040-b7847974e140","ios":"levelo://app?vid=2b1d1d87-754b-4746-8040-b7847974e140"},"vehicle_type_id":"4","last_reported":1726308511,"current_range_meters":38400,"station_id":"ce4bhn92rcd13ifvqgrg","pricing_plan_id":"cebpf4jnsgd1na2vs0mg"},{"bike_id":"5c5e7b0f-1171-4638-8d56-a05e2d1375aa","system_id":"levelo_inurba_marseille","lat":43.251129,"lon":5.403199,"is_reserved":false,"is_disabled":false,"rental_uris":{"android":"levelo://app?vid=5c5e7b0f-1171-4638-8d56-a05e2d1375aa","ios":"levelo://app?vid=5c5e7b0f-1171-4638-8d56-a05e2d1375aa"},"vehicle_type_id":"4","last_reported":1726308511,"current_range_meters":38000,"station_id":"ce4bhlh2rcd13ifvqgig","pricing_plan_id":"cebpf4jnsgd1na2vs0mg"},{"bike_id":"9378e46c-90ff-48e5-9112-f5aafd156a5f","system_id":"levelo_inurba_marseille","lat":43.29555,"lon":5.42285,"is_reserved":false,"is_disabled":false,"rental_uris":{"android":"levelo://app?vid=9378e46c-90ff-48e5-9112-f5aafd156a5f","ios":"levelo://app?vid=9378e46c-90ff-48e5-9112-f5aafd156a5f"},"vehicle_type_id":"4","last_reported":1726308511,"current_range_meters":25600,"station_id":"ce4bhph2rcd13ifvqhdg","pricing_plan_id":"cebpf4jnsgd1na2vs0mg"},{"bike_id":"cb72976f-172f-44f6-8a55-4bbe72c5f072","system_id":"levelo_inurba_marseille","lat":43.30154,"lon":5.38095,"is_reserved":false,"is_disabled":false,"rental_uris":{"android":"levelo://app?vid=cb72976f-172f-44f6-8a55-4bbe72c5f072","ios":"levelo://app?vid=cb72976f-172f-44f6-8a55-4bbe72c5f072"},"vehicle_type_id":"4","last_reported":1726308511,"current_range_meters":38800,"station_id":"ce4bgjp2rcd13ifvqbh0","pricing_plan_id":"cebpf4jnsgd1na2vs0mg"},{"bike_id":"51b93f73-c647-4dd9-b993-0e72de9b0462","system_id":"levelo_inurba_marseille","lat":43.28296,"lon":5.3907,"is_reserved":false,"is_disabled":false,"rental_uris":{"android":"levelo://app?vid=51b93f73-c647-4dd9-b993-0e72de9b0462","ios":"levelo://app?vid=51b93f73-c647-4dd9-b993-0e72de9b0462"},"vehicle_type_id":"4","last_reported":1726308511,"current_range_meters":29600,"station_id":"","pricing_plan_id":"cebpf4jnsgd1na2vs0mg"},{"bike_id":"f68df17f-5733-4c2a-95c1-49b539707a08","system_id":"levelo_inurba_marseille","lat":43.252869,"lon":5.377334,"is_reserved":false,"is_disabled":false,"rental_uris":{"android":"levelo://app?vid=f68df17f-5733-4c2a-95c1-49b539707a08","ios":"levelo://app?vid=f68df17f-5733-4c2a-95c1-49b539707a08"},"vehicle_type_id":"4","last_reported":1726308511,"current_range_meters":23200,"station_id":"ce4bhgh2rcd13ifvqfb0","pricing_plan_id":"cebpf4jnsgd1na2vs0mg"},{"bike_id":"e7875c5c-1db6-4a52-a011-743d86c561cf","system_id":"levelo_inurba_marseille","lat":43.3042,"lon":5.39755,"is_reserved":false,"is_disabled":false,"rental_uris":{"android":"levelo://app?vid=e7875c5c-1db6-4a52-a011-743d86c561cf","ios":"levelo://app?vid=e7875c5c-1db6-4a52-a011-743d86c561cf"},"vehicle_type_id":"4","last_reported":1726308511,"current_range_meters":38000,"station_id":"ce4bh092rcd13ifvqd20","pricing_plan_id":"cebpf4jnsgd1na2vs0mg"},{"bike_id":"1a4afac7-4f04-413e-8457-62d98bd42198","system_id":"levelo_inurba_marseille","lat":43.2815,"lon":5.42643,"is_reserved":false,"is_disabled":false,"rental_uris":{"android":"levelo://app?vid=1a4afac7-4f04-413e-8457-62d98bd42198","ios":"levelo://app?vid=1a4afac7-4f04-413e-8457-62d98bd42198"},"vehicle_type_id":"4","last_reported":1726308511,"current_range_meters":10000,"station_id":"ce4bhnh2rcd13ifvqgug","pricing_plan_id":"cebpf4jnsgd1na2vs0mg"},{"bike_id":"4fec0fca-154c-4129-8da1-d5bfc833794b","system_id":"levelo_inurba_marseille","lat":43.28976,"lon":5.37842,"is_reserved":false,"is_disabled":false,"rental_uris":{"android":"levelo://app?vid=4fec0fca-154c-4129-8da1-d5bfc833794b","ios":"levelo://app?vid=4fec0fca-154c-4129-8da1-d5bfc833794b"},"vehicle_type_id":"4","last_reported":1726308511,"current_range_meters":24800,"station_id":"ce4bh9p2rcd13ifvqed0","pricing_plan_id":"cebpf4jnsgd1na2vs0mg"},{"bike_id":"c0eddc7a-23ca-409a-b561-9bdea12fe2c3","system_id":"levelo_inurba_marseille","lat":43.27613,"lon":5.36106,"is_reserved":false,"is_disabled":false,"rental_uris":{"android":"levelo://app?vid=c0eddc7a-23ca-409a-b561-9bdea12fe2c3","ios":"levelo://app?vid=c0eddc7a-23ca-409a-b561-9bdea12fe2c3"},"vehicle_type_id":"4","last_reported":1726308511,"current_range_meters":21600,"station_id":"ce4bgj92rcd13ifvqbe0","pricing_plan_id":"cebpf4jnsgd1na2vs0mg"},{"bike_id":"e6591df9-968c-4330-8ba1-70756b51f761","system_id":"levelo_inurba_marseille","lat":43.26492,"lon":5.39547,"is_reserved":false,"is_disabled":false,"rental_uris":{"android":"levelo://app?vid=e6591df9-968c-4330-8ba1-70756b51f761","ios":"levelo://app?vid=e6591df9-968c-4330-8ba1-70756b51f761"},"vehicle_type_id":"4","last_reported":1726308511,"current_range_meters":35600,"station_id":"ce4bhi12rcd13ifvqfq0","pricing_plan_id":"cebpf4jnsgd1na2vs0mg"},{"bike_id":"3b441bdc-cc18-4301-bca1-4d7e1e1b705f","system_id":"levelo_inurba_marseille","lat":43.25501,"lon":5.3765,"is_reserved":false,"is_disabled":false,"rental_uris":{"android":"levelo://app?vid=3b441bdc-cc18-4301-bca1-4d7e1e1b705f","ios":"levelo://app?vid=3b441bdc-cc18-4301-bca1-4d7e1e1b705f"},"vehicle_type_id":"4","last_reported":1726308511,"current_range_meters":22400,"station_id":"ce4bhh12rcd13ifvqff0","pricing_plan_id":"cebpf4jnsgd1na2vs0mg"},{"bike_id":"cd746d53-7b31-403a-a6de-e911e0afac6b","system_id":"levelo_inurba_marseille","lat":43.29901,"lon":5.38139,"is_reserved":false,"is_disabled":false,"rental_uris":{"android":"levelo://app?vid=cd746d53-7b31-403a-a6de-e911e0afac6b","ios":"levelo://app?vid=cd746d53-7b31-403a-a6de-e911e0afac6b"},"vehicle_type_id":"4","last_reported":1726308511,"current_range_meters":39200,"station_id":"ce4bgj12rcd13ifvqbc0","pricing_plan_id":"cebpf4jnsgd1na2vs0mg"},{"bike_id":"31190d1b-410f-42b9-bc3c-43e52fb041c0","system_id":"levelo_inurba_marseille","lat":43.30469,"lon":5.37902,"is_reserved":false,"is_disabled":false,"rental_uris":{"android":"levelo://app?vid=31190d1b-410f-42b9-bc3c-43e52fb041c0","ios":"levelo://app?vid=31190d1b-410f-42b9-bc3c-43e52fb041c0"},"vehicle_type_id":"4","last_reported":1726308511,"current_range_meters":32000,"station_id":"ce4bgup2rcd13ifvqcn0","pricing_plan_id":"cebpf4jnsgd1na2vs0mg"},{"bike_id":"1e9ab519-e28c-400f-aecb-cbc58f39def2","system_id":"levelo_inurba_marseille","lat":43.29775,"lon":5.37891,"is_reserved":false,"is_disabled":false,"rental_uris":{"android":"levelo://app?vid=1e9ab519-e28c-400f-aecb-cbc58f39def2","ios":"levelo://app?vid=1e9ab519-e28c-400f-aecb-cbc58f39def2"},"vehicle_type_id":"4","last_reported":1726308511,"current_range_meters":3600,"station_id":"","pricing_plan_id":"cebpf4jnsgd1na2vs0mg"},{"bike_id":"d09aedb3-0212-456b-a0d7-0a019f75665d","system_id":"levelo_inurba_marseille","lat":43.2315,"lon":5.43703,"is_reserved":false,"is_disabled":false,"rental_uris":{"android":"levelo://app?vid=d09aedb3-0212-456b-a0d7-0a019f75665d","ios":"levelo://app?vid=d09aedb3-0212-456b-a0d7-0a019f75665d"},"vehicle_type_id":"4","last_reported":1726308511,"current_range_meters":40000,"station_id":"ce4bhmp2rcd13ifvqgog","pricing_plan_id":"cebpf4jnsgd1na2vs0mg"},{"bike_id":"b2e3c13f-e5d7-4801-ae89-c6a149b3cd8b","system_id":"levelo_inurba_marseille","lat":43.24086,"lon":5.37729,"is_reserved":false,"is_disabled":false,"rental_uris":{"android":"levelo://app?vid=b2e3c13f-e5d7-4801-ae89-c6a149b3cd8b","ios":"levelo://app?vid=b2e3c13f-e5d7-4801-ae89-c6a149b3cd8b"},"vehicle_type_id":"4","last_reported":1726308511,"current_range_meters":36400,"station_id":"ce4bhnp2rcd13ifvqgvg","pricing_plan_id":"cebpf4jnsgd1na2vs0mg"},{"bike_id":"f42b85a3-1e07-433a-bcd3-c4412e885526","system_id":"levelo_inurba_marseille","lat":43.29807,"lon":5.38101,"is_reserved":false,"is_disabled":false,"rental_uris":{"android":"levelo://app?vid=f42b85a3-1e07-433a-bcd3-c4412e885526","ios":"levelo://app?vid=f42b85a3-1e07-433a-bcd3-c4412e885526"},"vehicle_type_id":"4","last_reported":1726308511,"current_range_meters":16000,"station_id":"ce4bgip2rcd13ifvqbb0","pricing_plan_id":"cebpf4jnsgd1na2vs0mg"},{"bike_id":"10c3215d-3cf0-4efb-9ab1-64d15350ecfa","system_id":"levelo_inurba_marseille","lat":43.24171,"lon":5.39728,"is_reserved":false,"is_disabled":false,"rental_uris":{"android":"levelo://app?vid=10c3215d-3cf0-4efb-9ab1-64d15350ecfa","ios":"levelo://app?vid=10c3215d-3cf0-4efb-9ab1-64d15350ecfa"},"vehicle_type_id":"4","last_reported":1726308511,"current_range_meters":30800,"station_id":"ce4bhn12rcd13ifvqgpg","pricing_plan_id":"cebpf4jnsgd1na2vs0mg"},{"bike_id":"6a8ccca1-6088-4e9b-8542-a9f9e3919f8b","system_id":"levelo_inurba_marseille","lat":43.29008,"lon":5.3561,"is_reserved":false,"is_disabled":false,"rental_uris":{"android":"levelo://app?vid=6a8ccca1-6088-4e9b-8542-a9f9e3919f8b","ios":"levelo://app?vid=6a8ccca1-6088-4e9b-8542-a9f9e3919f8b"},"vehicle_type_id":"4","last_reported":1726308511,"current_range_meters":35600,"station_id":"ce4bhb92rcd13ifvqen0","pricing_plan_id":"cebpf4jnsgd1na2vs0mg"},{"bike_id":"c24a1fdb-fb2a-4e3b-835d-ce0d09a255ce","system_id":"levelo_inurba_marseille","lat":43.29814,"lon":5.38098,"is_reserved":false,"is_disabled":false,"rental_uris":{"android":"levelo://app?vid=c24a1fdb-fb2a-4e3b-835d-ce0d09a255ce","ios":"levelo://app?vid=c24a1fdb-fb2a-4e3b-835d-ce0d09a255ce"},"vehicle_type_id":"4","last_reported":1726308511,"current_range_meters":38800,"station_id":"ce4bgip2rcd13ifvqbb0","pricing_plan_id":"cebpf4jnsgd1na2vs0mg"},{"bike_id":"82dec1e1-c024-4a59-b080-1ca526441f94","system_id":"levelo_inurba_marseille","lat":43.337612,"lon":5.374504,"is_reserved":false,"is_disabled":false,"rental_uris":{"android":"levelo://app?vid=82dec1e1-c024-4a59-b080-1ca526441f94","ios":"levelo://app?vid=82dec1e1-c024-4a59-b080-1ca526441f94"},"vehicle_type_id":"4","last_reported":1726308511,"current_range_meters":26800,"station_id":"","pricing_plan_id":"cebpf4jnsgd1na2vs0mg"},{"bike_id":"02269f0e-1758-473f-8a5c-764f1ddf9ddc","system_id":"levelo_inurba_marseille","lat":43.23187,"lon":5.39974,"is_reserved":false,"is_disabled":false,"rental_uris":{"android":"levelo://app?vid=02269f0e-1758-473f-8a5c-764f1ddf9ddc","ios":"levelo://app?vid=02269f0e-1758-473f-8a5c-764f1ddf9ddc"},"vehicle_type_id":"4","last_reported":1726308511,"current_range_meters":38800,"station_id":"ce4bhn12rcd13ifvqgqg","pricing_plan_id":"cebpf4jnsgd1na2vs0mg"},{"bike_id":"43412657-8f93-44d7-90fb-da7639962547","system_id":"levelo_inurba_marseille","lat":43.33723,"lon":5.39175,"is_reserved":false,"is_disabled":false,"rental_uris":{"android":"levelo://app?vid=43412657-8f93-44d7-90fb-da7639962547","ios":"levelo://app?vid=43412657-8f93-44d7-90fb-da7639962547"},"vehicle_type_id":"4","last_reported":1726308511,"current_range_meters":26800,"station_id":"ce4bhr92rcd13ifvqhsg","pricing_plan_id":"cebpf4jnsgd1na2vs0mg"},{"bike_id":"09d27820-d858-4c3b-904e-6061896bea61","system_id":"levelo_inurba_marseille","lat":43.26685,"lon":5.38268,"is_reserved":false,"is_disabled":false,"rental_uris":{"android":"levelo://app?vid=09d27820-d858-4c3b-904e-6061896bea61","ios":"levelo://app?vid=09d27820-d858-4c3b-904e-6061896bea61"},"vehicle_type_id":"4","last_reported":1726308511,"current_range_meters":39200,"station_id":"ce4bhg92rcd13ifvqf90","pricing_plan_id":"cebpf4jnsgd1na2vs0mg"},{"bike_id":"802bc1ce-ae88-4351-8f01-f22e2e97807e","system_id":"levelo_inurba_marseille","lat":43.293762,"lon":5.378495,"is_reserved":false,"is_disabled":false,"rental_uris":{"android":"levelo://app?vid=802bc1ce-ae88-4351-8f01-f22e2e97807e","ios":"levelo://app?vid=802bc1ce-ae88-4351-8f01-f22e2e97807e"},"vehicle_type_id":"4","last_reported":1726308511,"current_range_meters":28400,"station_id":"ce4bgj92rcd13ifvqbd0","pricing_plan_id":"cebpf4jnsgd1na2vs0mg"},{"bike_id":"45e41555-8ff1-46a4-82c3-0f52a3959350","system_id":"levelo_inurba_marseille","lat":43.29089,"lon":5.38143,"is_reserved":false,"is_disabled":false,"rental_uris":{"android":"levelo://app?vid=45e41555-8ff1-46a4-82c3-0f52a3959350","ios":"levelo://app?vid=45e41555-8ff1-46a4-82c3-0f52a3959350"},"vehicle_type_id":"4","last_reported":1726308511,"current_range_meters":29600,"station_id":"ce4bh512rcd13ifvqe2g","pricing_plan_id":"cebpf4jnsgd1na2vs0mg"},{"bike_id":"acd81ed3-0b35-411c-8897-94c279f3dedc","system_id":"levelo_inurba_marseille","lat":43.29967,"lon":5.38495,"is_reserved":false,"is_disabled":false,"rental_uris":{"android":"levelo://app?vid=acd81ed3-0b35-411c-8897-94c279f3dedc","ios":"levelo://app?vid=acd81ed3-0b35-411c-8897-94c279f3dedc"},"vehicle_type_id":"4","last_reported":1726308511,"current_range_meters":22800,"station_id":"ce4bgj92rcd13ifvqbd0","pricing_plan_id":"cebpf4jnsgd1na2vs0mg"},{"bike_id":"04352160-7c1d-41d9-b42f-eb5950269798","system_id":"levelo_inurba_marseille","lat":43.24388,"lon":5.3706,"is_reserved":false,"is_disabled":false,"rental_uris":{"android":"levelo://app?vid=04352160-7c1d-41d9-b42f-eb5950269798","ios":"levelo://app?vid=04352160-7c1d-41d9-b42f-eb5950269798"},"vehicle_type_id":"4","last_reported":1726308511,"current_range_meters":25600,"station_id":"ce4bhhh2rcd13ifvqfk0","pricing_plan_id":"cebpf4jnsgd1na2vs0mg"},{"bike_id":"7c6d8430-9394-4744-8c91-f7cdd15cc912","system_id":"levelo_inurba_marseille","lat":43.28723,"lon":5.37942,"is_reserved":false,"is_disabled":false,"rental_uris":{"android":"levelo://app?vid=7c6d8430-9394-4744-8c91-f7cdd15cc912","ios":"levelo://app?vid=7c6d8430-9394-4744-8c91-f7cdd15cc912"},"vehicle_type_id":"4","last_reported":1726308511,"current_range_meters":14800,"station_id":"ce4bh9p2rcd13ifvqec0","pricing_plan_id":"cebpf4jnsgd1na2vs0mg"},{"bike_id":"ad2f2f89-1fcf-4404-8e84-21ba9797fe4f","system_id":"levelo_inurba_marseille","lat":43.2606,"lon":5.39395,"is_reserved":false,"is_disabled":false,"rental_uris":{"android":"levelo://app?vid=ad2f2f89-1fcf-4404-8e84-21ba9797fe4f","ios":"levelo://app?vid=ad2f2f89-1fcf-4404-8e84-21ba9797fe4f"},"vehicle_type_id":"4","last_reported":1726308511,"current_range_meters":27200,"station_id":"ce4bhh92rcd13ifvqfj0","pricing_plan_id":"cebpf4jnsgd1na2vs0mg"},{"bike_id":"6d746e73-7306-44c6-8b16-f8928e1ba6a0","system_id":"levelo_inurba_marseille","lat":43.295815,"lon":5.367368,"is_reserved":false,"is_disabled":false,"rental_uris":{"android":"levelo://app?vid=6d746e73-7306-44c6-8b16-f8928e1ba6a0","ios":"levelo://app?vid=6d746e73-7306-44c6-8b16-f8928e1ba6a0"},"vehicle_type_id":"4","last_reported":1726308511,"current_range_meters":38000,"station_id":"ce4bgph2rcd13ifvqc2g","pricing_plan_id":"cebpf4jnsgd1na2vs0mg"},{"bike_id":"61e00977-be43-400f-99ea-3c33330f7657","system_id":"levelo_inurba_marseille","lat":43.25009,"lon":5.38913,"is_reserved":false,"is_disabled":false,"rental_uris":{"android":"levelo://app?vid=61e00977-be43-400f-99ea-3c33330f7657","ios":"levelo://app?vid=61e00977-be43-400f-99ea-3c33330f7657"},"vehicle_type_id":"4","last_reported":1726308511,"current_range_meters":20400,"station_id":"ce4bhgp2rcd13ifvqfd0","pricing_plan_id":"cebpf4jnsgd1na2vs0mg"},{"bike_id":"f34b735d-f80c-4966-9b6c-fe80bf7f1eb3","system_id":"levelo_inurba_marseille","lat":43.30467,"lon":5.37911,"is_reserved":false,"is_disabled":false,"rental_uris":{"android":"levelo://app?vid=f34b735d-f80c-4966-9b6c-fe80bf7f1eb3","ios":"levelo://app?vid=f34b735d-f80c-4966-9b6c-fe80bf7f1eb3"},"vehicle_type_id":"4","last_reported":1726308511,"current_range_meters":38400,"station_id":"ce4bgup2rcd13ifvqcn0","pricing_plan_id":"cebpf4jnsgd1na2vs0mg"},{"bike_id":"d1f38fcd-be46-4877-a9ac-34b365272c30","system_id":"levelo_inurba_marseille","lat":43.27099,"lon":5.43316,"is_reserved":false,"is_disabled":false,"rental_uris":{"android":"levelo://app?vid=d1f38fcd-be46-4877-a9ac-34b365272c30","ios":"levelo://app?vid=d1f38fcd-be46-4877-a9ac-34b365272c30"},"vehicle_type_id":"4","last_reported":1726308511,"current_range_meters":32800,"station_id":"","pricing_plan_id":"cebpf4jnsgd1na2vs0mg"},{"bike_id":"e97d39e8-52c6-4152-be07-23326430b066","system_id":"levelo_inurba_marseille","lat":43.30462,"lon":5.37894,"is_reserved":false,"is_disabled":false,"rental_uris":{"android":"levelo://app?vid=e97d39e8-52c6-4152-be07-23326430b066","ios":"levelo://app?vid=e97d39e8-52c6-4152-be07-23326430b066"},"vehicle_type_id":"4","last_reported":1726308511,"current_range_meters":25600,"station_id":"ce4bgup2rcd13ifvqcn0","pricing_plan_id":"cebpf4jnsgd1na2vs0mg"},{"bike_id":"d0199a96-7800-4e06-821e-e2d714001171","system_id":"levelo_inurba_marseille","lat":43.33783,"lon":5.37436,"is_reserved":false,"is_disabled":false,"rental_uris":{"android":"levelo://app?vid=d0199a96-7800-4e06-821e-e2d714001171","ios":"levelo://app?vid=d0199a96-7800-4e06-821e-e2d714001171"},"vehicle_type_id":"4","last_reported":1726308511,"current_range_meters":33600,"station_id":"","pricing_plan_id":"cebpf4jnsgd1na2vs0mg"},{"bike_id":"8b079d3f-120e-492a-b37f-cf2fbc19fc10","system_id":"levelo_inurba_marseille","lat":43.29366,"lon":5.3784,"is_reserved":false,"is_disabled":false,"rental_uris":{"android":"levelo://app?vid=8b079d3f-120e-492a-b37f-cf2fbc19fc10","ios":"levelo://app?vid=8b079d3f-120e-492a-b37f-cf2fbc19fc10"},"vehicle_type_id":"4","last_reported":1726308511,"current_range_meters":39200,"station_id":"ce4bgjh2rcd13ifvqbf0","pricing_plan_id":"cebpf4jnsgd1na2vs0mg"},{"bike_id":"fa49e1f9-9c49-4db5-afed-72daedf5707d","system_id":"levelo_inurba_marseille","lat":43.29906,"lon":5.38166,"is_reserved":false,"is_disabled":false,"rental_uris":{"android":"levelo://app?vid=fa49e1f9-9c49-4db5-afed-72daedf5707d","ios":"levelo://app?vid=fa49e1f9-9c49-4db5-afed-72daedf5707d"},"vehicle_type_id":"4","last_reported":1726308511,"current_range_meters":38000,"station_id":"ce4bgj12rcd13ifvqbc0","pricing_plan_id":"cebpf4jnsgd1na2vs0mg"},