{"last_updated":1746447573,"ttl":60,"version":"2.2","data":{"bikes":[{"bike_id":"387e75b7-4f8d-44ce-a7af-2b9a4713205f","system_id":"levelo_inurba_marseille","lat":43.28261,"lon":5.35054,"is_reserved":false,"is_disabled":false,"rental_uris":{"android":"levelo://app?vid=387e75b7-4f8d-44ce-a7af-2b9a4713205f","ios":"levelo://app?vid=387e75b7-4f8d-44ce-a7af-2b9a4713205f"},"vehicle_type_id":"4","last_reported":1746447574,"current_range_meters":2800,"station_id":"ce4bhbp2rcd13ifvqerg","pricing_plan_id":"cebpf4jnsgd1na2vs0mg"},{"bike_id":"63a466a2-ce7e-4af6-b37e-fc875abf202f","system_id":"levelo_inurba_marseille","lat":43.337444,"lon":5.374475,"is_reserved":false,"is_disabled":true,"rental_uris":{"android":"levelo://app?vid=63a466a2-ce7e-4af6-b37e-fc875abf202f","ios":"levelo://app?vid=63a466a2-ce7e-4af6-b37e-fc875abf202f"},"vehicle_type_id":"4","last_reported":1746447574,"current_range_meters":3200,"station_id":"ce4bgvp2rcd13ifvqct0","pricing_plan_id":"cebpf4jnsgd1na2vs0mg"},{"bike_id":"8b92de94-6a59-429a-b6cd-68e3bd87e648","system_id":"levelo_inurba_marseille","lat":43.27496,"lon":5.42445,"is_reserved":false,"is_disabled":false,"rental_uris":{"android":"levelo://app?vid=8b92de94-6a59-429a-b6cd-68e3bd87e648","ios":"levelo://app?vid=8b92de94-6a59-429a-b6cd-68e3bd87e648"},"vehicle_type_id":"4","last_reported":1746447574,"current_range_meters":3600,"station_id":"ce4bhn92rcd13ifvqgrg","pricing_plan_id":"cebpf4jnsgd1na2vs0mg"},{"bike_id":"1b18d14f-3563-4e51-9669-e8cc3fcad42d","system_id":"levelo_inurba_marseille","lat":43.29163,"lon":5.37166,"is_reserved":false,"is_disabled":false,"rental_uris":{"android":"levelo://app?vid=1b18d14f-3563-4e51-9669-e8cc3fcad42d","ios":"levelo://app?vid=1b18d14f-3563-4e51-9669-e8cc3fcad42d"},"vehicle_type_id":"4","last_reported":1746447574,"current_range_meters":3600,"station_id":"ce4bha92rcd13ifvqeh0","pricing_plan_id":"cebpf4jnsgd1na2vs0mg"},{"bike_id":"bf712315-1844-4a53-a16b-03cff732deaa","system_id":"levelo_inurba_marseille","lat":43.29035,"lon":5.39982,"is_reserved":false,"is_disabled":false,"rental_uris":{"android":"levelo://app?vid=bf712315-1844-4a53-a16b-03cff732deaa","ios":"levelo://app?vid=bf712315-1844-4a53-a16b-03cff732deaa"},"vehicle_type_id":"4","last_reported":1746447574,"current_range_meters":3200,"station_id":"ce4bh392rcd13ifvqdm0","pricing_plan_id":"cebpf4jnsgd1na2vs0mg"},{"bike_id":"92223605-099b-4a91-a37c-bdda8c1248c4","system_id":"levelo_inurba_marseille","lat":43.25931,"lon":5.40905,"is_reserved":false,"is_disabled":true,"rental_uris":{"android":"levelo://app?vid=92223605-099b-4a91-a37c-bdda8c1248c4","ios":"levelo://app?vid=92223605-099b-4a91-a37c-bdda8c1248c4"},"vehicle_type_id":"4","last_reported":1746447574,"current_range_meters":4000,"station_id":"ce4bhm92rcd13ifvqglg","pricing_plan_id":"cebpf4jnsgd1na2vs0mg"},{"bike_id":"b7b3b088-c5f3-4afd-a6ca-f06d9e4c6ef9","system_id":"levelo_inurba_marseille","lat":43.27126,"lon":5.4223,"is_reserved":false,"is_disabled":false,"rental_uris":{"android":"levelo://app?vid=b7b3b088-c5f3-4afd-a6ca-f06d9e4c6ef9","ios":"levelo://app?vid=b7b3b088-c5f3-4afd-a6ca-f06d9e4c6ef9"},"vehicle_type_id":"4","last_reported":1746447574,"current_range_meters":4000,"station_id":"","pricing_plan_id":"cebpf4jnsgd1na2vs0mg"},{"bike_id":"4c3b5933-7858-45b9-b654-4881a8c82579","system_id":"levelo_inurba_marseille","lat":43.242191,"lon":5.367354,"is_reserved":false,"is_disabled":true,"rental_uris":{"android":"levelo://app?vid=4c3b5933-7858-45b9-b654-4881a8c82579","ios":"levelo://app?vid=4c3b5933-7858-45b9-b654-4881a8c82579"},"vehicle_type_id":"4","last_reported":1746447574,"current_range_meters":4000,"station_id":"","pricing_plan_id":"cebpf4jnsgd1na2vs0mg"},{"bike_id":"bb5f6d8d-512a-4326-8dab-fc655f5a7ac8","system_id":"levelo_inurba_marseille","lat":43.286973,"lon":5.39987,"is_reserved":false,"is_disabled":false,"rental_uris":{"android":"levelo://app?vid=bb5f6d8d-512a-4326-8dab-fc655f5a7ac8","ios":"levelo://app?vid=bb5f6d8d-512a-4326-8dab-fc655f5a7ac8"},"vehicle_type_id":"4","last_reported":1746447574,"current_range_meters":4400,"station_id":"ce4bho92rcd13ifvqh3g","pricing_plan_id":"cebpf4jnsgd1na2vs0mg"},{"bike_id":"eeee8669-ab90-45c0-8608-bc991f696b14","system_id":"levelo_inurba_marseille","lat":43.271837,"lon":5.409951,"is_reserved":false,"is_disabled":false,"rental_uris":{"android":"levelo://app?vid=eeee8669-ab90-45c0-8608-bc991f696b14","ios":"levelo://app?vid=eeee8669-ab90-45c0-8608-bc991f696b14"},"vehicle_type_id":"4","last_reported":1746447574,"current_range_meters":5600,"station_id":"ce4bhl12rcd13ifvqgf0","pricing_plan_id":"cebpf4jnsgd1na2vs0mg"},{"bike_id":"d1d95506-bf68-429c-baa5-fbfdfaa44407","system_id":"levelo_inurba_marseille","lat":43.27373,"lon":5.362545,"is_reserved":false,"is_disabled":true,"rental_uris":{"android":"levelo://app?vid=d1d95506-bf68-429c-baa5-fbfdfaa44407","ios":"levelo://app?vid=d1d95506-bf68-429c-baa5-fbfdfaa44407"},"vehicle_type_id":"4","last_reported":1746447574,"current_range_meters":5600,"station_id":"","pricing_plan_id":"cebpf4jnsgd1na2vs0mg"},{"bike_id":"e2117cd5-91ef-4004-ad75-58f834ea535a","system_id":"levelo_inurba_marseille","lat":43.26772,"lon":5.39419,"is_reserved":false,"is_disabled":false,"rental_uris":{"android":"levelo://app?vid=e2117cd5-91ef-4004-ad75-58f834ea535a","ios":"levelo://app?vid=e2117cd5-91ef-4004-ad75-58f834ea535a"},"vehicle_type_id":"4","last_reported":1746447574,"current_range_meters":4800,"station_id":"ce4bhh12rcd13ifvqfg0","pricing_plan_id":"cebpf4jnsgd1na2vs0mg"},{"bike_id":"e48feec7-f868-4b22-9d1f-5c0f342151cf","system_id":"levelo_inurba_marseille","lat":43.29287,"lon":5.40125,"is_reserved":false,"is_disabled":false,"rental_uris":{"android":"levelo://app?vid=e48feec7-f868-4b22-9d1f-5c0f342151cf","ios":"levelo://app?vid=e48feec7-f868-4b22-9d1f-5c0f342151cf"},"vehicle_type_id":"4","last_reported":1746447574,"current_range_meters":6000,"station_id":"ce4bh312rcd13ifvqdk0","pricing_plan_id":"cebpf4jnsgd1na2vs0mg"},{"bike_id":"ca1f9d22-3331-432b-86dd-79ce401b6bfe","system_id":"levelo_inurba_marseille","lat":43.27495,"lon":5.424545,"is_reserved":false,"is_disabled":false,"rental_uris":{"android":"levelo://app?vid=ca1f9d22-3331-432b-86dd-79ce401b6bfe","ios":"levelo://app?vid=ca1f9d22-3331-432b-86dd-79ce401b6bfe"},"vehicle_type_id":"4","last_reported":1746447574,"current_range_meters":6000,"station_id":"ce4bhn92rcd13ifvqgrg","pricing_plan_id":"cebpf4jnsgd1na2vs0mg"},{"bike_id":"47d4a63d-bab1-43ad-9290-2f089fc0e561","system_id":"levelo_inurba_marseille","lat":43.312297,"lon":5.36859,"is_reserved":false,"is_disabled":false,"rental_uris":{"android":"levelo://app?vid=47d4a63d-bab1-43ad-9290-2f089fc0e561","ios":"levelo://app?vid=47d4a63d-bab1-43ad-9290-2f089fc0e561"},"vehicle_type_id":"4","last_reported":1746447574,"current_range_meters":6000,"station_id":"ce4bgl92rcd13ifvqbq0","pricing_plan_id":"cebpf4jnsgd1na2vs0mg"},{"bike_id":"b05aecf1-4639-4323-bdd3-5eae8019fd79","system_id":"levelo_inurba_marseille","lat":43.30808,"lon":5.38137,"is_reserved":false,"is_disabled":false,"rental_uris":{"android":"levelo://app?vid=b05aecf1-4639-4323-bdd3-5eae8019fd79","ios":"levelo://app?vid=b05aecf1-4639-4323-bdd3-5eae8019fd79"},"vehicle_type_id":"4","last_reported":1746447574,"current_range_meters":4800,"station_id":"ce4bgt12rcd13ifvqce0","pricing_plan_id":"cebpf4jnsgd1na2vs0mg"},{"bike_id":"fedf72f4-0437-48db-afd3-5f8fc0bb6b93","system_id":"levelo_inurba_marseille","lat":43.27389,"lon":5.39032,"is_reserved":false,"is_disabled":false,"rental_uris":{"android":"levelo://app?vid=fedf72f4-0437-48db-afd3-5f8fc0bb6b93","ios":"levelo://app?vid=fedf72f4-0437-48db-afd3-5f8fc0bb6b93"},"vehicle_type_id":"4","last_reported":1746447574,"current_range_meters":6400,"station_id":"","pricing_plan_id":"cebpf4jnsgd1na2vs0mg"},{"bike_id":"01d42fca-fbc9-4355-9fff-bcf25497bafd","system_id":"levelo_inurba_marseille","lat":43.28158,"lon":5.42651,"is_reserved":false,"is_disabled":false,"rental_uris":{"android":"levelo://app?vid=01d42fca-fbc9-4355-9fff-bcf25497bafd","ios":"levelo://app?vid=01d42fca-fbc9-4355-9fff-bcf25497bafd"},"vehicle_type_id":"4","last_reported":1746447574,"current_range_meters":6400,"station_id":"ce4bhnh2rcd13ifvqgug","pricing_plan_id":"cebpf4jnsgd1na2vs0mg"},{"bike_id":"6d58f861-82dc-4144-bffd-55e9c899062b","system_id":"levelo_inurba_marseille","lat":43.29526,"lon":5.38539,"is_reserved":false,"is_disabled":false,"rental_uris":{"android":"levelo://app?vid=6d58f861-82dc-4144-bffd-55e9c899062b","ios":"levelo://app?vid=6d58f861-82dc-4144-bffd-55e9c899062b"},"vehicle_type_id":"4","last_reported":1746447574,"current_range_meters":6400,"station_id":"ce4bgih2rcd13ifvqba0","pricing_plan_id":"cebpf4jnsgd1na2vs0mg"},{"bike_id":"45488fcc-1a87-4f5b-ba71-ba4e9ad7f2bd","system_id":"levelo_inurba_marseille","lat":43.29558,"lon":5.42293,"is_reserved":false,"is_disabled":false,"rental_uris":{"android":"levelo://app?vid=45488fcc-1a87-4f5b-ba71-ba4e9ad7f2bd","ios":"levelo://app?vid=45488fcc-1a87-4f5b-ba71-ba4e9ad7f2bd"},"vehicle_type_id":"4","last_reported":1746447574,"current_range_meters":6400,"station_id":"ce4bhph2rcd13ifvqhdg","pricing_plan_id":"cebpf4jnsgd1na2vs0mg"},{"bike_id":"616a5f81-e840-477d-8c8f-dbf317102eda","system_id":"levelo_inurba_marseille","lat":43.2593,"lon":5.40913,"is_reserved":false,"is_disabled":false,"rental_uris":{"android":"levelo://app?vid=616a5f81-e840-477d-8c8f-dbf317102eda","ios":"levelo://app?vid=616a5f81-e840-477d-8c8f-dbf317102eda"},"vehicle_type_id":"4","last_reported":1746447574,"current_range_meters":6400,"station_id":"ce4bhm92rcd13ifvqglg","pricing_plan_id":"cebpf4jnsgd1na2vs0mg"},{"bike_id":"b27cbc7f-086e-43a0-89a5-dfc420dbb6d9","system_id":"levelo_inurba_marseille","lat":43.28616,"lon":5.35107,"is_reserved":false,"is_disabled":false,"rental_uris":{"android":"levelo://app?vid=b27cbc7f-086e-43a0-89a5-dfc420dbb6d9","ios":"levelo://app?vid=b27cbc7f-086e-43a0-89a5-dfc420dbb6d9"},"vehicle_type_id":"4","last_reported":1746447574,"current_range_meters":6400,"station_id":"ce4bhch2rcd13ifvqeug","pricing_plan_id":"cebpf4jnsgd1na2vs0mg"},{"bike_id":"12d40229-924c-49b6-a0a9-234b4cf3d998","system_id":"levelo_inurba_marseille","lat":43.26028,"lon":5.37547,"is_reserved":false,"is_disabled":false,"rental_uris":{"android":"levelo://app?vid=12d40229-924c-49b6-a0a9-234b4cf3d998","ios":"levelo://app?vid=12d40229-924c-49b6-a0a9-234b4cf3d998"},"vehicle_type_id":"4","last_reported":1746447574,"current_range_meters":6800,"station_id":"ce4bhgh2rcd13ifvqfa0","pricing_plan_id":"cebpf4jnsgd1na2vs0mg"},{"bike_id":"053898c7-dc25-4e7b-ba9c-6f4ccdf0ebe2","system_id":"levelo_inurba_marseille","lat":43.24806,"lon":5.37456,"is_reserved":false,"is_disabled":false,"rental_uris":{"android":"levelo://app?vid=053898c7-dc25-4e7b-ba9c-6f4ccdf0ebe2","ios":"levelo://app?vid=053898c7-dc25-4e7b-ba9c-6f4ccdf0ebe2"},"vehicle_type_id":"4","last_reported":1746447574,"current_range_meters":6800,"station_id":"ce4bhgh2rcd13ifvqfb0","pricing_plan_id":"cebpf4jnsgd1na2vs0mg"},{"bike_id":"7bbc4c9f-a915-4c52-8bfc-ca3789b7c6ce","system_id":"levelo_inurba_marseille","lat":43.304608,"lon":5.378997,"is_reserved":false,"is_disabled":true,"rental_uris":{"android":"levelo://app?vid=7bbc4c9f-a915-4c52-8bfc-ca3789b7c6ce","ios":"levelo://app?vid=7bbc4c9f-a915-4c52-8bfc-ca3789b7c6ce"},"vehicle_type_id":"4","last_reported":1746447574,"current_range_meters":6800,"station_id":"ce4bgup2rcd13ifvqcn0","pricing_plan_id":"cebpf4jnsgd1na2vs0mg"},{"bike_id":"fea4f77b-2e28-4c65-a748-08d8f2aa70ce","system_id":"levelo_inurba_marseille","lat":43.25,"lon":5.38922,"is_reserved":false,"is_disabled":false,"rental_uris":{"android":"levelo://app?vid=fea4f77b-2e28-4c65-a748-08d8f2aa70ce","ios":"levelo://app?vid=fea4f77b-2e28-4c65-a748-08d8f2aa70ce"},"vehicle_type_id":"4","last_reported":1746447574,"current_range_meters":6800,"station_id":"ce4bhgp2rcd13ifvqfd0","pricing_plan_id":"cebpf4jnsgd1na2vs0mg"},{"bike_id":"cdc1668f-85ab-439d-adf5-10582e30c671","system_id":"levelo_inurba_marseille","lat":43.30725,"lon":5.42435,"is_reserved":false,"is_disabled":false,"rental_uris":{"android":"levelo://app?vid=cdc1668f-85ab-439d-adf5-10582e30c671","ios":"levelo://app?vid=cdc1668f-85ab-439d-adf5-10582e30c671"},"vehicle_type_id":"4","last_reported":1746447574,"current_range_meters":6800,"station_id":"st_cvj6ca6bvosntc0bfgr0","pricing_plan_id":"cebpf4jnsgd1na2vs0mg"},{"bike_id":"c920f6c1-6e9a-46ac-92ae-ed92f4d6e267","system_id":"levelo_inurba_marseille","lat":43.30378,"lon":5.4249,"is_reserved":false,"is_disabled":false,"rental_uris":{"android":"levelo://app?vid=c920f6c1-6e9a-46ac-92ae-ed92f4d6e267","ios":"levelo://app?vid=c920f6c1-6e9a-46ac-92ae-ed92f4d6e267"},"vehicle_type_id":"4","last_reported":1746447574,"current_range_meters":7200,"station_id":"ce4bhoh2rcd13ifvqh6g","pricing_plan_id":"cebpf4jnsgd1na2vs0mg"},{"bike_id":"4d42022f-2067-4612-ab32-5fba0c3df548","system_id":"levelo_inurba_marseille","lat":43.2937,"lon":5.37857,"is_reserved":false,"is_disabled":false,"rental_uris":{"android":"levelo://app?vid=4d42022f-2067-4612-ab32-5fba0c3df548","ios":"levelo://app?vid=4d42022f-2067-4612-ab32-5fba0c3df548"},"vehicle_type_id":"4","last_reported":1746447574,"current_range_meters":6800,"station_id":"ce4bgjh2rcd13ifvqbf0","pricing_plan_id":"cebpf4jnsgd1na2vs0mg"},{"bike_id":"49d2e8c6-5ec7-450d-97f4-d767c912f4ee","system_id":"levelo_inurba_marseille","lat":43.25926,"lon":5.40909,"is_reserved":false,"is_disabled":false,"rental_uris":{"android":"levelo://app?vid=49d2e8c6-5ec7-450d-97f4-d767c912f4ee","ios":"levelo://app?vid=49d2e8c6-5ec7-450d-97f4-d767c912f4ee"},"vehicle_type_id":"4","last_reported":1746447574,"current_range_meters":7200,"station_id":"ce4bhm92rcd13ifvqglg","pricing_plan_id":"cebpf4jnsgd1na2vs0mg"},{"bike_id":"66b646b3-6352-44bb-9bfb-21570512e3e5","system_id":"levelo_inurba_marseille","lat":43.28094,"lon":5.40388,"is_reserved":false,"is_disabled":false,"rental_uris":{"android":"levelo://app?vid=66b646b3-6352-44bb-9bfb-21570512e3e5","ios":"levelo://app?vid=66b646b3-6352-44bb-9bfb-21570512e3e5"},"vehicle_type_id":"4","last_reported":1746447574,"current_range_meters":8000,"station_id":"","pricing_plan_id":"cebpf4jnsgd1na2vs0mg"},{"bike_id":"9633523b-42aa-4060-9502-3100756d9313","system_id":"levelo_inurba_marseille","lat":43.30532,"lon":5.36532,"is_reserved":false,"is_disabled":false,"rental_uris":{"android":"levelo://app?vid=9633523b-42aa-4060-9502-3100756d9313","ios":"levelo://app?vid=9633523b-42aa-4060-9502-3100756d9313"},"vehicle_type_id":"4","last_reported":1746447574,"current_range_meters":8000,"station_id":"ce4bgs12rcd13ifvqcag","pricing_plan_id":"cebpf4jnsgd1na2vs0mg"},{"bike_id":"0b7cade2-5f15-4af3-9920-27fa72ae6a7f","system_id":"levelo_inurba_marseille","lat":43.29583,"lon":5.36737,"is_reserved":false,"is_disabled":false,"rental_uris":{"android":"levelo://app?vid=0b7cade2-5f15-4af3-9920-27fa72ae6a7f","ios":"levelo://app?vid=0b7cade2-5f15-4af3-9920-27fa72ae6a7f"},"vehicle_type_id":"4","last_reported":1746447574,"current_range_meters":8000,"station_id":"ce4bgph2rcd13ifvqc2g","pricing_plan_id":"cebpf4jnsgd1na2vs0mg"},{"bike_id":"ee4f84d4-409a-417c-8ca9-aabf72b77405","system_id":"levelo_inurba_marseille","lat":43.28489,"lon":5.38415,"is_reserved":false,"is_disabled":false,"rental_uris":{"android":"levelo://app?vid=ee4f84d4-409a-417c-8ca9-aabf72b77405","ios":"levelo://app?vid=ee4f84d4-409a-417c-8ca9-aabf72b77405"},"vehicle_type_id":"4","last_reported":1746447574,"current_range_meters":8000,"station_id":"ce4bh512rcd13ifvqe3g","pricing_plan_id":"cebpf4jnsgd1na2vs0mg"},{"bike_id":"f245b337-280b-4444-90f9-17983b56c3ca","system_id":"levelo_inurba_marseille","lat":43.26248,"lon":5.40436,"is_reserved":false,"is_disabled":false,"rental_uris":{"android":"levelo://app?vid=f245b337-280b-4444-90f9-17983b56c3ca","ios":"levelo://app?vid=f245b337-280b-4444-90f9-17983b56c3ca"},"vehicle_type_id":"4","last_reported":1746447574,"current_range_meters":8000,"station_id":"ce4bhmh2rcd13ifvqgmg","pricing_plan_id":"cebpf4jnsgd1na2vs0mg"},{"bike_id":"26dd9f4d-ce9e-4365-b279-fc9c56040cc4","system_id":"levelo_inurba_marseille","lat":43.323645,"lon":5.36762,"is_reserved":false,"is_disabled":false,"rental_uris":{"android":"levelo://app?vid=26dd9f4d-ce9e-4365-b279-fc9c56040cc4","ios":"levelo://app?vid=26dd9f4d-ce9e-4365-b279-fc9c56040cc4"},"vehicle_type_id":"4","last_reported":1746447574,"current_range_meters":8000,"station_id":"ce4bhsh2rcd13ifvqi2g","pricing_plan_id":"cebpf4jnsgd1na2vs0mg"},{"bike_id":"b7b8cd67-6146-4388-8e10-5d1c01257b46","system_id":"levelo_inurba_marseille","lat":43.23152,"lon":5.4372,"is_reserved":false,"is_disabled":false,"rental_uris":{"android":"levelo://app?vid=b7b8cd67-6146-4388-8e10-5d1c01257b46","ios":"levelo://app?vid=b7b8cd67-6146-4388-8e10-5d1c01257b46"},"vehicle_type_id":"4","last_reported":1746447574,"current_range_meters":8400,"station_id":"ce4bhmp2rcd13ifvqgog","pricing_plan_id":"cebpf4jnsgd1na2vs0mg"},{"bike_id":"9dda1e11-8eac-4d06-a89a-fd90289c28a1","system_id":"levelo_inurba_marseille","lat":43.27905,"lon":5.37981,"is_reserved":false,"is_disabled":true,"rental_uris":{"android":"levelo://app?vid=9dda1e11-8eac-4d06-a89a-fd90289c28a1","ios":"levelo://app?vid=9dda1e11-8eac-4d06-a89a-fd90289c28a1"},"vehicle_type_id":"4","last_reported":1746447574,"current_range_meters":8400,"station_id":"ce4bhf92rcd13ifvqf50","pricing_plan_id":"cebpf4jnsgd1na2vs0mg"},{"bike_id":"aa71114b-e901-403c-8b3d-218e783f6d09","system_id":"levelo_inurba_marseille","lat":43.30529,"lon":5.36523,"is_reserved":false,"is_disabled":false,"rental_uris":{"android":"levelo://app?vid=aa71114b-e901-403c-8b3d-218e783f6d09","ios":"levelo://app?vid=aa71114b-e901-403c-8b3d-218e783f6d09"},"vehicle_type_id":"4","last_reported":1746447574,"current_range_meters":8400,"station_id":"ce4bgs12rcd13ifvqcag","pricing_plan_id":"cebpf4jnsgd1na2vs0mg"},{"bike_id":"e89cb0eb-e83f-4ebe-aafe-0e6b5750fc1f","system_id":"levelo_inurba_marseille","lat":43.28846,"lon":5.39299,"is_reserved":false,"is_disabled":false,"rental_uris":{"android":"levelo://app?vid=e89cb0eb-e83f-4ebe-aafe-0e6b5750fc1f","ios":"levelo://app?vid=e89cb0eb-e83f-4ebe-aafe-0e6b5750fc1f"},"vehicle_type_id":"4","last_reported":1746447574,"current_range_meters":8400,"station_id":"ce4bh2p2rcd13ifvqdi0","pricing_plan_id":"cebpf4jnsgd1na2vs0mg"},{"bike_id":"a850cf2e-533f-4d38-8025-e2242781de3e","system_id":"levelo_inurba_marseille","lat":43.23958,"lon":5.3662,"is_reserved":false,"is_disabled":true,"rental_uris":{"android":"levelo://app?vid=a850cf2e-533f-4d38-8025-e2242781de3e","ios":"levelo://app?vid=a850cf2e-533f-4d38-8025-e2242781de3e"},"vehicle_type_id":"4","last_reported":1746447574,"current_range_meters":8800,"station_id":"ce4bhi12rcd13ifvqfp0","pricing_plan_id":"cebpf4jnsgd1na2vs0mg"},{"bike_id":"dde77f7b-722d-4765-b105-b453e273eb3a","system_id":"levelo_inurba_marseille","lat":43.24172,"lon":5.39731,"is_reserved":false,"is_disabled":false,"rental_uris":{"android":"levelo://app?vid=dde77f7b-722d-4765-b105-b453e273eb3a","ios":"levelo://app?vid=dde77f7b-722d-4765-b105-b453e273eb3a"},"vehicle_type_id":"4","last_reported":1746447574,"current_range_meters":8800,"station_id":"ce4bhn12rcd13ifvqgpg","pricing_plan_id":"cebpf4jnsgd1na2vs0mg"},{"bike_id":"3867967d-dcae-45f8-a7a0-93c4621d72de","system_id":"levelo_inurba_marseille","lat":43.30538,"lon":5.36567,"is_reserved":false,"is_disabled":false,"rental_uris":{"android":"levelo://app?vid=3867967d-dcae-45f8-a7a0-93c4621d72de","ios":"levelo://app?vid=3867967d-dcae-45f8-a7a0-93c4621d72de"},"vehicle_type_id":"4","last_reported":1746447574,"current_range_meters":8800,"station_id":"ce4bgs12rcd13ifvqcag","pricing_plan_id":"cebpf4jnsgd1na2vs0mg"},{"bike_id":"2960d680-f98f-41d7-9415-05d857b0e2b7","system_id":"levelo_inurba_marseille","lat":43.31361,"lon":5.36701,"is_reserved":false,"is_disabled":false,"rental_uris":{"android":"levelo://app?vid=2960d680-f98f-41d7-9415-05d857b0e2b7","ios":"levelo://app?vid=2960d680-f98f-41d7-9415-05d857b0e2b7"},"vehicle_type_id":"4","last_reported":1746447574,"current_range_meters":8800,"station_id":"ce4bgr92rcd13ifvqc6g","pricing_plan_id":"cebpf4jnsgd1na2vs0mg"},{"bike_id":"756f0f17-ac06-4840-8c95-76390de4c0c9","system_id":"levelo_inurba_marseille","lat":43.282684,"lon":5.350691,"is_reserved":false,"is_disabled":false,"rental_uris":{"android":"levelo://app?vid=756f0f17-ac06-4840-8c95-76390de4c0c9","ios":"levelo://app?vid=756f0f17-ac06-4840-8c95-76390de4c0c9"},"vehicle_type_id":"4","last_reported":1746447574,"current_range_meters":9200,"station_id":"ce4bhbp2rcd13ifvqerg","pricing_plan_id":"cebpf4jnsgd1na2vs0mg"},{"bike_id":"2d972dd0-5330-4a05-8b3d-82bcc7967cae","system_id":"levelo_inurba_marseille","lat":43.33604,"lon":5.41032,"is_reserved":false,"is_disabled":false,"rental_uris":{"android":"levelo://app?vid=2d972dd0-5330-4a05-8b3d-82bcc7967cae","ios":"levelo://app?vid=2d972dd0-5330-4a05-8b3d-82bcc7967cae"},"vehicle_type_id":"4","last_reported":1746447574,"current_range_meters":9200,"station_id":"ce4bhqh2rcd13ifvqhmg","pricing_plan_id":"cebpf4jnsgd1na2vs0mg"},{"bike_id":"67b0d4aa-1497-4374-bfed-7c135f3c8ba6","system_id":"levelo_inurba_marseille","lat":43.23152,"lon":5.43714,"is_reserved":false,"is_disabled":false,"rental_uris":{"android":"levelo://app?vid=67b0d4aa-1497-4374-bfed-7c135f3c8ba6","ios":"levelo://app?vid=67b0d4aa-1497-4374-bfed-7c135f3c8ba6"},"vehicle_type_id":"4","last_reported":1746447574,"current_range_meters":9200,"station_id":"ce4bhmp2rcd13ifvqgog","pricing_plan_id":"cebpf4jnsgd1na2vs0mg"},{"bike_id":"51552443-7d48-4ace-8f7f-7e879eb09b3e","system_id":"levelo_inurba_marseille","lat":43.241774,"lon":5.397243,"is_reserved":false,"is_disabled":false,"rental_uris":{"android":"levelo://app?vid=51552443-7d48-4ace-8f7f-7e879eb09b3e","ios":"levelo://app?vid=51552443-7d48-4ace-8f7f-7e879eb09b3e"},"vehicle_type_id":"4","last_reported":1746447574,"current_range_meters":9200,"station_id":"ce4bhn12rcd13ifvqgpg","pricing_plan_id":"cebpf4jnsgd1na2vs0mg"},{"bike_id":"35f03362-c15a-4cb6-aa2a-92d0139080f9","system_id":"levelo_inurba_marseille","lat":43.32112,"lon":5.36756,"is_reserved":false,"is_disabled":false,"rental_uris":{"android":"levelo://app?vid=35f03362-c15a-4cb6-aa2a-92d0139080f9","ios":"levelo://app?vid=35f03362-c15a-4cb6-aa2a-92d0139080f9"},"vehicle_type_id":"4","last_reported":1746447574,"current_range_meters":9200,"station_id":"ce4bhrh2rcd13ifvqhug","pricing_plan_id":"cebpf4jnsgd1na2vs0mg"},{"bike_id":"6acb6853-f083-4e17-a8a4-94fb96c979d7","system_id":"levelo_inurba_marseille","lat":43.27565,"lon":5.3843,"is_reserved":false,"is_disabled":false,"rental_uris":{"android":"levelo://app?vid=6acb6853-f083-4e17-a8a4-94fb96c979d7","ios":"levelo://app?vid=6acb6853-f083-4e17-a8a4-94fb96c979d7"},"vehicle_type_id":"4","last_reported":1746447574,"current_range_meters":9200,"station_id":"ce4bhh92rcd13ifvqfi0","pricing_plan_id":"cebpf4jnsgd1na2vs0mg"},{"bike_id":"da3f6aa6-0e80-441f-b0ca-d5fd3c5dd5da","system_id":"levelo_inurba_marseille","lat":43.28942,"lon":5.39633,"is_reserved":false,"is_disabled":false,"rental_uris":{"android":"levelo://app?vid=da3f6aa6-0e80-441f-b0ca-d5fd3c5dd5da","ios":"levelo://app?vid=da3f6aa6-0e80-441f-b0ca-d5fd3c5dd5da"},"vehicle_type_id":"4","last_reported":1746447574,"current_range_meters":8800,"station_id":"ce4bh3h2rcd13ifvqdn0","pricing_plan_id":"cebpf4jnsgd1na2vs0mg"},{"bike_id":"5c7249a3-596f-4101-8dbd-1087a1f3b438","system_id":"levelo_inurba_marseille","lat":43.231896,"lon":5.355594,"is_reserved":false,"is_disabled":false,"rental_uris":{"android":"levelo://app?vid=5c7249a3-596f-4101-8dbd-1087a1f3b438","ios":"levelo://app?vid=5c7249a3-596f-4101-8dbd-1087a1f3b438"},"vehicle_type_id":"4","last_reported":1746447574,"current_range_meters":9600,"station_id":"ce4bhu92rcd13ifvqi70","pricing_plan_id":"cebpf4jnsgd1na2vs0mg"},{"bike_id":"7d03f4d6-e301-4ac3-9156-6ef339856445","system_id":"levelo_inurba_marseille","lat":43.2417,"lon":5.36397,"is_reserved":false,"is_disabled":false,"rental_uris":{"android":"levelo://app?vid=7d03f4d6-e301-4ac3-9156-6ef339856445","ios":"levelo://app?vid=7d03f4d6-e301-4ac3-9156-6ef339856445"},"vehicle_type_id":"4","last_reported":1746447574,"current_range_meters":10000,"station_id":"cpo36qri1sfpv3e86is0","pricing_plan_id":"cebpf4jnsgd1na2vs0mg"},{"bike_id":"60fe03ce-225d-4bd9-b13e-951bd314c73f","system_id":"levelo_inurba_marseille","lat":43.241786,"lon":5.397261,"is_reserved":false,"is_disabled":false,"rental_uris":{"android":"levelo://app?vid=60fe03ce-225d-4bd9-b13e-951bd314c73f","ios":"levelo://app?vid=60fe03ce-225d-4bd9-b13e-951bd314c73f"},"vehicle_type_id":"4","last_reported":1746447574,"current_range_meters":10000,"station_id":"ce4bhn12rcd13ifvqgpg","pricing_plan_id":"cebpf4jnsgd1na2vs0mg"},{"bike_id":"d7ced594-6501-48d1-9888-8fe268de6fad","system_id":"levelo_inurba_marseille","lat":43.24176,"lon":5.39725,"is_reserved":false,"is_disabled":false,"rental_uris":{"android":"levelo://app?vid=d7ced594-6501-48d1-9888-8fe268de6fad","ios":"levelo://app?vid=d7ced594-6501-48d1-9888-8fe268de6fad"},"vehicle_type_id":"4","last_reported":1746447574,"current_range_meters":10000,"station_id":"ce4bhn12rcd13ifvqgpg","pricing_plan_id":"cebpf4jnsgd1na2vs0mg"},{"bike_id":"6dea99d9-3750-4f92-8094-151420225c99","system_id":"levelo_inurba_marseille","lat":43.30605,"lon":5.393797,"is_reserved":false,"is_disabled":false,"rental_uris":{"android":"levelo://app?vid=6dea99d9-3750-4f92-8094-151420225c99","ios":"levelo://app?vid=6dea99d9-3750-4f92-8094-151420225c99"},"vehicle_type_id":"4","last_reported":1746447574,"current_range_meters":10000,"station_id":"ce4bh012rcd13ifvqcv0","pricing_plan_id":"cebpf4jnsgd1na2vs0mg"},{"bike_id":"1f0b5bb3-e594-4749-9e49-b6d49041d302","system_id":"levelo_inurba_marseille","lat":43.29042,"lon":5.37569,"is_reserved":false,"is_disabled":false,"rental_uris":{"android":"levelo://app?vid=1f0b5bb3-e594-4749-9e49-b6d49041d302","ios":"levelo://app?vid=1f0b5bb3-e594-4749-9e49-b6d49041d302"},"vehicle_type_id":"4","last_reported":1746447574,"current_range_meters":10000,"station_id":"ce4bh692rcd13ifvqe90","pricing_plan_id":"cebpf4jnsgd1na2vs0mg"},{"bike_id":"b0f6aa0d-c8d3-4b3e-8b8f-0bada10f34b6","system_id":"levelo_inurba_marseille","lat":43.28945,"lon":5.36389,"is_reserved":false,"is_disabled":false,"rental_uris":{"android":"levelo://app?vid=b0f6aa0d-c8d3-4b3e-8b8f-0bada10f34b6","ios":"levelo://app?vid=b0f6aa0d-c8d3-4b3e-8b8f-0bada10f34b6"},"vehicle_type_id":"4","last_reported":1746447574,"current_range_meters":10000,"station_id":"ce4bhc92rcd13ifvqetg","pricing_plan_id":"cebpf4jnsgd1na2vs0mg"},{"bike_id":"a61d672b-4cf5-4ee5-bceb-8d3d8d43216a","system_id":"levelo_inurba_marseille","lat":43.298428,"lon":5.36262,"is_reserved":false,"is_disabled":false,"rental_uris":{"android":"levelo://app?vid=a61d672b-4cf5-4ee5-bceb-8d3d8d43216a","ios":"levelo://app?vid=a61d672b-4cf5-4ee5-bceb-8d3d8d43216a"},"vehicle_type_id":"4","last_reported":1746447574,"current_range_meters":10000,"station_id":"ce4bgpp2rcd13ifvqc3g","pricing_plan_id":"cebpf4jnsgd1na2vs0mg"},{"bike_id":"04c2ea43-c898-4799-bce9-3820147f904a","system_id":"levelo_inurba_marseille","lat":43.29926,"lon":5.3653,"is_reserved":false,"is_disabled":false,"rental_uris":{"android":"levelo://app?vid=04c2ea43-c898-4799-bce9-3820147f904a","ios":"levelo://app?vid=04c2ea43-c898-4799-bce9-3820147f904a"},"vehicle_type_id":"4","last_reported":1746447574,"current_range_meters":10800,"station_id":"ce4bgm92rcd13ifvqbr0","pricing_plan_id":"cebpf4jnsgd1na2vs0mg"},{"bike_id":"8a3f5947-1975-4719-995f-c8dbb6611f17","system_id":"levelo_inurba_marseille","lat":43.23147,"lon":5.437157,"is_reserved":false,"is_disabled":false,"rental_uris":{"android":"levelo://app?vid=8a3f5947-1975-4719-995f-c8dbb6611f17","ios":"levelo://app?vid=8a3f5947-1975-4719-995f-c8dbb6611f17"},"vehicle_type_id":"4","last_reported":1746447574,"current_range_meters":10800,"station_id":"ce4bhmp2rcd13ifvqgog","pricing_plan_id":"cebpf4jnsgd1na2vs0mg"},{"bike_id":"c7d8bcea-0651-4117-a3ff-a304302270ab","system_id":"levelo_inurba_marseille","lat":43.29548,"lon":5.4228,"is_reserved":false,"is_disabled":false,"rental_uris":{"android":"levelo://app?vid=c7d8bcea-0651-4117-a3ff-a304302270ab","ios":"levelo://app?vid=c7d8bcea-0651-4117-a3ff-a304302270ab"},"vehicle_type_id":"4","last_reported":1746447574,"current_range_meters":10800,"station_id":"ce4bhph2rcd13ifvqhdg","pricing_plan_id":"cebpf4jnsgd1na2vs0mg"},{"bike_id":"1d4617a8-4b32-41b0-b541-5b0cd4a5cdef","system_id":"levelo_inurba_marseille","lat":43.30294,"lon":5.36889,"is_reserved":false,"is_disabled":false,"rental_uris":{"android":"levelo://app?vid=1d4617a8-4b32-41b0-b541-5b0cd4a5cdef","ios":"levelo://app?vid=1d4617a8-4b32-41b0-b541-5b0cd4a5cdef"},"vehicle_type_id":"4","last_reported":1746447574,"current_range_meters":10800,"station_id":"ce4bgqh2rcd13ifvqc5g","pricing_plan_id":"cebpf4jnsgd1na2vs0mg"},{"bike_id":"e9ac8fb6-b954-4dbb-8252-d52ff72d86bf","system_id":"levelo_inurba_marseille","lat":43.26202,"lon":5.37927,"is_reserved":false,"is_disabled":false,"rental_uris":{"android":"levelo://app?vid=e9ac8fb6-b954-4dbb-8252-d52ff72d86bf","ios":"levelo://app?vid=e9ac8fb6-b954-4dbb-8252-d52ff72d86bf"},"vehicle_type_id":"4","last_reported":1746447574,"current_range_meters":10000,"station_id":"ce4bhjp2rcd13ifvqg90","pricing_plan_id":"cebpf4jnsgd1na2vs0mg"},{"bike_id":"20753043-cf58-4b32-8865-57bb04990972","system_id":"levelo_inurba_marseille","lat":43.24084,"lon":5.37721,"is_reserved":false,"is_disabled":false,"rental_uris":{"android":"levelo://app?vid=20753043-cf58-4b32-8865-57bb04990972","ios":"levelo://app?vid=20753043-cf58-4b32-8865-57bb04990972"},"vehicle_type_id":"4","last_reported":1746447574,"current_range_meters":10800,"station_id":"ce4bhnp2rcd13ifvqgvg","pricing_plan_id":"cebpf4jnsgd1na2vs0mg"},{"bike_id":"7354c393-93b9-441a-aed9-9ebfb1471b25","system_id":"levelo_inurba_marseille","lat":43.27372,"lon":5.36255,"is_reserved":false,"is_disabled":false,"rental_uris":{"android":"levelo://app?vid=7354c393-93b9-441a-aed9-9ebfb1471b25","ios":"levelo://app?vid=7354c393-93b9-441a-aed9-9ebfb1471b25"},"vehicle_type_id":"4","last_reported":1746447574,"current_range_meters":10000,"station_id":"ce4bhbh2rcd13ifvqeo0","pricing_plan_id":"cebpf4jnsgd1na2vs0mg"},{"bike_id":"476bae7f-78b9-4852-9297-b65ff9d92eb1","system_id":"levelo_inurba_marseille","lat":43.30329,"lon":5.40432,"is_reserved":false,"is_disabled":false,"rental_uris":{"android":"levelo://app?vid=476bae7f-78b9-4852-9297-b65ff9d92eb1","ios":"levelo://app?vid=476bae7f-78b9-4852-9297-b65ff9d92eb1"},"vehicle_type_id":"4","last_reported":1746447574,"current_range_meters":10800,"station_id":"ce4bh012rcd13ifvqd10","pricing_plan_id":"cebpf4jnsgd1na2vs0mg"},{"bike_id":"8da1ed8b-3c8b-408f-9429-881dc78eccb5","system_id":"levelo_inurba_marseille","lat":43.26777,"lon":5.39418,"is_reserved":false,"is_disabled":false,"rental_uris":{"android":"levelo://app?vid=8da1ed8b-3c8b-408f-9429-881dc78eccb5","ios":"levelo://app?vid=8da1ed8b-3c8b-408f-9429-881dc78eccb5"},"vehicle_type_id":"4","last_reported":1746447574,"current_range_meters":11200,"station_id":"ce4bhh12rcd13ifvqfg0","pricing_plan_id":"cebpf4jnsgd1na2vs0mg"},{"bike_id":"1f8a1dc2-b334-4abf-ad9a-67cda88ce58e","system_id":"levelo_inurba_marseille","lat":43.27564,"lon":5.38427,"is_reserved":false,"is_disabled":false,"rental_uris":{"android":"levelo://app?vid=1f8a1dc2-b334-4abf-ad9a-67cda88ce58e","ios":"levelo://app?vid=1f8a1dc2-b334-4abf-ad9a-67cda88ce58e"},"vehicle_type_id":"4","last_reported":1746447574,"current_range_meters":10800,"station_id":"ce4bhh92rcd13ifvqfi0","pricing_plan_id":"cebpf4jnsgd1na2vs0mg"},{"bike_id":"1eda6529-0028-4863-b7b7-09520c074dff","system_id":"levelo_inurba_marseille","lat":43.27496,"lon":5.42444,"is_reserved":false,"is_disabled":false,"rental_uris":{"android":"levelo://app?vid=1eda6529-0028-4863-b7b7-09520c074dff","ios":"levelo://app?vid=1eda6529-0028-4863-b7b7-09520c074dff"},"vehicle_type_id":"4","last_reported":1746447574,"current_range_meters":11200,"station_id":"ce4bhn92rcd13ifvqgrg","pricing_plan_id":"cebpf4jnsgd1na2vs0mg"},{"bike_id":"f6112ea6-573b-490b-a451-7f6c09ddbe67","system_id":"levelo_inurba_marseille","lat":43.26932,"lon":5.38923,"is_reserved":false,"is_disabled":false,"rental_uris":{"android":"levelo://app?vid=f6112ea6-573b-490b-a451-7f6c09ddbe67","ios":"levelo://app?vid=f6112ea6-573b-490b-a451-7f6c09ddbe67"},"vehicle_type_id":"4","last_reported":1746447574,"current_range_meters":11200,"station_id":"ce4bhhh2rcd13ifvqfl0","pricing_plan_id":"cebpf4jnsgd1na2vs0mg"},{"bike_id":"1a82a0e9-f369-4d01-ae50-ae98884bab48","system_id":"levelo_inurba_marseille","lat":43.33085,"lon":5.38711,"is_reserved":false,"is_disabled":false,"rental_uris":{"android":"levelo://app?vid=1a82a0e9-f369-4d01-ae50-ae98884bab48","ios":"levelo://app?vid=1a82a0e9-f369-4d01-ae50-ae98884bab48"},"vehicle_type_id":"4","last_reported":1746447574,"current_range_meters":11200,"station_id":"","pricing_plan_id":"cebpf4jnsgd1na2vs0mg"},{"bike_id":"e4749660-166c-4908-936e-9562513d05a1","system_id":"levelo_inurba_marseille","lat":43.29524,"lon":5.39048,"is_reserved":false,"is_disabled":false,"rental_uris":{"android":"levelo://app?vid=e4749660-166c-4908-936e-9562513d05a1","ios":"levelo://app?vid=e4749660-166c-4908-936e-9562513d05a1"},"vehicle_type_id":"4","last_reported":1746447574,"current_range_meters":11200,"station_id":"ce4bh3p2rcd13ifvqdp0","pricing_plan_id":"cebpf4jnsgd1na2vs0mg"},{"bike_id":"a497742f-c244-43cc-ae61-a68c22f59bec","system_id":"levelo_inurba_marseille","lat":43.31353,"lon":5.38502,"is_reserved":false,"is_disabled":true,"rental_uris":{"android":"levelo://app?vid=a497742f-c244-43cc-ae61-a68c22f59bec","ios":"levelo://app?vid=a497742f-c244-43cc-ae61-a68c22f59bec"},"vehicle_type_id":"4","last_reported":1746447574,"current_range_meters":11600,"station_id":"ce4bgt92rcd13ifvqcf0","pricing_plan_id":"cebpf4jnsgd1na2vs0mg"},{"bike_id":"ccd22a2f-149b-4ca9-9170-3adcfb3f510d","system_id":"levelo_inurba_marseille","lat":43.26565,"lon":5.39015,"is_reserved":false,"is_disabled":false,"rental_uris":{"android":"levelo://app?vid=ccd22a2f-149b-4ca9-9170-3adcfb3f510d","ios":"levelo://app?vid=ccd22a2f-149b-4ca9-9170-3adcfb3f510d"},"vehicle_type_id":"4","last_reported":1746447574,"current_range_meters":11600,"station_id":"ce4bhe12rcd13ifvqf30","pricing_plan_id":"cebpf4jnsgd1na2vs0mg"},{"bike_id":"d6bcfbd6-8532-4240-9514-1020c991d1ae","system_id":"levelo_inurba_marseille","lat":43.265617,"lon":5.390073,"is_reserved":false,"is_disabled":false,"rental_uris":{"android":"levelo://app?vid=d6bcfbd6-8532-4240-9514-1020c991d1ae","ios":"levelo://app?vid=d6bcfbd6-8532-4240-9514-1020c991d1ae"},"vehicle_type_id":"4","last_reported":1746447574,"current_range_meters":11600,"station_id":"ce4bhe12rcd13ifvqf30","pricing_plan_id":"cebpf4jnsgd1na2vs0mg"},{"bike_id":"d1aa6e5d-6beb-440c-afb6-1d488c12e5a1","system_id":"levelo_inurba_marseille","lat":43.32101,"lon":5.36782,"is_reserved":false,"is_disabled":false,"rental_uris":{"android":"levelo://app?vid=d1aa6e5d-6beb-440c-afb6-1d488c12e5a1","ios":"levelo://app?vid=d1aa6e5d-6beb-440c-afb6-1d488c12e5a1"},"vehicle_type_id":"4","last_reported":1746447574,"current_range_meters":11600,"station_id":"ce4bhrh2rcd13ifvqhug","pricing_plan_id":"cebpf4jnsgd1na2vs0mg"},{"bike_id":"15e50384-dde2-4107-aac4-df20fe30bebb","system_id":"levelo_inurba_marseille","lat":43.28726,"lon":5.39973,"is_reserved":false,"is_disabled":false,"rental_uris":{"android":"levelo://app?vid=15e50384-dde2-4107-aac4-df20fe30bebb","ios":"levelo://app?vid=15e50384-dde2-4107-aac4-df20fe30bebb"},"vehicle_type_id":"4","last_reported":1746447574,"current_range_meters":12000,"station_id":"ce4bho92rcd13ifvqh3g","pricing_plan_id":"cebpf4jnsgd1na2vs0mg"},{"bike_id":"44465755-bad9-4c51-8d3d-da69d989994f","system_id":"levelo_inurba_marseille","lat":43.31199,"lon":5.368117,"is_reserved":false,"is_disabled":false,"rental_uris":{"android":"levelo://app?vid=44465755-bad9-4c51-8d3d-da69d989994f","ios":"levelo://app?vid=44465755-bad9-4c51-8d3d-da69d989994f"},"vehicle_type_id":"4","last_reported":1746447574,"current_range_meters":12000,"station_id":"ce4bgr92rcd13ifvqc6g","pricing_plan_id":"cebpf4jnsgd1na2vs0mg"},{"bike_id":"d7d103e8-d0e1-41a0-9c24-2433bcd735bc","system_id":"levelo_inurba_marseille","lat":43.33592,"lon":5.40998,"is_reserved":false,"is_disabled":false,"rental_uris":{"android":"levelo://app?vid=d7d103e8-d0e1-41a0-9c24-2433bcd735bc","ios":"levelo://app?vid=d7d103e8-d0e1-41a0-9c24-2433bcd735bc"},"vehicle_type_id":"4","last_reported":1746447574,"current_range_meters":12000,"station_id":"ce4bhqh2rcd13ifvqhmg","pricing_plan_id":"cebpf4jnsgd1na2vs0mg"},{"bike_id":"8c5e5c6f-b567-481c-930b-4796d33f6b82","system_id":"levelo_inurba_marseille","lat":43.30948,"lon":5.39032,"is_reserved":false,"is_disabled":false,"rental_uris":{"android":"levelo://app?vid=8c5e5c6f-b567-481c-930b-4796d33f6b82","ios":"levelo://app?vid=8c5e5c6f-b567-481c-930b-4796d33f6b82"},"vehicle_type_id":"4","last_reported":1746447574,"current_range_meters":12000,"station_id":"ce4bgup2rcd13ifvqco0","pricing_plan_id":"cebpf4jnsgd1na2vs0mg"},{"bike_id":"1a763b54-7b8f-47e8-879e-df68311ff33d","system_id":"levelo_inurba_marseille","lat":43.285241,"lon":5.388445,"is_reserved":false,"is_disabled":false,"rental_uris":{"android":"levelo://app?vid=1a763b54-7b8f-47e8-879e-df68311ff33d","ios":"levelo://app?vid=1a763b54-7b8f-47e8-879e-df68311ff33d"},"vehicle_type_id":"4","last_reported":1746447574,"current_range_meters":12000,"station_id":"ce4bhoh2rcd13ifvqh5g","pricing_plan_id":"cebpf4jnsgd1na2vs0mg"},{"bike_id":"ccc598be-0134-4f7f-b90f-a2b5da7a0248","system_id":"levelo_inurba_marseille","lat":43.319956,"lon":5.381608,"is_reserved":false,"is_disabled":true,"rental_uris":{"android":"levelo://app?vid=ccc598be-0134-4f7f-b90f-a2b5da7a0248","ios":"levelo://app?vid=ccc598be-0134-4f7f-b90f-a2b5da7a0248"},"vehicle_type_id":"4","last_reported":1746447574,"current_range_meters":12000,"station_id":"ce4bhr12rcd13ifvqhpg","pricing_plan_id":"cebpf4jnsgd1na2vs0mg"},{"bike_id":"6068a183-416d-44a2-b6fd-4155e929a312","system_id":"levelo_inurba_marseille","lat":43.25499,"lon":5.37643,"is_reserved":false,"is_disabled":false,"rental_uris":{"android":"levelo://app?vid=6068a183-416d-44a2-b6fd-4155e929a312","ios":"levelo://app?vid=6068a183-416d-44a2-b6fd-4155e929a312"},"vehicle_type_id":"4","last_reported":1746447574,"current_range_meters":12400,"station_id":"ce4bhh12rcd13ifvqff0","pricing_plan_id":"cebpf4jnsgd1na2vs0mg"},{"bike_id":"4c580aab-0c8f-4435-babb-b9afb64eb72b","system_id":"levelo_inurba_marseille","lat":43.29534,"lon":5.38539,"is_reserved":false,"is_disabled":false,"rental_uris":{"android":"levelo://app?vid=4c580aab-0c8f-4435-babb-b9afb64eb72b","ios":"levelo://app?vid=4c580aab-0c8f-4435-babb-b9afb64eb72b"},"vehicle_type_id":"4","last_reported":1746447574,"current_range_meters":12800,"station_id":"ce4bgih2rcd13ifvqba0","pricing_plan_id":"cebpf4jnsgd1na2vs0mg"},{"bike_id":"7454f7c4-9f0e-4340-84e4-24c2e01f4747","system_id":"levelo_inurba_marseille","lat":43.281,"lon":5.37851,"is_reserved":false,"is_disabled":false,"rental_uris":{"android":"levelo://app?vid=7454f7c4-9f0e-4340-84e4-24c2e01f4747","ios":"levelo://app?vid=7454f7c4-9f0e-4340-84e4-24c2e01f4747"},"vehicle_type_id":"4","last_reported":1746447574,"current_range_meters":12800,"station_id":"ce4bha12rcd13ifvqee0","pricing_plan_id":"cebpf4jnsgd1na2vs0mg"},{"bike_id":"8f8d412f-d8bf-4c56-a9e5-54014fcbe00d","system_id":"levelo_inurba_marseille","lat":43.3212,"lon":5.3674,"is_reserved":false,"is_disabled":false,"rental_uris":{"android":"levelo://app?vid=8f8d412f-d8bf-4c56-a9e5-54014fcbe00d","ios":"levelo://app?vid=8f8d412f-d8bf-4c56-a9e5-54014fcbe00d"},"vehicle_type_id":"4","last_reported":1746447574,"current_range_meters":12800,"station_id":"ce4bhrh2rcd13ifvqhug","pricing_plan_id":"cebpf4jnsgd1na2vs0mg"},{"bike_id":"9c555c75-19e9-4090-8fea-1db42b2a88e2","system_id":"levelo_inurba_marseille","lat":43.265,"lon":5.39543,"is_reserved":false,"is_disabled":false,"rental_uris":{"android":"levelo://app?vid=9c555c75-19e9-4090-8fea-1db42b2a88e2","ios":"levelo://app?vid=9c555c75-19e9-4090-8fea-1db42b2a88e2"},"vehicle_type_id":"4","last_reported":1746447574,"current_range_meters":12400,"station_id":"ce4bhi12rcd13ifvqfq0","pricing_plan_id":"cebpf4jnsgd1na2vs0mg"},{"bike_id":"ef52575b-c784-45d6-a55a-b891e6f6062f","system_id":"levelo_inurba_marseille","lat":43.292796,"lon":5.401141,"is_reserved":false,"is_disabled":false,"rental_uris":{"android":"levelo://app?vid=ef52575b-c784-45d6-a55a-b891e6f6062f","ios":"levelo://app?vid=ef52575b-c784-45d6-a55a-b891e6f6062f"},"vehicle_type_id":"4","last_reported":1746447574,"current_range_meters":12800,"station_id":"ce4bho92rcd13ifvqh4g","pricing_plan_id":"cebpf4jnsgd1na2vs0mg"},{"bike_id":"5b8d1337-a035-4531-8ae9-843647d6f95e","system_id":"levelo_inurba_marseille","lat":43.231857,"lon":5.399824,"is_reserved":false,"is_disabled":false,"rental_uris":{"android":"levelo://app?vid=5b8d1337-a035-4531-8ae9-843647d6f95e","ios":"levelo://app?vid=5b8d1337-a035-4531-8ae9-843647d6f95e"},"vehicle_type_id":"4","last_reported":1746447574,"current_range_meters":13600,"station_id":"ce4bhn12rcd13ifvqgqg","pricing_plan_id":"cebpf4jnsgd1na2vs0mg"},{"bike_id":"9c6c5c5a-e5be-4a25-9fe9-7266ce52f116","system_id":"levelo_inurba_marseille","lat":43.308838,"lon":5.396616,"is_reserved":false,"is_disabled":false,"rental_uris":{"android":"levelo://app?vid=9c6c5c5a-e5be-4a25-9fe9-7266ce52f116","ios":"levelo://app?vid=9c6c5c5a-e5be-4a25-9fe9-7266ce52f116"},"vehicle_type_id":"4","last_reported":1746447574,"current_range_meters":13600,"station_id":"ce4bh012rcd13ifvqcv0","pricing_plan_id":"cebpf4jnsgd1na2vs0mg"},{"bike_id":"62bfa9fa-531f-4d2b-9e57-eb50b2d48c8c","system_id":"levelo_inurba_marseille","lat":43.243345,"lon":5.379958,"is_reserved":false,"is_disabled":false,"rental_uris":{"android":"levelo://app?vid=62bfa9fa-531f-4d2b-9e57-eb50b2d48c8c","ios":"levelo://app?vid=62bfa9fa-531f-4d2b-9e57-eb50b2d48c8c"},"vehicle_type_id":"4","last_reported":1746447574,"current_range_meters":13600,"station_id":"","pricing_plan_id":"cebpf4jnsgd1na2vs0mg"},{"bike_id":"36f31902-508e-4eaa-8c83-d2ba7e8244f4","system_id":"levelo_inurba_marseille","lat":43.21189,"lon":5.35078,"is_reserved":false,"is_disabled":false,"rental_uris":{"android":"levelo://app?vid=36f31902-508e-4eaa-8c83-d2ba7e8244f4","ios":"levelo://app?vid=36f31902-508e-4eaa-8c83-d2ba7e8244f4"},"vehicle_type_id":"4","last_reported":1746447574,"current_range_meters":14000,"station_id":"st_cvj6sg6p6f1abm77japg","pricing_plan_id":"cebpf4jnsgd1na2vs0mg"},{"bike_id":"9d8f73eb-df09-4699-86a7-d631e2319093","system_id":"levelo_inurba_marseille","lat":43.26267,"lon":5.37436,"is_reserved":false,"is_disabled":false,"rental_uris":{"android":"levelo://app?vid=9d8f73eb-df09-4699-86a7-d631e2319093","ios":"levelo://app?vid=9d8f73eb-df09-4699-86a7-d631e2319093"},"vehicle_type_id":"4","last_reported":1746447574,"current_range_meters":14000,"station_id":"","pricing_plan_id":"cebpf4jnsgd1na2vs0mg"},{"bike_id":"fd5bc2c2-9d28-48ff-8793-64af25d324f4","system_id":"levelo_inurba_marseille","lat":43.21747,"lon":5.34604,"is_reserved":false,"is_disabled":false,"rental_uris":{"android":"levelo://app?vid=fd5bc2c2-9d28-48ff-8793-64af25d324f4","ios":"levelo://app?vid=fd5bc2c2-9d28-48ff-8793-64af25d324f4"},"vehicle_type_id":"4","last_reported":1746447574,"current_range_meters":14000,"station_id":"st_cvj6r9ubvosntc0bgbag","pricing_plan_id":"cebpf4jnsgd1na2vs0mg"},{"bike_id":"1d1dee7e-6eaf-4dff-a697-1f80f49d40ae","system_id":"levelo_inurba_marseille","lat":43.30728,"lon":5.42444,"is_reserved":false,"is_disabled":false,"rental_uris":{"android":"levelo://app?vid=1d1dee7e-6eaf-4dff-a697-1f80f49d40ae","ios":"levelo://app?vid=1d1dee7e-6eaf-4dff-a697-1f80f49d40ae"},"vehicle_type_id":"4","last_reported":1746447574,"current_range_meters":14000,"station_id":"st_cvj6ca6bvosntc0bfgr0","pricing_plan_id":"cebpf4jnsgd1na2vs0mg"},{"bike_id":"afd98b4d-f75a-4e82-beca-4b0996b353b3","system_id":"levelo_inurba_marseille","lat":43.25926,"lon":5.40908,"is_reserved":false,"is_disabled":true,"rental_uris":{"android":"levelo://app?vid=afd98b4d-f75a-4e82-beca-4b0996b353b3","ios":"levelo://app?vid=afd98b4d-f75a-4e82-beca-4b0996b353b3"},"vehicle_type_id":"4","last_reported":1746447574,"current_range_meters":14400,"station_id":"ce4bhm92rcd13ifvqglg","pricing_plan_id":"cebpf4jnsgd1na2vs0mg"},{"bike_id":"86496d30-6244-4beb-b569-df8f97492227","system_id":"levelo_inurba_marseille","lat":43.21759,"lon":5.34598,"is_reserved":false,"is_disabled":false,"rental_uris":{"android":"levelo://app?vid=86496d30-6244-4beb-b569-df8f97492227","ios":"levelo://app?vid=86496d30-6244-4beb-b569-df8f97492227"},"vehicle_type_id":"4","last_reported":1746447574,"current_range_meters":14400,"station_id":"st_cvj6r9ubvosntc0bgbag","pricing_plan_id":"cebpf4jnsgd1na2vs0mg"},{"bike_id":"3864579c-53a8-4637-a2c2-5ec3bb119eb5","system_id":"levelo_inurba_marseille","lat":43.308,"lon":5.38151,"is_reserved":false,"is_disabled":false,"rental_uris":{"android":"levelo://app?vid=3864579c-53a8-4637-a2c2-5ec3bb119eb5","ios":"levelo://app?vid=3864579c-53a8-4637-a2c2-5ec3bb119eb5"},"vehicle_type_id":"4","last_reported":1746447574,"current_range_meters":14800,"station_id":"ce4bgt12rcd13ifvqce0","pricing_plan_id":"cebpf4jnsgd1na2vs0mg"},{"bike_id":"18ef4a62-4fc4-48be-b92b-3bb6938b3e02","system_id":"levelo_inurba_marseille","lat":43.28669,"lon":5.36357,"is_reserved":false,"is_disabled":false,"rental_uris":{"android":"levelo://app?vid=18ef4a62-4fc4-48be-b92b-3bb6938b3e02","ios":"levelo://app?vid=18ef4a62-4fc4-48be-b92b-3bb6938b3e02"},"vehicle_type_id":"4","last_reported":1746447574,"current_range_meters":14800,"station_id":"ce4bhah2rcd13ifvqej0","pricing_plan_id":"cebpf4jnsgd1na2vs0mg"},{"bike_id":"25139c5b-ed11-46d9-bc1d-3c9b13bc42ad","system_id":"levelo_inurba_marseille","lat":43.30595,"lon":5.37224,"is_reserved":false,"is_disabled":false,"rental_uris":{"android":"levelo://app?vid=25139c5b-ed11-46d9-bc1d-3c9b13bc42ad","ios":"levelo://app?vid=25139c5b-ed11-46d9-bc1d-3c9b13bc42ad"},"vehicle_type_id":"4","last_reported":1746447574,"current_range_meters":14800,"station_id":"ce4bgqh2rcd13ifvqc4g","pricing_plan_id":"cebpf4jnsgd1na2vs0mg"},{"bike_id":"4ebdfc62-fad5-4b40-9e20-eb605beb6ccc","system_id":"levelo_inurba_marseille","lat":43.24549,"lon":5.39523,"is_reserved":false,"is_disabled":false,"rental_uris":{"android":"levelo://app?vid=4ebdfc62-fad5-4b40-9e20-eb605beb6ccc","ios":"levelo://app?vid=4ebdfc62-fad5-4b40-9e20-eb605beb6ccc"},"vehicle_type_id":"4","last_reported":1746447574,"current_range_meters":14800,"station_id":"ce4bhlp2rcd13ifvqgjg","pricing_plan_id":"cebpf4jnsgd1na2vs0mg"},{"bike_id":"e3bb4c0a-ea28-4d8b-a92a-340ecfdd5f1d","system_id":"levelo_inurba_marseille","lat":43.310886,"lon":5.371294,"is_reserved":false,"is_disabled":false,"rental_uris":{"android":"levelo://app?vid=e3bb4c0a-ea28-4d8b-a92a-340ecfdd5f1d","ios":"levelo://app?vid=e3bb4c0a-ea28-4d8b-a92a-340ecfdd5f1d"},"vehicle_type_id":"4","last_reported":1746447574,"current_range_meters":15200,"station_id":"","pricing_plan_id":"cebpf4jnsgd1na2vs0mg"},{"bike_id":"c8b26be0-15b5-41ec-8574-52af55a6b307","system_id":"levelo_inurba_marseille","lat":43.31491,"lon":5.37308,"is_reserved":false,"is_disabled":false,"rental_uris":{"android":"levelo://app?vid=c8b26be0-15b5-41ec-8574-52af55a6b307","ios":"levelo://app?vid=c8b26be0-15b5-41ec-8574-52af55a6b307"},"vehicle_type_id":"4","last_reported":1746447574,"current_range_meters":14800,"station_id":"ce4bgt12rcd13ifvqcd0","pricing_plan_id":"cebpf4jnsgd1na2vs0mg"},{"bike_id":"9ec4e9e2-f5ae-40d0-a938-b7688a9b7157","system_id":"levelo_inurba_marseille","lat":43.27616,"lon":5.36105,"is_reserved":false,"is_disabled":false,"rental_uris":{"android":"levelo://app?vid=9ec4e9e2-f5ae-40d0-a938-b7688a9b7157","ios":"levelo://app?vid=9ec4e9e2-f5ae-40d0-a938-b7688a9b7157"},"vehicle_type_id":"4","last_reported":1746447574,"current_range_meters":14800,"station_id":"ce4bgj92rcd13ifvqbe0","pricing_plan_id":"cebpf4jnsgd1na2vs0mg"},{"bike_id":"0d68f75a-d843-4c35-91ab-4307e5fc3f48","system_id":"levelo_inurba_marseille","lat":43.24175,"lon":5.39735,"is_reserved":false,"is_disabled":false,"rental_uris":{"android":"levelo://app?vid=0d68f75a-d843-4c35-91ab-4307e5fc3f48","ios":"levelo://app?vid=0d68f75a-d843-4c35-91ab-4307e5fc3f48"},"vehicle_type_id":"4","last_reported":1746447574,"current_range_meters":15200,"station_id":"ce4bhn12rcd13ifvqgpg","pricing_plan_id":"cebpf4jnsgd1na2vs0mg"},{"bike_id":"53d34dd4-a5d8-4959-8490-e0f0dda1a0c8","system_id":"levelo_inurba_marseille","lat":43.298023,"lon":5.381142,"is_reserved":false,"is_disabled":false,"rental_uris":{"android":"levelo://app?vid=53d34dd4-a5d8-4959-8490-e0f0dda1a0c8","ios":"levelo://app?vid=53d34dd4-a5d8-4959-8490-e0f0dda1a0c8"},"vehicle_type_id":"4","last_reported":1746447574,"current_range_meters":15200,"station_id":"ce4bgip2rcd13ifvqbb0","pricing_plan_id":"cebpf4jnsgd1na2vs0mg"},{"bike_id":"25e86ad9-d2e7-4992-935c-4f7876eb3187","system_id":"levelo_inurba_marseille","lat":43.231265,"lon":5.437891,"is_reserved":false,"is_disabled":false,"rental_uris":{"android":"levelo://app?vid=25e86ad9-d2e7-4992-935c-4f7876eb3187","ios":"levelo://app?vid=25e86ad9-d2e7-4992-935c-4f7876eb3187"},"vehicle_type_id":"4","last_reported":1746447574,"current_range_meters":15200,"station_id":"ce4bhmp2rcd13ifvqgog","pricing_plan_id":"cebpf4jnsgd1na2vs0mg"},{"bike_id":"0c377d9d-9a3a-47a7-9944-6039314b5e15","system_id":"levelo_inurba_marseille","lat":43.245847,"lon":5.404943,"is_reserved":false,"is_disabled":false,"rental_uris":{"android":"levelo://app?vid=0c377d9d-9a3a-47a7-9944-6039314b5e15","ios":"levelo://app?vid=0c377d9d-9a3a-47a7-9944-6039314b5e15"},"vehicle_type_id":"4","last_reported":1746447574,"current_range_meters":15200,"station_id":"","pricing_plan_id":"cebpf4jnsgd1na2vs0mg"},{"bike_id":"5370f88f-73ed-4880-8034-2a975f50c8cb","system_id":"levelo_inurba_marseille","lat":43.24072,"lon":5.37767,"is_reserved":false,"is_disabled":false,"rental_uris":{"android":"levelo://app?vid=5370f88f-73ed-4880-8034-2a975f50c8cb","ios":"levelo://app?vid=5370f88f-73ed-4880-8034-2a975f50c8cb"},"vehicle_type_id":"4","last_reported":1746447574,"current_range_meters":15200,"station_id":"ce4bhnp2rcd13ifvqgvg","pricing_plan_id":"cebpf4jnsgd1na2vs0mg"},{"bike_id":"393971a5-0a59-4aff-99ff-60aac47fc2de","system_id":"levelo_inurba_marseille","lat":43.284064,"lon":5.375187,"is_reserved":false,"is_disabled":true,"rental_uris":{"android":"levelo://app?vid=393971a5-0a59-4aff-99ff-60aac47fc2de","ios":"levelo://app?vid=393971a5-0a59-4aff-99ff-60aac47fc2de"},"vehicle_type_id":"4","last_reported":1746447574,"current_range_meters":15200,"station_id":"ce4bh412rcd13ifvqds0","pricing_plan_id":"cebpf4jnsgd1na2vs0mg"},{"bike_id":"94e4bd09-832d-43d5-9c6b-2a96ad855091","system_id":"levelo_inurba_marseille","lat":43.2621,"lon":5.37932,"is_reserved":false,"is_disabled":false,"rental_uris":{"android":"levelo://app?vid=94e4bd09-832d-43d5-9c6b-2a96ad855091","ios":"levelo://app?vid=94e4bd09-832d-43d5-9c6b-2a96ad855091"},"vehicle_type_id":"4","last_reported":1746447574,"current_range_meters":16000,"station_id":"ce4bhjp2rcd13ifvqg90","pricing_plan_id":"cebpf4jnsgd1na2vs0mg"},{"bike_id":"e915de99-0e19-4371-8afd-23839d5f44f9","system_id":"levelo_inurba_marseille","lat":43.286057,"lon":5.370672,"is_reserved":false,"is_disabled":false,"rental_uris":{"android":"levelo://app?vid=e915de99-0e19-4371-8afd-23839d5f44f9","ios":"levelo://app?vid=e915de99-0e19-4371-8afd-23839d5f44f9"},"vehicle_type_id":"4","last_reported":1746447574,"current_range_meters":16000,"station_id":"","pricing_plan_id":"cebpf4jnsgd1na2vs0mg"},{"bike_id":"a46b5721-597c-404e-8ddb-3ba6469f967d","system_id":"levelo_inurba_marseille","lat":43.23191,"lon":5.35558,"is_reserved":false,"is_disabled":false,"rental_uris":{"android":"levelo://app?vid=a46b5721-597c-404e-8ddb-3ba6469f967d","ios":"levelo://app?vid=a46b5721-597c-404e-8ddb-3ba6469f967d"},"vehicle_type_id":"4","last_reported":1746447574,"current_range_meters":16000,"station_id":"ce4bhu92rcd13ifvqi70","pricing_plan_id":"cebpf4jnsgd1na2vs0mg"},{"bike_id":"5f6fc197-e986-4d3f-a9d6-59b8a0fe0034","system_id":"levelo_inurba_marseille","lat":43.2705,"lon":5.40255,"is_reserved":false,"is_disabled":false,"rental_uris":{"android":"levelo://app?vid=5f6fc197-e986-4d3f-a9d6-59b8a0fe0034","ios":"levelo://app?vid=5f6fc197-e986-4d3f-a9d6-59b8a0fe0034"},"vehicle_type_id":"4","last_reported":1746447574,"current_range_meters":16000,"station_id":"ce4bhk92rcd13ifvqgc0","pricing_plan_id":"cebpf4jnsgd1na2vs0mg"},{"bike_id":"db607aba-0db6-423b-a818-c23224727203","system_id":"levelo_inurba_marseille","lat":43.23148,"lon":5.43691,"is_reserved":false,"is_disabled":false,"rental_uris":{"android":"levelo://app?vid=db607aba-0db6-423b-a818-c23224727203","ios":"levelo://app?vid=db607aba-0db6-423b-a818-c23224727203"},"vehicle_type_id":"4","last_reported":1746447574,"current_range_meters":16000,"station_id":"ce4bhmp2rcd13ifvqgog","pricing_plan_id":"cebpf4jnsgd1na2vs0mg"},{"bike_id":"f0c1319f-ab1e-4efa-a24a-c972ed3dcbbe","system_id":"levelo_inurba_marseille","lat":43.29962,"lon":5.38487,"is_reserved":false,"is_disabled":false,"rental_uris":{"android":"levelo://app?vid=f0c1319f-ab1e-4efa-a24a-c972ed3dcbbe","ios":"levelo://app?vid=f0c1319f-ab1e-4efa-a24a-c972ed3dcbbe"},"vehicle_type_id":"4","last_reported":1746447574,"current_range_meters":16000,"station_id":"ce4bgj92rcd13ifvqbd0","pricing_plan_id":"cebpf4jnsgd1na2vs0mg"},{"bike_id":"e939935b-2f3f-4072-afe4-0814d9a3f520","system_id":"levelo_inurba_marseille","lat":43.30433,"lon":5.3984,"is_reserved":false,"is_disabled":true,"rental_uris":{"android":"levelo://app?vid=e939935b-2f3f-4072-afe4-0814d9a3f520","ios":"levelo://app?vid=e939935b-2f3f-4072-afe4-0814d9a3f520"},"vehicle_type_id":"4","last_reported":1746447574,"current_range_meters":16400,"station_id":"","pricing_plan_id":"cebpf4jnsgd1na2vs0mg"},{"bike_id":"ace02755-d1b2-478e-8071-ea955a3fd6dd","system_id":"levelo_inurba_marseille","lat":43.2956,"lon":5.42293,"is_reserved":false,"is_disabled":false,"rental_uris":{"android":"levelo://app?vid=ace02755-d1b2-478e-8071-ea955a3fd6dd","ios":"levelo://app?vid=ace02755-d1b2-478e-8071-ea955a3fd6dd"},"vehicle_type_id":"4","last_reported":1746447574,"current_range_meters":16400,"station_id":"ce4bhph2rcd13ifvqhdg","pricing_plan_id":"cebpf4jnsgd1na2vs0mg"},{"bike_id":"d2cdff3e-610c-47f6-9a92-3063f8bd03ae","system_id":"levelo_inurba_marseille","lat":43.32043,"lon":5.41575,"is_reserved":false,"is_disabled":true,"rental_uris":{"android":"levelo://app?vid=d2cdff3e-610c-47f6-9a92-3063f8bd03ae","ios":"levelo://app?vid=d2cdff3e-610c-47f6-9a92-3063f8bd03ae"},"vehicle_type_id":"4","last_reported":1746447574,"current_range_meters":16400,"station_id":"ce4bhq92rcd13ifvqhkg","pricing_plan_id":"cebpf4jnsgd1na2vs0mg"},{"bike_id":"6930ec0c-c2ca-4de8-af3c-a195fc958f43","system_id":"levelo_inurba_marseille","lat":43.2119,"lon":5.3507,"is_reserved":false,"is_disabled":false,"rental_uris":{"android":"levelo://app?vid=6930ec0c-c2ca-4de8-af3c-a195fc958f43","ios":"levelo://app?vid=6930ec0c-c2ca-4de8-af3c-a195fc958f43"},"vehicle_type_id":"4","last_reported":1746447574,"current_range_meters":16400,"station_id":"st_cvj6sg6p6f1abm77japg","pricing_plan_id":"cebpf4jnsgd1na2vs0mg"},{"bike_id":"f4a54a7b-f74b-4e35-9dde-3beee998ed34","system_id":"levelo_inurba_marseille","lat":43.28489,"lon":5.38411,"is_reserved":false,"is_disabled":false,"rental_uris":{"android":"levelo://app?vid=f4a54a7b-f74b-4e35-9dde-3beee998ed34","ios":"levelo://app?vid=f4a54a7b-f74b-4e35-9dde-3beee998ed34"},"vehicle_type_id":"4","last_reported":1746447574,"current_range_meters":16800,"station_id":"ce4bh512rcd13ifvqe3g","pricing_plan_id":"cebpf4jnsgd1na2vs0mg"},{"bike_id":"2fa95b26-39f0-40f0-ba6f-0d80973b2f74","system_id":"levelo_inurba_marseille","lat":43.25934,"lon":5.40911,"is_reserved":false,"is_disabled":false,"rental_uris":{"android":"levelo://app?vid=2fa95b26-39f0-40f0-ba6f-0d80973b2f74","ios":"levelo://app?vid=2fa95b26-39f0-40f0-ba6f-0d80973b2f74"},"vehicle_type_id":"4","last_reported":1746447574,"current_range_meters":16800,"station_id":"ce4bhm92rcd13ifvqglg","pricing_plan_id":"cebpf4jnsgd1na2vs0mg"},{"bike_id":"ff318078-4859-4840-8af0-e9e519fafc50","system_id":"levelo_inurba_marseille","lat":43.25921,"lon":5.40917,"is_reserved":false,"is_disabled":true,"rental_uris":{"android":"levelo://app?vid=ff318078-4859-4840-8af0-e9e519fafc50","ios":"levelo://app?vid=ff318078-4859-4840-8af0-e9e519fafc50"},"vehicle_type_id":"4","last_reported":1746447574,"current_range_meters":16800,"station_id":"ce4bhm92rcd13ifvqglg","pricing_plan_id":"cebpf4jnsgd1na2vs0mg"},{"bike_id":"c9592205-9409-4f74-aed1-7c4141a58caa","system_id":"levelo_inurba_marseille","lat":43.27143,"lon":5.3638,"is_reserved":false,"is_disabled":false,"rental_uris":{"android":"levelo://app?vid=c9592205-9409-4f74-aed1-7c4141a58caa","ios":"levelo://app?vid=c9592205-9409-4f74-aed1-7c4141a58caa"},"vehicle_type_id":"4","last_reported":1746447574,"current_range_meters":16800,"station_id":"","pricing_plan_id":"cebpf4jnsgd1na2vs0mg"},{"bike_id":"f4c13848-2536-4e05-87da-dbda40f17701","system_id":"levelo_inurba_marseille","lat":43.28666,"lon":5.37314,"is_reserved":false,"is_disabled":false,"rental_uris":{"android":"levelo://app?vid=f4c13848-2536-4e05-87da-dbda40f17701","ios":"levelo://app?vid=f4c13848-2536-4e05-87da-dbda40f17701"},"vehicle_type_id":"4","last_reported":1746447574,"current_range_meters":16800,"station_id":"","pricing_plan_id":"cebpf4jnsgd1na2vs0mg"},{"bike_id":"0307c542-32ac-405b-b51d-0dc6712e76d1","system_id":"levelo_inurba_marseille","lat":43.2902,"lon":5.38642,"is_reserved":false,"is_disabled":false,"rental_uris":{"android":"levelo://app?vid=0307c542-32ac-405b-b51d-0dc6712e76d1","ios":"levelo://app?vid=0307c542-32ac-405b-b51d-0dc6712e76d1"},"vehicle_type_id":"4","last_reported":1746447574,"current_range_meters":17200,"station_id":"ce4bh4p2rcd13ifvqe0g","pricing_plan_id":"cebpf4jnsgd1na2vs0mg"},{"bike_id":"7acc67e7-1d63-4b38-8f10-64ae68607411","system_id":"levelo_inurba_marseille","lat":43.335983,"lon":5.410327,"is_reserved":false,"is_disabled":false,"rental_uris":{"android":"levelo://app?vid=7acc67e7-1d63-4b38-8f10-64ae68607411","ios":"levelo://app?vid=7acc67e7-1d63-4b38-8f10-64ae68607411"},"vehicle_type_id":"4","last_reported":1746447574,"current_range_meters":17200,"station_id":"ce4bhqh2rcd13ifvqhmg","pricing_plan_id":"cebpf4jnsgd1na2vs0mg"},{"bike_id":"ebe4b9aa-6648-4165-a6d7-5560fe69c8cc","system_id":"levelo_inurba_marseille","lat":43.24649,"lon":5.38896,"is_reserved":false,"is_disabled":false,"rental_uris":{"android":"levelo://app?vid=ebe4b9aa-6648-4165-a6d7-5560fe69c8cc","ios":"levelo://app?vid=ebe4b9aa-6648-4165-a6d7-5560fe69c8cc"},"vehicle_type_id":"4","last_reported":1746447574,"current_range_meters":17200,"station_id":"ce4bhg12rcd13ifvqf60","pricing_plan_id":"cebpf4jnsgd1na2vs0mg"},{"bike_id":"99097e50-dd2e-47c3-a879-f48655baf4d9","system_id":"levelo_inurba_marseille","lat":43.24593,"lon":5.40829,"is_reserved":false,"is_disabled":false,"rental_uris":{"android":"levelo://app?vid=99097e50-dd2e-47c3-a879-f48655baf4d9","ios":"levelo://app?vid=99097e50-dd2e-47c3-a879-f48655baf4d9"},"vehicle_type_id":"4","last_reported":1746447574,"current_range_meters":17600,"station_id":"","pricing_plan_id":"cebpf4jnsgd1na2vs0mg"},{"bike_id":"64cb00bd-3cb8-406c-9cc8-279821230e81","system_id":"levelo_inurba_marseille","lat":43.26954,"lon":5.38639,"is_reserved":false,"is_disabled":false,"rental_uris":{"android":"levelo://app?vid=64cb00bd-3cb8-406c-9cc8-279821230e81","ios":"levelo://app?vid=64cb00bd-3cb8-406c-9cc8-279821230e81"},"vehicle_type_id":"4","last_reported":1746447574,"current_range_meters":17600,"station_id":"ce4bhh92rcd13ifvqfh0","pricing_plan_id":"cebpf4jnsgd1na2vs0mg"},{"bike_id":"88655495-4ee5-4dd1-837f-e71713b8e190","system_id":"levelo_inurba_marseille","lat":43.295128,"lon":5.394042,"is_reserved":false,"is_disabled":true,"rental_uris":{"android":"levelo://app?vid=88655495-4ee5-4dd1-837f-e71713b8e190","ios":"levelo://app?vid=88655495-4ee5-4dd1-837f-e71713b8e190"},"vehicle_type_id":"4","last_reported":1746447574,"current_range_meters":17600,"station_id":"ce4bh292rcd13ifvqdf0","pricing_plan_id":"cebpf4jnsgd1na2vs0mg"},{"bike_id":"c289404d-08a0-4dd2-943e-199926257f0b","system_id":"levelo_inurba_marseille","lat":43.29803,"lon":5.38118,"is_reserved":false,"is_disabled":false,"rental_uris":{"android":"levelo://app?vid=c289404d-08a0-4dd2-943e-199926257f0b","ios":"levelo://app?vid=c289404d-08a0-4dd2-943e-199926257f0b"},"vehicle_type_id":"4","last_reported":1746447574,"current_range_meters":17600,"station_id":"ce4bgip2rcd13ifvqbb0","pricing_plan_id":"cebpf4jnsgd1na2vs0mg"},{"bike_id":"3f84d55c-f7b3-443f-a8ba-1f83ba8291a2","system_id":"levelo_inurba_marseille","lat":43.21184,"lon":5.35072,"is_reserved":false,"is_disabled":false,"rental_uris":{"android":"levelo://app?vid=3f84d55c-f7b3-443f-a8ba-1f83ba8291a2","ios":"levelo://app?vid=3f84d55c-f7b3-443f-a8ba-1f83ba8291a2"},"vehicle_type_id":"4","last_reported":1746447574,"current_range_meters":17600,"station_id":"st_cvj6sg6p6f1abm77japg","pricing_plan_id":"cebpf4jnsgd1na2vs0mg"},{"bike_id":"59fb2f15-9624-4207-ba67-89cadfce01ee","system_id":"levelo_inurba_marseille","lat":43.3015,"lon":5.3808,"is_reserved":false,"is_disabled":false,"rental_uris":{"android":"levelo://app?vid=59fb2f15-9624-4207-ba67-89cadfce01ee","ios":"levelo://app?vid=59fb2f15-9624-4207-ba67-89cadfce01ee"},"vehicle_type_id":"4","last_reported":1746447574,"current_range_meters":17600,"station_id":"ce4bgjp2rcd13ifvqbh0","pricing_plan_id":"cebpf4jnsgd1na2vs0mg"},{"bike_id":"9349c7c9-2416-48ab-b54e-85f6fc522fab","system_id":"levelo_inurba_marseille","lat":43.32001,"lon":5.38146,"is_reserved":false,"is_disabled":true,"rental_uris":{"android":"levelo://app?vid=9349c7c9-2416-48ab-b54e-85f6fc522fab","ios":"levelo://app?vid=9349c7c9-2416-48ab-b54e-85f6fc522fab"},"vehicle_type_id":"4","last_reported":1746447574,"current_range_meters":17600,"station_id":"ce4bhr12rcd13ifvqhpg","pricing_plan_id":"cebpf4jnsgd1na2vs0mg"},{"bike_id":"810f38d2-113f-4323-8851-c3a0ca102320","system_id":"levelo_inurba_marseille","lat":43.23153,"lon":5.43702,"is_reserved":false,"is_disabled":false,"rental_uris":{"android":"levelo://app?vid=810f38d2-113f-4323-8851-c3a0ca102320","ios":"levelo://app?vid=810f38d2-113f-4323-8851-c3a0ca102320"},"vehicle_type_id":"4","last_reported":1746447574,"current_range_meters":17600,"station_id":"ce4bhmp2rcd13ifvqgog","pricing_plan_id":"cebpf4jnsgd1na2vs0mg"},{"bike_id":"e7a8966f-84ca-4496-8f1d-b76f0193bc27","system_id":"levelo_inurba_marseille","lat":43.23154,"lon":5.43702,"is_reserved":false,"is_disabled":false,"rental_uris":{"android":"levelo://app?vid=e7a8966f-84ca-4496-8f1d-b76f0193bc27","ios":"levelo://app?vid=e7a8966f-84ca-4496-8f1d-b76f0193bc27"},"vehicle_type_id":"4","last_reported":1746447574,"current_range_meters":18000,"station_id":"ce4bhmp2rcd13ifvqgog","pricing_plan_id":"cebpf4jnsgd1na2vs0mg"},{"bike_id":"61ffa4c9-a7eb-419a-beb5-1debd94649fc","system_id":"levelo_inurba_marseille","lat":43.33622,"lon":5.40993,"is_reserved":false,"is_disabled":false,"rental_uris":{"android":"levelo://app?vid=61ffa4c9-a7eb-419a-beb5-1debd94649fc","ios":"levelo://app?vid=61ffa4c9-a7eb-419a-beb5-1debd94649fc"},"vehicle_type_id":"4","last_reported":1746447574,"current_range_meters":18000,"station_id":"ce4bhqh2rcd13ifvqhmg","pricing_plan_id":"cebpf4jnsgd1na2vs0mg"},{"bike_id":"5987d684-ebbc-4e3b-9225-d827a0b9ff39","system_id":"levelo_inurba_marseille","lat":43.2396,"lon":5.36624,"is_reserved":false,"is_disabled":true,"rental_uris":{"android":"levelo://app?vid=5987d684-ebbc-4e3b-9225-d827a0b9ff39","ios":"levelo://app?vid=5987d684-ebbc-4e3b-9225-d827a0b9ff39"},"vehicle_type_id":"4","last_reported":1746447574,"current_range_meters":18000,"station_id":"ce4bhi12rcd13ifvqfp0","pricing_plan_id":"cebpf4jnsgd1na2vs0mg"},{"bike_id":"bfb768d4-db43-4db8-8659-afeb33dd4edd","system_id":"levelo_inurba_marseille","lat":43.30746,"lon":5.42443,"is_reserved":false,"is_disabled":false,"rental_uris":{"android":"levelo://app?vid=bfb768d4-db43-4db8-8659-afeb33dd4edd","ios":"levelo://app?vid=bfb768d4-db43-4db8-8659-afeb33dd4edd"},"vehicle_type_id":"4","last_reported":1746447574,"current_range_meters":18000,"station_id":"st_cvj6ca6bvosntc0bfgr0","pricing_plan_id":"cebpf4jnsgd1na2vs0mg"},{"bike_id":"6df4559f-17eb-4a53-842a-5033651a62b8","system_id":"levelo_inurba_marseille","lat":43.28332,"lon":5.38094,"is_reserved":false,"is_disabled":true,"rental_uris":{"android":"levelo://app?vid=6df4559f-17eb-4a53-842a-5033651a62b8","ios":"levelo://app?vid=6df4559f-17eb-4a53-842a-5033651a62b8"},"vehicle_type_id":"4","last_reported":1746447574,"current_range_meters":18000,"station_id":"ce4bh412rcd13ifvqdr0","pricing_plan_id":"cebpf4jnsgd1na2vs0mg"},{"bike_id":"1cd7150b-99f3-4fd4-9822-6d17a6e94ad9","system_id":"levelo_inurba_marseille","lat":43.291,"lon":5.38147,"is_reserved":false,"is_disabled":false,"rental_uris":{"android":"levelo://app?vid=1cd7150b-99f3-4fd4-9822-6d17a6e94ad9","ios":"levelo://app?vid=1cd7150b-99f3-4fd4-9822-6d17a6e94ad9"},"vehicle_type_id":"4","last_reported":1746447574,"current_range_meters":17600,"station_id":"ce4bh512rcd13ifvqe2g","pricing_plan_id":"cebpf4jnsgd1na2vs0mg"},{"bike_id":"54579c78-9716-491b-8525-820002530dbd","system_id":"levelo_inurba_marseille","lat":43.31394,"lon":5.36659,"is_reserved":false,"is_disabled":false,"rental_uris":{"android":"levelo://app?vid=54579c78-9716-491b-8525-820002530dbd","ios":"levelo://app?vid=54579c78-9716-491b-8525-820002530dbd"},"vehicle_type_id":"4","last_reported":1746447574,"current_range_meters":18000,"station_id":"","pricing_plan_id":"cebpf4jnsgd1na2vs0mg"},{"bike_id":"22669a38-af92-4c3d-bca3-b99b69a899e7","system_id":"levelo_inurba_marseille","lat":43.28614,"lon":5.35106,"is_reserved":false,"is_disabled":false,"rental_uris":{"android":"levelo://app?vid=22669a38-af92-4c3d-bca3-b99b69a899e7","ios":"levelo://app?vid=22669a38-af92-4c3d-bca3-b99b69a899e7"},"vehicle_type_id":"4","last_reported":1746447574,"current_range_meters":18000,"station_id":"ce4bhch2rcd13ifvqeug","pricing_plan_id":"cebpf4jnsgd1na2vs0mg"},{"bike_id":"52c7845f-3df4-48a3-8205-c5ead357aecb","system_id":"levelo_inurba_marseille","lat":43.30543,"lon":5.36532,"is_reserved":false,"is_disabled":false,"rental_uris":{"android":"levelo://app?vid=52c7845f-3df4-48a3-8205-c5ead357aecb","ios":"levelo://app?vid=52c7845f-3df4-48a3-8205-c5ead357aecb"},"vehicle_type_id":"4","last_reported":1746447574,"current_range_meters":18800,"station_id":"ce4bgs12rcd13ifvqcag","pricing_plan_id":"cebpf4jnsgd1na2vs0mg"},{"bike_id":"e5bad281-0433-41ae-9b43-cd9b24c3fc16","system_id":"levelo_inurba_marseille","lat":43.30877,"lon":5.39652,"is_reserved":false,"is_disabled":false,"rental_uris":{"android":"levelo://app?vid=e5bad281-0433-41ae-9b43-cd9b24c3fc16","ios":"levelo://app?vid=e5bad281-0433-41ae-9b43-cd9b24c3fc16"},"vehicle_type_id":"4","last_reported":1746447574,"current_range_meters":18800,"station_id":"ce4bh012rcd13ifvqcv0","pricing_plan_id":"cebpf4jnsgd1na2vs0mg"},{"bike_id":"4fbb6c6b-2018-4290-a812-641a2ebf7fff","system_id":"levelo_inurba_marseille","lat":43.33142,"lon":5.38184,"is_reserved":false,"is_disabled":false,"rental_uris":{"android":"levelo://app?vid=4fbb6c6b-2018-4290-a812-641a2ebf7fff","ios":"levelo://app?vid=4fbb6c6b-2018-4290-a812-641a2ebf7fff"},"vehicle_type_id":"4","last_reported":1746447574,"current_range_meters":18800,"station_id":"","pricing_plan_id":"cebpf4jnsgd1na2vs0mg"},{"bike_id":"6e698a47-5a2d-4ca2-af90-7f7613fbd422","system_id":"levelo_inurba_marseille","lat":43.28712,"lon":5.3738,"is_reserved":false,"is_disabled":false,"rental_uris":{"android":"levelo://app?vid=6e698a47-5a2d-4ca2-af90-7f7613fbd422","ios":"levelo://app?vid=6e698a47-5a2d-4ca2-af90-7f7613fbd422"},"vehicle_type_id":"4","last_reported":1746447574,"current_range_meters":18800,"station_id":"ce4bh3p2rcd13ifvqdq0","pricing_plan_id":"cebpf4jnsgd1na2vs0mg"},{"bike_id":"a07db7df-d212-4a63-ba71-2fc2a43e04a0","system_id":"levelo_inurba_marseille","lat":43.317116,"lon":5.436992,"is_reserved":false,"is_disabled":true,"rental_uris":{"android":"levelo://app?vid=a07db7df-d212-4a63-ba71-2fc2a43e04a0","ios":"levelo://app?vid=a07db7df-d212-4a63-ba71-2fc2a43e04a0"},"vehicle_type_id":"4","last_reported":1746447574,"current_range_meters":18800,"station_id":"ce4bhp92rcd13ifvqhcg","pricing_plan_id":"cebpf4jnsgd1na2vs0mg"},{"bike_id":"05c62c5a-41be-4276-aabb-df3d9198c937","system_id":"levelo_inurba_marseille","lat":43.31342,"lon":5.36726,"is_reserved":false,"is_disabled":false,"rental_uris":{"android":"levelo://app?vid=05c62c5a-41be-4276-aabb-df3d9198c937","ios":"levelo://app?vid=05c62c5a-41be-4276-aabb-df3d9198c937"},"vehicle_type_id":"4","last_reported":1746447574,"current_range_meters":18800,"station_id":"ce4bgr92rcd13ifvqc6g","pricing_plan_id":"cebpf4jnsgd1na2vs0mg"},{"bike_id":"b18a3f30-71a6-4a85-b146-02d93b7bc7ec","system_id":"levelo_inurba_marseille","lat":43.30527,"lon":5.36516,"is_reserved":false,"is_disabled":false,"rental_uris":{"android":"levelo://app?vid=b18a3f30-71a6-4a85-b146-02d93b7bc7ec","ios":"levelo://app?vid=b18a3f30-71a6-4a85-b146-02d93b7bc7ec"},"vehicle_type_id":"4","last_reported":1746447574,"current_range_meters":18800,"station_id":"","pricing_plan_id":"cebpf4jnsgd1na2vs0mg"},{"bike_id":"6b07520a-d61c-46e4-8fab-1a38e076614e","system_id":"levelo_inurba_marseille","lat":43.28411,"lon":5.37513,"is_reserved":false,"is_disabled":false,"rental_uris":{"android":"levelo://app?vid=6b07520a-d61c-46e4-8fab-1a38e076614e","ios":"levelo://app?vid=6b07520a-d61c-46e4-8fab-1a38e076614e"},"vehicle_type_id":"4","last_reported":1746447574,"current_range_meters":19200,"station_id":"ce4bh412rcd13ifvqds0","pricing_plan_id":"cebpf4jnsgd1na2vs0mg"},{"bike_id":"3baeaac4-bf7d-4329-afb6-dbbcaa95fb77","system_id":"levelo_inurba_marseille","lat":43.23199,"lon":5.35549,"is_reserved":false,"is_disabled":false,"rental_uris":{"android":"levelo://app?vid=3baeaac4-bf7d-4329-afb6-dbbcaa95fb77","ios":"levelo://app?vid=3baeaac4-bf7d-4329-afb6-dbbcaa95fb77"},"vehicle_type_id":"4","last_reported":1746447574,"current_range_meters":19200,"station_id":"ce4bhu92rcd13ifvqi70","pricing_plan_id":"cebpf4jnsgd1na2vs0mg"},{"bike_id":"11434d62-8bd9-4c1b-861c-b79f9a87c85e","system_id":"levelo_inurba_marseille","lat":43.26037,"lon":5.3755,"is_reserved":false,"is_disabled":false,"rental_uris":{"android":"levelo://app?vid=11434d62-8bd9-4c1b-861c-b79f9a87c85e","ios":"levelo://app?vid=11434d62-8bd9-4c1b-861c-b79f9a87c85e"},"vehicle_type_id":"4","last_reported":1746447574,"current_range_meters":19200,"station_id":"ce4bhgh2rcd13ifvqfa0","pricing_plan_id":"cebpf4jnsgd1na2vs0mg"},{"bike_id":"23a5f1ad-d0e3-475a-9837-b7530e22869f","system_id":"levelo_inurba_marseille","lat":43.32656,"lon":5.40994,"is_reserved":false,"is_disabled":false,"rental_uris":{"android":"levelo://app?vid=23a5f1ad-d0e3-475a-9837-b7530e22869f","ios":"levelo://app?vid=23a5f1ad-d0e3-475a-9837-b7530e22869f"},"vehicle_type_id":"4","last_reported":1746447574,"current_range_meters":19200,"station_id":"ce4bhpp2rcd13ifvqhgg","pricing_plan_id":"cebpf4jnsgd1na2vs0mg"},{"bike_id":"f0a24790-e23c-4e05-96ac-801137740103","system_id":"levelo_inurba_marseille","lat":43.301397,"lon":5.398634,"is_reserved":false,"is_disabled":false,"rental_uris":{"android":"levelo://app?vid=f0a24790-e23c-4e05-96ac-801137740103","ios":"levelo://app?vid=f0a24790-e23c-4e05-96ac-801137740103"},"vehicle_type_id":"4","last_reported":1746447574,"current_range_meters":19200,"station_id":"ce4bh0h2rcd13ifvqd40","pricing_plan_id":"cebpf4jnsgd1na2vs0mg"},{"bike_id":"95653fc1-4207-474f-b136-a7a415e77cef","system_id":"levelo_inurba_marseille","lat":43.28153,"lon":5.42632,"is_reserved":false,"is_disabled":false,"rental_uris":{"android":"levelo://app?vid=95653fc1-4207-474f-b136-a7a415e77cef","ios":"levelo://app?vid=95653fc1-4207-474f-b136-a7a415e77cef"},"vehicle_type_id":"4","last_reported":1746447574,"current_range_meters":19600,"station_id":"ce4bhnh2rcd13ifvqgug","pricing_plan_id":"cebpf4jnsgd1na2vs0mg"},{"bike_id":"0299061e-4949-4dc5-b005-0805b89c2d62","system_id":"levelo_inurba_marseille","lat":43.290488,"lon":5.405183,"is_reserved":false,"is_disabled":false,"rental_uris":{"android":"levelo://app?vid=0299061e-4949-4dc5-b005-0805b89c2d62","ios":"levelo://app?vid=0299061e-4949-4dc5-b005-0805b89c2d62"},"vehicle_type_id":"4","last_reported":1746447574,"current_range_meters":19600,"station_id":"","pricing_plan_id":"cebpf4jnsgd1na2vs0mg"},{"bike_id":"edead994-a10d-404e-8fdc-c6f988bdd343","system_id":"levelo_inurba_marseille","lat":43.3142,"lon":5.36669,"is_reserved":false,"is_disabled":false,"rental_uris":{"android":"levelo://app?vid=edead994-a10d-404e-8fdc-c6f988bdd343","ios":"levelo://app?vid=edead994-a10d-404e-8fdc-c6f988bdd343"},"vehicle_type_id":"4","last_reported":1746447574,"current_range_meters":19600,"station_id":"","pricing_plan_id":"cebpf4jnsgd1na2vs0mg"},{"bike_id":"44496384-61d0-4fad-99d2-b003c939d4ec","system_id":"levelo_inurba_marseille","lat":43.30936,"lon":5.37204,"is_reserved":false,"is_disabled":false,"rental_uris":{"android":"levelo://app?vid=44496384-61d0-4fad-99d2-b003c939d4ec","ios":"levelo://app?vid=44496384-61d0-4fad-99d2-b003c939d4ec"},"vehicle_type_id":"4","last_reported":1746447574,"current_range_meters":19600,"station_id":"ce4bguh2rcd13ifvqckg","pricing_plan_id":"cebpf4jnsgd1na2vs0mg"},{"bike_id":"e814def0-56cd-4344-bca7-c182abad0245","system_id":"levelo_inurba_marseille","lat":43.24676,"lon":5.38155,"is_reserved":false,"is_disabled":false,"rental_uris":{"android":"levelo://app?vid=e814def0-56cd-4344-bca7-c182abad0245","ios":"levelo://app?vid=e814def0-56cd-4344-bca7-c182abad0245"},"vehicle_type_id":"4","last_reported":1746447574,"current_range_meters":19600,"station_id":"ce4bhih2rcd13ifvqfr0","pricing_plan_id":"cebpf4jnsgd1na2vs0mg"},{"bike_id":"19dd48b0-a2fe-4183-a6aa-fa5982271b55","system_id":"levelo_inurba_marseille","lat":43.29599,"lon":5.38106,"is_reserved":false,"is_disabled":false,"rental_uris":{"android":"levelo://app?vid=19dd48b0-a2fe-4183-a6aa-fa5982271b55","ios":"levelo://app?vid=19dd48b0-a2fe-4183-a6aa-fa5982271b55"},"vehicle_type_id":"4","last_reported":1746447574,"current_range_meters":19200,"station_id":"ce4bgl12rcd13ifvqbo0","pricing_plan_id":"cebpf4jnsgd1na2vs0mg"},{"bike_id":"37f5988a-9da9-44d9-a7c6-724cab6b9ccf","system_id":"levelo_inurba_marseille","lat":43.28706,"lon":5.37376,"is_reserved":false,"is_disabled":true,"rental_uris":{"android":"levelo://app?vid=37f5988a-9da9-44d9-a7c6-724cab6b9ccf","ios":"levelo://app?vid=37f5988a-9da9-44d9-a7c6-724cab6b9ccf"},"vehicle_type_id":"4","last_reported":1746447574,"current_range_meters":20000,"station_id":"ce4bh3p2rcd13ifvqdq0","pricing_plan_id":"cebpf4jnsgd1na2vs0mg"},{"bike_id":"52d3e2ca-e216-4fd4-a95b-543c00b01230","system_id":"levelo_inurba_marseille","lat":43.30545,"lon":5.36542,"is_reserved":false,"is_disabled":false,"rental_uris":{"android":"levelo://app?vid=52d3e2ca-e216-4fd4-a95b-543c00b01230","ios":"levelo://app?vid=52d3e2ca-e216-4fd4-a95b-543c00b01230"},"vehicle_type_id":"4","last_reported":1746447574,"current_range_meters":20000,"station_id":"ce4bgs12rcd13ifvqcag","pricing_plan_id":"cebpf4jnsgd1na2vs0mg"},{"bike_id":"a327ed7c-cb3d-44b1-bb3d-7951cd226f01","system_id":"levelo_inurba_marseille","lat":43.293396,"lon":5.371296,"is_reserved":false,"is_disabled":false,"rental_uris":{"android":"levelo://app?vid=a327ed7c-cb3d-44b1-bb3d-7951cd226f01","ios":"levelo://app?vid=a327ed7c-cb3d-44b1-bb3d-7951cd226f01"},"vehicle_type_id":"4","last_reported":1746447574,"current_range_meters":20000,"station_id":"","pricing_plan_id":"cebpf4jnsgd1na2vs0mg"},{"bike_id":"13d72c90-097d-44e3-a161-c92142027aeb","system_id":"levelo_inurba_marseille","lat":43.32108,"lon":5.36759,"is_reserved":false,"is_disabled":false,"rental_uris":{"android":"levelo://app?vid=13d72c90-097d-44e3-a161-c92142027aeb","ios":"levelo://app?vid=13d72c90-097d-44e3-a161-c92142027aeb"},"vehicle_type_id":"4","last_reported":1746447574,"current_range_meters":20000,"station_id":"ce4bhrh2rcd13ifvqhug","pricing_plan_id":"cebpf4jnsgd1na2vs0mg"},{"bike_id":"4824544e-26e8-45ae-9080-b1f77eb1d9c3","system_id":"levelo_inurba_marseille","lat":43.29933,"lon":5.36526,"is_reserved":false,"is_disabled":false,"rental_uris":{"android":"levelo://app?vid=4824544e-26e8-45ae-9080-b1f77eb1d9c3","ios":"levelo://app?vid=4824544e-26e8-45ae-9080-b1f77eb1d9c3"},"vehicle_type_id":"4","last_reported":1746447574,"current_range_meters":20000,"station_id":"ce4bgm92rcd13ifvqbr0","pricing_plan_id":"cebpf4jnsgd1na2vs0mg"},{"bike_id":"49e6f1a0-3667-46b6-bb46-ba8d71b1df96","system_id":"levelo_inurba_marseille","lat":43.21756,"lon":5.34593,"is_reserved":false,"is_disabled":false,"rental_uris":{"android":"levelo://app?vid=49e6f1a0-3667-46b6-bb46-ba8d71b1df96","ios":"levelo://app?vid=49e6f1a0-3667-46b6-bb46-ba8d71b1df96"},"vehicle_type_id":"4","last_reported":1746447574,"current_range_meters":20400,"station_id":"st_cvj6r9ubvosntc0bgbag","pricing_plan_id":"cebpf4jnsgd1na2vs0mg"},{"bike_id":"57c882b2-2b7d-4924-a232-80d39274d75e","system_id":"levelo_inurba_marseille","lat":43.231538,"lon":5.437215,"is_reserved":false,"is_disabled":true,"rental_uris":{"android":"levelo://app?vid=57c882b2-2b7d-4924-a232-80d39274d75e","ios":"levelo://app?vid=57c882b2-2b7d-4924-a232-80d39274d75e"},"vehicle_type_id":"4","last_reported":1746447574,"current_range_meters":20400,"station_id":"ce4bhmp2rcd13ifvqgog","pricing_plan_id":"cebpf4jnsgd1na2vs0mg"},{"bike_id":"3bf6fdda-7af1-44f3-8c49-4e6ae7e71791","system_id":"levelo_inurba_marseille","lat":43.30559,"lon":5.365388,"is_reserved":false,"is_disabled":false,"rental_uris":{"android":"levelo://app?vid=3bf6fdda-7af1-44f3-8c49-4e6ae7e71791","ios":"levelo://app?vid=3bf6fdda-7af1-44f3-8c49-4e6ae7e71791"},"vehicle_type_id":"4","last_reported":1746447574,"current_range_meters":20400,"station_id":"ce4bgs12rcd13ifvqcag","pricing_plan_id":"cebpf4jnsgd1na2vs0mg"},{"bike_id":"d18299ef-20b5-4517-984f-add065e31cbd","system_id":"levelo_inurba_marseille","lat":43.30123,"lon":5.39849,"is_reserved":false,"is_disabled":false,"rental_uris":{"android":"levelo://app?vid=d18299ef-20b5-4517-984f-add065e31cbd","ios":"levelo://app?vid=d18299ef-20b5-4517-984f-add065e31cbd"},"vehicle_type_id":"4","last_reported":1746447574,"current_range_meters":20000,"station_id":"ce4bh0h2rcd13ifvqd40","pricing_plan_id":"cebpf4jnsgd1na2vs0mg"},{"bike_id":"967c04b4-dddb-4e01-9c9f-a766d6177203","system_id":"levelo_inurba_marseille","lat":43.27615,"lon":5.36107,"is_reserved":false,"is_disabled":false,"rental_uris":{"android":"levelo://app?vid=967c04b4-dddb-4e01-9c9f-a766d6177203","ios":"levelo://app?vid=967c04b4-dddb-4e01-9c9f-a766d6177203"},"vehicle_type_id":"4","last_reported":1746447574,"current_range_meters":20400,"station_id":"ce4bgj92rcd13ifvqbe0","pricing_plan_id":"cebpf4jnsgd1na2vs0mg"},{"bike_id":"5597c73d-4ba4-4232-a05a-d68d84b6991f","system_id":"levelo_inurba_marseille","lat":43.274915,"lon":5.424535,"is_reserved":false,"is_disabled":true,"rental_uris":{"android":"levelo://app?vid=5597c73d-4ba4-4232-a05a-d68d84b6991f","ios":"levelo://app?vid=5597c73d-4ba4-4232-a05a-d68d84b6991f"},"vehicle_type_id":"4","last_reported":1746447574,"current_range_meters":20400,"station_id":"ce4bhn92rcd13ifvqgrg","pricing_plan_id":"cebpf4jnsgd1na2vs0mg"},{"bike_id":"e83a1492-3000-47b7-abe6-dec5336bcf26","system_id":"levelo_inurba_marseille","lat":43.30915,"lon":5.36853,"is_reserved":false,"is_disabled":false,"rental_uris":{"android":"levelo://app?vid=e83a1492-3000-47b7-abe6-dec5336bcf26","ios":"levelo://app?vid=e83a1492-3000-47b7-abe6-dec5336bcf26"},"vehicle_type_id":"4","last_reported":1746447574,"current_range_meters":20400,"station_id":"ce4bgn92rcd13ifvqbvg","pricing_plan_id":"cebpf4jnsgd1na2vs0mg"},{"bike_id":"b6723195-8c10-44ba-b80a-890802b177a2","system_id":"levelo_inurba_marseille","lat":43.290358,"lon":5.386348,"is_reserved":false,"is_disabled":false,"rental_uris":{"android":"levelo://app?vid=b6723195-8c10-44ba-b80a-890802b177a2","ios":"levelo://app?vid=b6723195-8c10-44ba-b80a-890802b177a2"},"vehicle_type_id":"4","last_reported":1746447574,"current_range_meters":20400,"station_id":"ce4bh4p2rcd13ifvqe0g","pricing_plan_id":"cebpf4jnsgd1na2vs0mg"},{"bike_id":"9836ecdb-2823-4b1c-a3e0-852e386c1760","system_id":"levelo_inurba_marseille","lat":43.30249,"lon":5.40081,"is_reserved":false,"is_disabled":false,"rental_uris":{"android":"levelo://app?vid=9836ecdb-2823-4b1c-a3e0-852e386c1760","ios":"levelo://app?vid=9836ecdb-2823-4b1c-a3e0-852e386c1760"},"vehicle_type_id":"4","last_reported":1746447574,"current_range_meters":20800,"station_id":"ce4bgvh2rcd13ifvqcs0","pricing_plan_id":"cebpf4jnsgd1na2vs0mg"},{"bike_id":"a575e224-faa5-4da8-b81a-fbef9e4f2c0f","system_id":"levelo_inurba_marseille","lat":43.30139,"lon":5.39851,"is_reserved":false,"is_disabled":false,"rental_uris":{"android":"levelo://app?vid=a575e224-faa5-4da8-b81a-fbef9e4f2c0f","ios":"levelo://app?vid=a575e224-faa5-4da8-b81a-fbef9e4f2c0f"},"vehicle_type_id":"4","last_reported":1746447574,"current_range_meters":20800,"station_id":"ce4bh0h2rcd13ifvqd40","pricing_plan_id":"cebpf4jnsgd1na2vs0mg"},{"bike_id":"dcd2ffa7-5ab4-463b-8b9d-109d4fd1a11b","system_id":"levelo_inurba_marseille","lat":43.24071,"lon":5.37769,"is_reserved":false,"is_disabled":false,"rental_uris":{"android":"levelo://app?vid=dcd2ffa7-5ab4-463b-8b9d-109d4fd1a11b","ios":"levelo://app?vid=dcd2ffa7-5ab4-463b-8b9d-109d4fd1a11b"},"vehicle_type_id":"4","last_reported":1746447574,"current_range_meters":20800,"station_id":"ce4bhnp2rcd13ifvqgvg","pricing_plan_id":"cebpf4jnsgd1na2vs0mg"},{"bike_id":"87470c34-0138-4fc5-962a-73384fac1d10","system_id":"levelo_inurba_marseille","lat":43.30524,"lon":5.36698,"is_reserved":false,"is_disabled":false,"rental_uris":{"android":"levelo://app?vid=87470c34-0138-4fc5-962a-73384fac1d10","ios":"levelo://app?vid=87470c34-0138-4fc5-962a-73384fac1d10"},"vehicle_type_id":"4","last_reported":1746447574,"current_range_meters":20800,"station_id":"ce4bgrp2rcd13ifvqc9g","pricing_plan_id":"cebpf4jnsgd1na2vs0mg"},{"bike_id":"6d154996-926b-4751-b9be-1b5806d9b406","system_id":"levelo_inurba_marseille","lat":43.24543,"lon":5.39524,"is_reserved":false,"is_disabled":false,"rental_uris":{"android":"levelo://app?vid=6d154996-926b-4751-b9be-1b5806d9b406","ios":"levelo://app?vid=6d154996-926b-4751-b9be-1b5806d9b406"},"vehicle_type_id":"4","last_reported":1746447574,"current_range_meters":20800,"station_id":"ce4bhlp2rcd13ifvqgjg","pricing_plan_id":"cebpf4jnsgd1na2vs0mg"},{"bike_id":"12f27702-0e18-44c1-bc7a-8fd68ac00483","system_id":"levelo_inurba_marseille","lat":43.30311,"lon":5.36889,"is_reserved":false,"is_disabled":false,"rental_uris":{"android":"levelo://app?vid=12f27702-0e18-44c1-bc7a-8fd68ac00483","ios":"levelo://app?vid=12f27702-0e18-44c1-bc7a-8fd68ac00483"},"vehicle_type_id":"4","last_reported":1746447574,"current_range_meters":20800,"station_id":"ce4bgqh2rcd13ifvqc5g","pricing_plan_id":"cebpf4jnsgd1na2vs0mg"},{"bike_id":"79be5156-8043-4ba1-8573-b1c8909f4411","system_id":"levelo_inurba_marseille","lat":43.23152,"lon":5.43701,"is_reserved":false,"is_disabled":false,"rental_uris":{"android":"levelo://app?vid=79be5156-8043-4ba1-8573-b1c8909f4411","ios":"levelo://app?vid=79be5156-8043-4ba1-8573-b1c8909f4411"},"vehicle_type_id":"4","last_reported":1746447574,"current_range_meters":20800,"station_id":"ce4bhmp2rcd13ifvqgog","pricing_plan_id":"cebpf4jnsgd1na2vs0mg"},{"bike_id":"53f203be-a963-4362-91a7-1c7117e55c2e","system_id":"levelo_inurba_marseille","lat":43.31225,"lon":5.36847,"is_reserved":false,"is_disabled":false,"rental_uris":{"android":"levelo://app?vid=53f203be-a963-4362-91a7-1c7117e55c2e","ios":"levelo://app?vid=53f203be-a963-4362-91a7-1c7117e55c2e"},"vehicle_type_id":"4","last_reported":1746447574,"current_range_meters":21600,"station_id":"ce4bgl92rcd13ifvqbq0","pricing_plan_id":"cebpf4jnsgd1na2vs0mg"},{"bike_id":"fc25e8d0-158a-47b0-82aa-22f54c76d1e9","system_id":"levelo_inurba_marseille","lat":43.28463,"lon":5.35898,"is_reserved":false,"is_disabled":false,"rental_uris":{"android":"levelo://app?vid=fc25e8d0-158a-47b0-82aa-22f54c76d1e9","ios":"levelo://app?vid=fc25e8d0-158a-47b0-82aa-22f54c76d1e9"},"vehicle_type_id":"4","last_reported":1746447574,"current_range_meters":21600,"station_id":"ce4bhah2rcd13ifvqei0","pricing_plan_id":"cebpf4jnsgd1na2vs0mg"},{"bike_id":"3e5c712a-2e6d-4e23-9ef2-7fb504bd51db","system_id":"levelo_inurba_marseille","lat":43.28155,"lon":5.4264,"is_reserved":false,"is_disabled":false,"rental_uris":{"android":"levelo://app?vid=3e5c712a-2e6d-4e23-9ef2-7fb504bd51db","ios":"levelo://app?vid=3e5c712a-2e6d-4e23-9ef2-7fb504bd51db"},"vehicle_type_id":"4","last_reported":1746447574,"current_range_meters":21600,"station_id":"ce4bhnh2rcd13ifvqgug","pricing_plan_id":"cebpf4jnsgd1na2vs0mg"},{"bike_id":"86284376-eb45-4b2e-8470-ff64606c8590","system_id":"levelo_inurba_marseille","lat":43.21747,"lon":5.34606,"is_reserved":false,"is_disabled":false,"rental_uris":{"android":"levelo://app?vid=86284376-eb45-4b2e-8470-ff64606c8590","ios":"levelo://app?vid=86284376-eb45-4b2e-8470-ff64606c8590"},"vehicle_type_id":"4","last_reported":1746447574,"current_range_meters":21600,"station_id":"st_cvj6r9ubvosntc0bgbag","pricing_plan_id":"cebpf4jnsgd1na2vs0mg"},{"bike_id":"19c7f883-14a7-483a-b395-8d0389f3941b","system_id":"levelo_inurba_marseille","lat":43.30955,"lon":5.39037,"is_reserved":false,"is_disabled":false,"rental_uris":{"android":"levelo://app?vid=19c7f883-14a7-483a-b395-8d0389f3941b","ios":"levelo://app?vid=19c7f883-14a7-483a-b395-8d0389f3941b"},"vehicle_type_id":"4","last_reported":1746447574,"current_range_meters":22000,"station_id":"ce4bgup2rcd13ifvqco0","pricing_plan_id":"cebpf4jnsgd1na2vs0mg"},{"bike_id":"cf6da894-6e98-4f20-a902-8181930318dd","system_id":"levelo_inurba_marseille","lat":43.25742,"lon":5.41051,"is_reserved":false,"is_disabled":false,"rental_uris":{"android":"levelo://app?vid=cf6da894-6e98-4f20-a902-8181930318dd","ios":"levelo://app?vid=cf6da894-6e98-4f20-a902-8181930318dd"},"vehicle_type_id":"4","last_reported":1746447574,"current_range_meters":22000,"station_id":"ce4bhkp2rcd13ifvqgd0","pricing_plan_id":"cebpf4jnsgd1na2vs0mg"},{"bike_id":"4698e91c-8bb9-402d-b783-ae3ec4c6e001","system_id":"levelo_inurba_marseille","lat":43.29853,"lon":5.36235,"is_reserved":false,"is_disabled":false,"rental_uris":{"android":"levelo://app?vid=4698e91c-8bb9-402d-b783-ae3ec4c6e001","ios":"levelo://app?vid=4698e91c-8bb9-402d-b783-ae3ec4c6e001"},"vehicle_type_id":"4","last_reported":1746447574,"current_range_meters":22000,"station_id":"ce4bgpp2rcd13ifvqc3g","pricing_plan_id":"cebpf4jnsgd1na2vs0mg"},{"bike_id":"8d578825-09f8-4a67-bad3-a27f7963e853","system_id":"levelo_inurba_marseille","lat":43.31352,"lon":5.36703,"is_reserved":false,"is_disabled":false,"rental_uris":{"android":"levelo://app?vid=8d578825-09f8-4a67-bad3-a27f7963e853","ios":"levelo://app?vid=8d578825-09f8-4a67-bad3-a27f7963e853"},"vehicle_type_id":"4","last_reported":1746447574,"current_range_meters":22000,"station_id":"ce4bgr92rcd13ifvqc6g","pricing_plan_id":"cebpf4jnsgd1na2vs0mg"},{"bike_id":"25b110e0-eeb5-4b9b-97b4-f8daba352c3b","system_id":"levelo_inurba_marseille","lat":43.29259,"lon":5.37633,"is_reserved":false,"is_disabled":false,"rental_uris":{"android":"levelo://app?vid=25b110e0-eeb5-4b9b-97b4-f8daba352c3b","ios":"levelo://app?vid=25b110e0-eeb5-4b9b-97b4-f8daba352c3b"},"vehicle_type_id":"4","last_reported":1746447574,"current_range_meters":22400,"station_id":"ce4bgi12rcd13ifvqb80","pricing_plan_id":"cebpf4jnsgd1na2vs0mg"},{"bike_id":"704dc3c1-563f-49f8-b535-01684704e818","system_id":"levelo_inurba_marseille","lat":43.23193,"lon":5.35554,"is_reserved":false,"is_disabled":false,"rental_uris":{"android":"levelo://app?vid=704dc3c1-563f-49f8-b535-01684704e818","ios":"levelo://app?vid=704dc3c1-563f-49f8-b535-01684704e818"},"vehicle_type_id":"4","last_reported":1746447574,"current_range_meters":22400,"station_id":"ce4bhu92rcd13ifvqi70","pricing_plan_id":"cebpf4jnsgd1na2vs0mg"},{"bike_id":"6e2ab2fb-d1b8-4d15-bbc7-b077fd3bb059","system_id":"levelo_inurba_marseille","lat":43.323611,"lon":5.367721,"is_reserved":false,"is_disabled":false,"rental_uris":{"android":"levelo://app?vid=6e2ab2fb-d1b8-4d15-bbc7-b077fd3bb059","ios":"levelo://app?vid=6e2ab2fb-d1b8-4d15-bbc7-b077fd3bb059"},"vehicle_type_id":"4","last_reported":1746447574,"current_range_meters":22400,"station_id":"ce4bhsh2rcd13ifvqi2g","pricing_plan_id":"cebpf4jnsgd1na2vs0mg"},{"bike_id":"6076519d-9e56-4116-ac3f-cf1b55b1f768","system_id":"levelo_inurba_marseille","lat":43.24166,"lon":5.39687,"is_reserved":false,"is_disabled":false,"rental_uris":{"android":"levelo://app?vid=6076519d-9e56-4116-ac3f-cf1b55b1f768","ios":"levelo://app?vid=6076519d-9e56-4116-ac3f-cf1b55b1f768"},"vehicle_type_id":"4","last_reported":1746447574,"current_range_meters":22400,"station_id":"ce4bhn12rcd13ifvqgpg","pricing_plan_id":"cebpf4jnsgd1na2vs0mg"},{"bike_id":"3a852cf8-ac8e-49e7-ba4d-07564899c387","system_id":"levelo_inurba_marseille","lat":43.325423,"lon":5.414307,"is_reserved":false,"is_disabled":false,"rental_uris":{"android":"levelo://app?vid=3a852cf8-ac8e-49e7-ba4d-07564899c387","ios":"levelo://app?vid=3a852cf8-ac8e-49e7-ba4d-07564899c387"},"vehicle_type_id":"4","last_reported":1746447574,"current_range_meters":22800,"station_id":"ce4bhq12rcd13ifvqhhg","pricing_plan_id":"cebpf4jnsgd1na2vs0mg"},{"bike_id":"2cee6040-8030-465e-9b96-6c4c9f5e832e","system_id":"levelo_inurba_marseille","lat":43.28855,"lon":5.35861,"is_reserved":false,"is_disabled":false,"rental_uris":{"android":"levelo://app?vid=2cee6040-8030-465e-9b96-6c4c9f5e832e","ios":"levelo://app?vid=2cee6040-8030-465e-9b96-6c4c9f5e832e"},"vehicle_type_id":"4","last_reported":1746447574,"current_range_meters":21600,"station_id":"ce4bhb12rcd13ifvqem0","pricing_plan_id":"cebpf4jnsgd1na2vs0mg"},{"bike_id":"043bb02d-63b3-4df6-9b1b-751198075c55","system_id":"levelo_inurba_marseille","lat":43.292982,"lon":5.374644,"is_reserved":false,"is_disabled":false,"rental_uris":{"android":"levelo://app?vid=043bb02d-63b3-4df6-9b1b-751198075c55","ios":"levelo://app?vid=043bb02d-63b3-4df6-9b1b-751198075c55"},"vehicle_type_id":"4","last_reported":1746447574,"current_range_meters":22800,"station_id":"ce4bgrh2rcd13ifvqc8g","pricing_plan_id":"cebpf4jnsgd1na2vs0mg"},{"bike_id":"d8335d22-67e6-4497-9d95-611f5a019dd6","system_id":"levelo_inurba_marseille","lat":43.30545,"lon":5.3655,"is_reserved":false,"is_disabled":false,"rental_uris":{"android":"levelo://app?vid=d8335d22-67e6-4497-9d95-611f5a019dd6","ios":"levelo://app?vid=d8335d22-67e6-4497-9d95-611f5a019dd6"},"vehicle_type_id":"4","last_reported":1746447574,"current_range_meters":22800,"station_id":"ce4bgs12rcd13ifvqcag","pricing_plan_id":"cebpf4jnsgd1na2vs0mg"},{"bike_id":"ca51c9c6-8596-42cc-8138-ae87d885b81b","system_id":"levelo_inurba_marseille","lat":43.29508,"lon":5.37505,"is_reserved":false,"is_disabled":false,"rental_uris":{"android":"levelo://app?vid=ca51c9c6-8596-42cc-8138-ae87d885b81b","ios":"levelo://app?vid=ca51c9c6-8596-42cc-8138-ae87d885b81b"},"vehicle_type_id":"4","last_reported":1746447574,"current_range_meters":22800,"station_id":"ce4bgkp2rcd13ifvqbmg","pricing_plan_id":"cebpf4jnsgd1na2vs0mg"},{"bike_id":"a3fc379c-f48c-423f-9dea-79df760e04b7","system_id":"levelo_inurba_marseille","lat":43.29271,"lon":5.36844,"is_reserved":false,"is_disabled":false,"rental_uris":{"android":"levelo://app?vid=a3fc379c-f48c-423f-9dea-79df760e04b7","ios":"levelo://app?vid=a3fc379c-f48c-423f-9dea-79df760e04b7"},"vehicle_type_id":"4","last_reported":1746447574,"current_range_meters":22800,"station_id":"ce4bhbp2rcd13ifvqesg","pricing_plan_id":"cebpf4jnsgd1na2vs0mg"},{"bike_id":"3bbe85d0-34e2-4e13-94dc-905927deef64","system_id":"levelo_inurba_marseille","lat":43.21754,"lon":5.34607,"is_reserved":false,"is_disabled":false,"rental_uris":{"android":"levelo://app?vid=3bbe85d0-34e2-4e13-94dc-905927deef64","ios":"levelo://app?vid=3bbe85d0-34e2-4e13-94dc-905927deef64"},"vehicle_type_id":"4","last_reported":1746447574,"current_range_meters":22800,"station_id":"st_cvj6r9ubvosntc0bgbag","pricing_plan_id":"cebpf4jnsgd1na2vs0mg"},{"bike_id":"99b1c182-23d9-4280-aead-5c2d2d0efb84","system_id":"levelo_inurba_marseille","lat":43.2406,"lon":5.37753,"is_reserved":false,"is_disabled":false,"rental_uris":{"android":"levelo://app?vid=99b1c182-23d9-4280-aead-5c2d2d0efb84","ios":"levelo://app?vid=99b1c182-23d9-4280-aead-5c2d2d0efb84"},"vehicle_type_id":"4","last_reported":1746447574,"current_range_meters":23200,"station_id":"ce4bhnp2rcd13ifvqgvg","pricing_plan_id":"cebpf4jnsgd1na2vs0mg"},{"bike_id":"a5282e01-c144-4546-bc32-08cfde33aa76","system_id":"levelo_inurba_marseille","lat":43.28441,"lon":5.39193,"is_reserved":false,"is_disabled":true,"rental_uris":{"android":"levelo://app?vid=a5282e01-c144-4546-bc32-08cfde33aa76","ios":"levelo://app?vid=a5282e01-c144-4546-bc32-08cfde33aa76"},"vehicle_type_id":"4","last_reported":1746447574,"current_range_meters":23200,"station_id":"ce4bhoh2rcd13ifvqh5g","pricing_plan_id":"cebpf4jnsgd1na2vs0mg"},{"bike_id":"8514f9d6-b38c-4cc5-9c2c-62f80bea6c09","system_id":"levelo_inurba_marseille","lat":43.27942,"lon":5.41038,"is_reserved":false,"is_disabled":false,"rental_uris":{"android":"levelo://app?vid=8514f9d6-b38c-4cc5-9c2c-62f80bea6c09","ios":"levelo://app?vid=8514f9d6-b38c-4cc5-9c2c-62f80bea6c09"},"vehicle_type_id":"4","last_reported":1746447574,"current_range_meters":23200,"station_id":"ce4bhnp2rcd13ifvqh0g","pricing_plan_id":"cebpf4jnsgd1na2vs0mg"},{"bike_id":"f4f6f1b7-8fd6-4ed6-bf5e-e0ce83bb46bb","system_id":"levelo_inurba_marseille","lat":43.259291,"lon":5.408955,"is_reserved":false,"is_disabled":true,"rental_uris":{"android":"levelo://app?vid=f4f6f1b7-8fd6-4ed6-bf5e-e0ce83bb46bb","ios":"levelo://app?vid=f4f6f1b7-8fd6-4ed6-bf5e-e0ce83bb46bb"},"vehicle_type_id":"4","last_reported":1746447574,"current_range_meters":23200,"station_id":"ce4bhm92rcd13ifvqglg","pricing_plan_id":"cebpf4jnsgd1na2vs0mg"},{"bike_id":"1d93dc16-0832-499f-9386-5e2a1697fc1a","system_id":"levelo_inurba_marseille","lat":43.29824,"lon":5.37395,"is_reserved":false,"is_disabled":false,"rental_uris":{"android":"levelo://app?vid=1d93dc16-0832-499f-9386-5e2a1697fc1a","ios":"levelo://app?vid=1d93dc16-0832-499f-9386-5e2a1697fc1a"},"vehicle_type_id":"4","last_reported":1746447574,"current_range_meters":23200,"station_id":"","pricing_plan_id":"cebpf4jnsgd1na2vs0mg"},{"bike_id":"f3c2ae2d-0ae8-4978-9125-4ce618f8c7aa","system_id":"levelo_inurba_marseille","lat":43.24179,"lon":5.39715,"is_reserved":false,"is_disabled":false,"rental_uris":{"android":"levelo://app?vid=f3c2ae2d-0ae8-4978-9125-4ce618f8c7aa","ios":"levelo://app?vid=f3c2ae2d-0ae8-4978-9125-4ce618f8c7aa"},"vehicle_type_id":"4","last_reported":1746447574,"current_range_meters":23200,"station_id":"ce4bhn12rcd13ifvqgpg","pricing_plan_id":"cebpf4jnsgd1na2vs0mg"},{"bike_id":"ac700e2e-c129-4f82-a3c3-f628077933a6","system_id":"levelo_inurba_marseille","lat":43.21191,"lon":5.35071,"is_reserved":false,"is_disabled":false,"rental_uris":{"android":"levelo://app?vid=ac700e2e-c129-4f82-a3c3-f628077933a6","ios":"levelo://app?vid=ac700e2e-c129-4f82-a3c3-f628077933a6"},"vehicle_type_id":"4","last_reported":1746447574,"current_range_meters":23200,"station_id":"st_cvj6sg6p6f1abm77japg","pricing_plan_id":"cebpf4jnsgd1na2vs0mg"},{"bike_id":"067d4e42-00e9-4fc5-84d9-2578b515310e","system_id":"levelo_inurba_marseille","lat":43.23148,"lon":5.43707,"is_reserved":false,"is_disabled":false,"rental_uris":{"android":"levelo://app?vid=067d4e42-00e9-4fc5-84d9-2578b515310e","ios":"levelo://app?vid=067d4e42-00e9-4fc5-84d9-2578b515310e"},"vehicle_type_id":"4","last_reported":1746447574,"current_range_meters":23200,"station_id":"ce4bhmp2rcd13ifvqgog","pricing_plan_id":"cebpf4jnsgd1na2vs0mg"},{"bike_id":"8fa70930-3d89-410a-8a0d-ae58e85113d9","system_id":"levelo_inurba_marseille","lat":43.33782,"lon":5.37493,"is_reserved":false,"is_disabled":false,"rental_uris":{"android":"levelo://app?vid=8fa70930-3d89-410a-8a0d-ae58e85113d9","ios":"levelo://app?vid=8fa70930-3d89-410a-8a0d-ae58e85113d9"},"vehicle_type_id":"4","last_reported":1746447574,"current_range_meters":24000,"station_id":"","pricing_plan_id":"cebpf4jnsgd1na2vs0mg"},{"bike_id":"1d80598a-0996-47bb-996c-589c32ceb57b","system_id":"levelo_inurba_marseille","lat":43.230704,"lon":5.354934,"is_reserved":false,"is_disabled":false,"rental_uris":{"android":"levelo://app?vid=1d80598a-0996-47bb-996c-589c32ceb57b","ios":"levelo://app?vid=1d80598a-0996-47bb-996c-589c32ceb57b"},"vehicle_type_id":"4","last_reported":1746447574,"current_range_meters":24000,"station_id":"cpo3342slgdg3j2ifvpg","pricing_plan_id":"cebpf4jnsgd1na2vs0mg"},{"bike_id":"bf187fed-6028-4330-936a-65ebaf0ef150","system_id":"levelo_inurba_marseille","lat":43.25933,"lon":5.40912,"is_reserved":false,"is_disabled":false,"rental_uris":{"android":"levelo://app?vid=bf187fed-6028-4330-936a-65ebaf0ef150","ios":"levelo://app?vid=bf187fed-6028-4330-936a-65ebaf0ef150"},"vehicle_type_id":"4","last_reported":1746447574,"current_range_meters":24000,"station_id":"ce4bhm92rcd13ifvqglg","pricing_plan_id":"cebpf4jnsgd1na2vs0mg"},{"bike_id":"cc9dd47a-63cd-482c-a1ec-d849d8bef706","system_id":"levelo_inurba_marseille","lat":43.301892,"lon":5.36626,"is_reserved":false,"is_disabled":false,"rental_uris":{"android":"levelo://app?vid=cc9dd47a-63cd-482c-a1ec-d849d8bef706","ios":"levelo://app?vid=cc9dd47a-63cd-482c-a1ec-d849d8bef706"},"vehicle_type_id":"4","last_reported":1746447574,"current_range_meters":24000,"station_id":"ce4bgrh2rcd13ifvqc8g","pricing_plan_id":"cebpf4jnsgd1na2vs0mg"},{"bike_id":"76b2e26a-d1ed-47f3-a49b-06681f98f27f","system_id":"levelo_inurba_marseille","lat":43.231957,"lon":5.355563,"is_reserved":false,"is_disabled":false,"rental_uris":{"android":"levelo://app?vid=76b2e26a-d1ed-47f3-a49b-06681f98f27f","ios":"levelo://app?vid=76b2e26a-d1ed-47f3-a49b-06681f98f27f"},"vehicle_type_id":"4","last_reported":1746447574,"current_range_meters":24000,"station_id":"ce4bhu92rcd13ifvqi70","pricing_plan_id":"cebpf4jnsgd1na2vs0mg"},{"bike_id":"0e87b6f0-700a-4559-a0c3-2aa7843d5f21","system_id":"levelo_inurba_marseille","lat":43.31454,"lon":5.37376,"is_reserved":false,"is_disabled":false,"rental_uris":{"android":"levelo://app?vid=0e87b6f0-700a-4559-a0c3-2aa7843d5f21","ios":"levelo://app?vid=0e87b6f0-700a-4559-a0c3-2aa7843d5f21"},"vehicle_type_id":"4","last_reported":1746447574,"current_range_meters":24000,"station_id":"","pricing_plan_id":"cebpf4jnsgd1na2vs0mg"},{"bike_id":"b4216838-733b-46cd-aae7-8693e0287a61","system_id":"levelo_inurba_marseille","lat":43.22926,"lon":5.35372,"is_reserved":false,"is_disabled":false,"rental_uris":{"android":"levelo://app?vid=b4216838-733b-46cd-aae7-8693e0287a61","ios":"levelo://app?vid=b4216838-733b-46cd-aae7-8693e0287a61"},"vehicle_type_id":"4","last_reported":1746447574,"current_range_meters":24000,"station_id":"cpo3532slgdg3j2ikp40","pricing_plan_id":"cebpf4jnsgd1na2vs0mg"},{"bike_id":"5cd47922-7310-4e67-b0ab-f90778ae941d","system_id":"levelo_inurba_marseille","lat":43.25864,"lon":5.39904,"is_reserved":false,"is_disabled":false,"rental_uris":{"android":"levelo://app?vid=5cd47922-7310-4e67-b0ab-f90778ae941d","ios":"levelo://app?vid=5cd47922-7310-4e67-b0ab-f90778ae941d"},"vehicle_type_id":"4","last_reported":1746447574,"current_range_meters":24000,"station_id":"ce4bhl92rcd13ifvqghg","pricing_plan_id":"cebpf4jnsgd1na2vs0mg"},{"bike_id":"7600c614-c391-4fcc-97ff-7d087673b410","system_id":"levelo_inurba_marseille","lat":43.2678,"lon":5.39421,"is_reserved":false,"is_disabled":false,"rental_uris":{"android":"levelo://app?vid=7600c614-c391-4fcc-97ff-7d087673b410","ios":"levelo://app?vid=7600c614-c391-4fcc-97ff-7d087673b410"},"vehicle_type_id":"4","last_reported":1746447574,"current_range_meters":23200,"station_id":"ce4bhh12rcd13ifvqfg0","pricing_plan_id":"cebpf4jnsgd1na2vs0mg"},{"bike_id":"2fa0b816-7ec6-4882-9376-089f3a9e406c","system_id":"levelo_inurba_marseille","lat":43.33755,"lon":5.37482,"is_reserved":false,"is_disabled":false,"rental_uris":{"android":"levelo://app?vid=2fa0b816-7ec6-4882-9376-089f3a9e406c","ios":"levelo://app?vid=2fa0b816-7ec6-4882-9376-089f3a9e406c"},