{"last_updated":1740150575,"ttl":60,"version":"2.2","data":{"bikes":[{"bike_id":"3b33821e-51d5-4874-adda-f71d00edef09","system_id":"levelo_inurba_marseille","lat":43.25493,"lon":5.37649,"is_reserved":false,"is_disabled":false,"rental_uris":{"android":"levelo://app?vid=3b33821e-51d5-4874-adda-f71d00edef09","ios":"levelo://app?vid=3b33821e-51d5-4874-adda-f71d00edef09"},"vehicle_type_id":"4","last_reported":1740150576,"current_range_meters":2800,"station_id":"ce4bhh12rcd13ifvqff0","pricing_plan_id":"cebpf4jnsgd1na2vs0mg"},{"bike_id":"710d0d40-0320-43ed-a5f3-519c5feac602","system_id":"levelo_inurba_marseille","lat":43.28668,"lon":5.38651,"is_reserved":false,"is_disabled":false,"rental_uris":{"android":"levelo://app?vid=710d0d40-0320-43ed-a5f3-519c5feac602","ios":"levelo://app?vid=710d0d40-0320-43ed-a5f3-519c5feac602"},"vehicle_type_id":"4","last_reported":1740150576,"current_range_meters":2800,"station_id":"ce4bh492rcd13ifvqdug","pricing_plan_id":"cebpf4jnsgd1na2vs0mg"},{"bike_id":"2eb5a37f-ee39-4965-acff-82b82601a564","system_id":"levelo_inurba_marseille","lat":43.23068,"lon":5.35478,"is_reserved":false,"is_disabled":false,"rental_uris":{"android":"levelo://app?vid=2eb5a37f-ee39-4965-acff-82b82601a564","ios":"levelo://app?vid=2eb5a37f-ee39-4965-acff-82b82601a564"},"vehicle_type_id":"4","last_reported":1740150576,"current_range_meters":2800,"station_id":"cpo3342slgdg3j2ifvpg","pricing_plan_id":"cebpf4jnsgd1na2vs0mg"},{"bike_id":"913172fd-b585-46d4-85c2-296891055781","system_id":"levelo_inurba_marseille","lat":43.28675,"lon":5.38659,"is_reserved":false,"is_disabled":false,"rental_uris":{"android":"levelo://app?vid=913172fd-b585-46d4-85c2-296891055781","ios":"levelo://app?vid=913172fd-b585-46d4-85c2-296891055781"},"vehicle_type_id":"4","last_reported":1740150576,"current_range_meters":3200,"station_id":"ce4bh492rcd13ifvqdug","pricing_plan_id":"cebpf4jnsgd1na2vs0mg"},{"bike_id":"f661ef40-e370-4e30-97d2-c82af19d3ae3","system_id":"levelo_inurba_marseille","lat":43.2398,"lon":5.36615,"is_reserved":false,"is_disabled":false,"rental_uris":{"android":"levelo://app?vid=f661ef40-e370-4e30-97d2-c82af19d3ae3","ios":"levelo://app?vid=f661ef40-e370-4e30-97d2-c82af19d3ae3"},"vehicle_type_id":"4","last_reported":1740150576,"current_range_meters":3600,"station_id":"ce4bhi12rcd13ifvqfp0","pricing_plan_id":"cebpf4jnsgd1na2vs0mg"},{"bike_id":"549e66e1-0629-4b47-8fcb-52b230450be6","system_id":"levelo_inurba_marseille","lat":43.250001,"lon":5.389241,"is_reserved":false,"is_disabled":false,"rental_uris":{"android":"levelo://app?vid=549e66e1-0629-4b47-8fcb-52b230450be6","ios":"levelo://app?vid=549e66e1-0629-4b47-8fcb-52b230450be6"},"vehicle_type_id":"4","last_reported":1740150576,"current_range_meters":3600,"station_id":"ce4bhgp2rcd13ifvqfd0","pricing_plan_id":"cebpf4jnsgd1na2vs0mg"},{"bike_id":"fdff73ef-1815-428c-bb4c-a7dfc0c11384","system_id":"levelo_inurba_marseille","lat":43.29094,"lon":5.38137,"is_reserved":false,"is_disabled":false,"rental_uris":{"android":"levelo://app?vid=fdff73ef-1815-428c-bb4c-a7dfc0c11384","ios":"levelo://app?vid=fdff73ef-1815-428c-bb4c-a7dfc0c11384"},"vehicle_type_id":"4","last_reported":1740150576,"current_range_meters":3600,"station_id":"ce4bh512rcd13ifvqe2g","pricing_plan_id":"cebpf4jnsgd1na2vs0mg"},{"bike_id":"fd0e1041-d211-4549-ba6f-50670e3773c5","system_id":"levelo_inurba_marseille","lat":43.25083,"lon":5.39519,"is_reserved":false,"is_disabled":false,"rental_uris":{"android":"levelo://app?vid=fd0e1041-d211-4549-ba6f-50670e3773c5","ios":"levelo://app?vid=fd0e1041-d211-4549-ba6f-50670e3773c5"},"vehicle_type_id":"4","last_reported":1740150576,"current_range_meters":4000,"station_id":"ce4bhm12rcd13ifvqgkg","pricing_plan_id":"cebpf4jnsgd1na2vs0mg"},{"bike_id":"c965fffa-1db3-40f3-9a7c-0dadf26e952b","system_id":"levelo_inurba_marseille","lat":43.28615,"lon":5.35106,"is_reserved":false,"is_disabled":false,"rental_uris":{"android":"levelo://app?vid=c965fffa-1db3-40f3-9a7c-0dadf26e952b","ios":"levelo://app?vid=c965fffa-1db3-40f3-9a7c-0dadf26e952b"},"vehicle_type_id":"4","last_reported":1740150576,"current_range_meters":4000,"station_id":"ce4bhch2rcd13ifvqeug","pricing_plan_id":"cebpf4jnsgd1na2vs0mg"},{"bike_id":"a91e9203-e2c4-41a8-ae25-a131bf8da8e9","system_id":"levelo_inurba_marseille","lat":43.28251,"lon":5.34893,"is_reserved":false,"is_disabled":false,"rental_uris":{"android":"levelo://app?vid=a91e9203-e2c4-41a8-ae25-a131bf8da8e9","ios":"levelo://app?vid=a91e9203-e2c4-41a8-ae25-a131bf8da8e9"},"vehicle_type_id":"4","last_reported":1740150576,"current_range_meters":4000,"station_id":"","pricing_plan_id":"cebpf4jnsgd1na2vs0mg"},{"bike_id":"fdaa8c84-d391-4c0b-b034-04caa42ced7b","system_id":"levelo_inurba_marseille","lat":43.28494,"lon":5.38585,"is_reserved":false,"is_disabled":false,"rental_uris":{"android":"levelo://app?vid=fdaa8c84-d391-4c0b-b034-04caa42ced7b","ios":"levelo://app?vid=fdaa8c84-d391-4c0b-b034-04caa42ced7b"},"vehicle_type_id":"4","last_reported":1740150576,"current_range_meters":4000,"station_id":"ce4bh8p2rcd13ifvqeb0","pricing_plan_id":"cebpf4jnsgd1na2vs0mg"},{"bike_id":"453e4f84-3221-42cb-bccd-653c9d97afa7","system_id":"levelo_inurba_marseille","lat":43.29933,"lon":5.36551,"is_reserved":false,"is_disabled":false,"rental_uris":{"android":"levelo://app?vid=453e4f84-3221-42cb-bccd-653c9d97afa7","ios":"levelo://app?vid=453e4f84-3221-42cb-bccd-653c9d97afa7"},"vehicle_type_id":"4","last_reported":1740150576,"current_range_meters":4400,"station_id":"ce4bgm92rcd13ifvqbr0","pricing_plan_id":"cebpf4jnsgd1na2vs0mg"},{"bike_id":"ac88821a-f213-422c-ae81-0624c047fe16","system_id":"levelo_inurba_marseille","lat":43.27209,"lon":5.39175,"is_reserved":false,"is_disabled":false,"rental_uris":{"android":"levelo://app?vid=ac88821a-f213-422c-ae81-0624c047fe16","ios":"levelo://app?vid=ac88821a-f213-422c-ae81-0624c047fe16"},"vehicle_type_id":"4","last_reported":1740150576,"current_range_meters":4400,"station_id":"ce4bhhp2rcd13ifvqfm0","pricing_plan_id":"cebpf4jnsgd1na2vs0mg"},{"bike_id":"570ca427-4ebb-4e6e-ac7c-bf43daf98d1b","system_id":"levelo_inurba_marseille","lat":43.25936,"lon":5.40903,"is_reserved":false,"is_disabled":false,"rental_uris":{"android":"levelo://app?vid=570ca427-4ebb-4e6e-ac7c-bf43daf98d1b","ios":"levelo://app?vid=570ca427-4ebb-4e6e-ac7c-bf43daf98d1b"},"vehicle_type_id":"4","last_reported":1740150576,"current_range_meters":4800,"station_id":"ce4bhm92rcd13ifvqglg","pricing_plan_id":"cebpf4jnsgd1na2vs0mg"},{"bike_id":"0f125d8f-ac1c-484f-a1e8-c8e31169d9fc","system_id":"levelo_inurba_marseille","lat":43.27945,"lon":5.41047,"is_reserved":false,"is_disabled":false,"rental_uris":{"android":"levelo://app?vid=0f125d8f-ac1c-484f-a1e8-c8e31169d9fc","ios":"levelo://app?vid=0f125d8f-ac1c-484f-a1e8-c8e31169d9fc"},"vehicle_type_id":"4","last_reported":1740150576,"current_range_meters":4800,"station_id":"ce4bhnp2rcd13ifvqh0g","pricing_plan_id":"cebpf4jnsgd1na2vs0mg"},{"bike_id":"789fdf0c-3889-4227-94d6-76c57bf373a6","system_id":"levelo_inurba_marseille","lat":43.22923,"lon":5.35372,"is_reserved":false,"is_disabled":false,"rental_uris":{"android":"levelo://app?vid=789fdf0c-3889-4227-94d6-76c57bf373a6","ios":"levelo://app?vid=789fdf0c-3889-4227-94d6-76c57bf373a6"},"vehicle_type_id":"4","last_reported":1740150576,"current_range_meters":5600,"station_id":"cpo3532slgdg3j2ikp40","pricing_plan_id":"cebpf4jnsgd1na2vs0mg"},{"bike_id":"843c8993-eb89-48c0-bc46-978aec656ac8","system_id":"levelo_inurba_marseille","lat":43.27948,"lon":5.40863,"is_reserved":false,"is_disabled":false,"rental_uris":{"android":"levelo://app?vid=843c8993-eb89-48c0-bc46-978aec656ac8","ios":"levelo://app?vid=843c8993-eb89-48c0-bc46-978aec656ac8"},"vehicle_type_id":"4","last_reported":1740150576,"current_range_meters":5600,"station_id":"","pricing_plan_id":"cebpf4jnsgd1na2vs0mg"},{"bike_id":"a1320c2c-f188-4722-ad49-f63cc86fcbda","system_id":"levelo_inurba_marseille","lat":43.31326,"lon":5.36726,"is_reserved":false,"is_disabled":false,"rental_uris":{"android":"levelo://app?vid=a1320c2c-f188-4722-ad49-f63cc86fcbda","ios":"levelo://app?vid=a1320c2c-f188-4722-ad49-f63cc86fcbda"},"vehicle_type_id":"4","last_reported":1740150576,"current_range_meters":5600,"station_id":"ce4bgr92rcd13ifvqc6g","pricing_plan_id":"cebpf4jnsgd1na2vs0mg"},{"bike_id":"f2170d8e-b1ab-4bf9-8e90-2e9e50c2d33f","system_id":"levelo_inurba_marseille","lat":43.27377,"lon":5.36257,"is_reserved":false,"is_disabled":false,"rental_uris":{"android":"levelo://app?vid=f2170d8e-b1ab-4bf9-8e90-2e9e50c2d33f","ios":"levelo://app?vid=f2170d8e-b1ab-4bf9-8e90-2e9e50c2d33f"},"vehicle_type_id":"4","last_reported":1740150576,"current_range_meters":5600,"station_id":"ce4bhbh2rcd13ifvqeo0","pricing_plan_id":"cebpf4jnsgd1na2vs0mg"},{"bike_id":"4954a2d1-5380-4aad-8d5c-6796e7c03680","system_id":"levelo_inurba_marseille","lat":43.2861,"lon":5.37064,"is_reserved":false,"is_disabled":false,"rental_uris":{"android":"levelo://app?vid=4954a2d1-5380-4aad-8d5c-6796e7c03680","ios":"levelo://app?vid=4954a2d1-5380-4aad-8d5c-6796e7c03680"},"vehicle_type_id":"4","last_reported":1740150576,"current_range_meters":4800,"station_id":"ce4bht12rcd13ifvqi60","pricing_plan_id":"cebpf4jnsgd1na2vs0mg"},{"bike_id":"ca726b34-b6ae-47d7-85a7-2d80b8b50572","system_id":"levelo_inurba_marseille","lat":43.23194,"lon":5.35545,"is_reserved":false,"is_disabled":false,"rental_uris":{"android":"levelo://app?vid=ca726b34-b6ae-47d7-85a7-2d80b8b50572","ios":"levelo://app?vid=ca726b34-b6ae-47d7-85a7-2d80b8b50572"},"vehicle_type_id":"4","last_reported":1740150576,"current_range_meters":5600,"station_id":"ce4bhu92rcd13ifvqi70","pricing_plan_id":"cebpf4jnsgd1na2vs0mg"},{"bike_id":"0555ed46-e79c-4f7f-991f-9acdd94e87da","system_id":"levelo_inurba_marseille","lat":43.26805,"lon":5.40257,"is_reserved":false,"is_disabled":false,"rental_uris":{"android":"levelo://app?vid=0555ed46-e79c-4f7f-991f-9acdd94e87da","ios":"levelo://app?vid=0555ed46-e79c-4f7f-991f-9acdd94e87da"},"vehicle_type_id":"4","last_reported":1740150576,"current_range_meters":6000,"station_id":"ce501612rcd8frsf0b60","pricing_plan_id":"cebpf4jnsgd1na2vs0mg"},{"bike_id":"21e52976-3285-484e-95ef-c64906677541","system_id":"levelo_inurba_marseille","lat":43.25492,"lon":5.3765,"is_reserved":false,"is_disabled":false,"rental_uris":{"android":"levelo://app?vid=21e52976-3285-484e-95ef-c64906677541","ios":"levelo://app?vid=21e52976-3285-484e-95ef-c64906677541"},"vehicle_type_id":"4","last_reported":1740150576,"current_range_meters":6000,"station_id":"ce4bhh12rcd13ifvqff0","pricing_plan_id":"cebpf4jnsgd1na2vs0mg"},{"bike_id":"f9fb781c-093a-4626-81d7-b95df7303bb1","system_id":"levelo_inurba_marseille","lat":43.24812,"lon":5.37462,"is_reserved":false,"is_disabled":false,"rental_uris":{"android":"levelo://app?vid=f9fb781c-093a-4626-81d7-b95df7303bb1","ios":"levelo://app?vid=f9fb781c-093a-4626-81d7-b95df7303bb1"},"vehicle_type_id":"4","last_reported":1740150576,"current_range_meters":6000,"station_id":"ce4bhgh2rcd13ifvqfb0","pricing_plan_id":"cebpf4jnsgd1na2vs0mg"},{"bike_id":"b1c3e94a-dfb3-4d8e-b2fe-12e0a5b827fa","system_id":"levelo_inurba_marseille","lat":43.27366,"lon":5.36265,"is_reserved":false,"is_disabled":false,"rental_uris":{"android":"levelo://app?vid=b1c3e94a-dfb3-4d8e-b2fe-12e0a5b827fa","ios":"levelo://app?vid=b1c3e94a-dfb3-4d8e-b2fe-12e0a5b827fa"},"vehicle_type_id":"4","last_reported":1740150576,"current_range_meters":6000,"station_id":"ce4bhbh2rcd13ifvqeo0","pricing_plan_id":"cebpf4jnsgd1na2vs0mg"},{"bike_id":"f14c20be-ecd7-4925-adc9-d57c2930e21d","system_id":"levelo_inurba_marseille","lat":43.26573,"lon":5.39011,"is_reserved":false,"is_disabled":false,"rental_uris":{"android":"levelo://app?vid=f14c20be-ecd7-4925-adc9-d57c2930e21d","ios":"levelo://app?vid=f14c20be-ecd7-4925-adc9-d57c2930e21d"},"vehicle_type_id":"4","last_reported":1740150576,"current_range_meters":6000,"station_id":"ce4bhe12rcd13ifvqf30","pricing_plan_id":"cebpf4jnsgd1na2vs0mg"},{"bike_id":"5516853e-78cf-4be2-9f26-f0cbb736d267","system_id":"levelo_inurba_marseille","lat":43.29895,"lon":5.43654,"is_reserved":false,"is_disabled":false,"rental_uris":{"android":"levelo://app?vid=5516853e-78cf-4be2-9f26-f0cbb736d267","ios":"levelo://app?vid=5516853e-78cf-4be2-9f26-f0cbb736d267"},"vehicle_type_id":"4","last_reported":1740150576,"current_range_meters":6000,"station_id":"ce4bhpp2rcd13ifvqhfg","pricing_plan_id":"cebpf4jnsgd1na2vs0mg"},{"bike_id":"56146f8a-5f06-44b1-9740-6d58b3b71940","system_id":"levelo_inurba_marseille","lat":43.2658,"lon":5.3906,"is_reserved":false,"is_disabled":false,"rental_uris":{"android":"levelo://app?vid=56146f8a-5f06-44b1-9740-6d58b3b71940","ios":"levelo://app?vid=56146f8a-5f06-44b1-9740-6d58b3b71940"},"vehicle_type_id":"4","last_reported":1740150576,"current_range_meters":6000,"station_id":"","pricing_plan_id":"cebpf4jnsgd1na2vs0mg"},{"bike_id":"0103d481-45cf-46ab-b256-6091acc801f7","system_id":"levelo_inurba_marseille","lat":43.27915,"lon":5.39575,"is_reserved":false,"is_disabled":false,"rental_uris":{"android":"levelo://app?vid=0103d481-45cf-46ab-b256-6091acc801f7","ios":"levelo://app?vid=0103d481-45cf-46ab-b256-6091acc801f7"},"vehicle_type_id":"4","last_reported":1740150576,"current_range_meters":6000,"station_id":"ce4bhf92rcd13ifvqf40","pricing_plan_id":"cebpf4jnsgd1na2vs0mg"},{"bike_id":"e07d7381-9639-4623-a587-7fbd840bfc02","system_id":"levelo_inurba_marseille","lat":43.23185,"lon":5.35551,"is_reserved":false,"is_disabled":false,"rental_uris":{"android":"levelo://app?vid=e07d7381-9639-4623-a587-7fbd840bfc02","ios":"levelo://app?vid=e07d7381-9639-4623-a587-7fbd840bfc02"},"vehicle_type_id":"4","last_reported":1740150576,"current_range_meters":6400,"station_id":"","pricing_plan_id":"cebpf4jnsgd1na2vs0mg"},{"bike_id":"77ff63e8-b5ae-48d0-8725-3fc2e7c2e786","system_id":"levelo_inurba_marseille","lat":43.32106,"lon":5.36782,"is_reserved":false,"is_disabled":false,"rental_uris":{"android":"levelo://app?vid=77ff63e8-b5ae-48d0-8725-3fc2e7c2e786","ios":"levelo://app?vid=77ff63e8-b5ae-48d0-8725-3fc2e7c2e786"},"vehicle_type_id":"4","last_reported":1740150576,"current_range_meters":6400,"station_id":"ce4bhrh2rcd13ifvqhug","pricing_plan_id":"cebpf4jnsgd1na2vs0mg"},{"bike_id":"44d582f1-b00c-493c-913b-5ff4ff2a901f","system_id":"levelo_inurba_marseille","lat":43.24804,"lon":5.37452,"is_reserved":false,"is_disabled":false,"rental_uris":{"android":"levelo://app?vid=44d582f1-b00c-493c-913b-5ff4ff2a901f","ios":"levelo://app?vid=44d582f1-b00c-493c-913b-5ff4ff2a901f"},"vehicle_type_id":"4","last_reported":1740150576,"current_range_meters":6400,"station_id":"ce4bhgh2rcd13ifvqfb0","pricing_plan_id":"cebpf4jnsgd1na2vs0mg"},{"bike_id":"d4ac9080-89f9-4d04-ab03-22b0f0a4e5be","system_id":"levelo_inurba_marseille","lat":43.23204,"lon":5.3555,"is_reserved":false,"is_disabled":false,"rental_uris":{"android":"levelo://app?vid=d4ac9080-89f9-4d04-ab03-22b0f0a4e5be","ios":"levelo://app?vid=d4ac9080-89f9-4d04-ab03-22b0f0a4e5be"},"vehicle_type_id":"4","last_reported":1740150576,"current_range_meters":6400,"station_id":"ce4bhu92rcd13ifvqi70","pricing_plan_id":"cebpf4jnsgd1na2vs0mg"},{"bike_id":"022e93f2-12d7-4213-b8ad-98afa8da1efe","system_id":"levelo_inurba_marseille","lat":43.26793,"lon":5.40241,"is_reserved":false,"is_disabled":false,"rental_uris":{"android":"levelo://app?vid=022e93f2-12d7-4213-b8ad-98afa8da1efe","ios":"levelo://app?vid=022e93f2-12d7-4213-b8ad-98afa8da1efe"},"vehicle_type_id":"4","last_reported":1740150576,"current_range_meters":6400,"station_id":"ce501612rcd8frsf0b60","pricing_plan_id":"cebpf4jnsgd1na2vs0mg"},{"bike_id":"876d772c-14da-4159-99d2-b9a41e1aba61","system_id":"levelo_inurba_marseille","lat":43.29027,"lon":5.39974,"is_reserved":false,"is_disabled":false,"rental_uris":{"android":"levelo://app?vid=876d772c-14da-4159-99d2-b9a41e1aba61","ios":"levelo://app?vid=876d772c-14da-4159-99d2-b9a41e1aba61"},"vehicle_type_id":"4","last_reported":1740150576,"current_range_meters":4800,"station_id":"ce4bh392rcd13ifvqdm0","pricing_plan_id":"cebpf4jnsgd1na2vs0mg"},{"bike_id":"21d22a66-8579-4cf3-923f-22cf3cc043bf","system_id":"levelo_inurba_marseille","lat":43.2319,"lon":5.3998,"is_reserved":false,"is_disabled":false,"rental_uris":{"android":"levelo://app?vid=21d22a66-8579-4cf3-923f-22cf3cc043bf","ios":"levelo://app?vid=21d22a66-8579-4cf3-923f-22cf3cc043bf"},"vehicle_type_id":"4","last_reported":1740150576,"current_range_meters":6800,"station_id":"ce4bhn12rcd13ifvqgqg","pricing_plan_id":"cebpf4jnsgd1na2vs0mg"},{"bike_id":"cb3979f6-30da-48e7-8720-7815c3b8a77d","system_id":"levelo_inurba_marseille","lat":43.32345,"lon":5.38906,"is_reserved":false,"is_disabled":false,"rental_uris":{"android":"levelo://app?vid=cb3979f6-30da-48e7-8720-7815c3b8a77d","ios":"levelo://app?vid=cb3979f6-30da-48e7-8720-7815c3b8a77d"},"vehicle_type_id":"4","last_reported":1740150576,"current_range_meters":6800,"station_id":"ce4bhh92rcd13ifvqfi0","pricing_plan_id":"cebpf4jnsgd1na2vs0mg"},{"bike_id":"7d932747-8fa4-4a65-94af-ec8450f17c5c","system_id":"levelo_inurba_marseille","lat":43.27063,"lon":5.40243,"is_reserved":false,"is_disabled":false,"rental_uris":{"android":"levelo://app?vid=7d932747-8fa4-4a65-94af-ec8450f17c5c","ios":"levelo://app?vid=7d932747-8fa4-4a65-94af-ec8450f17c5c"},"vehicle_type_id":"4","last_reported":1740150576,"current_range_meters":6800,"station_id":"ce4bhk92rcd13ifvqgc0","pricing_plan_id":"cebpf4jnsgd1na2vs0mg"},{"bike_id":"563d52de-e585-4e7f-8850-0e01e570b0ca","system_id":"levelo_inurba_marseille","lat":43.30455,"lon":5.37905,"is_reserved":false,"is_disabled":false,"rental_uris":{"android":"levelo://app?vid=563d52de-e585-4e7f-8850-0e01e570b0ca","ios":"levelo://app?vid=563d52de-e585-4e7f-8850-0e01e570b0ca"},"vehicle_type_id":"4","last_reported":1740150576,"current_range_meters":6800,"station_id":"ce4bgup2rcd13ifvqcn0","pricing_plan_id":"cebpf4jnsgd1na2vs0mg"},{"bike_id":"33aa38c3-3213-4d2a-9483-479c485b808e","system_id":"levelo_inurba_marseille","lat":43.29712,"lon":5.377,"is_reserved":false,"is_disabled":false,"rental_uris":{"android":"levelo://app?vid=33aa38c3-3213-4d2a-9483-479c485b808e","ios":"levelo://app?vid=33aa38c3-3213-4d2a-9483-479c485b808e"},"vehicle_type_id":"4","last_reported":1740150576,"current_range_meters":7200,"station_id":"ce4bgkh2rcd13ifvqbl0","pricing_plan_id":"cebpf4jnsgd1na2vs0mg"},{"bike_id":"0ac70202-b419-4153-83a5-00961eb840f0","system_id":"levelo_inurba_marseille","lat":43.28707,"lon":5.39987,"is_reserved":false,"is_disabled":false,"rental_uris":{"android":"levelo://app?vid=0ac70202-b419-4153-83a5-00961eb840f0","ios":"levelo://app?vid=0ac70202-b419-4153-83a5-00961eb840f0"},"vehicle_type_id":"4","last_reported":1740150576,"current_range_meters":7200,"station_id":"ce4bho92rcd13ifvqh3g","pricing_plan_id":"cebpf4jnsgd1na2vs0mg"},{"bike_id":"e19fad51-e38f-4372-bfb7-f9c0a03c399f","system_id":"levelo_inurba_marseille","lat":43.23213,"lon":5.35544,"is_reserved":false,"is_disabled":false,"rental_uris":{"android":"levelo://app?vid=e19fad51-e38f-4372-bfb7-f9c0a03c399f","ios":"levelo://app?vid=e19fad51-e38f-4372-bfb7-f9c0a03c399f"},"vehicle_type_id":"4","last_reported":1740150576,"current_range_meters":7200,"station_id":"ce4bhu92rcd13ifvqi70","pricing_plan_id":"cebpf4jnsgd1na2vs0mg"},{"bike_id":"d4d7201e-8a9f-4276-80c3-a187d6287e7b","system_id":"levelo_inurba_marseille","lat":43.31069,"lon":5.38366,"is_reserved":false,"is_disabled":false,"rental_uris":{"android":"levelo://app?vid=d4d7201e-8a9f-4276-80c3-a187d6287e7b","ios":"levelo://app?vid=d4d7201e-8a9f-4276-80c3-a187d6287e7b"},"vehicle_type_id":"4","last_reported":1740150576,"current_range_meters":8000,"station_id":"ce4bgv92rcd13ifvqcr0","pricing_plan_id":"cebpf4jnsgd1na2vs0mg"},{"bike_id":"948ca15e-dd0e-4b24-9dae-3803d237a65d","system_id":"levelo_inurba_marseille","lat":43.23951,"lon":5.36648,"is_reserved":false,"is_disabled":false,"rental_uris":{"android":"levelo://app?vid=948ca15e-dd0e-4b24-9dae-3803d237a65d","ios":"levelo://app?vid=948ca15e-dd0e-4b24-9dae-3803d237a65d"},"vehicle_type_id":"4","last_reported":1740150576,"current_range_meters":8000,"station_id":"ce4bhi12rcd13ifvqfp0","pricing_plan_id":"cebpf4jnsgd1na2vs0mg"},{"bike_id":"4c87352b-e4ee-4aa9-b24f-9d6ccdea13e6","system_id":"levelo_inurba_marseille","lat":43.25082,"lon":5.39505,"is_reserved":false,"is_disabled":false,"rental_uris":{"android":"levelo://app?vid=4c87352b-e4ee-4aa9-b24f-9d6ccdea13e6","ios":"levelo://app?vid=4c87352b-e4ee-4aa9-b24f-9d6ccdea13e6"},"vehicle_type_id":"4","last_reported":1740150576,"current_range_meters":8000,"station_id":"ce4bhm12rcd13ifvqgkg","pricing_plan_id":"cebpf4jnsgd1na2vs0mg"},{"bike_id":"45528c36-0352-462f-a5df-dcf6e64ae67e","system_id":"levelo_inurba_marseille","lat":43.27375,"lon":5.36253,"is_reserved":false,"is_disabled":false,"rental_uris":{"android":"levelo://app?vid=45528c36-0352-462f-a5df-dcf6e64ae67e","ios":"levelo://app?vid=45528c36-0352-462f-a5df-dcf6e64ae67e"},"vehicle_type_id":"4","last_reported":1740150576,"current_range_meters":8000,"station_id":"ce4bhbh2rcd13ifvqeo0","pricing_plan_id":"cebpf4jnsgd1na2vs0mg"},{"bike_id":"87590419-9431-46cd-a562-7648976d855a","system_id":"levelo_inurba_marseille","lat":43.2791,"lon":5.41206,"is_reserved":false,"is_disabled":false,"rental_uris":{"android":"levelo://app?vid=87590419-9431-46cd-a562-7648976d855a","ios":"levelo://app?vid=87590419-9431-46cd-a562-7648976d855a"},"vehicle_type_id":"4","last_reported":1740150576,"current_range_meters":8000,"station_id":"","pricing_plan_id":"cebpf4jnsgd1na2vs0mg"},{"bike_id":"02fb5cd5-f230-4c10-971b-7a92b718a1af","system_id":"levelo_inurba_marseille","lat":43.292795,"lon":5.401162,"is_reserved":false,"is_disabled":false,"rental_uris":{"android":"levelo://app?vid=02fb5cd5-f230-4c10-971b-7a92b718a1af","ios":"levelo://app?vid=02fb5cd5-f230-4c10-971b-7a92b718a1af"},"vehicle_type_id":"4","last_reported":1740150576,"current_range_meters":8000,"station_id":"ce4bho92rcd13ifvqh3g","pricing_plan_id":"cebpf4jnsgd1na2vs0mg"},{"bike_id":"9fbf478e-59a5-411e-a379-f517842dee7d","system_id":"levelo_inurba_marseille","lat":43.31072,"lon":5.38355,"is_reserved":false,"is_disabled":false,"rental_uris":{"android":"levelo://app?vid=9fbf478e-59a5-411e-a379-f517842dee7d","ios":"levelo://app?vid=9fbf478e-59a5-411e-a379-f517842dee7d"},"vehicle_type_id":"4","last_reported":1740150576,"current_range_meters":8400,"station_id":"ce4bgv92rcd13ifvqcr0","pricing_plan_id":"cebpf4jnsgd1na2vs0mg"},{"bike_id":"6b6e1059-5264-45b9-9cb9-d24cf5205f2a","system_id":"levelo_inurba_marseille","lat":43.23971,"lon":5.36647,"is_reserved":false,"is_disabled":true,"rental_uris":{"android":"levelo://app?vid=6b6e1059-5264-45b9-9cb9-d24cf5205f2a","ios":"levelo://app?vid=6b6e1059-5264-45b9-9cb9-d24cf5205f2a"},"vehicle_type_id":"4","last_reported":1740150576,"current_range_meters":8400,"station_id":"","pricing_plan_id":"cebpf4jnsgd1na2vs0mg"},{"bike_id":"fc0349de-a96b-4e9e-88b6-f49bf89d84ae","system_id":"levelo_inurba_marseille","lat":43.28001,"lon":5.40014,"is_reserved":false,"is_disabled":false,"rental_uris":{"android":"levelo://app?vid=fc0349de-a96b-4e9e-88b6-f49bf89d84ae","ios":"levelo://app?vid=fc0349de-a96b-4e9e-88b6-f49bf89d84ae"},"vehicle_type_id":"4","last_reported":1740150576,"current_range_meters":8400,"station_id":"ce4bho92rcd13ifvqh4g","pricing_plan_id":"cebpf4jnsgd1na2vs0mg"},{"bike_id":"954a7086-ccc9-41c5-a809-228e82a24fb2","system_id":"levelo_inurba_marseille","lat":43.28707,"lon":5.39987,"is_reserved":false,"is_disabled":false,"rental_uris":{"android":"levelo://app?vid=954a7086-ccc9-41c5-a809-228e82a24fb2","ios":"levelo://app?vid=954a7086-ccc9-41c5-a809-228e82a24fb2"},"vehicle_type_id":"4","last_reported":1740150576,"current_range_meters":8400,"station_id":"ce4bho92rcd13ifvqh3g","pricing_plan_id":"cebpf4jnsgd1na2vs0mg"},{"bike_id":"1b6e1974-45fd-429d-9858-1fda295ea3fb","system_id":"levelo_inurba_marseille","lat":43.25821,"lon":5.39435,"is_reserved":false,"is_disabled":false,"rental_uris":{"android":"levelo://app?vid=1b6e1974-45fd-429d-9858-1fda295ea3fb","ios":"levelo://app?vid=1b6e1974-45fd-429d-9858-1fda295ea3fb"},"vehicle_type_id":"4","last_reported":1740150576,"current_range_meters":8400,"station_id":"ce4bhip2rcd13ifvqft0","pricing_plan_id":"cebpf4jnsgd1na2vs0mg"},{"bike_id":"a7b44cc0-d040-4afa-b70d-8b32c7b16c83","system_id":"levelo_inurba_marseille","lat":43.29195,"lon":5.35808,"is_reserved":false,"is_disabled":false,"rental_uris":{"android":"levelo://app?vid=a7b44cc0-d040-4afa-b70d-8b32c7b16c83","ios":"levelo://app?vid=a7b44cc0-d040-4afa-b70d-8b32c7b16c83"},"vehicle_type_id":"4","last_reported":1740150576,"current_range_meters":8400,"station_id":"ce4bhb12rcd13ifvqel0","pricing_plan_id":"cebpf4jnsgd1na2vs0mg"},{"bike_id":"ee54dd5e-8598-49e5-9c01-ca814d896592","system_id":"levelo_inurba_marseille","lat":43.28457,"lon":5.35893,"is_reserved":false,"is_disabled":false,"rental_uris":{"android":"levelo://app?vid=ee54dd5e-8598-49e5-9c01-ca814d896592","ios":"levelo://app?vid=ee54dd5e-8598-49e5-9c01-ca814d896592"},"vehicle_type_id":"4","last_reported":1740150576,"current_range_meters":8000,"station_id":"ce4bhah2rcd13ifvqei0","pricing_plan_id":"cebpf4jnsgd1na2vs0mg"},{"bike_id":"ef6caad2-6794-4d8f-abb8-f24da7bdf096","system_id":"levelo_inurba_marseille","lat":43.28518,"lon":5.38591,"is_reserved":false,"is_disabled":false,"rental_uris":{"android":"levelo://app?vid=ef6caad2-6794-4d8f-abb8-f24da7bdf096","ios":"levelo://app?vid=ef6caad2-6794-4d8f-abb8-f24da7bdf096"},"vehicle_type_id":"4","last_reported":1740150576,"current_range_meters":8400,"station_id":"ce4bh8p2rcd13ifvqeb0","pricing_plan_id":"cebpf4jnsgd1na2vs0mg"},{"bike_id":"4fa8bf46-90e7-42f5-bd69-8132a897f84f","system_id":"levelo_inurba_marseille","lat":43.31431,"lon":5.39316,"is_reserved":false,"is_disabled":false,"rental_uris":{"android":"levelo://app?vid=4fa8bf46-90e7-42f5-bd69-8132a897f84f","ios":"levelo://app?vid=4fa8bf46-90e7-42f5-bd69-8132a897f84f"},"vehicle_type_id":"4","last_reported":1740150576,"current_range_meters":8800,"station_id":"","pricing_plan_id":"cebpf4jnsgd1na2vs0mg"},{"bike_id":"4b36c34a-44d7-4576-a586-133eb49e8bb4","system_id":"levelo_inurba_marseille","lat":43.29733,"lon":5.37692,"is_reserved":false,"is_disabled":false,"rental_uris":{"android":"levelo://app?vid=4b36c34a-44d7-4576-a586-133eb49e8bb4","ios":"levelo://app?vid=4b36c34a-44d7-4576-a586-133eb49e8bb4"},"vehicle_type_id":"4","last_reported":1740150576,"current_range_meters":8800,"station_id":"ce4bgkh2rcd13ifvqbl0","pricing_plan_id":"cebpf4jnsgd1na2vs0mg"},{"bike_id":"c2c9e96d-fb24-4f9e-9cc1-5c25f812e5fe","system_id":"levelo_inurba_marseille","lat":43.26201,"lon":5.37452,"is_reserved":false,"is_disabled":false,"rental_uris":{"android":"levelo://app?vid=c2c9e96d-fb24-4f9e-9cc1-5c25f812e5fe","ios":"levelo://app?vid=c2c9e96d-fb24-4f9e-9cc1-5c25f812e5fe"},"vehicle_type_id":"4","last_reported":1740150576,"current_range_meters":8800,"station_id":"ce4bhgp2rcd13ifvqfc0","pricing_plan_id":"cebpf4jnsgd1na2vs0mg"},{"bike_id":"38b074d6-295e-406b-b6f8-13f66b237242","system_id":"levelo_inurba_marseille","lat":43.30092,"lon":5.39066,"is_reserved":false,"is_disabled":false,"rental_uris":{"android":"levelo://app?vid=38b074d6-295e-406b-b6f8-13f66b237242","ios":"levelo://app?vid=38b074d6-295e-406b-b6f8-13f66b237242"},"vehicle_type_id":"4","last_reported":1740150576,"current_range_meters":8800,"station_id":"ce4bh192rcd13ifvqdb0","pricing_plan_id":"cebpf4jnsgd1na2vs0mg"},{"bike_id":"17c2b032-1916-44e7-bc0c-5a999576c7cf","system_id":"levelo_inurba_marseille","lat":43.30324,"lon":5.40442,"is_reserved":false,"is_disabled":false,"rental_uris":{"android":"levelo://app?vid=17c2b032-1916-44e7-bc0c-5a999576c7cf","ios":"levelo://app?vid=17c2b032-1916-44e7-bc0c-5a999576c7cf"},"vehicle_type_id":"4","last_reported":1740150576,"current_range_meters":8800,"station_id":"ce4bh012rcd13ifvqd10","pricing_plan_id":"cebpf4jnsgd1na2vs0mg"},{"bike_id":"153a40a0-7698-4631-988c-ae7506f2569f","system_id":"levelo_inurba_marseille","lat":43.28873,"lon":5.39313,"is_reserved":false,"is_disabled":false,"rental_uris":{"android":"levelo://app?vid=153a40a0-7698-4631-988c-ae7506f2569f","ios":"levelo://app?vid=153a40a0-7698-4631-988c-ae7506f2569f"},"vehicle_type_id":"4","last_reported":1740150576,"current_range_meters":8800,"station_id":"ce4bh2p2rcd13ifvqdi0","pricing_plan_id":"cebpf4jnsgd1na2vs0mg"},{"bike_id":"e82ad22b-6c93-4dda-a2e4-cf72e52f0fe0","system_id":"levelo_inurba_marseille","lat":43.29269,"lon":5.40122,"is_reserved":false,"is_disabled":false,"rental_uris":{"android":"levelo://app?vid=e82ad22b-6c93-4dda-a2e4-cf72e52f0fe0","ios":"levelo://app?vid=e82ad22b-6c93-4dda-a2e4-cf72e52f0fe0"},"vehicle_type_id":"4","last_reported":1740150576,"current_range_meters":9200,"station_id":"ce4bh312rcd13ifvqdk0","pricing_plan_id":"cebpf4jnsgd1na2vs0mg"},{"bike_id":"f75ece54-414d-4d3e-9198-c4a6ae7eb90d","system_id":"levelo_inurba_marseille","lat":43.24999,"lon":5.38913,"is_reserved":false,"is_disabled":false,"rental_uris":{"android":"levelo://app?vid=f75ece54-414d-4d3e-9198-c4a6ae7eb90d","ios":"levelo://app?vid=f75ece54-414d-4d3e-9198-c4a6ae7eb90d"},"vehicle_type_id":"4","last_reported":1740150576,"current_range_meters":9200,"station_id":"ce4bhgp2rcd13ifvqfd0","pricing_plan_id":"cebpf4jnsgd1na2vs0mg"},{"bike_id":"cdbd9e65-8835-4844-8de5-42847be4743e","system_id":"levelo_inurba_marseille","lat":43.29574,"lon":5.39971,"is_reserved":false,"is_disabled":false,"rental_uris":{"android":"levelo://app?vid=cdbd9e65-8835-4844-8de5-42847be4743e","ios":"levelo://app?vid=cdbd9e65-8835-4844-8de5-42847be4743e"},"vehicle_type_id":"4","last_reported":1740150576,"current_range_meters":9200,"station_id":"ce4bh312rcd13ifvqdj0","pricing_plan_id":"cebpf4jnsgd1na2vs0mg"},{"bike_id":"097686fc-b08a-40a8-aaaf-539cdfdb8c4a","system_id":"levelo_inurba_marseille","lat":43.278,"lon":5.4073,"is_reserved":false,"is_disabled":false,"rental_uris":{"android":"levelo://app?vid=097686fc-b08a-40a8-aaaf-539cdfdb8c4a","ios":"levelo://app?vid=097686fc-b08a-40a8-aaaf-539cdfdb8c4a"},"vehicle_type_id":"4","last_reported":1740150576,"current_range_meters":9200,"station_id":"ce4bhnh2rcd13ifvqgtg","pricing_plan_id":"cebpf4jnsgd1na2vs0mg"},{"bike_id":"d5e7b54b-e932-4925-b97c-360094f3da64","system_id":"levelo_inurba_marseille","lat":43.27386,"lon":5.3627,"is_reserved":false,"is_disabled":false,"rental_uris":{"android":"levelo://app?vid=d5e7b54b-e932-4925-b97c-360094f3da64","ios":"levelo://app?vid=d5e7b54b-e932-4925-b97c-360094f3da64"},"vehicle_type_id":"4","last_reported":1740150576,"current_range_meters":9200,"station_id":"","pricing_plan_id":"cebpf4jnsgd1na2vs0mg"},{"bike_id":"fe0e54bd-8fab-43da-8377-51778a49669c","system_id":"levelo_inurba_marseille","lat":43.2694,"lon":5.40261,"is_reserved":false,"is_disabled":false,"rental_uris":{"android":"levelo://app?vid=fe0e54bd-8fab-43da-8377-51778a49669c","ios":"levelo://app?vid=fe0e54bd-8fab-43da-8377-51778a49669c"},"vehicle_type_id":"4","last_reported":1740150576,"current_range_meters":9200,"station_id":"cjm6bp8fraef2m0cb0m0","pricing_plan_id":"cebpf4jnsgd1na2vs0mg"},{"bike_id":"72d88ed5-31c3-4182-b474-74e7faa44b4d","system_id":"levelo_inurba_marseille","lat":43.2867,"lon":5.38673,"is_reserved":false,"is_disabled":false,"rental_uris":{"android":"levelo://app?vid=72d88ed5-31c3-4182-b474-74e7faa44b4d","ios":"levelo://app?vid=72d88ed5-31c3-4182-b474-74e7faa44b4d"},"vehicle_type_id":"4","last_reported":1740150576,"current_range_meters":9200,"station_id":"ce4bh492rcd13ifvqdug","pricing_plan_id":"cebpf4jnsgd1na2vs0mg"},{"bike_id":"a86e422d-f312-4c17-8bac-2cbc75d96897","system_id":"levelo_inurba_marseille","lat":43.29919,"lon":5.37458,"is_reserved":false,"is_disabled":false,"rental_uris":{"android":"levelo://app?vid=a86e422d-f312-4c17-8bac-2cbc75d96897","ios":"levelo://app?vid=a86e422d-f312-4c17-8bac-2cbc75d96897"},"vehicle_type_id":"4","last_reported":1740150576,"current_range_meters":9200,"station_id":"ce4bgjh2rcd13ifvqbg0","pricing_plan_id":"cebpf4jnsgd1na2vs0mg"},{"bike_id":"e080c45a-a05d-4297-8995-86678422b056","system_id":"levelo_inurba_marseille","lat":43.3441,"lon":5.38084,"is_reserved":false,"is_disabled":false,"rental_uris":{"android":"levelo://app?vid=e080c45a-a05d-4297-8995-86678422b056","ios":"levelo://app?vid=e080c45a-a05d-4297-8995-86678422b056"},"vehicle_type_id":"4","last_reported":1740150576,"current_range_meters":9200,"station_id":"","pricing_plan_id":"cebpf4jnsgd1na2vs0mg"},{"bike_id":"9391bdb9-4fb3-4893-9a34-6c7d14456086","system_id":"levelo_inurba_marseille","lat":43.23149,"lon":5.43722,"is_reserved":false,"is_disabled":false,"rental_uris":{"android":"levelo://app?vid=9391bdb9-4fb3-4893-9a34-6c7d14456086","ios":"levelo://app?vid=9391bdb9-4fb3-4893-9a34-6c7d14456086"},"vehicle_type_id":"4","last_reported":1740150576,"current_range_meters":9600,"station_id":"ce4bhmp2rcd13ifvqgog","pricing_plan_id":"cebpf4jnsgd1na2vs0mg"},{"bike_id":"a7e57524-7096-4476-8d9d-8e8806b1c3d0","system_id":"levelo_inurba_marseille","lat":43.23147,"lon":5.43687,"is_reserved":false,"is_disabled":true,"rental_uris":{"android":"levelo://app?vid=a7e57524-7096-4476-8d9d-8e8806b1c3d0","ios":"levelo://app?vid=a7e57524-7096-4476-8d9d-8e8806b1c3d0"},"vehicle_type_id":"4","last_reported":1740150576,"current_range_meters":9600,"station_id":"ce4bhmp2rcd13ifvqgog","pricing_plan_id":"cebpf4jnsgd1na2vs0mg"},{"bike_id":"e93b71ae-eb32-4a1d-9682-e9edaba76334","system_id":"levelo_inurba_marseille","lat":43.2455,"lon":5.39532,"is_reserved":false,"is_disabled":false,"rental_uris":{"android":"levelo://app?vid=e93b71ae-eb32-4a1d-9682-e9edaba76334","ios":"levelo://app?vid=e93b71ae-eb32-4a1d-9682-e9edaba76334"},"vehicle_type_id":"4","last_reported":1740150576,"current_range_meters":9600,"station_id":"ce4bhlp2rcd13ifvqgjg","pricing_plan_id":"cebpf4jnsgd1na2vs0mg"},{"bike_id":"849d245a-be14-47ff-9742-f234bf067745","system_id":"levelo_inurba_marseille","lat":43.29751,"lon":5.3791,"is_reserved":false,"is_disabled":false,"rental_uris":{"android":"levelo://app?vid=849d245a-be14-47ff-9742-f234bf067745","ios":"levelo://app?vid=849d245a-be14-47ff-9742-f234bf067745"},"vehicle_type_id":"4","last_reported":1740150576,"current_range_meters":9600,"station_id":"ce4bguh2rcd13ifvqckg","pricing_plan_id":"cebpf4jnsgd1na2vs0mg"},{"bike_id":"9a8e6324-462d-476d-ae8b-81702c07646c","system_id":"levelo_inurba_marseille","lat":43.25725,"lon":5.41113,"is_reserved":false,"is_disabled":false,"rental_uris":{"android":"levelo://app?vid=9a8e6324-462d-476d-ae8b-81702c07646c","ios":"levelo://app?vid=9a8e6324-462d-476d-ae8b-81702c07646c"},"vehicle_type_id":"4","last_reported":1740150576,"current_range_meters":9600,"station_id":"ce4bhkp2rcd13ifvqgd0","pricing_plan_id":"cebpf4jnsgd1na2vs0mg"},{"bike_id":"a1728719-ef89-431e-9e56-e578be5d2b1d","system_id":"levelo_inurba_marseille","lat":43.26562,"lon":5.39017,"is_reserved":false,"is_disabled":false,"rental_uris":{"android":"levelo://app?vid=a1728719-ef89-431e-9e56-e578be5d2b1d","ios":"levelo://app?vid=a1728719-ef89-431e-9e56-e578be5d2b1d"},"vehicle_type_id":"4","last_reported":1740150576,"current_range_meters":10000,"station_id":"ce4bhe12rcd13ifvqf30","pricing_plan_id":"cebpf4jnsgd1na2vs0mg"},{"bike_id":"d0109f8e-c695-44b8-83b5-050518c2c6c9","system_id":"levelo_inurba_marseille","lat":43.23067,"lon":5.35487,"is_reserved":false,"is_disabled":false,"rental_uris":{"android":"levelo://app?vid=d0109f8e-c695-44b8-83b5-050518c2c6c9","ios":"levelo://app?vid=d0109f8e-c695-44b8-83b5-050518c2c6c9"},"vehicle_type_id":"4","last_reported":1740150576,"current_range_meters":10000,"station_id":"cpo3342slgdg3j2ifvpg","pricing_plan_id":"cebpf4jnsgd1na2vs0mg"},{"bike_id":"c5b688e1-8c47-446f-bf4c-fe0f7a0e2b63","system_id":"levelo_inurba_marseille","lat":43.29275,"lon":5.36853,"is_reserved":false,"is_disabled":false,"rental_uris":{"android":"levelo://app?vid=c5b688e1-8c47-446f-bf4c-fe0f7a0e2b63","ios":"levelo://app?vid=c5b688e1-8c47-446f-bf4c-fe0f7a0e2b63"},"vehicle_type_id":"4","last_reported":1740150576,"current_range_meters":10000,"station_id":"ce4bhbp2rcd13ifvqesg","pricing_plan_id":"cebpf4jnsgd1na2vs0mg"},{"bike_id":"e2605be6-729f-4263-a772-380592b3879d","system_id":"levelo_inurba_marseille","lat":43.30465,"lon":5.38075,"is_reserved":false,"is_disabled":false,"rental_uris":{"android":"levelo://app?vid=e2605be6-729f-4263-a772-380592b3879d","ios":"levelo://app?vid=e2605be6-729f-4263-a772-380592b3879d"},"vehicle_type_id":"4","last_reported":1740150576,"current_range_meters":10000,"station_id":"","pricing_plan_id":"cebpf4jnsgd1na2vs0mg"},{"bike_id":"3dff2f59-3348-4a4f-a96d-78b2c75f3d57","system_id":"levelo_inurba_marseille","lat":43.27495,"lon":5.42454,"is_reserved":false,"is_disabled":false,"rental_uris":{"android":"levelo://app?vid=3dff2f59-3348-4a4f-a96d-78b2c75f3d57","ios":"levelo://app?vid=3dff2f59-3348-4a4f-a96d-78b2c75f3d57"},"vehicle_type_id":"4","last_reported":1740150576,"current_range_meters":10800,"station_id":"ce4bhn92rcd13ifvqgrg","pricing_plan_id":"cebpf4jnsgd1na2vs0mg"},{"bike_id":"3e2ec6a4-e70f-413a-8754-7c202dcc0c44","system_id":"levelo_inurba_marseille","lat":43.29716,"lon":5.36611,"is_reserved":false,"is_disabled":false,"rental_uris":{"android":"levelo://app?vid=3e2ec6a4-e70f-413a-8754-7c202dcc0c44","ios":"levelo://app?vid=3e2ec6a4-e70f-413a-8754-7c202dcc0c44"},"vehicle_type_id":"4","last_reported":1740150576,"current_range_meters":10000,"station_id":"ce4bgn12rcd13ifvqbt0","pricing_plan_id":"cebpf4jnsgd1na2vs0mg"},{"bike_id":"5c24a800-a337-4061-8236-708b58a81e50","system_id":"levelo_inurba_marseille","lat":43.29905,"lon":5.4367,"is_reserved":false,"is_disabled":false,"rental_uris":{"android":"levelo://app?vid=5c24a800-a337-4061-8236-708b58a81e50","ios":"levelo://app?vid=5c24a800-a337-4061-8236-708b58a81e50"},"vehicle_type_id":"4","last_reported":1740150576,"current_range_meters":10800,"station_id":"ce4bhpp2rcd13ifvqhfg","pricing_plan_id":"cebpf4jnsgd1na2vs0mg"},{"bike_id":"ff0c6ebd-64cc-4996-922e-59fe8d7893f6","system_id":"levelo_inurba_marseille","lat":43.26194,"lon":5.3745,"is_reserved":false,"is_disabled":false,"rental_uris":{"android":"levelo://app?vid=ff0c6ebd-64cc-4996-922e-59fe8d7893f6","ios":"levelo://app?vid=ff0c6ebd-64cc-4996-922e-59fe8d7893f6"},"vehicle_type_id":"4","last_reported":1740150576,"current_range_meters":10800,"station_id":"ce4bhgp2rcd13ifvqfc0","pricing_plan_id":"cebpf4jnsgd1na2vs0mg"},{"bike_id":"eb7b08c4-f819-4c3a-9700-70a7fd5fc994","system_id":"levelo_inurba_marseille","lat":43.2621,"lon":5.37446,"is_reserved":false,"is_disabled":false,"rental_uris":{"android":"levelo://app?vid=eb7b08c4-f819-4c3a-9700-70a7fd5fc994","ios":"levelo://app?vid=eb7b08c4-f819-4c3a-9700-70a7fd5fc994"},"vehicle_type_id":"4","last_reported":1740150576,"current_range_meters":10800,"station_id":"ce4bhgp2rcd13ifvqfc0","pricing_plan_id":"cebpf4jnsgd1na2vs0mg"},{"bike_id":"d414c500-f227-4efb-aabd-f7246cca81bc","system_id":"levelo_inurba_marseille","lat":43.2306,"lon":5.35489,"is_reserved":false,"is_disabled":false,"rental_uris":{"android":"levelo://app?vid=d414c500-f227-4efb-aabd-f7246cca81bc","ios":"levelo://app?vid=d414c500-f227-4efb-aabd-f7246cca81bc"},"vehicle_type_id":"4","last_reported":1740150576,"current_range_meters":10800,"station_id":"cpo3342slgdg3j2ifvpg","pricing_plan_id":"cebpf4jnsgd1na2vs0mg"},{"bike_id":"7b64e26d-e0fa-4bba-a473-ead123733594","system_id":"levelo_inurba_marseille","lat":43.28481,"lon":5.38566,"is_reserved":false,"is_disabled":false,"rental_uris":{"android":"levelo://app?vid=7b64e26d-e0fa-4bba-a473-ead123733594","ios":"levelo://app?vid=7b64e26d-e0fa-4bba-a473-ead123733594"},"vehicle_type_id":"4","last_reported":1740150576,"current_range_meters":10800,"station_id":"ce4bh8p2rcd13ifvqeb0","pricing_plan_id":"cebpf4jnsgd1na2vs0mg"},{"bike_id":"f2cdf9b3-27db-4f2e-a44a-9891c95db95b","system_id":"levelo_inurba_marseille","lat":43.26052,"lon":5.39385,"is_reserved":false,"is_disabled":false,"rental_uris":{"android":"levelo://app?vid=f2cdf9b3-27db-4f2e-a44a-9891c95db95b","ios":"levelo://app?vid=f2cdf9b3-27db-4f2e-a44a-9891c95db95b"},"vehicle_type_id":"4","last_reported":1740150576,"current_range_meters":10800,"station_id":"ce4bhh92rcd13ifvqfj0","pricing_plan_id":"cebpf4jnsgd1na2vs0mg"},{"bike_id":"f3feea2e-5bf7-41f6-a6d2-c494ec11d6a2","system_id":"levelo_inurba_marseille","lat":43.230658,"lon":5.354909,"is_reserved":false,"is_disabled":false,"rental_uris":{"android":"levelo://app?vid=f3feea2e-5bf7-41f6-a6d2-c494ec11d6a2","ios":"levelo://app?vid=f3feea2e-5bf7-41f6-a6d2-c494ec11d6a2"},"vehicle_type_id":"4","last_reported":1740150576,"current_range_meters":10800,"station_id":"cpo3342slgdg3j2ifvpg","pricing_plan_id":"cebpf4jnsgd1na2vs0mg"},{"bike_id":"7938c225-9461-4ad4-b699-cc55e3577852","system_id":"levelo_inurba_marseille","lat":43.3148,"lon":5.37305,"is_reserved":false,"is_disabled":false,"rental_uris":{"android":"levelo://app?vid=7938c225-9461-4ad4-b699-cc55e3577852","ios":"levelo://app?vid=7938c225-9461-4ad4-b699-cc55e3577852"},"vehicle_type_id":"4","last_reported":1740150576,"current_range_meters":11200,"station_id":"ce4bgt12rcd13ifvqcd0","pricing_plan_id":"cebpf4jnsgd1na2vs0mg"},{"bike_id":"f1ff70c6-f12b-48c4-952a-c38b9e01f73b","system_id":"levelo_inurba_marseille","lat":43.27909,"lon":5.38012,"is_reserved":false,"is_disabled":false,"rental_uris":{"android":"levelo://app?vid=f1ff70c6-f12b-48c4-952a-c38b9e01f73b","ios":"levelo://app?vid=f1ff70c6-f12b-48c4-952a-c38b9e01f73b"},"vehicle_type_id":"4","last_reported":1740150576,"current_range_meters":11200,"station_id":"ce4bhf92rcd13ifvqf50","pricing_plan_id":"cebpf4jnsgd1na2vs0mg"},{"bike_id":"f00bdcb9-229b-405e-be07-e654c5accada","system_id":"levelo_inurba_marseille","lat":43.29622,"lon":5.37697,"is_reserved":false,"is_disabled":false,"rental_uris":{"android":"levelo://app?vid=f00bdcb9-229b-405e-be07-e654c5accada","ios":"levelo://app?vid=f00bdcb9-229b-405e-be07-e654c5accada"},"vehicle_type_id":"4","last_reported":1740150576,"current_range_meters":11600,"station_id":"ce4bgi92rcd13ifvqb90","pricing_plan_id":"cebpf4jnsgd1na2vs0mg"},{"bike_id":"903e96ed-1785-4514-80d2-55412010618a","system_id":"levelo_inurba_marseille","lat":43.26573,"lon":5.39012,"is_reserved":false,"is_disabled":false,"rental_uris":{"android":"levelo://app?vid=903e96ed-1785-4514-80d2-55412010618a","ios":"levelo://app?vid=903e96ed-1785-4514-80d2-55412010618a"},"vehicle_type_id":"4","last_reported":1740150576,"current_range_meters":11600,"station_id":"ce4bhe12rcd13ifvqf30","pricing_plan_id":"cebpf4jnsgd1na2vs0mg"},{"bike_id":"1445e25f-9332-44f5-8183-e6d6a71cd6ce","system_id":"levelo_inurba_marseille","lat":43.26806,"lon":5.40253,"is_reserved":false,"is_disabled":false,"rental_uris":{"android":"levelo://app?vid=1445e25f-9332-44f5-8183-e6d6a71cd6ce","ios":"levelo://app?vid=1445e25f-9332-44f5-8183-e6d6a71cd6ce"},"vehicle_type_id":"4","last_reported":1740150576,"current_range_meters":11600,"station_id":"ce501612rcd8frsf0b60","pricing_plan_id":"cebpf4jnsgd1na2vs0mg"},{"bike_id":"4ec9c935-80a5-4dfd-b013-31c30c9f6c55","system_id":"levelo_inurba_marseille","lat":43.29257,"lon":5.40901,"is_reserved":false,"is_disabled":false,"rental_uris":{"android":"levelo://app?vid=4ec9c935-80a5-4dfd-b013-31c30c9f6c55","ios":"levelo://app?vid=4ec9c935-80a5-4dfd-b013-31c30c9f6c55"},"vehicle_type_id":"4","last_reported":1740150576,"current_range_meters":12000,"station_id":"ce4bh192rcd13ifvqdc0","pricing_plan_id":"cebpf4jnsgd1na2vs0mg"},{"bike_id":"1904eb64-f0df-4071-9fd3-c5aa136f754f","system_id":"levelo_inurba_marseille","lat":43.26558,"lon":5.37283,"is_reserved":false,"is_disabled":false,"rental_uris":{"android":"levelo://app?vid=1904eb64-f0df-4071-9fd3-c5aa136f754f","ios":"levelo://app?vid=1904eb64-f0df-4071-9fd3-c5aa136f754f"},"vehicle_type_id":"4","last_reported":1740150576,"current_range_meters":12000,"station_id":"ce4bhg12rcd13ifvqf70","pricing_plan_id":"cebpf4jnsgd1na2vs0mg"},{"bike_id":"318638f7-a292-4c4a-99c8-d7bf5f4e4dff","system_id":"levelo_inurba_marseille","lat":43.29188,"lon":5.39316,"is_reserved":false,"is_disabled":false,"rental_uris":{"android":"levelo://app?vid=318638f7-a292-4c4a-99c8-d7bf5f4e4dff","ios":"levelo://app?vid=318638f7-a292-4c4a-99c8-d7bf5f4e4dff"},"vehicle_type_id":"4","last_reported":1740150576,"current_range_meters":12000,"station_id":"ce4bh192rcd13ifvqdd0","pricing_plan_id":"cebpf4jnsgd1na2vs0mg"},{"bike_id":"5ad3a0d8-46ea-4fd4-953b-e240392f0644","system_id":"levelo_inurba_marseille","lat":43.27194,"lon":5.39178,"is_reserved":false,"is_disabled":false,"rental_uris":{"android":"levelo://app?vid=5ad3a0d8-46ea-4fd4-953b-e240392f0644","ios":"levelo://app?vid=5ad3a0d8-46ea-4fd4-953b-e240392f0644"},"vehicle_type_id":"4","last_reported":1740150576,"current_range_meters":12400,"station_id":"ce4bhhp2rcd13ifvqfm0","pricing_plan_id":"cebpf4jnsgd1na2vs0mg"},{"bike_id":"ece000d4-661c-4b73-9213-ce0ed97eff8c","system_id":"levelo_inurba_marseille","lat":43.26986,"lon":5.40195,"is_reserved":false,"is_disabled":false,"rental_uris":{"android":"levelo://app?vid=ece000d4-661c-4b73-9213-ce0ed97eff8c","ios":"levelo://app?vid=ece000d4-661c-4b73-9213-ce0ed97eff8c"},"vehicle_type_id":"4","last_reported":1740150576,"current_range_meters":12800,"station_id":"","pricing_plan_id":"cebpf4jnsgd1na2vs0mg"},{"bike_id":"7c8f3d05-5401-4545-847e-9fcee9ea83d5","system_id":"levelo_inurba_marseille","lat":43.26573,"lon":5.39875,"is_reserved":false,"is_disabled":false,"rental_uris":{"android":"levelo://app?vid=7c8f3d05-5401-4545-847e-9fcee9ea83d5","ios":"levelo://app?vid=7c8f3d05-5401-4545-847e-9fcee9ea83d5"},"vehicle_type_id":"4","last_reported":1740150576,"current_range_meters":12800,"station_id":"","pricing_plan_id":"cebpf4jnsgd1na2vs0mg"},{"bike_id":"f1a5c5fa-5ba8-4fa5-92c0-903187c5ee65","system_id":"levelo_inurba_marseille","lat":43.27376,"lon":5.36259,"is_reserved":false,"is_disabled":false,"rental_uris":{"android":"levelo://app?vid=f1a5c5fa-5ba8-4fa5-92c0-903187c5ee65","ios":"levelo://app?vid=f1a5c5fa-5ba8-4fa5-92c0-903187c5ee65"},"vehicle_type_id":"4","last_reported":1740150576,"current_range_meters":12800,"station_id":"ce4bhbh2rcd13ifvqeo0","pricing_plan_id":"cebpf4jnsgd1na2vs0mg"},{"bike_id":"c80448ee-ef97-4b4e-ae9c-24b806fb8809","system_id":"levelo_inurba_marseille","lat":43.29045,"lon":5.359236,"is_reserved":false,"is_disabled":false,"rental_uris":{"android":"levelo://app?vid=c80448ee-ef97-4b4e-ae9c-24b806fb8809","ios":"levelo://app?vid=c80448ee-ef97-4b4e-ae9c-24b806fb8809"},"vehicle_type_id":"4","last_reported":1740150576,"current_range_meters":13600,"station_id":"ce4bha92rcd13ifvqeg0","pricing_plan_id":"cebpf4jnsgd1na2vs0mg"},{"bike_id":"f92672d5-e5ea-4de8-93a7-f268475d7004","system_id":"levelo_inurba_marseille","lat":43.27433,"lon":5.39418,"is_reserved":false,"is_disabled":false,"rental_uris":{"android":"levelo://app?vid=f92672d5-e5ea-4de8-93a7-f268475d7004","ios":"levelo://app?vid=f92672d5-e5ea-4de8-93a7-f268475d7004"},"vehicle_type_id":"4","last_reported":1740150576,"current_range_meters":13600,"station_id":"ce4bhdp2rcd13ifvqf20","pricing_plan_id":"cebpf4jnsgd1na2vs0mg"},{"bike_id":"4832eb03-d51c-452d-b024-96f5d08cdbdc","system_id":"levelo_inurba_marseille","lat":43.29074,"lon":5.37171,"is_reserved":false,"is_disabled":false,"rental_uris":{"android":"levelo://app?vid=4832eb03-d51c-452d-b024-96f5d08cdbdc","ios":"levelo://app?vid=4832eb03-d51c-452d-b024-96f5d08cdbdc"},"vehicle_type_id":"4","last_reported":1740150576,"current_range_meters":13600,"station_id":"ce4bh5p2rcd13ifvqe4g","pricing_plan_id":"cebpf4jnsgd1na2vs0mg"},{"bike_id":"9e3d076f-7956-432a-8a82-7fe6899cde79","system_id":"levelo_inurba_marseille","lat":43.2799,"lon":5.40023,"is_reserved":false,"is_disabled":false,"rental_uris":{"android":"levelo://app?vid=9e3d076f-7956-432a-8a82-7fe6899cde79","ios":"levelo://app?vid=9e3d076f-7956-432a-8a82-7fe6899cde79"},"vehicle_type_id":"4","last_reported":1740150576,"current_range_meters":13600,"station_id":"ce4bho92rcd13ifvqh4g","pricing_plan_id":"cebpf4jnsgd1na2vs0mg"},{"bike_id":"b114295d-1bea-4022-9435-f612882c58f5","system_id":"levelo_inurba_marseille","lat":43.26191,"lon":5.37449,"is_reserved":false,"is_disabled":false,"rental_uris":{"android":"levelo://app?vid=b114295d-1bea-4022-9435-f612882c58f5","ios":"levelo://app?vid=b114295d-1bea-4022-9435-f612882c58f5"},"vehicle_type_id":"4","last_reported":1740150576,"current_range_meters":13600,"station_id":"ce4bhgp2rcd13ifvqfc0","pricing_plan_id":"cebpf4jnsgd1na2vs0mg"},{"bike_id":"a404738f-d592-4923-bb7f-8cad6bf8fec4","system_id":"levelo_inurba_marseille","lat":43.27949,"lon":5.38495,"is_reserved":false,"is_disabled":false,"rental_uris":{"android":"levelo://app?vid=a404738f-d592-4923-bb7f-8cad6bf8fec4","ios":"levelo://app?vid=a404738f-d592-4923-bb7f-8cad6bf8fec4"},"vehicle_type_id":"4","last_reported":1740150576,"current_range_meters":13600,"station_id":"","pricing_plan_id":"cebpf4jnsgd1na2vs0mg"},{"bike_id":"af99980f-9f11-4e95-9d5d-c71a251b1742","system_id":"levelo_inurba_marseille","lat":43.3014,"lon":5.37422,"is_reserved":false,"is_disabled":false,"rental_uris":{"android":"levelo://app?vid=af99980f-9f11-4e95-9d5d-c71a251b1742","ios":"levelo://app?vid=af99980f-9f11-4e95-9d5d-c71a251b1742"},"vehicle_type_id":"4","last_reported":1740150576,"current_range_meters":13600,"station_id":"ce4bgs92rcd13ifvqcc0","pricing_plan_id":"cebpf4jnsgd1na2vs0mg"},{"bike_id":"c0a936dd-8b78-4344-b0ca-0e19fa1b2ac4","system_id":"levelo_inurba_marseille","lat":43.27811,"lon":5.40712,"is_reserved":false,"is_disabled":false,"rental_uris":{"android":"levelo://app?vid=c0a936dd-8b78-4344-b0ca-0e19fa1b2ac4","ios":"levelo://app?vid=c0a936dd-8b78-4344-b0ca-0e19fa1b2ac4"},"vehicle_type_id":"4","last_reported":1740150576,"current_range_meters":13600,"station_id":"ce4bhnh2rcd13ifvqgtg","pricing_plan_id":"cebpf4jnsgd1na2vs0mg"},{"bike_id":"5902af95-411b-49ba-8f1f-17df4e3c9aac","system_id":"levelo_inurba_marseille","lat":43.30145,"lon":5.37418,"is_reserved":false,"is_disabled":false,"rental_uris":{"android":"levelo://app?vid=5902af95-411b-49ba-8f1f-17df4e3c9aac","ios":"levelo://app?vid=5902af95-411b-49ba-8f1f-17df4e3c9aac"},"vehicle_type_id":"4","last_reported":1740150576,"current_range_meters":13600,"station_id":"ce4bgs92rcd13ifvqcc0","pricing_plan_id":"cebpf4jnsgd1na2vs0mg"},{"bike_id":"e5b97541-8b4b-4dbf-a29f-c1c2d6ee4195","system_id":"levelo_inurba_marseille","lat":43.26587,"lon":5.39036,"is_reserved":false,"is_disabled":false,"rental_uris":{"android":"levelo://app?vid=e5b97541-8b4b-4dbf-a29f-c1c2d6ee4195","ios":"levelo://app?vid=e5b97541-8b4b-4dbf-a29f-c1c2d6ee4195"},"vehicle_type_id":"4","last_reported":1740150576,"current_range_meters":13600,"station_id":"ce4bhe12rcd13ifvqf30","pricing_plan_id":"cebpf4jnsgd1na2vs0mg"},{"bike_id":"299f4c46-ca20-4ffc-b852-0fe22e3ef07a","system_id":"levelo_inurba_marseille","lat":43.28532,"lon":5.38595,"is_reserved":false,"is_disabled":false,"rental_uris":{"android":"levelo://app?vid=299f4c46-ca20-4ffc-b852-0fe22e3ef07a","ios":"levelo://app?vid=299f4c46-ca20-4ffc-b852-0fe22e3ef07a"},"vehicle_type_id":"4","last_reported":1740150576,"current_range_meters":14000,"station_id":"ce4bh8p2rcd13ifvqeb0","pricing_plan_id":"cebpf4jnsgd1na2vs0mg"},{"bike_id":"97673b88-39be-49a1-a007-3754e79e6ff5","system_id":"levelo_inurba_marseille","lat":43.25716,"lon":5.41112,"is_reserved":false,"is_disabled":false,"rental_uris":{"android":"levelo://app?vid=97673b88-39be-49a1-a007-3754e79e6ff5","ios":"levelo://app?vid=97673b88-39be-49a1-a007-3754e79e6ff5"},"vehicle_type_id":"4","last_reported":1740150576,"current_range_meters":14000,"station_id":"ce4bhkp2rcd13ifvqgd0","pricing_plan_id":"cebpf4jnsgd1na2vs0mg"},{"bike_id":"54b45f3b-f685-44dd-8b79-1a758bf759d2","system_id":"levelo_inurba_marseille","lat":43.337444,"lon":5.374475,"is_reserved":false,"is_disabled":true,"rental_uris":{"android":"levelo://app?vid=54b45f3b-f685-44dd-8b79-1a758bf759d2","ios":"levelo://app?vid=54b45f3b-f685-44dd-8b79-1a758bf759d2"},"vehicle_type_id":"4","last_reported":1740150576,"current_range_meters":14000,"station_id":"","pricing_plan_id":"cebpf4jnsgd1na2vs0mg"},{"bike_id":"e501be99-a171-4e91-9e5b-ac547e4c06f2","system_id":"levelo_inurba_marseille","lat":43.23189,"lon":5.35548,"is_reserved":false,"is_disabled":false,"rental_uris":{"android":"levelo://app?vid=e501be99-a171-4e91-9e5b-ac547e4c06f2","ios":"levelo://app?vid=e501be99-a171-4e91-9e5b-ac547e4c06f2"},"vehicle_type_id":"4","last_reported":1740150576,"current_range_meters":14000,"station_id":"ce4bhu92rcd13ifvqi70","pricing_plan_id":"cebpf4jnsgd1na2vs0mg"},{"bike_id":"78ccc1b5-e05d-4c30-bc5b-473f9d97e2cd","system_id":"levelo_inurba_marseille","lat":43.30123,"lon":5.37816,"is_reserved":false,"is_disabled":false,"rental_uris":{"android":"levelo://app?vid=78ccc1b5-e05d-4c30-bc5b-473f9d97e2cd","ios":"levelo://app?vid=78ccc1b5-e05d-4c30-bc5b-473f9d97e2cd"},"vehicle_type_id":"4","last_reported":1740150576,"current_range_meters":14400,"station_id":"","pricing_plan_id":"cebpf4jnsgd1na2vs0mg"},{"bike_id":"ecb37c58-f3e9-4260-bb8c-61ca601c0d22","system_id":"levelo_inurba_marseille","lat":43.24172,"lon":5.36393,"is_reserved":false,"is_disabled":false,"rental_uris":{"android":"levelo://app?vid=ecb37c58-f3e9-4260-bb8c-61ca601c0d22","ios":"levelo://app?vid=ecb37c58-f3e9-4260-bb8c-61ca601c0d22"},"vehicle_type_id":"4","last_reported":1740150576,"current_range_meters":14400,"station_id":"cpo36qri1sfpv3e86is0","pricing_plan_id":"cebpf4jnsgd1na2vs0mg"},{"bike_id":"b985ad1f-1942-453b-b5eb-7462cafd1e31","system_id":"levelo_inurba_marseille","lat":43.23199,"lon":5.35544,"is_reserved":false,"is_disabled":false,"rental_uris":{"android":"levelo://app?vid=b985ad1f-1942-453b-b5eb-7462cafd1e31","ios":"levelo://app?vid=b985ad1f-1942-453b-b5eb-7462cafd1e31"},"vehicle_type_id":"4","last_reported":1740150576,"current_range_meters":14400,"station_id":"ce4bhu92rcd13ifvqi70","pricing_plan_id":"cebpf4jnsgd1na2vs0mg"},{"bike_id":"95bf5927-bdcc-44ee-9a8a-c95a3a39178a","system_id":"levelo_inurba_marseille","lat":43.30188,"lon":5.3736,"is_reserved":false,"is_disabled":false,"rental_uris":{"android":"levelo://app?vid=95bf5927-bdcc-44ee-9a8a-c95a3a39178a","ios":"levelo://app?vid=95bf5927-bdcc-44ee-9a8a-c95a3a39178a"},"vehicle_type_id":"4","last_reported":1740150576,"current_range_meters":14800,"station_id":"","pricing_plan_id":"cebpf4jnsgd1na2vs0mg"},{"bike_id":"87c99463-1fe0-43b5-b7eb-c3ecd1537886","system_id":"levelo_inurba_marseille","lat":43.29679,"lon":5.37328,"is_reserved":false,"is_disabled":false,"rental_uris":{"android":"levelo://app?vid=87c99463-1fe0-43b5-b7eb-c3ecd1537886","ios":"levelo://app?vid=87c99463-1fe0-43b5-b7eb-c3ecd1537886"},"vehicle_type_id":"4","last_reported":1740150576,"current_range_meters":14800,"station_id":"ce4bgk12rcd13ifvqbj0","pricing_plan_id":"cebpf4jnsgd1na2vs0mg"},{"bike_id":"f275ed44-f9cb-469d-a29c-d379db9ccdd0","system_id":"levelo_inurba_marseille","lat":43.27362,"lon":5.36258,"is_reserved":false,"is_disabled":false,"rental_uris":{"android":"levelo://app?vid=f275ed44-f9cb-469d-a29c-d379db9ccdd0","ios":"levelo://app?vid=f275ed44-f9cb-469d-a29c-d379db9ccdd0"},"vehicle_type_id":"4","last_reported":1740150576,"current_range_meters":14800,"station_id":"ce4bhbh2rcd13ifvqeo0","pricing_plan_id":"cebpf4jnsgd1na2vs0mg"},{"bike_id":"1b7ac129-ecd5-4ebe-ac49-f8a6cd5fd7db","system_id":"levelo_inurba_marseille","lat":43.2501,"lon":5.38915,"is_reserved":false,"is_disabled":false,"rental_uris":{"android":"levelo://app?vid=1b7ac129-ecd5-4ebe-ac49-f8a6cd5fd7db","ios":"levelo://app?vid=1b7ac129-ecd5-4ebe-ac49-f8a6cd5fd7db"},"vehicle_type_id":"4","last_reported":1740150576,"current_range_meters":14800,"station_id":"ce4bhgp2rcd13ifvqfd0","pricing_plan_id":"cebpf4jnsgd1na2vs0mg"},{"bike_id":"2e6530af-01df-4a73-8693-b9351ef9fd3d","system_id":"levelo_inurba_marseille","lat":43.27376,"lon":5.36259,"is_reserved":false,"is_disabled":false,"rental_uris":{"android":"levelo://app?vid=2e6530af-01df-4a73-8693-b9351ef9fd3d","ios":"levelo://app?vid=2e6530af-01df-4a73-8693-b9351ef9fd3d"},"vehicle_type_id":"4","last_reported":1740150576,"current_range_meters":14800,"station_id":"ce4bhbh2rcd13ifvqeo0","pricing_plan_id":"cebpf4jnsgd1na2vs0mg"},{"bike_id":"10a62b05-5422-4ed7-9714-0c0945008c7b","system_id":"levelo_inurba_marseille","lat":43.300717,"lon":5.380868,"is_reserved":false,"is_disabled":false,"rental_uris":{"android":"levelo://app?vid=10a62b05-5422-4ed7-9714-0c0945008c7b","ios":"levelo://app?vid=10a62b05-5422-4ed7-9714-0c0945008c7b"},"vehicle_type_id":"4","last_reported":1740150576,"current_range_meters":15200,"station_id":"ce4bha92rcd13ifvqeg0","pricing_plan_id":"cebpf4jnsgd1na2vs0mg"},{"bike_id":"8cd60b00-4f64-4959-9b41-890f942b24d6","system_id":"levelo_inurba_marseille","lat":43.29202,"lon":5.39327,"is_reserved":false,"is_disabled":false,"rental_uris":{"android":"levelo://app?vid=8cd60b00-4f64-4959-9b41-890f942b24d6","ios":"levelo://app?vid=8cd60b00-4f64-4959-9b41-890f942b24d6"},"vehicle_type_id":"4","last_reported":1740150576,"current_range_meters":16000,"station_id":"ce4bh192rcd13ifvqdd0","pricing_plan_id":"cebpf4jnsgd1na2vs0mg"},{"bike_id":"661fdff0-f0ad-4cb8-b5b0-dc2395fe1e67","system_id":"levelo_inurba_marseille","lat":43.30562,"lon":5.36684,"is_reserved":false,"is_disabled":false,"rental_uris":{"android":"levelo://app?vid=661fdff0-f0ad-4cb8-b5b0-dc2395fe1e67","ios":"levelo://app?vid=661fdff0-f0ad-4cb8-b5b0-dc2395fe1e67"},"vehicle_type_id":"4","last_reported":1740150576,"current_range_meters":16000,"station_id":"ce4bgrp2rcd13ifvqc9g","pricing_plan_id":"cebpf4jnsgd1na2vs0mg"},{"bike_id":"0d390826-7963-4db9-8c29-cb65db444fc3","system_id":"levelo_inurba_marseille","lat":43.29529,"lon":5.39378,"is_reserved":false,"is_disabled":false,"rental_uris":{"android":"levelo://app?vid=0d390826-7963-4db9-8c29-cb65db444fc3","ios":"levelo://app?vid=0d390826-7963-4db9-8c29-cb65db444fc3"},"vehicle_type_id":"4","last_reported":1740150576,"current_range_meters":15200,"station_id":"ce4bh292rcd13ifvqdf0","pricing_plan_id":"cebpf4jnsgd1na2vs0mg"},{"bike_id":"4deb363e-d0c0-4572-8bbd-91957ef33c11","system_id":"levelo_inurba_marseille","lat":43.27791,"lon":5.40677,"is_reserved":false,"is_disabled":false,"rental_uris":{"android":"levelo://app?vid=4deb363e-d0c0-4572-8bbd-91957ef33c11","ios":"levelo://app?vid=4deb363e-d0c0-4572-8bbd-91957ef33c11"},"vehicle_type_id":"4","last_reported":1740150576,"current_range_meters":16000,"station_id":"ce4bhnh2rcd13ifvqgtg","pricing_plan_id":"cebpf4jnsgd1na2vs0mg"},{"bike_id":"3eb9ad84-75e8-4ef3-aff5-7ff2381aaa7f","system_id":"levelo_inurba_marseille","lat":43.28564,"lon":5.39504,"is_reserved":false,"is_disabled":false,"rental_uris":{"android":"levelo://app?vid=3eb9ad84-75e8-4ef3-aff5-7ff2381aaa7f","ios":"levelo://app?vid=3eb9ad84-75e8-4ef3-aff5-7ff2381aaa7f"},"vehicle_type_id":"4","last_reported":1740150576,"current_range_meters":16000,"station_id":"ce4bh292rcd13ifvqdg0","pricing_plan_id":"cebpf4jnsgd1na2vs0mg"},{"bike_id":"381da859-14fe-4238-ac2b-fcf30f8ea473","system_id":"levelo_inurba_marseille","lat":43.28707,"lon":5.39987,"is_reserved":false,"is_disabled":false,"rental_uris":{"android":"levelo://app?vid=381da859-14fe-4238-ac2b-fcf30f8ea473","ios":"levelo://app?vid=381da859-14fe-4238-ac2b-fcf30f8ea473"},"vehicle_type_id":"4","last_reported":1740150576,"current_range_meters":16000,"station_id":"ce4bho92rcd13ifvqh3g","pricing_plan_id":"cebpf4jnsgd1na2vs0mg"},{"bike_id":"a10a254a-c520-445a-bf85-d8419fa744b0","system_id":"levelo_inurba_marseille","lat":43.28465,"lon":5.35898,"is_reserved":false,"is_disabled":false,"rental_uris":{"android":"levelo://app?vid=a10a254a-c520-445a-bf85-d8419fa744b0","ios":"levelo://app?vid=a10a254a-c520-445a-bf85-d8419fa744b0"},"vehicle_type_id":"4","last_reported":1740150576,"current_range_meters":16400,"station_id":"ce4bhah2rcd13ifvqei0","pricing_plan_id":"cebpf4jnsgd1na2vs0mg"},{"bike_id":"ab160822-bb97-4e58-a5b1-bbc9c5e5d24b","system_id":"levelo_inurba_marseille","lat":43.23965,"lon":5.36632,"is_reserved":false,"is_disabled":false,"rental_uris":{"android":"levelo://app?vid=ab160822-bb97-4e58-a5b1-bbc9c5e5d24b","ios":"levelo://app?vid=ab160822-bb97-4e58-a5b1-bbc9c5e5d24b"},"vehicle_type_id":"4","last_reported":1740150576,"current_range_meters":16400,"station_id":"ce4bhi12rcd13ifvqfp0","pricing_plan_id":"cebpf4jnsgd1na2vs0mg"},{"bike_id":"1287d548-3052-45e4-a909-dfda7905dc95","system_id":"levelo_inurba_marseille","lat":43.30926,"lon":5.40142,"is_reserved":false,"is_disabled":false,"rental_uris":{"android":"levelo://app?vid=1287d548-3052-45e4-a909-dfda7905dc95","ios":"levelo://app?vid=1287d548-3052-45e4-a909-dfda7905dc95"},"vehicle_type_id":"4","last_reported":1740150576,"current_range_meters":16400,"station_id":"ce4bgvp2rcd13ifvqct0","pricing_plan_id":"cebpf4jnsgd1na2vs0mg"},{"bike_id":"87f7fc41-2954-4fbe-8266-6b6cb457cf2f","system_id":"levelo_inurba_marseille","lat":43.26502,"lon":5.39536,"is_reserved":false,"is_disabled":false,"rental_uris":{"android":"levelo://app?vid=87f7fc41-2954-4fbe-8266-6b6cb457cf2f","ios":"levelo://app?vid=87f7fc41-2954-4fbe-8266-6b6cb457cf2f"},"vehicle_type_id":"4","last_reported":1740150576,"current_range_meters":16400,"station_id":"ce4bhi12rcd13ifvqfq0","pricing_plan_id":"cebpf4jnsgd1na2vs0mg"},{"bike_id":"bf53f9e9-e721-4de6-8b04-415f193111d6","system_id":"levelo_inurba_marseille","lat":43.230695,"lon":5.354908,"is_reserved":false,"is_disabled":false,"rental_uris":{"android":"levelo://app?vid=bf53f9e9-e721-4de6-8b04-415f193111d6","ios":"levelo://app?vid=bf53f9e9-e721-4de6-8b04-415f193111d6"},"vehicle_type_id":"4","last_reported":1740150576,"current_range_meters":16400,"station_id":"cpo3342slgdg3j2ifvpg","pricing_plan_id":"cebpf4jnsgd1na2vs0mg"},{"bike_id":"1284d801-e2b9-4860-9523-3e0defd71ab4","system_id":"levelo_inurba_marseille","lat":43.2926,"lon":5.40917,"is_reserved":false,"is_disabled":false,"rental_uris":{"android":"levelo://app?vid=1284d801-e2b9-4860-9523-3e0defd71ab4","ios":"levelo://app?vid=1284d801-e2b9-4860-9523-3e0defd71ab4"},"vehicle_type_id":"4","last_reported":1740150576,"current_range_meters":16400,"station_id":"ce4bh192rcd13ifvqdc0","pricing_plan_id":"cebpf4jnsgd1na2vs0mg"},{"bike_id":"52731f78-5e11-4ede-8e3c-bc2b85099c90","system_id":"levelo_inurba_marseille","lat":43.27568,"lon":5.38429,"is_reserved":false,"is_disabled":false,"rental_uris":{"android":"levelo://app?vid=52731f78-5e11-4ede-8e3c-bc2b85099c90","ios":"levelo://app?vid=52731f78-5e11-4ede-8e3c-bc2b85099c90"},"vehicle_type_id":"4","last_reported":1740150576,"current_range_meters":16400,"station_id":"ce4bhh92rcd13ifvqfi0","pricing_plan_id":"cebpf4jnsgd1na2vs0mg"},{"bike_id":"0941d528-1231-4c3b-bd83-84da5930a8b3","system_id":"levelo_inurba_marseille","lat":43.303884,"lon":5.410346,"is_reserved":false,"is_disabled":false,"rental_uris":{"android":"levelo://app?vid=0941d528-1231-4c3b-bd83-84da5930a8b3","ios":"levelo://app?vid=0941d528-1231-4c3b-bd83-84da5930a8b3"},"vehicle_type_id":"4","last_reported":1740150576,"current_range_meters":14800,"station_id":"ce4bhop2rcd13ifvqh7g","pricing_plan_id":"cebpf4jnsgd1na2vs0mg"},{"bike_id":"3f30ca88-1a31-45dc-af75-97b309b52e4d","system_id":"levelo_inurba_marseille","lat":43.27217,"lon":5.39202,"is_reserved":false,"is_disabled":false,"rental_uris":{"android":"levelo://app?vid=3f30ca88-1a31-45dc-af75-97b309b52e4d","ios":"levelo://app?vid=3f30ca88-1a31-45dc-af75-97b309b52e4d"},"vehicle_type_id":"4","last_reported":1740150576,"current_range_meters":16400,"station_id":"ce4bhhp2rcd13ifvqfm0","pricing_plan_id":"cebpf4jnsgd1na2vs0mg"},{"bike_id":"4809798f-384b-47c7-a698-ddcc1b5fb4cf","system_id":"levelo_inurba_marseille","lat":43.27372,"lon":5.36258,"is_reserved":false,"is_disabled":false,"rental_uris":{"android":"levelo://app?vid=4809798f-384b-47c7-a698-ddcc1b5fb4cf","ios":"levelo://app?vid=4809798f-384b-47c7-a698-ddcc1b5fb4cf"},"vehicle_type_id":"4","last_reported":1740150576,"current_range_meters":16400,"station_id":"ce4bhbh2rcd13ifvqeo0","pricing_plan_id":"cebpf4jnsgd1na2vs0mg"},{"bike_id":"4c65a4d2-5d16-4388-bea7-74a37620dae9","system_id":"levelo_inurba_marseille","lat":43.28861,"lon":5.39306,"is_reserved":false,"is_disabled":false,"rental_uris":{"android":"levelo://app?vid=4c65a4d2-5d16-4388-bea7-74a37620dae9","ios":"levelo://app?vid=4c65a4d2-5d16-4388-bea7-74a37620dae9"},"vehicle_type_id":"4","last_reported":1740150576,"current_range_meters":16400,"station_id":"ce4bh2p2rcd13ifvqdi0","pricing_plan_id":"cebpf4jnsgd1na2vs0mg"},{"bike_id":"35331f57-b06c-41f1-8224-4eb3668702eb","system_id":"levelo_inurba_marseille","lat":43.23066,"lon":5.35484,"is_reserved":false,"is_disabled":false,"rental_uris":{"android":"levelo://app?vid=35331f57-b06c-41f1-8224-4eb3668702eb","ios":"levelo://app?vid=35331f57-b06c-41f1-8224-4eb3668702eb"},"vehicle_type_id":"4","last_reported":1740150576,"current_range_meters":16400,"station_id":"cpo3342slgdg3j2ifvpg","pricing_plan_id":"cebpf4jnsgd1na2vs0mg"},{"bike_id":"45f8c2a5-218b-4833-8215-e1c9fc1bcf54","system_id":"levelo_inurba_marseille","lat":43.29594,"lon":5.375,"is_reserved":false,"is_disabled":false,"rental_uris":{"android":"levelo://app?vid=45f8c2a5-218b-4833-8215-e1c9fc1bcf54","ios":"levelo://app?vid=45f8c2a5-218b-4833-8215-e1c9fc1bcf54"},"vehicle_type_id":"4","last_reported":1740150576,"current_range_meters":16800,"station_id":"ce4bgh92rcd13ifvqb50","pricing_plan_id":"cebpf4jnsgd1na2vs0mg"},{"bike_id":"d048650e-d3d2-4bc3-bfff-ffba18c0e806","system_id":"levelo_inurba_marseille","lat":43.27566,"lon":5.3842,"is_reserved":false,"is_disabled":false,"rental_uris":{"android":"levelo://app?vid=d048650e-d3d2-4bc3-bfff-ffba18c0e806","ios":"levelo://app?vid=d048650e-d3d2-4bc3-bfff-ffba18c0e806"},"vehicle_type_id":"4","last_reported":1740150576,"current_range_meters":16400,"station_id":"ce4bhh92rcd13ifvqfi0","pricing_plan_id":"cebpf4jnsgd1na2vs0mg"},{"bike_id":"9d82f925-9401-499b-ac5c-efed4f4e0880","system_id":"levelo_inurba_marseille","lat":43.29058,"lon":5.37572,"is_reserved":false,"is_disabled":false,"rental_uris":{"android":"levelo://app?vid=9d82f925-9401-499b-ac5c-efed4f4e0880","ios":"levelo://app?vid=9d82f925-9401-499b-ac5c-efed4f4e0880"},"vehicle_type_id":"4","last_reported":1740150576,"current_range_meters":16800,"station_id":"ce4bh692rcd13ifvqe90","pricing_plan_id":"cebpf4jnsgd1na2vs0mg"},{"bike_id":"e297894e-9654-4d80-87c5-92e5d1d23aba","system_id":"levelo_inurba_marseille","lat":43.27498,"lon":5.42461,"is_reserved":false,"is_disabled":false,"rental_uris":{"android":"levelo://app?vid=e297894e-9654-4d80-87c5-92e5d1d23aba","ios":"levelo://app?vid=e297894e-9654-4d80-87c5-92e5d1d23aba"},"vehicle_type_id":"4","last_reported":1740150576,"current_range_meters":16800,"station_id":"ce4bhn92rcd13ifvqgrg","pricing_plan_id":"cebpf4jnsgd1na2vs0mg"},{"bike_id":"e776853d-0662-466e-b6c8-aece83517590","system_id":"levelo_inurba_marseille","lat":43.2407,"lon":5.37763,"is_reserved":false,"is_disabled":false,"rental_uris":{"android":"levelo://app?vid=e776853d-0662-466e-b6c8-aece83517590","ios":"levelo://app?vid=e776853d-0662-466e-b6c8-aece83517590"},"vehicle_type_id":"4","last_reported":1740150576,"current_range_meters":17200,"station_id":"","pricing_plan_id":"cebpf4jnsgd1na2vs0mg"},{"bike_id":"225c4de5-d6bd-4653-b6b4-9d430b74724e","system_id":"levelo_inurba_marseille","lat":43.29186,"lon":5.39309,"is_reserved":false,"is_disabled":false,"rental_uris":{"android":"levelo://app?vid=225c4de5-d6bd-4653-b6b4-9d430b74724e","ios":"levelo://app?vid=225c4de5-d6bd-4653-b6b4-9d430b74724e"},"vehicle_type_id":"4","last_reported":1740150576,"current_range_meters":17200,"station_id":"ce4bh192rcd13ifvqdd0","pricing_plan_id":"cebpf4jnsgd1na2vs0mg"},{"bike_id":"e8a1e1f5-b474-4f67-aaf9-e92874b81e6f","system_id":"levelo_inurba_marseille","lat":43.30302,"lon":5.39206,"is_reserved":false,"is_disabled":false,"rental_uris":{"android":"levelo://app?vid=e8a1e1f5-b474-4f67-aaf9-e92874b81e6f","ios":"levelo://app?vid=e8a1e1f5-b474-4f67-aaf9-e92874b81e6f"},"vehicle_type_id":"4","last_reported":1740150576,"current_range_meters":17200,"station_id":"ce4bgkh2rcd13ifvqbk0","pricing_plan_id":"cebpf4jnsgd1na2vs0mg"},{"bike_id":"0b35ef10-1d1d-4e8a-949e-c3122c5e3874","system_id":"levelo_inurba_marseille","lat":43.23955,"lon":5.3664,"is_reserved":false,"is_disabled":false,"rental_uris":{"android":"levelo://app?vid=0b35ef10-1d1d-4e8a-949e-c3122c5e3874","ios":"levelo://app?vid=0b35ef10-1d1d-4e8a-949e-c3122c5e3874"},"vehicle_type_id":"4","last_reported":1740150576,"current_range_meters":17200,"station_id":"ce4bhi12rcd13ifvqfp0","pricing_plan_id":"cebpf4jnsgd1na2vs0mg"},{"bike_id":"b0c4cff7-ef87-4f78-9f9a-1600e3ee01ad","system_id":"levelo_inurba_marseille","lat":43.30136,"lon":5.3988,"is_reserved":false,"is_disabled":false,"rental_uris":{"android":"levelo://app?vid=b0c4cff7-ef87-4f78-9f9a-1600e3ee01ad","ios":"levelo://app?vid=b0c4cff7-ef87-4f78-9f9a-1600e3ee01ad"},"vehicle_type_id":"4","last_reported":1740150576,"current_range_meters":17200,"station_id":"ce4bh0h2rcd13ifvqd40","pricing_plan_id":"cebpf4jnsgd1na2vs0mg"},{"bike_id":"145512af-8bd7-481e-aa0b-f2359eb540f0","system_id":"levelo_inurba_marseille","lat":43.28433,"lon":5.39189,"is_reserved":false,"is_disabled":false,"rental_uris":{"android":"levelo://app?vid=145512af-8bd7-481e-aa0b-f2359eb540f0","ios":"levelo://app?vid=145512af-8bd7-481e-aa0b-f2359eb540f0"},"vehicle_type_id":"4","last_reported":1740150576,"current_range_meters":17200,"station_id":"ce4bhoh2rcd13ifvqh5g","pricing_plan_id":"cebpf4jnsgd1na2vs0mg"},{"bike_id":"24b87019-ab18-4324-874c-b55bcb0b0a7a","system_id":"levelo_inurba_marseille","lat":43.28032,"lon":5.36931,"is_reserved":false,"is_disabled":false,"rental_uris":{"android":"levelo://app?vid=24b87019-ab18-4324-874c-b55bcb0b0a7a","ios":"levelo://app?vid=24b87019-ab18-4324-874c-b55bcb0b0a7a"},"vehicle_type_id":"4","last_reported":1740150576,"current_range_meters":17200,"station_id":"ce4bha12rcd13ifvqef0","pricing_plan_id":"cebpf4jnsgd1na2vs0mg"},{"bike_id":"68a52a99-b26a-4071-ae7c-1db9e783ca9a","system_id":"levelo_inurba_marseille","lat":43.305348,"lon":5.365446,"is_reserved":false,"is_disabled":false,"rental_uris":{"android":"levelo://app?vid=68a52a99-b26a-4071-ae7c-1db9e783ca9a","ios":"levelo://app?vid=68a52a99-b26a-4071-ae7c-1db9e783ca9a"},"vehicle_type_id":"4","last_reported":1740150576,"current_range_meters":17200,"station_id":"ce4bgs12rcd13ifvqcag","pricing_plan_id":"cebpf4jnsgd1na2vs0mg"},{"bike_id":"e787ca5c-fddf-4351-8e22-c39460f7265b","system_id":"levelo_inurba_marseille","lat":43.26581,"lon":5.39018,"is_reserved":false,"is_disabled":false,"rental_uris":{"android":"levelo://app?vid=e787ca5c-fddf-4351-8e22-c39460f7265b","ios":"levelo://app?vid=e787ca5c-fddf-4351-8e22-c39460f7265b"},"vehicle_type_id":"4","last_reported":1740150576,"current_range_meters":17200,"station_id":"ce4bhe12rcd13ifvqf30","pricing_plan_id":"cebpf4jnsgd1na2vs0mg"},{"bike_id":"d11825b8-23fc-47b2-84b9-7b315e040508","system_id":"levelo_inurba_marseille","lat":43.3032,"lon":5.36886,"is_reserved":false,"is_disabled":false,"rental_uris":{"android":"levelo://app?vid=d11825b8-23fc-47b2-84b9-7b315e040508","ios":"levelo://app?vid=d11825b8-23fc-47b2-84b9-7b315e040508"},"vehicle_type_id":"4","last_reported":1740150576,"current_range_meters":17600,"station_id":"ce4bgqh2rcd13ifvqc5g","pricing_plan_id":"cebpf4jnsgd1na2vs0mg"},{"bike_id":"9ee5b8ea-a35d-4e81-b308-bfecbeee6f78","system_id":"levelo_inurba_marseille","lat":43.303,"lon":5.39214,"is_reserved":false,"is_disabled":false,"rental_uris":{"android":"levelo://app?vid=9ee5b8ea-a35d-4e81-b308-bfecbeee6f78","ios":"levelo://app?vid=9ee5b8ea-a35d-4e81-b308-bfecbeee6f78"},"vehicle_type_id":"4","last_reported":1740150576,"current_range_meters":17200,"station_id":"ce4bgkh2rcd13ifvqbk0","pricing_plan_id":"cebpf4jnsgd1na2vs0mg"},{"bike_id":"2b3bdbe3-a8c0-4b69-bddd-17d1ebc91f64","system_id":"levelo_inurba_marseille","lat":43.26576,"lon":5.39008,"is_reserved":false,"is_disabled":false,"rental_uris":{"android":"levelo://app?vid=2b3bdbe3-a8c0-4b69-bddd-17d1ebc91f64","ios":"levelo://app?vid=2b3bdbe3-a8c0-4b69-bddd-17d1ebc91f64"},"vehicle_type_id":"4","last_reported":1740150576,"current_range_meters":17600,"station_id":"ce4bhe12rcd13ifvqf30","pricing_plan_id":"cebpf4jnsgd1na2vs0mg"},{"bike_id":"06b5b92e-20c2-4581-8ccf-06307578ea44","system_id":"levelo_inurba_marseille","lat":43.271768,"lon":5.409878,"is_reserved":false,"is_disabled":false,"rental_uris":{"android":"levelo://app?vid=06b5b92e-20c2-4581-8ccf-06307578ea44","ios":"levelo://app?vid=06b5b92e-20c2-4581-8ccf-06307578ea44"},"vehicle_type_id":"4","last_reported":1740150576,"current_range_meters":17600,"station_id":"ce4bhl12rcd13ifvqgf0","pricing_plan_id":"cebpf4jnsgd1na2vs0mg"},{"bike_id":"99db1a06-6939-4d08-9e75-21b5fc33356a","system_id":"levelo_inurba_marseille","lat":43.231478,"lon":5.437193,"is_reserved":false,"is_disabled":false,"rental_uris":{"android":"levelo://app?vid=99db1a06-6939-4d08-9e75-21b5fc33356a","ios":"levelo://app?vid=99db1a06-6939-4d08-9e75-21b5fc33356a"},"vehicle_type_id":"4","last_reported":1740150576,"current_range_meters":18000,"station_id":"ce4bhmp2rcd13ifvqgog","pricing_plan_id":"cebpf4jnsgd1na2vs0mg"},{"bike_id":"fccdd9e5-af64-47a6-b713-a2b0cd084875","system_id":"levelo_inurba_marseille","lat":43.30959,"lon":5.39043,"is_reserved":false,"is_disabled":false,"rental_uris":{"android":"levelo://app?vid=fccdd9e5-af64-47a6-b713-a2b0cd084875","ios":"levelo://app?vid=fccdd9e5-af64-47a6-b713-a2b0cd084875"},"vehicle_type_id":"4","last_reported":1740150576,"current_range_meters":17600,"station_id":"ce4bgup2rcd13ifvqco0","pricing_plan_id":"cebpf4jnsgd1na2vs0mg"},{"bike_id":"6b3ebee5-033e-4e5e-a5b1-823a9f266085","system_id":"levelo_inurba_marseille","lat":43.2781,"lon":5.40711,"is_reserved":false,"is_disabled":false,"rental_uris":{"android":"levelo://app?vid=6b3ebee5-033e-4e5e-a5b1-823a9f266085","ios":"levelo://app?vid=6b3ebee5-033e-4e5e-a5b1-823a9f266085"},"vehicle_type_id":"4","last_reported":1740150576,"current_range_meters":17600,"station_id":"ce4bhnh2rcd13ifvqgtg","pricing_plan_id":"cebpf4jnsgd1na2vs0mg"},{"bike_id":"47c2bda1-b080-4330-9259-8165a7e570ad","system_id":"levelo_inurba_marseille","lat":43.32704,"lon":5.38983,"is_reserved":false,"is_disabled":false,"rental_uris":{"android":"levelo://app?vid=47c2bda1-b080-4330-9259-8165a7e570ad","ios":"levelo://app?vid=47c2bda1-b080-4330-9259-8165a7e570ad"},"vehicle_type_id":"4","last_reported":1740150576,"current_range_meters":18000,"station_id":"","pricing_plan_id":"cebpf4jnsgd1na2vs0mg"},{"bike_id":"2dd4c48b-2a0c-40f5-a353-fc4262c5e9a1","system_id":"levelo_inurba_marseille","lat":43.27381,"lon":5.36257,"is_reserved":false,"is_disabled":false,"rental_uris":{"android":"levelo://app?vid=2dd4c48b-2a0c-40f5-a353-fc4262c5e9a1","ios":"levelo://app?vid=2dd4c48b-2a0c-40f5-a353-fc4262c5e9a1"},"vehicle_type_id":"4","last_reported":1740150576,"current_range_meters":18000,"station_id":"ce4bhbh2rcd13ifvqeo0","pricing_plan_id":"cebpf4jnsgd1na2vs0mg"},{"bike_id":"32dcb531-1f75-410a-bf0f-54ce43a2e819","system_id":"levelo_inurba_marseille","lat":43.3137,"lon":5.38515,"is_reserved":false,"is_disabled":false,"rental_uris":{"android":"levelo://app?vid=32dcb531-1f75-410a-bf0f-54ce43a2e819","ios":"levelo://app?vid=32dcb531-1f75-410a-bf0f-54ce43a2e819"},"vehicle_type_id":"4","last_reported":1740150576,"current_range_meters":18000,"station_id":"ce4bgt92rcd13ifvqcf0","pricing_plan_id":"cebpf4jnsgd1na2vs0mg"},{"bike_id":"4dca8f0f-b528-4efc-bbc2-e7637ee24b3d","system_id":"levelo_inurba_marseille","lat":43.23964,"lon":5.36631,"is_reserved":false,"is_disabled":false,"rental_uris":{"android":"levelo://app?vid=4dca8f0f-b528-4efc-bbc2-e7637ee24b3d","ios":"levelo://app?vid=4dca8f0f-b528-4efc-bbc2-e7637ee24b3d"},"vehicle_type_id":"4","last_reported":1740150576,"current_range_meters":18000,"station_id":"ce4bhi12rcd13ifvqfp0","pricing_plan_id":"cebpf4jnsgd1na2vs0mg"},{"bike_id":"d642b9a4-2c07-41c5-8bd4-12d5c314d899","system_id":"levelo_inurba_marseille","lat":43.29968,"lon":5.38492,"is_reserved":false,"is_disabled":false,"rental_uris":{"android":"levelo://app?vid=d642b9a4-2c07-41c5-8bd4-12d5c314d899","ios":"levelo://app?vid=d642b9a4-2c07-41c5-8bd4-12d5c314d899"},"vehicle_type_id":"4","last_reported":1740150576,"current_range_meters":18000,"station_id":"ce4bgj92rcd13ifvqbd0","pricing_plan_id":"cebpf4jnsgd1na2vs0mg"},{"bike_id":"3ac73025-a0c2-4fbe-90e5-cd9268126521","system_id":"levelo_inurba_marseille","lat":43.30127,"lon":5.39865,"is_reserved":false,"is_disabled":false,"rental_uris":{"android":"levelo://app?vid=3ac73025-a0c2-4fbe-90e5-cd9268126521","ios":"levelo://app?vid=3ac73025-a0c2-4fbe-90e5-cd9268126521"},"vehicle_type_id":"4","last_reported":1740150576,"current_range_meters":18000,"station_id":"ce4bh0h2rcd13ifvqd40","pricing_plan_id":"cebpf4jnsgd1na2vs0mg"},{"bike_id":"90b2bf70-2c7d-40b6-b5b3-0381f4e39ae7","system_id":"levelo_inurba_marseille","lat":43.28724,"lon":5.37939,"is_reserved":false,"is_disabled":false,"rental_uris":{"android":"levelo://app?vid=90b2bf70-2c7d-40b6-b5b3-0381f4e39ae7","ios":"levelo://app?vid=90b2bf70-2c7d-40b6-b5b3-0381f4e39ae7"},"vehicle_type_id":"4","last_reported":1740150576,"current_range_meters":18000,"station_id":"ce4bh9p2rcd13ifvqec0","pricing_plan_id":"cebpf4jnsgd1na2vs0mg"},{"bike_id":"9c05d086-6115-4558-8b92-9ecf9a0b2115","system_id":"levelo_inurba_marseille","lat":43.2903,"lon":5.38643,"is_reserved":false,"is_disabled":false,"rental_uris":{"android":"levelo://app?vid=9c05d086-6115-4558-8b92-9ecf9a0b2115","ios":"levelo://app?vid=9c05d086-6115-4558-8b92-9ecf9a0b2115"},"vehicle_type_id":"4","last_reported":1740150576,"current_range_meters":18000,"station_id":"ce4bh4p2rcd13ifvqe0g","pricing_plan_id":"cebpf4jnsgd1na2vs0mg"},{"bike_id":"64e754dc-73d6-43fb-9004-56cacf3080b5","system_id":"levelo_inurba_marseille","lat":43.30539,"lon":5.3655,"is_reserved":false,"is_disabled":false,"rental_uris":{"android":"levelo://app?vid=64e754dc-73d6-43fb-9004-56cacf3080b5","ios":"levelo://app?vid=64e754dc-73d6-43fb-9004-56cacf3080b5"},"vehicle_type_id":"4","last_reported":1740150576,"current_range_meters":18000,"station_id":"ce4bgs12rcd13ifvqcag","pricing_plan_id":"cebpf4jnsgd1na2vs0mg"},{"bike_id":"467a0ac7-872c-4bb6-8ee3-3c6f458a51d9","system_id":"levelo_inurba_marseille","lat":43.2791,"lon":5.41246,"is_reserved":false,"is_disabled":false,"rental_uris":{"android":"levelo://app?vid=467a0ac7-872c-4bb6-8ee3-3c6f458a51d9","ios":"levelo://app?vid=467a0ac7-872c-4bb6-8ee3-3c6f458a51d9"},"vehicle_type_id":"4","last_reported":1740150576,"current_range_meters":18800,"station_id":"","pricing_plan_id":"cebpf4jnsgd1na2vs0mg"},{"bike_id":"ba0bce3c-2f0f-4319-a7aa-4f3727bd81ea","system_id":"levelo_inurba_marseille","lat":43.32096,"lon":5.36793,"is_reserved":false,"is_disabled":false,"rental_uris":{"android":"levelo://app?vid=ba0bce3c-2f0f-4319-a7aa-4f3727bd81ea","ios":"levelo://app?vid=ba0bce3c-2f0f-4319-a7aa-4f3727bd81ea"},"vehicle_type_id":"4","last_reported":1740150576,"current_range_meters":18800,"station_id":"ce4bhrh2rcd13ifvqhug","pricing_plan_id":"cebpf4jnsgd1na2vs0mg"},{"bike_id":"519c0d90-c598-4074-9c80-d5e1565ff705","system_id":"levelo_inurba_marseille","lat":43.23064,"lon":5.3549,"is_reserved":false,"is_disabled":false,"rental_uris":{"android":"levelo://app?vid=519c0d90-c598-4074-9c80-d5e1565ff705","ios":"levelo://app?vid=519c0d90-c598-4074-9c80-d5e1565ff705"},"vehicle_type_id":"4","last_reported":1740150576,"current_range_meters":18800,"station_id":"cpo3342slgdg3j2ifvpg","pricing_plan_id":"cebpf4jnsgd1na2vs0mg"},{"bike_id":"3a43ace8-46e0-4cc5-977d-6ac662eae449","system_id":"levelo_inurba_marseille","lat":43.30143,"lon":5.38073,"is_reserved":false,"is_disabled":false,"rental_uris":{"android":"levelo://app?vid=3a43ace8-46e0-4cc5-977d-6ac662eae449","ios":"levelo://app?vid=3a43ace8-46e0-4cc5-977d-6ac662eae449"},"vehicle_type_id":"4","last_reported":1740150576,"current_range_meters":18800,"station_id":"ce4bgjp2rcd13ifvqbh0","pricing_plan_id":"cebpf4jnsgd1na2vs0mg"},{"bike_id":"ecb792ba-e590-4d62-97cc-1e9b429064df","system_id":"levelo_inurba_marseille","lat":43.25012,"lon":5.38895,"is_reserved":false,"is_disabled":false,"rental_uris":{"android":"levelo://app?vid=ecb792ba-e590-4d62-97cc-1e9b429064df","ios":"levelo://app?vid=ecb792ba-e590-4d62-97cc-1e9b429064df"},"vehicle_type_id":"4","last_reported":1740150576,"current_range_meters":18800,"station_id":"ce4bhgp2rcd13ifvqfd0","pricing_plan_id":"cebpf4jnsgd1na2vs0mg"},{"bike_id":"d5566d2e-78e8-488f-b3e7-c9c338cd491f","system_id":"levelo_inurba_marseille","lat":43.27503,"lon":5.4245,"is_reserved":false,"is_disabled":false,"rental_uris":{"android":"levelo://app?vid=d5566d2e-78e8-488f-b3e7-c9c338cd491f","ios":"levelo://app?vid=d5566d2e-78e8-488f-b3e7-c9c338cd491f"},"vehicle_type_id":"4","last_reported":1740150576,"current_range_meters":18800,"station_id":"ce4bhn92rcd13ifvqgrg","pricing_plan_id":"cebpf4jnsgd1na2vs0mg"},{"bike_id":"1deaa002-5243-48d8-8779-82891264a102","system_id":"levelo_inurba_marseille","lat":43.24805,"lon":5.37439,"is_reserved":false,"is_disabled":false,"rental_uris":{"android":"levelo://app?vid=1deaa002-5243-48d8-8779-82891264a102","ios":"levelo://app?vid=1deaa002-5243-48d8-8779-82891264a102"},"vehicle_type_id":"4","last_reported":1740150576,"current_range_meters":18800,"station_id":"ce4bhgh2rcd13ifvqfb0","pricing_plan_id":"cebpf4jnsgd1na2vs0mg"},{"bike_id":"d98e29be-7c7a-4ebc-95ae-cd403abc761b","system_id":"levelo_inurba_marseille","lat":43.30806,"lon":5.4353,"is_reserved":false,"is_disabled":false,"rental_uris":{"android":"levelo://app?vid=d98e29be-7c7a-4ebc-95ae-cd403abc761b","ios":"levelo://app?vid=d98e29be-7c7a-4ebc-95ae-cd403abc761b"},"vehicle_type_id":"4","last_reported":1740150576,"current_range_meters":18800,"station_id":"ce4bhph2rcd13ifvqheg","pricing_plan_id":"cebpf4jnsgd1na2vs0mg"},{"bike_id":"9eb76a76-4d91-4fa9-8be0-964eb6834628","system_id":"levelo_inurba_marseille","lat":43.29572,"lon":5.42285,"is_reserved":false,"is_disabled":false,"rental_uris":{"android":"levelo://app?vid=9eb76a76-4d91-4fa9-8be0-964eb6834628","ios":"levelo://app?vid=9eb76a76-4d91-4fa9-8be0-964eb6834628"},"vehicle_type_id":"4","last_reported":1740150576,"current_range_meters":18800,"station_id":"ce4bhph2rcd13ifvqhdg","pricing_plan_id":"cebpf4jnsgd1na2vs0mg"},{"bike_id":"dab960d9-1ede-46dd-ade3-a5360c9021cf","system_id":"levelo_inurba_marseille","lat":43.23196,"lon":5.35545,"is_reserved":false,"is_disabled":false,"rental_uris":{"android":"levelo://app?vid=dab960d9-1ede-46dd-ade3-a5360c9021cf","ios":"levelo://app?vid=dab960d9-1ede-46dd-ade3-a5360c9021cf"},"vehicle_type_id":"4","last_reported":1740150576,"current_range_meters":18800,"station_id":"ce4bhu92rcd13ifvqi70","pricing_plan_id":"cebpf4jnsgd1na2vs0mg"},{"bike_id":"418204bb-d845-489c-a63c-8be02144db94","system_id":"levelo_inurba_marseille","lat":43.31469,"lon":5.37389,"is_reserved":false,"is_disabled":false,"rental_uris":{"android":"levelo://app?vid=418204bb-d845-489c-a63c-8be02144db94","ios":"levelo://app?vid=418204bb-d845-489c-a63c-8be02144db94"},"vehicle_type_id":"4","last_reported":1740150576,"current_range_meters":18800,"station_id":"","pricing_plan_id":"cebpf4jnsgd1na2vs0mg"},{"bike_id":"330d64ce-5713-4328-9727-7f6f0bc2e963","system_id":"levelo_inurba_marseille","lat":43.24078,"lon":5.3775,"is_reserved":false,"is_disabled":false,"rental_uris":{"android":"levelo://app?vid=330d64ce-5713-4328-9727-7f6f0bc2e963","ios":"levelo://app?vid=330d64ce-5713-4328-9727-7f6f0bc2e963"},"vehicle_type_id":"4","last_reported":1740150576,"current_range_meters":18800,"station_id":"ce4bhnp2rcd13ifvqgvg","pricing_plan_id":"cebpf4jnsgd1na2vs0mg"},{"bike_id":"84e364eb-0bd3-4a3c-8233-6ea88f117d5c","system_id":"levelo_inurba_marseille","lat":43.30157,"lon":5.38078,"is_reserved":false,"is_disabled":false,"rental_uris":{"android":"levelo://app?vid=84e364eb-0bd3-4a3c-8233-6ea88f117d5c","ios":"levelo://app?vid=84e364eb-0bd3-4a3c-8233-6ea88f117d5c"},"vehicle_type_id":"4","last_reported":1740150576,"current_range_meters":18800,"station_id":"ce4bgjp2rcd13ifvqbh0","pricing_plan_id":"cebpf4jnsgd1na2vs0mg"},{"bike_id":"af04c52e-64bc-4b40-9c5d-f4b0968fc255","system_id":"levelo_inurba_marseille","lat":43.24057,"lon":5.37714,"is_reserved":false,"is_disabled":false,"rental_uris":{"android":"levelo://app?vid=af04c52e-64bc-4b40-9c5d-f4b0968fc255","ios":"levelo://app?vid=af04c52e-64bc-4b40-9c5d-f4b0968fc255"},"vehicle_type_id":"4","last_reported":1740150576,"current_range_meters":18800,"station_id":"ce4bhnp2rcd13ifvqgvg","pricing_plan_id":"cebpf4jnsgd1na2vs0mg"},{"bike_id":"a7c4fa13-c21c-42ce-82ab-11370de54a3d","system_id":"levelo_inurba_marseille","lat":43.28006,"lon":5.40028,"is_reserved":false,"is_disabled":false,"rental_uris":{"android":"levelo://app?vid=a7c4fa13-c21c-42ce-82ab-11370de54a3d","ios":"levelo://app?vid=a7c4fa13-c21c-42ce-82ab-11370de54a3d"},"vehicle_type_id":"4","last_reported":1740150576,"current_range_meters":19200,"station_id":"ce4bho92rcd13ifvqh4g","pricing_plan_id":"cebpf4jnsgd1na2vs0mg"},{"bike_id":"46bfb48e-1bd6-4675-8665-fe5c6b1cdb8e","system_id":"levelo_inurba_marseille","lat":43.25108,"lon":5.4033,"is_reserved":false,"is_disabled":false,"rental_uris":{"android":"levelo://app?vid=46bfb48e-1bd6-4675-8665-fe5c6b1cdb8e","ios":"levelo://app?vid=46bfb48e-1bd6-4675-8665-fe5c6b1cdb8e"},"vehicle_type_id":"4","last_reported":1740150576,"current_range_meters":19200,"station_id":"","pricing_plan_id":"cebpf4jnsgd1na2vs0mg"},{"bike_id":"c10e3ef8-8a9c-4f21-8d33-5a11cdfaa9a9","system_id":"levelo_inurba_marseille","lat":43.31371,"lon":5.38504,"is_reserved":false,"is_disabled":false,"rental_uris":{"android":"levelo://app?vid=c10e3ef8-8a9c-4f21-8d33-5a11cdfaa9a9","ios":"levelo://app?vid=c10e3ef8-8a9c-4f21-8d33-5a11cdfaa9a9"},"vehicle_type_id":"4","last_reported":1740150576,"current_range_meters":19200,"station_id":"ce4bgt92rcd13ifvqcf0","pricing_plan_id":"cebpf4jnsgd1na2vs0mg"},{"bike_id":"e63cbd10-cd77-4ed0-a39a-9be005a5c0e8","system_id":"levelo_inurba_marseille","lat":43.3358,"lon":5.41024,"is_reserved":false,"is_disabled":false,"rental_uris":{"android":"levelo://app?vid=e63cbd10-cd77-4ed0-a39a-9be005a5c0e8","ios":"levelo://app?vid=e63cbd10-cd77-4ed0-a39a-9be005a5c0e8"},"vehicle_type_id":"4","last_reported":1740150576,"current_range_meters":19200,"station_id":"ce4bhqh2rcd13ifvqhmg","pricing_plan_id":"cebpf4jnsgd1na2vs0mg"},{"bike_id":"e716fddf-78d5-4295-b258-1d3f8d33d054","system_id":"levelo_inurba_marseille","lat":43.26213,"lon":5.37443,"is_reserved":false,"is_disabled":false,"rental_uris":{"android":"levelo://app?vid=e716fddf-78d5-4295-b258-1d3f8d33d054","ios":"levelo://app?vid=e716fddf-78d5-4295-b258-1d3f8d33d054"},"vehicle_type_id":"4","last_reported":1740150576,"current_range_meters":19200,"station_id":"ce4bhgp2rcd13ifvqfc0","pricing_plan_id":"cebpf4jnsgd1na2vs0mg"},{"bike_id":"655461b4-a378-4488-adf6-8ee5f09ad70a","system_id":"levelo_inurba_marseille","lat":43.31374,"lon":5.38502,"is_reserved":false,"is_disabled":false,"rental_uris":{"android":"levelo://app?vid=655461b4-a378-4488-adf6-8ee5f09ad70a","ios":"levelo://app?vid=655461b4-a378-4488-adf6-8ee5f09ad70a"},"vehicle_type_id":"4","last_reported":1740150576,"current_range_meters":19200,"station_id":"ce4bgt92rcd13ifvqcf0","pricing_plan_id":"cebpf4jnsgd1na2vs0mg"},{"bike_id":"1d026085-a323-42a9-a4d1-7b9194e89113","system_id":"levelo_inurba_marseille","lat":43.30893,"lon":5.37189,"is_reserved":false,"is_disabled":false,"rental_uris":{"android":"levelo://app?vid=1d026085-a323-42a9-a4d1-7b9194e89113","ios":"levelo://app?vid=1d026085-a323-42a9-a4d1-7b9194e89113"},"vehicle_type_id":"4","last_reported":1740150576,"current_range_meters":19200,"station_id":"ce4bguh2rcd13ifvqckg","pricing_plan_id":"cebpf4jnsgd1na2vs0mg"},{"bike_id":"ef7c2e20-cf38-4d73-ba80-b3e6ab794351","system_id":"levelo_inurba_marseille","lat":43.31333,"lon":5.39692,"is_reserved":false,"is_disabled":false,"rental_uris":{"android":"levelo://app?vid=ef7c2e20-cf38-4d73-ba80-b3e6ab794351","ios":"levelo://app?vid=ef7c2e20-cf38-4d73-ba80-b3e6ab794351"},"vehicle_type_id":"4","last_reported":1740150576,"current_range_meters":19200,"station_id":"ce4bgvp2rcd13ifvqcu0","pricing_plan_id":"cebpf4jnsgd1na2vs0mg"},{"bike_id":"87a60775-dbfc-400f-89f7-80c1df4e7588","system_id":"levelo_inurba_marseille","lat":43.293673,"lon":5.378478,"is_reserved":false,"is_disabled":false,"rental_uris":{"android":"levelo://app?vid=87a60775-dbfc-400f-89f7-80c1df4e7588","ios":"levelo://app?vid=87a60775-dbfc-400f-89f7-80c1df4e7588"},"vehicle_type_id":"4","last_reported":1740150576,"current_range_meters":19200,"station_id":"ce4bgk12rcd13ifvqbi0","pricing_plan_id":"cebpf4jnsgd1na2vs0mg"},{"bike_id":"6897935d-90c4-4aaa-81bd-a334d1112cb3","system_id":"levelo_inurba_marseille","lat":43.24692,"lon":5.38172,"is_reserved":false,"is_disabled":false,"rental_uris":{"android":"levelo://app?vid=6897935d-90c4-4aaa-81bd-a334d1112cb3","ios":"levelo://app?vid=6897935d-90c4-4aaa-81bd-a334d1112cb3"},"vehicle_type_id":"4","last_reported":1740150576,"current_range_meters":19600,"station_id":"ce4bhih2rcd13ifvqfr0","pricing_plan_id":"cebpf4jnsgd1na2vs0mg"},{"bike_id":"8b52c24a-60e9-4f95-8f6d-a404db75239c","system_id":"levelo_inurba_marseille","lat":43.27359,"lon":5.36238,"is_reserved":false,"is_disabled":false,"rental_uris":{"android":"levelo://app?vid=8b52c24a-60e9-4f95-8f6d-a404db75239c","ios":"levelo://app?vid=8b52c24a-60e9-4f95-8f6d-a404db75239c"},"vehicle_type_id":"4","last_reported":1740150576,"current_range_meters":19600,"station_id":"ce4bhbh2rcd13ifvqeo0","pricing_plan_id":"cebpf4jnsgd1na2vs0mg"},{"bike_id":"364f3e51-fd29-4ae7-837e-e9b95d49470c","system_id":"levelo_inurba_marseille","lat":43.30153,"lon":5.38081,"is_reserved":false,"is_disabled":false,"rental_uris":{"android":"levelo://app?vid=364f3e51-fd29-4ae7-837e-e9b95d49470c","ios":"levelo://app?vid=364f3e51-fd29-4ae7-837e-e9b95d49470c"},"vehicle_type_id":"4","last_reported":1740150576,"current_range_meters":19600,"station_id":"ce4bgjp2rcd13ifvqbh0","pricing_plan_id":"cebpf4jnsgd1na2vs0mg"},{"bike_id":"3bd3e656-41ba-4c4e-a459-b18961e4cb0d","system_id":"levelo_inurba_marseille","lat":43.30939,"lon":5.4015,"is_reserved":false,"is_disabled":false,"rental_uris":{"android":"levelo://app?vid=3bd3e656-41ba-4c4e-a459-b18961e4cb0d","ios":"levelo://app?vid=3bd3e656-41ba-4c4e-a459-b18961e4cb0d"},"vehicle_type_id":"4","last_reported":1740150576,"current_range_meters":19600,"station_id":"ce4bgvp2rcd13ifvqct0","pricing_plan_id":"cebpf4jnsgd1na2vs0mg"},{"bike_id":"8c20ab15-f04e-4e58-be71-0abf1d05d250","system_id":"levelo_inurba_marseille","lat":43.23965,"lon":5.36623,"is_reserved":false,"is_disabled":false,"rental_uris":{"android":"levelo://app?vid=8c20ab15-f04e-4e58-be71-0abf1d05d250","ios":"levelo://app?vid=8c20ab15-f04e-4e58-be71-0abf1d05d250"},"vehicle_type_id":"4","last_reported":1740150576,"current_range_meters":19600,"station_id":"ce4bhi12rcd13ifvqfp0","pricing_plan_id":"cebpf4jnsgd1na2vs0mg"},{"bike_id":"1b34faa4-a592-4e9c-8183-46ceb41d7473","system_id":"levelo_inurba_marseille","lat":43.31173,"lon":5.38707,"is_reserved":false,"is_disabled":false,"rental_uris":{"android":"levelo://app?vid=1b34faa4-a592-4e9c-8183-46ceb41d7473","ios":"levelo://app?vid=1b34faa4-a592-4e9c-8183-46ceb41d7473"},"vehicle_type_id":"4","last_reported":1740150576,"current_range_meters":19600,"station_id":"ce4bgv12rcd13ifvqcp0","pricing_plan_id":"cebpf4jnsgd1na2vs0mg"},{"bike_id":"1d29bc73-3847-4812-8658-51d1a51c3e2d","system_id":"levelo_inurba_marseille","lat":43.30884,"lon":5.37203,"is_reserved":false,"is_disabled":false,"rental_uris":{"android":"levelo://app?vid=1d29bc73-3847-4812-8658-51d1a51c3e2d","ios":"levelo://app?vid=1d29bc73-3847-4812-8658-51d1a51c3e2d"},"vehicle_type_id":"4","last_reported":1740150576,"current_range_meters":19600,"station_id":"ce4bguh2rcd13ifvqckg","pricing_plan_id":"cebpf4jnsgd1na2vs0mg"},{"bike_id":"38f9bc40-639e-4f64-87e9-15092cc7344e","system_id":"levelo_inurba_marseille","lat":43.34408,"lon":5.38157,"is_reserved":false,"is_disabled":false,"rental_uris":{"android":"levelo://app?vid=38f9bc40-639e-4f64-87e9-15092cc7344e","ios":"levelo://app?vid=38f9bc40-639e-4f64-87e9-15092cc7344e"},"vehicle_type_id":"4","last_reported":1740150576,"current_range_meters":19600,"station_id":"","pricing_plan_id":"cebpf4jnsgd1na2vs0mg"},{"bike_id":"ab46b189-6bae-4129-a7fd-10b3ccd5a48e","system_id":"levelo_inurba_marseille","lat":43.27198,"lon":5.40002,"is_reserved":false,"is_disabled":false,"rental_uris":{"android":"levelo://app?vid=ab46b189-6bae-4129-a7fd-10b3ccd5a48e","ios":"levelo://app?vid=ab46b189-6bae-4129-a7fd-10b3ccd5a48e"},"vehicle_type_id":"4","last_reported":1740150576,"current_range_meters":19600,"station_id":"","pricing_plan_id":"cebpf4jnsgd1na2vs0mg"},{"bike_id":"7962d863-1f38-42ab-ae86-da1aa00d5013","system_id":"levelo_inurba_marseille","lat":43.30137,"lon":5.37415,"is_reserved":false,"is_disabled":false,"rental_uris":{"android":"levelo://app?vid=7962d863-1f38-42ab-ae86-da1aa00d5013","ios":"levelo://app?vid=7962d863-1f38-42ab-ae86-da1aa00d5013"},"vehicle_type_id":"4","last_reported":1740150576,"current_range_meters":19600,"station_id":"ce4bgs92rcd13ifvqcc0","pricing_plan_id":"cebpf4jnsgd1na2vs0mg"},{"bike_id":"f5298310-14cd-4aed-bc3f-841e7d37dcf5","system_id":"levelo_inurba_marseille","lat":43.32656,"lon":5.40991,"is_reserved":false,"is_disabled":true,"rental_uris":{"android":"levelo://app?vid=f5298310-14cd-4aed-bc3f-841e7d37dcf5","ios":"levelo://app?vid=f5298310-14cd-4aed-bc3f-841e7d37dcf5"},"vehicle_type_id":"4","last_reported":1740150576,"current_range_meters":19600,"station_id":"ce4bhpp2rcd13ifvqhgg","pricing_plan_id":"cebpf4jnsgd1na2vs0mg"},{"bike_id":"17b2ebc3-0553-4166-bc89-f646218cb5d5","system_id":"levelo_inurba_marseille","lat":43.24801,"lon":5.3745,"is_reserved":false,"is_disabled":false,"rental_uris":{"android":"levelo://app?vid=17b2ebc3-0553-4166-bc89-f646218cb5d5","ios":"levelo://app?vid=17b2ebc3-0553-4166-bc89-f646218cb5d5"},"vehicle_type_id":"4","last_reported":1740150576,"current_range_meters":19600,"station_id":"ce4bhgh2rcd13ifvqfb0","pricing_plan_id":"cebpf4jnsgd1na2vs0mg"},{"bike_id":"503982b2-2ba7-4482-aa5e-307a7c3ca8e4","system_id":"levelo_inurba_marseille","lat":43.31722,"lon":5.40428,"is_reserved":false,"is_disabled":false,"rental_uris":{"android":"levelo://app?vid=503982b2-2ba7-4482-aa5e-307a7c3ca8e4","ios":"levelo://app?vid=503982b2-2ba7-4482-aa5e-307a7c3ca8e4"},"vehicle_type_id":"4","last_reported":1740150576,"current_range_meters":20000,"station_id":"","pricing_plan_id":"cebpf4jnsgd1na2vs0mg"},{"bike_id":"de936cf6-a8ec-4c7d-8fdd-a5ab4cf7366d","system_id":"levelo_inurba_marseille","lat":43.26204,"lon":5.37929,"is_reserved":false,"is_disabled":false,"rental_uris":{"android":"levelo://app?vid=de936cf6-a8ec-4c7d-8fdd-a5ab4cf7366d","ios":"levelo://app?vid=de936cf6-a8ec-4c7d-8fdd-a5ab4cf7366d"},"vehicle_type_id":"4","last_reported":1740150576,"current_range_meters":20000,"station_id":"ce4bhjp2rcd13ifvqg90","pricing_plan_id":"cebpf4jnsgd1na2vs0mg"},{"bike_id":"37c2f06c-e8f8-4d31-83bd-fce56cf703c3","system_id":"levelo_inurba_marseille","lat":43.30084,"lon":5.39096,"is_reserved":false,"is_disabled":false,"rental_uris":{"android":"levelo://app?vid=37c2f06c-e8f8-4d31-83bd-fce56cf703c3","ios":"levelo://app?vid=37c2f06c-e8f8-4d31-83bd-fce56cf703c3"},"vehicle_type_id":"4","last_reported":1740150576,"current_range_meters":20000,"station_id":"ce4bh192rcd13ifvqdb0","pricing_plan_id":"cebpf4jnsgd1na2vs0mg"},{"bike_id":"34144c38-9ff2-48c1-be58-74a70d91b09e","system_id":"levelo_inurba_marseille","lat":43.28004,"lon":5.41658,"is_reserved":false,"is_disabled":false,"rental_uris":{"android":"levelo://app?vid=34144c38-9ff2-48c1-be58-74a70d91b09e","ios":"levelo://app?vid=34144c38-9ff2-48c1-be58-74a70d91b09e"},"vehicle_type_id":"4","last_reported":1740150576,"current_range_meters":20000,"station_id":"ce4bho12rcd13ifvqh1g","pricing_plan_id":"cebpf4jnsgd1na2vs0mg"},{"bike_id":"3307539e-16e5-457c-9daf-1311bdad1b6a","system_id":"levelo_inurba_marseille","lat":43.299,"lon":5.43675,"is_reserved":false,"is_disabled":false,"rental_uris":{"android":"levelo://app?vid=3307539e-16e5-457c-9daf-1311bdad1b6a","ios":"levelo://app?vid=3307539e-16e5-457c-9daf-1311bdad1b6a"},"vehicle_type_id":"4","last_reported":1740150576,"current_range_meters":20000,"station_id":"ce4bhpp2rcd13ifvqhfg","pricing_plan_id":"cebpf4jnsgd1na2vs0mg"},{"bike_id":"1d51445a-57ba-4784-8cf3-269280097f09","system_id":"levelo_inurba_marseille","lat":43.2844,"lon":5.39192,"is_reserved":false,"is_disabled":false,"rental_uris":{"android":"levelo://app?vid=1d51445a-57ba-4784-8cf3-269280097f09","ios":"levelo://app?vid=1d51445a-57ba-4784-8cf3-269280097f09"},"vehicle_type_id":"4","last_reported":1740150576,"current_range_meters":20400,"station_id":"ce4bhoh2rcd13ifvqh5g","pricing_plan_id":"cebpf4jnsgd1na2vs0mg"},{"bike_id":"a723f7be-c231-4e2f-b681-a93702373611","system_id":"levelo_inurba_marseille","lat":43.3091,"lon":5.36835,"is_reserved":false,"is_disabled":false,"rental_uris":{"android":"levelo://app?vid=a723f7be-c231-4e2f-b681-a93702373611","ios":"levelo://app?vid=a723f7be-c231-4e2f-b681-a93702373611"},"vehicle_type_id":"4","last_reported":1740150576,"current_range_meters":20400,"station_id":"ce4bgn92rcd13ifvqbvg","pricing_plan_id":"cebpf4jnsgd1na2vs0mg"},{"bike_id":"3956cc44-fc75-4f94-89d5-9c133698b60d","system_id":"levelo_inurba_marseille","lat":43.29966,"lon":5.37151,"is_reserved":false,"is_disabled":true,"rental_uris":{"android":"levelo://app?vid=3956cc44-fc75-4f94-89d5-9c133698b60d","ios":"levelo://app?vid=3956cc44-fc75-4f94-89d5-9c133698b60d"},"vehicle_type_id":"4","last_reported":1740150576,"current_range_meters":20400,"station_id":"ce4bgr92rcd13ifvqc7g","pricing_plan_id":"cebpf4jnsgd1na2vs0mg"},{"bike_id":"c2a577a3-44a6-426d-aac1-5124994319eb","system_id":"levelo_inurba_marseille","lat":43.28,"lon":5.40001,"is_reserved":false,"is_disabled":false,"rental_uris":{"android":"levelo://app?vid=c2a577a3-44a6-426d-aac1-5124994319eb","ios":"levelo://app?vid=c2a577a3-44a6-426d-aac1-5124994319eb"},"vehicle_type_id":"4","last_reported":1740150576,"current_range_meters":20800,"station_id":"ce4bho92rcd13ifvqh4g","pricing_plan_id":"cebpf4jnsgd1na2vs0mg"},{"bike_id":"21489318-d43e-4c5d-be7b-1f50adcb5eae","system_id":"levelo_inurba_marseille","lat":43.2749,"lon":5.42455,"is_reserved":false,"is_disabled":false,"rental_uris":{"android":"levelo://app?vid=21489318-d43e-4c5d-be7b-1f50adcb5eae","ios":"levelo://app?vid=21489318-d43e-4c5d-be7b-1f50adcb5eae"},"vehicle_type_id":"4","last_reported":1740150576,"current_range_meters":20800,"station_id":"ce4bhn92rcd13ifvqgrg","pricing_plan_id":"cebpf4jnsgd1na2vs0mg"},{"bike_id":"d35d2ebc-a0ea-4d8f-b32a-7f76662f5255","system_id":"levelo_inurba_marseille","lat":43.23966,"lon":5.3663,"is_reserved":false,"is_disabled":false,"rental_uris":{"android":"levelo://app?vid=d35d2ebc-a0ea-4d8f-b32a-7f76662f5255","ios":"levelo://app?vid=d35d2ebc-a0ea-4d8f-b32a-7f76662f5255"},"vehicle_type_id":"4","last_reported":1740150576,"current_range_meters":20800,"station_id":"ce4bhi12rcd13ifvqfp0","pricing_plan_id":"cebpf4jnsgd1na2vs0mg"},{"bike_id":"5fa54a66-aa7a-4180-af29-92effe81f219","system_id":"levelo_inurba_marseille","lat":43.30588,"lon":5.38382,"is_reserved":false,"is_disabled":false,"rental_uris":{"android":"levelo://app?vid=5fa54a66-aa7a-4180-af29-92effe81f219","ios":"levelo://app?vid=5fa54a66-aa7a-4180-af29-92effe81f219"},"vehicle_type_id":"4","last_reported":1740150576,"current_range_meters":20800,"station_id":"ce4bgg92rcd13ifvqb30","pricing_plan_id":"cebpf4jnsgd1na2vs0mg"},{"bike_id":"626f3363-f398-4a16-9c0e-4587f8fe2d8b","system_id":"levelo_inurba_marseille","lat":43.29577,"lon":5.39964,"is_reserved":false,"is_disabled":false,"rental_uris":{"android":"levelo://app?vid=626f3363-f398-4a16-9c0e-4587f8fe2d8b","ios":"levelo://app?vid=626f3363-f398-4a16-9c0e-4587f8fe2d8b"},"vehicle_type_id":"4","last_reported":1740150576,"current_range_meters":20800,"station_id":"ce4bh312rcd13ifvqdj0","pricing_plan_id":"cebpf4jnsgd1na2vs0mg"},{"bike_id":"073518a5-4dc0-447e-9477-a67f73b2a5a2","system_id":"levelo_inurba_marseille","lat":43.32365,"lon":5.36741,"is_reserved":false,"is_disabled":false,"rental_uris":{"android":"levelo://app?vid=073518a5-4dc0-447e-9477-a67f73b2a5a2","ios":"levelo://app?vid=073518a5-4dc0-447e-9477-a67f73b2a5a2"},