{"last_updated":1756404858,"ttl":60,"version":"2.2","data":{"bikes":[{"bike_id":"2074dbdc-38dc-4ef2-9d21-3eb20743b43e","system_id":"levelo_inurba_marseille","lat":43.3236,"lon":5.36758,"is_reserved":false,"is_disabled":false,"rental_uris":{"android":"levelo://app?vid=2074dbdc-38dc-4ef2-9d21-3eb20743b43e","ios":"levelo://app?vid=2074dbdc-38dc-4ef2-9d21-3eb20743b43e"},"vehicle_type_id":"4","last_reported":1756404858,"current_range_meters":3200,"station_id":"ce4bhsh2rcd13ifvqi2g","pricing_plan_id":"cebpf4jnsgd1na2vs0mg"},{"bike_id":"b4fbf2b6-9cf5-44f7-8474-6002bf8f9361","system_id":"levelo_inurba_marseille","lat":43.28997,"lon":5.3559,"is_reserved":false,"is_disabled":false,"rental_uris":{"android":"levelo://app?vid=b4fbf2b6-9cf5-44f7-8474-6002bf8f9361","ios":"levelo://app?vid=b4fbf2b6-9cf5-44f7-8474-6002bf8f9361"},"vehicle_type_id":"4","last_reported":1756404858,"current_range_meters":3200,"station_id":"ce4bhb92rcd13ifvqen0","pricing_plan_id":"cebpf4jnsgd1na2vs0mg"},{"bike_id":"51842e17-ef10-4624-a23e-c8a182427991","system_id":"levelo_inurba_marseille","lat":43.31611,"lon":5.38184,"is_reserved":false,"is_disabled":false,"rental_uris":{"android":"levelo://app?vid=51842e17-ef10-4624-a23e-c8a182427991","ios":"levelo://app?vid=51842e17-ef10-4624-a23e-c8a182427991"},"vehicle_type_id":"4","last_reported":1756404858,"current_range_meters":3200,"station_id":"","pricing_plan_id":"cebpf4jnsgd1na2vs0mg"},{"bike_id":"5d65dcbc-ee93-42f0-ac7e-066cf73464d5","system_id":"levelo_inurba_marseille","lat":43.3117,"lon":5.38717,"is_reserved":false,"is_disabled":false,"rental_uris":{"android":"levelo://app?vid=5d65dcbc-ee93-42f0-ac7e-066cf73464d5","ios":"levelo://app?vid=5d65dcbc-ee93-42f0-ac7e-066cf73464d5"},"vehicle_type_id":"4","last_reported":1756404858,"current_range_meters":3200,"station_id":"ce4bgv12rcd13ifvqcp0","pricing_plan_id":"cebpf4jnsgd1na2vs0mg"},{"bike_id":"f1866682-c1f5-4eea-b5be-b97fa266071d","system_id":"levelo_inurba_marseille","lat":43.29611,"lon":5.37723,"is_reserved":false,"is_disabled":false,"rental_uris":{"android":"levelo://app?vid=f1866682-c1f5-4eea-b5be-b97fa266071d","ios":"levelo://app?vid=f1866682-c1f5-4eea-b5be-b97fa266071d"},"vehicle_type_id":"4","last_reported":1756404858,"current_range_meters":3600,"station_id":"ce4bgi92rcd13ifvqb90","pricing_plan_id":"cebpf4jnsgd1na2vs0mg"},{"bike_id":"b937509b-3a5c-4ea0-838b-1bffb8d95da4","system_id":"levelo_inurba_marseille","lat":43.34662,"lon":5.34648,"is_reserved":false,"is_disabled":false,"rental_uris":{"android":"levelo://app?vid=b937509b-3a5c-4ea0-838b-1bffb8d95da4","ios":"levelo://app?vid=b937509b-3a5c-4ea0-838b-1bffb8d95da4"},"vehicle_type_id":"4","last_reported":1756404858,"current_range_meters":3600,"station_id":"","pricing_plan_id":"cebpf4jnsgd1na2vs0mg"},{"bike_id":"9ebbca0f-8b0f-49e0-bbc0-5934ebb0e846","system_id":"levelo_inurba_marseille","lat":43.21188,"lon":5.35064,"is_reserved":false,"is_disabled":false,"rental_uris":{"android":"levelo://app?vid=9ebbca0f-8b0f-49e0-bbc0-5934ebb0e846","ios":"levelo://app?vid=9ebbca0f-8b0f-49e0-bbc0-5934ebb0e846"},"vehicle_type_id":"4","last_reported":1756404858,"current_range_meters":3600,"station_id":"st_cvj6sg6p6f1abm77japg","pricing_plan_id":"cebpf4jnsgd1na2vs0mg"},{"bike_id":"78e7f2f5-94f1-4403-897f-ec4eccd086a8","system_id":"levelo_inurba_marseille","lat":43.28164,"lon":5.42646,"is_reserved":false,"is_disabled":false,"rental_uris":{"android":"levelo://app?vid=78e7f2f5-94f1-4403-897f-ec4eccd086a8","ios":"levelo://app?vid=78e7f2f5-94f1-4403-897f-ec4eccd086a8"},"vehicle_type_id":"4","last_reported":1756404858,"current_range_meters":3600,"station_id":"ce4bhnh2rcd13ifvqgug","pricing_plan_id":"cebpf4jnsgd1na2vs0mg"},{"bike_id":"0565e8e8-14f5-4524-81a6-0165412b43ce","system_id":"levelo_inurba_marseille","lat":43.31359,"lon":5.38498,"is_reserved":false,"is_disabled":false,"rental_uris":{"android":"levelo://app?vid=0565e8e8-14f5-4524-81a6-0165412b43ce","ios":"levelo://app?vid=0565e8e8-14f5-4524-81a6-0165412b43ce"},"vehicle_type_id":"4","last_reported":1756404858,"current_range_meters":3600,"station_id":"ce4bgt92rcd13ifvqcf0","pricing_plan_id":"cebpf4jnsgd1na2vs0mg"},{"bike_id":"b7f5d4fc-8af5-442f-b471-e28f343fd67e","system_id":"levelo_inurba_marseille","lat":43.33765,"lon":5.3749,"is_reserved":false,"is_disabled":false,"rental_uris":{"android":"levelo://app?vid=b7f5d4fc-8af5-442f-b471-e28f343fd67e","ios":"levelo://app?vid=b7f5d4fc-8af5-442f-b471-e28f343fd67e"},"vehicle_type_id":"4","last_reported":1756404858,"current_range_meters":3600,"station_id":"","pricing_plan_id":"cebpf4jnsgd1na2vs0mg"},{"bike_id":"4f456c51-7c2f-4b4c-8b94-e0ceab61c84a","system_id":"levelo_inurba_marseille","lat":43.25497,"lon":5.37651,"is_reserved":false,"is_disabled":true,"rental_uris":{"android":"levelo://app?vid=4f456c51-7c2f-4b4c-8b94-e0ceab61c84a","ios":"levelo://app?vid=4f456c51-7c2f-4b4c-8b94-e0ceab61c84a"},"vehicle_type_id":"4","last_reported":1756404858,"current_range_meters":4000,"station_id":"ce4bhh12rcd13ifvqff0","pricing_plan_id":"cebpf4jnsgd1na2vs0mg"},{"bike_id":"0963a50e-3df1-4983-bfdd-ff8a06d65e60","system_id":"levelo_inurba_marseille","lat":43.29276,"lon":5.38493,"is_reserved":false,"is_disabled":false,"rental_uris":{"android":"levelo://app?vid=0963a50e-3df1-4983-bfdd-ff8a06d65e60","ios":"levelo://app?vid=0963a50e-3df1-4983-bfdd-ff8a06d65e60"},"vehicle_type_id":"4","last_reported":1756404858,"current_range_meters":4400,"station_id":"","pricing_plan_id":"cebpf4jnsgd1na2vs0mg"},{"bike_id":"69a01144-4cb0-4f43-b8a7-d8bba1210d75","system_id":"levelo_inurba_marseille","lat":43.3157,"lon":5.37464,"is_reserved":false,"is_disabled":false,"rental_uris":{"android":"levelo://app?vid=69a01144-4cb0-4f43-b8a7-d8bba1210d75","ios":"levelo://app?vid=69a01144-4cb0-4f43-b8a7-d8bba1210d75"},"vehicle_type_id":"4","last_reported":1756404858,"current_range_meters":4000,"station_id":"","pricing_plan_id":"cebpf4jnsgd1na2vs0mg"},{"bike_id":"d5eda96e-c878-4981-897f-66369acbda75","system_id":"levelo_inurba_marseille","lat":43.29199,"lon":5.35817,"is_reserved":false,"is_disabled":false,"rental_uris":{"android":"levelo://app?vid=d5eda96e-c878-4981-897f-66369acbda75","ios":"levelo://app?vid=d5eda96e-c878-4981-897f-66369acbda75"},"vehicle_type_id":"4","last_reported":1756404858,"current_range_meters":4400,"station_id":"ce4bhb12rcd13ifvqel0","pricing_plan_id":"cebpf4jnsgd1na2vs0mg"},{"bike_id":"c7ef4f6b-6ab1-42e9-a496-c1817b324587","system_id":"levelo_inurba_marseille","lat":43.262038,"lon":5.379212,"is_reserved":false,"is_disabled":false,"rental_uris":{"android":"levelo://app?vid=c7ef4f6b-6ab1-42e9-a496-c1817b324587","ios":"levelo://app?vid=c7ef4f6b-6ab1-42e9-a496-c1817b324587"},"vehicle_type_id":"4","last_reported":1756404858,"current_range_meters":4800,"station_id":"ce4bhjp2rcd13ifvqg90","pricing_plan_id":"cebpf4jnsgd1na2vs0mg"},{"bike_id":"049567b9-88c5-4b44-9de8-c02edfa28eed","system_id":"levelo_inurba_marseille","lat":43.30951,"lon":5.39029,"is_reserved":false,"is_disabled":false,"rental_uris":{"android":"levelo://app?vid=049567b9-88c5-4b44-9de8-c02edfa28eed","ios":"levelo://app?vid=049567b9-88c5-4b44-9de8-c02edfa28eed"},"vehicle_type_id":"4","last_reported":1756404858,"current_range_meters":5600,"station_id":"ce4bgup2rcd13ifvqco0","pricing_plan_id":"cebpf4jnsgd1na2vs0mg"},{"bike_id":"740cde71-9d8a-4f7d-88e9-482bc9199f59","system_id":"levelo_inurba_marseille","lat":43.29624,"lon":5.40595,"is_reserved":false,"is_disabled":false,"rental_uris":{"android":"levelo://app?vid=740cde71-9d8a-4f7d-88e9-482bc9199f59","ios":"levelo://app?vid=740cde71-9d8a-4f7d-88e9-482bc9199f59"},"vehicle_type_id":"4","last_reported":1756404858,"current_range_meters":5600,"station_id":"ce4bh0h2rcd13ifvqd60","pricing_plan_id":"cebpf4jnsgd1na2vs0mg"},{"bike_id":"6924c68d-a7bd-4969-a59c-8d974729c471","system_id":"levelo_inurba_marseille","lat":43.3111,"lon":5.37783,"is_reserved":false,"is_disabled":false,"rental_uris":{"android":"levelo://app?vid=6924c68d-a7bd-4969-a59c-8d974729c471","ios":"levelo://app?vid=6924c68d-a7bd-4969-a59c-8d974729c471"},"vehicle_type_id":"4","last_reported":1756404858,"current_range_meters":4800,"station_id":"ce4bgt92rcd13ifvqcg0","pricing_plan_id":"cebpf4jnsgd1na2vs0mg"},{"bike_id":"1419129e-f0de-4052-abf1-7e5e3f2a2700","system_id":"levelo_inurba_marseille","lat":43.29213,"lon":5.38028,"is_reserved":false,"is_disabled":false,"rental_uris":{"android":"levelo://app?vid=1419129e-f0de-4052-abf1-7e5e3f2a2700","ios":"levelo://app?vid=1419129e-f0de-4052-abf1-7e5e3f2a2700"},"vehicle_type_id":"4","last_reported":1756404858,"current_range_meters":5600,"station_id":"","pricing_plan_id":"cebpf4jnsgd1na2vs0mg"},{"bike_id":"5bce688b-fc81-4596-8277-b66f54be87c1","system_id":"levelo_inurba_marseille","lat":43.337645,"lon":5.374409,"is_reserved":false,"is_disabled":false,"rental_uris":{"android":"levelo://app?vid=5bce688b-fc81-4596-8277-b66f54be87c1","ios":"levelo://app?vid=5bce688b-fc81-4596-8277-b66f54be87c1"},"vehicle_type_id":"4","last_reported":1756404858,"current_range_meters":6000,"station_id":"","pricing_plan_id":"cebpf4jnsgd1na2vs0mg"},{"bike_id":"7b59e52e-94ae-4343-8752-f448b1a39960","system_id":"levelo_inurba_marseille","lat":43.30887,"lon":5.3967,"is_reserved":false,"is_disabled":false,"rental_uris":{"android":"levelo://app?vid=7b59e52e-94ae-4343-8752-f448b1a39960","ios":"levelo://app?vid=7b59e52e-94ae-4343-8752-f448b1a39960"},"vehicle_type_id":"4","last_reported":1756404858,"current_range_meters":6000,"station_id":"ce4bh012rcd13ifvqcv0","pricing_plan_id":"cebpf4jnsgd1na2vs0mg"},{"bike_id":"4850aa47-72a9-4b5e-904e-1c32ef365712","system_id":"levelo_inurba_marseille","lat":43.28606,"lon":5.37062,"is_reserved":false,"is_disabled":false,"rental_uris":{"android":"levelo://app?vid=4850aa47-72a9-4b5e-904e-1c32ef365712","ios":"levelo://app?vid=4850aa47-72a9-4b5e-904e-1c32ef365712"},"vehicle_type_id":"4","last_reported":1756404858,"current_range_meters":6000,"station_id":"ce4bht12rcd13ifvqi60","pricing_plan_id":"cebpf4jnsgd1na2vs0mg"},{"bike_id":"67f8203d-3b5d-4bea-8bdb-26c40e18f92c","system_id":"levelo_inurba_marseille","lat":43.30798,"lon":5.43527,"is_reserved":false,"is_disabled":false,"rental_uris":{"android":"levelo://app?vid=67f8203d-3b5d-4bea-8bdb-26c40e18f92c","ios":"levelo://app?vid=67f8203d-3b5d-4bea-8bdb-26c40e18f92c"},"vehicle_type_id":"4","last_reported":1756404858,"current_range_meters":6000,"station_id":"ce4bhph2rcd13ifvqheg","pricing_plan_id":"cebpf4jnsgd1na2vs0mg"},{"bike_id":"24f5aa1f-2f94-4f26-8f26-0f5d3cb057f4","system_id":"levelo_inurba_marseille","lat":43.28774,"lon":5.42643,"is_reserved":false,"is_disabled":false,"rental_uris":{"android":"levelo://app?vid=24f5aa1f-2f94-4f26-8f26-0f5d3cb057f4","ios":"levelo://app?vid=24f5aa1f-2f94-4f26-8f26-0f5d3cb057f4"},"vehicle_type_id":"4","last_reported":1756404858,"current_range_meters":6000,"station_id":"","pricing_plan_id":"cebpf4jnsgd1na2vs0mg"},{"bike_id":"dc1810e0-1aad-4db1-a487-85b9e27c971f","system_id":"levelo_inurba_marseille","lat":43.28269,"lon":5.35072,"is_reserved":false,"is_disabled":false,"rental_uris":{"android":"levelo://app?vid=dc1810e0-1aad-4db1-a487-85b9e27c971f","ios":"levelo://app?vid=dc1810e0-1aad-4db1-a487-85b9e27c971f"},"vehicle_type_id":"4","last_reported":1756404858,"current_range_meters":6000,"station_id":"ce4bhbp2rcd13ifvqerg","pricing_plan_id":"cebpf4jnsgd1na2vs0mg"},{"bike_id":"fa93611a-cc05-4640-bd5f-493a514b0c76","system_id":"levelo_inurba_marseille","lat":43.32837,"lon":5.39172,"is_reserved":false,"is_disabled":false,"rental_uris":{"android":"levelo://app?vid=fa93611a-cc05-4640-bd5f-493a514b0c76","ios":"levelo://app?vid=fa93611a-cc05-4640-bd5f-493a514b0c76"},"vehicle_type_id":"4","last_reported":1756404858,"current_range_meters":6400,"station_id":"","pricing_plan_id":"cebpf4jnsgd1na2vs0mg"},{"bike_id":"2262277d-c8c9-4181-9993-acce97cf6b02","system_id":"levelo_inurba_marseille","lat":43.28473,"lon":5.35896,"is_reserved":false,"is_disabled":false,"rental_uris":{"android":"levelo://app?vid=2262277d-c8c9-4181-9993-acce97cf6b02","ios":"levelo://app?vid=2262277d-c8c9-4181-9993-acce97cf6b02"},"vehicle_type_id":"4","last_reported":1756404858,"current_range_meters":6400,"station_id":"ce4bhah2rcd13ifvqei0","pricing_plan_id":"cebpf4jnsgd1na2vs0mg"},{"bike_id":"606ca01d-b63b-4767-8434-263dff04f5d1","system_id":"levelo_inurba_marseille","lat":43.31364,"lon":5.38492,"is_reserved":false,"is_disabled":false,"rental_uris":{"android":"levelo://app?vid=606ca01d-b63b-4767-8434-263dff04f5d1","ios":"levelo://app?vid=606ca01d-b63b-4767-8434-263dff04f5d1"},"vehicle_type_id":"4","last_reported":1756404858,"current_range_meters":6800,"station_id":"ce4bgt92rcd13ifvqcf0","pricing_plan_id":"cebpf4jnsgd1na2vs0mg"},{"bike_id":"d898cf32-1288-4752-b064-c2fe83b398b2","system_id":"levelo_inurba_marseille","lat":43.30949,"lon":5.39057,"is_reserved":false,"is_disabled":false,"rental_uris":{"android":"levelo://app?vid=d898cf32-1288-4752-b064-c2fe83b398b2","ios":"levelo://app?vid=d898cf32-1288-4752-b064-c2fe83b398b2"},"vehicle_type_id":"4","last_reported":1756404858,"current_range_meters":6800,"station_id":"ce4bgup2rcd13ifvqco0","pricing_plan_id":"cebpf4jnsgd1na2vs0mg"},{"bike_id":"e5eabf25-4e1c-476e-b130-9f83cdcfc80c","system_id":"levelo_inurba_marseille","lat":43.29809,"lon":5.41725,"is_reserved":false,"is_disabled":false,"rental_uris":{"android":"levelo://app?vid=e5eabf25-4e1c-476e-b130-9f83cdcfc80c","ios":"levelo://app?vid=e5eabf25-4e1c-476e-b130-9f83cdcfc80c"},"vehicle_type_id":"4","last_reported":1756404858,"current_range_meters":6800,"station_id":"","pricing_plan_id":"cebpf4jnsgd1na2vs0mg"},{"bike_id":"f99ff0d3-999d-429a-ad92-9d2eabbb1318","system_id":"levelo_inurba_marseille","lat":43.304596,"lon":5.379052,"is_reserved":false,"is_disabled":false,"rental_uris":{"android":"levelo://app?vid=f99ff0d3-999d-429a-ad92-9d2eabbb1318","ios":"levelo://app?vid=f99ff0d3-999d-429a-ad92-9d2eabbb1318"},"vehicle_type_id":"4","last_reported":1756404858,"current_range_meters":6800,"station_id":"ce4bgup2rcd13ifvqcn0","pricing_plan_id":"cebpf4jnsgd1na2vs0mg"},{"bike_id":"7812210d-93ce-4b94-8b02-c2bf3465a73b","system_id":"levelo_inurba_marseille","lat":43.28623,"lon":5.35109,"is_reserved":false,"is_disabled":false,"rental_uris":{"android":"levelo://app?vid=7812210d-93ce-4b94-8b02-c2bf3465a73b","ios":"levelo://app?vid=7812210d-93ce-4b94-8b02-c2bf3465a73b"},"vehicle_type_id":"4","last_reported":1756404858,"current_range_meters":6800,"station_id":"ce4bhch2rcd13ifvqeug","pricing_plan_id":"cebpf4jnsgd1na2vs0mg"},{"bike_id":"a6ef8657-5b8a-423b-993f-c3df43dec0a0","system_id":"levelo_inurba_marseille","lat":43.337595,"lon":5.374806,"is_reserved":false,"is_disabled":false,"rental_uris":{"android":"levelo://app?vid=a6ef8657-5b8a-423b-993f-c3df43dec0a0","ios":"levelo://app?vid=a6ef8657-5b8a-423b-993f-c3df43dec0a0"},"vehicle_type_id":"4","last_reported":1756404858,"current_range_meters":6800,"station_id":"","pricing_plan_id":"cebpf4jnsgd1na2vs0mg"},{"bike_id":"d540c94e-4d5f-4882-a42a-ce181219680e","system_id":"levelo_inurba_marseille","lat":43.30886,"lon":5.39658,"is_reserved":false,"is_disabled":false,"rental_uris":{"android":"levelo://app?vid=d540c94e-4d5f-4882-a42a-ce181219680e","ios":"levelo://app?vid=d540c94e-4d5f-4882-a42a-ce181219680e"},"vehicle_type_id":"4","last_reported":1756404858,"current_range_meters":6400,"station_id":"ce4bh012rcd13ifvqcv0","pricing_plan_id":"cebpf4jnsgd1na2vs0mg"},{"bike_id":"efe0bb0f-c92c-4efb-b29f-a81448ec5eb2","system_id":"levelo_inurba_marseille","lat":43.29044,"lon":5.37566,"is_reserved":false,"is_disabled":true,"rental_uris":{"android":"levelo://app?vid=efe0bb0f-c92c-4efb-b29f-a81448ec5eb2","ios":"levelo://app?vid=efe0bb0f-c92c-4efb-b29f-a81448ec5eb2"},"vehicle_type_id":"4","last_reported":1756404858,"current_range_meters":8000,"station_id":"ce4bh692rcd13ifvqe90","pricing_plan_id":"cebpf4jnsgd1na2vs0mg"},{"bike_id":"bf0360ab-8370-49d4-ae7c-8cfae75bc32f","system_id":"levelo_inurba_marseille","lat":43.30949,"lon":5.39027,"is_reserved":false,"is_disabled":false,"rental_uris":{"android":"levelo://app?vid=bf0360ab-8370-49d4-ae7c-8cfae75bc32f","ios":"levelo://app?vid=bf0360ab-8370-49d4-ae7c-8cfae75bc32f"},"vehicle_type_id":"4","last_reported":1756404858,"current_range_meters":7200,"station_id":"ce4bgup2rcd13ifvqco0","pricing_plan_id":"cebpf4jnsgd1na2vs0mg"},{"bike_id":"0e40d996-37ff-4e7d-9f59-200bad2fb5ec","system_id":"levelo_inurba_marseille","lat":43.30956,"lon":5.39041,"is_reserved":false,"is_disabled":false,"rental_uris":{"android":"levelo://app?vid=0e40d996-37ff-4e7d-9f59-200bad2fb5ec","ios":"levelo://app?vid=0e40d996-37ff-4e7d-9f59-200bad2fb5ec"},"vehicle_type_id":"4","last_reported":1756404858,"current_range_meters":7200,"station_id":"ce4bgup2rcd13ifvqco0","pricing_plan_id":"cebpf4jnsgd1na2vs0mg"},{"bike_id":"61992c3c-c97c-4a04-b4f5-5bb5d77a7ea4","system_id":"levelo_inurba_marseille","lat":43.30254,"lon":5.4008,"is_reserved":false,"is_disabled":false,"rental_uris":{"android":"levelo://app?vid=61992c3c-c97c-4a04-b4f5-5bb5d77a7ea4","ios":"levelo://app?vid=61992c3c-c97c-4a04-b4f5-5bb5d77a7ea4"},"vehicle_type_id":"4","last_reported":1756404858,"current_range_meters":7200,"station_id":"ce4bgvh2rcd13ifvqcs0","pricing_plan_id":"cebpf4jnsgd1na2vs0mg"},{"bike_id":"32f31bc9-b8f0-41fe-b573-eefb1116e6bb","system_id":"levelo_inurba_marseille","lat":43.25335,"lon":5.42171,"is_reserved":false,"is_disabled":false,"rental_uris":{"android":"levelo://app?vid=32f31bc9-b8f0-41fe-b573-eefb1116e6bb","ios":"levelo://app?vid=32f31bc9-b8f0-41fe-b573-eefb1116e6bb"},"vehicle_type_id":"4","last_reported":1756404858,"current_range_meters":8000,"station_id":"st_d2m65c5bi1j21697t3ng","pricing_plan_id":"cebpf4jnsgd1na2vs0mg"},{"bike_id":"509a96f6-68a9-4801-8a88-d9f4333bab5d","system_id":"levelo_inurba_marseille","lat":43.25719,"lon":5.41116,"is_reserved":false,"is_disabled":false,"rental_uris":{"android":"levelo://app?vid=509a96f6-68a9-4801-8a88-d9f4333bab5d","ios":"levelo://app?vid=509a96f6-68a9-4801-8a88-d9f4333bab5d"},"vehicle_type_id":"4","last_reported":1756404858,"current_range_meters":8000,"station_id":"ce4bhkp2rcd13ifvqgd0","pricing_plan_id":"cebpf4jnsgd1na2vs0mg"},{"bike_id":"a9a368be-590e-4dca-89ca-102d1abeb31f","system_id":"levelo_inurba_marseille","lat":43.30952,"lon":5.39051,"is_reserved":false,"is_disabled":false,"rental_uris":{"android":"levelo://app?vid=a9a368be-590e-4dca-89ca-102d1abeb31f","ios":"levelo://app?vid=a9a368be-590e-4dca-89ca-102d1abeb31f"},"vehicle_type_id":"4","last_reported":1756404858,"current_range_meters":8400,"station_id":"ce4bgup2rcd13ifvqco0","pricing_plan_id":"cebpf4jnsgd1na2vs0mg"},{"bike_id":"e36ab571-6b83-4012-910d-c8ac275ef467","system_id":"levelo_inurba_marseille","lat":43.294562,"lon":5.374092,"is_reserved":false,"is_disabled":false,"rental_uris":{"android":"levelo://app?vid=e36ab571-6b83-4012-910d-c8ac275ef467","ios":"levelo://app?vid=e36ab571-6b83-4012-910d-c8ac275ef467"},"vehicle_type_id":"4","last_reported":1756404858,"current_range_meters":8400,"station_id":"","pricing_plan_id":"cebpf4jnsgd1na2vs0mg"},{"bike_id":"3ebbe411-c9ad-41ae-9df5-ad5b7601336c","system_id":"levelo_inurba_marseille","lat":43.260287,"lon":5.375511,"is_reserved":false,"is_disabled":true,"rental_uris":{"android":"levelo://app?vid=3ebbe411-c9ad-41ae-9df5-ad5b7601336c","ios":"levelo://app?vid=3ebbe411-c9ad-41ae-9df5-ad5b7601336c"},"vehicle_type_id":"4","last_reported":1756404858,"current_range_meters":8400,"station_id":"ce4bhgh2rcd13ifvqfa0","pricing_plan_id":"cebpf4jnsgd1na2vs0mg"},{"bike_id":"9f3ff929-cef6-4245-886c-a67ad12f6275","system_id":"levelo_inurba_marseille","lat":43.30538,"lon":5.36722,"is_reserved":false,"is_disabled":false,"rental_uris":{"android":"levelo://app?vid=9f3ff929-cef6-4245-886c-a67ad12f6275","ios":"levelo://app?vid=9f3ff929-cef6-4245-886c-a67ad12f6275"},"vehicle_type_id":"4","last_reported":1756404858,"current_range_meters":8800,"station_id":"ce4bgrp2rcd13ifvqc9g","pricing_plan_id":"cebpf4jnsgd1na2vs0mg"},{"bike_id":"5cb4ad77-acd6-4d46-b82a-44b4638409c9","system_id":"levelo_inurba_marseille","lat":43.30932,"lon":5.40154,"is_reserved":false,"is_disabled":false,"rental_uris":{"android":"levelo://app?vid=5cb4ad77-acd6-4d46-b82a-44b4638409c9","ios":"levelo://app?vid=5cb4ad77-acd6-4d46-b82a-44b4638409c9"},"vehicle_type_id":"4","last_reported":1756404858,"current_range_meters":8400,"station_id":"","pricing_plan_id":"cebpf4jnsgd1na2vs0mg"},{"bike_id":"d1519a34-899d-47cd-b130-36151142ec6a","system_id":"levelo_inurba_marseille","lat":43.30951,"lon":5.39035,"is_reserved":false,"is_disabled":false,"rental_uris":{"android":"levelo://app?vid=d1519a34-899d-47cd-b130-36151142ec6a","ios":"levelo://app?vid=d1519a34-899d-47cd-b130-36151142ec6a"},"vehicle_type_id":"4","last_reported":1756404858,"current_range_meters":8400,"station_id":"ce4bgup2rcd13ifvqco0","pricing_plan_id":"cebpf4jnsgd1na2vs0mg"},{"bike_id":"647f6b5e-b8f9-46eb-9033-6cec00d0894f","system_id":"levelo_inurba_marseille","lat":43.27373,"lon":5.36262,"is_reserved":false,"is_disabled":false,"rental_uris":{"android":"levelo://app?vid=647f6b5e-b8f9-46eb-9033-6cec00d0894f","ios":"levelo://app?vid=647f6b5e-b8f9-46eb-9033-6cec00d0894f"},"vehicle_type_id":"4","last_reported":1756404858,"current_range_meters":8400,"station_id":"ce4bhbh2rcd13ifvqeo0","pricing_plan_id":"cebpf4jnsgd1na2vs0mg"},{"bike_id":"452c64c1-c18e-429f-ac02-5f3cc7af3941","system_id":"levelo_inurba_marseille","lat":43.21754,"lon":5.34611,"is_reserved":false,"is_disabled":false,"rental_uris":{"android":"levelo://app?vid=452c64c1-c18e-429f-ac02-5f3cc7af3941","ios":"levelo://app?vid=452c64c1-c18e-429f-ac02-5f3cc7af3941"},"vehicle_type_id":"4","last_reported":1756404858,"current_range_meters":8400,"station_id":"st_cvj6r9ubvosntc0bgbag","pricing_plan_id":"cebpf4jnsgd1na2vs0mg"},{"bike_id":"2ca5adfb-92cc-4ef8-bc3b-4f4881e97b66","system_id":"levelo_inurba_marseille","lat":43.26544,"lon":5.37297,"is_reserved":false,"is_disabled":false,"rental_uris":{"android":"levelo://app?vid=2ca5adfb-92cc-4ef8-bc3b-4f4881e97b66","ios":"levelo://app?vid=2ca5adfb-92cc-4ef8-bc3b-4f4881e97b66"},"vehicle_type_id":"4","last_reported":1756404858,"current_range_meters":8800,"station_id":"ce4bhg12rcd13ifvqf70","pricing_plan_id":"cebpf4jnsgd1na2vs0mg"},{"bike_id":"6c80fd1c-eb61-4cad-8ef7-acb6ba2d50d4","system_id":"levelo_inurba_marseille","lat":43.28693,"lon":5.39977,"is_reserved":false,"is_disabled":false,"rental_uris":{"android":"levelo://app?vid=6c80fd1c-eb61-4cad-8ef7-acb6ba2d50d4","ios":"levelo://app?vid=6c80fd1c-eb61-4cad-8ef7-acb6ba2d50d4"},"vehicle_type_id":"4","last_reported":1756404858,"current_range_meters":8800,"station_id":"ce4bho92rcd13ifvqh3g","pricing_plan_id":"cebpf4jnsgd1na2vs0mg"},{"bike_id":"ab6a17b6-e7bf-4e2d-a0f8-5609d1a52051","system_id":"levelo_inurba_marseille","lat":43.32474,"lon":5.36558,"is_reserved":false,"is_disabled":false,"rental_uris":{"android":"levelo://app?vid=ab6a17b6-e7bf-4e2d-a0f8-5609d1a52051","ios":"levelo://app?vid=ab6a17b6-e7bf-4e2d-a0f8-5609d1a52051"},"vehicle_type_id":"4","last_reported":1756404858,"current_range_meters":8400,"station_id":"ce4bhs12rcd13ifvqhvg","pricing_plan_id":"cebpf4jnsgd1na2vs0mg"},{"bike_id":"2d7e4a30-8b0f-42cf-ad2e-6c676f168cef","system_id":"levelo_inurba_marseille","lat":43.23142,"lon":5.43686,"is_reserved":false,"is_disabled":false,"rental_uris":{"android":"levelo://app?vid=2d7e4a30-8b0f-42cf-ad2e-6c676f168cef","ios":"levelo://app?vid=2d7e4a30-8b0f-42cf-ad2e-6c676f168cef"},"vehicle_type_id":"4","last_reported":1756404858,"current_range_meters":8800,"station_id":"ce4bhmp2rcd13ifvqgog","pricing_plan_id":"cebpf4jnsgd1na2vs0mg"},{"bike_id":"3a062470-a1cf-41f4-8e16-927fc99de3c6","system_id":"levelo_inurba_marseille","lat":43.243772,"lon":5.370568,"is_reserved":false,"is_disabled":false,"rental_uris":{"android":"levelo://app?vid=3a062470-a1cf-41f4-8e16-927fc99de3c6","ios":"levelo://app?vid=3a062470-a1cf-41f4-8e16-927fc99de3c6"},"vehicle_type_id":"4","last_reported":1756404858,"current_range_meters":8800,"station_id":"ce4bhhh2rcd13ifvqfk0","pricing_plan_id":"cebpf4jnsgd1na2vs0mg"},{"bike_id":"43b3d230-8591-4a67-abc9-e0520bab409e","system_id":"levelo_inurba_marseille","lat":43.26787,"lon":5.39416,"is_reserved":false,"is_disabled":false,"rental_uris":{"android":"levelo://app?vid=43b3d230-8591-4a67-abc9-e0520bab409e","ios":"levelo://app?vid=43b3d230-8591-4a67-abc9-e0520bab409e"},"vehicle_type_id":"4","last_reported":1756404858,"current_range_meters":8800,"station_id":"ce4bhh12rcd13ifvqfg0","pricing_plan_id":"cebpf4jnsgd1na2vs0mg"},{"bike_id":"a2bc673f-0411-4b31-93a9-ceee14bf7d8d","system_id":"levelo_inurba_marseille","lat":43.30949,"lon":5.39044,"is_reserved":false,"is_disabled":false,"rental_uris":{"android":"levelo://app?vid=a2bc673f-0411-4b31-93a9-ceee14bf7d8d","ios":"levelo://app?vid=a2bc673f-0411-4b31-93a9-ceee14bf7d8d"},"vehicle_type_id":"4","last_reported":1756404858,"current_range_meters":8800,"station_id":"ce4bgup2rcd13ifvqco0","pricing_plan_id":"cebpf4jnsgd1na2vs0mg"},{"bike_id":"3493c9ea-0c71-47e7-8ade-4b2bdeb504f1","system_id":"levelo_inurba_marseille","lat":43.28391,"lon":5.37513,"is_reserved":false,"is_disabled":false,"rental_uris":{"android":"levelo://app?vid=3493c9ea-0c71-47e7-8ade-4b2bdeb504f1","ios":"levelo://app?vid=3493c9ea-0c71-47e7-8ade-4b2bdeb504f1"},"vehicle_type_id":"4","last_reported":1756404858,"current_range_meters":9200,"station_id":"ce4bh412rcd13ifvqds0","pricing_plan_id":"cebpf4jnsgd1na2vs0mg"},{"bike_id":"2cdfeade-d334-4099-8e5f-e7925b2b1867","system_id":"levelo_inurba_marseille","lat":43.21749,"lon":5.34606,"is_reserved":false,"is_disabled":false,"rental_uris":{"android":"levelo://app?vid=2cdfeade-d334-4099-8e5f-e7925b2b1867","ios":"levelo://app?vid=2cdfeade-d334-4099-8e5f-e7925b2b1867"},"vehicle_type_id":"4","last_reported":1756404858,"current_range_meters":9200,"station_id":"st_cvj6r9ubvosntc0bgbag","pricing_plan_id":"cebpf4jnsgd1na2vs0mg"},{"bike_id":"77156377-48e3-4434-b0ee-2f71280534b9","system_id":"levelo_inurba_marseille","lat":43.27264,"lon":5.41053,"is_reserved":false,"is_disabled":false,"rental_uris":{"android":"levelo://app?vid=77156377-48e3-4434-b0ee-2f71280534b9","ios":"levelo://app?vid=77156377-48e3-4434-b0ee-2f71280534b9"},"vehicle_type_id":"4","last_reported":1756404858,"current_range_meters":9200,"station_id":"","pricing_plan_id":"cebpf4jnsgd1na2vs0mg"},{"bike_id":"9b56db58-1b11-4db1-8755-a084fd68f252","system_id":"levelo_inurba_marseille","lat":43.28931,"lon":5.36382,"is_reserved":false,"is_disabled":false,"rental_uris":{"android":"levelo://app?vid=9b56db58-1b11-4db1-8755-a084fd68f252","ios":"levelo://app?vid=9b56db58-1b11-4db1-8755-a084fd68f252"},"vehicle_type_id":"4","last_reported":1756404858,"current_range_meters":9200,"station_id":"ce4bhc92rcd13ifvqetg","pricing_plan_id":"cebpf4jnsgd1na2vs0mg"},{"bike_id":"a9154d37-d4b3-48ba-a68a-3b3fd935ff28","system_id":"levelo_inurba_marseille","lat":43.30957,"lon":5.39042,"is_reserved":false,"is_disabled":false,"rental_uris":{"android":"levelo://app?vid=a9154d37-d4b3-48ba-a68a-3b3fd935ff28","ios":"levelo://app?vid=a9154d37-d4b3-48ba-a68a-3b3fd935ff28"},"vehicle_type_id":"4","last_reported":1756404858,"current_range_meters":9200,"station_id":"ce4bgup2rcd13ifvqco0","pricing_plan_id":"cebpf4jnsgd1na2vs0mg"},{"bike_id":"4216e33a-7dae-4583-942b-2b9da6ed76ec","system_id":"levelo_inurba_marseille","lat":43.29894,"lon":5.43671,"is_reserved":false,"is_disabled":false,"rental_uris":{"android":"levelo://app?vid=4216e33a-7dae-4583-942b-2b9da6ed76ec","ios":"levelo://app?vid=4216e33a-7dae-4583-942b-2b9da6ed76ec"},"vehicle_type_id":"4","last_reported":1756404858,"current_range_meters":9200,"station_id":"ce4bhpp2rcd13ifvqhfg","pricing_plan_id":"cebpf4jnsgd1na2vs0mg"},{"bike_id":"e4e41db0-2cce-4086-b814-3d2226e5a658","system_id":"levelo_inurba_marseille","lat":43.25582,"lon":5.38233,"is_reserved":false,"is_disabled":false,"rental_uris":{"android":"levelo://app?vid=e4e41db0-2cce-4086-b814-3d2226e5a658","ios":"levelo://app?vid=e4e41db0-2cce-4086-b814-3d2226e5a658"},"vehicle_type_id":"4","last_reported":1756404858,"current_range_meters":9600,"station_id":"ce4bhih2rcd13ifvqfs0","pricing_plan_id":"cebpf4jnsgd1na2vs0mg"},{"bike_id":"5c26a54e-1e97-4ad3-a16d-614ad930b130","system_id":"levelo_inurba_marseille","lat":43.32104,"lon":5.36782,"is_reserved":false,"is_disabled":false,"rental_uris":{"android":"levelo://app?vid=5c26a54e-1e97-4ad3-a16d-614ad930b130","ios":"levelo://app?vid=5c26a54e-1e97-4ad3-a16d-614ad930b130"},"vehicle_type_id":"4","last_reported":1756404858,"current_range_meters":9600,"station_id":"ce4bhrh2rcd13ifvqhug","pricing_plan_id":"cebpf4jnsgd1na2vs0mg"},{"bike_id":"07a8de21-5923-4dd1-9f82-14348f5b1169","system_id":"levelo_inurba_marseille","lat":43.26543,"lon":5.37288,"is_reserved":false,"is_disabled":false,"rental_uris":{"android":"levelo://app?vid=07a8de21-5923-4dd1-9f82-14348f5b1169","ios":"levelo://app?vid=07a8de21-5923-4dd1-9f82-14348f5b1169"},"vehicle_type_id":"4","last_reported":1756404858,"current_range_meters":9600,"station_id":"ce4bhg12rcd13ifvqf70","pricing_plan_id":"cebpf4jnsgd1na2vs0mg"},{"bike_id":"7d09ef9f-0184-45ce-803c-83307eefc5b2","system_id":"levelo_inurba_marseille","lat":43.29306,"lon":5.37464,"is_reserved":false,"is_disabled":false,"rental_uris":{"android":"levelo://app?vid=7d09ef9f-0184-45ce-803c-83307eefc5b2","ios":"levelo://app?vid=7d09ef9f-0184-45ce-803c-83307eefc5b2"},"vehicle_type_id":"4","last_reported":1756404858,"current_range_meters":9600,"station_id":"","pricing_plan_id":"cebpf4jnsgd1na2vs0mg"},{"bike_id":"3091e42a-5528-4881-bef2-02a10038c1e8","system_id":"levelo_inurba_marseille","lat":43.27295,"lon":5.36287,"is_reserved":false,"is_disabled":false,"rental_uris":{"android":"levelo://app?vid=3091e42a-5528-4881-bef2-02a10038c1e8","ios":"levelo://app?vid=3091e42a-5528-4881-bef2-02a10038c1e8"},"vehicle_type_id":"4","last_reported":1756404858,"current_range_meters":9600,"station_id":"","pricing_plan_id":"cebpf4jnsgd1na2vs0mg"},{"bike_id":"34d78590-e2c9-45e1-9c71-8c011dec5507","system_id":"levelo_inurba_marseille","lat":43.30951,"lon":5.39031,"is_reserved":false,"is_disabled":false,"rental_uris":{"android":"levelo://app?vid=34d78590-e2c9-45e1-9c71-8c011dec5507","ios":"levelo://app?vid=34d78590-e2c9-45e1-9c71-8c011dec5507"},"vehicle_type_id":"4","last_reported":1756404858,"current_range_meters":9600,"station_id":"ce4bgup2rcd13ifvqco0","pricing_plan_id":"cebpf4jnsgd1na2vs0mg"},{"bike_id":"3b28f4d3-76f3-4388-8d9b-ae33bbc44a44","system_id":"levelo_inurba_marseille","lat":43.24391,"lon":5.37048,"is_reserved":false,"is_disabled":false,"rental_uris":{"android":"levelo://app?vid=3b28f4d3-76f3-4388-8d9b-ae33bbc44a44","ios":"levelo://app?vid=3b28f4d3-76f3-4388-8d9b-ae33bbc44a44"},"vehicle_type_id":"4","last_reported":1756404858,"current_range_meters":10000,"station_id":"ce4bhhh2rcd13ifvqfk0","pricing_plan_id":"cebpf4jnsgd1na2vs0mg"},{"bike_id":"ac0ea835-99bd-43af-8946-31e8413cf1fb","system_id":"levelo_inurba_marseille","lat":43.32482,"lon":5.36578,"is_reserved":false,"is_disabled":false,"rental_uris":{"android":"levelo://app?vid=ac0ea835-99bd-43af-8946-31e8413cf1fb","ios":"levelo://app?vid=ac0ea835-99bd-43af-8946-31e8413cf1fb"},"vehicle_type_id":"4","last_reported":1756404858,"current_range_meters":10000,"station_id":"ce4bhs12rcd13ifvqhvg","pricing_plan_id":"cebpf4jnsgd1na2vs0mg"},{"bike_id":"1bd9e4b5-5d9b-46d2-af2e-062d3fd95170","system_id":"levelo_inurba_marseille","lat":43.28405,"lon":5.37532,"is_reserved":false,"is_disabled":false,"rental_uris":{"android":"levelo://app?vid=1bd9e4b5-5d9b-46d2-af2e-062d3fd95170","ios":"levelo://app?vid=1bd9e4b5-5d9b-46d2-af2e-062d3fd95170"},"vehicle_type_id":"4","last_reported":1756404858,"current_range_meters":10000,"station_id":"ce4bh412rcd13ifvqds0","pricing_plan_id":"cebpf4jnsgd1na2vs0mg"},{"bike_id":"8637e1aa-9c9a-41e1-a5d5-f0342a65118e","system_id":"levelo_inurba_marseille","lat":43.3171,"lon":5.43713,"is_reserved":false,"is_disabled":false,"rental_uris":{"android":"levelo://app?vid=8637e1aa-9c9a-41e1-a5d5-f0342a65118e","ios":"levelo://app?vid=8637e1aa-9c9a-41e1-a5d5-f0342a65118e"},"vehicle_type_id":"4","last_reported":1756404858,"current_range_meters":9600,"station_id":"ce4bhp92rcd13ifvqhcg","pricing_plan_id":"cebpf4jnsgd1na2vs0mg"},{"bike_id":"f7ebf9ac-40f7-47f6-ae67-008945d7737d","system_id":"levelo_inurba_marseille","lat":43.284,"lon":5.37505,"is_reserved":false,"is_disabled":false,"rental_uris":{"android":"levelo://app?vid=f7ebf9ac-40f7-47f6-ae67-008945d7737d","ios":"levelo://app?vid=f7ebf9ac-40f7-47f6-ae67-008945d7737d"},"vehicle_type_id":"4","last_reported":1756404858,"current_range_meters":10800,"station_id":"ce4bh412rcd13ifvqds0","pricing_plan_id":"cebpf4jnsgd1na2vs0mg"},{"bike_id":"72ad73f8-ec78-4d1c-adef-5e4bde17ed13","system_id":"levelo_inurba_marseille","lat":43.28237,"lon":5.39067,"is_reserved":false,"is_disabled":true,"rental_uris":{"android":"levelo://app?vid=72ad73f8-ec78-4d1c-adef-5e4bde17ed13","ios":"levelo://app?vid=72ad73f8-ec78-4d1c-adef-5e4bde17ed13"},"vehicle_type_id":"4","last_reported":1756404858,"current_range_meters":10800,"station_id":"","pricing_plan_id":"cebpf4jnsgd1na2vs0mg"},{"bike_id":"7383ccd7-b76b-46a7-a71c-37fbd62fe766","system_id":"levelo_inurba_marseille","lat":43.24995,"lon":5.38936,"is_reserved":false,"is_disabled":false,"rental_uris":{"android":"levelo://app?vid=7383ccd7-b76b-46a7-a71c-37fbd62fe766","ios":"levelo://app?vid=7383ccd7-b76b-46a7-a71c-37fbd62fe766"},"vehicle_type_id":"4","last_reported":1756404858,"current_range_meters":14400,"station_id":"ce4bhgp2rcd13ifvqfd0","pricing_plan_id":"cebpf4jnsgd1na2vs0mg"},{"bike_id":"baf23113-7082-4065-a6eb-ae0f8cc08033","system_id":"levelo_inurba_marseille","lat":43.32358,"lon":5.36765,"is_reserved":false,"is_disabled":false,"rental_uris":{"android":"levelo://app?vid=baf23113-7082-4065-a6eb-ae0f8cc08033","ios":"levelo://app?vid=baf23113-7082-4065-a6eb-ae0f8cc08033"},"vehicle_type_id":"4","last_reported":1756404858,"current_range_meters":10800,"station_id":"ce4bhsh2rcd13ifvqi2g","pricing_plan_id":"cebpf4jnsgd1na2vs0mg"},{"bike_id":"2eb60852-b14a-4d52-b2f0-b983e23e2ddf","system_id":"levelo_inurba_marseille","lat":43.21189,"lon":5.35081,"is_reserved":false,"is_disabled":false,"rental_uris":{"android":"levelo://app?vid=2eb60852-b14a-4d52-b2f0-b983e23e2ddf","ios":"levelo://app?vid=2eb60852-b14a-4d52-b2f0-b983e23e2ddf"},"vehicle_type_id":"4","last_reported":1756404858,"current_range_meters":10800,"station_id":"st_cvj6sg6p6f1abm77japg","pricing_plan_id":"cebpf4jnsgd1na2vs0mg"},{"bike_id":"a4ddb081-a1c4-4f31-a443-39419a5f1a3c","system_id":"levelo_inurba_marseille","lat":43.23143,"lon":5.4374,"is_reserved":false,"is_disabled":false,"rental_uris":{"android":"levelo://app?vid=a4ddb081-a1c4-4f31-a443-39419a5f1a3c","ios":"levelo://app?vid=a4ddb081-a1c4-4f31-a443-39419a5f1a3c"},"vehicle_type_id":"4","last_reported":1756404858,"current_range_meters":10800,"station_id":"ce4bhmp2rcd13ifvqgog","pricing_plan_id":"cebpf4jnsgd1na2vs0mg"},{"bike_id":"90bd0e81-df96-4161-ad61-5fc35b77fbce","system_id":"levelo_inurba_marseille","lat":43.25339,"lon":5.42184,"is_reserved":false,"is_disabled":false,"rental_uris":{"android":"levelo://app?vid=90bd0e81-df96-4161-ad61-5fc35b77fbce","ios":"levelo://app?vid=90bd0e81-df96-4161-ad61-5fc35b77fbce"},"vehicle_type_id":"4","last_reported":1756404858,"current_range_meters":11200,"station_id":"st_d2m65c5bi1j21697t3ng","pricing_plan_id":"cebpf4jnsgd1na2vs0mg"},{"bike_id":"a3556586-6414-4995-92f3-cc475ac0930b","system_id":"levelo_inurba_marseille","lat":43.29268,"lon":5.38442,"is_reserved":false,"is_disabled":false,"rental_uris":{"android":"levelo://app?vid=a3556586-6414-4995-92f3-cc475ac0930b","ios":"levelo://app?vid=a3556586-6414-4995-92f3-cc475ac0930b"},"vehicle_type_id":"4","last_reported":1756404858,"current_range_meters":11200,"station_id":"ce4bh692rcd13ifvqea0","pricing_plan_id":"cebpf4jnsgd1na2vs0mg"},{"bike_id":"d810acf0-5bd2-4bf1-848d-31cd30d105e6","system_id":"levelo_inurba_marseille","lat":43.269831,"lon":5.392782,"is_reserved":false,"is_disabled":false,"rental_uris":{"android":"levelo://app?vid=d810acf0-5bd2-4bf1-848d-31cd30d105e6","ios":"levelo://app?vid=d810acf0-5bd2-4bf1-848d-31cd30d105e6"},"vehicle_type_id":"4","last_reported":1756404858,"current_range_meters":11200,"station_id":"","pricing_plan_id":"cebpf4jnsgd1na2vs0mg"},{"bike_id":"5b9203b5-7e86-4267-b3a9-3d5011f98312","system_id":"levelo_inurba_marseille","lat":43.30949,"lon":5.39031,"is_reserved":false,"is_disabled":false,"rental_uris":{"android":"levelo://app?vid=5b9203b5-7e86-4267-b3a9-3d5011f98312","ios":"levelo://app?vid=5b9203b5-7e86-4267-b3a9-3d5011f98312"},"vehicle_type_id":"4","last_reported":1756404858,"current_range_meters":10800,"station_id":"ce4bgup2rcd13ifvqco0","pricing_plan_id":"cebpf4jnsgd1na2vs0mg"},{"bike_id":"3014e115-60f5-41d5-84dd-54ca0a9877ae","system_id":"levelo_inurba_marseille","lat":43.26065,"lon":5.39394,"is_reserved":false,"is_disabled":false,"rental_uris":{"android":"levelo://app?vid=3014e115-60f5-41d5-84dd-54ca0a9877ae","ios":"levelo://app?vid=3014e115-60f5-41d5-84dd-54ca0a9877ae"},"vehicle_type_id":"4","last_reported":1756404858,"current_range_meters":11200,"station_id":"ce4bhh92rcd13ifvqfj0","pricing_plan_id":"cebpf4jnsgd1na2vs0mg"},{"bike_id":"2b282b6d-c25c-4ce2-975b-2a6f3bc2b9cc","system_id":"levelo_inurba_marseille","lat":43.25511,"lon":5.37626,"is_reserved":false,"is_disabled":false,"rental_uris":{"android":"levelo://app?vid=2b282b6d-c25c-4ce2-975b-2a6f3bc2b9cc","ios":"levelo://app?vid=2b282b6d-c25c-4ce2-975b-2a6f3bc2b9cc"},"vehicle_type_id":"4","last_reported":1756404858,"current_range_meters":11200,"station_id":"ce4bhh12rcd13ifvqff0","pricing_plan_id":"cebpf4jnsgd1na2vs0mg"},{"bike_id":"825f99ee-02a3-46e4-8dd8-870f14d345a8","system_id":"levelo_inurba_marseille","lat":43.22508,"lon":5.34775,"is_reserved":false,"is_disabled":true,"rental_uris":{"android":"levelo://app?vid=825f99ee-02a3-46e4-8dd8-870f14d345a8","ios":"levelo://app?vid=825f99ee-02a3-46e4-8dd8-870f14d345a8"},"vehicle_type_id":"4","last_reported":1756404858,"current_range_meters":11600,"station_id":"","pricing_plan_id":"cebpf4jnsgd1na2vs0mg"},{"bike_id":"23ae6fed-deff-411b-8b6e-f95e32ccd4d0","system_id":"levelo_inurba_marseille","lat":43.32128,"lon":5.3678,"is_reserved":false,"is_disabled":false,"rental_uris":{"android":"levelo://app?vid=23ae6fed-deff-411b-8b6e-f95e32ccd4d0","ios":"levelo://app?vid=23ae6fed-deff-411b-8b6e-f95e32ccd4d0"},"vehicle_type_id":"4","last_reported":1756404858,"current_range_meters":11600,"station_id":"ce4bhrh2rcd13ifvqhug","pricing_plan_id":"cebpf4jnsgd1na2vs0mg"},{"bike_id":"be8aa754-85f9-40a1-9e90-c9882863c890","system_id":"levelo_inurba_marseille","lat":43.260257,"lon":5.375529,"is_reserved":false,"is_disabled":false,"rental_uris":{"android":"levelo://app?vid=be8aa754-85f9-40a1-9e90-c9882863c890","ios":"levelo://app?vid=be8aa754-85f9-40a1-9e90-c9882863c890"},"vehicle_type_id":"4","last_reported":1756404858,"current_range_meters":11600,"station_id":"ce4bhgh2rcd13ifvqfa0","pricing_plan_id":"cebpf4jnsgd1na2vs0mg"},{"bike_id":"614d961d-149b-4f71-81e8-def5ddc72ba4","system_id":"levelo_inurba_marseille","lat":43.26551,"lon":5.37278,"is_reserved":false,"is_disabled":false,"rental_uris":{"android":"levelo://app?vid=614d961d-149b-4f71-81e8-def5ddc72ba4","ios":"levelo://app?vid=614d961d-149b-4f71-81e8-def5ddc72ba4"},"vehicle_type_id":"4","last_reported":1756404858,"current_range_meters":11600,"station_id":"ce4bhg12rcd13ifvqf70","pricing_plan_id":"cebpf4jnsgd1na2vs0mg"},{"bike_id":"db4aef87-271b-41e0-8997-9048a854c24c","system_id":"levelo_inurba_marseille","lat":43.29634,"lon":5.40602,"is_reserved":false,"is_disabled":false,"rental_uris":{"android":"levelo://app?vid=db4aef87-271b-41e0-8997-9048a854c24c","ios":"levelo://app?vid=db4aef87-271b-41e0-8997-9048a854c24c"},"vehicle_type_id":"4","last_reported":1756404858,"current_range_meters":11200,"station_id":"ce4bh0h2rcd13ifvqd60","pricing_plan_id":"cebpf4jnsgd1na2vs0mg"},{"bike_id":"ab9441cc-8053-4e92-8409-e2df6cea2911","system_id":"levelo_inurba_marseille","lat":43.26192,"lon":5.37457,"is_reserved":false,"is_disabled":false,"rental_uris":{"android":"levelo://app?vid=ab9441cc-8053-4e92-8409-e2df6cea2911","ios":"levelo://app?vid=ab9441cc-8053-4e92-8409-e2df6cea2911"},"vehicle_type_id":"4","last_reported":1756404858,"current_range_meters":11600,"station_id":"ce4bhgp2rcd13ifvqfc0","pricing_plan_id":"cebpf4jnsgd1na2vs0mg"},{"bike_id":"84239937-6126-4402-8397-ac364b20f6e5","system_id":"levelo_inurba_marseille","lat":43.260313,"lon":5.37544,"is_reserved":false,"is_disabled":false,"rental_uris":{"android":"levelo://app?vid=84239937-6126-4402-8397-ac364b20f6e5","ios":"levelo://app?vid=84239937-6126-4402-8397-ac364b20f6e5"},"vehicle_type_id":"4","last_reported":1756404858,"current_range_meters":11600,"station_id":"ce4bhgh2rcd13ifvqfa0","pricing_plan_id":"cebpf4jnsgd1na2vs0mg"},{"bike_id":"7ed71dc3-f92c-46ee-8595-134bf4f84245","system_id":"levelo_inurba_marseille","lat":43.26499,"lon":5.39545,"is_reserved":false,"is_disabled":false,"rental_uris":{"android":"levelo://app?vid=7ed71dc3-f92c-46ee-8595-134bf4f84245","ios":"levelo://app?vid=7ed71dc3-f92c-46ee-8595-134bf4f84245"},"vehicle_type_id":"4","last_reported":1756404858,"current_range_meters":12000,"station_id":"ce4bhi12rcd13ifvqfq0","pricing_plan_id":"cebpf4jnsgd1na2vs0mg"},{"bike_id":"4ec86628-ff2e-4ab9-a96b-2e0ea972365d","system_id":"levelo_inurba_marseille","lat":43.30138,"lon":5.37411,"is_reserved":false,"is_disabled":false,"rental_uris":{"android":"levelo://app?vid=4ec86628-ff2e-4ab9-a96b-2e0ea972365d","ios":"levelo://app?vid=4ec86628-ff2e-4ab9-a96b-2e0ea972365d"},"vehicle_type_id":"4","last_reported":1756404858,"current_range_meters":12000,"station_id":"ce4bgs92rcd13ifvqcc0","pricing_plan_id":"cebpf4jnsgd1na2vs0mg"},{"bike_id":"d3463736-6f79-49f4-bb94-b7d077f27a86","system_id":"levelo_inurba_marseille","lat":43.265516,"lon":5.372881,"is_reserved":false,"is_disabled":false,"rental_uris":{"android":"levelo://app?vid=d3463736-6f79-49f4-bb94-b7d077f27a86","ios":"levelo://app?vid=d3463736-6f79-49f4-bb94-b7d077f27a86"},"vehicle_type_id":"4","last_reported":1756404858,"current_range_meters":12000,"station_id":"ce4bhg12rcd13ifvqf70","pricing_plan_id":"cebpf4jnsgd1na2vs0mg"},{"bike_id":"c4803868-4ecd-4b32-b141-b14bb7031c80","system_id":"levelo_inurba_marseille","lat":43.30952,"lon":5.39024,"is_reserved":false,"is_disabled":false,"rental_uris":{"android":"levelo://app?vid=c4803868-4ecd-4b32-b141-b14bb7031c80","ios":"levelo://app?vid=c4803868-4ecd-4b32-b141-b14bb7031c80"},"vehicle_type_id":"4","last_reported":1756404858,"current_range_meters":12000,"station_id":"ce4bgup2rcd13ifvqco0","pricing_plan_id":"cebpf4jnsgd1na2vs0mg"},{"bike_id":"19c53974-c8ae-45dd-b2f0-548048e9f697","system_id":"levelo_inurba_marseille","lat":43.290472,"lon":5.3591,"is_reserved":false,"is_disabled":false,"rental_uris":{"android":"levelo://app?vid=19c53974-c8ae-45dd-b2f0-548048e9f697","ios":"levelo://app?vid=19c53974-c8ae-45dd-b2f0-548048e9f697"},"vehicle_type_id":"4","last_reported":1756404858,"current_range_meters":12000,"station_id":"ce4bha92rcd13ifvqeg0","pricing_plan_id":"cebpf4jnsgd1na2vs0mg"},{"bike_id":"ffeb5e56-4655-4746-a2a6-8fd18785a813","system_id":"levelo_inurba_marseille","lat":43.28417,"lon":5.34985,"is_reserved":false,"is_disabled":false,"rental_uris":{"android":"levelo://app?vid=ffeb5e56-4655-4746-a2a6-8fd18785a813","ios":"levelo://app?vid=ffeb5e56-4655-4746-a2a6-8fd18785a813"},"vehicle_type_id":"4","last_reported":1756404858,"current_range_meters":12000,"station_id":"ce4bhbh2rcd13ifvqepg","pricing_plan_id":"cebpf4jnsgd1na2vs0mg"},{"bike_id":"44a50454-8d22-4766-adb5-70a70fc61dd2","system_id":"levelo_inurba_marseille","lat":43.30582,"lon":5.39357,"is_reserved":false,"is_disabled":false,"rental_uris":{"android":"levelo://app?vid=44a50454-8d22-4766-adb5-70a70fc61dd2","ios":"levelo://app?vid=44a50454-8d22-4766-adb5-70a70fc61dd2"},"vehicle_type_id":"4","last_reported":1756404858,"current_range_meters":12000,"station_id":"ce4bh0p2rcd13ifvqd80","pricing_plan_id":"cebpf4jnsgd1na2vs0mg"},{"bike_id":"381ee211-9cbc-4e3b-a668-6f098f82d140","system_id":"levelo_inurba_marseille","lat":43.255094,"lon":5.376507,"is_reserved":false,"is_disabled":false,"rental_uris":{"android":"levelo://app?vid=381ee211-9cbc-4e3b-a668-6f098f82d140","ios":"levelo://app?vid=381ee211-9cbc-4e3b-a668-6f098f82d140"},"vehicle_type_id":"4","last_reported":1756404858,"current_range_meters":12000,"station_id":"ce4bhh12rcd13ifvqff0","pricing_plan_id":"cebpf4jnsgd1na2vs0mg"},{"bike_id":"8b8094a4-3c1a-4128-af67-1462f88377a7","system_id":"levelo_inurba_marseille","lat":43.26546,"lon":5.37296,"is_reserved":false,"is_disabled":false,"rental_uris":{"android":"levelo://app?vid=8b8094a4-3c1a-4128-af67-1462f88377a7","ios":"levelo://app?vid=8b8094a4-3c1a-4128-af67-1462f88377a7"},"vehicle_type_id":"4","last_reported":1756404858,"current_range_meters":12000,"station_id":"ce4bhg12rcd13ifvqf70","pricing_plan_id":"cebpf4jnsgd1na2vs0mg"},{"bike_id":"1091f287-02ee-4a66-888b-59c35fd65791","system_id":"levelo_inurba_marseille","lat":43.23187,"lon":5.35542,"is_reserved":false,"is_disabled":false,"rental_uris":{"android":"levelo://app?vid=1091f287-02ee-4a66-888b-59c35fd65791","ios":"levelo://app?vid=1091f287-02ee-4a66-888b-59c35fd65791"},"vehicle_type_id":"4","last_reported":1756404858,"current_range_meters":12400,"station_id":"ce4bhu92rcd13ifvqi70","pricing_plan_id":"cebpf4jnsgd1na2vs0mg"},{"bike_id":"b86f7949-3d4e-4974-af4d-46e2e30dd793","system_id":"levelo_inurba_marseille","lat":43.25014,"lon":5.38933,"is_reserved":false,"is_disabled":false,"rental_uris":{"android":"levelo://app?vid=b86f7949-3d4e-4974-af4d-46e2e30dd793","ios":"levelo://app?vid=b86f7949-3d4e-4974-af4d-46e2e30dd793"},"vehicle_type_id":"4","last_reported":1756404858,"current_range_meters":12400,"station_id":"ce4bhgp2rcd13ifvqfd0","pricing_plan_id":"cebpf4jnsgd1na2vs0mg"},{"bike_id":"e2157c09-f51d-4d60-9654-c3b735f52046","system_id":"levelo_inurba_marseille","lat":43.26194,"lon":5.37477,"is_reserved":false,"is_disabled":false,"rental_uris":{"android":"levelo://app?vid=e2157c09-f51d-4d60-9654-c3b735f52046","ios":"levelo://app?vid=e2157c09-f51d-4d60-9654-c3b735f52046"},"vehicle_type_id":"4","last_reported":1756404858,"current_range_meters":12400,"station_id":"ce4bhgp2rcd13ifvqfc0","pricing_plan_id":"cebpf4jnsgd1na2vs0mg"},{"bike_id":"e38b56e7-df93-4b5c-baf0-78277aab0858","system_id":"levelo_inurba_marseille","lat":43.28035,"lon":5.3695,"is_reserved":false,"is_disabled":false,"rental_uris":{"android":"levelo://app?vid=e38b56e7-df93-4b5c-baf0-78277aab0858","ios":"levelo://app?vid=e38b56e7-df93-4b5c-baf0-78277aab0858"},"vehicle_type_id":"4","last_reported":1756404858,"current_range_meters":12400,"station_id":"ce4bha12rcd13ifvqef0","pricing_plan_id":"cebpf4jnsgd1na2vs0mg"},{"bike_id":"43ccdb07-e14e-49c6-80ce-744148826406","system_id":"levelo_inurba_marseille","lat":43.31163,"lon":5.38719,"is_reserved":false,"is_disabled":false,"rental_uris":{"android":"levelo://app?vid=43ccdb07-e14e-49c6-80ce-744148826406","ios":"levelo://app?vid=43ccdb07-e14e-49c6-80ce-744148826406"},"vehicle_type_id":"4","last_reported":1756404858,"current_range_meters":12400,"station_id":"ce4bgv12rcd13ifvqcp0","pricing_plan_id":"cebpf4jnsgd1na2vs0mg"},{"bike_id":"9ef3d84c-2af4-4bbf-bbd2-7c529d8cca50","system_id":"levelo_inurba_marseille","lat":43.30894,"lon":5.37198,"is_reserved":false,"is_disabled":false,"rental_uris":{"android":"levelo://app?vid=9ef3d84c-2af4-4bbf-bbd2-7c529d8cca50","ios":"levelo://app?vid=9ef3d84c-2af4-4bbf-bbd2-7c529d8cca50"},"vehicle_type_id":"4","last_reported":1756404858,"current_range_meters":12400,"station_id":"ce4bguh2rcd13ifvqckg","pricing_plan_id":"cebpf4jnsgd1na2vs0mg"},{"bike_id":"57bb0382-6c93-4539-971c-86046b9ae3e9","system_id":"levelo_inurba_marseille","lat":43.26203,"lon":5.3792,"is_reserved":false,"is_disabled":false,"rental_uris":{"android":"levelo://app?vid=57bb0382-6c93-4539-971c-86046b9ae3e9","ios":"levelo://app?vid=57bb0382-6c93-4539-971c-86046b9ae3e9"},"vehicle_type_id":"4","last_reported":1756404858,"current_range_meters":12800,"station_id":"ce4bhjp2rcd13ifvqg90","pricing_plan_id":"cebpf4jnsgd1na2vs0mg"},{"bike_id":"a5c913a9-8444-4f45-9f9e-1bc06a802d9b","system_id":"levelo_inurba_marseille","lat":43.27997,"lon":5.41666,"is_reserved":false,"is_disabled":false,"rental_uris":{"android":"levelo://app?vid=a5c913a9-8444-4f45-9f9e-1bc06a802d9b","ios":"levelo://app?vid=a5c913a9-8444-4f45-9f9e-1bc06a802d9b"},"vehicle_type_id":"4","last_reported":1756404858,"current_range_meters":12800,"station_id":"ce4bho12rcd13ifvqh1g","pricing_plan_id":"cebpf4jnsgd1na2vs0mg"},{"bike_id":"4aafde4b-f6ff-4031-847f-1d335dcb1932","system_id":"levelo_inurba_marseille","lat":43.2586,"lon":5.39938,"is_reserved":false,"is_disabled":true,"rental_uris":{"android":"levelo://app?vid=4aafde4b-f6ff-4031-847f-1d335dcb1932","ios":"levelo://app?vid=4aafde4b-f6ff-4031-847f-1d335dcb1932"},"vehicle_type_id":"4","last_reported":1756404858,"current_range_meters":12800,"station_id":"ce4bhl92rcd13ifvqghg","pricing_plan_id":"cebpf4jnsgd1na2vs0mg"},{"bike_id":"615f9cb4-bc08-43f1-87ef-884359fe2e39","system_id":"levelo_inurba_marseille","lat":43.32354,"lon":5.36723,"is_reserved":false,"is_disabled":false,"rental_uris":{"android":"levelo://app?vid=615f9cb4-bc08-43f1-87ef-884359fe2e39","ios":"levelo://app?vid=615f9cb4-bc08-43f1-87ef-884359fe2e39"},"vehicle_type_id":"4","last_reported":1756404858,"current_range_meters":13600,"station_id":"ce4bhsh2rcd13ifvqi2g","pricing_plan_id":"cebpf4jnsgd1na2vs0mg"},{"bike_id":"0a2b53ef-8783-4b60-bd0c-8c0ab63ccee1","system_id":"levelo_inurba_marseille","lat":43.26038,"lon":5.37552,"is_reserved":false,"is_disabled":false,"rental_uris":{"android":"levelo://app?vid=0a2b53ef-8783-4b60-bd0c-8c0ab63ccee1","ios":"levelo://app?vid=0a2b53ef-8783-4b60-bd0c-8c0ab63ccee1"},"vehicle_type_id":"4","last_reported":1756404858,"current_range_meters":13600,"station_id":"ce4bhgh2rcd13ifvqfa0","pricing_plan_id":"cebpf4jnsgd1na2vs0mg"},{"bike_id":"731ff345-1377-45e9-acf9-0825f15b172a","system_id":"levelo_inurba_marseille","lat":43.22926,"lon":5.35381,"is_reserved":false,"is_disabled":false,"rental_uris":{"android":"levelo://app?vid=731ff345-1377-45e9-acf9-0825f15b172a","ios":"levelo://app?vid=731ff345-1377-45e9-acf9-0825f15b172a"},"vehicle_type_id":"4","last_reported":1756404858,"current_range_meters":13600,"station_id":"cpo3532slgdg3j2ikp40","pricing_plan_id":"cebpf4jnsgd1na2vs0mg"},{"bike_id":"ec0f9f0d-0796-42ac-9cf5-bb8596cdf342","system_id":"levelo_inurba_marseille","lat":43.21192,"lon":5.35073,"is_reserved":false,"is_disabled":false,"rental_uris":{"android":"levelo://app?vid=ec0f9f0d-0796-42ac-9cf5-bb8596cdf342","ios":"levelo://app?vid=ec0f9f0d-0796-42ac-9cf5-bb8596cdf342"},"vehicle_type_id":"4","last_reported":1756404858,"current_range_meters":13600,"station_id":"st_cvj6sg6p6f1abm77japg","pricing_plan_id":"cebpf4jnsgd1na2vs0mg"},{"bike_id":"057a79ec-84e1-48be-a058-132b7c6bfe17","system_id":"levelo_inurba_marseille","lat":43.29262,"lon":5.38442,"is_reserved":false,"is_disabled":false,"rental_uris":{"android":"levelo://app?vid=057a79ec-84e1-48be-a058-132b7c6bfe17","ios":"levelo://app?vid=057a79ec-84e1-48be-a058-132b7c6bfe17"},"vehicle_type_id":"4","last_reported":1756404858,"current_range_meters":13600,"station_id":"ce4bh692rcd13ifvqea0","pricing_plan_id":"cebpf4jnsgd1na2vs0mg"},{"bike_id":"b9a2bbbb-69ac-40be-bf46-27119ee9c404","system_id":"levelo_inurba_marseille","lat":43.25335,"lon":5.42194,"is_reserved":false,"is_disabled":false,"rental_uris":{"android":"levelo://app?vid=b9a2bbbb-69ac-40be-bf46-27119ee9c404","ios":"levelo://app?vid=b9a2bbbb-69ac-40be-bf46-27119ee9c404"},"vehicle_type_id":"4","last_reported":1756404858,"current_range_meters":13600,"station_id":"st_d2m65c5bi1j21697t3ng","pricing_plan_id":"cebpf4jnsgd1na2vs0mg"},{"bike_id":"5abadfda-9b0d-4a2b-b1d6-6f8b58a11589","system_id":"levelo_inurba_marseille","lat":43.26016,"lon":5.37559,"is_reserved":false,"is_disabled":false,"rental_uris":{"android":"levelo://app?vid=5abadfda-9b0d-4a2b-b1d6-6f8b58a11589","ios":"levelo://app?vid=5abadfda-9b0d-4a2b-b1d6-6f8b58a11589"},"vehicle_type_id":"4","last_reported":1756404858,"current_range_meters":13600,"station_id":"ce4bhgh2rcd13ifvqfa0","pricing_plan_id":"cebpf4jnsgd1na2vs0mg"},{"bike_id":"34027ce4-7327-43da-9f66-bdc765f954e3","system_id":"levelo_inurba_marseille","lat":43.295294,"lon":5.375061,"is_reserved":false,"is_disabled":false,"rental_uris":{"android":"levelo://app?vid=34027ce4-7327-43da-9f66-bdc765f954e3","ios":"levelo://app?vid=34027ce4-7327-43da-9f66-bdc765f954e3"},"vehicle_type_id":"4","last_reported":1756404858,"current_range_meters":14000,"station_id":"","pricing_plan_id":"cebpf4jnsgd1na2vs0mg"},{"bike_id":"b6b61bf8-a67e-4926-8c66-69c664e0e6d2","system_id":"levelo_inurba_marseille","lat":43.31881,"lon":5.40742,"is_reserved":false,"is_disabled":false,"rental_uris":{"android":"levelo://app?vid=b6b61bf8-a67e-4926-8c66-69c664e0e6d2","ios":"levelo://app?vid=b6b61bf8-a67e-4926-8c66-69c664e0e6d2"},"vehicle_type_id":"4","last_reported":1756404858,"current_range_meters":14000,"station_id":"ce4bhq12rcd13ifvqhig","pricing_plan_id":"cebpf4jnsgd1na2vs0mg"},{"bike_id":"3df5d7ba-61aa-4584-9a4e-9ba0b61ed706","system_id":"levelo_inurba_marseille","lat":43.24056,"lon":5.37751,"is_reserved":false,"is_disabled":false,"rental_uris":{"android":"levelo://app?vid=3df5d7ba-61aa-4584-9a4e-9ba0b61ed706","ios":"levelo://app?vid=3df5d7ba-61aa-4584-9a4e-9ba0b61ed706"},"vehicle_type_id":"4","last_reported":1756404858,"current_range_meters":14000,"station_id":"ce4bhnp2rcd13ifvqgvg","pricing_plan_id":"cebpf4jnsgd1na2vs0mg"},{"bike_id":"0a908185-cad3-4d92-8f51-67068ebb1335","system_id":"levelo_inurba_marseille","lat":43.27072,"lon":5.42293,"is_reserved":false,"is_disabled":false,"rental_uris":{"android":"levelo://app?vid=0a908185-cad3-4d92-8f51-67068ebb1335","ios":"levelo://app?vid=0a908185-cad3-4d92-8f51-67068ebb1335"},"vehicle_type_id":"4","last_reported":1756404858,"current_range_meters":14000,"station_id":"ce4bhk92rcd13ifvqgb0","pricing_plan_id":"cebpf4jnsgd1na2vs0mg"},{"bike_id":"96f48934-f178-4af5-a113-fdc756f3901a","system_id":"levelo_inurba_marseille","lat":43.26208,"lon":5.37448,"is_reserved":false,"is_disabled":false,"rental_uris":{"android":"levelo://app?vid=96f48934-f178-4af5-a113-fdc756f3901a","ios":"levelo://app?vid=96f48934-f178-4af5-a113-fdc756f3901a"},"vehicle_type_id":"4","last_reported":1756404858,"current_range_meters":14000,"station_id":"ce4bhgp2rcd13ifvqfc0","pricing_plan_id":"cebpf4jnsgd1na2vs0mg"},{"bike_id":"36e48d5a-910d-47e7-b396-8876fd9af2aa","system_id":"levelo_inurba_marseille","lat":43.27492,"lon":5.4245,"is_reserved":false,"is_disabled":false,"rental_uris":{"android":"levelo://app?vid=36e48d5a-910d-47e7-b396-8876fd9af2aa","ios":"levelo://app?vid=36e48d5a-910d-47e7-b396-8876fd9af2aa"},"vehicle_type_id":"4","last_reported":1756404858,"current_range_meters":14000,"station_id":"ce4bhn92rcd13ifvqgrg","pricing_plan_id":"cebpf4jnsgd1na2vs0mg"},{"bike_id":"e8c23f42-7cc6-4749-b03e-882c72382fa4","system_id":"levelo_inurba_marseille","lat":43.27168,"lon":5.40992,"is_reserved":false,"is_disabled":false,"rental_uris":{"android":"levelo://app?vid=e8c23f42-7cc6-4749-b03e-882c72382fa4","ios":"levelo://app?vid=e8c23f42-7cc6-4749-b03e-882c72382fa4"},"vehicle_type_id":"4","last_reported":1756404858,"current_range_meters":14000,"station_id":"ce4bhl12rcd13ifvqgf0","pricing_plan_id":"cebpf4jnsgd1na2vs0mg"},{"bike_id":"3a2f5063-0ed3-4139-b50b-cacffd5db734","system_id":"levelo_inurba_marseille","lat":43.32353,"lon":5.36743,"is_reserved":false,"is_disabled":false,"rental_uris":{"android":"levelo://app?vid=3a2f5063-0ed3-4139-b50b-cacffd5db734","ios":"levelo://app?vid=3a2f5063-0ed3-4139-b50b-cacffd5db734"},"vehicle_type_id":"4","last_reported":1756404858,"current_range_meters":14000,"station_id":"ce4bhsh2rcd13ifvqi2g","pricing_plan_id":"cebpf4jnsgd1na2vs0mg"},{"bike_id":"0da39ec0-0a18-4909-b73d-960ca43b955e","system_id":"levelo_inurba_marseille","lat":43.28275,"lon":5.35088,"is_reserved":false,"is_disabled":false,"rental_uris":{"android":"levelo://app?vid=0da39ec0-0a18-4909-b73d-960ca43b955e","ios":"levelo://app?vid=0da39ec0-0a18-4909-b73d-960ca43b955e"},"vehicle_type_id":"4","last_reported":1756404858,"current_range_meters":14000,"station_id":"ce4bhbp2rcd13ifvqerg","pricing_plan_id":"cebpf4jnsgd1na2vs0mg"},{"bike_id":"168232d7-29cf-454a-96d6-2f290be5281c","system_id":"levelo_inurba_marseille","lat":43.281543,"lon":5.426471,"is_reserved":false,"is_disabled":false,"rental_uris":{"android":"levelo://app?vid=168232d7-29cf-454a-96d6-2f290be5281c","ios":"levelo://app?vid=168232d7-29cf-454a-96d6-2f290be5281c"},"vehicle_type_id":"4","last_reported":1756404858,"current_range_meters":14000,"station_id":"ce4bhnh2rcd13ifvqgug","pricing_plan_id":"cebpf4jnsgd1na2vs0mg"},{"bike_id":"0c66752c-b15d-413e-9ba9-d17c64fa6144","system_id":"levelo_inurba_marseille","lat":43.26565,"lon":5.39018,"is_reserved":false,"is_disabled":false,"rental_uris":{"android":"levelo://app?vid=0c66752c-b15d-413e-9ba9-d17c64fa6144","ios":"levelo://app?vid=0c66752c-b15d-413e-9ba9-d17c64fa6144"},"vehicle_type_id":"4","last_reported":1756404858,"current_range_meters":14400,"station_id":"ce4bhe12rcd13ifvqf30","pricing_plan_id":"cebpf4jnsgd1na2vs0mg"},{"bike_id":"d1a4ea35-b6c5-4a45-b35b-a4b06696c8cb","system_id":"levelo_inurba_marseille","lat":43.25498,"lon":5.37673,"is_reserved":false,"is_disabled":false,"rental_uris":{"android":"levelo://app?vid=d1a4ea35-b6c5-4a45-b35b-a4b06696c8cb","ios":"levelo://app?vid=d1a4ea35-b6c5-4a45-b35b-a4b06696c8cb"},"vehicle_type_id":"4","last_reported":1756404858,"current_range_meters":14400,"station_id":"ce4bhh12rcd13ifvqff0","pricing_plan_id":"cebpf4jnsgd1na2vs0mg"},{"bike_id":"ef63e662-2ae1-40fe-8b03-cd05e7e75d8b","system_id":"levelo_inurba_marseille","lat":43.28936,"lon":5.36399,"is_reserved":false,"is_disabled":false,"rental_uris":{"android":"levelo://app?vid=ef63e662-2ae1-40fe-8b03-cd05e7e75d8b","ios":"levelo://app?vid=ef63e662-2ae1-40fe-8b03-cd05e7e75d8b"},"vehicle_type_id":"4","last_reported":1756404858,"current_range_meters":14400,"station_id":"ce4bhc92rcd13ifvqetg","pricing_plan_id":"cebpf4jnsgd1na2vs0mg"},{"bike_id":"dee4462b-2fda-4454-90e6-cd671a52515c","system_id":"levelo_inurba_marseille","lat":43.255001,"lon":5.376433,"is_reserved":false,"is_disabled":false,"rental_uris":{"android":"levelo://app?vid=dee4462b-2fda-4454-90e6-cd671a52515c","ios":"levelo://app?vid=dee4462b-2fda-4454-90e6-cd671a52515c"},"vehicle_type_id":"4","last_reported":1756404858,"current_range_meters":14400,"station_id":"ce4bhh12rcd13ifvqff0","pricing_plan_id":"cebpf4jnsgd1na2vs0mg"},{"bike_id":"d005b541-909d-4c5d-bde1-94285008f478","system_id":"levelo_inurba_marseille","lat":43.32361,"lon":5.36762,"is_reserved":false,"is_disabled":false,"rental_uris":{"android":"levelo://app?vid=d005b541-909d-4c5d-bde1-94285008f478","ios":"levelo://app?vid=d005b541-909d-4c5d-bde1-94285008f478"},"vehicle_type_id":"4","last_reported":1756404858,"current_range_meters":14400,"station_id":"ce4bhsh2rcd13ifvqi2g","pricing_plan_id":"cebpf4jnsgd1na2vs0mg"},{"bike_id":"8eece06c-1375-46ef-a493-ad81a979139e","system_id":"levelo_inurba_marseille","lat":43.26025,"lon":5.37547,"is_reserved":false,"is_disabled":false,"rental_uris":{"android":"levelo://app?vid=8eece06c-1375-46ef-a493-ad81a979139e","ios":"levelo://app?vid=8eece06c-1375-46ef-a493-ad81a979139e"},"vehicle_type_id":"4","last_reported":1756404858,"current_range_meters":14400,"station_id":"ce4bhgh2rcd13ifvqfa0","pricing_plan_id":"cebpf4jnsgd1na2vs0mg"},{"bike_id":"d0a92e61-7122-4ad6-a0d1-9d37d94ce062","system_id":"levelo_inurba_marseille","lat":43.297125,"lon":5.39051,"is_reserved":false,"is_disabled":false,"rental_uris":{"android":"levelo://app?vid=d0a92e61-7122-4ad6-a0d1-9d37d94ce062","ios":"levelo://app?vid=d0a92e61-7122-4ad6-a0d1-9d37d94ce062"},"vehicle_type_id":"4","last_reported":1756404858,"current_range_meters":14400,"station_id":"","pricing_plan_id":"cebpf4jnsgd1na2vs0mg"},{"bike_id":"3448cc2e-c3da-494b-a90b-ef59c8026026","system_id":"levelo_inurba_marseille","lat":43.28152,"lon":5.42644,"is_reserved":false,"is_disabled":false,"rental_uris":{"android":"levelo://app?vid=3448cc2e-c3da-494b-a90b-ef59c8026026","ios":"levelo://app?vid=3448cc2e-c3da-494b-a90b-ef59c8026026"},"vehicle_type_id":"4","last_reported":1756404858,"current_range_meters":14400,"station_id":"ce4bhnh2rcd13ifvqgug","pricing_plan_id":"cebpf4jnsgd1na2vs0mg"},{"bike_id":"e1415bda-cd6a-44a0-bfd4-67cb3460935e","system_id":"levelo_inurba_marseille","lat":43.276228,"lon":5.361066,"is_reserved":false,"is_disabled":false,"rental_uris":{"android":"levelo://app?vid=e1415bda-cd6a-44a0-bfd4-67cb3460935e","ios":"levelo://app?vid=e1415bda-cd6a-44a0-bfd4-67cb3460935e"},"vehicle_type_id":"4","last_reported":1756404858,"current_range_meters":14800,"station_id":"ce4bgj92rcd13ifvqbe0","pricing_plan_id":"cebpf4jnsgd1na2vs0mg"},{"bike_id":"f837d271-acba-4f96-a3b8-3d0885fdf42d","system_id":"levelo_inurba_marseille","lat":43.24074,"lon":5.37764,"is_reserved":false,"is_disabled":false,"rental_uris":{"android":"levelo://app?vid=f837d271-acba-4f96-a3b8-3d0885fdf42d","ios":"levelo://app?vid=f837d271-acba-4f96-a3b8-3d0885fdf42d"},"vehicle_type_id":"4","last_reported":1756404858,"current_range_meters":14800,"station_id":"ce4bhnp2rcd13ifvqgvg","pricing_plan_id":"cebpf4jnsgd1na2vs0mg"},{"bike_id":"bbd8a0c6-ba7c-40ed-83c2-3047015378d7","system_id":"levelo_inurba_marseille","lat":43.25505,"lon":5.37659,"is_reserved":false,"is_disabled":false,"rental_uris":{"android":"levelo://app?vid=bbd8a0c6-ba7c-40ed-83c2-3047015378d7","ios":"levelo://app?vid=bbd8a0c6-ba7c-40ed-83c2-3047015378d7"},"vehicle_type_id":"4","last_reported":1756404858,"current_range_meters":14800,"station_id":"ce4bhh12rcd13ifvqff0","pricing_plan_id":"cebpf4jnsgd1na2vs0mg"},{"bike_id":"e306f905-51f1-4f3b-9f6d-1f7c6ec3ec8a","system_id":"levelo_inurba_marseille","lat":43.26057,"lon":5.39399,"is_reserved":false,"is_disabled":false,"rental_uris":{"android":"levelo://app?vid=e306f905-51f1-4f3b-9f6d-1f7c6ec3ec8a","ios":"levelo://app?vid=e306f905-51f1-4f3b-9f6d-1f7c6ec3ec8a"},"vehicle_type_id":"4","last_reported":1756404858,"current_range_meters":14800,"station_id":"ce4bhh92rcd13ifvqfj0","pricing_plan_id":"cebpf4jnsgd1na2vs0mg"},{"bike_id":"58b0f458-6d83-41ca-9901-eee7b5b8a27a","system_id":"levelo_inurba_marseille","lat":43.244,"lon":5.37076,"is_reserved":false,"is_disabled":false,"rental_uris":{"android":"levelo://app?vid=58b0f458-6d83-41ca-9901-eee7b5b8a27a","ios":"levelo://app?vid=58b0f458-6d83-41ca-9901-eee7b5b8a27a"},"vehicle_type_id":"4","last_reported":1756404858,"current_range_meters":14800,"station_id":"ce4bhhh2rcd13ifvqfk0","pricing_plan_id":"cebpf4jnsgd1na2vs0mg"},{"bike_id":"00865bff-72de-47be-acda-9cf6ec16a836","system_id":"levelo_inurba_marseille","lat":43.32098,"lon":5.36779,"is_reserved":false,"is_disabled":false,"rental_uris":{"android":"levelo://app?vid=00865bff-72de-47be-acda-9cf6ec16a836","ios":"levelo://app?vid=00865bff-72de-47be-acda-9cf6ec16a836"},"vehicle_type_id":"4","last_reported":1756404858,"current_range_meters":14800,"station_id":"ce4bhrh2rcd13ifvqhug","pricing_plan_id":"cebpf4jnsgd1na2vs0mg"},{"bike_id":"e273d1a3-8ea7-4a0f-b072-8fb7a60e2fea","system_id":"levelo_inurba_marseille","lat":43.26044,"lon":5.37558,"is_reserved":false,"is_disabled":false,"rental_uris":{"android":"levelo://app?vid=e273d1a3-8ea7-4a0f-b072-8fb7a60e2fea","ios":"levelo://app?vid=e273d1a3-8ea7-4a0f-b072-8fb7a60e2fea"},"vehicle_type_id":"4","last_reported":1756404858,"current_range_meters":14800,"station_id":"ce4bhgh2rcd13ifvqfa0","pricing_plan_id":"cebpf4jnsgd1na2vs0mg"},{"bike_id":"aba408de-f921-4633-8496-98ebb8befe83","system_id":"levelo_inurba_marseille","lat":43.26022,"lon":5.37542,"is_reserved":false,"is_disabled":false,"rental_uris":{"android":"levelo://app?vid=aba408de-f921-4633-8496-98ebb8befe83","ios":"levelo://app?vid=aba408de-f921-4633-8496-98ebb8befe83"},"vehicle_type_id":"4","last_reported":1756404858,"current_range_meters":14800,"station_id":"ce4bhgh2rcd13ifvqfa0","pricing_plan_id":"cebpf4jnsgd1na2vs0mg"},{"bike_id":"49e3e0dc-7bc3-4c21-b5e7-64678061068b","system_id":"levelo_inurba_marseille","lat":43.241792,"lon":5.397208,"is_reserved":false,"is_disabled":false,"rental_uris":{"android":"levelo://app?vid=49e3e0dc-7bc3-4c21-b5e7-64678061068b","ios":"levelo://app?vid=49e3e0dc-7bc3-4c21-b5e7-64678061068b"},"vehicle_type_id":"4","last_reported":1756404858,"current_range_meters":14800,"station_id":"ce4bhn12rcd13ifvqgpg","pricing_plan_id":"cebpf4jnsgd1na2vs0mg"},{"bike_id":"b4ec7b53-72a4-4e4d-8084-5a547251f927","system_id":"levelo_inurba_marseille","lat":43.31074,"lon":5.38354,"is_reserved":false,"is_disabled":false,"rental_uris":{"android":"levelo://app?vid=b4ec7b53-72a4-4e4d-8084-5a547251f927","ios":"levelo://app?vid=b4ec7b53-72a4-4e4d-8084-5a547251f927"},"vehicle_type_id":"4","last_reported":1756404858,"current_range_meters":14800,"station_id":"ce4bgv92rcd13ifvqcr0","pricing_plan_id":"cebpf4jnsgd1na2vs0mg"},{"bike_id":"1fbcea02-8781-4a15-bf79-e3ffd6314079","system_id":"levelo_inurba_marseille","lat":43.26056,"lon":5.39401,"is_reserved":false,"is_disabled":false,"rental_uris":{"android":"levelo://app?vid=1fbcea02-8781-4a15-bf79-e3ffd6314079","ios":"levelo://app?vid=1fbcea02-8781-4a15-bf79-e3ffd6314079"},"vehicle_type_id":"4","last_reported":1756404858,"current_range_meters":15200,"station_id":"ce4bhh92rcd13ifvqfj0","pricing_plan_id":"cebpf4jnsgd1na2vs0mg"},{"bike_id":"fcc3ab3a-d6dd-4bbc-8051-ad7b310bad28","system_id":"levelo_inurba_marseille","lat":43.28484,"lon":5.38429,"is_reserved":false,"is_disabled":false,"rental_uris":{"android":"levelo://app?vid=fcc3ab3a-d6dd-4bbc-8051-ad7b310bad28","ios":"levelo://app?vid=fcc3ab3a-d6dd-4bbc-8051-ad7b310bad28"},"vehicle_type_id":"4","last_reported":1756404858,"current_range_meters":15200,"station_id":"ce4bh512rcd13ifvqe3g","pricing_plan_id":"cebpf4jnsgd1na2vs0mg"},{"bike_id":"eebfbe73-f440-4706-b477-601b1f8fe6e6","system_id":"levelo_inurba_marseille","lat":43.24902,"lon":5.37546,"is_reserved":false,"is_disabled":false,"rental_uris":{"android":"levelo://app?vid=eebfbe73-f440-4706-b477-601b1f8fe6e6","ios":"levelo://app?vid=eebfbe73-f440-4706-b477-601b1f8fe6e6"},"vehicle_type_id":"4","last_reported":1756404858,"current_range_meters":15200,"station_id":"","pricing_plan_id":"cebpf4jnsgd1na2vs0mg"},{"bike_id":"503a38b4-d32b-49fb-8843-7bf3d38d154c","system_id":"levelo_inurba_marseille","lat":43.26208,"lon":5.37441,"is_reserved":false,"is_disabled":false,"rental_uris":{"android":"levelo://app?vid=503a38b4-d32b-49fb-8843-7bf3d38d154c","ios":"levelo://app?vid=503a38b4-d32b-49fb-8843-7bf3d38d154c"},"vehicle_type_id":"4","last_reported":1756404858,"current_range_meters":15200,"station_id":"ce4bhgp2rcd13ifvqfc0","pricing_plan_id":"cebpf4jnsgd1na2vs0mg"},{"bike_id":"560d8bd7-d4c5-4b2b-b882-80f5f549f921","system_id":"levelo_inurba_marseille","lat":43.24997,"lon":5.38924,"is_reserved":false,"is_disabled":false,"rental_uris":{"android":"levelo://app?vid=560d8bd7-d4c5-4b2b-b882-80f5f549f921","ios":"levelo://app?vid=560d8bd7-d4c5-4b2b-b882-80f5f549f921"},"vehicle_type_id":"4","last_reported":1756404858,"current_range_meters":15200,"station_id":"ce4bhgp2rcd13ifvqfd0","pricing_plan_id":"cebpf4jnsgd1na2vs0mg"},{"bike_id":"fb732470-5d35-4da3-b085-3e040cbfc33a","system_id":"levelo_inurba_marseille","lat":43.23201,"lon":5.39991,"is_reserved":false,"is_disabled":false,"rental_uris":{"android":"levelo://app?vid=fb732470-5d35-4da3-b085-3e040cbfc33a","ios":"levelo://app?vid=fb732470-5d35-4da3-b085-3e040cbfc33a"},"vehicle_type_id":"4","last_reported":1756404858,"current_range_meters":15200,"station_id":"ce4bhn12rcd13ifvqgqg","pricing_plan_id":"cebpf4jnsgd1na2vs0mg"},{"bike_id":"2fa1fc55-67e6-4dbd-904e-b637927e9143","system_id":"levelo_inurba_marseille","lat":43.27372,"lon":5.36283,"is_reserved":false,"is_disabled":false,"rental_uris":{"android":"levelo://app?vid=2fa1fc55-67e6-4dbd-904e-b637927e9143","ios":"levelo://app?vid=2fa1fc55-67e6-4dbd-904e-b637927e9143"},"vehicle_type_id":"4","last_reported":1756404858,"current_range_meters":15200,"station_id":"ce4bhbh2rcd13ifvqeo0","pricing_plan_id":"cebpf4jnsgd1na2vs0mg"},{"bike_id":"76853953-4750-4c5e-a02d-c060c687f7f4","system_id":"levelo_inurba_marseille","lat":43.265591,"lon":5.372913,"is_reserved":false,"is_disabled":false,"rental_uris":{"android":"levelo://app?vid=76853953-4750-4c5e-a02d-c060c687f7f4","ios":"levelo://app?vid=76853953-4750-4c5e-a02d-c060c687f7f4"},"vehicle_type_id":"4","last_reported":1756404858,"current_range_meters":16000,"station_id":"ce4bhg12rcd13ifvqf70","pricing_plan_id":"cebpf4jnsgd1na2vs0mg"},{"bike_id":"1d6d2e3d-e6be-45f3-9550-08daca30c94e","system_id":"levelo_inurba_marseille","lat":43.231494,"lon":5.437142,"is_reserved":false,"is_disabled":false,"rental_uris":{"android":"levelo://app?vid=1d6d2e3d-e6be-45f3-9550-08daca30c94e","ios":"levelo://app?vid=1d6d2e3d-e6be-45f3-9550-08daca30c94e"},"vehicle_type_id":"4","last_reported":1756404858,"current_range_meters":16000,"station_id":"ce4bhmp2rcd13ifvqgog","pricing_plan_id":"cebpf4jnsgd1na2vs0mg"},{"bike_id":"83909c75-8354-4cee-9abf-5c26a22ce52c","system_id":"levelo_inurba_marseille","lat":43.31493,"lon":5.38614,"is_reserved":false,"is_disabled":false,"rental_uris":{"android":"levelo://app?vid=83909c75-8354-4cee-9abf-5c26a22ce52c","ios":"levelo://app?vid=83909c75-8354-4cee-9abf-5c26a22ce52c"},"vehicle_type_id":"4","last_reported":1756404858,"current_range_meters":16000,"station_id":"","pricing_plan_id":"cebpf4jnsgd1na2vs0mg"},{"bike_id":"8a3d08a4-6e22-43fc-a3af-efea32020201","system_id":"levelo_inurba_marseille","lat":43.32356,"lon":5.36736,"is_reserved":false,"is_disabled":false,"rental_uris":{"android":"levelo://app?vid=8a3d08a4-6e22-43fc-a3af-efea32020201","ios":"levelo://app?vid=8a3d08a4-6e22-43fc-a3af-efea32020201"},"vehicle_type_id":"4","last_reported":1756404858,"current_range_meters":16000,"station_id":"ce4bhsh2rcd13ifvqi2g","pricing_plan_id":"cebpf4jnsgd1na2vs0mg"},{"bike_id":"e9fc8b6e-9de1-4885-8ffc-e26149c08de1","system_id":"levelo_inurba_marseille","lat":43.26026,"lon":5.37548,"is_reserved":false,"is_disabled":false,"rental_uris":{"android":"levelo://app?vid=e9fc8b6e-9de1-4885-8ffc-e26149c08de1","ios":"levelo://app?vid=e9fc8b6e-9de1-4885-8ffc-e26149c08de1"},"vehicle_type_id":"4","last_reported":1756404858,"current_range_meters":16000,"station_id":"ce4bhgh2rcd13ifvqfa0","pricing_plan_id":"cebpf4jnsgd1na2vs0mg"},{"bike_id":"951b6a15-b89c-43ed-bfc9-bd2a89ee69d8","system_id":"levelo_inurba_marseille","lat":43.256707,"lon":5.409515,"is_reserved":false,"is_disabled":false,"rental_uris":{"android":"levelo://app?vid=951b6a15-b89c-43ed-bfc9-bd2a89ee69d8","ios":"levelo://app?vid=951b6a15-b89c-43ed-bfc9-bd2a89ee69d8"},"vehicle_type_id":"4","last_reported":1756404858,"current_range_meters":16000,"station_id":"ce4bhkp2rcd13ifvqgd0","pricing_plan_id":"cebpf4jnsgd1na2vs0mg"},{"bike_id":"e88813c3-e63a-4665-b0f4-72e6c6c89a00","system_id":"levelo_inurba_marseille","lat":43.21143,"lon":5.35098,"is_reserved":false,"is_disabled":false,"rental_uris":{"android":"levelo://app?vid=e88813c3-e63a-4665-b0f4-72e6c6c89a00","ios":"levelo://app?vid=e88813c3-e63a-4665-b0f4-72e6c6c89a00"},"vehicle_type_id":"4","last_reported":1756404858,"current_range_meters":16000,"station_id":"st_cvj6sg6p6f1abm77japg","pricing_plan_id":"cebpf4jnsgd1na2vs0mg"},{"bike_id":"99c2afb7-d9d0-4857-89b8-56eb719a69ba","system_id":"levelo_inurba_marseille","lat":43.29537,"lon":5.3855,"is_reserved":false,"is_disabled":false,"rental_uris":{"android":"levelo://app?vid=99c2afb7-d9d0-4857-89b8-56eb719a69ba","ios":"levelo://app?vid=99c2afb7-d9d0-4857-89b8-56eb719a69ba"},"vehicle_type_id":"4","last_reported":1756404858,"current_range_meters":16400,"station_id":"ce4bgih2rcd13ifvqba0","pricing_plan_id":"cebpf4jnsgd1na2vs0mg"},{"bike_id":"42515969-df58-4bc3-81b4-d2c5b3092781","system_id":"levelo_inurba_marseille","lat":43.27717,"lon":5.41959,"is_reserved":false,"is_disabled":false,"rental_uris":{"android":"levelo://app?vid=42515969-df58-4bc3-81b4-d2c5b3092781","ios":"levelo://app?vid=42515969-df58-4bc3-81b4-d2c5b3092781"},"vehicle_type_id":"4","last_reported":1756404858,"current_range_meters":16400,"station_id":"","pricing_plan_id":"cebpf4jnsgd1na2vs0mg"},{"bike_id":"83cab6a4-9447-4dcd-ac26-ad60db17980e","system_id":"levelo_inurba_marseille","lat":43.284173,"lon":5.375992,"is_reserved":false,"is_disabled":false,"rental_uris":{"android":"levelo://app?vid=83cab6a4-9447-4dcd-ac26-ad60db17980e","ios":"levelo://app?vid=83cab6a4-9447-4dcd-ac26-ad60db17980e"},"vehicle_type_id":"4","last_reported":1756404858,"current_range_meters":16400,"station_id":"ce4bh412rcd13ifvqds0","pricing_plan_id":"cebpf4jnsgd1na2vs0mg"},{"bike_id":"9d66d6fd-89b1-462f-a134-f04c3978a992","system_id":"levelo_inurba_marseille","lat":43.2962,"lon":5.37713,"is_reserved":false,"is_disabled":false,"rental_uris":{"android":"levelo://app?vid=9d66d6fd-89b1-462f-a134-f04c3978a992","ios":"levelo://app?vid=9d66d6fd-89b1-462f-a134-f04c3978a992"},"vehicle_type_id":"4","last_reported":1756404858,"current_range_meters":16400,"station_id":"ce4bgi92rcd13ifvqb90","pricing_plan_id":"cebpf4jnsgd1na2vs0mg"},{"bike_id":"06669016-cd47-459f-9dbc-b8f7fe75d379","system_id":"levelo_inurba_marseille","lat":43.3228,"lon":5.38272,"is_reserved":false,"is_disabled":false,"rental_uris":{"android":"levelo://app?vid=06669016-cd47-459f-9dbc-b8f7fe75d379","ios":"levelo://app?vid=06669016-cd47-459f-9dbc-b8f7fe75d379"},"vehicle_type_id":"4","last_reported":1756404858,"current_range_meters":16400,"station_id":"ce4bhr12rcd13ifvqhqg","pricing_plan_id":"cebpf4jnsgd1na2vs0mg"},{"bike_id":"9c2ea7af-e1f0-49ae-bea1-fdef9d504587","system_id":"levelo_inurba_marseille","lat":43.25998,"lon":5.37553,"is_reserved":false,"is_disabled":false,"rental_uris":{"android":"levelo://app?vid=9c2ea7af-e1f0-49ae-bea1-fdef9d504587","ios":"levelo://app?vid=9c2ea7af-e1f0-49ae-bea1-fdef9d504587"},"vehicle_type_id":"4","last_reported":1756404858,"current_range_meters":16400,"station_id":"ce4bhgh2rcd13ifvqfa0","pricing_plan_id":"cebpf4jnsgd1na2vs0mg"},{"bike_id":"083590b2-c197-440a-8a8d-0c6969a12227","system_id":"levelo_inurba_marseille","lat":43.26677,"lon":5.3827,"is_reserved":false,"is_disabled":false,"rental_uris":{"android":"levelo://app?vid=083590b2-c197-440a-8a8d-0c6969a12227","ios":"levelo://app?vid=083590b2-c197-440a-8a8d-0c6969a12227"},"vehicle_type_id":"4","last_reported":1756404858,"current_range_meters":16000,"station_id":"ce4bhg92rcd13ifvqf90","pricing_plan_id":"cebpf4jnsgd1na2vs0mg"},{"bike_id":"c8ed8afa-4750-4d5e-b29e-7da3cd8f4dc7","system_id":"levelo_inurba_marseille","lat":43.323645,"lon":5.367329,"is_reserved":false,"is_disabled":false,"rental_uris":{"android":"levelo://app?vid=c8ed8afa-4750-4d5e-b29e-7da3cd8f4dc7","ios":"levelo://app?vid=c8ed8afa-4750-4d5e-b29e-7da3cd8f4dc7"},"vehicle_type_id":"4","last_reported":1756404858,"current_range_meters":16400,"station_id":"ce4bhsh2rcd13ifvqi2g","pricing_plan_id":"cebpf4jnsgd1na2vs0mg"},{"bike_id":"e68ad225-85c0-4ec9-a2c0-7cb7765f5195","system_id":"levelo_inurba_marseille","lat":43.24056,"lon":5.37769,"is_reserved":false,"is_disabled":false,"rental_uris":{"android":"levelo://app?vid=e68ad225-85c0-4ec9-a2c0-7cb7765f5195","ios":"levelo://app?vid=e68ad225-85c0-4ec9-a2c0-7cb7765f5195"},"vehicle_type_id":"4","last_reported":1756404858,"current_range_meters":16800,"station_id":"ce4bhnp2rcd13ifvqgvg","pricing_plan_id":"cebpf4jnsgd1na2vs0mg"},{"bike_id":"275f4e82-96f2-4e31-b484-98c9302ea3df","system_id":"levelo_inurba_marseille","lat":43.27168,"lon":5.41,"is_reserved":false,"is_disabled":false,"rental_uris":{"android":"levelo://app?vid=275f4e82-96f2-4e31-b484-98c9302ea3df","ios":"levelo://app?vid=275f4e82-96f2-4e31-b484-98c9302ea3df"},"vehicle_type_id":"4","last_reported":1756404858,"current_range_meters":16800,"station_id":"ce4bhl12rcd13ifvqgf0","pricing_plan_id":"cebpf4jnsgd1na2vs0mg"},{"bike_id":"21facb37-f2df-4979-a525-418747dd4e09","system_id":"levelo_inurba_marseille","lat":43.28416,"lon":5.34989,"is_reserved":false,"is_disabled":false,"rental_uris":{"android":"levelo://app?vid=21facb37-f2df-4979-a525-418747dd4e09","ios":"levelo://app?vid=21facb37-f2df-4979-a525-418747dd4e09"},"vehicle_type_id":"4","last_reported":1756404858,"current_range_meters":16800,"station_id":"ce4bhbh2rcd13ifvqepg","pricing_plan_id":"cebpf4jnsgd1na2vs0mg"},{"bike_id":"d36dcbe7-cb1e-434e-b83e-01b3ed6083ec","system_id":"levelo_inurba_marseille","lat":43.292633,"lon":5.384402,"is_reserved":false,"is_disabled":false,"rental_uris":{"android":"levelo://app?vid=d36dcbe7-cb1e-434e-b83e-01b3ed6083ec","ios":"levelo://app?vid=d36dcbe7-cb1e-434e-b83e-01b3ed6083ec"},"vehicle_type_id":"4","last_reported":1756404858,"current_range_meters":16800,"station_id":"ce4bh692rcd13ifvqea0","pricing_plan_id":"cebpf4jnsgd1na2vs0mg"},{"bike_id":"3d6fc511-e419-41c7-9a3c-b78a5b14af25","system_id":"levelo_inurba_marseille","lat":43.292642,"lon":5.384504,"is_reserved":false,"is_disabled":false,"rental_uris":{"android":"levelo://app?vid=3d6fc511-e419-41c7-9a3c-b78a5b14af25","ios":"levelo://app?vid=3d6fc511-e419-41c7-9a3c-b78a5b14af25"},"vehicle_type_id":"4","last_reported":1756404858,"current_range_meters":16800,"station_id":"ce4bh692rcd13ifvqea0","pricing_plan_id":"cebpf4jnsgd1na2vs0mg"},{"bike_id":"f0e1e4a3-1fe8-4a58-b582-c0b4188393d1","system_id":"levelo_inurba_marseille","lat":43.292441,"lon":5.38441,"is_reserved":false,"is_disabled":true,"rental_uris":{"android":"levelo://app?vid=f0e1e4a3-1fe8-4a58-b582-c0b4188393d1","ios":"levelo://app?vid=f0e1e4a3-1fe8-4a58-b582-c0b4188393d1"},"vehicle_type_id":"4","last_reported":1756404858,"current_range_meters":16800,"station_id":"ce4bh692rcd13ifvqea0","pricing_plan_id":"cebpf4jnsgd1na2vs0mg"},{"bike_id":"5a0da283-3a7b-41a9-b598-d89a77d5bb05","system_id":"levelo_inurba_marseille","lat":43.27624,"lon":5.36115,"is_reserved":false,"is_disabled":false,"rental_uris":{"android":"levelo://app?vid=5a0da283-3a7b-41a9-b598-d89a77d5bb05","ios":"levelo://app?vid=5a0da283-3a7b-41a9-b598-d89a77d5bb05"},"vehicle_type_id":"4","last_reported":1756404858,"current_range_meters":16800,"station_id":"ce4bgj92rcd13ifvqbe0","pricing_plan_id":"cebpf4jnsgd1na2vs0mg"},{"bike_id":"ca808d34-9391-4691-b4c5-e9180d9c16d9","system_id":"levelo_inurba_marseille","lat":43.25337,"lon":5.42169,"is_reserved":false,"is_disabled":false,"rental_uris":{"android":"levelo://app?vid=ca808d34-9391-4691-b4c5-e9180d9c16d9","ios":"levelo://app?vid=ca808d34-9391-4691-b4c5-e9180d9c16d9"},"vehicle_type_id":"4","last_reported":1756404858,"current_range_meters":16800,"station_id":"st_d2m65c5bi1j21697t3ng","pricing_plan_id":"cebpf4jnsgd1na2vs0mg"},{"bike_id":"e8abc8ad-8a9a-458a-b19e-d2bd24adea6b","system_id":"levelo_inurba_marseille","lat":43.29617,"lon":5.37717,"is_reserved":false,"is_disabled":false,"rental_uris":{"android":"levelo://app?vid=e8abc8ad-8a9a-458a-b19e-d2bd24adea6b","ios":"levelo://app?vid=e8abc8ad-8a9a-458a-b19e-d2bd24adea6b"},"vehicle_type_id":"4","last_reported":1756404858,"current_range_meters":16800,"station_id":"ce4bgi92rcd13ifvqb90","pricing_plan_id":"cebpf4jnsgd1na2vs0mg"},{"bike_id":"c960c18f-b9b0-43dc-9eea-7174b1bf76a0","system_id":"levelo_inurba_marseille","lat":43.26203,"lon":5.37929,"is_reserved":false,"is_disabled":false,"rental_uris":{"android":"levelo://app?vid=c960c18f-b9b0-43dc-9eea-7174b1bf76a0","ios":"levelo://app?vid=c960c18f-b9b0-43dc-9eea-7174b1bf76a0"},"vehicle_type_id":"4","last_reported":1756404858,"current_range_meters":16800,"station_id":"ce4bhjp2rcd13ifvqg90","pricing_plan_id":"cebpf4jnsgd1na2vs0mg"},{"bike_id":"a3e4ee41-5175-47da-ad6e-4c5ae3eb42d9","system_id":"levelo_inurba_marseille","lat":43.21212,"lon":5.35062,"is_reserved":false,"is_disabled":false,"rental_uris":{"android":"levelo://app?vid=a3e4ee41-5175-47da-ad6e-4c5ae3eb42d9","ios":"levelo://app?vid=a3e4ee41-5175-47da-ad6e-4c5ae3eb42d9"},"vehicle_type_id":"4","last_reported":1756404858,"current_range_meters":16800,"station_id":"st_cvj6sg6p6f1abm77japg","pricing_plan_id":"cebpf4jnsgd1na2vs0mg"},{"bike_id":"628b2116-c68c-42d5-8097-2767d2b79f8d","system_id":"levelo_inurba_marseille","lat":43.2826,"lon":5.35065,"is_reserved":false,"is_disabled":true,"rental_uris":{"android":"levelo://app?vid=628b2116-c68c-42d5-8097-2767d2b79f8d","ios":"levelo://app?vid=628b2116-c68c-42d5-8097-2767d2b79f8d"},"vehicle_type_id":"4","last_reported":1756404858,"current_range_meters":17200,"station_id":"ce4bhbp2rcd13ifvqerg","pricing_plan_id":"cebpf4jnsgd1na2vs0mg"},{"bike_id":"d44d15b9-2fb5-46e0-acb8-8b8b91797dc2","system_id":"levelo_inurba_marseille","lat":43.26016,"lon":5.37539,"is_reserved":false,"is_disabled":false,"rental_uris":{"android":"levelo://app?vid=d44d15b9-2fb5-46e0-acb8-8b8b91797dc2","ios":"levelo://app?vid=d44d15b9-2fb5-46e0-acb8-8b8b91797dc2"},"vehicle_type_id":"4","last_reported":1756404858,"current_range_meters":17200,"station_id":"","pricing_plan_id":"cebpf4jnsgd1na2vs0mg"},{"bike_id":"679dd2c2-03ba-464f-b4ca-d253d6e39f03","system_id":"levelo_inurba_marseille","lat":43.284242,"lon":5.349783,"is_reserved":false,"is_disabled":false,"rental_uris":{"android":"levelo://app?vid=679dd2c2-03ba-464f-b4ca-d253d6e39f03","ios":"levelo://app?vid=679dd2c2-03ba-464f-b4ca-d253d6e39f03"},"vehicle_type_id":"4","last_reported":1756404858,"current_range_meters":17200,"station_id":"ce4bhbh2rcd13ifvqepg","pricing_plan_id":"cebpf4jnsgd1na2vs0mg"},{"bike_id":"ab7c0377-9067-4f33-b6fd-8c2b4cb14a20","system_id":"levelo_inurba_marseille","lat":43.30672,"lon":5.36638,"is_reserved":false,"is_disabled":false,"rental_uris":{"android":"levelo://app?vid=ab7c0377-9067-4f33-b6fd-8c2b4cb14a20","ios":"levelo://app?vid=ab7c0377-9067-4f33-b6fd-8c2b4cb14a20"},"vehicle_type_id":"4","last_reported":1756404858,"current_range_meters":17200,"station_id":"","pricing_plan_id":"cebpf4jnsgd1na2vs0mg"},{"bike_id":"74a6ea72-97f1-4e83-bb62-00190acae654","system_id":"levelo_inurba_marseille","lat":43.28616,"lon":5.35114,"is_reserved":false,"is_disabled":false,"rental_uris":{"android":"levelo://app?vid=74a6ea72-97f1-4e83-bb62-00190acae654","ios":"levelo://app?vid=74a6ea72-97f1-4e83-bb62-00190acae654"},"vehicle_type_id":"4","last_reported":1756404858,"current_range_meters":17600,"station_id":"ce4bhch2rcd13ifvqeug","pricing_plan_id":"cebpf4jnsgd1na2vs0mg"},{"bike_id":"bd0b3a9b-47a6-4440-9f23-38e93ba205fd","system_id":"levelo_inurba_marseille","lat":43.24053,"lon":5.37762,"is_reserved":false,"is_disabled":false,"rental_uris":{"android":"levelo://app?vid=bd0b3a9b-47a6-4440-9f23-38e93ba205fd","ios":"levelo://app?vid=bd0b3a9b-47a6-4440-9f23-38e93ba205fd"},"vehicle_type_id":"4","last_reported":1756404858,"current_range_meters":17600,"station_id":"ce4bhnp2rcd13ifvqgvg","pricing_plan_id":"cebpf4jnsgd1na2vs0mg"},{"bike_id":"083b0e7f-357f-4afd-b79e-219efec9656b","system_id":"levelo_inurba_marseille","lat":43.28408,"lon":5.35008,"is_reserved":false,"is_disabled":false,"rental_uris":{"android":"levelo://app?vid=083b0e7f-357f-4afd-b79e-219efec9656b","ios":"levelo://app?vid=083b0e7f-357f-4afd-b79e-219efec9656b"},"vehicle_type_id":"4","last_reported":1756404858,"current_range_meters":17600,"station_id":"ce4bhbh2rcd13ifvqepg","pricing_plan_id":"cebpf4jnsgd1na2vs0mg"},{"bike_id":"3fb92cde-6327-48c0-a173-34dc49189698","system_id":"levelo_inurba_marseille","lat":43.26199,"lon":5.37914,"is_reserved":false,"is_disabled":false,"rental_uris":{"android":"levelo://app?vid=3fb92cde-6327-48c0-a173-34dc49189698","ios":"levelo://app?vid=3fb92cde-6327-48c0-a173-34dc49189698"},"vehicle_type_id":"4","last_reported":1756404858,"current_range_meters":17600,"station_id":"ce4bhjp2rcd13ifvqg90","pricing_plan_id":"cebpf4jnsgd1na2vs0mg"},{"bike_id":"7162957e-c6ee-4440-9439-7e40f81a9081","system_id":"levelo_inurba_marseille","lat":43.319,"lon":5.40745,"is_reserved":false,"is_disabled":true,"rental_uris":{"android":"levelo://app?vid=7162957e-c6ee-4440-9439-7e40f81a9081","ios":"levelo://app?vid=7162957e-c6ee-4440-9439-7e40f81a9081"},"vehicle_type_id":"4","last_reported":1756404858,"current_range_meters":17600,"station_id":"ce4bhq12rcd13ifvqhig","pricing_plan_id":"cebpf4jnsgd1na2vs0mg"},{"bike_id":"af0e337f-d4cf-4e28-9020-c2f2b620012b","system_id":"levelo_inurba_marseille","lat":43.2292,"lon":5.35379,"is_reserved":false,"is_disabled":false,"rental_uris":{"android":"levelo://app?vid=af0e337f-d4cf-4e28-9020-c2f2b620012b","ios":"levelo://app?vid=af0e337f-d4cf-4e28-9020-c2f2b620012b"},"vehicle_type_id":"4","last_reported":1756404858,"current_range_meters":17600,"station_id":"cpo3532slgdg3j2ikp40","pricing_plan_id":"cebpf4jnsgd1na2vs0mg"},{"bike_id":"60863403-b289-4c9c-b2d0-3d448abf417f","system_id":"levelo_inurba_marseille","lat":43.2826,"lon":5.35059,"is_reserved":false,"is_disabled":true,"rental_uris":{"android":"levelo://app?vid=60863403-b289-4c9c-b2d0-3d448abf417f","ios":"levelo://app?vid=60863403-b289-4c9c-b2d0-3d448abf417f"},"vehicle_type_id":"4","last_reported":1756404858,"current_range_meters":17600,"station_id":"ce4bhbp2rcd13ifvqerg","pricing_plan_id":"cebpf4jnsgd1na2vs0mg"},{"bike_id":"53482a20-bd82-47e7-85d6-718b5a06855b","system_id":"levelo_inurba_marseille","lat":43.28623,"lon":5.3511,"is_reserved":false,"is_disabled":false,"rental_uris":{"android":"levelo://app?vid=53482a20-bd82-47e7-85d6-718b5a06855b","ios":"levelo://app?vid=53482a20-bd82-47e7-85d6-718b5a06855b"},"vehicle_type_id":"4","last_reported":1756404858,"current_range_meters":17600,"station_id":"ce4bhch2rcd13ifvqeug","pricing_plan_id":"cebpf4jnsgd1na2vs0mg"},{"bike_id":"49774fcc-922a-499c-b7d4-86afe0396868","system_id":"levelo_inurba_marseille","lat":43.25498,"lon":5.37655,"is_reserved":false,"is_disabled":true,"rental_uris":{"android":"levelo://app?vid=49774fcc-922a-499c-b7d4-86afe0396868","ios":"levelo://app?vid=49774fcc-922a-499c-b7d4-86afe0396868"},"vehicle_type_id":"4","last_reported":1756404858,"current_range_meters":17600,"station_id":"ce4bhh12rcd13ifvqff0","pricing_plan_id":"cebpf4jnsgd1na2vs0mg"},{"bike_id":"4591e044-2cf9-4b05-bdbf-f2144f93eb76","system_id":"levelo_inurba_marseille","lat":43.31172,"lon":5.38721,"is_reserved":false,"is_disabled":false,"rental_uris":{"android":"levelo://app?vid=4591e044-2cf9-4b05-bdbf-f2144f93eb76","ios":"levelo://app?vid=4591e044-2cf9-4b05-bdbf-f2144f93eb76"},"vehicle_type_id":"4","last_reported":1756404858,"current_range_meters":17600,"station_id":"ce4bgv12rcd13ifvqcp0","pricing_plan_id":"cebpf4jnsgd1na2vs0mg"},{"bike_id":"09961cd5-c554-43c2-bb25-82a77d88c34a","system_id":"levelo_inurba_marseille","lat":43.30656,"lon":5.40083,"is_reserved":false,"is_disabled":false,"rental_uris":{"android":"levelo://app?vid=09961cd5-c554-43c2-bb25-82a77d88c34a","ios":"levelo://app?vid=09961cd5-c554-43c2-bb25-82a77d88c34a"},"vehicle_type_id":"4","last_reported":1756404858,"current_range_meters":17600,"station_id":"ce4bh112rcd13ifvqda0","pricing_plan_id":"cebpf4jnsgd1na2vs0mg"},{"bike_id":"254f89c8-f26b-48d6-b1e9-2c5ac8a08538","system_id":"levelo_inurba_marseille","lat":43.28621,"lon":5.35104,"is_reserved":false,"is_disabled":false,"rental_uris":{"android":"levelo://app?vid=254f89c8-f26b-48d6-b1e9-2c5ac8a08538","ios":"levelo://app?vid=254f89c8-f26b-48d6-b1e9-2c5ac8a08538"},"vehicle_type_id":"4","last_reported":1756404858,"current_range_meters":17600,"station_id":"ce4bhch2rcd13ifvqeug","pricing_plan_id":"cebpf4jnsgd1na2vs0mg"},{"bike_id":"159e778a-d20c-42da-86c4-bf4c3d4998a3","system_id":"levelo_inurba_marseille","lat":43.262131,"lon":5.374424,"is_reserved":false,"is_disabled":false,"rental_uris":{"android":"levelo://app?vid=159e778a-d20c-42da-86c4-bf4c3d4998a3","ios":"levelo://app?vid=159e778a-d20c-42da-86c4-bf4c3d4998a3"},"vehicle_type_id":"4","last_reported":1756404858,"current_range_meters":17600,"station_id":"ce4bhgp2rcd13ifvqfc0","pricing_plan_id":"cebpf4jnsgd1na2vs0mg"},{"bike_id":"85d009f6-f55c-44fb-a66e-bc43826eec8f","system_id":"levelo_inurba_marseille","lat":43.27917,"lon":5.395817,"is_reserved":false,"is_disabled":false,"rental_uris":{"android":"levelo://app?vid=85d009f6-f55c-44fb-a66e-bc43826eec8f","ios":"levelo://app?vid=85d009f6-f55c-44fb-a66e-bc43826eec8f"},"vehicle_type_id":"4","last_reported":1756404858,"current_range_meters":17600,"station_id":"ce4bhf92rcd13ifvqf40","pricing_plan_id":"cebpf4jnsgd1na2vs0mg"},{"bike_id":"470e3b4a-071e-4e4d-ba95-8099080d874f","system_id":"levelo_inurba_marseille","lat":43.24967,"lon":5.38943,"is_reserved":false,"is_disabled":false,"rental_uris":{"android":"levelo://app?vid=470e3b4a-071e-4e4d-ba95-8099080d874f","ios":"levelo://app?vid=470e3b4a-071e-4e4d-ba95-8099080d874f"},"vehicle_type_id":"4","last_reported":1756404858,"current_range_meters":17600,"station_id":"ce4bhgp2rcd13ifvqfd0","pricing_plan_id":"cebpf4jnsgd1na2vs0mg"},{"bike_id":"6c3f9606-3f72-4507-bdb0-acc139c19e6d","system_id":"levelo_inurba_marseille","lat":43.26553,"lon":5.37289,"is_reserved":false,"is_disabled":false,"rental_uris":{"android":"levelo://app?vid=6c3f9606-3f72-4507-bdb0-acc139c19e6d","ios":"levelo://app?vid=6c3f9606-3f72-4507-bdb0-acc139c19e6d"},"vehicle_type_id":"4","last_reported":1756404858,"current_range_meters":17600,"station_id":"ce4bhg12rcd13ifvqf70","pricing_plan_id":"cebpf4jnsgd1na2vs0mg"},{"bike_id":"6dd0abf3-b4b3-4f6d-8320-aeaf8346e3b9","system_id":"levelo_inurba_marseille","lat":43.23144,"lon":5.43735,"is_reserved":false,"is_disabled":false,"rental_uris":{"android":"levelo://app?vid=6dd0abf3-b4b3-4f6d-8320-aeaf8346e3b9","ios":"levelo://app?vid=6dd0abf3-b4b3-4f6d-8320-aeaf8346e3b9"},"vehicle_type_id":"4","last_reported":1756404858,"current_range_meters":18000,"station_id":"ce4bhmp2rcd13ifvqgog","pricing_plan_id":"cebpf4jnsgd1na2vs0mg"},{"bike_id":"0769c003-a69e-4678-9c40-639e350653b7","system_id":"levelo_inurba_marseille","lat":43.32061,"lon":5.41578,"is_reserved":false,"is_disabled":false,"rental_uris":{"android":"levelo://app?vid=0769c003-a69e-4678-9c40-639e350653b7","ios":"levelo://app?vid=0769c003-a69e-4678-9c40-639e350653b7"},"vehicle_type_id":"4","last_reported":1756404858,"current_range_meters":17600,"station_id":"ce4bhq92rcd13ifvqhkg","pricing_plan_id":"cebpf4jnsgd1na2vs0mg"},{"bike_id":"ab2b2968-2afc-4029-82d1-f9d7f0e7846c","system_id":"levelo_inurba_marseille","lat":43.292618,"lon":5.376212,"is_reserved":false,"is_disabled":false,"rental_uris":{"android":"levelo://app?vid=ab2b2968-2afc-4029-82d1-f9d7f0e7846c","ios":"levelo://app?vid=ab2b2968-2afc-4029-82d1-f9d7f0e7846c"},"vehicle_type_id":"4","last_reported":1756404858,"current_range_meters":18000,"station_id":"ce4bgi12rcd13ifvqb80","pricing_plan_id":"cebpf4jnsgd1na2vs0mg"},{"bike_id":"dee5fc92-9d8d-42ec-97e1-996d8f5266a8","system_id":"levelo_inurba_marseille","lat":43.22936,"lon":5.35381,"is_reserved":false,"is_disabled":false,"rental_uris":{"android":"levelo://app?vid=dee5fc92-9d8d-42ec-97e1-996d8f5266a8","ios":"levelo://app?vid=dee5fc92-9d8d-42ec-97e1-996d8f5266a8"},"vehicle_type_id":"4","last_reported":1756404858,"current_range_meters":18000,"station_id":"cpo3532slgdg3j2ikp40","pricing_plan_id":"cebpf4jnsgd1na2vs0mg"},{"bike_id":"c4a01156-9fb8-4cac-961f-56d0ad4ae926","system_id":"levelo_inurba_marseille","lat":43.284227,"lon":5.3499,"is_reserved":false,"is_disabled":false,"rental_uris":{"android":"levelo://app?vid=c4a01156-9fb8-4cac-961f-56d0ad4ae926","ios":"levelo://app?vid=c4a01156-9fb8-4cac-961f-56d0ad4ae926"},"vehicle_type_id":"4","last_reported":1756404858,"current_range_meters":18800,"station_id":"ce4bhbh2rcd13ifvqepg","pricing_plan_id":"cebpf4jnsgd1na2vs0mg"},{"bike_id":"c5a366ed-5e3f-4271-a2fb-95e15532cfd8","system_id":"levelo_inurba_marseille","lat":43.26541,"lon":5.37299,"is_reserved":false,"is_disabled":false,"rental_uris":{"android":"levelo://app?vid=c5a366ed-5e3f-4271-a2fb-95e15532cfd8","ios":"levelo://app?vid=c5a366ed-5e3f-4271-a2fb-95e15532cfd8"},"vehicle_type_id":"4","last_reported":1756404858,"current_range_meters":18000,"station_id":"ce4bhg12rcd13ifvqf70","pricing_plan_id":"cebpf4jnsgd1na2vs0mg"},{"bike_id":"07761c7f-90f3-44f4-a950-f91cbca976d7","system_id":"levelo_inurba_marseille","lat":43.26228,"lon":5.37447,"is_reserved":false,"is_disabled":false,"rental_uris":{"android":"levelo://app?vid=07761c7f-90f3-44f4-a950-f91cbca976d7","ios":"levelo://app?vid=07761c7f-90f3-44f4-a950-f91cbca976d7"},"vehicle_type_id":"4","last_reported":1756404858,"current_range_meters":18000,"station_id":"ce4bhgp2rcd13ifvqfc0","pricing_plan_id":"cebpf4jnsgd1na2vs0mg"},{"bike_id":"7098a53e-32d3-4caf-b927-9f4d99f7b166","system_id":"levelo_inurba_marseille","lat":43.24812,"lon":5.37465,"is_reserved":false,"is_disabled":false,"rental_uris":{"android":"levelo://app?vid=7098a53e-32d3-4caf-b927-9f4d99f7b166","ios":"levelo://app?vid=7098a53e-32d3-4caf-b927-9f4d99f7b166"},"vehicle_type_id":"4","last_reported":1756404858,"current_range_meters":18000,"station_id":"ce4bhgh2rcd13ifvqfb0","pricing_plan_id":"cebpf4jnsgd1na2vs0mg"},{"bike_id":"196169a4-3222-419a-be3c-e08cc270c692","system_id":"levelo_inurba_marseille","lat":43.29331,"lon":5.37311,"is_reserved":false,"is_disabled":false,"rental_uris":{"android":"levelo://app?vid=196169a4-3222-419a-be3c-e08cc270c692","ios":"levelo://app?vid=196169a4-3222-419a-be3c-e08cc270c692"},"vehicle_type_id":"4","last_reported":1756404858,"current_range_meters":18000,"station_id":"","pricing_plan_id":"cebpf4jnsgd1na2vs0mg"},{"bike_id":"e6a93fb5-0898-42b5-a0f1-0058cce3ed8f","system_id":"levelo_inurba_marseille","lat":43.25495,"lon":5.37655,"is_reserved":false,"is_disabled":false,"rental_uris":{"android":"levelo://app?vid=e6a93fb5-0898-42b5-a0f1-0058cce3ed8f","ios":"levelo://app?vid=e6a93fb5-0898-42b5-a0f1-0058cce3ed8f"},"vehicle_type_id":"4","last_reported":1756404858,"current_range_meters":18000,"station_id":"ce4bhh12rcd13ifvqff0","pricing_plan_id":"cebpf4jnsgd1na2vs0mg"},{"bike_id":"25da2e20-347d-401c-830f-c4396ad77b2d","system_id":"levelo_inurba_marseille","lat":43.255792,"lon":5.382462,"is_reserved":false,"is_disabled":false,"rental_uris":{"android":"levelo://app?vid=25da2e20-347d-401c-830f-c4396ad77b2d","ios":"levelo://app?vid=25da2e20-347d-401c-830f-c4396ad77b2d"},"vehicle_type_id":"4","last_reported":1756404858,"current_range_meters":18000,"station_id":"ce4bhih2rcd13ifvqfs0","pricing_plan_id":"cebpf4jnsgd1na2vs0mg"},{"bike_id":"72adf8d3-000d-462a-9b10-b49b61130129","system_id":"levelo_inurba_marseille","lat":43.28415,"lon":5.34996,"is_reserved":false,"is_disabled":false,"rental_uris":{"android":"levelo://app?vid=72adf8d3-000d-462a-9b10-b49b61130129","ios":"levelo://app?vid=72adf8d3-000d-462a-9b10-b49b61130129"},"vehicle_type_id":"4","last_reported":1756404858,"current_range_meters":18800,"station_id":"ce4bhbh2rcd13ifvqepg","pricing_plan_id":"cebpf4jnsgd1na2vs0mg"},{"bike_id":"58b40781-6f1a-4364-b6d4-ea0cfa246e10","system_id":"levelo_inurba_marseille","lat":43.24814,"lon":5.37457,"is_reserved":false,"is_disabled":false,"rental_uris":{"android":"levelo://app?vid=58b40781-6f1a-4364-b6d4-ea0cfa246e10","ios":"levelo://app?vid=58b40781-6f1a-4364-b6d4-ea0cfa246e10"},"vehicle_type_id":"4","last_reported":1756404858,"current_range_meters":18800,"station_id":"ce4bhgh2rcd13ifvqfb0","pricing_plan_id":"cebpf4jnsgd1na2vs0mg"},{"bike_id":"bb3f8ead-aaf6-409b-a7ab-56e59f47f87b","system_id":"levelo_inurba_marseille","lat":43.31218,"lon":5.36881,"is_reserved":false,"is_disabled":false,"rental_uris":{"android":"levelo://app?vid=bb3f8ead-aaf6-409b-a7ab-56e59f47f87b","ios":"levelo://app?vid=bb3f8ead-aaf6-409b-a7ab-56e59f47f87b"},"vehicle_type_id":"4","last_reported":1756404858,"current_range_meters":18800,"station_id":"ce4bgl92rcd13ifvqbq0","pricing_plan_id":"cebpf4jnsgd1na2vs0mg"},{"bike_id":"ba44d544-e98c-4fda-9251-f70fb07cc2b2","system_id":"levelo_inurba_marseille","lat":43.265548,"lon":5.37287,"is_reserved":false,"is_disabled":false,"rental_uris":{"android":"levelo://app?vid=ba44d544-e98c-4fda-9251-f70fb07cc2b2","ios":"levelo://app?vid=ba44d544-e98c-4fda-9251-f70fb07cc2b2"},"vehicle_type_id":"4","last_reported":1756404858,"current_range_meters":18800,"station_id":"ce4bhg12rcd13ifvqf70","pricing_plan_id":"cebpf4jnsgd1na2vs0mg"},{"bike_id":"6603f413-eb76-48ce-ae33-552493ed3efe","system_id":"levelo_inurba_marseille","lat":43.299094,"lon":5.38137,"is_reserved":false,"is_disabled":false,"rental_uris":{"android":"levelo://app?vid=6603f413-eb76-48ce-ae33-552493ed3efe","ios":"levelo://app?vid=6603f413-eb76-48ce-ae33-552493ed3efe"},"vehicle_type_id":"4","last_reported":1756404858,"current_range_meters":18000,"station_id":"ce4bgj12rcd13ifvqbc0","pricing_plan_id":"cebpf4jnsgd1na2vs0mg"},{"bike_id":"3dd23926-ae78-488e-8f33-e0fe0712154d","system_id":"levelo_inurba_marseille","lat":43.31216,"lon":5.377818,"is_reserved":false,"is_disabled":false,"rental_uris":{"android":"levelo://app?vid=3dd23926-ae78-488e-8f33-e0fe0712154d","ios":"levelo://app?vid=3dd23926-ae78-488e-8f33-e0fe0712154d"},"vehicle_type_id":"4","last_reported":1756404858,"current_range_meters":18800,"station_id":"","pricing_plan_id":"cebpf4jnsgd1na2vs0mg"},{"bike_id":"c2812b71-be67-41c9-a28b-0799abc9ed03","system_id":"levelo_inurba_marseille","lat":43.27495,"lon":5.4245,"is_reserved":false,"is_disabled":false,"rental_uris":{"android":"levelo://app?vid=c2812b71-be67-41c9-a28b-0799abc9ed03","ios":"levelo://app?vid=c2812b71-be67-41c9-a28b-0799abc9ed03"},"vehicle_type_id":"4","last_reported":1756404858,"current_range_meters":18000,"station_id":"ce4bhn92rcd13ifvqgrg","pricing_plan_id":"cebpf4jnsgd1na2vs0mg"},{"bike_id":"b226851c-b8c6-4341-8132-38af96c34122","system_id":"levelo_inurba_marseille","lat":43.26022,"lon":5.37556,"is_reserved":false,"is_disabled":false,"rental_uris":{"android":"levelo://app?vid=b226851c-b8c6-4341-8132-38af96c34122","ios":"levelo://app?vid=b226851c-b8c6-4341-8132-38af96c34122"},"vehicle_type_id":"4","last_reported":1756404858,"current_range_meters":18800,"station_id":"ce4bhgh2rcd13ifvqfa0","pricing_plan_id":"cebpf4jnsgd1na2vs0mg"},{"bike_id":"f7c72213-bc1f-4dc8-9236-f4004cdae7b1","system_id":"levelo_inurba_marseille","lat":43.217576,"lon":5.345969,"is_reserved":false,"is_disabled":false,"rental_uris":{"android":"levelo://app?vid=f7c72213-bc1f-4dc8-9236-f4004cdae7b1","ios":"levelo://app?vid=f7c72213-bc1f-4dc8-9236-f4004cdae7b1"},"vehicle_type_id":"4","last_reported":1756404858,"current_range_meters":18800,"station_id":"st_cvj6r9ubvosntc0bgbag","pricing_plan_id":"cebpf4jnsgd1na2vs0mg"},{"bike_id":"fdfe6fd8-fb0e-4713-8ecb-26f32dc5718e","system_id":"levelo_inurba_marseille","lat":43.26033,"lon":5.37585,"is_reserved":false,"is_disabled":false,"rental_uris":{"android":"levelo://app?vid=fdfe6fd8-fb0e-4713-8ecb-26f32dc5718e","ios":"levelo://app?vid=fdfe6fd8-fb0e-4713-8ecb-26f32dc5718e"},"vehicle_type_id":"4","last_reported":1756404858,"current_range_meters":18800,"station_id":"ce4bhgh2rcd13ifvqfa0","pricing_plan_id":"cebpf4jnsgd1na2vs0mg"},{"bike_id":"d6707709-9871-44d8-ac5d-92b0399d6c75","system_id":"levelo_inurba_marseille","lat":43.276184,"lon":5.360997,"is_reserved":false,"is_disabled":false,"rental_uris":{"android":"levelo://app?vid=d6707709-9871-44d8-ac5d-92b0399d6c75","ios":"levelo://app?vid=d6707709-9871-44d8-ac5d-92b0399d6c75"},"vehicle_type_id":"4","last_reported":1756404858,"current_range_meters":18800,"station_id":"ce4bgj92rcd13ifvqbe0","pricing_plan_id":"cebpf4jnsgd1na2vs0mg"},{"bike_id":"150bf4c5-12d0-480f-a71e-52540a0df860","system_id":"levelo_inurba_marseille","lat":43.298815,"lon":5.389125,"is_reserved":false,"is_disabled":false,"rental_uris":{"android":"levelo://app?vid=150bf4c5-12d0-480f-a71e-52540a0df860","ios":"levelo://app?vid=150bf4c5-12d0-480f-a71e-52540a0df860"},"vehicle_type_id":"4","last_reported":1756404858,"current_range_meters":18800,"station_id":"ce4bh392rcd13ifvqdl0","pricing_plan_id":"cebpf4jnsgd1na2vs0mg"},{"bike_id":"f42d5370-e3ad-4fdd-a63d-ca59d475d1ad","system_id":"levelo_inurba_marseille","lat":43.30958,"lon":5.39058,"is_reserved":false,"is_disabled":false,"rental_uris":{"android":"levelo://app?vid=f42d5370-e3ad-4fdd-a63d-ca59d475d1ad","ios":"levelo://app?vid=f42d5370-e3ad-4fdd-a63d-ca59d475d1ad"},