{"last_updated":1702677981,"ttl":30,"version":"2.2","data":{"bikes":[{"bike_id":"9eea7540-24ba-473f-9243-0bded8c603a8","system_id":"levelo_inurba_marseille","lat":43.31341,"lon":5.367098,"is_reserved":false,"is_disabled":false,"rental_uris":{"android":"levelo://app?vid=9eea7540-24ba-473f-9243-0bded8c603a8","ios":"levelo://app?vid=9eea7540-24ba-473f-9243-0bded8c603a8"},"vehicle_type_id":"4","last_reported":1702677981,"current_range_meters":23600,"station_id":"ce4bgr92rcd13ifvqc6g","pricing_plan_id":"free"},{"bike_id":"cd4ac7e6-ca9e-4d15-bb50-7f898f19844e","system_id":"levelo_inurba_marseille","lat":43.312239,"lon":5.368562,"is_reserved":false,"is_disabled":false,"rental_uris":{"android":"levelo://app?vid=cd4ac7e6-ca9e-4d15-bb50-7f898f19844e","ios":"levelo://app?vid=cd4ac7e6-ca9e-4d15-bb50-7f898f19844e"},"vehicle_type_id":"4","last_reported":1702677981,"current_range_meters":19200,"station_id":"ce4bgl92rcd13ifvqbq0","pricing_plan_id":"free"},{"bike_id":"4e75a65b-992a-4d99-ad2a-e1df6def5836","system_id":"levelo_inurba_marseille","lat":43.309076,"lon":5.368465,"is_reserved":false,"is_disabled":false,"rental_uris":{"android":"levelo://app?vid=4e75a65b-992a-4d99-ad2a-e1df6def5836","ios":"levelo://app?vid=4e75a65b-992a-4d99-ad2a-e1df6def5836"},"vehicle_type_id":"4","last_reported":1702677981,"current_range_meters":6800,"station_id":"ce4bgn92rcd13ifvqbvg","pricing_plan_id":"free"},{"bike_id":"c81051ff-5466-4d0b-b05e-0063378b53eb","system_id":"levelo_inurba_marseille","lat":43.309076,"lon":5.368465,"is_reserved":false,"is_disabled":false,"rental_uris":{"android":"levelo://app?vid=c81051ff-5466-4d0b-b05e-0063378b53eb","ios":"levelo://app?vid=c81051ff-5466-4d0b-b05e-0063378b53eb"},"vehicle_type_id":"4","last_reported":1702677981,"current_range_meters":17600,"station_id":"ce4bgn92rcd13ifvqbvg","pricing_plan_id":"free"},{"bike_id":"c9d37479-0fd7-46f7-a1b7-b5acc8267484","system_id":"levelo_inurba_marseille","lat":43.309039,"lon":5.371797,"is_reserved":false,"is_disabled":false,"rental_uris":{"android":"levelo://app?vid=c9d37479-0fd7-46f7-a1b7-b5acc8267484","ios":"levelo://app?vid=c9d37479-0fd7-46f7-a1b7-b5acc8267484"},"vehicle_type_id":"4","last_reported":1702677981,"current_range_meters":29600,"station_id":"ce4bguh2rcd13ifvqckg","pricing_plan_id":"free"},{"bike_id":"3f8b821f-e430-4a35-bf14-f8b6e777ea11","system_id":"levelo_inurba_marseille","lat":43.313939,"lon":5.375306,"is_reserved":false,"is_disabled":false,"rental_uris":{"android":"levelo://app?vid=3f8b821f-e430-4a35-bf14-f8b6e777ea11","ios":"levelo://app?vid=3f8b821f-e430-4a35-bf14-f8b6e777ea11"},"vehicle_type_id":"4","last_reported":1702677981,"current_range_meters":0,"station_id":"","pricing_plan_id":"free"},{"bike_id":"21f18285-55e2-4f19-950f-e1604680d775","system_id":"levelo_inurba_marseille","lat":43.305368,"lon":5.367343,"is_reserved":false,"is_disabled":false,"rental_uris":{"android":"levelo://app?vid=21f18285-55e2-4f19-950f-e1604680d775","ios":"levelo://app?vid=21f18285-55e2-4f19-950f-e1604680d775"},"vehicle_type_id":"4","last_reported":1702677981,"current_range_meters":4400,"station_id":"ce4bgrp2rcd13ifvqc9g","pricing_plan_id":"free"},{"bike_id":"955e4ab2-16e5-44e8-a986-a2f50ff96c06","system_id":"levelo_inurba_marseille","lat":43.305382,"lon":5.365389,"is_reserved":false,"is_disabled":false,"rental_uris":{"android":"levelo://app?vid=955e4ab2-16e5-44e8-a986-a2f50ff96c06","ios":"levelo://app?vid=955e4ab2-16e5-44e8-a986-a2f50ff96c06"},"vehicle_type_id":"4","last_reported":1702677981,"current_range_meters":18000,"station_id":"","pricing_plan_id":"free"},{"bike_id":"853009c0-e01a-439c-b3e9-4c7d620628f6","system_id":"levelo_inurba_marseille","lat":43.305989,"lon":5.37225,"is_reserved":false,"is_disabled":false,"rental_uris":{"android":"levelo://app?vid=853009c0-e01a-439c-b3e9-4c7d620628f6","ios":"levelo://app?vid=853009c0-e01a-439c-b3e9-4c7d620628f6"},"vehicle_type_id":"4","last_reported":1702677981,"current_range_meters":19200,"station_id":"ce4bgqh2rcd13ifvqc4g","pricing_plan_id":"free"},{"bike_id":"37480a4d-1ce9-421b-8587-12d2f7ed17e2","system_id":"levelo_inurba_marseille","lat":43.305989,"lon":5.37225,"is_reserved":false,"is_disabled":false,"rental_uris":{"android":"levelo://app?vid=37480a4d-1ce9-421b-8587-12d2f7ed17e2","ios":"levelo://app?vid=37480a4d-1ce9-421b-8587-12d2f7ed17e2"},"vehicle_type_id":"4","last_reported":1702677981,"current_range_meters":19600,"station_id":"ce4bgqh2rcd13ifvqc4g","pricing_plan_id":"free"},{"bike_id":"688d589f-e7b3-4777-8e07-6fd8148f2d76","system_id":"levelo_inurba_marseille","lat":43.31125,"lon":5.37769,"is_reserved":false,"is_disabled":false,"rental_uris":{"android":"levelo://app?vid=688d589f-e7b3-4777-8e07-6fd8148f2d76","ios":"levelo://app?vid=688d589f-e7b3-4777-8e07-6fd8148f2d76"},"vehicle_type_id":"4","last_reported":1702677981,"current_range_meters":0,"station_id":"ce4bgt92rcd13ifvqcg0","pricing_plan_id":"free"},{"bike_id":"06a2b8ec-4516-47cb-8f32-5a7996493b2d","system_id":"levelo_inurba_marseille","lat":43.317075,"lon":5.377367,"is_reserved":false,"is_disabled":false,"rental_uris":{"android":"levelo://app?vid=06a2b8ec-4516-47cb-8f32-5a7996493b2d","ios":"levelo://app?vid=06a2b8ec-4516-47cb-8f32-5a7996493b2d"},"vehicle_type_id":"4","last_reported":1702677981,"current_range_meters":12400,"station_id":"ce4bgth2rcd13ifvqch0","pricing_plan_id":"free"},{"bike_id":"270128b7-92b3-4625-b6f5-5e68cc200e0b","system_id":"levelo_inurba_marseille","lat":43.30304,"lon":5.368987,"is_reserved":false,"is_disabled":false,"rental_uris":{"android":"levelo://app?vid=270128b7-92b3-4625-b6f5-5e68cc200e0b","ios":"levelo://app?vid=270128b7-92b3-4625-b6f5-5e68cc200e0b"},"vehicle_type_id":"4","last_reported":1702677981,"current_range_meters":15600,"station_id":"ce4bgqh2rcd13ifvqc5g","pricing_plan_id":"free"},{"bike_id":"112889bc-8d0f-431d-9767-314715ea602b","system_id":"levelo_inurba_marseille","lat":43.315478,"lon":5.380248,"is_reserved":false,"is_disabled":false,"rental_uris":{"android":"levelo://app?vid=112889bc-8d0f-431d-9767-314715ea602b","ios":"levelo://app?vid=112889bc-8d0f-431d-9767-314715ea602b"},"vehicle_type_id":"4","last_reported":1702677981,"current_range_meters":18800,"station_id":"ce4bhsp2rcd13ifvqi50","pricing_plan_id":"free"},{"bike_id":"33858e5b-f48b-40ee-88f1-169fb62afdc9","system_id":"levelo_inurba_marseille","lat":43.315293,"lon":5.380349,"is_reserved":false,"is_disabled":false,"rental_uris":{"android":"levelo://app?vid=33858e5b-f48b-40ee-88f1-169fb62afdc9","ios":"levelo://app?vid=33858e5b-f48b-40ee-88f1-169fb62afdc9"},"vehicle_type_id":"4","last_reported":1702677981,"current_range_meters":22000,"station_id":"ce4bhsp2rcd13ifvqi50","pricing_plan_id":"free"},{"bike_id":"082d8808-4885-4919-9cc0-ea9b6bef0528","system_id":"levelo_inurba_marseille","lat":43.31532,"lon":5.38037,"is_reserved":false,"is_disabled":false,"rental_uris":{"android":"levelo://app?vid=082d8808-4885-4919-9cc0-ea9b6bef0528","ios":"levelo://app?vid=082d8808-4885-4919-9cc0-ea9b6bef0528"},"vehicle_type_id":"4","last_reported":1702677981,"current_range_meters":8400,"station_id":"ce4bhsp2rcd13ifvqi50","pricing_plan_id":"free"},{"bike_id":"268d7a8f-ffed-4eee-ad75-969cf62031fb","system_id":"levelo_inurba_marseille","lat":43.31523,"lon":5.38044,"is_reserved":false,"is_disabled":false,"rental_uris":{"android":"levelo://app?vid=268d7a8f-ffed-4eee-ad75-969cf62031fb","ios":"levelo://app?vid=268d7a8f-ffed-4eee-ad75-969cf62031fb"},"vehicle_type_id":"4","last_reported":1702677981,"current_range_meters":4400,"station_id":"ce4bhsp2rcd13ifvqi50","pricing_plan_id":"free"},{"bike_id":"791d07f6-8807-4871-9e4f-c531446dabc9","system_id":"levelo_inurba_marseille","lat":43.301939,"lon":5.366286,"is_reserved":false,"is_disabled":false,"rental_uris":{"android":"levelo://app?vid=791d07f6-8807-4871-9e4f-c531446dabc9","ios":"levelo://app?vid=791d07f6-8807-4871-9e4f-c531446dabc9"},"vehicle_type_id":"4","last_reported":1702677981,"current_range_meters":10400,"station_id":"ce4bgrh2rcd13ifvqc8g","pricing_plan_id":"free"},{"bike_id":"e727bf59-f813-48d0-9ce3-6b6a95a2cc6a","system_id":"levelo_inurba_marseille","lat":43.30802,"lon":5.38145,"is_reserved":false,"is_disabled":false,"rental_uris":{"android":"levelo://app?vid=e727bf59-f813-48d0-9ce3-6b6a95a2cc6a","ios":"levelo://app?vid=e727bf59-f813-48d0-9ce3-6b6a95a2cc6a"},"vehicle_type_id":"4","last_reported":1702677981,"current_range_meters":0,"station_id":"ce4bgt12rcd13ifvqce0","pricing_plan_id":"free"},{"bike_id":"3ee4ac7d-2b9c-4b0c-9c52-6df0f67e4819","system_id":"levelo_inurba_marseille","lat":43.304606,"lon":5.379026,"is_reserved":false,"is_disabled":false,"rental_uris":{"android":"levelo://app?vid=3ee4ac7d-2b9c-4b0c-9c52-6df0f67e4819","ios":"levelo://app?vid=3ee4ac7d-2b9c-4b0c-9c52-6df0f67e4819"},"vehicle_type_id":"4","last_reported":1702677981,"current_range_meters":20400,"station_id":"ce4bgup2rcd13ifvqcn0","pricing_plan_id":"free"},{"bike_id":"9e62b7c2-fe78-454b-a404-e0b4b5f00872","system_id":"levelo_inurba_marseille","lat":43.304606,"lon":5.379026,"is_reserved":false,"is_disabled":false,"rental_uris":{"android":"levelo://app?vid=9e62b7c2-fe78-454b-a404-e0b4b5f00872","ios":"levelo://app?vid=9e62b7c2-fe78-454b-a404-e0b4b5f00872"},"vehicle_type_id":"4","last_reported":1702677981,"current_range_meters":0,"station_id":"ce4bgup2rcd13ifvqcn0","pricing_plan_id":"free"},{"bike_id":"88f7ea2a-62f7-4a88-9e9d-900940b4d7e5","system_id":"levelo_inurba_marseille","lat":43.32477,"lon":5.365628,"is_reserved":false,"is_disabled":false,"rental_uris":{"android":"levelo://app?vid=88f7ea2a-62f7-4a88-9e9d-900940b4d7e5","ios":"levelo://app?vid=88f7ea2a-62f7-4a88-9e9d-900940b4d7e5"},"vehicle_type_id":"4","last_reported":1702677981,"current_range_meters":19200,"station_id":"ce4bhs12rcd13ifvqhvg","pricing_plan_id":"free"},{"bike_id":"dfe62985-6f65-471f-8bdb-4e96693a7937","system_id":"levelo_inurba_marseille","lat":43.324797,"lon":5.365703,"is_reserved":false,"is_disabled":false,"rental_uris":{"android":"levelo://app?vid=dfe62985-6f65-471f-8bdb-4e96693a7937","ios":"levelo://app?vid=dfe62985-6f65-471f-8bdb-4e96693a7937"},"vehicle_type_id":"4","last_reported":1702677981,"current_range_meters":20800,"station_id":"ce4bhs12rcd13ifvqhvg","pricing_plan_id":"free"},{"bike_id":"f1cde3ff-6cd4-4e86-99bc-06e7a73fc0a0","system_id":"levelo_inurba_marseille","lat":43.324771,"lon":5.36557,"is_reserved":false,"is_disabled":false,"rental_uris":{"android":"levelo://app?vid=f1cde3ff-6cd4-4e86-99bc-06e7a73fc0a0","ios":"levelo://app?vid=f1cde3ff-6cd4-4e86-99bc-06e7a73fc0a0"},"vehicle_type_id":"4","last_reported":1702677981,"current_range_meters":20000,"station_id":"ce4bhs12rcd13ifvqhvg","pricing_plan_id":"free"},{"bike_id":"5e39cacd-4f47-46aa-b469-20ce9e1ba57c","system_id":"levelo_inurba_marseille","lat":43.32483,"lon":5.36561,"is_reserved":false,"is_disabled":false,"rental_uris":{"android":"levelo://app?vid=5e39cacd-4f47-46aa-b469-20ce9e1ba57c","ios":"levelo://app?vid=5e39cacd-4f47-46aa-b469-20ce9e1ba57c"},"vehicle_type_id":"4","last_reported":1702677981,"current_range_meters":4800,"station_id":"ce4bhs12rcd13ifvqhvg","pricing_plan_id":"free"},{"bike_id":"d8805a15-0176-43d0-874f-954d8a729e99","system_id":"levelo_inurba_marseille","lat":43.313571,"lon":5.384829,"is_reserved":false,"is_disabled":false,"rental_uris":{"android":"levelo://app?vid=d8805a15-0176-43d0-874f-954d8a729e99","ios":"levelo://app?vid=d8805a15-0176-43d0-874f-954d8a729e99"},"vehicle_type_id":"4","last_reported":1702677981,"current_range_meters":14000,"station_id":"ce4bgt92rcd13ifvqcf0","pricing_plan_id":"free"},{"bike_id":"2716ecf2-2796-49fc-8310-074102d61e52","system_id":"levelo_inurba_marseille","lat":43.313571,"lon":5.384829,"is_reserved":false,"is_disabled":false,"rental_uris":{"android":"levelo://app?vid=2716ecf2-2796-49fc-8310-074102d61e52","ios":"levelo://app?vid=2716ecf2-2796-49fc-8310-074102d61e52"},"vehicle_type_id":"4","last_reported":1702677981,"current_range_meters":15200,"station_id":"ce4bgt92rcd13ifvqcf0","pricing_plan_id":"free"},{"bike_id":"3a981fd6-72c7-4d26-be2f-f18e5e8dc7e2","system_id":"levelo_inurba_marseille","lat":43.313571,"lon":5.384829,"is_reserved":false,"is_disabled":false,"rental_uris":{"android":"levelo://app?vid=3a981fd6-72c7-4d26-be2f-f18e5e8dc7e2","ios":"levelo://app?vid=3a981fd6-72c7-4d26-be2f-f18e5e8dc7e2"},"vehicle_type_id":"4","last_reported":1702677981,"current_range_meters":14800,"station_id":"ce4bgt92rcd13ifvqcf0","pricing_plan_id":"free"},{"bike_id":"8df6905d-0fe9-4435-887f-9ae2ac01ae4f","system_id":"levelo_inurba_marseille","lat":43.299222,"lon":5.365554,"is_reserved":false,"is_disabled":false,"rental_uris":{"android":"levelo://app?vid=8df6905d-0fe9-4435-887f-9ae2ac01ae4f","ios":"levelo://app?vid=8df6905d-0fe9-4435-887f-9ae2ac01ae4f"},"vehicle_type_id":"4","last_reported":1702677981,"current_range_meters":4000,"station_id":"ce4bgm92rcd13ifvqbr0","pricing_plan_id":"free"},{"bike_id":"d7438742-304f-470f-9398-2bce8716ba2a","system_id":"levelo_inurba_marseille","lat":43.29936,"lon":5.3655,"is_reserved":false,"is_disabled":false,"rental_uris":{"android":"levelo://app?vid=d7438742-304f-470f-9398-2bce8716ba2a","ios":"levelo://app?vid=d7438742-304f-470f-9398-2bce8716ba2a"},"vehicle_type_id":"4","last_reported":1702677981,"current_range_meters":18400,"station_id":"ce4bgm92rcd13ifvqbr0","pricing_plan_id":"free"},{"bike_id":"0073900a-5c47-44b8-b6b2-5bccaf75d5e4","system_id":"levelo_inurba_marseille","lat":43.299724,"lon":5.371829,"is_reserved":false,"is_disabled":false,"rental_uris":{"android":"levelo://app?vid=0073900a-5c47-44b8-b6b2-5bccaf75d5e4","ios":"levelo://app?vid=0073900a-5c47-44b8-b6b2-5bccaf75d5e4"},"vehicle_type_id":"4","last_reported":1702677981,"current_range_meters":26800,"station_id":"ce4bgr92rcd13ifvqc7g","pricing_plan_id":"free"},{"bike_id":"435676c5-a42d-43e1-b2e6-f5b851d287a4","system_id":"levelo_inurba_marseille","lat":43.299724,"lon":5.371829,"is_reserved":false,"is_disabled":false,"rental_uris":{"android":"levelo://app?vid=435676c5-a42d-43e1-b2e6-f5b851d287a4","ios":"levelo://app?vid=435676c5-a42d-43e1-b2e6-f5b851d287a4"},"vehicle_type_id":"4","last_reported":1702677981,"current_range_meters":11600,"station_id":"ce4bgr92rcd13ifvqc7g","pricing_plan_id":"free"},{"bike_id":"f5c66534-57aa-43f9-bd31-24fc654a47b8","system_id":"levelo_inurba_marseille","lat":43.299724,"lon":5.371829,"is_reserved":false,"is_disabled":false,"rental_uris":{"android":"levelo://app?vid=f5c66534-57aa-43f9-bd31-24fc654a47b8","ios":"levelo://app?vid=f5c66534-57aa-43f9-bd31-24fc654a47b8"},"vehicle_type_id":"4","last_reported":1702677981,"current_range_meters":1200,"station_id":"ce4bgr92rcd13ifvqc7g","pricing_plan_id":"free"},{"bike_id":"fb28fa8f-8cf2-4cd6-a982-a0a27588c71d","system_id":"levelo_inurba_marseille","lat":43.299724,"lon":5.371829,"is_reserved":false,"is_disabled":false,"rental_uris":{"android":"levelo://app?vid=fb28fa8f-8cf2-4cd6-a982-a0a27588c71d","ios":"levelo://app?vid=fb28fa8f-8cf2-4cd6-a982-a0a27588c71d"},"vehicle_type_id":"4","last_reported":1702677981,"current_range_meters":28000,"station_id":"ce4bgr92rcd13ifvqc7g","pricing_plan_id":"free"},{"bike_id":"2628431f-da41-45b9-bb5b-b864794506d1","system_id":"levelo_inurba_marseille","lat":43.30516,"lon":5.38289,"is_reserved":false,"is_disabled":false,"rental_uris":{"android":"levelo://app?vid=2628431f-da41-45b9-bb5b-b864794506d1","ios":"levelo://app?vid=2628431f-da41-45b9-bb5b-b864794506d1"},"vehicle_type_id":"4","last_reported":1702677981,"current_range_meters":18800,"station_id":"","pricing_plan_id":"free"},{"bike_id":"4cfeee5c-a63d-4ec0-b4ff-b5cc74f4f508","system_id":"levelo_inurba_marseille","lat":43.313021,"lon":5.386158,"is_reserved":false,"is_disabled":false,"rental_uris":{"android":"levelo://app?vid=4cfeee5c-a63d-4ec0-b4ff-b5cc74f4f508","ios":"levelo://app?vid=4cfeee5c-a63d-4ec0-b4ff-b5cc74f4f508"},"vehicle_type_id":"4","last_reported":1702677981,"current_range_meters":0,"station_id":"","pricing_plan_id":"free"},{"bike_id":"d6640b96-023f-44d1-aa26-c7894ab182bc","system_id":"levelo_inurba_marseille","lat":43.305364,"lon":5.384119,"is_reserved":false,"is_disabled":false,"rental_uris":{"android":"levelo://app?vid=d6640b96-023f-44d1-aa26-c7894ab182bc","ios":"levelo://app?vid=d6640b96-023f-44d1-aa26-c7894ab182bc"},"vehicle_type_id":"4","last_reported":1702677981,"current_range_meters":29200,"station_id":"ce4bgg92rcd13ifvqb30","pricing_plan_id":"free"},{"bike_id":"80d2db86-e8df-4d07-bd14-28c62c85d7d8","system_id":"levelo_inurba_marseille","lat":43.298433,"lon":5.362774,"is_reserved":false,"is_disabled":false,"rental_uris":{"android":"levelo://app?vid=80d2db86-e8df-4d07-bd14-28c62c85d7d8","ios":"levelo://app?vid=80d2db86-e8df-4d07-bd14-28c62c85d7d8"},"vehicle_type_id":"4","last_reported":1702677981,"current_range_meters":400,"station_id":"ce4bgpp2rcd13ifvqc3g","pricing_plan_id":"free"},{"bike_id":"302ae721-80ee-4d48-9bc0-76c943256b90","system_id":"levelo_inurba_marseille","lat":43.298433,"lon":5.362774,"is_reserved":false,"is_disabled":false,"rental_uris":{"android":"levelo://app?vid=302ae721-80ee-4d48-9bc0-76c943256b90","ios":"levelo://app?vid=302ae721-80ee-4d48-9bc0-76c943256b90"},"vehicle_type_id":"4","last_reported":1702677981,"current_range_meters":12000,"station_id":"ce4bgpp2rcd13ifvqc3g","pricing_plan_id":"free"},{"bike_id":"04378296-36e4-4591-9054-497136b40447","system_id":"levelo_inurba_marseille","lat":43.298433,"lon":5.362774,"is_reserved":false,"is_disabled":false,"rental_uris":{"android":"levelo://app?vid=04378296-36e4-4591-9054-497136b40447","ios":"levelo://app?vid=04378296-36e4-4591-9054-497136b40447"},"vehicle_type_id":"4","last_reported":1702677981,"current_range_meters":18800,"station_id":"ce4bgpp2rcd13ifvqc3g","pricing_plan_id":"free"},{"bike_id":"f5a1dccf-776d-4d65-8cf3-19917ead205b","system_id":"levelo_inurba_marseille","lat":43.298433,"lon":5.362774,"is_reserved":false,"is_disabled":false,"rental_uris":{"android":"levelo://app?vid=f5a1dccf-776d-4d65-8cf3-19917ead205b","ios":"levelo://app?vid=f5a1dccf-776d-4d65-8cf3-19917ead205b"},"vehicle_type_id":"4","last_reported":1702677981,"current_range_meters":5200,"station_id":"ce4bgpp2rcd13ifvqc3g","pricing_plan_id":"free"},{"bike_id":"c4e77394-aef9-4077-b745-e99148625344","system_id":"levelo_inurba_marseille","lat":43.32733,"lon":5.36707,"is_reserved":false,"is_disabled":false,"rental_uris":{"android":"levelo://app?vid=c4e77394-aef9-4077-b745-e99148625344","ios":"levelo://app?vid=c4e77394-aef9-4077-b745-e99148625344"},"vehicle_type_id":"4","last_reported":1702677981,"current_range_meters":25200,"station_id":"","pricing_plan_id":"free"},{"bike_id":"e112380b-d3a1-4e47-add8-0ffcb003a7dd","system_id":"levelo_inurba_marseille","lat":43.298433,"lon":5.362774,"is_reserved":false,"is_disabled":false,"rental_uris":{"android":"levelo://app?vid=e112380b-d3a1-4e47-add8-0ffcb003a7dd","ios":"levelo://app?vid=e112380b-d3a1-4e47-add8-0ffcb003a7dd"},"vehicle_type_id":"4","last_reported":1702677981,"current_range_meters":12400,"station_id":"ce4bgpp2rcd13ifvqc3g","pricing_plan_id":"free"},{"bike_id":"a3d53965-662c-4dbf-910a-c236b20d399a","system_id":"levelo_inurba_marseille","lat":43.305364,"lon":5.384119,"is_reserved":false,"is_disabled":false,"rental_uris":{"android":"levelo://app?vid=a3d53965-662c-4dbf-910a-c236b20d399a","ios":"levelo://app?vid=a3d53965-662c-4dbf-910a-c236b20d399a"},"vehicle_type_id":"4","last_reported":1702677981,"current_range_meters":5600,"station_id":"ce4bgg92rcd13ifvqb30","pricing_plan_id":"free"},{"bike_id":"819cb438-2e9c-4e0b-902b-5e19ef554d5c","system_id":"levelo_inurba_marseille","lat":43.305522,"lon":5.384374,"is_reserved":false,"is_disabled":false,"rental_uris":{"android":"levelo://app?vid=819cb438-2e9c-4e0b-902b-5e19ef554d5c","ios":"levelo://app?vid=819cb438-2e9c-4e0b-902b-5e19ef554d5c"},"vehicle_type_id":"4","last_reported":1702677981,"current_range_meters":19200,"station_id":"ce4bgg92rcd13ifvqb30","pricing_plan_id":"free"},{"bike_id":"8a524f98-94c1-4f11-8e97-5585e7ff4c88","system_id":"levelo_inurba_marseille","lat":43.298433,"lon":5.362774,"is_reserved":false,"is_disabled":false,"rental_uris":{"android":"levelo://app?vid=8a524f98-94c1-4f11-8e97-5585e7ff4c88","ios":"levelo://app?vid=8a524f98-94c1-4f11-8e97-5585e7ff4c88"},"vehicle_type_id":"4","last_reported":1702677981,"current_range_meters":23600,"station_id":"ce4bgpp2rcd13ifvqc3g","pricing_plan_id":"free"},{"bike_id":"c697c5d1-c048-4f10-b165-aaaa6b0c60a2","system_id":"levelo_inurba_marseille","lat":43.298433,"lon":5.362774,"is_reserved":false,"is_disabled":false,"rental_uris":{"android":"levelo://app?vid=c697c5d1-c048-4f10-b165-aaaa6b0c60a2","ios":"levelo://app?vid=c697c5d1-c048-4f10-b165-aaaa6b0c60a2"},"vehicle_type_id":"4","last_reported":1702677981,"current_range_meters":31600,"station_id":"ce4bgpp2rcd13ifvqc3g","pricing_plan_id":"free"},{"bike_id":"2283926f-3d86-4a8d-96fd-9f31be798410","system_id":"levelo_inurba_marseille","lat":43.298433,"lon":5.362774,"is_reserved":false,"is_disabled":false,"rental_uris":{"android":"levelo://app?vid=2283926f-3d86-4a8d-96fd-9f31be798410","ios":"levelo://app?vid=2283926f-3d86-4a8d-96fd-9f31be798410"},"vehicle_type_id":"4","last_reported":1702677981,"current_range_meters":21600,"station_id":"ce4bgpp2rcd13ifvqc3g","pricing_plan_id":"free"},{"bike_id":"85e56085-ad40-44b0-9c3e-ff8fed3ff83a","system_id":"levelo_inurba_marseille","lat":43.298433,"lon":5.362774,"is_reserved":false,"is_disabled":false,"rental_uris":{"android":"levelo://app?vid=85e56085-ad40-44b0-9c3e-ff8fed3ff83a","ios":"levelo://app?vid=85e56085-ad40-44b0-9c3e-ff8fed3ff83a"},"vehicle_type_id":"4","last_reported":1702677981,"current_range_meters":5200,"station_id":"ce4bgpp2rcd13ifvqc3g","pricing_plan_id":"free"},{"bike_id":"19d0bf9a-c90c-4e16-8406-2a2de7bc0411","system_id":"levelo_inurba_marseille","lat":43.299243,"lon":5.374807,"is_reserved":false,"is_disabled":false,"rental_uris":{"android":"levelo://app?vid=19d0bf9a-c90c-4e16-8406-2a2de7bc0411","ios":"levelo://app?vid=19d0bf9a-c90c-4e16-8406-2a2de7bc0411"},"vehicle_type_id":"4","last_reported":1702677981,"current_range_meters":26800,"station_id":"ce4bgjh2rcd13ifvqbg0","pricing_plan_id":"free"},{"bike_id":"276c7f7b-d0d0-4a35-bc22-b898142981fc","system_id":"levelo_inurba_marseille","lat":43.311722,"lon":5.387247,"is_reserved":false,"is_disabled":false,"rental_uris":{"android":"levelo://app?vid=276c7f7b-d0d0-4a35-bc22-b898142981fc","ios":"levelo://app?vid=276c7f7b-d0d0-4a35-bc22-b898142981fc"},"vehicle_type_id":"4","last_reported":1702677981,"current_range_meters":24800,"station_id":"ce4bgv12rcd13ifvqcp0","pricing_plan_id":"free"},{"bike_id":"06132c46-579e-4f44-9812-ed48bc45300a","system_id":"levelo_inurba_marseille","lat":43.2991,"lon":5.37476,"is_reserved":false,"is_disabled":false,"rental_uris":{"android":"levelo://app?vid=06132c46-579e-4f44-9812-ed48bc45300a","ios":"levelo://app?vid=06132c46-579e-4f44-9812-ed48bc45300a"},"vehicle_type_id":"4","last_reported":1702677981,"current_range_meters":20400,"station_id":"ce4bgjh2rcd13ifvqbg0","pricing_plan_id":"free"},{"bike_id":"39924610-9d2d-4317-8ba3-1e461af1ed0a","system_id":"levelo_inurba_marseille","lat":43.311722,"lon":5.387247,"is_reserved":false,"is_disabled":false,"rental_uris":{"android":"levelo://app?vid=39924610-9d2d-4317-8ba3-1e461af1ed0a","ios":"levelo://app?vid=39924610-9d2d-4317-8ba3-1e461af1ed0a"},"vehicle_type_id":"4","last_reported":1702677981,"current_range_meters":30000,"station_id":"ce4bgv12rcd13ifvqcp0","pricing_plan_id":"free"},{"bike_id":"cb559df9-b405-48a1-9eb4-7367463ff55c","system_id":"levelo_inurba_marseille","lat":43.32297,"lon":5.3828,"is_reserved":false,"is_disabled":false,"rental_uris":{"android":"levelo://app?vid=cb559df9-b405-48a1-9eb4-7367463ff55c","ios":"levelo://app?vid=cb559df9-b405-48a1-9eb4-7367463ff55c"},"vehicle_type_id":"4","last_reported":1702677981,"current_range_meters":5600,"station_id":"ce4bhr12rcd13ifvqhqg","pricing_plan_id":"free"},{"bike_id":"ff3c1fbe-c05f-4ff4-ad25-569fb49190dd","system_id":"levelo_inurba_marseille","lat":43.29584,"lon":5.367783,"is_reserved":false,"is_disabled":false,"rental_uris":{"android":"levelo://app?vid=ff3c1fbe-c05f-4ff4-ad25-569fb49190dd","ios":"levelo://app?vid=ff3c1fbe-c05f-4ff4-ad25-569fb49190dd"},"vehicle_type_id":"4","last_reported":1702677981,"current_range_meters":4800,"station_id":"ce4bgph2rcd13ifvqc2g","pricing_plan_id":"free"},{"bike_id":"2e9ac75c-4aed-46eb-87e5-b99edc24a1d0","system_id":"levelo_inurba_marseille","lat":43.30952,"lon":5.39028,"is_reserved":false,"is_disabled":false,"rental_uris":{"android":"levelo://app?vid=2e9ac75c-4aed-46eb-87e5-b99edc24a1d0","ios":"levelo://app?vid=2e9ac75c-4aed-46eb-87e5-b99edc24a1d0"},"vehicle_type_id":"4","last_reported":1702677981,"current_range_meters":10800,"station_id":"ce4bgup2rcd13ifvqco0","pricing_plan_id":"free"},{"bike_id":"2c97f5e7-6c3e-4bf8-9982-a35a48658778","system_id":"levelo_inurba_marseille","lat":43.309589,"lon":5.390258,"is_reserved":false,"is_disabled":false,"rental_uris":{"android":"levelo://app?vid=2c97f5e7-6c3e-4bf8-9982-a35a48658778","ios":"levelo://app?vid=2c97f5e7-6c3e-4bf8-9982-a35a48658778"},"vehicle_type_id":"4","last_reported":1702677981,"current_range_meters":9200,"station_id":"ce4bgup2rcd13ifvqco0","pricing_plan_id":"free"},{"bike_id":"1ed302ad-cc9d-4416-94f1-0083340ed0d7","system_id":"levelo_inurba_marseille","lat":43.304278,"lon":5.388868,"is_reserved":false,"is_disabled":false,"rental_uris":{"android":"levelo://app?vid=1ed302ad-cc9d-4416-94f1-0083340ed0d7","ios":"levelo://app?vid=1ed302ad-cc9d-4416-94f1-0083340ed0d7"},"vehicle_type_id":"4","last_reported":1702677981,"current_range_meters":5200,"station_id":"ce4bgk12rcd13ifvqbi0","pricing_plan_id":"free"},{"bike_id":"bffd4219-b01d-494e-9613-c5240534601b","system_id":"levelo_inurba_marseille","lat":43.299707,"lon":5.384859,"is_reserved":false,"is_disabled":false,"rental_uris":{"android":"levelo://app?vid=bffd4219-b01d-494e-9613-c5240534601b","ios":"levelo://app?vid=bffd4219-b01d-494e-9613-c5240534601b"},"vehicle_type_id":"4","last_reported":1702677981,"current_range_meters":12000,"station_id":"ce4bgj92rcd13ifvqbd0","pricing_plan_id":"free"},{"bike_id":"2e1e7e28-5f16-4292-8f7c-0d86a2f5cf65","system_id":"levelo_inurba_marseille","lat":43.299717,"lon":5.384845,"is_reserved":false,"is_disabled":false,"rental_uris":{"android":"levelo://app?vid=2e1e7e28-5f16-4292-8f7c-0d86a2f5cf65","ios":"levelo://app?vid=2e1e7e28-5f16-4292-8f7c-0d86a2f5cf65"},"vehicle_type_id":"4","last_reported":1702677981,"current_range_meters":14800,"station_id":"ce4bgj92rcd13ifvqbd0","pricing_plan_id":"free"},{"bike_id":"ea695e61-9aef-4d3e-a527-3688ed23bdb6","system_id":"levelo_inurba_marseille","lat":43.299717,"lon":5.384845,"is_reserved":false,"is_disabled":false,"rental_uris":{"android":"levelo://app?vid=ea695e61-9aef-4d3e-a527-3688ed23bdb6","ios":"levelo://app?vid=ea695e61-9aef-4d3e-a527-3688ed23bdb6"},"vehicle_type_id":"4","last_reported":1702677981,"current_range_meters":28400,"station_id":"ce4bgj92rcd13ifvqbd0","pricing_plan_id":"free"},{"bike_id":"31a350b7-446d-4166-8ae8-721de3caf15f","system_id":"levelo_inurba_marseille","lat":43.299724,"lon":5.384848,"is_reserved":false,"is_disabled":false,"rental_uris":{"android":"levelo://app?vid=31a350b7-446d-4166-8ae8-721de3caf15f","ios":"levelo://app?vid=31a350b7-446d-4166-8ae8-721de3caf15f"},"vehicle_type_id":"4","last_reported":1702677981,"current_range_meters":1600,"station_id":"ce4bgj92rcd13ifvqbd0","pricing_plan_id":"free"},{"bike_id":"b73a668a-312a-4e46-8553-f825cf0dd972","system_id":"levelo_inurba_marseille","lat":43.302992,"lon":5.392136,"is_reserved":false,"is_disabled":false,"rental_uris":{"android":"levelo://app?vid=b73a668a-312a-4e46-8553-f825cf0dd972","ios":"levelo://app?vid=b73a668a-312a-4e46-8553-f825cf0dd972"},"vehicle_type_id":"4","last_reported":1702677981,"current_range_meters":26800,"station_id":"ce4bgkh2rcd13ifvqbk0","pricing_plan_id":"free"},{"bike_id":"b9a08ac3-7e58-4bd6-96f8-d8351add22c9","system_id":"levelo_inurba_marseille","lat":43.300852,"lon":5.390859,"is_reserved":false,"is_disabled":false,"rental_uris":{"android":"levelo://app?vid=b9a08ac3-7e58-4bd6-96f8-d8351add22c9","ios":"levelo://app?vid=b9a08ac3-7e58-4bd6-96f8-d8351add22c9"},"vehicle_type_id":"4","last_reported":1702677981,"current_range_meters":8000,"station_id":"ce4bh192rcd13ifvqdb0","pricing_plan_id":"free"},{"bike_id":"afa08908-9754-4431-9b1c-baa0c0ec63ca","system_id":"levelo_inurba_marseille","lat":43.291994,"lon":5.357886,"is_reserved":false,"is_disabled":false,"rental_uris":{"android":"levelo://app?vid=afa08908-9754-4431-9b1c-baa0c0ec63ca","ios":"levelo://app?vid=afa08908-9754-4431-9b1c-baa0c0ec63ca"},"vehicle_type_id":"4","last_reported":1702677981,"current_range_meters":13600,"station_id":"ce4bhb12rcd13ifvqel0","pricing_plan_id":"free"},{"bike_id":"13fbc514-e701-4d27-9689-deadb82d14f9","system_id":"levelo_inurba_marseille","lat":43.313291,"lon":5.396838,"is_reserved":false,"is_disabled":false,"rental_uris":{"android":"levelo://app?vid=13fbc514-e701-4d27-9689-deadb82d14f9","ios":"levelo://app?vid=13fbc514-e701-4d27-9689-deadb82d14f9"},"vehicle_type_id":"4","last_reported":1702677981,"current_range_meters":22400,"station_id":"ce4bgvp2rcd13ifvqcu0","pricing_plan_id":"free"},{"bike_id":"d6589bf1-53ac-4632-9df9-93fa3c4e523a","system_id":"levelo_inurba_marseille","lat":43.313291,"lon":5.396838,"is_reserved":false,"is_disabled":false,"rental_uris":{"android":"levelo://app?vid=d6589bf1-53ac-4632-9df9-93fa3c4e523a","ios":"levelo://app?vid=d6589bf1-53ac-4632-9df9-93fa3c4e523a"},"vehicle_type_id":"4","last_reported":1702677981,"current_range_meters":28000,"station_id":"ce4bgvp2rcd13ifvqcu0","pricing_plan_id":"free"},{"bike_id":"5d8f4c0a-1894-4784-9947-4c7cec0be9bc","system_id":"levelo_inurba_marseille","lat":43.313291,"lon":5.396838,"is_reserved":false,"is_disabled":false,"rental_uris":{"android":"levelo://app?vid=5d8f4c0a-1894-4784-9947-4c7cec0be9bc","ios":"levelo://app?vid=5d8f4c0a-1894-4784-9947-4c7cec0be9bc"},"vehicle_type_id":"4","last_reported":1702677981,"current_range_meters":19200,"station_id":"ce4bgvp2rcd13ifvqcu0","pricing_plan_id":"free"},{"bike_id":"d195ec21-de91-44fd-a501-11abffbab2cc","system_id":"levelo_inurba_marseille","lat":43.309038,"lon":5.396546,"is_reserved":false,"is_disabled":false,"rental_uris":{"android":"levelo://app?vid=d195ec21-de91-44fd-a501-11abffbab2cc","ios":"levelo://app?vid=d195ec21-de91-44fd-a501-11abffbab2cc"},"vehicle_type_id":"4","last_reported":1702677981,"current_range_meters":4800,"station_id":"ce4bh012rcd13ifvqcv0","pricing_plan_id":"free"},{"bike_id":"fdd2a506-3ce4-45f2-96cb-38173ec0e746","system_id":"levelo_inurba_marseille","lat":43.273129,"lon":5.390725,"is_reserved":false,"is_disabled":false,"rental_uris":{"android":"levelo://app?vid=fdd2a506-3ce4-45f2-96cb-38173ec0e746","ios":"levelo://app?vid=fdd2a506-3ce4-45f2-96cb-38173ec0e746"},"vehicle_type_id":"4","last_reported":1702677981,"current_range_meters":400,"station_id":"ce4bhgp2rcd13ifvqfe0","pricing_plan_id":"free"},{"bike_id":"24509102-f34e-4ecb-b511-ead1983310ed","system_id":"levelo_inurba_marseille","lat":43.290779,"lon":5.371482,"is_reserved":false,"is_disabled":false,"rental_uris":{"android":"levelo://app?vid=24509102-f34e-4ecb-b511-ead1983310ed","ios":"levelo://app?vid=24509102-f34e-4ecb-b511-ead1983310ed"},"vehicle_type_id":"4","last_reported":1702677981,"current_range_meters":14400,"station_id":"ce4bh5p2rcd13ifvqe4g","pricing_plan_id":"free"},{"bike_id":"38422a11-5311-4076-82a9-a4571befd8ba","system_id":"levelo_inurba_marseille","lat":43.280784,"lon":5.396622,"is_reserved":false,"is_disabled":false,"rental_uris":{"android":"levelo://app?vid=38422a11-5311-4076-82a9-a4571befd8ba","ios":"levelo://app?vid=38422a11-5311-4076-82a9-a4571befd8ba"},"vehicle_type_id":"4","last_reported":1702677981,"current_range_meters":17600,"station_id":"ce4bho12rcd13ifvqh2g","pricing_plan_id":"free"},{"bike_id":"d6104a73-3553-4295-b95c-9c09eb78ffa7","system_id":"levelo_inurba_marseille","lat":43.29225,"lon":5.382165,"is_reserved":false,"is_disabled":false,"rental_uris":{"android":"levelo://app?vid=d6104a73-3553-4295-b95c-9c09eb78ffa7","ios":"levelo://app?vid=d6104a73-3553-4295-b95c-9c09eb78ffa7"},"vehicle_type_id":"4","last_reported":1702677981,"current_range_meters":0,"station_id":"ce4bh2h2rcd13ifvqdh0","pricing_plan_id":"free"},{"bike_id":"a21c32cd-befb-4f18-873f-308403979a78","system_id":"levelo_inurba_marseille","lat":43.28951,"lon":5.36408,"is_reserved":false,"is_disabled":false,"rental_uris":{"android":"levelo://app?vid=a21c32cd-befb-4f18-873f-308403979a78","ios":"levelo://app?vid=a21c32cd-befb-4f18-873f-308403979a78"},"vehicle_type_id":"4","last_reported":1702677981,"current_range_meters":20400,"station_id":"ce4bhc92rcd13ifvqetg","pricing_plan_id":"free"},{"bike_id":"a4ec5026-adba-423a-959c-cceb624704df","system_id":"levelo_inurba_marseille","lat":43.304274,"lon":5.397513,"is_reserved":false,"is_disabled":false,"rental_uris":{"android":"levelo://app?vid=a4ec5026-adba-423a-959c-cceb624704df","ios":"levelo://app?vid=a4ec5026-adba-423a-959c-cceb624704df"},"vehicle_type_id":"4","last_reported":1702677981,"current_range_meters":29200,"station_id":"ce4bh092rcd13ifvqd20","pricing_plan_id":"free"},{"bike_id":"6285fa6c-7fae-45aa-91f5-cfaddf769c9a","system_id":"levelo_inurba_marseille","lat":43.304296,"lon":5.397513,"is_reserved":false,"is_disabled":false,"rental_uris":{"android":"levelo://app?vid=6285fa6c-7fae-45aa-91f5-cfaddf769c9a","ios":"levelo://app?vid=6285fa6c-7fae-45aa-91f5-cfaddf769c9a"},"vehicle_type_id":"4","last_reported":1702677981,"current_range_meters":5200,"station_id":"ce4bh092rcd13ifvqd20","pricing_plan_id":"free"},{"bike_id":"dc785fb1-aea5-42b5-84f5-ca72664e6f92","system_id":"levelo_inurba_marseille","lat":43.290104,"lon":5.356111,"is_reserved":false,"is_disabled":false,"rental_uris":{"android":"levelo://app?vid=dc785fb1-aea5-42b5-84f5-ca72664e6f92","ios":"levelo://app?vid=dc785fb1-aea5-42b5-84f5-ca72664e6f92"},"vehicle_type_id":"4","last_reported":1702677981,"current_range_meters":12000,"station_id":"ce4bhb92rcd13ifvqen0","pricing_plan_id":"free"},{"bike_id":"2af1ec1d-db50-4675-b168-902ca134119a","system_id":"levelo_inurba_marseille","lat":43.33042,"lon":5.38922,"is_reserved":false,"is_disabled":false,"rental_uris":{"android":"levelo://app?vid=2af1ec1d-db50-4675-b168-902ca134119a","ios":"levelo://app?vid=2af1ec1d-db50-4675-b168-902ca134119a"},"vehicle_type_id":"4","last_reported":1702677981,"current_range_meters":1600,"station_id":"ce4bhr92rcd13ifvqhrg","pricing_plan_id":"free"},{"bike_id":"d9f8a7c2-05e3-4eb4-b616-91cb11c9167a","system_id":"levelo_inurba_marseille","lat":43.290103,"lon":5.356114,"is_reserved":false,"is_disabled":false,"rental_uris":{"android":"levelo://app?vid=d9f8a7c2-05e3-4eb4-b616-91cb11c9167a","ios":"levelo://app?vid=d9f8a7c2-05e3-4eb4-b616-91cb11c9167a"},"vehicle_type_id":"4","last_reported":1702677981,"current_range_meters":13600,"station_id":"ce4bhb92rcd13ifvqen0","pricing_plan_id":"free"},{"bike_id":"faf7a4dd-48bf-4057-a7fb-639293aa96f3","system_id":"levelo_inurba_marseille","lat":43.290104,"lon":5.356111,"is_reserved":false,"is_disabled":false,"rental_uris":{"android":"levelo://app?vid=faf7a4dd-48bf-4057-a7fb-639293aa96f3","ios":"levelo://app?vid=faf7a4dd-48bf-4057-a7fb-639293aa96f3"},"vehicle_type_id":"4","last_reported":1702677981,"current_range_meters":24000,"station_id":"ce4bhb92rcd13ifvqen0","pricing_plan_id":"free"},{"bike_id":"eac66c06-cabc-48bd-a8d2-7db435e9d43a","system_id":"levelo_inurba_marseille","lat":43.290995,"lon":5.381361,"is_reserved":false,"is_disabled":false,"rental_uris":{"android":"levelo://app?vid=eac66c06-cabc-48bd-a8d2-7db435e9d43a","ios":"levelo://app?vid=eac66c06-cabc-48bd-a8d2-7db435e9d43a"},"vehicle_type_id":"4","last_reported":1702677981,"current_range_meters":22000,"station_id":"ce4bh512rcd13ifvqe2g","pricing_plan_id":"free"},{"bike_id":"f5babe4f-cf7c-4df6-bead-aaa836075a38","system_id":"levelo_inurba_marseille","lat":43.290995,"lon":5.381361,"is_reserved":false,"is_disabled":false,"rental_uris":{"android":"levelo://app?vid=f5babe4f-cf7c-4df6-bead-aaa836075a38","ios":"levelo://app?vid=f5babe4f-cf7c-4df6-bead-aaa836075a38"},"vehicle_type_id":"4","last_reported":1702677981,"current_range_meters":27200,"station_id":"ce4bh512rcd13ifvqe2g","pricing_plan_id":"free"},{"bike_id":"3ec27f98-c759-4781-81fa-037d22b2241d","system_id":"levelo_inurba_marseille","lat":43.290995,"lon":5.381361,"is_reserved":false,"is_disabled":false,"rental_uris":{"android":"levelo://app?vid=3ec27f98-c759-4781-81fa-037d22b2241d","ios":"levelo://app?vid=3ec27f98-c759-4781-81fa-037d22b2241d"},"vehicle_type_id":"4","last_reported":1702677981,"current_range_meters":16400,"station_id":"ce4bh512rcd13ifvqe2g","pricing_plan_id":"free"},{"bike_id":"7d7b5292-bd0b-415e-9175-3da66c56d069","system_id":"levelo_inurba_marseille","lat":43.297782,"lon":5.393348,"is_reserved":false,"is_disabled":false,"rental_uris":{"android":"levelo://app?vid=7d7b5292-bd0b-415e-9175-3da66c56d069","ios":"levelo://app?vid=7d7b5292-bd0b-415e-9175-3da66c56d069"},"vehicle_type_id":"4","last_reported":1702677981,"current_range_meters":19600,"station_id":"chh1huq6cuj3fo74tm60","pricing_plan_id":"free"},{"bike_id":"1e184303-a4e3-46c6-905d-b378dcb8bc9f","system_id":"levelo_inurba_marseille","lat":43.297863,"lon":5.393458,"is_reserved":false,"is_disabled":false,"rental_uris":{"android":"levelo://app?vid=1e184303-a4e3-46c6-905d-b378dcb8bc9f","ios":"levelo://app?vid=1e184303-a4e3-46c6-905d-b378dcb8bc9f"},"vehicle_type_id":"4","last_reported":1702677981,"current_range_meters":26400,"station_id":"chh1huq6cuj3fo74tm60","pricing_plan_id":"free"},{"bike_id":"fc78cc6a-f9da-4684-86ce-2d41b1094757","system_id":"levelo_inurba_marseille","lat":43.289737,"lon":5.378327,"is_reserved":false,"is_disabled":false,"rental_uris":{"android":"levelo://app?vid=fc78cc6a-f9da-4684-86ce-2d41b1094757","ios":"levelo://app?vid=fc78cc6a-f9da-4684-86ce-2d41b1094757"},"vehicle_type_id":"4","last_reported":1702677981,"current_range_meters":31200,"station_id":"ce4bh9p2rcd13ifvqed0","pricing_plan_id":"free"},{"bike_id":"46c4ecb1-08fb-41ae-8344-2f9e1bee96a0","system_id":"levelo_inurba_marseille","lat":43.295169,"lon":5.390426,"is_reserved":false,"is_disabled":false,"rental_uris":{"android":"levelo://app?vid=46c4ecb1-08fb-41ae-8344-2f9e1bee96a0","ios":"levelo://app?vid=46c4ecb1-08fb-41ae-8344-2f9e1bee96a0"},"vehicle_type_id":"4","last_reported":1702677981,"current_range_meters":24000,"station_id":"ce4bh3p2rcd13ifvqdp0","pricing_plan_id":"free"},{"bike_id":"760eea16-5059-49b9-b5fc-db01f652c3f9","system_id":"levelo_inurba_marseille","lat":43.289741,"lon":5.378306,"is_reserved":false,"is_disabled":false,"rental_uris":{"android":"levelo://app?vid=760eea16-5059-49b9-b5fc-db01f652c3f9","ios":"levelo://app?vid=760eea16-5059-49b9-b5fc-db01f652c3f9"},"vehicle_type_id":"4","last_reported":1702677981,"current_range_meters":29600,"station_id":"ce4bh9p2rcd13ifvqed0","pricing_plan_id":"free"},{"bike_id":"04e08174-077d-406e-9800-126d71351cb7","system_id":"levelo_inurba_marseille","lat":43.3093,"lon":5.40135,"is_reserved":false,"is_disabled":false,"rental_uris":{"android":"levelo://app?vid=04e08174-077d-406e-9800-126d71351cb7","ios":"levelo://app?vid=04e08174-077d-406e-9800-126d71351cb7"},"vehicle_type_id":"4","last_reported":1702677981,"current_range_meters":9200,"station_id":"ce4bgvp2rcd13ifvqct0","pricing_plan_id":"free"},{"bike_id":"f0cd831c-cfb9-44c7-9487-103b6df223ca","system_id":"levelo_inurba_marseille","lat":43.337445,"lon":5.374592,"is_reserved":false,"is_disabled":false,"rental_uris":{"android":"levelo://app?vid=f0cd831c-cfb9-44c7-9487-103b6df223ca","ios":"levelo://app?vid=f0cd831c-cfb9-44c7-9487-103b6df223ca"},"vehicle_type_id":"4","last_reported":1702677981,"current_range_meters":29600,"station_id":"","pricing_plan_id":"free"},{"bike_id":"00e23489-fc45-4f8a-86c0-c57b25f07af9","system_id":"levelo_inurba_marseille","lat":43.312609,"lon":5.401662,"is_reserved":false,"is_disabled":false,"rental_uris":{"android":"levelo://app?vid=00e23489-fc45-4f8a-86c0-c57b25f07af9","ios":"levelo://app?vid=00e23489-fc45-4f8a-86c0-c57b25f07af9"},"vehicle_type_id":"4","last_reported":1702677981,"current_range_meters":24800,"station_id":"ce4bh092rcd13ifvqd30","pricing_plan_id":"free"},{"bike_id":"a15a6f31-d26a-498f-aab0-fad2629bd007","system_id":"levelo_inurba_marseille","lat":43.337535,"lon":5.37446,"is_reserved":false,"is_disabled":false,"rental_uris":{"android":"levelo://app?vid=a15a6f31-d26a-498f-aab0-fad2629bd007","ios":"levelo://app?vid=a15a6f31-d26a-498f-aab0-fad2629bd007"},"vehicle_type_id":"4","last_reported":1702677981,"current_range_meters":1200,"station_id":"","pricing_plan_id":"free"},{"bike_id":"2f64123c-bb80-4670-999e-3180720000bb","system_id":"levelo_inurba_marseille","lat":43.309371,"lon":5.401449,"is_reserved":false,"is_disabled":false,"rental_uris":{"android":"levelo://app?vid=2f64123c-bb80-4670-999e-3180720000bb","ios":"levelo://app?vid=2f64123c-bb80-4670-999e-3180720000bb"},"vehicle_type_id":"4","last_reported":1702677981,"current_range_meters":2800,"station_id":"ce4bgvp2rcd13ifvqct0","pricing_plan_id":"free"},{"bike_id":"ef80ceab-dc9f-4b6c-8f52-707d5177f481","system_id":"levelo_inurba_marseille","lat":43.33752,"lon":5.37466,"is_reserved":false,"is_disabled":false,"rental_uris":{"android":"levelo://app?vid=ef80ceab-dc9f-4b6c-8f52-707d5177f481","ios":"levelo://app?vid=ef80ceab-dc9f-4b6c-8f52-707d5177f481"},"vehicle_type_id":"4","last_reported":1702677981,"current_range_meters":31200,"station_id":"","pricing_plan_id":"free"},{"bike_id":"f393cc08-b52f-4486-8abc-d4e8aa707b34","system_id":"levelo_inurba_marseille","lat":43.30643,"lon":5.40077,"is_reserved":false,"is_disabled":false,"rental_uris":{"android":"levelo://app?vid=f393cc08-b52f-4486-8abc-d4e8aa707b34","ios":"levelo://app?vid=f393cc08-b52f-4486-8abc-d4e8aa707b34"},"vehicle_type_id":"4","last_reported":1702677981,"current_range_meters":5600,"station_id":"ce4bh112rcd13ifvqda0","pricing_plan_id":"free"},{"bike_id":"9e5231e6-9497-41e6-bfd0-a7d79b8fad43","system_id":"levelo_inurba_marseille","lat":43.33758,"lon":5.37454,"is_reserved":false,"is_disabled":false,"rental_uris":{"android":"levelo://app?vid=9e5231e6-9497-41e6-bfd0-a7d79b8fad43","ios":"levelo://app?vid=9e5231e6-9497-41e6-bfd0-a7d79b8fad43"},"vehicle_type_id":"4","last_reported":1702677981,"current_range_meters":27600,"station_id":"","pricing_plan_id":"free"},{"bike_id":"930bba3a-4350-44cf-bb9b-310a6cbdb5ef","system_id":"levelo_inurba_marseille","lat":43.337585,"lon":5.374615,"is_reserved":false,"is_disabled":false,"rental_uris":{"android":"levelo://app?vid=930bba3a-4350-44cf-bb9b-310a6cbdb5ef","ios":"levelo://app?vid=930bba3a-4350-44cf-bb9b-310a6cbdb5ef"},"vehicle_type_id":"4","last_reported":1702677981,"current_range_meters":26800,"station_id":"","pricing_plan_id":"free"},{"bike_id":"189250a1-5934-47cd-aa3d-01791d59bc97","system_id":"levelo_inurba_marseille","lat":43.306412,"lon":5.401035,"is_reserved":false,"is_disabled":false,"rental_uris":{"android":"levelo://app?vid=189250a1-5934-47cd-aa3d-01791d59bc97","ios":"levelo://app?vid=189250a1-5934-47cd-aa3d-01791d59bc97"},"vehicle_type_id":"4","last_reported":1702677981,"current_range_meters":20400,"station_id":"ce4bh112rcd13ifvqda0","pricing_plan_id":"free"},{"bike_id":"811eac48-7c36-4ce9-9a27-879aa1e1514e","system_id":"levelo_inurba_marseille","lat":43.337667,"lon":5.374504,"is_reserved":false,"is_disabled":false,"rental_uris":{"android":"levelo://app?vid=811eac48-7c36-4ce9-9a27-879aa1e1514e","ios":"levelo://app?vid=811eac48-7c36-4ce9-9a27-879aa1e1514e"},"vehicle_type_id":"4","last_reported":1702677981,"current_range_meters":28000,"station_id":"","pricing_plan_id":"free"},{"bike_id":"c5e3a02c-a866-4ddc-8244-747f3779fc39","system_id":"levelo_inurba_marseille","lat":43.30633,"lon":5.40089,"is_reserved":false,"is_disabled":false,"rental_uris":{"android":"levelo://app?vid=c5e3a02c-a866-4ddc-8244-747f3779fc39","ios":"levelo://app?vid=c5e3a02c-a866-4ddc-8244-747f3779fc39"},"vehicle_type_id":"4","last_reported":1702677981,"current_range_meters":6800,"station_id":"ce4bh112rcd13ifvqda0","pricing_plan_id":"free"},{"bike_id":"1b1bd80c-92ec-4f8e-8e80-a125315f4b22","system_id":"levelo_inurba_marseille","lat":43.3377,"lon":5.37438,"is_reserved":false,"is_disabled":false,"rental_uris":{"android":"levelo://app?vid=1b1bd80c-92ec-4f8e-8e80-a125315f4b22","ios":"levelo://app?vid=1b1bd80c-92ec-4f8e-8e80-a125315f4b22"},"vehicle_type_id":"4","last_reported":1702677981,"current_range_meters":7600,"station_id":"","pricing_plan_id":"free"},{"bike_id":"c2896d5f-fb99-49ba-ad74-87bbd813e6d8","system_id":"levelo_inurba_marseille","lat":43.306412,"lon":5.401035,"is_reserved":false,"is_disabled":false,"rental_uris":{"android":"levelo://app?vid=c2896d5f-fb99-49ba-ad74-87bbd813e6d8","ios":"levelo://app?vid=c2896d5f-fb99-49ba-ad74-87bbd813e6d8"},"vehicle_type_id":"4","last_reported":1702677981,"current_range_meters":2000,"station_id":"ce4bh112rcd13ifvqda0","pricing_plan_id":"free"},{"bike_id":"597b3b0d-46be-434c-a32a-d7e9f399292d","system_id":"levelo_inurba_marseille","lat":43.30638,"lon":5.40106,"is_reserved":false,"is_disabled":false,"rental_uris":{"android":"levelo://app?vid=597b3b0d-46be-434c-a32a-d7e9f399292d","ios":"levelo://app?vid=597b3b0d-46be-434c-a32a-d7e9f399292d"},"vehicle_type_id":"4","last_reported":1702677981,"current_range_meters":4800,"station_id":"ce4bh112rcd13ifvqda0","pricing_plan_id":"free"},{"bike_id":"87348a78-140d-450e-9789-9c4662b495e3","system_id":"levelo_inurba_marseille","lat":43.301117,"lon":5.398795,"is_reserved":false,"is_disabled":false,"rental_uris":{"android":"levelo://app?vid=87348a78-140d-450e-9789-9c4662b495e3","ios":"levelo://app?vid=87348a78-140d-450e-9789-9c4662b495e3"},"vehicle_type_id":"4","last_reported":1702677981,"current_range_meters":18400,"station_id":"ce4bh0h2rcd13ifvqd40","pricing_plan_id":"free"},{"bike_id":"e641768d-59e6-4ace-a5a2-4bfc5ecea5d6","system_id":"levelo_inurba_marseille","lat":43.28727,"lon":5.36078,"is_reserved":false,"is_disabled":false,"rental_uris":{"android":"levelo://app?vid=e641768d-59e6-4ace-a5a2-4bfc5ecea5d6","ios":"levelo://app?vid=e641768d-59e6-4ace-a5a2-4bfc5ecea5d6"},"vehicle_type_id":"4","last_reported":1702677981,"current_range_meters":20000,"station_id":"cki0cbj6b192h4jlfktg","pricing_plan_id":"free"},{"bike_id":"839739ce-8a2c-45e7-b22c-b467b77be00c","system_id":"levelo_inurba_marseille","lat":43.286961,"lon":5.373785,"is_reserved":false,"is_disabled":false,"rental_uris":{"android":"levelo://app?vid=839739ce-8a2c-45e7-b22c-b467b77be00c","ios":"levelo://app?vid=839739ce-8a2c-45e7-b22c-b467b77be00c"},"vehicle_type_id":"4","last_reported":1702677981,"current_range_meters":19200,"station_id":"ce4bh3p2rcd13ifvqdq0","pricing_plan_id":"free"},{"bike_id":"f28062d5-4d08-4788-94df-8c3568862992","system_id":"levelo_inurba_marseille","lat":43.286961,"lon":5.373785,"is_reserved":false,"is_disabled":false,"rental_uris":{"android":"levelo://app?vid=f28062d5-4d08-4788-94df-8c3568862992","ios":"levelo://app?vid=f28062d5-4d08-4788-94df-8c3568862992"},"vehicle_type_id":"4","last_reported":1702677981,"current_range_meters":20800,"station_id":"ce4bh3p2rcd13ifvqdq0","pricing_plan_id":"free"},{"bike_id":"4189c09d-d993-419c-b27b-d4e06aeb42f7","system_id":"levelo_inurba_marseille","lat":43.286961,"lon":5.373785,"is_reserved":false,"is_disabled":false,"rental_uris":{"android":"levelo://app?vid=4189c09d-d993-419c-b27b-d4e06aeb42f7","ios":"levelo://app?vid=4189c09d-d993-419c-b27b-d4e06aeb42f7"},"vehicle_type_id":"4","last_reported":1702677981,"current_range_meters":31200,"station_id":"ce4bh3p2rcd13ifvqdq0","pricing_plan_id":"free"},{"bike_id":"1b604e8e-1e44-44b6-acab-672a198b82a8","system_id":"levelo_inurba_marseille","lat":43.295129,"lon":5.394091,"is_reserved":false,"is_disabled":false,"rental_uris":{"android":"levelo://app?vid=1b604e8e-1e44-44b6-acab-672a198b82a8","ios":"levelo://app?vid=1b604e8e-1e44-44b6-acab-672a198b82a8"},"vehicle_type_id":"4","last_reported":1702677981,"current_range_meters":0,"station_id":"ce4bh292rcd13ifvqdf0","pricing_plan_id":"free"},{"bike_id":"46937d05-36c2-495a-9b30-7603f646a5e5","system_id":"levelo_inurba_marseille","lat":43.30754,"lon":5.40273,"is_reserved":false,"is_disabled":false,"rental_uris":{"android":"levelo://app?vid=46937d05-36c2-495a-9b30-7603f646a5e5","ios":"levelo://app?vid=46937d05-36c2-495a-9b30-7603f646a5e5"},"vehicle_type_id":"4","last_reported":1702677981,"current_range_meters":16800,"station_id":"","pricing_plan_id":"free"},{"bike_id":"06022811-5487-4a41-8219-6071a9f7d5d9","system_id":"levelo_inurba_marseille","lat":43.302759,"lon":5.400793,"is_reserved":false,"is_disabled":false,"rental_uris":{"android":"levelo://app?vid=06022811-5487-4a41-8219-6071a9f7d5d9","ios":"levelo://app?vid=06022811-5487-4a41-8219-6071a9f7d5d9"},"vehicle_type_id":"4","last_reported":1702677981,"current_range_meters":18400,"station_id":"ce4bgvh2rcd13ifvqcs0","pricing_plan_id":"free"},{"bike_id":"9f65235a-80bb-4691-b79d-9988ede6f89d","system_id":"levelo_inurba_marseille","lat":43.287185,"lon":5.379373,"is_reserved":false,"is_disabled":false,"rental_uris":{"android":"levelo://app?vid=9f65235a-80bb-4691-b79d-9988ede6f89d","ios":"levelo://app?vid=9f65235a-80bb-4691-b79d-9988ede6f89d"},"vehicle_type_id":"4","last_reported":1702677981,"current_range_meters":6800,"station_id":"ce4bh9p2rcd13ifvqec0","pricing_plan_id":"free"},{"bike_id":"15e43c5c-45e9-4cf0-8cb1-213ee8167c83","system_id":"levelo_inurba_marseille","lat":43.31703,"lon":5.40469,"is_reserved":false,"is_disabled":false,"rental_uris":{"android":"levelo://app?vid=15e43c5c-45e9-4cf0-8cb1-213ee8167c83","ios":"levelo://app?vid=15e43c5c-45e9-4cf0-8cb1-213ee8167c83"},"vehicle_type_id":"4","last_reported":1702677981,"current_range_meters":4400,"station_id":"ce4bh012rcd13ifvqd00","pricing_plan_id":"free"},{"bike_id":"0867e788-7cc6-480e-a7ab-83162d25e8e4","system_id":"levelo_inurba_marseille","lat":43.291994,"lon":5.392907,"is_reserved":false,"is_disabled":false,"rental_uris":{"android":"levelo://app?vid=0867e788-7cc6-480e-a7ab-83162d25e8e4","ios":"levelo://app?vid=0867e788-7cc6-480e-a7ab-83162d25e8e4"},"vehicle_type_id":"4","last_reported":1702677981,"current_range_meters":24800,"station_id":"ce4bh192rcd13ifvqdd0","pricing_plan_id":"free"},{"bike_id":"1c71bab1-da10-412c-a58a-919cf52a8adc","system_id":"levelo_inurba_marseille","lat":43.291994,"lon":5.392907,"is_reserved":false,"is_disabled":false,"rental_uris":{"android":"levelo://app?vid=1c71bab1-da10-412c-a58a-919cf52a8adc","ios":"levelo://app?vid=1c71bab1-da10-412c-a58a-919cf52a8adc"},"vehicle_type_id":"4","last_reported":1702677981,"current_range_meters":26800,"station_id":"ce4bh192rcd13ifvqdd0","pricing_plan_id":"free"},{"bike_id":"636687ad-4464-443f-bcdc-db2dd86720f1","system_id":"levelo_inurba_marseille","lat":43.284538,"lon":5.358657,"is_reserved":false,"is_disabled":false,"rental_uris":{"android":"levelo://app?vid=636687ad-4464-443f-bcdc-db2dd86720f1","ios":"levelo://app?vid=636687ad-4464-443f-bcdc-db2dd86720f1"},"vehicle_type_id":"4","last_reported":1702677981,"current_range_meters":8400,"station_id":"ce4bhah2rcd13ifvqei0","pricing_plan_id":"free"},{"bike_id":"693c88ac-fe5b-4c68-9d31-ba5d72c7ce58","system_id":"levelo_inurba_marseille","lat":43.284534,"lon":5.358662,"is_reserved":false,"is_disabled":false,"rental_uris":{"android":"levelo://app?vid=693c88ac-fe5b-4c68-9d31-ba5d72c7ce58","ios":"levelo://app?vid=693c88ac-fe5b-4c68-9d31-ba5d72c7ce58"},"vehicle_type_id":"4","last_reported":1702677981,"current_range_meters":29200,"station_id":"ce4bhah2rcd13ifvqei0","pricing_plan_id":"free"},{"bike_id":"15aa2a7f-bd98-4973-ac49-d771f417191f","system_id":"levelo_inurba_marseille","lat":43.284534,"lon":5.358662,"is_reserved":false,"is_disabled":false,"rental_uris":{"android":"levelo://app?vid=15aa2a7f-bd98-4973-ac49-d771f417191f","ios":"levelo://app?vid=15aa2a7f-bd98-4973-ac49-d771f417191f"},"vehicle_type_id":"4","last_reported":1702677981,"current_range_meters":28000,"station_id":"ce4bhah2rcd13ifvqei0","pricing_plan_id":"free"},{"bike_id":"def2f4d8-e5e4-4528-a78a-c4fc2d95161d","system_id":"levelo_inurba_marseille","lat":43.294314,"lon":5.397498,"is_reserved":false,"is_disabled":false,"rental_uris":{"android":"levelo://app?vid=def2f4d8-e5e4-4528-a78a-c4fc2d95161d","ios":"levelo://app?vid=def2f4d8-e5e4-4528-a78a-c4fc2d95161d"},"vehicle_type_id":"4","last_reported":1702677981,"current_range_meters":16400,"station_id":"ce4bh3h2rcd13ifvqdo0","pricing_plan_id":"free"},{"bike_id":"6b74ac84-da79-4e7a-af5c-a5665b3a84aa","system_id":"levelo_inurba_marseille","lat":43.294314,"lon":5.397498,"is_reserved":false,"is_disabled":false,"rental_uris":{"android":"levelo://app?vid=6b74ac84-da79-4e7a-af5c-a5665b3a84aa","ios":"levelo://app?vid=6b74ac84-da79-4e7a-af5c-a5665b3a84aa"},"vehicle_type_id":"4","last_reported":1702677981,"current_range_meters":28400,"station_id":"ce4bh3h2rcd13ifvqdo0","pricing_plan_id":"free"},{"bike_id":"7a8b5e2a-fff5-462b-b34b-43a3c6c8b0d3","system_id":"levelo_inurba_marseille","lat":43.294314,"lon":5.397498,"is_reserved":false,"is_disabled":false,"rental_uris":{"android":"levelo://app?vid=7a8b5e2a-fff5-462b-b34b-43a3c6c8b0d3","ios":"levelo://app?vid=7a8b5e2a-fff5-462b-b34b-43a3c6c8b0d3"},"vehicle_type_id":"4","last_reported":1702677981,"current_range_meters":28800,"station_id":"ce4bh3h2rcd13ifvqdo0","pricing_plan_id":"free"},{"bike_id":"975ce48b-5ee6-4141-baec-20904ecd16ae","system_id":"levelo_inurba_marseille","lat":43.283998,"lon":5.375062,"is_reserved":false,"is_disabled":false,"rental_uris":{"android":"levelo://app?vid=975ce48b-5ee6-4141-baec-20904ecd16ae","ios":"levelo://app?vid=975ce48b-5ee6-4141-baec-20904ecd16ae"},"vehicle_type_id":"4","last_reported":1702677981,"current_range_meters":0,"station_id":"ce4bh412rcd13ifvqds0","pricing_plan_id":"free"},{"bike_id":"a0b62893-c175-412b-8ec2-16a32715fc94","system_id":"levelo_inurba_marseille","lat":43.283998,"lon":5.375062,"is_reserved":false,"is_disabled":false,"rental_uris":{"android":"levelo://app?vid=a0b62893-c175-412b-8ec2-16a32715fc94","ios":"levelo://app?vid=a0b62893-c175-412b-8ec2-16a32715fc94"},"vehicle_type_id":"4","last_reported":1702677981,"current_range_meters":2000,"station_id":"ce4bh412rcd13ifvqds0","pricing_plan_id":"free"},{"bike_id":"9e228cb7-66a4-4046-8b02-d31d5c85525f","system_id":"levelo_inurba_marseille","lat":43.283998,"lon":5.375062,"is_reserved":false,"is_disabled":false,"rental_uris":{"android":"levelo://app?vid=9e228cb7-66a4-4046-8b02-d31d5c85525f","ios":"levelo://app?vid=9e228cb7-66a4-4046-8b02-d31d5c85525f"},"vehicle_type_id":"4","last_reported":1702677981,"current_range_meters":24800,"station_id":"ce4bh412rcd13ifvqds0","pricing_plan_id":"free"},{"bike_id":"6b0e3bcf-4148-49ea-81c2-606d4036d533","system_id":"levelo_inurba_marseille","lat":43.283998,"lon":5.375062,"is_reserved":false,"is_disabled":false,"rental_uris":{"android":"levelo://app?vid=6b0e3bcf-4148-49ea-81c2-606d4036d533","ios":"levelo://app?vid=6b0e3bcf-4148-49ea-81c2-606d4036d533"},"vehicle_type_id":"4","last_reported":1702677981,"current_range_meters":11600,"station_id":"ce4bh412rcd13ifvqds0","pricing_plan_id":"free"},{"bike_id":"cfd259a4-25cc-4b61-b4c7-f3a93e752838","system_id":"levelo_inurba_marseille","lat":43.295713,"lon":5.399639,"is_reserved":false,"is_disabled":false,"rental_uris":{"android":"levelo://app?vid=cfd259a4-25cc-4b61-b4c7-f3a93e752838","ios":"levelo://app?vid=cfd259a4-25cc-4b61-b4c7-f3a93e752838"},"vehicle_type_id":"4","last_reported":1702677981,"current_range_meters":17600,"station_id":"ce4bh312rcd13ifvqdj0","pricing_plan_id":"free"},{"bike_id":"b9e4929b-7371-4fec-a5ad-d54849454cfc","system_id":"levelo_inurba_marseille","lat":43.283998,"lon":5.375062,"is_reserved":false,"is_disabled":false,"rental_uris":{"android":"levelo://app?vid=b9e4929b-7371-4fec-a5ad-d54849454cfc","ios":"levelo://app?vid=b9e4929b-7371-4fec-a5ad-d54849454cfc"},"vehicle_type_id":"4","last_reported":1702677981,"current_range_meters":5600,"station_id":"ce4bh412rcd13ifvqds0","pricing_plan_id":"free"},{"bike_id":"05690993-7cfb-4c9b-a805-0a68e1c5858b","system_id":"levelo_inurba_marseille","lat":43.286595,"lon":5.386795,"is_reserved":false,"is_disabled":false,"rental_uris":{"android":"levelo://app?vid=05690993-7cfb-4c9b-a805-0a68e1c5858b","ios":"levelo://app?vid=05690993-7cfb-4c9b-a805-0a68e1c5858b"},"vehicle_type_id":"4","last_reported":1702677981,"current_range_meters":22000,"station_id":"ce4bh492rcd13ifvqdug","pricing_plan_id":"free"},{"bike_id":"b5ec43e8-9b46-4e40-8cea-5a743f4e86ec","system_id":"levelo_inurba_marseille","lat":43.286595,"lon":5.386795,"is_reserved":false,"is_disabled":false,"rental_uris":{"android":"levelo://app?vid=b5ec43e8-9b46-4e40-8cea-5a743f4e86ec","ios":"levelo://app?vid=b5ec43e8-9b46-4e40-8cea-5a743f4e86ec"},"vehicle_type_id":"4","last_reported":1702677981,"current_range_meters":1200,"station_id":"ce4bh492rcd13ifvqdug","pricing_plan_id":"free"},{"bike_id":"bd4d5eab-155d-4528-9140-d61247f47308","system_id":"levelo_inurba_marseille","lat":43.286595,"lon":5.386795,"is_reserved":false,"is_disabled":false,"rental_uris":{"android":"levelo://app?vid=bd4d5eab-155d-4528-9140-d61247f47308","ios":"levelo://app?vid=bd4d5eab-155d-4528-9140-d61247f47308"},"vehicle_type_id":"4","last_reported":1702677981,"current_range_meters":16800,"station_id":"ce4bh492rcd13ifvqdug","pricing_plan_id":"free"},{"bike_id":"4e7f35df-b5be-41f8-a088-b359fd0719b0","system_id":"levelo_inurba_marseille","lat":43.323464,"lon":5.406297,"is_reserved":false,"is_disabled":false,"rental_uris":{"android":"levelo://app?vid=4e7f35df-b5be-41f8-a088-b359fd0719b0","ios":"levelo://app?vid=4e7f35df-b5be-41f8-a088-b359fd0719b0"},"vehicle_type_id":"4","last_reported":1702677981,"current_range_meters":20400,"station_id":"ce4bhq92rcd13ifvqhjg","pricing_plan_id":"free"},{"bike_id":"16373837-b161-407f-b0fa-3d0f27559010","system_id":"levelo_inurba_marseille","lat":43.323464,"lon":5.406297,"is_reserved":false,"is_disabled":false,"rental_uris":{"android":"levelo://app?vid=16373837-b161-407f-b0fa-3d0f27559010","ios":"levelo://app?vid=16373837-b161-407f-b0fa-3d0f27559010"},"vehicle_type_id":"4","last_reported":1702677981,"current_range_meters":31600,"station_id":"ce4bhq92rcd13ifvqhjg","pricing_plan_id":"free"},{"bike_id":"cdc567b3-2195-4601-b329-248ab026859f","system_id":"levelo_inurba_marseille","lat":43.284793,"lon":5.384113,"is_reserved":false,"is_disabled":false,"rental_uris":{"android":"levelo://app?vid=cdc567b3-2195-4601-b329-248ab026859f","ios":"levelo://app?vid=cdc567b3-2195-4601-b329-248ab026859f"},"vehicle_type_id":"4","last_reported":1702677981,"current_range_meters":19200,"station_id":"ce4bh512rcd13ifvqe3g","pricing_plan_id":"free"},{"bike_id":"b22f99a0-5e57-479c-b949-1d8846532060","system_id":"levelo_inurba_marseille","lat":43.288501,"lon":5.393087,"is_reserved":false,"is_disabled":false,"rental_uris":{"android":"levelo://app?vid=b22f99a0-5e57-479c-b949-1d8846532060","ios":"levelo://app?vid=b22f99a0-5e57-479c-b949-1d8846532060"},"vehicle_type_id":"4","last_reported":1702677981,"current_range_meters":14800,"station_id":"ce4bh2p2rcd13ifvqdi0","pricing_plan_id":"free"},{"bike_id":"a5bcc557-9f08-4bb4-b052-4b1afb9e13b2","system_id":"levelo_inurba_marseille","lat":43.288501,"lon":5.393087,"is_reserved":false,"is_disabled":false,"rental_uris":{"android":"levelo://app?vid=a5bcc557-9f08-4bb4-b052-4b1afb9e13b2","ios":"levelo://app?vid=a5bcc557-9f08-4bb4-b052-4b1afb9e13b2"},"vehicle_type_id":"4","last_reported":1702677981,"current_range_meters":16800,"station_id":"ce4bh2p2rcd13ifvqdi0","pricing_plan_id":"free"},{"bike_id":"25fe1ada-2196-4082-9b4a-f8d3c75bc015","system_id":"levelo_inurba_marseille","lat":43.288501,"lon":5.393087,"is_reserved":false,"is_disabled":false,"rental_uris":{"android":"levelo://app?vid=25fe1ada-2196-4082-9b4a-f8d3c75bc015","ios":"levelo://app?vid=25fe1ada-2196-4082-9b4a-f8d3c75bc015"},"vehicle_type_id":"4","last_reported":1702677981,"current_range_meters":12800,"station_id":"ce4bh2p2rcd13ifvqdi0","pricing_plan_id":"free"},{"bike_id":"4f76a8da-3cfa-4365-a2b3-e9dbccabd185","system_id":"levelo_inurba_marseille","lat":43.284217,"lon":5.349697,"is_reserved":false,"is_disabled":false,"rental_uris":{"android":"levelo://app?vid=4f76a8da-3cfa-4365-a2b3-e9dbccabd185","ios":"levelo://app?vid=4f76a8da-3cfa-4365-a2b3-e9dbccabd185"},"vehicle_type_id":"4","last_reported":1702677981,"current_range_meters":21600,"station_id":"ce4bhbh2rcd13ifvqepg","pricing_plan_id":"free"},{"bike_id":"0d3bbea8-a594-4e2b-8fc9-367229b3e87d","system_id":"levelo_inurba_marseille","lat":43.289363,"lon":5.396322,"is_reserved":false,"is_disabled":false,"rental_uris":{"android":"levelo://app?vid=0d3bbea8-a594-4e2b-8fc9-367229b3e87d","ios":"levelo://app?vid=0d3bbea8-a594-4e2b-8fc9-367229b3e87d"},"vehicle_type_id":"4","last_reported":1702677981,"current_range_meters":4000,"station_id":"ce4bh3h2rcd13ifvqdn0","pricing_plan_id":"free"},{"bike_id":"c813b757-e794-4f4a-bf68-3fadb7b74d00","system_id":"levelo_inurba_marseille","lat":43.289363,"lon":5.396322,"is_reserved":false,"is_disabled":false,"rental_uris":{"android":"levelo://app?vid=c813b757-e794-4f4a-bf68-3fadb7b74d00","ios":"levelo://app?vid=c813b757-e794-4f4a-bf68-3fadb7b74d00"},"vehicle_type_id":"4","last_reported":1702677981,"current_range_meters":18000,"station_id":"ce4bh3h2rcd13ifvqdn0","pricing_plan_id":"free"},{"bike_id":"15463073-c927-4224-a543-3353096be386","system_id":"levelo_inurba_marseille","lat":43.28273,"lon":5.35065,"is_reserved":false,"is_disabled":false,"rental_uris":{"android":"levelo://app?vid=15463073-c927-4224-a543-3353096be386","ios":"levelo://app?vid=15463073-c927-4224-a543-3353096be386"},"vehicle_type_id":"4","last_reported":1702677981,"current_range_meters":30800,"station_id":"ce4bhbp2rcd13ifvqerg","pricing_plan_id":"free"},{"bike_id":"1c879b48-8c27-4970-9dab-d312615135bd","system_id":"levelo_inurba_marseille","lat":43.283502,"lon":5.386471,"is_reserved":false,"is_disabled":false,"rental_uris":{"android":"levelo://app?vid=1c879b48-8c27-4970-9dab-d312615135bd","ios":"levelo://app?vid=1c879b48-8c27-4970-9dab-d312615135bd"},"vehicle_type_id":"4","last_reported":1702677981,"current_range_meters":20000,"station_id":"ce4bh492rcd13ifvqdvg","pricing_plan_id":"free"},{"bike_id":"94254c84-8ca0-409b-9160-598f98478611","system_id":"levelo_inurba_marseille","lat":43.283502,"lon":5.386471,"is_reserved":false,"is_disabled":false,"rental_uris":{"android":"levelo://app?vid=94254c84-8ca0-409b-9160-598f98478611","ios":"levelo://app?vid=94254c84-8ca0-409b-9160-598f98478611"},"vehicle_type_id":"4","last_reported":1702677981,"current_range_meters":23600,"station_id":"ce4bh492rcd13ifvqdvg","pricing_plan_id":"free"},{"bike_id":"866b9d67-381b-4562-a7ca-4f4f676ccc7e","system_id":"levelo_inurba_marseille","lat":43.280393,"lon":5.369517,"is_reserved":false,"is_disabled":false,"rental_uris":{"android":"levelo://app?vid=866b9d67-381b-4562-a7ca-4f4f676ccc7e","ios":"levelo://app?vid=866b9d67-381b-4562-a7ca-4f4f676ccc7e"},"vehicle_type_id":"4","last_reported":1702677981,"current_range_meters":6000,"station_id":"ce4bha12rcd13ifvqef0","pricing_plan_id":"free"},{"bike_id":"8cc5c416-4ab4-4c4f-a22f-0508774ed150","system_id":"levelo_inurba_marseille","lat":43.280382,"lon":5.369291,"is_reserved":false,"is_disabled":false,"rental_uris":{"android":"levelo://app?vid=8cc5c416-4ab4-4c4f-a22f-0508774ed150","ios":"levelo://app?vid=8cc5c416-4ab4-4c4f-a22f-0508774ed150"},"vehicle_type_id":"4","last_reported":1702677981,"current_range_meters":24400,"station_id":"ce4bha12rcd13ifvqef0","pricing_plan_id":"free"},{"bike_id":"acaa6305-99fa-485e-8dc0-886c6483dc4a","system_id":"levelo_inurba_marseille","lat":43.28039,"lon":5.369297,"is_reserved":false,"is_disabled":false,"rental_uris":{"android":"levelo://app?vid=acaa6305-99fa-485e-8dc0-886c6483dc4a","ios":"levelo://app?vid=acaa6305-99fa-485e-8dc0-886c6483dc4a"},"vehicle_type_id":"4","last_reported":1702677981,"current_range_meters":30000,"station_id":"ce4bha12rcd13ifvqef0","pricing_plan_id":"free"},{"bike_id":"62c32a41-5c85-445e-a62d-27f8a6e615c9","system_id":"levelo_inurba_marseille","lat":43.280382,"lon":5.369291,"is_reserved":false,"is_disabled":false,"rental_uris":{"android":"levelo://app?vid=62c32a41-5c85-445e-a62d-27f8a6e615c9","ios":"levelo://app?vid=62c32a41-5c85-445e-a62d-27f8a6e615c9"},"vehicle_type_id":"4","last_reported":1702677981,"current_range_meters":30000,"station_id":"ce4bha12rcd13ifvqef0","pricing_plan_id":"free"},{"bike_id":"51c67930-0f81-4e81-8ba2-97e5f5bf98b2","system_id":"levelo_inurba_marseille","lat":43.28039,"lon":5.369297,"is_reserved":false,"is_disabled":false,"rental_uris":{"android":"levelo://app?vid=51c67930-0f81-4e81-8ba2-97e5f5bf98b2","ios":"levelo://app?vid=51c67930-0f81-4e81-8ba2-97e5f5bf98b2"},"vehicle_type_id":"4","last_reported":1702677981,"current_range_meters":10000,"station_id":"ce4bha12rcd13ifvqef0","pricing_plan_id":"free"},{"bike_id":"8fb47eb9-d1de-47c3-9a4f-063d68d00739","system_id":"levelo_inurba_marseille","lat":43.280382,"lon":5.369291,"is_reserved":false,"is_disabled":false,"rental_uris":{"android":"levelo://app?vid=8fb47eb9-d1de-47c3-9a4f-063d68d00739","ios":"levelo://app?vid=8fb47eb9-d1de-47c3-9a4f-063d68d00739"},"vehicle_type_id":"4","last_reported":1702677981,"current_range_meters":31600,"station_id":"ce4bha12rcd13ifvqef0","pricing_plan_id":"free"},{"bike_id":"e04d024f-d664-423c-b963-3e21ecbf2e8d","system_id":"levelo_inurba_marseille","lat":43.280295,"lon":5.369403,"is_reserved":false,"is_disabled":false,"rental_uris":{"android":"levelo://app?vid=e04d024f-d664-423c-b963-3e21ecbf2e8d","ios":"levelo://app?vid=e04d024f-d664-423c-b963-3e21ecbf2e8d"},"vehicle_type_id":"4","last_reported":1702677981,"current_range_meters":25600,"station_id":"ce4bha12rcd13ifvqef0","pricing_plan_id":"free"},{"bike_id":"0adde8ec-c4a7-410e-9dab-9e182f2c85bf","system_id":"levelo_inurba_marseille","lat":43.296263,"lon":5.40601,"is_reserved":false,"is_disabled":false,"rental_uris":{"android":"levelo://app?vid=0adde8ec-c4a7-410e-9dab-9e182f2c85bf","ios":"levelo://app?vid=0adde8ec-c4a7-410e-9dab-9e182f2c85bf"},"vehicle_type_id":"4","last_reported":1702677981,"current_range_meters":8800,"station_id":"ce4bh0h2rcd13ifvqd60","pricing_plan_id":"free"},{"bike_id":"19068771-c2c0-4130-9d8c-e6b1a0bfdb93","system_id":"levelo_inurba_marseille","lat":43.281044,"lon":5.378308,"is_reserved":false,"is_disabled":false,"rental_uris":{"android":"levelo://app?vid=19068771-c2c0-4130-9d8c-e6b1a0bfdb93","ios":"levelo://app?vid=19068771-c2c0-4130-9d8c-e6b1a0bfdb93"},"vehicle_type_id":"4","last_reported":1702677981,"current_range_meters":10000,"station_id":"ce4bha12rcd13ifvqee0","pricing_plan_id":"free"},{"bike_id":"55f2f45f-d22c-4e10-b847-2ac58447041a","system_id":"levelo_inurba_marseille","lat":43.296263,"lon":5.40601,"is_reserved":false,"is_disabled":false,"rental_uris":{"android":"levelo://app?vid=55f2f45f-d22c-4e10-b847-2ac58447041a","ios":"levelo://app?vid=55f2f45f-d22c-4e10-b847-2ac58447041a"},"vehicle_type_id":"4","last_reported":1702677981,"current_range_meters":28000,"station_id":"ce4bh0h2rcd13ifvqd60","pricing_plan_id":"free"},{"bike_id":"0d7f9e52-2ded-4b0e-a725-13fe2ea546c4","system_id":"levelo_inurba_marseille","lat":43.281044,"lon":5.378308,"is_reserved":false,"is_disabled":false,"rental_uris":{"android":"levelo://app?vid=0d7f9e52-2ded-4b0e-a725-13fe2ea546c4","ios":"levelo://app?vid=0d7f9e52-2ded-4b0e-a725-13fe2ea546c4"},"vehicle_type_id":"4","last_reported":1702677981,"current_range_meters":18400,"station_id":"ce4bha12rcd13ifvqee0","pricing_plan_id":"free"},{"bike_id":"88d929a0-a07a-4927-af1b-bccfb8a0f665","system_id":"levelo_inurba_marseille","lat":43.296263,"lon":5.40601,"is_reserved":false,"is_disabled":false,"rental_uris":{"android":"levelo://app?vid=88d929a0-a07a-4927-af1b-bccfb8a0f665","ios":"levelo://app?vid=88d929a0-a07a-4927-af1b-bccfb8a0f665"},"vehicle_type_id":"4","last_reported":1702677981,"current_range_meters":4000,"station_id":"ce4bh0h2rcd13ifvqd60","pricing_plan_id":"free"},{"bike_id":"692a7fb5-f1c8-4e07-96fa-eaaa24ac06de","system_id":"levelo_inurba_marseille","lat":43.284462,"lon":5.392121,"is_reserved":false,"is_disabled":false,"rental_uris":{"android":"levelo://app?vid=692a7fb5-f1c8-4e07-96fa-eaaa24ac06de","ios":"levelo://app?vid=692a7fb5-f1c8-4e07-96fa-eaaa24ac06de"},"vehicle_type_id":"4","last_reported":1702677981,"current_range_meters":12000,"station_id":"ce4bhoh2rcd13ifvqh5g","pricing_plan_id":"free"},{"bike_id":"cc5bfe55-a9af-48b1-90df-ff1080f280d7","system_id":"levelo_inurba_marseille","lat":43.2792,"lon":5.35335,"is_reserved":false,"is_disabled":false,"rental_uris":{"android":"levelo://app?vid=cc5bfe55-a9af-48b1-90df-ff1080f280d7","ios":"levelo://app?vid=cc5bfe55-a9af-48b1-90df-ff1080f280d7"},"vehicle_type_id":"4","last_reported":1702677981,"current_range_meters":0,"station_id":"","pricing_plan_id":"free"},{"bike_id":"026ae723-500f-4488-9074-1c785625255d","system_id":"levelo_inurba_marseille","lat":43.279087,"lon":5.380114,"is_reserved":false,"is_disabled":false,"rental_uris":{"android":"levelo://app?vid=026ae723-500f-4488-9074-1c785625255d","ios":"levelo://app?vid=026ae723-500f-4488-9074-1c785625255d"},"vehicle_type_id":"4","last_reported":1702677981,"current_range_meters":31600,"station_id":"ce4bhf92rcd13ifvqf50","pricing_plan_id":"free"},{"bike_id":"8e947133-bf12-40e9-844b-70fd0138712f","system_id":"levelo_inurba_marseille","lat":43.279087,"lon":5.380114,"is_reserved":false,"is_disabled":false,"rental_uris":{"android":"levelo://app?vid=8e947133-bf12-40e9-844b-70fd0138712f","ios":"levelo://app?vid=8e947133-bf12-40e9-844b-70fd0138712f"},"vehicle_type_id":"4","last_reported":1702677981,"current_range_meters":4800,"station_id":"ce4bhf92rcd13ifvqf50","pricing_plan_id":"free"},{"bike_id":"2cc5c98d-bbf7-4f24-ae04-be98f18d7ba1","system_id":"levelo_inurba_marseille","lat":43.287154,"lon":5.399979,"is_reserved":false,"is_disabled":false,"rental_uris":{"android":"levelo://app?vid=2cc5c98d-bbf7-4f24-ae04-be98f18d7ba1","ios":"levelo://app?vid=2cc5c98d-bbf7-4f24-ae04-be98f18d7ba1"},"vehicle_type_id":"4","last_reported":1702677981,"current_range_meters":16000,"station_id":"ce4bho92rcd13ifvqh3g","pricing_plan_id":"free"},{"bike_id":"60bbc476-e74c-400a-93d5-71ff320c465d","system_id":"levelo_inurba_marseille","lat":43.280784,"lon":5.396622,"is_reserved":false,"is_disabled":false,"rental_uris":{"android":"levelo://app?vid=60bbc476-e74c-400a-93d5-71ff320c465d","ios":"levelo://app?vid=60bbc476-e74c-400a-93d5-71ff320c465d"},"vehicle_type_id":"4","last_reported":1702677981,"current_range_meters":16400,"station_id":"ce4bho12rcd13ifvqh2g","pricing_plan_id":"free"},{"bike_id":"68cef069-e319-4cff-8109-ce898fa2d95a","system_id":"levelo_inurba_marseille","lat":43.278399,"lon":5.392139,"is_reserved":false,"is_disabled":false,"rental_uris":{"android":"levelo://app?vid=68cef069-e319-4cff-8109-ce898fa2d95a","ios":"levelo://app?vid=68cef069-e319-4cff-8109-ce898fa2d95a"},"vehicle_type_id":"4","last_reported":1702677981,"current_range_meters":800,"station_id":"ce4bhjp2rcd13ifvqga0","pricing_plan_id":"free"},{"bike_id":"6e5354e9-808a-46aa-a367-f7473c5da546","system_id":"levelo_inurba_marseille","lat":43.278399,"lon":5.392139,"is_reserved":false,"is_disabled":false,"rental_uris":{"android":"levelo://app?vid=6e5354e9-808a-46aa-a367-f7473c5da546","ios":"levelo://app?vid=6e5354e9-808a-46aa-a367-f7473c5da546"},"vehicle_type_id":"4","last_reported":1702677981,"current_range_meters":5600,"station_id":"ce4bhjp2rcd13ifvqga0","pricing_plan_id":"free"},{"bike_id":"45f13ab0-f2c2-4e7e-900c-2df0628427b6","system_id":"levelo_inurba_marseille","lat":43.33605,"lon":5.410367,"is_reserved":false,"is_disabled":false,"rental_uris":{"android":"levelo://app?vid=45f13ab0-f2c2-4e7e-900c-2df0628427b6","ios":"levelo://app?vid=45f13ab0-f2c2-4e7e-900c-2df0628427b6"},"vehicle_type_id":"4","last_reported":1702677981,"current_range_meters":5200,"station_id":"","pricing_plan_id":"free"},{"bike_id":"10eadedf-b2e9-4bb9-a1f0-77df69175439","system_id":"levelo_inurba_marseille","lat":43.284192,"lon":5.408391,"is_reserved":false,"is_disabled":false,"rental_uris":{"android":"levelo://app?vid=10eadedf-b2e9-4bb9-a1f0-77df69175439","ios":"levelo://app?vid=10eadedf-b2e9-4bb9-a1f0-77df69175439"},"vehicle_type_id":"4","last_reported":1702677981,"current_range_meters":15600,"station_id":"","pricing_plan_id":"free"},{"bike_id":"3b0a7b39-9141-4534-a54c-a05386f1a680","system_id":"levelo_inurba_marseille","lat":43.340804,"lon":5.410219,"is_reserved":false,"is_disabled":false,"rental_uris":{"android":"levelo://app?vid=3b0a7b39-9141-4534-a54c-a05386f1a680","ios":"levelo://app?vid=3b0a7b39-9141-4534-a54c-a05386f1a680"},"vehicle_type_id":"4","last_reported":1702677981,"current_range_meters":15600,"station_id":"ce4bhqh2rcd13ifvqhlg","pricing_plan_id":"free"},{"bike_id":"cdc69067-dad5-415d-b4f3-0a438e350196","system_id":"levelo_inurba_marseille","lat":43.317121,"lon":5.423936,"is_reserved":false,"is_disabled":false,"rental_uris":{"android":"levelo://app?vid=cdc69067-dad5-415d-b4f3-0a438e350196","ios":"levelo://app?vid=cdc69067-dad5-415d-b4f3-0a438e350196"},"vehicle_type_id":"4","last_reported":1702677981,"current_range_meters":29200,"station_id":"ce4bhp92rcd13ifvqhbg","pricing_plan_id":"free"},{"bike_id":"93a9a0b0-f09a-4679-973e-f3ebca0caf36","system_id":"levelo_inurba_marseille","lat":43.310785,"lon":5.424305,"is_reserved":false,"is_disabled":false,"rental_uris":{"android":"levelo://app?vid=93a9a0b0-f09a-4679-973e-f3ebca0caf36","ios":"levelo://app?vid=93a9a0b0-f09a-4679-973e-f3ebca0caf36"},"vehicle_type_id":"4","last_reported":1702677981,"current_range_meters":29600,"station_id":"ce4bhp92rcd13ifvqhag","pricing_plan_id":"free"},{"bike_id":"13b63d08-aaa3-4985-bf57-1f32727c58d1","system_id":"levelo_inurba_marseille","lat":43.310785,"lon":5.424305,"is_reserved":false,"is_disabled":false,"rental_uris":{"android":"levelo://app?vid=13b63d08-aaa3-4985-bf57-1f32727c58d1","ios":"levelo://app?vid=13b63d08-aaa3-4985-bf57-1f32727c58d1"},"vehicle_type_id":"4","last_reported":1702677981,"current_range_meters":27600,"station_id":"ce4bhp92rcd13ifvqhag","pricing_plan_id":"free"},{"bike_id":"9fd98958-12f3-4062-a784-cd245cbf37c6","system_id":"levelo_inurba_marseille","lat":43.340804,"lon":5.410219,"is_reserved":false,"is_disabled":false,"rental_uris":{"android":"levelo://app?vid=9fd98958-12f3-4062-a784-cd245cbf37c6","ios":"levelo://app?vid=9fd98958-12f3-4062-a784-cd245cbf37c6"},"vehicle_type_id":"4","last_reported":1702677981,"current_range_meters":27200,"station_id":"ce4bhqh2rcd13ifvqhlg","pricing_plan_id":"free"},{"bike_id":"3ca2c2d2-99b0-4aa6-a05d-e30f02e6a7fb","system_id":"levelo_inurba_marseille","lat":43.276092,"lon":5.395289,"is_reserved":false,"is_disabled":false,"rental_uris":{"android":"levelo://app?vid=3ca2c2d2-99b0-4aa6-a05d-e30f02e6a7fb","ios":"levelo://app?vid=3ca2c2d2-99b0-4aa6-a05d-e30f02e6a7fb"},"vehicle_type_id":"4","last_reported":1702677981,"current_range_meters":25200,"station_id":"","pricing_plan_id":"free"},{"bike_id":"d85ccd0f-017a-4247-b89e-73a3b46faf4b","system_id":"levelo_inurba_marseille","lat":43.30413,"lon":5.42539,"is_reserved":false,"is_disabled":false,"rental_uris":{"android":"levelo://app?vid=d85ccd0f-017a-4247-b89e-73a3b46faf4b","ios":"levelo://app?vid=d85ccd0f-017a-4247-b89e-73a3b46faf4b"},"vehicle_type_id":"4","last_reported":1702677981,"current_range_meters":20400,"station_id":"ce4bhoh2rcd13ifvqh6g","pricing_plan_id":"free"},{"bike_id":"1d2472e2-350f-44fa-a627-38e6bb5829da","system_id":"levelo_inurba_marseille","lat":43.295511,"lon":5.422926,"is_reserved":false,"is_disabled":false,"rental_uris":{"android":"levelo://app?vid=1d2472e2-350f-44fa-a627-38e6bb5829da","ios":"levelo://app?vid=1d2472e2-350f-44fa-a627-38e6bb5829da"},"vehicle_type_id":"4","last_reported":1702677981,"current_range_meters":31200,"station_id":"ce4bhph2rcd13ifvqhdg","pricing_plan_id":"free"},{"bike_id":"de9feb39-3844-4206-aa16-9fe6fe1926e0","system_id":"levelo_inurba_marseille","lat":43.295511,"lon":5.422926,"is_reserved":false,"is_disabled":false,"rental_uris":{"android":"levelo://app?vid=de9feb39-3844-4206-aa16-9fe6fe1926e0","ios":"levelo://app?vid=de9feb39-3844-4206-aa16-9fe6fe1926e0"},"vehicle_type_id":"4","last_reported":1702677981,"current_range_meters":18000,"station_id":"ce4bhph2rcd13ifvqhdg","pricing_plan_id":"free"},{"bike_id":"56bcfaa2-cd67-4456-9399-0a7806d20d1a","system_id":"levelo_inurba_marseille","lat":43.278128,"lon":5.407195,"is_reserved":false,"is_disabled":false,"rental_uris":{"android":"levelo://app?vid=56bcfaa2-cd67-4456-9399-0a7806d20d1a","ios":"levelo://app?vid=56bcfaa2-cd67-4456-9399-0a7806d20d1a"},"vehicle_type_id":"4","last_reported":1702677981,"current_range_meters":30400,"station_id":"ce4bhnh2rcd13ifvqgtg","pricing_plan_id":"free"},{"bike_id":"30f59ffe-e1fa-4ed8-a4e3-ce159c007c40","system_id":"levelo_inurba_marseille","lat":43.278128,"lon":5.407195,"is_reserved":false,"is_disabled":false,"rental_uris":{"android":"levelo://app?vid=30f59ffe-e1fa-4ed8-a4e3-ce159c007c40","ios":"levelo://app?vid=30f59ffe-e1fa-4ed8-a4e3-ce159c007c40"},"vehicle_type_id":"4","last_reported":1702677981,"current_range_meters":12400,"station_id":"ce4bhnh2rcd13ifvqgtg","pricing_plan_id":"free"},{"bike_id":"ce54373d-f121-48ba-b057-bf474070de42","system_id":"levelo_inurba_marseille","lat":43.279465,"lon":5.410561,"is_reserved":false,"is_disabled":false,"rental_uris":{"android":"levelo://app?vid=ce54373d-f121-48ba-b057-bf474070de42","ios":"levelo://app?vid=ce54373d-f121-48ba-b057-bf474070de42"},"vehicle_type_id":"4","last_reported":1702677981,"current_range_meters":4400,"station_id":"ce4bhnp2rcd13ifvqh0g","pricing_plan_id":"free"},{"bike_id":"ce2800ca-0597-4549-8725-a70fc26b5ba6","system_id":"levelo_inurba_marseille","lat":43.279409,"lon":5.410449,"is_reserved":false,"is_disabled":false,"rental_uris":{"android":"levelo://app?vid=ce2800ca-0597-4549-8725-a70fc26b5ba6","ios":"levelo://app?vid=ce2800ca-0597-4549-8725-a70fc26b5ba6"},"vehicle_type_id":"4","last_reported":1702677981,"current_range_meters":24000,"station_id":"ce4bhnp2rcd13ifvqh0g","pricing_plan_id":"free"},{"bike_id":"1d3a6f7d-296e-413a-8b5b-3a7a158a21e1","system_id":"levelo_inurba_marseille","lat":43.317104,"lon":5.436818,"is_reserved":false,"is_disabled":false,"rental_uris":{"android":"levelo://app?vid=1d3a6f7d-296e-413a-8b5b-3a7a158a21e1","ios":"levelo://app?vid=1d3a6f7d-296e-413a-8b5b-3a7a158a21e1"},"vehicle_type_id":"4","last_reported":1702677981,"current_range_meters":11600,"station_id":"ce4bhp92rcd13ifvqhcg","pricing_plan_id":"free"},{"bike_id":"db774753-4382-453e-a138-c32d538f9839","system_id":"levelo_inurba_marseille","lat":43.358631,"lon":5.356664,"is_reserved":false,"is_disabled":false,"rental_uris":{"android":"levelo://app?vid=db774753-4382-453e-a138-c32d538f9839","ios":"levelo://app?vid=db774753-4382-453e-a138-c32d538f9839"},"vehicle_type_id":"4","last_reported":1702677981,"current_range_meters":10800,"station_id":"","pricing_plan_id":"free"},{"bike_id":"95e9dd1f-f2f5-405d-b720-08fe860b3dcc","system_id":"levelo_inurba_marseille","lat":43.308051,"lon":5.43527,"is_reserved":false,"is_disabled":false,"rental_uris":{"android":"levelo://app?vid=95e9dd1f-f2f5-405d-b720-08fe860b3dcc","ios":"levelo://app?vid=95e9dd1f-f2f5-405d-b720-08fe860b3dcc"},"vehicle_type_id":"4","last_reported":1702677981,"current_range_meters":26800,"station_id":"ce4bhph2rcd13ifvqheg","pricing_plan_id":"free"},{"bike_id":"744517ea-3ab6-44ab-9255-fe412487dcbe","system_id":"levelo_inurba_marseille","lat":43.261782,"lon":5.374515,"is_reserved":false,"is_disabled":false,"rental_uris":{"android":"levelo://app?vid=744517ea-3ab6-44ab-9255-fe412487dcbe","ios":"levelo://app?vid=744517ea-3ab6-44ab-9255-fe412487dcbe"},"vehicle_type_id":"4","last_reported":1702677981,"current_range_meters":2400,"station_id":"ce4bhgp2rcd13ifvqfc0","pricing_plan_id":"free"},{"bike_id":"151ad32e-e8a8-4f27-83ce-9e7eab520933","system_id":"levelo_inurba_marseille","lat":43.303837,"lon":5.418724,"is_reserved":false,"is_disabled":false,"rental_uris":{"android":"levelo://app?vid=151ad32e-e8a8-4f27-83ce-9e7eab520933","ios":"levelo://app?vid=151ad32e-e8a8-4f27-83ce-9e7eab520933"},"vehicle_type_id":"4","last_reported":1702677981,"current_range_meters":27200,"station_id":"ce4bhop2rcd13ifvqh7g","pricing_plan_id":"free"},{"bike_id":"5f484a5f-ccc6-4147-9e90-da3997d4c5ff","system_id":"levelo_inurba_marseille","lat":43.271368,"lon":5.40928,"is_reserved":false,"is_disabled":false,"rental_uris":{"android":"levelo://app?vid=5f484a5f-ccc6-4147-9e90-da3997d4c5ff","ios":"levelo://app?vid=5f484a5f-ccc6-4147-9e90-da3997d4c5ff"},"vehicle_type_id":"4","last_reported":1702677981,"current_range_meters":12000,"station_id":"ce4bhl12rcd13ifvqgf0","pricing_plan_id":"free"},{"bike_id":"7341c66a-0342-4605-93c5-396fe1094054","system_id":"levelo_inurba_marseille","lat":43.26202,"lon":5.379299,"is_reserved":false,"is_disabled":false,"rental_uris":{"android":"levelo://app?vid=7341c66a-0342-4605-93c5-396fe1094054","ios":"levelo://app?vid=7341c66a-0342-4605-93c5-396fe1094054"},"vehicle_type_id":"4","last_reported":1702677981,"current_range_meters":28400,"station_id":"ce4bhjp2rcd13ifvqg90","pricing_plan_id":"free"},{"bike_id":"dd56b8c8-65e0-491e-8f20-9ee5b66ffaa9","system_id":"levelo_inurba_marseille","lat":43.298768,"lon":5.43643,"is_reserved":false,"is_disabled":false,"rental_uris":{"android":"levelo://app?vid=dd56b8c8-65e0-491e-8f20-9ee5b66ffaa9","ios":"levelo://app?vid=dd56b8c8-65e0-491e-8f20-9ee5b66ffaa9"},"vehicle_type_id":"4","last_reported":1702677981,"current_range_meters":11200,"station_id":"ce4bhpp2rcd13ifvqhfg","pricing_plan_id":"free"},{"bike_id":"b76e4b50-f6f0-431f-a6f8-b141c06663a4","system_id":"levelo_inurba_marseille","lat":43.275028,"lon":5.424534,"is_reserved":false,"is_disabled":false,"rental_uris":{"android":"levelo://app?vid=b76e4b50-f6f0-431f-a6f8-b141c06663a4","ios":"levelo://app?vid=b76e4b50-f6f0-431f-a6f8-b141c06663a4"},"vehicle_type_id":"4","last_reported":1702677981,"current_range_meters":16000,"station_id":"ce4bhn92rcd13ifvqgrg","pricing_plan_id":"free"},{"bike_id":"cc5d76b0-a393-4a4c-baa6-a656fc269eb7","system_id":"levelo_inurba_marseille","lat":43.275028,"lon":5.424534,"is_reserved":false,"is_disabled":false,"rental_uris":{"android":"levelo://app?vid=cc5d76b0-a393-4a4c-baa6-a656fc269eb7","ios":"levelo://app?vid=cc5d76b0-a393-4a4c-baa6-a656fc269eb7"},"vehicle_type_id":"4","last_reported":1702677981,"current_range_meters":30000,"station_id":"ce4bhn92rcd13ifvqgrg","pricing_plan_id":"free"},{"bike_id":"4a436564-a1e8-41f0-94ce-946bc6833290","system_id":"levelo_inurba_marseille","lat":43.258224,"lon":5.394369,"is_reserved":false,"is_disabled":false,"rental_uris":{"android":"levelo://app?vid=4a436564-a1e8-41f0-94ce-946bc6833290","ios":"levelo://app?vid=4a436564-a1e8-41f0-94ce-946bc6833290"},"vehicle_type_id":"4","last_reported":1702677981,"current_range_meters":19600,"station_id":"ce4bhip2rcd13ifvqft0","pricing_plan_id":"free"},{"bike_id":"cb1435ca-8297-4545-bd4e-938474f234d0","system_id":"levelo_inurba_marseille","lat":43.270721,"lon":5.422764,"is_reserved":false,"is_disabled":false,"rental_uris":{"android":"levelo://app?vid=cb1435ca-8297-4545-bd4e-938474f234d0","ios":"levelo://app?vid=cb1435ca-8297-4545-bd4e-938474f234d0"},"vehicle_type_id":"4","last_reported":1702677981,"current_range_meters":2800,"station_id":"ce4bhk92rcd13ifvqgb0","pricing_plan_id":"free"},{"bike_id":"e44f9abc-0e7a-4a73-99f3-c036d5df87c5","system_id":"levelo_inurba_marseille","lat":43.257079,"lon":5.411051,"is_reserved":false,"is_disabled":false,"rental_uris":{"android":"levelo://app?vid=e44f9abc-0e7a-4a73-99f3-c036d5df87c5","ios":"levelo://app?vid=e44f9abc-0e7a-4a73-99f3-c036d5df87c5"},"vehicle_type_id":"4","last_reported":1702677981,"current_range_meters":28800,"station_id":"ce4bhkp2rcd13ifvqgd0","pricing_plan_id":"free"},{"bike_id":"a94d0d87-f21b-4bcf-99be-0f6ac5ca1a70","system_id":"levelo_inurba_marseille","lat":43.250009,"lon":5.389195,"is_reserved":false,"is_disabled":false,"rental_uris":{"android":"levelo://app?vid=a94d0d87-f21b-4bcf-99be-0f6ac5ca1a70","ios":"levelo://app?vid=a94d0d87-f21b-4bcf-99be-0f6ac5ca1a70"},"vehicle_type_id":"4","last_reported":1702677981,"current_range_meters":27200,"station_id":"ce4bhgp2rcd13ifvqfd0","pricing_plan_id":"free"},{"bike_id":"703a13cf-1496-4e1e-a907-de2d619c4afc","system_id":"levelo_inurba_marseille","lat":43.250009,"lon":5.389195,"is_reserved":false,"is_disabled":false,"rental_uris":{"android":"levelo://app?vid=703a13cf-1496-4e1e-a907-de2d619c4afc","ios":"levelo://app?vid=703a13cf-1496-4e1e-a907-de2d619c4afc"},"vehicle_type_id":"4","last_reported":1702677981,"current_range_meters":24800,"station_id":"ce4bhgp2rcd13ifvqfd0","pricing_plan_id":"free"},{"bike_id":"11bfcabd-6948-4ada-bd3b-836bb199af62","system_id":"levelo_inurba_marseille","lat":43.250966,"lon":5.395186,"is_reserved":false,"is_disabled":false,"rental_uris":{"android":"levelo://app?vid=11bfcabd-6948-4ada-bd3b-836bb199af62","ios":"levelo://app?vid=11bfcabd-6948-4ada-bd3b-836bb199af62"},"vehicle_type_id":"4","last_reported":1702677981,"current_range_meters":29600,"station_id":"ce4bhm12rcd13ifvqgkg","pricing_plan_id":"free"},{"bike_id":"a561d9fb-0cc1-4f8b-9641-000a3002f040","system_id":"levelo_inurba_marseille","lat":43.250966,"lon":5.395186,"is_reserved":false,"is_disabled":false,"rental_uris":{"android":"levelo://app?vid=a561d9fb-0cc1-4f8b-9641-000a3002f040","ios":"levelo://app?vid=a561d9fb-0cc1-4f8b-9641-000a3002f040"},"vehicle_type_id":"4","last_reported":1702677981,"current_range_meters":20000,"station_id":"ce4bhm12rcd13ifvqgkg","pricing_plan_id":"free"},{"bike_id":"47342682-b661-45ff-9cb7-ccc60e014ee9","system_id":"levelo_inurba_marseille","lat":43.25102,"lon":5.403214,"is_reserved":false,"is_disabled":false,"rental_uris":{"android":"levelo://app?vid=47342682-b661-45ff-9cb7-ccc60e014ee9","ios":"levelo://app?vid=47342682-b661-45ff-9cb7-ccc60e014ee9"},"vehicle_type_id":"4","last_reported":1702677981,"current_range_meters":5200,"station_id":"ce4bhlh2rcd13ifvqgig","pricing_plan_id":"free"},{"bike_id":"2e4535e2-8cb3-4f5f-8b51-5ea01dbc0b0b","system_id":"levelo_inurba_marseille","lat":43.246461,"lon":5.389014,"is_reserved":false,"is_disabled":false,"rental_uris":{"android":"levelo://app?vid=2e4535e2-8cb3-4f5f-8b51-5ea01dbc0b0b","ios":"levelo://app?vid=2e4535e2-8cb3-4f5f-8b51-5ea01dbc0b0b"},"vehicle_type_id":"4","last_reported":1702677981,"current_range_meters":30400,"station_id":"ce4bhg12rcd13ifvqf60","pricing_plan_id":"free"},{"bike_id":"a8848b8b-995b-43e6-a068-03d2ec054c23","system_id":"levelo_inurba_marseille","lat":43.246467,"lon":5.388984,"is_reserved":false,"is_disabled":false,"rental_uris":{"android":"levelo://app?vid=a8848b8b-995b-43e6-a068-03d2ec054c23","ios":"levelo://app?vid=a8848b8b-995b-43e6-a068-03d2ec054c23"},"vehicle_type_id":"4","last_reported":1702677981,"current_range_meters":4400,"station_id":"ce4bhg12rcd13ifvqf60","pricing_plan_id":"free"},{"bike_id":"ecdb582b-98ab-4291-8a23-b6c84ea08e81","system_id":"levelo_inurba_marseille","lat":43.243884,"lon":5.370737,"is_reserved":false,"is_disabled":false,"rental_uris":{"android":"levelo://app?vid=ecdb582b-98ab-4291-8a23-b6c84ea08e81","ios":"levelo://app?vid=ecdb582b-98ab-4291-8a23-b6c84ea08e81"},"vehicle_type_id":"4","last_reported":1702677981,"current_range_meters":8400,"station_id":"ce4bhhh2rcd13ifvqfk0","pricing_plan_id":"free"},{"bike_id":"e9e27456-3f97-4c18-83bc-8f4de754de9d","system_id":"levelo_inurba_marseille","lat":43.245581,"lon":5.395069,"is_reserved":false,"is_disabled":false,"rental_uris":{"android":"levelo://app?vid=e9e27456-3f97-4c18-83bc-8f4de754de9d","ios":"levelo://app?vid=e9e27456-3f97-4c18-83bc-8f4de754de9d"},"vehicle_type_id":"4","last_reported":1702677981,"current_range_meters":22800,"station_id":"ce4bhlp2rcd13ifvqgjg","pricing_plan_id":"free"},{"bike_id":"f72517be-3514-4317-b9b9-dfad327342f4","system_id":"levelo_inurba_marseille","lat":43.245581,"lon":5.395069,"is_reserved":false,"is_disabled":false,"rental_uris":{"android":"levelo://app?vid=f72517be-3514-4317-b9b9-dfad327342f4","ios":"levelo://app?vid=f72517be-3514-4317-b9b9-dfad327342f4"},"vehicle_type_id":"4","last_reported":1702677981,"current_range_meters":800,"station_id":"ce4bhlp2rcd13ifvqgjg","pricing_plan_id":"free"},{"bike_id":"95488fcc-8b12-428d-b03a-43b7b2de9b35","system_id":"levelo_inurba_marseille","lat":43.239588,"lon":5.366238,"is_reserved":false,"is_disabled":false,"rental_uris":{"android":"levelo://app?vid=95488fcc-8b12-428d-b03a-43b7b2de9b35","ios":"levelo://app?vid=95488fcc-8b12-428d-b03a-43b7b2de9b35"},"vehicle_type_id":"4","last_reported":1702677981,"current_range_meters":31200,"station_id":"ce4bhi12rcd13ifvqfp0","pricing_plan_id":"free"},{"bike_id":"547672b1-18af-4711-b9a3-86e73cab70b4","system_id":"levelo_inurba_marseille","lat":43.23197,"lon":5.3555,"is_reserved":false,"is_disabled":false,"rental_uris":{"android":"levelo://app?vid=547672b1-18af-4711-b9a3-86e73cab70b4","ios":"levelo://app?vid=547672b1-18af-4711-b9a3-86e73cab70b4"},"vehicle_type_id":"4","last_reported":1702677981,"current_range_meters":19200,"station_id":"ce4bhu92rcd13ifvqi70","pricing_plan_id":"free"},{"bike_id":"185da70e-7a95-41eb-8b73-66c95513e7d7","system_id":"levelo_inurba_marseille","lat":43.231919,"lon":5.355532,"is_reserved":false,"is_disabled":false,"rental_uris":{"android":"levelo://app?vid=185da70e-7a95-41eb-8b73-66c95513e7d7","ios":"levelo://app?vid=185da70e-7a95-41eb-8b73-66c95513e7d7"},"vehicle_type_id":"4","last_reported":1702677981,"current_range_meters":19200,"station_id":"ce4bhu92rcd13ifvqi70","pricing_plan_id":"free"},{"bike_id":"a6ab5f0e-f0ee-41be-b237-17726a43f065","system_id":"levelo_inurba_marseille","lat":43.231933,"lon":5.355462,"is_reserved":false,"is_disabled":false,"rental_uris":{"android":"levelo://app?vid=a6ab5f0e-f0ee-41be-b237-17726a43f065","ios":"levelo://app?vid=a6ab5f0e-f0ee-41be-b237-17726a43f065"},"vehicle_type_id":"4","last_reported":1702677981,"current_range_meters":6400,"station_id":"ce4bhu92rcd13ifvqi70","pricing_plan_id":"free"},{"bike_id":"bad9b33d-de7d-4c7c-82d1-be01fc455f93","system_id":"levelo_inurba_marseille","lat":43.231919,"lon":5.355532,"is_reserved":false,"is_disabled":false,"rental_uris":{"android":"levelo://app?vid=bad9b33d-de7d-4c7c-82d1-be01fc455f93","ios":"levelo://app?vid=bad9b33d-de7d-4c7c-82d1-be01fc455f93"},"vehicle_type_id":"4","last_reported":1702677981,"current_range_meters":25600,"station_id":"ce4bhu92rcd13ifvqi70","pricing_plan_id":"free"},{"bike_id":"e2effc20-8600-4cb3-88e5-e93a2f872714","system_id":"levelo_inurba_marseille","lat":43.23191,"lon":5.3555,"is_reserved":false,"is_disabled":false,"rental_uris":{"android":"levelo://app?vid=e2effc20-8600-4cb3-88e5-e93a2f872714","ios":"levelo://app?vid=e2effc20-8600-4cb3-88e5-e93a2f872714"},"vehicle_type_id":"4","last_reported":1702677981,"current_range_meters":8000,"station_id":"ce4bhu92rcd13ifvqi70","pricing_plan_id":"free"},{"bike_id":"bb21ca5a-cb13-451e-943b-2dfa4a3b7fbc","system_id":"levelo_inurba_marseille","lat":43.231919,"lon":5.355532,"is_reserved":false,"is_disabled":false,"rental_uris":{"android":"levelo://app?vid=bb21ca5a-cb13-451e-943b-2dfa4a3b7fbc","ios":"levelo://app?vid=bb21ca5a-cb13-451e-943b-2dfa4a3b7fbc"},"vehicle_type_id":"4","last_reported":1702677981,"current_range_meters":31200,"station_id":"ce4bhu92rcd13ifvqi70","pricing_plan_id":"free"},{"bike_id":"600bdeb8-ea2a-4d1c-a6da-f7a255388a48","system_id":"levelo_inurba_marseille","lat":43.231905,"lon":5.355449,"is_reserved":false,"is_disabled":false,"rental_uris":{"android":"levelo://app?vid=600bdeb8-ea2a-4d1c-a6da-f7a255388a48","ios":"levelo://app?vid=600bdeb8-ea2a-4d1c-a6da-f7a255388a48"},"vehicle_type_id":"4","last_reported":1702677981,"current_range_meters":13600,"station_id":"ce4bhu92rcd13ifvqi70","pricing_plan_id":"free"},{"bike_id":"4bbb9689-2e2d-4bda-9d3c-7b90daddfa8a","system_id":"levelo_inurba_marseille","lat":43.231793,"lon":5.400044,"is_reserved":false,"is_disabled":false,"rental_uris":{"android":"levelo://app?vid=4bbb9689-2e2d-4bda-9d3c-7b90daddfa8a","ios":"levelo://app?vid=4bbb9689-2e2d-4bda-9d3c-7b90daddfa8a"},"vehicle_type_id":"4","last_reported":1702677981,"current_range_meters":29600,"station_id":"ce4bhn12rcd13ifvqgqg","pricing_plan_id":"free"},{"bike_id":"f232aa67-6076-4223-8e5a-a70e7a8cdfcf","system_id":"levelo_inurba_marseille","lat":43.231794,"lon":5.400052,"is_reserved":false,"is_disabled":false,"rental_uris":{"android":"levelo://app?vid=f232aa67-6076-4223-8e5a-a70e7a8cdfcf","ios":"levelo://app?vid=f232aa67-6076-4223-8e5a-a70e7a8cdfcf"},"vehicle_type_id":"4","last_reported":1702677981,"current_range_meters":22000,"station_id":"ce4bhn12rcd13ifvqgqg","pricing_plan_id":"free"},{"bike_id":"76011e8e-8381-4dc8-a22b-7020e857666d","system_id":"levelo_inurba_marseille","lat":43.231793,"lon":5.400044,"is_reserved":false,"is_disabled":false,"rental_uris":{"android":"levelo://app?vid=76011e8e-8381-4dc8-a22b-7020e857666d","ios":"levelo://app?vid=76011e8e-8381-4dc8-a22b-7020e857666d"},"vehicle_type_id":"4","last_reported":1702677981,"current_range_meters":17200,"station_id":"ce4bhn12rcd13ifvqgqg","pricing_plan_id":"free"},{"bike_id":"ad4a709a-3bbc-4b66-b7ec-31b555a6fb6f","system_id":"levelo_inurba_marseille","lat":43.231794,"lon":5.400052,"is_reserved":false,"is_disabled":false,"rental_uris":{"android":"levelo://app?vid=ad4a709a-3bbc-4b66-b7ec-31b555a6fb6f","ios":"levelo://app?vid=ad4a709a-3bbc-4b66-b7ec-31b555a6fb6f"},"vehicle_type_id":"4","last_reported":1702677981,"current_range_meters":31200,"station_id":"ce4bhn12rcd13ifvqgqg","pricing_plan_id":"free"},{"bike_id":"f0daebf7-48d1-4965-9af4-f0c1a8bd3366","system_id":"levelo_inurba_marseille","lat":43.23186,"lon":5.3999,"is_reserved":false,"is_disabled":false,"rental_uris":{"android":"levelo://app?vid=f0daebf7-48d1-4965-9af4-f0c1a8bd3366","ios":"levelo://app?vid=f0daebf7-48d1-4965-9af4-f0c1a8bd3366"},"vehicle_type_id":"4","last_reported":1702677981,"current_range_meters":20400,"station_id":"ce4bhn12rcd13ifvqgqg","pricing_plan_id":"free"},{"bike_id":"9ec6e627-bbad-4b65-9589-ccea6752ce9c","system_id":"levelo_inurba_marseille","lat":43.231794,"lon":5.400052,"is_reserved":false,"is_disabled":false,"rental_uris":{"android":"levelo://app?vid=9ec6e627-bbad-4b65-9589-ccea6752ce9c","ios":"levelo://app?vid=9ec6e627-bbad-4b65-9589-ccea6752ce9c"},"vehicle_type_id":"4","last_reported":1702677981,"current_range_meters":24800,"station_id":"ce4bhn12rcd13ifvqgqg","pricing_plan_id":"free"},{"bike_id":"5e675e68-5f89-4337-9f5e-8b0067b010c6","system_id":"levelo_inurba_marseille","lat":43.231794,"lon":5.400052,"is_reserved":false,"is_disabled":false,"rental_uris":{"android":"levelo://app?vid=5e675e68-5f89-4337-9f5e-8b0067b010c6","ios":"levelo://app?vid=5e675e68-5f89-4337-9f5e-8b0067b010c6"},"vehicle_type_id":"4","last_reported":1702677981,"current_range_meters":28000,"station_id":"ce4bhn12rcd13ifvqgqg","pricing_plan_id":"free"},{"bike_id":"b709f06c-bc25-400a-bc75-39c96c4cd26b","system_id":"levelo_inurba_marseille","lat":43.231794,"lon":5.400052,"is_reserved":false,"is_disabled":false,"rental_uris":{"android":"levelo://app?vid=b709f06c-bc25-400a-bc75-39c96c4cd26b","ios":"levelo://app?vid=b709f06c-bc25-400a-bc75-39c96c4cd26b"},"vehicle_type_id":"4","last_reported":1702677981,"current_range_meters":0,"station_id":"ce4bhn12rcd13ifvqgqg","pricing_plan_id":"free"},{"bike_id":"1b041eba-5032-4091-b5c2-13003df48ba9","system_id":"levelo_inurba_marseille","lat":43.231794,"lon":5.400052,"is_reserved":false,"is_disabled":false,"rental_uris":{"android":"levelo://app?vid=1b041eba-5032-4091-b5c2-13003df48ba9","ios":"levelo://app?vid=1b041eba-5032-4091-b5c2-13003df48ba9"},"vehicle_type_id":"4","last_reported":1702677981,"current_range_meters":2000,"station_id":"ce4bhn12rcd13ifvqgqg","pricing_plan_id":"free"},{"bike_id":"7591c304-548e-4cab-b2c2-be1de5925a19","system_id":"levelo_inurba_marseille","lat":43.231793,"lon":5.400044,"is_reserved":false,"is_disabled":false,"rental_uris":{"android":"levelo://app?vid=7591c304-548e-4cab-b2c2-be1de5925a19","ios":"levelo://app?vid=7591c304-548e-4cab-b2c2-be1de5925a19"},"vehicle_type_id":"4","last_reported":1702677981,"current_range_meters":20400,"station_id":"ce4bhn12rcd13ifvqgqg","pricing_plan_id":"free"},{"bike_id":"11fffc33-48fc-46cd-acb2-ae0ed2f88292","system_id":"levelo_inurba_marseille","lat":43.231794,"lon":5.400052,"is_reserved":false,"is_disabled":false,"rental_uris":{"android":"levelo://app?vid=11fffc33-48fc-46cd-acb2-ae0ed2f88292","ios":"levelo://app?vid=11fffc33-48fc-46cd-acb2-ae0ed2f88292"},"vehicle_type_id":"4","last_reported":1702677981,"current_range_meters":1600,"station_id":"ce4bhn12rcd13ifvqgqg","pricing_plan_id":"free"}]}}