{"last_updated":1732364233,"ttl":60,"version":"2.2","data":{"bikes":[{"bike_id":"916972cb-84d5-4b2d-9e80-807d91b4c063","system_id":"levelo_inurba_marseille","lat":43.287,"lon":5.37394,"is_reserved":false,"is_disabled":false,"rental_uris":{"android":"levelo://app?vid=916972cb-84d5-4b2d-9e80-807d91b4c063","ios":"levelo://app?vid=916972cb-84d5-4b2d-9e80-807d91b4c063"},"vehicle_type_id":"4","last_reported":1732364233,"current_range_meters":32400,"station_id":"ce4bh3p2rcd13ifvqdq0","pricing_plan_id":"cebpf4jnsgd1na2vs0mg"},{"bike_id":"b4bde30f-6547-4ab5-9afa-1c794a0eaa7b","system_id":"levelo_inurba_marseille","lat":43.2872,"lon":5.36108,"is_reserved":false,"is_disabled":false,"rental_uris":{"android":"levelo://app?vid=b4bde30f-6547-4ab5-9afa-1c794a0eaa7b","ios":"levelo://app?vid=b4bde30f-6547-4ab5-9afa-1c794a0eaa7b"},"vehicle_type_id":"4","last_reported":1732364233,"current_range_meters":28800,"station_id":"cki0cbj6b192h4jlfktg","pricing_plan_id":"cebpf4jnsgd1na2vs0mg"},{"bike_id":"553673be-6cac-403c-9172-e631c6c120c0","system_id":"levelo_inurba_marseille","lat":43.30635,"lon":5.40098,"is_reserved":false,"is_disabled":true,"rental_uris":{"android":"levelo://app?vid=553673be-6cac-403c-9172-e631c6c120c0","ios":"levelo://app?vid=553673be-6cac-403c-9172-e631c6c120c0"},"vehicle_type_id":"4","last_reported":1732364233,"current_range_meters":0,"station_id":"ce4bh112rcd13ifvqda0","pricing_plan_id":"cebpf4jnsgd1na2vs0mg"},{"bike_id":"ac10654d-2ec7-40fe-ab44-0840abdc5133","system_id":"levelo_inurba_marseille","lat":43.29576,"lon":5.36733,"is_reserved":false,"is_disabled":false,"rental_uris":{"android":"levelo://app?vid=ac10654d-2ec7-40fe-ab44-0840abdc5133","ios":"levelo://app?vid=ac10654d-2ec7-40fe-ab44-0840abdc5133"},"vehicle_type_id":"4","last_reported":1732364233,"current_range_meters":13600,"station_id":"ce4bgph2rcd13ifvqc2g","pricing_plan_id":"cebpf4jnsgd1na2vs0mg"},{"bike_id":"5fd683e1-4200-427d-b022-85d61b63da51","system_id":"levelo_inurba_marseille","lat":43.29564,"lon":5.37501,"is_reserved":false,"is_disabled":false,"rental_uris":{"android":"levelo://app?vid=5fd683e1-4200-427d-b022-85d61b63da51","ios":"levelo://app?vid=5fd683e1-4200-427d-b022-85d61b63da51"},"vehicle_type_id":"4","last_reported":1732364233,"current_range_meters":37600,"station_id":"ce4bgh92rcd13ifvqb50","pricing_plan_id":"cebpf4jnsgd1na2vs0mg"},{"bike_id":"08f392b7-fb0b-40fb-b32a-822f164ec237","system_id":"levelo_inurba_marseille","lat":43.26937,"lon":5.40243,"is_reserved":false,"is_disabled":false,"rental_uris":{"android":"levelo://app?vid=08f392b7-fb0b-40fb-b32a-822f164ec237","ios":"levelo://app?vid=08f392b7-fb0b-40fb-b32a-822f164ec237"},"vehicle_type_id":"4","last_reported":1732364233,"current_range_meters":8000,"station_id":"cjm6bp8fraef2m0cb0m0","pricing_plan_id":"cebpf4jnsgd1na2vs0mg"},{"bike_id":"7788f382-cbb8-4de0-8f3c-0da62f64c152","system_id":"levelo_inurba_marseille","lat":43.28853,"lon":5.3931,"is_reserved":false,"is_disabled":true,"rental_uris":{"android":"levelo://app?vid=7788f382-cbb8-4de0-8f3c-0da62f64c152","ios":"levelo://app?vid=7788f382-cbb8-4de0-8f3c-0da62f64c152"},"vehicle_type_id":"4","last_reported":1732364233,"current_range_meters":2000,"station_id":"ce4bh2p2rcd13ifvqdi0","pricing_plan_id":"cebpf4jnsgd1na2vs0mg"},{"bike_id":"d2ceb1b9-a4a7-4ba7-bcbe-ed7a5d599940","system_id":"levelo_inurba_marseille","lat":43.29527,"lon":5.37499,"is_reserved":false,"is_disabled":false,"rental_uris":{"android":"levelo://app?vid=d2ceb1b9-a4a7-4ba7-bcbe-ed7a5d599940","ios":"levelo://app?vid=d2ceb1b9-a4a7-4ba7-bcbe-ed7a5d599940"},"vehicle_type_id":"4","last_reported":1732364233,"current_range_meters":28800,"station_id":"ce4bgkp2rcd13ifvqbmg","pricing_plan_id":"cebpf4jnsgd1na2vs0mg"},{"bike_id":"9e38786f-f502-4c1c-9428-59d535da9860","system_id":"levelo_inurba_marseille","lat":43.27609,"lon":5.36109,"is_reserved":false,"is_disabled":true,"rental_uris":{"android":"levelo://app?vid=9e38786f-f502-4c1c-9428-59d535da9860","ios":"levelo://app?vid=9e38786f-f502-4c1c-9428-59d535da9860"},"vehicle_type_id":"4","last_reported":1732364233,"current_range_meters":0,"station_id":"ce4bgj92rcd13ifvqbe0","pricing_plan_id":"cebpf4jnsgd1na2vs0mg"},{"bike_id":"8a121b48-1f5b-4c33-b9ca-47a97d05b778","system_id":"levelo_inurba_marseille","lat":43.32468,"lon":5.36553,"is_reserved":false,"is_disabled":false,"rental_uris":{"android":"levelo://app?vid=8a121b48-1f5b-4c33-b9ca-47a97d05b778","ios":"levelo://app?vid=8a121b48-1f5b-4c33-b9ca-47a97d05b778"},"vehicle_type_id":"4","last_reported":1732364233,"current_range_meters":9600,"station_id":"ce4bhs12rcd13ifvqhvg","pricing_plan_id":"cebpf4jnsgd1na2vs0mg"},{"bike_id":"4441f99d-07ad-49b5-a5b6-5cb62c19fe38","system_id":"levelo_inurba_marseille","lat":43.29565,"lon":5.3751,"is_reserved":false,"is_disabled":false,"rental_uris":{"android":"levelo://app?vid=4441f99d-07ad-49b5-a5b6-5cb62c19fe38","ios":"levelo://app?vid=4441f99d-07ad-49b5-a5b6-5cb62c19fe38"},"vehicle_type_id":"4","last_reported":1732364233,"current_range_meters":39200,"station_id":"ce4bgh92rcd13ifvqb50","pricing_plan_id":"cebpf4jnsgd1na2vs0mg"},{"bike_id":"af6c6903-b27c-4c02-a594-be7517acfb30","system_id":"levelo_inurba_marseille","lat":43.27495,"lon":5.42446,"is_reserved":false,"is_disabled":false,"rental_uris":{"android":"levelo://app?vid=af6c6903-b27c-4c02-a594-be7517acfb30","ios":"levelo://app?vid=af6c6903-b27c-4c02-a594-be7517acfb30"},"vehicle_type_id":"4","last_reported":1732364233,"current_range_meters":18800,"station_id":"ce4bhn92rcd13ifvqgrg","pricing_plan_id":"cebpf4jnsgd1na2vs0mg"},{"bike_id":"250b57d6-656b-430a-9248-9bf10be7fde1","system_id":"levelo_inurba_marseille","lat":43.30584,"lon":5.39355,"is_reserved":false,"is_disabled":false,"rental_uris":{"android":"levelo://app?vid=250b57d6-656b-430a-9248-9bf10be7fde1","ios":"levelo://app?vid=250b57d6-656b-430a-9248-9bf10be7fde1"},"vehicle_type_id":"4","last_reported":1732364233,"current_range_meters":38000,"station_id":"ce4bh0p2rcd13ifvqd80","pricing_plan_id":"cebpf4jnsgd1na2vs0mg"},{"bike_id":"65d23517-68d9-45d9-863e-3493766b2fd6","system_id":"levelo_inurba_marseille","lat":43.30594,"lon":5.39374,"is_reserved":false,"is_disabled":false,"rental_uris":{"android":"levelo://app?vid=65d23517-68d9-45d9-863e-3493766b2fd6","ios":"levelo://app?vid=65d23517-68d9-45d9-863e-3493766b2fd6"},"vehicle_type_id":"4","last_reported":1732364233,"current_range_meters":24400,"station_id":"ce4bh0p2rcd13ifvqd80","pricing_plan_id":"cebpf4jnsgd1na2vs0mg"},{"bike_id":"9c0d724e-f096-48cf-b5a5-032860ea2d27","system_id":"levelo_inurba_marseille","lat":43.27998,"lon":5.41665,"is_reserved":false,"is_disabled":false,"rental_uris":{"android":"levelo://app?vid=9c0d724e-f096-48cf-b5a5-032860ea2d27","ios":"levelo://app?vid=9c0d724e-f096-48cf-b5a5-032860ea2d27"},"vehicle_type_id":"4","last_reported":1732364233,"current_range_meters":13600,"station_id":"ce4bho12rcd13ifvqh1g","pricing_plan_id":"cebpf4jnsgd1na2vs0mg"},{"bike_id":"6bc5a6d9-1a4e-41a0-8ccc-1891cc3fef08","system_id":"levelo_inurba_marseille","lat":43.28713,"lon":5.36083,"is_reserved":false,"is_disabled":false,"rental_uris":{"android":"levelo://app?vid=6bc5a6d9-1a4e-41a0-8ccc-1891cc3fef08","ios":"levelo://app?vid=6bc5a6d9-1a4e-41a0-8ccc-1891cc3fef08"},"vehicle_type_id":"4","last_reported":1732364233,"current_range_meters":34000,"station_id":"cki0cbj6b192h4jlfktg","pricing_plan_id":"cebpf4jnsgd1na2vs0mg"},{"bike_id":"2d69ba6e-a606-485e-bfb9-b4cb198f0e60","system_id":"levelo_inurba_marseille","lat":43.31988,"lon":5.38162,"is_reserved":false,"is_disabled":false,"rental_uris":{"android":"levelo://app?vid=2d69ba6e-a606-485e-bfb9-b4cb198f0e60","ios":"levelo://app?vid=2d69ba6e-a606-485e-bfb9-b4cb198f0e60"},"vehicle_type_id":"4","last_reported":1732364233,"current_range_meters":8000,"station_id":"ce4bhr12rcd13ifvqhpg","pricing_plan_id":"cebpf4jnsgd1na2vs0mg"},{"bike_id":"d3a939c1-c073-43b5-a24f-f191fd9ab4ab","system_id":"levelo_inurba_marseille","lat":43.26188,"lon":5.37447,"is_reserved":false,"is_disabled":false,"rental_uris":{"android":"levelo://app?vid=d3a939c1-c073-43b5-a24f-f191fd9ab4ab","ios":"levelo://app?vid=d3a939c1-c073-43b5-a24f-f191fd9ab4ab"},"vehicle_type_id":"4","last_reported":1732364233,"current_range_meters":36800,"station_id":"ce4bhgp2rcd13ifvqfc0","pricing_plan_id":"cebpf4jnsgd1na2vs0mg"},{"bike_id":"92aca063-e395-402a-a362-69eb5641c33c","system_id":"levelo_inurba_marseille","lat":43.28622,"lon":5.35089,"is_reserved":false,"is_disabled":false,"rental_uris":{"android":"levelo://app?vid=92aca063-e395-402a-a362-69eb5641c33c","ios":"levelo://app?vid=92aca063-e395-402a-a362-69eb5641c33c"},"vehicle_type_id":"4","last_reported":1732364233,"current_range_meters":6000,"station_id":"ce4bhch2rcd13ifvqeug","pricing_plan_id":"cebpf4jnsgd1na2vs0mg"},{"bike_id":"1bf3df05-5514-495e-9d6c-74f52d417820","system_id":"levelo_inurba_marseille","lat":43.25868,"lon":5.39902,"is_reserved":false,"is_disabled":false,"rental_uris":{"android":"levelo://app?vid=1bf3df05-5514-495e-9d6c-74f52d417820","ios":"levelo://app?vid=1bf3df05-5514-495e-9d6c-74f52d417820"},"vehicle_type_id":"4","last_reported":1732364233,"current_range_meters":38800,"station_id":"ce4bhl92rcd13ifvqghg","pricing_plan_id":"cebpf4jnsgd1na2vs0mg"},{"bike_id":"ebdc2b54-b81d-4e0f-9cdd-f2b2d13f038a","system_id":"levelo_inurba_marseille","lat":43.26571,"lon":5.3977,"is_reserved":false,"is_disabled":false,"rental_uris":{"android":"levelo://app?vid=ebdc2b54-b81d-4e0f-9cdd-f2b2d13f038a","ios":"levelo://app?vid=ebdc2b54-b81d-4e0f-9cdd-f2b2d13f038a"},"vehicle_type_id":"4","last_reported":1732364233,"current_range_meters":18000,"station_id":"ce4bho12rcd13ifvqh1g","pricing_plan_id":"cebpf4jnsgd1na2vs0mg"},{"bike_id":"7ed373fa-e29c-4ceb-b4cf-b4727f191d71","system_id":"levelo_inurba_marseille","lat":43.29849,"lon":5.36285,"is_reserved":false,"is_disabled":false,"rental_uris":{"android":"levelo://app?vid=7ed373fa-e29c-4ceb-b4cf-b4727f191d71","ios":"levelo://app?vid=7ed373fa-e29c-4ceb-b4cf-b4727f191d71"},"vehicle_type_id":"4","last_reported":1732364233,"current_range_meters":38800,"station_id":"ce4bgpp2rcd13ifvqc3g","pricing_plan_id":"cebpf4jnsgd1na2vs0mg"},{"bike_id":"561692a1-369c-4ac8-a04a-5193554f2e90","system_id":"levelo_inurba_marseille","lat":43.32112,"lon":5.36774,"is_reserved":false,"is_disabled":false,"rental_uris":{"android":"levelo://app?vid=561692a1-369c-4ac8-a04a-5193554f2e90","ios":"levelo://app?vid=561692a1-369c-4ac8-a04a-5193554f2e90"},"vehicle_type_id":"4","last_reported":1732364233,"current_range_meters":26000,"station_id":"ce4bhrh2rcd13ifvqhug","pricing_plan_id":"cebpf4jnsgd1na2vs0mg"},{"bike_id":"a3dfa29f-d880-4cbe-b909-b4e217158e03","system_id":"levelo_inurba_marseille","lat":43.27175,"lon":5.40996,"is_reserved":false,"is_disabled":false,"rental_uris":{"android":"levelo://app?vid=a3dfa29f-d880-4cbe-b909-b4e217158e03","ios":"levelo://app?vid=a3dfa29f-d880-4cbe-b909-b4e217158e03"},"vehicle_type_id":"4","last_reported":1732364233,"current_range_meters":34800,"station_id":"ce4bhl12rcd13ifvqgf0","pricing_plan_id":"cebpf4jnsgd1na2vs0mg"},{"bike_id":"84e9b51c-e9db-46c6-8adc-548b6f6fb7bb","system_id":"levelo_inurba_marseille","lat":43.23192,"lon":5.35556,"is_reserved":false,"is_disabled":false,"rental_uris":{"android":"levelo://app?vid=84e9b51c-e9db-46c6-8adc-548b6f6fb7bb","ios":"levelo://app?vid=84e9b51c-e9db-46c6-8adc-548b6f6fb7bb"},"vehicle_type_id":"4","last_reported":1732364233,"current_range_meters":12000,"station_id":"ce4bhu92rcd13ifvqi70","pricing_plan_id":"cebpf4jnsgd1na2vs0mg"},{"bike_id":"820066a6-584d-4591-90de-c8b8c4c11607","system_id":"levelo_inurba_marseille","lat":43.297148,"lon":5.376857,"is_reserved":false,"is_disabled":false,"rental_uris":{"android":"levelo://app?vid=820066a6-584d-4591-90de-c8b8c4c11607","ios":"levelo://app?vid=820066a6-584d-4591-90de-c8b8c4c11607"},"vehicle_type_id":"4","last_reported":1732364233,"current_range_meters":22400,"station_id":"ce4bgkh2rcd13ifvqbl0","pricing_plan_id":"cebpf4jnsgd1na2vs0mg"},{"bike_id":"b14625c4-4963-492d-a490-d30b19465ca3","system_id":"levelo_inurba_marseille","lat":43.29549,"lon":5.37498,"is_reserved":false,"is_disabled":false,"rental_uris":{"android":"levelo://app?vid=b14625c4-4963-492d-a490-d30b19465ca3","ios":"levelo://app?vid=b14625c4-4963-492d-a490-d30b19465ca3"},"vehicle_type_id":"4","last_reported":1732364233,"current_range_meters":38800,"station_id":"ce4bgkp2rcd13ifvqbmg","pricing_plan_id":"cebpf4jnsgd1na2vs0mg"},{"bike_id":"5c3000a0-a190-4007-a723-aa2707fd1ce3","system_id":"levelo_inurba_marseille","lat":43.229386,"lon":5.353741,"is_reserved":false,"is_disabled":false,"rental_uris":{"android":"levelo://app?vid=5c3000a0-a190-4007-a723-aa2707fd1ce3","ios":"levelo://app?vid=5c3000a0-a190-4007-a723-aa2707fd1ce3"},"vehicle_type_id":"4","last_reported":1732364233,"current_range_meters":38800,"station_id":"cpo3532slgdg3j2ikp40","pricing_plan_id":"cebpf4jnsgd1na2vs0mg"},{"bike_id":"43f46bf3-f48a-4e3b-a7e7-77d3d97dd715","system_id":"levelo_inurba_marseille","lat":43.29672,"lon":5.37297,"is_reserved":false,"is_disabled":false,"rental_uris":{"android":"levelo://app?vid=43f46bf3-f48a-4e3b-a7e7-77d3d97dd715","ios":"levelo://app?vid=43f46bf3-f48a-4e3b-a7e7-77d3d97dd715"},"vehicle_type_id":"4","last_reported":1732364233,"current_range_meters":39200,"station_id":"ce4bgk12rcd13ifvqbj0","pricing_plan_id":"cebpf4jnsgd1na2vs0mg"},{"bike_id":"4b46b4a8-c534-4533-ad03-6863448127e0","system_id":"levelo_inurba_marseille","lat":43.32484,"lon":5.36565,"is_reserved":false,"is_disabled":false,"rental_uris":{"android":"levelo://app?vid=4b46b4a8-c534-4533-ad03-6863448127e0","ios":"levelo://app?vid=4b46b4a8-c534-4533-ad03-6863448127e0"},"vehicle_type_id":"4","last_reported":1732364233,"current_range_meters":14800,"station_id":"ce4bhs12rcd13ifvqhvg","pricing_plan_id":"cebpf4jnsgd1na2vs0mg"},{"bike_id":"824f2997-0e2e-47a0-8272-c899b9937a9f","system_id":"levelo_inurba_marseille","lat":43.2931,"lon":5.37176,"is_reserved":false,"is_disabled":true,"rental_uris":{"android":"levelo://app?vid=824f2997-0e2e-47a0-8272-c899b9937a9f","ios":"levelo://app?vid=824f2997-0e2e-47a0-8272-c899b9937a9f"},"vehicle_type_id":"4","last_reported":1732364233,"current_range_meters":1600,"station_id":"ce4bgh92rcd13ifvqb40","pricing_plan_id":"cebpf4jnsgd1na2vs0mg"},{"bike_id":"6a2df70c-4e94-45ba-b67d-45bd465ca49d","system_id":"levelo_inurba_marseille","lat":43.2919,"lon":5.39312,"is_reserved":false,"is_disabled":true,"rental_uris":{"android":"levelo://app?vid=6a2df70c-4e94-45ba-b67d-45bd465ca49d","ios":"levelo://app?vid=6a2df70c-4e94-45ba-b67d-45bd465ca49d"},"vehicle_type_id":"4","last_reported":1732364233,"current_range_meters":36000,"station_id":"ce4bh192rcd13ifvqdd0","pricing_plan_id":"cebpf4jnsgd1na2vs0mg"},{"bike_id":"b9b9ed17-2332-448e-a260-27c24592bd4a","system_id":"levelo_inurba_marseille","lat":43.29541,"lon":5.37503,"is_reserved":false,"is_disabled":false,"rental_uris":{"android":"levelo://app?vid=b9b9ed17-2332-448e-a260-27c24592bd4a","ios":"levelo://app?vid=b9b9ed17-2332-448e-a260-27c24592bd4a"},"vehicle_type_id":"4","last_reported":1732364233,"current_range_meters":8800,"station_id":"ce4bgkp2rcd13ifvqbmg","pricing_plan_id":"cebpf4jnsgd1na2vs0mg"},{"bike_id":"78391de9-fa6a-4169-9770-a7bd8deaab64","system_id":"levelo_inurba_marseille","lat":43.24807,"lon":5.37457,"is_reserved":false,"is_disabled":false,"rental_uris":{"android":"levelo://app?vid=78391de9-fa6a-4169-9770-a7bd8deaab64","ios":"levelo://app?vid=78391de9-fa6a-4169-9770-a7bd8deaab64"},"vehicle_type_id":"4","last_reported":1732364233,"current_range_meters":33200,"station_id":"ce4bhgh2rcd13ifvqfb0","pricing_plan_id":"cebpf4jnsgd1na2vs0mg"},{"bike_id":"2fe3b314-3dd6-480a-a604-0d8b3c15c3ee","system_id":"levelo_inurba_marseille","lat":43.27927,"lon":5.38019,"is_reserved":false,"is_disabled":false,"rental_uris":{"android":"levelo://app?vid=2fe3b314-3dd6-480a-a604-0d8b3c15c3ee","ios":"levelo://app?vid=2fe3b314-3dd6-480a-a604-0d8b3c15c3ee"},"vehicle_type_id":"4","last_reported":1732364233,"current_range_meters":38800,"station_id":"ce4bhf92rcd13ifvqf50","pricing_plan_id":"cebpf4jnsgd1na2vs0mg"},{"bike_id":"a70a93ff-1ced-4e9b-963c-8900c1d589f1","system_id":"levelo_inurba_marseille","lat":43.28487,"lon":5.3717,"is_reserved":false,"is_disabled":false,"rental_uris":{"android":"levelo://app?vid=a70a93ff-1ced-4e9b-963c-8900c1d589f1","ios":"levelo://app?vid=a70a93ff-1ced-4e9b-963c-8900c1d589f1"},"vehicle_type_id":"4","last_reported":1732364233,"current_range_meters":20400,"station_id":"","pricing_plan_id":"cebpf4jnsgd1na2vs0mg"},{"bike_id":"ff3594ee-f948-4832-9680-599cfdacc368","system_id":"levelo_inurba_marseille","lat":43.27179,"lon":5.41,"is_reserved":false,"is_disabled":false,"rental_uris":{"android":"levelo://app?vid=ff3594ee-f948-4832-9680-599cfdacc368","ios":"levelo://app?vid=ff3594ee-f948-4832-9680-599cfdacc368"},"vehicle_type_id":"4","last_reported":1732364233,"current_range_meters":38000,"station_id":"ce4bhl12rcd13ifvqgf0","pricing_plan_id":"cebpf4jnsgd1na2vs0mg"},{"bike_id":"e2be356d-c236-4732-87f9-b18817c2cd8c","system_id":"levelo_inurba_marseille","lat":43.27308,"lon":5.3908,"is_reserved":false,"is_disabled":false,"rental_uris":{"android":"levelo://app?vid=e2be356d-c236-4732-87f9-b18817c2cd8c","ios":"levelo://app?vid=e2be356d-c236-4732-87f9-b18817c2cd8c"},"vehicle_type_id":"4","last_reported":1732364233,"current_range_meters":7200,"station_id":"ce4bhgp2rcd13ifvqfe0","pricing_plan_id":"cebpf4jnsgd1na2vs0mg"},{"bike_id":"856c5296-7fea-42cc-be09-a6b9a37c0b30","system_id":"levelo_inurba_marseille","lat":43.27373,"lon":5.36254,"is_reserved":false,"is_disabled":true,"rental_uris":{"android":"levelo://app?vid=856c5296-7fea-42cc-be09-a6b9a37c0b30","ios":"levelo://app?vid=856c5296-7fea-42cc-be09-a6b9a37c0b30"},"vehicle_type_id":"4","last_reported":1732364233,"current_range_meters":0,"station_id":"ce4bhbh2rcd13ifvqeo0","pricing_plan_id":"cebpf4jnsgd1na2vs0mg"},{"bike_id":"4a82b23d-6a0a-4eae-a7f9-7f58588db032","system_id":"levelo_inurba_marseille","lat":43.28412,"lon":5.37531,"is_reserved":false,"is_disabled":false,"rental_uris":{"android":"levelo://app?vid=4a82b23d-6a0a-4eae-a7f9-7f58588db032","ios":"levelo://app?vid=4a82b23d-6a0a-4eae-a7f9-7f58588db032"},"vehicle_type_id":"4","last_reported":1732364233,"current_range_meters":12400,"station_id":"ce4bh412rcd13ifvqds0","pricing_plan_id":"cebpf4jnsgd1na2vs0mg"},{"bike_id":"13ad8f6f-5ea8-43d5-9643-e38394fa7fe9","system_id":"levelo_inurba_marseille","lat":43.25575,"lon":5.38244,"is_reserved":false,"is_disabled":false,"rental_uris":{"android":"levelo://app?vid=13ad8f6f-5ea8-43d5-9643-e38394fa7fe9","ios":"levelo://app?vid=13ad8f6f-5ea8-43d5-9643-e38394fa7fe9"},"vehicle_type_id":"4","last_reported":1732364233,"current_range_meters":18000,"station_id":"ce4bhih2rcd13ifvqfs0","pricing_plan_id":"cebpf4jnsgd1na2vs0mg"},{"bike_id":"0ddfa46a-4055-4654-8da1-794fa513a354","system_id":"levelo_inurba_marseille","lat":43.26176,"lon":5.37932,"is_reserved":false,"is_disabled":false,"rental_uris":{"android":"levelo://app?vid=0ddfa46a-4055-4654-8da1-794fa513a354","ios":"levelo://app?vid=0ddfa46a-4055-4654-8da1-794fa513a354"},"vehicle_type_id":"4","last_reported":1732364233,"current_range_meters":6400,"station_id":"ce4bhjp2rcd13ifvqg90","pricing_plan_id":"cebpf4jnsgd1na2vs0mg"},{"bike_id":"4612bd9f-c9f5-4e7f-9b0d-20ec8c4628db","system_id":"levelo_inurba_marseille","lat":43.28037,"lon":5.369533,"is_reserved":false,"is_disabled":false,"rental_uris":{"android":"levelo://app?vid=4612bd9f-c9f5-4e7f-9b0d-20ec8c4628db","ios":"levelo://app?vid=4612bd9f-c9f5-4e7f-9b0d-20ec8c4628db"},"vehicle_type_id":"4","last_reported":1732364233,"current_range_meters":22400,"station_id":"ce4bha12rcd13ifvqef0","pricing_plan_id":"cebpf4jnsgd1na2vs0mg"},{"bike_id":"9a122f92-8d1b-4a84-9637-aeed9243668f","system_id":"levelo_inurba_marseille","lat":43.28935,"lon":5.36625,"is_reserved":false,"is_disabled":true,"rental_uris":{"android":"levelo://app?vid=9a122f92-8d1b-4a84-9637-aeed9243668f","ios":"levelo://app?vid=9a122f92-8d1b-4a84-9637-aeed9243668f"},"vehicle_type_id":"4","last_reported":1732364233,"current_range_meters":38800,"station_id":"ce4bhap2rcd13ifvqek0","pricing_plan_id":"cebpf4jnsgd1na2vs0mg"},{"bike_id":"ebd21c7a-b63d-473e-9407-73c1c91944c1","system_id":"levelo_inurba_marseille","lat":43.25083,"lon":5.39531,"is_reserved":false,"is_disabled":false,"rental_uris":{"android":"levelo://app?vid=ebd21c7a-b63d-473e-9407-73c1c91944c1","ios":"levelo://app?vid=ebd21c7a-b63d-473e-9407-73c1c91944c1"},"vehicle_type_id":"4","last_reported":1732364233,"current_range_meters":38400,"station_id":"ce4bhm12rcd13ifvqgkg","pricing_plan_id":"cebpf4jnsgd1na2vs0mg"},{"bike_id":"ac1b3788-b03a-4376-bf72-320fd033ea51","system_id":"levelo_inurba_marseille","lat":43.27672,"lon":5.389,"is_reserved":false,"is_disabled":false,"rental_uris":{"android":"levelo://app?vid=ac1b3788-b03a-4376-bf72-320fd033ea51","ios":"levelo://app?vid=ac1b3788-b03a-4376-bf72-320fd033ea51"},"vehicle_type_id":"4","last_reported":1732364233,"current_range_meters":4000,"station_id":"ce4bhi12rcd13ifvqfo0","pricing_plan_id":"cebpf4jnsgd1na2vs0mg"},{"bike_id":"79f1abd0-baa0-4166-895e-0f1fd1e05346","system_id":"levelo_inurba_marseille","lat":43.27491,"lon":5.42455,"is_reserved":false,"is_disabled":false,"rental_uris":{"android":"levelo://app?vid=79f1abd0-baa0-4166-895e-0f1fd1e05346","ios":"levelo://app?vid=79f1abd0-baa0-4166-895e-0f1fd1e05346"},"vehicle_type_id":"4","last_reported":1732364233,"current_range_meters":24400,"station_id":"ce4bhn92rcd13ifvqgrg","pricing_plan_id":"cebpf4jnsgd1na2vs0mg"},{"bike_id":"c42cf5b3-1ac4-4085-8875-d04df261aee4","system_id":"levelo_inurba_marseille","lat":43.30147,"lon":5.38087,"is_reserved":false,"is_disabled":false,"rental_uris":{"android":"levelo://app?vid=c42cf5b3-1ac4-4085-8875-d04df261aee4","ios":"levelo://app?vid=c42cf5b3-1ac4-4085-8875-d04df261aee4"},"vehicle_type_id":"4","last_reported":1732364233,"current_range_meters":35600,"station_id":"ce4bgjp2rcd13ifvqbh0","pricing_plan_id":"cebpf4jnsgd1na2vs0mg"},{"bike_id":"8da1be4d-ebfd-4ca9-810b-7e370dfb5b46","system_id":"levelo_inurba_marseille","lat":43.32652,"lon":5.40994,"is_reserved":false,"is_disabled":true,"rental_uris":{"android":"levelo://app?vid=8da1be4d-ebfd-4ca9-810b-7e370dfb5b46","ios":"levelo://app?vid=8da1be4d-ebfd-4ca9-810b-7e370dfb5b46"},"vehicle_type_id":"4","last_reported":1732364233,"current_range_meters":23200,"station_id":"ce4bhpp2rcd13ifvqhgg","pricing_plan_id":"cebpf4jnsgd1na2vs0mg"},{"bike_id":"ebe2b43b-e5bb-4158-835b-e46b2ce0d167","system_id":"levelo_inurba_marseille","lat":43.22928,"lon":5.35374,"is_reserved":false,"is_disabled":false,"rental_uris":{"android":"levelo://app?vid=ebe2b43b-e5bb-4158-835b-e46b2ce0d167","ios":"levelo://app?vid=ebe2b43b-e5bb-4158-835b-e46b2ce0d167"},"vehicle_type_id":"4","last_reported":1732364233,"current_range_meters":29600,"station_id":"cpo3532slgdg3j2ikp40","pricing_plan_id":"cebpf4jnsgd1na2vs0mg"},{"bike_id":"b478bad7-750f-4ade-b955-01e488b7cfb5","system_id":"levelo_inurba_marseille","lat":43.25105,"lon":5.40323,"is_reserved":false,"is_disabled":false,"rental_uris":{"android":"levelo://app?vid=b478bad7-750f-4ade-b955-01e488b7cfb5","ios":"levelo://app?vid=b478bad7-750f-4ade-b955-01e488b7cfb5"},"vehicle_type_id":"4","last_reported":1732364233,"current_range_meters":29600,"station_id":"ce4bhlh2rcd13ifvqgig","pricing_plan_id":"cebpf4jnsgd1na2vs0mg"},{"bike_id":"fa8314ae-1864-43c4-8fa1-c6e47ea1e55c","system_id":"levelo_inurba_marseille","lat":43.32105,"lon":5.36769,"is_reserved":false,"is_disabled":false,"rental_uris":{"android":"levelo://app?vid=fa8314ae-1864-43c4-8fa1-c6e47ea1e55c","ios":"levelo://app?vid=fa8314ae-1864-43c4-8fa1-c6e47ea1e55c"},"vehicle_type_id":"4","last_reported":1732364233,"current_range_meters":28000,"station_id":"ce4bhrh2rcd13ifvqhug","pricing_plan_id":"cebpf4jnsgd1na2vs0mg"},{"bike_id":"9076cb3b-34f3-44a7-a93d-afdbe44e24e6","system_id":"levelo_inurba_marseille","lat":43.24177,"lon":5.39731,"is_reserved":false,"is_disabled":false,"rental_uris":{"android":"levelo://app?vid=9076cb3b-34f3-44a7-a93d-afdbe44e24e6","ios":"levelo://app?vid=9076cb3b-34f3-44a7-a93d-afdbe44e24e6"},"vehicle_type_id":"4","last_reported":1732364233,"current_range_meters":38800,"station_id":"ce4bhn12rcd13ifvqgpg","pricing_plan_id":"cebpf4jnsgd1na2vs0mg"},{"bike_id":"93e22be2-ce4d-4082-96d3-753b4a20df2d","system_id":"levelo_inurba_marseille","lat":43.24075,"lon":5.37758,"is_reserved":false,"is_disabled":false,"rental_uris":{"android":"levelo://app?vid=93e22be2-ce4d-4082-96d3-753b4a20df2d","ios":"levelo://app?vid=93e22be2-ce4d-4082-96d3-753b4a20df2d"},"vehicle_type_id":"4","last_reported":1732364233,"current_range_meters":36400,"station_id":"ce4bhnp2rcd13ifvqgvg","pricing_plan_id":"cebpf4jnsgd1na2vs0mg"},{"bike_id":"d3a7f609-252d-4f84-9290-8b544666800d","system_id":"levelo_inurba_marseille","lat":43.29312,"lon":5.37464,"is_reserved":false,"is_disabled":false,"rental_uris":{"android":"levelo://app?vid=d3a7f609-252d-4f84-9290-8b544666800d","ios":"levelo://app?vid=d3a7f609-252d-4f84-9290-8b544666800d"},"vehicle_type_id":"4","last_reported":1732364233,"current_range_meters":4000,"station_id":"ce4bgi12rcd13ifvqb70","pricing_plan_id":"cebpf4jnsgd1na2vs0mg"},{"bike_id":"4614c3ce-fa32-4b49-800d-cf02516d6ab9","system_id":"levelo_inurba_marseille","lat":43.32366,"lon":5.38895,"is_reserved":false,"is_disabled":false,"rental_uris":{"android":"levelo://app?vid=4614c3ce-fa32-4b49-800d-cf02516d6ab9","ios":"levelo://app?vid=4614c3ce-fa32-4b49-800d-cf02516d6ab9"},"vehicle_type_id":"4","last_reported":1732364233,"current_range_meters":24400,"station_id":"ce4bhqp2rcd13ifvqhog","pricing_plan_id":"cebpf4jnsgd1na2vs0mg"},{"bike_id":"c3379793-7e7e-4e75-892b-627682a03205","system_id":"levelo_inurba_marseille","lat":43.30155,"lon":5.38089,"is_reserved":false,"is_disabled":false,"rental_uris":{"android":"levelo://app?vid=c3379793-7e7e-4e75-892b-627682a03205","ios":"levelo://app?vid=c3379793-7e7e-4e75-892b-627682a03205"},"vehicle_type_id":"4","last_reported":1732364233,"current_range_meters":38800,"station_id":"ce4bgjp2rcd13ifvqbh0","pricing_plan_id":"cebpf4jnsgd1na2vs0mg"},{"bike_id":"0ecb0e70-6e2f-4c40-ae14-77249cd56bd7","system_id":"levelo_inurba_marseille","lat":43.27965,"lon":5.38744,"is_reserved":false,"is_disabled":true,"rental_uris":{"android":"levelo://app?vid=0ecb0e70-6e2f-4c40-ae14-77249cd56bd7","ios":"levelo://app?vid=0ecb0e70-6e2f-4c40-ae14-77249cd56bd7"},"vehicle_type_id":"4","last_reported":1732364233,"current_range_meters":22400,"station_id":"ce4bhg12rcd13ifvqf80","pricing_plan_id":"cebpf4jnsgd1na2vs0mg"},{"bike_id":"f8a8a492-aaea-4018-90af-bfa3e05e159b","system_id":"levelo_inurba_marseille","lat":43.32659,"lon":5.40993,"is_reserved":false,"is_disabled":false,"rental_uris":{"android":"levelo://app?vid=f8a8a492-aaea-4018-90af-bfa3e05e159b","ios":"levelo://app?vid=f8a8a492-aaea-4018-90af-bfa3e05e159b"},"vehicle_type_id":"4","last_reported":1732364233,"current_range_meters":23200,"station_id":"ce4bhpp2rcd13ifvqhgg","pricing_plan_id":"cebpf4jnsgd1na2vs0mg"},{"bike_id":"6df41b18-b8ac-47d0-9841-6264427b88bb","system_id":"levelo_inurba_marseille","lat":43.31267,"lon":5.40167,"is_reserved":false,"is_disabled":false,"rental_uris":{"android":"levelo://app?vid=6df41b18-b8ac-47d0-9841-6264427b88bb","ios":"levelo://app?vid=6df41b18-b8ac-47d0-9841-6264427b88bb"},"vehicle_type_id":"4","last_reported":1732364233,"current_range_meters":10800,"station_id":"ce4bh092rcd13ifvqd30","pricing_plan_id":"cebpf4jnsgd1na2vs0mg"},{"bike_id":"ec95a3da-e4fe-4df1-91b7-a1e3559b7b72","system_id":"levelo_inurba_marseille","lat":43.30784,"lon":5.37641,"is_reserved":false,"is_disabled":false,"rental_uris":{"android":"levelo://app?vid=ec95a3da-e4fe-4df1-91b7-a1e3559b7b72","ios":"levelo://app?vid=ec95a3da-e4fe-4df1-91b7-a1e3559b7b72"},"vehicle_type_id":"4","last_reported":1732364233,"current_range_meters":20000,"station_id":"ce4bgv92rcd13ifvqcq0","pricing_plan_id":"cebpf4jnsgd1na2vs0mg"},{"bike_id":"16e4bdc6-43dd-4435-82a6-f137002a2daa","system_id":"levelo_inurba_marseille","lat":43.29622,"lon":5.37162,"is_reserved":false,"is_disabled":false,"rental_uris":{"android":"levelo://app?vid=16e4bdc6-43dd-4435-82a6-f137002a2daa","ios":"levelo://app?vid=16e4bdc6-43dd-4435-82a6-f137002a2daa"},"vehicle_type_id":"4","last_reported":1732364233,"current_range_meters":36800,"station_id":"ce4bgnh2rcd13ifvqc0g","pricing_plan_id":"cebpf4jnsgd1na2vs0mg"},{"bike_id":"f9e35db8-2f7a-4f43-8c70-83778761d42d","system_id":"levelo_inurba_marseille","lat":43.2319,"lon":5.3556,"is_reserved":false,"is_disabled":false,"rental_uris":{"android":"levelo://app?vid=f9e35db8-2f7a-4f43-8c70-83778761d42d","ios":"levelo://app?vid=f9e35db8-2f7a-4f43-8c70-83778761d42d"},"vehicle_type_id":"4","last_reported":1732364233,"current_range_meters":31200,"station_id":"ce4bhu92rcd13ifvqi70","pricing_plan_id":"cebpf4jnsgd1na2vs0mg"},{"bike_id":"001d4103-ec60-4422-9fd3-e89749f76ec5","system_id":"levelo_inurba_marseille","lat":43.29533,"lon":5.39397,"is_reserved":false,"is_disabled":false,"rental_uris":{"android":"levelo://app?vid=001d4103-ec60-4422-9fd3-e89749f76ec5","ios":"levelo://app?vid=001d4103-ec60-4422-9fd3-e89749f76ec5"},"vehicle_type_id":"4","last_reported":1732364233,"current_range_meters":25600,"station_id":"ce4bh292rcd13ifvqdf0","pricing_plan_id":"cebpf4jnsgd1na2vs0mg"},{"bike_id":"0b281387-30a1-4df1-8fbe-d7a8adf95d97","system_id":"levelo_inurba_marseille","lat":43.25109,"lon":5.40327,"is_reserved":false,"is_disabled":false,"rental_uris":{"android":"levelo://app?vid=0b281387-30a1-4df1-8fbe-d7a8adf95d97","ios":"levelo://app?vid=0b281387-30a1-4df1-8fbe-d7a8adf95d97"},"vehicle_type_id":"4","last_reported":1732364233,"current_range_meters":26800,"station_id":"ce4bhlh2rcd13ifvqgig","pricing_plan_id":"cebpf4jnsgd1na2vs0mg"},{"bike_id":"1108659d-c798-48fb-a758-9ac015354e35","system_id":"levelo_inurba_marseille","lat":43.26205,"lon":5.3793,"is_reserved":false,"is_disabled":false,"rental_uris":{"android":"levelo://app?vid=1108659d-c798-48fb-a758-9ac015354e35","ios":"levelo://app?vid=1108659d-c798-48fb-a758-9ac015354e35"},"vehicle_type_id":"4","last_reported":1732364233,"current_range_meters":24400,"station_id":"ce4bhjp2rcd13ifvqg90","pricing_plan_id":"cebpf4jnsgd1na2vs0mg"},{"bike_id":"1f5a72a0-3240-401f-8965-8959c734d798","system_id":"levelo_inurba_marseille","lat":43.23954,"lon":5.36637,"is_reserved":false,"is_disabled":false,"rental_uris":{"android":"levelo://app?vid=1f5a72a0-3240-401f-8965-8959c734d798","ios":"levelo://app?vid=1f5a72a0-3240-401f-8965-8959c734d798"},"vehicle_type_id":"4","last_reported":1732364233,"current_range_meters":38800,"station_id":"ce4bhi12rcd13ifvqfp0","pricing_plan_id":"cebpf4jnsgd1na2vs0mg"},{"bike_id":"6f356d40-76b6-4bc9-9bea-361e30764fe1","system_id":"levelo_inurba_marseille","lat":43.23062,"lon":5.35492,"is_reserved":false,"is_disabled":false,"rental_uris":{"android":"levelo://app?vid=6f356d40-76b6-4bc9-9bea-361e30764fe1","ios":"levelo://app?vid=6f356d40-76b6-4bc9-9bea-361e30764fe1"},"vehicle_type_id":"4","last_reported":1732364233,"current_range_meters":32000,"station_id":"cpo3342slgdg3j2ifvpg","pricing_plan_id":"cebpf4jnsgd1na2vs0mg"},{"bike_id":"ad8b36e5-5652-4f20-9e2e-b2f5d9840d9d","system_id":"levelo_inurba_marseille","lat":43.27212,"lon":5.39184,"is_reserved":false,"is_disabled":true,"rental_uris":{"android":"levelo://app?vid=ad8b36e5-5652-4f20-9e2e-b2f5d9840d9d","ios":"levelo://app?vid=ad8b36e5-5652-4f20-9e2e-b2f5d9840d9d"},"vehicle_type_id":"4","last_reported":1732364233,"current_range_meters":800,"station_id":"ce4bhhp2rcd13ifvqfm0","pricing_plan_id":"cebpf4jnsgd1na2vs0mg"},{"bike_id":"423a9818-7bff-4486-a519-c2edd613d48b","system_id":"levelo_inurba_marseille","lat":43.29957,"lon":5.41319,"is_reserved":false,"is_disabled":false,"rental_uris":{"android":"levelo://app?vid=423a9818-7bff-4486-a519-c2edd613d48b","ios":"levelo://app?vid=423a9818-7bff-4486-a519-c2edd613d48b"},"vehicle_type_id":"4","last_reported":1732364233,"current_range_meters":28400,"station_id":"ce4bhp12rcd13ifvqh9g","pricing_plan_id":"cebpf4jnsgd1na2vs0mg"},{"bike_id":"06017421-e72d-4fde-9b6f-832698f511a5","system_id":"levelo_inurba_marseille","lat":43.2958,"lon":5.36732,"is_reserved":false,"is_disabled":false,"rental_uris":{"android":"levelo://app?vid=06017421-e72d-4fde-9b6f-832698f511a5","ios":"levelo://app?vid=06017421-e72d-4fde-9b6f-832698f511a5"},"vehicle_type_id":"4","last_reported":1732364233,"current_range_meters":38000,"station_id":"ce4bgph2rcd13ifvqc2g","pricing_plan_id":"cebpf4jnsgd1na2vs0mg"},{"bike_id":"822b6b40-17c4-4873-b5db-52e7d38ebdca","system_id":"levelo_inurba_marseille","lat":43.30148,"lon":5.38078,"is_reserved":false,"is_disabled":false,"rental_uris":{"android":"levelo://app?vid=822b6b40-17c4-4873-b5db-52e7d38ebdca","ios":"levelo://app?vid=822b6b40-17c4-4873-b5db-52e7d38ebdca"},"vehicle_type_id":"4","last_reported":1732364233,"current_range_meters":36400,"station_id":"ce4bgjp2rcd13ifvqbh0","pricing_plan_id":"cebpf4jnsgd1na2vs0mg"},{"bike_id":"3d3e1c02-e434-42cd-a71e-c228de53e864","system_id":"levelo_inurba_marseille","lat":43.24384,"lon":5.37056,"is_reserved":false,"is_disabled":false,"rental_uris":{"android":"levelo://app?vid=3d3e1c02-e434-42cd-a71e-c228de53e864","ios":"levelo://app?vid=3d3e1c02-e434-42cd-a71e-c228de53e864"},"vehicle_type_id":"4","last_reported":1732364233,"current_range_meters":12800,"station_id":"ce4bhhh2rcd13ifvqfk0","pricing_plan_id":"cebpf4jnsgd1na2vs0mg"},{"bike_id":"94a5d43a-10ef-47b8-b99d-d6bc9e9b87e4","system_id":"levelo_inurba_marseille","lat":43.26938,"lon":5.40249,"is_reserved":false,"is_disabled":false,"rental_uris":{"android":"levelo://app?vid=94a5d43a-10ef-47b8-b99d-d6bc9e9b87e4","ios":"levelo://app?vid=94a5d43a-10ef-47b8-b99d-d6bc9e9b87e4"},"vehicle_type_id":"4","last_reported":1732364233,"current_range_meters":14000,"station_id":"cjm6bp8fraef2m0cb0m0","pricing_plan_id":"cebpf4jnsgd1na2vs0mg"},{"bike_id":"5d89816e-0afd-4910-9a3d-37d05296c402","system_id":"levelo_inurba_marseille","lat":43.32474,"lon":5.36556,"is_reserved":false,"is_disabled":false,"rental_uris":{"android":"levelo://app?vid=5d89816e-0afd-4910-9a3d-37d05296c402","ios":"levelo://app?vid=5d89816e-0afd-4910-9a3d-37d05296c402"},"vehicle_type_id":"4","last_reported":1732364233,"current_range_meters":35600,"station_id":"ce4bhs12rcd13ifvqhvg","pricing_plan_id":"cebpf4jnsgd1na2vs0mg"},{"bike_id":"d3e3e973-f89c-4419-9e76-db3faf490d9b","system_id":"levelo_inurba_marseille","lat":43.30148,"lon":5.38078,"is_reserved":false,"is_disabled":false,"rental_uris":{"android":"levelo://app?vid=d3e3e973-f89c-4419-9e76-db3faf490d9b","ios":"levelo://app?vid=d3e3e973-f89c-4419-9e76-db3faf490d9b"},"vehicle_type_id":"4","last_reported":1732364233,"current_range_meters":33200,"station_id":"ce4bgjp2rcd13ifvqbh0","pricing_plan_id":"cebpf4jnsgd1na2vs0mg"},{"bike_id":"b5eadb1c-ed38-4bd0-9ea1-319f717afc39","system_id":"levelo_inurba_marseille","lat":43.25821,"lon":5.3944,"is_reserved":false,"is_disabled":false,"rental_uris":{"android":"levelo://app?vid=b5eadb1c-ed38-4bd0-9ea1-319f717afc39","ios":"levelo://app?vid=b5eadb1c-ed38-4bd0-9ea1-319f717afc39"},"vehicle_type_id":"4","last_reported":1732364233,"current_range_meters":17600,"station_id":"ce4bhip2rcd13ifvqft0","pricing_plan_id":"cebpf4jnsgd1na2vs0mg"},{"bike_id":"4a7e3ab3-40d5-496b-9155-da3790c15fb4","system_id":"levelo_inurba_marseille","lat":43.30149,"lon":5.38078,"is_reserved":false,"is_disabled":false,"rental_uris":{"android":"levelo://app?vid=4a7e3ab3-40d5-496b-9155-da3790c15fb4","ios":"levelo://app?vid=4a7e3ab3-40d5-496b-9155-da3790c15fb4"},"vehicle_type_id":"4","last_reported":1732364233,"current_range_meters":38800,"station_id":"ce4bgjp2rcd13ifvqbh0","pricing_plan_id":"cebpf4jnsgd1na2vs0mg"},{"bike_id":"4cb716de-3f19-43d4-b34b-8b9ce425eaf2","system_id":"levelo_inurba_marseille","lat":43.25859,"lon":5.39904,"is_reserved":false,"is_disabled":false,"rental_uris":{"android":"levelo://app?vid=4cb716de-3f19-43d4-b34b-8b9ce425eaf2","ios":"levelo://app?vid=4cb716de-3f19-43d4-b34b-8b9ce425eaf2"},"vehicle_type_id":"4","last_reported":1732364233,"current_range_meters":24400,"station_id":"ce4bhl92rcd13ifvqghg","pricing_plan_id":"cebpf4jnsgd1na2vs0mg"},{"bike_id":"6da03f1d-49f2-44e9-a89b-84595f3f9226","system_id":"levelo_inurba_marseille","lat":43.26789,"lon":5.39414,"is_reserved":false,"is_disabled":false,"rental_uris":{"android":"levelo://app?vid=6da03f1d-49f2-44e9-a89b-84595f3f9226","ios":"levelo://app?vid=6da03f1d-49f2-44e9-a89b-84595f3f9226"},"vehicle_type_id":"4","last_reported":1732364233,"current_range_meters":15200,"station_id":"ce4bhh12rcd13ifvqfg0","pricing_plan_id":"cebpf4jnsgd1na2vs0mg"},{"bike_id":"99d5eeb3-6513-46db-81bf-de6e43866527","system_id":"levelo_inurba_marseille","lat":43.32365,"lon":5.38884,"is_reserved":false,"is_disabled":false,"rental_uris":{"android":"levelo://app?vid=99d5eeb3-6513-46db-81bf-de6e43866527","ios":"levelo://app?vid=99d5eeb3-6513-46db-81bf-de6e43866527"},"vehicle_type_id":"4","last_reported":1732364233,"current_range_meters":34000,"station_id":"ce4bhqp2rcd13ifvqhog","pricing_plan_id":"cebpf4jnsgd1na2vs0mg"},{"bike_id":"f1c0194a-d687-4668-8c71-70ffc5515c4c","system_id":"levelo_inurba_marseille","lat":43.29572,"lon":5.37507,"is_reserved":false,"is_disabled":false,"rental_uris":{"android":"levelo://app?vid=f1c0194a-d687-4668-8c71-70ffc5515c4c","ios":"levelo://app?vid=f1c0194a-d687-4668-8c71-70ffc5515c4c"},"vehicle_type_id":"4","last_reported":1732364233,"current_range_meters":36400,"station_id":"ce4bgh92rcd13ifvqb50","pricing_plan_id":"cebpf4jnsgd1na2vs0mg"},{"bike_id":"a39fd15f-d160-4487-ba9f-a267a8fc4f2c","system_id":"levelo_inurba_marseille","lat":43.27208,"lon":5.39174,"is_reserved":false,"is_disabled":true,"rental_uris":{"android":"levelo://app?vid=a39fd15f-d160-4487-ba9f-a267a8fc4f2c","ios":"levelo://app?vid=a39fd15f-d160-4487-ba9f-a267a8fc4f2c"},"vehicle_type_id":"4","last_reported":1732364233,"current_range_meters":0,"station_id":"ce4bhhp2rcd13ifvqfm0","pricing_plan_id":"cebpf4jnsgd1na2vs0mg"},{"bike_id":"294eeb79-af1b-495a-909f-216801ae6b41","system_id":"levelo_inurba_marseille","lat":43.337444,"lon":5.374475,"is_reserved":false,"is_disabled":true,"rental_uris":{"android":"levelo://app?vid=294eeb79-af1b-495a-909f-216801ae6b41","ios":"levelo://app?vid=294eeb79-af1b-495a-909f-216801ae6b41"},"vehicle_type_id":"4","last_reported":1732364233,"current_range_meters":0,"station_id":"","pricing_plan_id":"cebpf4jnsgd1na2vs0mg"},{"bike_id":"e5d63661-ea2d-4e9d-bdce-dbbf19d65c3c","system_id":"levelo_inurba_marseille","lat":43.32357,"lon":5.36752,"is_reserved":false,"is_disabled":false,"rental_uris":{"android":"levelo://app?vid=e5d63661-ea2d-4e9d-bdce-dbbf19d65c3c","ios":"levelo://app?vid=e5d63661-ea2d-4e9d-bdce-dbbf19d65c3c"},"vehicle_type_id":"4","last_reported":1732364233,"current_range_meters":38800,"station_id":"ce4bhsh2rcd13ifvqi2g","pricing_plan_id":"cebpf4jnsgd1na2vs0mg"},{"bike_id":"90cc99af-54e0-4698-bffa-7f2f1beb1a95","system_id":"levelo_inurba_marseille","lat":43.27981,"lon":5.41659,"is_reserved":false,"is_disabled":false,"rental_uris":{"android":"levelo://app?vid=90cc99af-54e0-4698-bffa-7f2f1beb1a95","ios":"levelo://app?vid=90cc99af-54e0-4698-bffa-7f2f1beb1a95"},"vehicle_type_id":"4","last_reported":1732364233,"current_range_meters":38800,"station_id":"ce4bho12rcd13ifvqh1g","pricing_plan_id":"cebpf4jnsgd1na2vs0mg"},{"bike_id":"e8b4068b-764f-4660-a82d-9c81131ed8a5","system_id":"levelo_inurba_marseille","lat":43.27915,"lon":5.39578,"is_reserved":false,"is_disabled":false,"rental_uris":{"android":"levelo://app?vid=e8b4068b-764f-4660-a82d-9c81131ed8a5","ios":"levelo://app?vid=e8b4068b-764f-4660-a82d-9c81131ed8a5"},"vehicle_type_id":"4","last_reported":1732364233,"current_range_meters":6000,"station_id":"ce4bhf92rcd13ifvqf40","pricing_plan_id":"cebpf4jnsgd1na2vs0mg"},{"bike_id":"cd78312a-142a-42d0-92e1-dbc654bf8bb4","system_id":"levelo_inurba_marseille","lat":43.24182,"lon":5.39726,"is_reserved":false,"is_disabled":true,"rental_uris":{"android":"levelo://app?vid=cd78312a-142a-42d0-92e1-dbc654bf8bb4","ios":"levelo://app?vid=cd78312a-142a-42d0-92e1-dbc654bf8bb4"},"vehicle_type_id":"4","last_reported":1732364233,"current_range_meters":14800,"station_id":"ce4bhn12rcd13ifvqgpg","pricing_plan_id":"cebpf4jnsgd1na2vs0mg"},{"bike_id":"f28c82ad-6f3c-4c01-88a7-477b9b26f762","system_id":"levelo_inurba_marseille","lat":43.23951,"lon":5.36647,"is_reserved":false,"is_disabled":false,"rental_uris":{"android":"levelo://app?vid=f28c82ad-6f3c-4c01-88a7-477b9b26f762","ios":"levelo://app?vid=f28c82ad-6f3c-4c01-88a7-477b9b26f762"},"vehicle_type_id":"4","last_reported":1732364233,"current_range_meters":27200,"station_id":"ce4bhi12rcd13ifvqfp0","pricing_plan_id":"cebpf4jnsgd1na2vs0mg"},{"bike_id":"11c5ed7c-dad2-4605-8db8-4918d0818190","system_id":"levelo_inurba_marseille","lat":43.31725,"lon":5.42404,"is_reserved":false,"is_disabled":false,"rental_uris":{"android":"levelo://app?vid=11c5ed7c-dad2-4605-8db8-4918d0818190","ios":"levelo://app?vid=11c5ed7c-dad2-4605-8db8-4918d0818190"},"vehicle_type_id":"4","last_reported":1732364233,"current_range_meters":38400,"station_id":"ce4bhp92rcd13ifvqhbg","pricing_plan_id":"cebpf4jnsgd1na2vs0mg"},{"bike_id":"3dedd3a3-3784-47e0-bd52-94265bd44a24","system_id":"levelo_inurba_marseille","lat":43.2455,"lon":5.37328,"is_reserved":false,"is_disabled":true,"rental_uris":{"android":"levelo://app?vid=3dedd3a3-3784-47e0-bd52-94265bd44a24","ios":"levelo://app?vid=3dedd3a3-3784-47e0-bd52-94265bd44a24"},"vehicle_type_id":"4","last_reported":1732364233,"current_range_meters":0,"station_id":"","pricing_plan_id":"cebpf4jnsgd1na2vs0mg"},{"bike_id":"0f73c7e1-9f37-4805-b324-faa77a592d73","system_id":"levelo_inurba_marseille","lat":43.240723,"lon":5.377538,"is_reserved":false,"is_disabled":false,"rental_uris":{"android":"levelo://app?vid=0f73c7e1-9f37-4805-b324-faa77a592d73","ios":"levelo://app?vid=0f73c7e1-9f37-4805-b324-faa77a592d73"},"vehicle_type_id":"4","last_reported":1732364233,"current_range_meters":18800,"station_id":"ce4bhnp2rcd13ifvqgvg","pricing_plan_id":"cebpf4jnsgd1na2vs0mg"},{"bike_id":"3d5804f7-bc71-4554-90ef-441d6c9cd61b","system_id":"levelo_inurba_marseille","lat":43.26927,"lon":5.3892,"is_reserved":false,"is_disabled":false,"rental_uris":{"android":"levelo://app?vid=3d5804f7-bc71-4554-90ef-441d6c9cd61b","ios":"levelo://app?vid=3d5804f7-bc71-4554-90ef-441d6c9cd61b"},"vehicle_type_id":"4","last_reported":1732364233,"current_range_meters":7200,"station_id":"ce4bhhh2rcd13ifvqfl0","pricing_plan_id":"cebpf4jnsgd1na2vs0mg"},{"bike_id":"508e64fb-b601-4256-a33d-1741da3fb5eb","system_id":"levelo_inurba_marseille","lat":43.24071,"lon":5.37746,"is_reserved":false,"is_disabled":false,"rental_uris":{"android":"levelo://app?vid=508e64fb-b601-4256-a33d-1741da3fb5eb","ios":"levelo://app?vid=508e64fb-b601-4256-a33d-1741da3fb5eb"},"vehicle_type_id":"4","last_reported":1732364233,"current_range_meters":4000,"station_id":"ce4bhnp2rcd13ifvqgvg","pricing_plan_id":"cebpf4jnsgd1na2vs0mg"},{"bike_id":"64cf8a74-ede6-4cd9-96d7-521f265a03d3","system_id":"levelo_inurba_marseille","lat":43.24544,"lon":5.39522,"is_reserved":false,"is_disabled":false,"rental_uris":{"android":"levelo://app?vid=64cf8a74-ede6-4cd9-96d7-521f265a03d3","ios":"levelo://app?vid=64cf8a74-ede6-4cd9-96d7-521f265a03d3"},"vehicle_type_id":"4","last_reported":1732364233,"current_range_meters":18000,"station_id":"ce4bhlp2rcd13ifvqgjg","pricing_plan_id":"cebpf4jnsgd1na2vs0mg"},{"bike_id":"3193222d-584b-4642-a1d8-0c04b2309736","system_id":"levelo_inurba_marseille","lat":43.33729,"lon":5.39185,"is_reserved":false,"is_disabled":false,"rental_uris":{"android":"levelo://app?vid=3193222d-584b-4642-a1d8-0c04b2309736","ios":"levelo://app?vid=3193222d-584b-4642-a1d8-0c04b2309736"},"vehicle_type_id":"4","last_reported":1732364233,"current_range_meters":32400,"station_id":"ce4bhr92rcd13ifvqhsg","pricing_plan_id":"cebpf4jnsgd1na2vs0mg"},{"bike_id":"7c2f19f3-5373-4c2a-87bb-e1fd3ef39822","system_id":"levelo_inurba_marseille","lat":43.265612,"lon":5.39,"is_reserved":false,"is_disabled":true,"rental_uris":{"android":"levelo://app?vid=7c2f19f3-5373-4c2a-87bb-e1fd3ef39822","ios":"levelo://app?vid=7c2f19f3-5373-4c2a-87bb-e1fd3ef39822"},"vehicle_type_id":"4","last_reported":1732364233,"current_range_meters":25600,"station_id":"ce4bhe12rcd13ifvqf30","pricing_plan_id":"cebpf4jnsgd1na2vs0mg"},{"bike_id":"36ef9a42-f4d8-45f5-adc2-b51fb9b962d0","system_id":"levelo_inurba_marseille","lat":43.341422,"lon":5.409007,"is_reserved":false,"is_disabled":false,"rental_uris":{"android":"levelo://app?vid=36ef9a42-f4d8-45f5-adc2-b51fb9b962d0","ios":"levelo://app?vid=36ef9a42-f4d8-45f5-adc2-b51fb9b962d0"},"vehicle_type_id":"4","last_reported":1732364233,"current_range_meters":40000,"station_id":"ce4bhqh2rcd13ifvqhlg","pricing_plan_id":"cebpf4jnsgd1na2vs0mg"},{"bike_id":"c04936aa-7f1e-40be-98cd-ea995a095345","system_id":"levelo_inurba_marseille","lat":43.3047,"lon":5.37903,"is_reserved":false,"is_disabled":false,"rental_uris":{"android":"levelo://app?vid=c04936aa-7f1e-40be-98cd-ea995a095345","ios":"levelo://app?vid=c04936aa-7f1e-40be-98cd-ea995a095345"},"vehicle_type_id":"4","last_reported":1732364233,"current_range_meters":27200,"station_id":"ce4bgup2rcd13ifvqcn0","pricing_plan_id":"cebpf4jnsgd1na2vs0mg"},{"bike_id":"6ce6086b-6084-46f4-ba4b-69f8aaaa51b2","system_id":"levelo_inurba_marseille","lat":43.30536,"lon":5.38436,"is_reserved":false,"is_disabled":true,"rental_uris":{"android":"levelo://app?vid=6ce6086b-6084-46f4-ba4b-69f8aaaa51b2","ios":"levelo://app?vid=6ce6086b-6084-46f4-ba4b-69f8aaaa51b2"},"vehicle_type_id":"4","last_reported":1732364233,"current_range_meters":28800,"station_id":"ce4bgg92rcd13ifvqb30","pricing_plan_id":"cebpf4jnsgd1na2vs0mg"},{"bike_id":"1fe36207-a189-42b7-a2ae-a1bed57e3dd0","system_id":"levelo_inurba_marseille","lat":43.2603,"lon":5.37555,"is_reserved":false,"is_disabled":false,"rental_uris":{"android":"levelo://app?vid=1fe36207-a189-42b7-a2ae-a1bed57e3dd0","ios":"levelo://app?vid=1fe36207-a189-42b7-a2ae-a1bed57e3dd0"},"vehicle_type_id":"4","last_reported":1732364233,"current_range_meters":13600,"station_id":"ce4bhgh2rcd13ifvqfa0","pricing_plan_id":"cebpf4jnsgd1na2vs0mg"},{"bike_id":"4ecdaf55-87e7-42ea-ac0e-a41de2a6b49d","system_id":"levelo_inurba_marseille","lat":43.31984,"lon":5.38149,"is_reserved":false,"is_disabled":false,"rental_uris":{"android":"levelo://app?vid=4ecdaf55-87e7-42ea-ac0e-a41de2a6b49d","ios":"levelo://app?vid=4ecdaf55-87e7-42ea-ac0e-a41de2a6b49d"},"vehicle_type_id":"4","last_reported":1732364233,"current_range_meters":23200,"station_id":"ce4bhr12rcd13ifvqhpg","pricing_plan_id":"cebpf4jnsgd1na2vs0mg"},{"bike_id":"51ce6112-ca51-4a26-8335-063dea88ee84","system_id":"levelo_inurba_marseille","lat":43.266775,"lon":5.389665,"is_reserved":false,"is_disabled":false,"rental_uris":{"android":"levelo://app?vid=51ce6112-ca51-4a26-8335-063dea88ee84","ios":"levelo://app?vid=51ce6112-ca51-4a26-8335-063dea88ee84"},"vehicle_type_id":"4","last_reported":1732364233,"current_range_meters":8000,"station_id":"","pricing_plan_id":"cebpf4jnsgd1na2vs0mg"},{"bike_id":"fc0b1b0c-9a21-495d-be52-0d91f5503bfa","system_id":"levelo_inurba_marseille","lat":43.22925,"lon":5.35381,"is_reserved":false,"is_disabled":false,"rental_uris":{"android":"levelo://app?vid=fc0b1b0c-9a21-495d-be52-0d91f5503bfa","ios":"levelo://app?vid=fc0b1b0c-9a21-495d-be52-0d91f5503bfa"},"vehicle_type_id":"4","last_reported":1732364233,"current_range_meters":22000,"station_id":"cpo3532slgdg3j2ikp40","pricing_plan_id":"cebpf4jnsgd1na2vs0mg"},{"bike_id":"db32add3-6121-4d3d-b2ce-225f1865f13c","system_id":"levelo_inurba_marseille","lat":43.30268,"lon":5.37709,"is_reserved":false,"is_disabled":false,"rental_uris":{"android":"levelo://app?vid=db32add3-6121-4d3d-b2ce-225f1865f13c","ios":"levelo://app?vid=db32add3-6121-4d3d-b2ce-225f1865f13c"},"vehicle_type_id":"4","last_reported":1732364233,"current_range_meters":10000,"station_id":"ce4bguh2rcd13ifvqcj0","pricing_plan_id":"cebpf4jnsgd1na2vs0mg"},{"bike_id":"80dd2d77-cde7-45cc-be73-c3c673f6b342","system_id":"levelo_inurba_marseille","lat":43.27569,"lon":5.38429,"is_reserved":false,"is_disabled":false,"rental_uris":{"android":"levelo://app?vid=80dd2d77-cde7-45cc-be73-c3c673f6b342","ios":"levelo://app?vid=80dd2d77-cde7-45cc-be73-c3c673f6b342"},"vehicle_type_id":"4","last_reported":1732364233,"current_range_meters":18800,"station_id":"ce4bhh92rcd13ifvqfi0","pricing_plan_id":"cebpf4jnsgd1na2vs0mg"},{"bike_id":"94101e33-ee43-4b1f-9078-47da1f716263","system_id":"levelo_inurba_marseille","lat":43.26956,"lon":5.38622,"is_reserved":false,"is_disabled":false,"rental_uris":{"android":"levelo://app?vid=94101e33-ee43-4b1f-9078-47da1f716263","ios":"levelo://app?vid=94101e33-ee43-4b1f-9078-47da1f716263"},"vehicle_type_id":"4","last_reported":1732364233,"current_range_meters":38800,"station_id":"ce4bhh92rcd13ifvqfh0","pricing_plan_id":"cebpf4jnsgd1na2vs0mg"},{"bike_id":"97437fd5-e381-403b-962e-cf899defef24","system_id":"levelo_inurba_marseille","lat":43.32466,"lon":5.36581,"is_reserved":false,"is_disabled":false,"rental_uris":{"android":"levelo://app?vid=97437fd5-e381-403b-962e-cf899defef24","ios":"levelo://app?vid=97437fd5-e381-403b-962e-cf899defef24"},"vehicle_type_id":"4","last_reported":1732364233,"current_range_meters":25200,"station_id":"ce4bhs12rcd13ifvqhvg","pricing_plan_id":"cebpf4jnsgd1na2vs0mg"},{"bike_id":"68f9bc67-7a46-4c54-8555-1eed96ca8ef0","system_id":"levelo_inurba_marseille","lat":43.32107,"lon":5.36778,"is_reserved":false,"is_disabled":false,"rental_uris":{"android":"levelo://app?vid=68f9bc67-7a46-4c54-8555-1eed96ca8ef0","ios":"levelo://app?vid=68f9bc67-7a46-4c54-8555-1eed96ca8ef0"},"vehicle_type_id":"4","last_reported":1732364233,"current_range_meters":36800,"station_id":"ce4bhrh2rcd13ifvqhug","pricing_plan_id":"cebpf4jnsgd1na2vs0mg"},{"bike_id":"9f2d87b3-b732-4f0b-a482-72509ea4f76c","system_id":"levelo_inurba_marseille","lat":43.3015,"lon":5.38086,"is_reserved":false,"is_disabled":false,"rental_uris":{"android":"levelo://app?vid=9f2d87b3-b732-4f0b-a482-72509ea4f76c","ios":"levelo://app?vid=9f2d87b3-b732-4f0b-a482-72509ea4f76c"},"vehicle_type_id":"4","last_reported":1732364233,"current_range_meters":28800,"station_id":"ce4bgjp2rcd13ifvqbh0","pricing_plan_id":"cebpf4jnsgd1na2vs0mg"},{"bike_id":"063115e9-6f47-4eb0-9625-8f724283aa7f","system_id":"levelo_inurba_marseille","lat":43.28941,"lon":5.36636,"is_reserved":false,"is_disabled":false,"rental_uris":{"android":"levelo://app?vid=063115e9-6f47-4eb0-9625-8f724283aa7f","ios":"levelo://app?vid=063115e9-6f47-4eb0-9625-8f724283aa7f"},"vehicle_type_id":"4","last_reported":1732364233,"current_range_meters":37600,"station_id":"ce4bhap2rcd13ifvqek0","pricing_plan_id":"cebpf4jnsgd1na2vs0mg"},{"bike_id":"dab91a37-38d9-40d1-92ef-9579082d09de","system_id":"levelo_inurba_marseille","lat":43.26552,"lon":5.37294,"is_reserved":false,"is_disabled":false,"rental_uris":{"android":"levelo://app?vid=dab91a37-38d9-40d1-92ef-9579082d09de","ios":"levelo://app?vid=dab91a37-38d9-40d1-92ef-9579082d09de"},"vehicle_type_id":"4","last_reported":1732364233,"current_range_meters":18800,"station_id":"ce4bhg12rcd13ifvqf70","pricing_plan_id":"cebpf4jnsgd1na2vs0mg"},{"bike_id":"8f594729-0af6-46cb-b90c-134ca82fdd11","system_id":"levelo_inurba_marseille","lat":43.27206,"lon":5.3918,"is_reserved":false,"is_disabled":false,"rental_uris":{"android":"levelo://app?vid=8f594729-0af6-46cb-b90c-134ca82fdd11","ios":"levelo://app?vid=8f594729-0af6-46cb-b90c-134ca82fdd11"},"vehicle_type_id":"4","last_reported":1732364233,"current_range_meters":16800,"station_id":"ce4bhhp2rcd13ifvqfm0","pricing_plan_id":"cebpf4jnsgd1na2vs0mg"},{"bike_id":"b530abb0-c585-48a7-8b3e-48115cd289e0","system_id":"levelo_inurba_marseille","lat":43.28838,"lon":5.39304,"is_reserved":false,"is_disabled":false,"rental_uris":{"android":"levelo://app?vid=b530abb0-c585-48a7-8b3e-48115cd289e0","ios":"levelo://app?vid=b530abb0-c585-48a7-8b3e-48115cd289e0"},"vehicle_type_id":"4","last_reported":1732364233,"current_range_meters":5600,"station_id":"ce4bh2p2rcd13ifvqdi0","pricing_plan_id":"cebpf4jnsgd1na2vs0mg"},{"bike_id":"d60edd73-4923-4330-b16d-caf6d1490a7d","system_id":"levelo_inurba_marseille","lat":43.31539,"lon":5.38024,"is_reserved":false,"is_disabled":false,"rental_uris":{"android":"levelo://app?vid=d60edd73-4923-4330-b16d-caf6d1490a7d","ios":"levelo://app?vid=d60edd73-4923-4330-b16d-caf6d1490a7d"},"vehicle_type_id":"4","last_reported":1732364233,"current_range_meters":10000,"station_id":"ce4bhsp2rcd13ifvqi50","pricing_plan_id":"cebpf4jnsgd1na2vs0mg"},{"bike_id":"27683f49-c487-47fd-a483-270a548fed44","system_id":"levelo_inurba_marseille","lat":43.30893,"lon":5.37193,"is_reserved":false,"is_disabled":false,"rental_uris":{"android":"levelo://app?vid=27683f49-c487-47fd-a483-270a548fed44","ios":"levelo://app?vid=27683f49-c487-47fd-a483-270a548fed44"},"vehicle_type_id":"4","last_reported":1732364233,"current_range_meters":38800,"station_id":"ce4bguh2rcd13ifvqckg","pricing_plan_id":"cebpf4jnsgd1na2vs0mg"},{"bike_id":"3c507e5a-46d7-43af-9852-54ee0365dd0e","system_id":"levelo_inurba_marseille","lat":43.30135,"lon":5.39868,"is_reserved":false,"is_disabled":true,"rental_uris":{"android":"levelo://app?vid=3c507e5a-46d7-43af-9852-54ee0365dd0e","ios":"levelo://app?vid=3c507e5a-46d7-43af-9852-54ee0365dd0e"},"vehicle_type_id":"4","last_reported":1732364233,"current_range_meters":0,"station_id":"ce4bh0h2rcd13ifvqd40","pricing_plan_id":"cebpf4jnsgd1na2vs0mg"},{"bike_id":"2ce56eac-607f-4aee-97f1-1efe9a148076","system_id":"levelo_inurba_marseille","lat":43.22927,"lon":5.35377,"is_reserved":false,"is_disabled":false,"rental_uris":{"android":"levelo://app?vid=2ce56eac-607f-4aee-97f1-1efe9a148076","ios":"levelo://app?vid=2ce56eac-607f-4aee-97f1-1efe9a148076"},"vehicle_type_id":"4","last_reported":1732364233,"current_range_meters":9600,"station_id":"cpo3532slgdg3j2ikp40","pricing_plan_id":"cebpf4jnsgd1na2vs0mg"},{"bike_id":"3c5d0254-2542-44e0-aa08-1a8753e937a8","system_id":"levelo_inurba_marseille","lat":43.2668,"lon":5.38264,"is_reserved":false,"is_disabled":false,"rental_uris":{"android":"levelo://app?vid=3c5d0254-2542-44e0-aa08-1a8753e937a8","ios":"levelo://app?vid=3c5d0254-2542-44e0-aa08-1a8753e937a8"},"vehicle_type_id":"4","last_reported":1732364233,"current_range_meters":36400,"station_id":"ce4bhg92rcd13ifvqf90","pricing_plan_id":"cebpf4jnsgd1na2vs0mg"},{"bike_id":"dd3b09fe-b71a-401a-b299-a88383f47f1c","system_id":"levelo_inurba_marseille","lat":43.337444,"lon":5.374475,"is_reserved":false,"is_disabled":false,"rental_uris":{"android":"levelo://app?vid=dd3b09fe-b71a-401a-b299-a88383f47f1c","ios":"levelo://app?vid=dd3b09fe-b71a-401a-b299-a88383f47f1c"},"vehicle_type_id":"4","last_reported":1732364233,"current_range_meters":35600,"station_id":"","pricing_plan_id":"cebpf4jnsgd1na2vs0mg"},{"bike_id":"2873debf-59f4-4478-b7df-59c2a64d2e95","system_id":"levelo_inurba_marseille","lat":43.30077,"lon":5.3908,"is_reserved":false,"is_disabled":false,"rental_uris":{"android":"levelo://app?vid=2873debf-59f4-4478-b7df-59c2a64d2e95","ios":"levelo://app?vid=2873debf-59f4-4478-b7df-59c2a64d2e95"},"vehicle_type_id":"4","last_reported":1732364233,"current_range_meters":20800,"station_id":"ce4bh192rcd13ifvqdb0","pricing_plan_id":"cebpf4jnsgd1na2vs0mg"},{"bike_id":"c74abcec-f83d-46ae-b5a9-0a57cc1c1c41","system_id":"levelo_inurba_marseille","lat":43.2319,"lon":5.35562,"is_reserved":false,"is_disabled":false,"rental_uris":{"android":"levelo://app?vid=c74abcec-f83d-46ae-b5a9-0a57cc1c1c41","ios":"levelo://app?vid=c74abcec-f83d-46ae-b5a9-0a57cc1c1c41"},"vehicle_type_id":"4","last_reported":1732364233,"current_range_meters":33600,"station_id":"ce4bhu92rcd13ifvqi70","pricing_plan_id":"cebpf4jnsgd1na2vs0mg"},{"bike_id":"70efe11f-246e-4816-84be-0fd24c72d35e","system_id":"levelo_inurba_marseille","lat":43.24669,"lon":5.38161,"is_reserved":false,"is_disabled":false,"rental_uris":{"android":"levelo://app?vid=70efe11f-246e-4816-84be-0fd24c72d35e","ios":"levelo://app?vid=70efe11f-246e-4816-84be-0fd24c72d35e"},"vehicle_type_id":"4","last_reported":1732364233,"current_range_meters":24800,"station_id":"ce4bhih2rcd13ifvqfr0","pricing_plan_id":"cebpf4jnsgd1na2vs0mg"},{"bike_id":"c398b6ed-d269-476e-ae31-38d108cc139c","system_id":"levelo_inurba_marseille","lat":43.31228,"lon":5.36863,"is_reserved":false,"is_disabled":false,"rental_uris":{"android":"levelo://app?vid=c398b6ed-d269-476e-ae31-38d108cc139c","ios":"levelo://app?vid=c398b6ed-d269-476e-ae31-38d108cc139c"},"vehicle_type_id":"4","last_reported":1732364233,"current_range_meters":28800,"station_id":"ce4bgl92rcd13ifvqbq0","pricing_plan_id":"cebpf4jnsgd1na2vs0mg"},{"bike_id":"c3a9fd83-5a98-42b2-a8f7-5104c351d62e","system_id":"levelo_inurba_marseille","lat":43.30458,"lon":5.379,"is_reserved":false,"is_disabled":false,"rental_uris":{"android":"levelo://app?vid=c3a9fd83-5a98-42b2-a8f7-5104c351d62e","ios":"levelo://app?vid=c3a9fd83-5a98-42b2-a8f7-5104c351d62e"},"vehicle_type_id":"4","last_reported":1732364233,"current_range_meters":38400,"station_id":"ce4bgup2rcd13ifvqcn0","pricing_plan_id":"cebpf4jnsgd1na2vs0mg"},{"bike_id":"1eff5ce5-2d56-4465-a12c-60db9ec2175a","system_id":"levelo_inurba_marseille","lat":43.22928,"lon":5.35383,"is_reserved":false,"is_disabled":false,"rental_uris":{"android":"levelo://app?vid=1eff5ce5-2d56-4465-a12c-60db9ec2175a","ios":"levelo://app?vid=1eff5ce5-2d56-4465-a12c-60db9ec2175a"},"vehicle_type_id":"4","last_reported":1732364233,"current_range_meters":36800,"station_id":"cpo3532slgdg3j2ikp40","pricing_plan_id":"cebpf4jnsgd1na2vs0mg"},{"bike_id":"cbc2167d-639d-4b33-b914-3ad6f36f2868","system_id":"levelo_inurba_marseille","lat":43.22925,"lon":5.35372,"is_reserved":false,"is_disabled":false,"rental_uris":{"android":"levelo://app?vid=cbc2167d-639d-4b33-b914-3ad6f36f2868","ios":"levelo://app?vid=cbc2167d-639d-4b33-b914-3ad6f36f2868"},"vehicle_type_id":"4","last_reported":1732364233,"current_range_meters":6800,"station_id":"cpo3532slgdg3j2ikp40","pricing_plan_id":"cebpf4jnsgd1na2vs0mg"},{"bike_id":"87488645-3703-4d2a-80ff-1ddfc23d059e","system_id":"levelo_inurba_marseille","lat":43.2799,"lon":5.40022,"is_reserved":false,"is_disabled":false,"rental_uris":{"android":"levelo://app?vid=87488645-3703-4d2a-80ff-1ddfc23d059e","ios":"levelo://app?vid=87488645-3703-4d2a-80ff-1ddfc23d059e"},"vehicle_type_id":"4","last_reported":1732364233,"current_range_meters":28400,"station_id":"ce4bho92rcd13ifvqh4g","pricing_plan_id":"cebpf4jnsgd1na2vs0mg"},{"bike_id":"aceb966a-e5bc-4340-9be3-5367f9ac3630","system_id":"levelo_inurba_marseille","lat":43.29535,"lon":5.37498,"is_reserved":false,"is_disabled":false,"rental_uris":{"android":"levelo://app?vid=aceb966a-e5bc-4340-9be3-5367f9ac3630","ios":"levelo://app?vid=aceb966a-e5bc-4340-9be3-5367f9ac3630"},"vehicle_type_id":"4","last_reported":1732364233,"current_range_meters":24400,"station_id":"ce4bgkp2rcd13ifvqbmg","pricing_plan_id":"cebpf4jnsgd1na2vs0mg"},{"bike_id":"459421a7-270d-40d2-af40-a14d0bb4e5a3","system_id":"levelo_inurba_marseille","lat":43.25865,"lon":5.39895,"is_reserved":false,"is_disabled":false,"rental_uris":{"android":"levelo://app?vid=459421a7-270d-40d2-af40-a14d0bb4e5a3","ios":"levelo://app?vid=459421a7-270d-40d2-af40-a14d0bb4e5a3"},"vehicle_type_id":"4","last_reported":1732364233,"current_range_meters":35200,"station_id":"ce4bhl92rcd13ifvqghg","pricing_plan_id":"cebpf4jnsgd1na2vs0mg"},{"bike_id":"91f73aa8-c80c-432f-a6a8-7c4b5391d692","system_id":"levelo_inurba_marseille","lat":43.29798,"lon":5.40402,"is_reserved":false,"is_disabled":false,"rental_uris":{"android":"levelo://app?vid=91f73aa8-c80c-432f-a6a8-7c4b5391d692","ios":"levelo://app?vid=91f73aa8-c80c-432f-a6a8-7c4b5391d692"},"vehicle_type_id":"4","last_reported":1732364233,"current_range_meters":10800,"station_id":"ce4bh112rcd13ifvqd90","pricing_plan_id":"cebpf4jnsgd1na2vs0mg"},{"bike_id":"5f401a72-6ce7-4d38-9fb6-ee5260b34669","system_id":"levelo_inurba_marseille","lat":43.24083,"lon":5.37751,"is_reserved":false,"is_disabled":false,"rental_uris":{"android":"levelo://app?vid=5f401a72-6ce7-4d38-9fb6-ee5260b34669","ios":"levelo://app?vid=5f401a72-6ce7-4d38-9fb6-ee5260b34669"},"vehicle_type_id":"4","last_reported":1732364233,"current_range_meters":37600,"station_id":"ce4bhnp2rcd13ifvqgvg","pricing_plan_id":"cebpf4jnsgd1na2vs0mg"},{"bike_id":"e6cd0c8f-d7f7-4b8c-b79a-5062102cc9cc","system_id":"levelo_inurba_marseille","lat":43.29553,"lon":5.37527,"is_reserved":false,"is_disabled":false,"rental_uris":{"android":"levelo://app?vid=e6cd0c8f-d7f7-4b8c-b79a-5062102cc9cc","ios":"levelo://app?vid=e6cd0c8f-d7f7-4b8c-b79a-5062102cc9cc"},"vehicle_type_id":"4","last_reported":1732364233,"current_range_meters":38800,"station_id":"ce4bgh92rcd13ifvqb50","pricing_plan_id":"cebpf4jnsgd1na2vs0mg"},{"bike_id":"29dca6bd-3928-4ad6-ad5b-8c9469e40ec9","system_id":"levelo_inurba_marseille","lat":43.29029,"lon":5.38648,"is_reserved":false,"is_disabled":false,"rental_uris":{"android":"levelo://app?vid=29dca6bd-3928-4ad6-ad5b-8c9469e40ec9","ios":"levelo://app?vid=29dca6bd-3928-4ad6-ad5b-8c9469e40ec9"},"vehicle_type_id":"4","last_reported":1732364233,"current_range_meters":30000,"station_id":"ce4bh4p2rcd13ifvqe0g","pricing_plan_id":"cebpf4jnsgd1na2vs0mg"},{"bike_id":"f796b412-9140-415f-9f98-4b489dc2b14e","system_id":"levelo_inurba_marseille","lat":43.26936,"lon":5.40246,"is_reserved":false,"is_disabled":false,"rental_uris":{"android":"levelo://app?vid=f796b412-9140-415f-9f98-4b489dc2b14e","ios":"levelo://app?vid=f796b412-9140-415f-9f98-4b489dc2b14e"},"vehicle_type_id":"4","last_reported":1732364233,"current_range_meters":36800,"station_id":"cjm6bp8fraef2m0cb0m0","pricing_plan_id":"cebpf4jnsgd1na2vs0mg"},{"bike_id":"2671fb8a-3452-46fd-bec4-bd169133378c","system_id":"levelo_inurba_marseille","lat":43.26682,"lon":5.38268,"is_reserved":false,"is_disabled":true,"rental_uris":{"android":"levelo://app?vid=2671fb8a-3452-46fd-bec4-bd169133378c","ios":"levelo://app?vid=2671fb8a-3452-46fd-bec4-bd169133378c"},"vehicle_type_id":"4","last_reported":1732364233,"current_range_meters":0,"station_id":"ce4bhg92rcd13ifvqf90","pricing_plan_id":"cebpf4jnsgd1na2vs0mg"},{"bike_id":"0002c982-3dcd-4105-b4f8-7e0a03270684","system_id":"levelo_inurba_marseille","lat":43.24071,"lon":5.37749,"is_reserved":false,"is_disabled":false,"rental_uris":{"android":"levelo://app?vid=0002c982-3dcd-4105-b4f8-7e0a03270684","ios":"levelo://app?vid=0002c982-3dcd-4105-b4f8-7e0a03270684"},"vehicle_type_id":"4","last_reported":1732364233,"current_range_meters":4400,"station_id":"ce4bhnp2rcd13ifvqgvg","pricing_plan_id":"cebpf4jnsgd1na2vs0mg"},{"bike_id":"8f965d98-ed0b-4d4e-889d-7e115e8d38c5","system_id":"levelo_inurba_marseille","lat":43.31719,"lon":5.424,"is_reserved":false,"is_disabled":false,"rental_uris":{"android":"levelo://app?vid=8f965d98-ed0b-4d4e-889d-7e115e8d38c5","ios":"levelo://app?vid=8f965d98-ed0b-4d4e-889d-7e115e8d38c5"},"vehicle_type_id":"4","last_reported":1732364233,"current_range_meters":8800,"station_id":"ce4bhp92rcd13ifvqhbg","pricing_plan_id":"cebpf4jnsgd1na2vs0mg"},{"bike_id":"1752c724-2da7-45b5-8b48-74d9be0dc05d","system_id":"levelo_inurba_marseille","lat":43.27993,"lon":5.40016,"is_reserved":false,"is_disabled":false,"rental_uris":{"android":"levelo://app?vid=1752c724-2da7-45b5-8b48-74d9be0dc05d","ios":"levelo://app?vid=1752c724-2da7-45b5-8b48-74d9be0dc05d"},"vehicle_type_id":"4","last_reported":1732364233,"current_range_meters":4000,"station_id":"ce4bho92rcd13ifvqh4g","pricing_plan_id":"cebpf4jnsgd1na2vs0mg"},{"bike_id":"d03de03b-2274-44c7-9a5f-9dee18d21d66","system_id":"levelo_inurba_marseille","lat":43.29308,"lon":5.37455,"is_reserved":false,"is_disabled":false,"rental_uris":{"android":"levelo://app?vid=d03de03b-2274-44c7-9a5f-9dee18d21d66","ios":"levelo://app?vid=d03de03b-2274-44c7-9a5f-9dee18d21d66"},"vehicle_type_id":"4","last_reported":1732364233,"current_range_meters":36800,"station_id":"ce4bgi12rcd13ifvqb70","pricing_plan_id":"cebpf4jnsgd1na2vs0mg"},{"bike_id":"233f2af9-8d22-46aa-ac63-d90c6a96b00f","system_id":"levelo_inurba_marseille","lat":43.3122,"lon":5.36863,"is_reserved":false,"is_disabled":false,"rental_uris":{"android":"levelo://app?vid=233f2af9-8d22-46aa-ac63-d90c6a96b00f","ios":"levelo://app?vid=233f2af9-8d22-46aa-ac63-d90c6a96b00f"},"vehicle_type_id":"4","last_reported":1732364233,"current_range_meters":24800,"station_id":"ce4bgl92rcd13ifvqbq0","pricing_plan_id":"cebpf4jnsgd1na2vs0mg"},{"bike_id":"cdf81f63-ed03-45cf-b008-0b926db79b7d","system_id":"levelo_inurba_marseille","lat":43.30556,"lon":5.38436,"is_reserved":false,"is_disabled":false,"rental_uris":{"android":"levelo://app?vid=cdf81f63-ed03-45cf-b008-0b926db79b7d","ios":"levelo://app?vid=cdf81f63-ed03-45cf-b008-0b926db79b7d"},"vehicle_type_id":"4","last_reported":1732364233,"current_range_meters":37600,"station_id":"ce4bgg92rcd13ifvqb30","pricing_plan_id":"cebpf4jnsgd1na2vs0mg"},{"bike_id":"e8edee95-2eb9-4fab-ba17-f0b58c3a4dcb","system_id":"levelo_inurba_marseille","lat":43.30173,"lon":5.36617,"is_reserved":false,"is_disabled":false,"rental_uris":{"android":"levelo://app?vid=e8edee95-2eb9-4fab-ba17-f0b58c3a4dcb","ios":"levelo://app?vid=e8edee95-2eb9-4fab-ba17-f0b58c3a4dcb"},"vehicle_type_id":"4","last_reported":1732364233,"current_range_meters":22000,"station_id":"ce4bgrh2rcd13ifvqc8g","pricing_plan_id":"cebpf4jnsgd1na2vs0mg"},{"bike_id":"f099390a-c100-4560-9274-ff7be92824ac","system_id":"levelo_inurba_marseille","lat":43.30278,"lon":5.37719,"is_reserved":false,"is_disabled":false,"rental_uris":{"android":"levelo://app?vid=f099390a-c100-4560-9274-ff7be92824ac","ios":"levelo://app?vid=f099390a-c100-4560-9274-ff7be92824ac"},"vehicle_type_id":"4","last_reported":1732364233,"current_range_meters":38400,"station_id":"ce4bguh2rcd13ifvqcj0","pricing_plan_id":"cebpf4jnsgd1na2vs0mg"},{"bike_id":"dd4544df-eb9d-4c40-8b48-01c6ba03ca19","system_id":"levelo_inurba_marseille","lat":43.319954,"lon":5.381396,"is_reserved":false,"is_disabled":false,"rental_uris":{"android":"levelo://app?vid=dd4544df-eb9d-4c40-8b48-01c6ba03ca19","ios":"levelo://app?vid=dd4544df-eb9d-4c40-8b48-01c6ba03ca19"},"vehicle_type_id":"4","last_reported":1732364233,"current_range_meters":40000,"station_id":"ce4bhr12rcd13ifvqhpg","pricing_plan_id":"cebpf4jnsgd1na2vs0mg"},{"bike_id":"9983be39-04f8-4bce-aba6-9ee8aa05b71d","system_id":"levelo_inurba_marseille","lat":43.29575,"lon":5.36737,"is_reserved":false,"is_disabled":false,"rental_uris":{"android":"levelo://app?vid=9983be39-04f8-4bce-aba6-9ee8aa05b71d","ios":"levelo://app?vid=9983be39-04f8-4bce-aba6-9ee8aa05b71d"},"vehicle_type_id":"4","last_reported":1732364233,"current_range_meters":36800,"station_id":"ce4bgph2rcd13ifvqc2g","pricing_plan_id":"cebpf4jnsgd1na2vs0mg"},{"bike_id":"7b3c1754-0f5c-4003-abbb-41136549a06e","system_id":"levelo_inurba_marseille","lat":43.29547,"lon":5.4228,"is_reserved":false,"is_disabled":false,"rental_uris":{"android":"levelo://app?vid=7b3c1754-0f5c-4003-abbb-41136549a06e","ios":"levelo://app?vid=7b3c1754-0f5c-4003-abbb-41136549a06e"},"vehicle_type_id":"4","last_reported":1732364233,"current_range_meters":39200,"station_id":"ce4bhph2rcd13ifvqhdg","pricing_plan_id":"cebpf4jnsgd1na2vs0mg"},{"bike_id":"dffeccd3-600e-418b-9fc1-99c6dfe6c759","system_id":"levelo_inurba_marseille","lat":43.3013,"lon":5.37408,"is_reserved":false,"is_disabled":false,"rental_uris":{"android":"levelo://app?vid=dffeccd3-600e-418b-9fc1-99c6dfe6c759","ios":"levelo://app?vid=dffeccd3-600e-418b-9fc1-99c6dfe6c759"},"vehicle_type_id":"4","last_reported":1732364233,"current_range_meters":22800,"station_id":"ce4bgs92rcd13ifvqcc0","pricing_plan_id":"cebpf4jnsgd1na2vs0mg"},{"bike_id":"d99d745a-edcb-4d3d-bf9d-7fa79bc2aaf5","system_id":"levelo_inurba_marseille","lat":43.31992,"lon":5.3815,"is_reserved":false,"is_disabled":false,"rental_uris":{"android":"levelo://app?vid=d99d745a-edcb-4d3d-bf9d-7fa79bc2aaf5","ios":"levelo://app?vid=d99d745a-edcb-4d3d-bf9d-7fa79bc2aaf5"},"vehicle_type_id":"4","last_reported":1732364233,"current_range_meters":11600,"station_id":"ce4bhr12rcd13ifvqhpg","pricing_plan_id":"cebpf4jnsgd1na2vs0mg"},{"bike_id":"24288070-8fe7-427a-b150-6870d73156fc","system_id":"levelo_inurba_marseille","lat":43.2316,"lon":5.35586,"is_reserved":false,"is_disabled":false,"rental_uris":{"android":"levelo://app?vid=24288070-8fe7-427a-b150-6870d73156fc","ios":"levelo://app?vid=24288070-8fe7-427a-b150-6870d73156fc"},"vehicle_type_id":"4","last_reported":1732364233,"current_range_meters":17600,"station_id":"ce4bhu92rcd13ifvqi70","pricing_plan_id":"cebpf4jnsgd1na2vs0mg"},{"bike_id":"974e50f0-7da0-4258-90b1-800782f1b9bd","system_id":"levelo_inurba_marseille","lat":43.29266,"lon":5.40115,"is_reserved":false,"is_disabled":false,"rental_uris":{"android":"levelo://app?vid=974e50f0-7da0-4258-90b1-800782f1b9bd","ios":"levelo://app?vid=974e50f0-7da0-4258-90b1-800782f1b9bd"},"vehicle_type_id":"4","last_reported":1732364233,"current_range_meters":36800,"station_id":"ce4bh312rcd13ifvqdk0","pricing_plan_id":"cebpf4jnsgd1na2vs0mg"},{"bike_id":"c537129f-faf2-4b9b-9a05-ad54e8d11d9c","system_id":"levelo_inurba_marseille","lat":43.29564,"lon":5.37525,"is_reserved":false,"is_disabled":false,"rental_uris":{"android":"levelo://app?vid=c537129f-faf2-4b9b-9a05-ad54e8d11d9c","ios":"levelo://app?vid=c537129f-faf2-4b9b-9a05-ad54e8d11d9c"},"vehicle_type_id":"4","last_reported":1732364233,"current_range_meters":25600,"station_id":"ce4bgh92rcd13ifvqb50","pricing_plan_id":"cebpf4jnsgd1na2vs0mg"},{"bike_id":"552ae1f9-34eb-4d70-a19b-3616d3661778","system_id":"levelo_inurba_marseille","lat":43.33715,"lon":5.39178,"is_reserved":false,"is_disabled":false,"rental_uris":{"android":"levelo://app?vid=552ae1f9-34eb-4d70-a19b-3616d3661778","ios":"levelo://app?vid=552ae1f9-34eb-4d70-a19b-3616d3661778"},"vehicle_type_id":"4","last_reported":1732364233,"current_range_meters":21600,"station_id":"ce4bhr92rcd13ifvqhsg","pricing_plan_id":"cebpf4jnsgd1na2vs0mg"},{"bike_id":"f7f3756c-1ec7-4782-9c87-6273f87b6774","system_id":"levelo_inurba_marseille","lat":43.337444,"lon":5.374475,"is_reserved":false,"is_disabled":true,"rental_uris":{"android":"levelo://app?vid=f7f3756c-1ec7-4782-9c87-6273f87b6774","ios":"levelo://app?vid=f7f3756c-1ec7-4782-9c87-6273f87b6774"},"vehicle_type_id":"4","last_reported":1732364233,"current_range_meters":33200,"station_id":"","pricing_plan_id":"cebpf4jnsgd1na2vs0mg"},{"bike_id":"740f162e-a0c7-4af9-899d-283ea1409dc6","system_id":"levelo_inurba_marseille","lat":43.26927,"lon":5.3891,"is_reserved":false,"is_disabled":true,"rental_uris":{"android":"levelo://app?vid=740f162e-a0c7-4af9-899d-283ea1409dc6","ios":"levelo://app?vid=740f162e-a0c7-4af9-899d-283ea1409dc6"},"vehicle_type_id":"4","last_reported":1732364233,"current_range_meters":36800,"station_id":"ce4bhhh2rcd13ifvqfl0","pricing_plan_id":"cebpf4jnsgd1na2vs0mg"},{"bike_id":"e8f826ec-cf1d-427e-a65b-cf83f280be00","system_id":"levelo_inurba_marseille","lat":43.27055,"lon":5.40263,"is_reserved":false,"is_disabled":true,"rental_uris":{"android":"levelo://app?vid=e8f826ec-cf1d-427e-a65b-cf83f280be00","ios":"levelo://app?vid=e8f826ec-cf1d-427e-a65b-cf83f280be00"},"vehicle_type_id":"4","last_reported":1732364233,"current_range_meters":800,"station_id":"ce4bhk92rcd13ifvqgc0","pricing_plan_id":"cebpf4jnsgd1na2vs0mg"},{"bike_id":"99280cf8-c049-4d28-b9ac-acaa05e32f0f","system_id":"levelo_inurba_marseille","lat":43.29549,"lon":5.42282,"is_reserved":false,"is_disabled":false,"rental_uris":{"android":"levelo://app?vid=99280cf8-c049-4d28-b9ac-acaa05e32f0f","ios":"levelo://app?vid=99280cf8-c049-4d28-b9ac-acaa05e32f0f"},"vehicle_type_id":"4","last_reported":1732364233,"current_range_meters":38800,"station_id":"ce4bhph2rcd13ifvqhdg","pricing_plan_id":"cebpf4jnsgd1na2vs0mg"},{"bike_id":"7321aabf-b088-45e0-9d91-8e497e6d692a","system_id":"levelo_inurba_marseille","lat":43.3176,"lon":5.39009,"is_reserved":false,"is_disabled":false,"rental_uris":{"android":"levelo://app?vid=7321aabf-b088-45e0-9d91-8e497e6d692a","ios":"levelo://app?vid=7321aabf-b088-45e0-9d91-8e497e6d692a"},"vehicle_type_id":"4","last_reported":1732364233,"current_range_meters":26000,"station_id":"ce4bhqp2rcd13ifvqhng","pricing_plan_id":"cebpf4jnsgd1na2vs0mg"},{"bike_id":"e7f48f28-6d51-4a45-b5a7-1fbbaa7fd4e2","system_id":"levelo_inurba_marseille","lat":43.2962,"lon":5.37156,"is_reserved":false,"is_disabled":false,"rental_uris":{"android":"levelo://app?vid=e7f48f28-6d51-4a45-b5a7-1fbbaa7fd4e2","ios":"levelo://app?vid=e7f48f28-6d51-4a45-b5a7-1fbbaa7fd4e2"},"vehicle_type_id":"4","last_reported":1732364233,"current_range_meters":38800,"station_id":"ce4bgnh2rcd13ifvqc0g","pricing_plan_id":"cebpf4jnsgd1na2vs0mg"},{"bike_id":"e74125a9-74c4-4830-af92-47ce6562e6bd","system_id":"levelo_inurba_marseille","lat":43.24649,"lon":5.38903,"is_reserved":false,"is_disabled":false,"rental_uris":{"android":"levelo://app?vid=e74125a9-74c4-4830-af92-47ce6562e6bd","ios":"levelo://app?vid=e74125a9-74c4-4830-af92-47ce6562e6bd"},"vehicle_type_id":"4","last_reported":1732364233,"current_range_meters":39200,"station_id":"ce4bhg12rcd13ifvqf60","pricing_plan_id":"cebpf4jnsgd1na2vs0mg"},{"bike_id":"004b1cb8-188f-4e0a-83af-382dd195ad54","system_id":"levelo_inurba_marseille","lat":43.2319,"lon":5.35543,"is_reserved":false,"is_disabled":false,"rental_uris":{"android":"levelo://app?vid=004b1cb8-188f-4e0a-83af-382dd195ad54","ios":"levelo://app?vid=004b1cb8-188f-4e0a-83af-382dd195ad54"},"vehicle_type_id":"4","last_reported":1732364233,"current_range_meters":30000,"station_id":"ce4bhu92rcd13ifvqi70","pricing_plan_id":"cebpf4jnsgd1na2vs0mg"},{"bike_id":"8b4c21d6-a285-4121-a2fe-9e556ef8817d","system_id":"levelo_inurba_marseille","lat":43.23058,"lon":5.3549,"is_reserved":false,"is_disabled":false,"rental_uris":{"android":"levelo://app?vid=8b4c21d6-a285-4121-a2fe-9e556ef8817d","ios":"levelo://app?vid=8b4c21d6-a285-4121-a2fe-9e556ef8817d"},"vehicle_type_id":"4","last_reported":1732364233,"current_range_meters":20400,"station_id":"cpo3342slgdg3j2ifvpg","pricing_plan_id":"cebpf4jnsgd1na2vs0mg"},{"bike_id":"c2a59ab3-d6b8-4918-82c9-bfcce921601e","system_id":"levelo_inurba_marseille","lat":43.32478,"lon":5.36575,"is_reserved":false,"is_disabled":false,"rental_uris":{"android":"levelo://app?vid=c2a59ab3-d6b8-4918-82c9-bfcce921601e","ios":"levelo://app?vid=c2a59ab3-d6b8-4918-82c9-bfcce921601e"},"vehicle_type_id":"4","last_reported":1732364233,"current_range_meters":11600,"station_id":"ce4bhs12rcd13ifvqhvg","pricing_plan_id":"cebpf4jnsgd1na2vs0mg"},{"bike_id":"c4813390-7cb1-4cbe-a0ed-dfe351f3fbd2","system_id":"levelo_inurba_marseille","lat":43.29555,"lon":5.37525,"is_reserved":false,"is_disabled":false,"rental_uris":{"android":"levelo://app?vid=c4813390-7cb1-4cbe-a0ed-dfe351f3fbd2","ios":"levelo://app?vid=c4813390-7cb1-4cbe-a0ed-dfe351f3fbd2"},"vehicle_type_id":"4","last_reported":1732364233,"current_range_meters":30800,"station_id":"ce4bgh92rcd13ifvqb50","pricing_plan_id":"cebpf4jnsgd1na2vs0mg"},{"bike_id":"58c180dc-c06a-46fe-9701-0fd5163c8626","system_id":"levelo_inurba_marseille","lat":43.29572,"lon":5.42304,"is_reserved":false,"is_disabled":false,"rental_uris":{"android":"levelo://app?vid=58c180dc-c06a-46fe-9701-0fd5163c8626","ios":"levelo://app?vid=58c180dc-c06a-46fe-9701-0fd5163c8626"},"vehicle_type_id":"4","last_reported":1732364233,"current_range_meters":36800,"station_id":"ce4bhph2rcd13ifvqhdg","pricing_plan_id":"cebpf4jnsgd1na2vs0mg"},{"bike_id":"7266c9af-0c2d-41a2-b9ae-cf0265185656","system_id":"levelo_inurba_marseille","lat":43.31981,"lon":5.38143,"is_reserved":false,"is_disabled":false,"rental_uris":{"android":"levelo://app?vid=7266c9af-0c2d-41a2-b9ae-cf0265185656","ios":"levelo://app?vid=7266c9af-0c2d-41a2-b9ae-cf0265185656"},"vehicle_type_id":"4","last_reported":1732364233,"current_range_meters":20000,"station_id":"ce4bhr12rcd13ifvqhpg","pricing_plan_id":"cebpf4jnsgd1na2vs0mg"},{"bike_id":"41a2b897-b7fa-43cb-93d2-17b62d1ee220","system_id":"levelo_inurba_marseille","lat":43.26204,"lon":5.37443,"is_reserved":false,"is_disabled":false,"rental_uris":{"android":"levelo://app?vid=41a2b897-b7fa-43cb-93d2-17b62d1ee220","ios":"levelo://app?vid=41a2b897-b7fa-43cb-93d2-17b62d1ee220"},"vehicle_type_id":"4","last_reported":1732364233,"current_range_meters":36800,"station_id":"ce4bhgp2rcd13ifvqfc0","pricing_plan_id":"cebpf4jnsgd1na2vs0mg"},{"bike_id":"e185598c-9a0d-4a00-8168-e919267bce12","system_id":"levelo_inurba_marseille","lat":43.25098,"lon":5.40329,"is_reserved":false,"is_disabled":false,"rental_uris":{"android":"levelo://app?vid=e185598c-9a0d-4a00-8168-e919267bce12","ios":"levelo://app?vid=e185598c-9a0d-4a00-8168-e919267bce12"},"vehicle_type_id":"4","last_reported":1732364233,"current_range_meters":18000,"station_id":"ce4bhlh2rcd13ifvqgig","pricing_plan_id":"cebpf4jnsgd1na2vs0mg"},{"bike_id":"4deb61da-883d-4063-aafd-8434d4e4d606","system_id":"levelo_inurba_marseille","lat":43.29865,"lon":5.38906,"is_reserved":false,"is_disabled":false,"rental_uris":{"android":"levelo://app?vid=4deb61da-883d-4063-aafd-8434d4e4d606","ios":"levelo://app?vid=4deb61da-883d-4063-aafd-8434d4e4d606"},"vehicle_type_id":"4","last_reported":1732364233,"current_range_meters":38000,"station_id":"ce4bh392rcd13ifvqdl0","pricing_plan_id":"cebpf4jnsgd1na2vs0mg"},{"bike_id":"20db0e6b-7fc1-4f13-aeb2-811ab390dd13","system_id":"levelo_inurba_marseille","lat":43.32479,"lon":5.36568,"is_reserved":false,"is_disabled":false,"rental_uris":{"android":"levelo://app?vid=20db0e6b-7fc1-4f13-aeb2-811ab390dd13","ios":"levelo://app?vid=20db0e6b-7fc1-4f13-aeb2-811ab390dd13"},"vehicle_type_id":"4","last_reported":1732364233,"current_range_meters":36400,"station_id":"ce4bhs12rcd13ifvqhvg","pricing_plan_id":"cebpf4jnsgd1na2vs0mg"},{"bike_id":"ad71b5a4-a43b-4d39-9967-ad66f6123b22","system_id":"levelo_inurba_marseille","lat":43.28425,"lon":5.34987,"is_reserved":false,"is_disabled":false,"rental_uris":{"android":"levelo://app?vid=ad71b5a4-a43b-4d39-9967-ad66f6123b22","ios":"levelo://app?vid=ad71b5a4-a43b-4d39-9967-ad66f6123b22"},"vehicle_type_id":"4","last_reported":1732364233,"current_range_meters":32800,"station_id":"ce4bhbh2rcd13ifvqepg","pricing_plan_id":"cebpf4jnsgd1na2vs0mg"},{"bike_id":"f493c902-b806-40bc-b0cc-b046fbb9d848","system_id":"levelo_inurba_marseille","lat":43.29801,"lon":5.38102,"is_reserved":false,"is_disabled":false,"rental_uris":{"android":"levelo://app?vid=f493c902-b806-40bc-b0cc-b046fbb9d848","ios":"levelo://app?vid=f493c902-b806-40bc-b0cc-b046fbb9d848"},"vehicle_type_id":"4","last_reported":1732364233,"current_range_meters":28400,"station_id":"ce4bgip2rcd13ifvqbb0","pricing_plan_id":"cebpf4jnsgd1na2vs0mg"},{"bike_id":"e5951ee3-4a5a-4ebb-b469-096c5188dfa3","system_id":"levelo_inurba_marseille","lat":43.23184,"lon":5.35554,"is_reserved":false,"is_disabled":false,"rental_uris":{"android":"levelo://app?vid=e5951ee3-4a5a-4ebb-b469-096c5188dfa3","ios":"levelo://app?vid=e5951ee3-4a5a-4ebb-b469-096c5188dfa3"},"vehicle_type_id":"4","last_reported":1732364233,"current_range_meters":24400,"station_id":"ce4bhu92rcd13ifvqi70","pricing_plan_id":"cebpf4jnsgd1na2vs0mg"},{"bike_id":"7f7a648a-b722-4755-a42f-0b246a38fdc1","system_id":"levelo_inurba_marseille","lat":43.27056,"lon":5.40261,"is_reserved":false,"is_disabled":false,"rental_uris":{"android":"levelo://app?vid=7f7a648a-b722-4755-a42f-0b246a38fdc1","ios":"levelo://app?vid=7f7a648a-b722-4755-a42f-0b246a38fdc1"},"vehicle_type_id":"4","last_reported":1732364233,"current_range_meters":19200,"station_id":"ce4bhk92rcd13ifvqgc0","pricing_plan_id":"cebpf4jnsgd1na2vs0mg"},{"bike_id":"7ba53167-2d73-48cc-ac7e-7b18d81d04a9","system_id":"levelo_inurba_marseille","lat":43.27167,"lon":5.40996,"is_reserved":false,"is_disabled":false,"rental_uris":{"android":"levelo://app?vid=7ba53167-2d73-48cc-ac7e-7b18d81d04a9","ios":"levelo://app?vid=7ba53167-2d73-48cc-ac7e-7b18d81d04a9"},"vehicle_type_id":"4","last_reported":1732364233,"current_range_meters":25600,"station_id":"ce4bhl12rcd13ifvqgf0","pricing_plan_id":"cebpf4jnsgd1na2vs0mg"},{"bike_id":"53aedfa4-4049-4759-bc95-757addd8c685","system_id":"levelo_inurba_marseille","lat":43.26548,"lon":5.37296,"is_reserved":false,"is_disabled":true,"rental_uris":{"android":"levelo://app?vid=53aedfa4-4049-4759-bc95-757addd8c685","ios":"levelo://app?vid=53aedfa4-4049-4759-bc95-757addd8c685"},"vehicle_type_id":"4","last_reported":1732364233,"current_range_meters":1200,"station_id":"ce4bhg12rcd13ifvqf70","pricing_plan_id":"cebpf4jnsgd1na2vs0mg"},{"bike_id":"0d4df7b4-f528-499b-ae2d-56faf46c117a","system_id":"levelo_inurba_marseille","lat":43.3122,"lon":5.36838,"is_reserved":false,"is_disabled":false,"rental_uris":{"android":"levelo://app?vid=0d4df7b4-f528-499b-ae2d-56faf46c117a","ios":"levelo://app?vid=0d4df7b4-f528-499b-ae2d-56faf46c117a"},"vehicle_type_id":"4","last_reported":1732364233,"current_range_meters":22400,"station_id":"ce4bgl92rcd13ifvqbq0","pricing_plan_id":"cebpf4jnsgd1na2vs0mg"},{"bike_id":"e89acc00-2b06-4720-9a63-22cf0d597a07","system_id":"levelo_inurba_marseille","lat":43.25007,"lon":5.38918,"is_reserved":false,"is_disabled":false,"rental_uris":{"android":"levelo://app?vid=e89acc00-2b06-4720-9a63-22cf0d597a07","ios":"levelo://app?vid=e89acc00-2b06-4720-9a63-22cf0d597a07"},"vehicle_type_id":"4","last_reported":1732364233,"current_range_meters":35200,"station_id":"ce4bhgp2rcd13ifvqfd0","pricing_plan_id":"cebpf4jnsgd1na2vs0mg"},{"bike_id":"830ab6f1-9f97-4b81-a374-96032fba99d2","system_id":"levelo_inurba_marseille","lat":43.24465,"lon":5.36938,"is_reserved":false,"is_disabled":true,"rental_uris":{"android":"levelo://app?vid=830ab6f1-9f97-4b81-a374-96032fba99d2","ios":"levelo://app?vid=830ab6f1-9f97-4b81-a374-96032fba99d2"},"vehicle_type_id":"4","last_reported":1732364233,"current_range_meters":22800,"station_id":"","pricing_plan_id":"cebpf4jnsgd1na2vs0mg"},{"bike_id":"6c948e9c-d5b3-4fe5-a918-1bd2f7c83b02","system_id":"levelo_inurba_marseille","lat":43.32106,"lon":5.36778,"is_reserved":false,"is_disabled":false,"rental_uris":{"android":"levelo://app?vid=6c948e9c-d5b3-4fe5-a918-1bd2f7c83b02","ios":"levelo://app?vid=6c948e9c-d5b3-4fe5-a918-1bd2f7c83b02"},"vehicle_type_id":"4","last_reported":1732364233,"current_range_meters":33600,"station_id":"ce4bhrh2rcd13ifvqhug","pricing_plan_id":"cebpf4jnsgd1na2vs0mg"},{"bike_id":"9e620abf-d324-4f99-84fc-d67e71109f2a","system_id":"levelo_inurba_marseille","lat":43.31077,"lon":5.42434,"is_reserved":false,"is_disabled":true,"rental_uris":{"android":"levelo://app?vid=9e620abf-d324-4f99-84fc-d67e71109f2a","ios":"levelo://app?vid=9e620abf-d324-4f99-84fc-d67e71109f2a"},"vehicle_type_id":"4","last_reported":1732364233,"current_range_meters":0,"station_id":"ce4bhp92rcd13ifvqhag","pricing_plan_id":"cebpf4jnsgd1na2vs0mg"},{"bike_id":"9388a7ff-9c5c-4c26-9899-39b2408cf7e3","system_id":"levelo_inurba_marseille","lat":43.31025,"lon":5.38342,"is_reserved":false,"is_disabled":true,"rental_uris":{"android":"levelo://app?vid=9388a7ff-9c5c-4c26-9899-39b2408cf7e3","ios":"levelo://app?vid=9388a7ff-9c5c-4c26-9899-39b2408cf7e3"},"vehicle_type_id":"4","last_reported":1732364233,"current_range_meters":0,"station_id":"","pricing_plan_id":"cebpf4jnsgd1na2vs0mg"},{"bike_id":"f31f2d7c-a631-47dd-850e-5d0b7089aaba","system_id":"levelo_inurba_marseille","lat":43.24662,"lon":5.3816,"is_reserved":false,"is_disabled":false,"rental_uris":{"android":"levelo://app?vid=f31f2d7c-a631-47dd-850e-5d0b7089aaba","ios":"levelo://app?vid=f31f2d7c-a631-47dd-850e-5d0b7089aaba"},"vehicle_type_id":"4","last_reported":1732364233,"current_range_meters":17200,"station_id":"ce4bhih2rcd13ifvqfr0","pricing_plan_id":"cebpf4jnsgd1na2vs0mg"},{"bike_id":"b655e67f-3daa-4d19-94e5-9c754246564d","system_id":"levelo_inurba_marseille","lat":43.32365,"lon":5.3888,"is_reserved":false,"is_disabled":false,"rental_uris":{"android":"levelo://app?vid=b655e67f-3daa-4d19-94e5-9c754246564d","ios":"levelo://app?vid=b655e67f-3daa-4d19-94e5-9c754246564d"},"vehicle_type_id":"4","last_reported":1732364233,"current_range_meters":14400,"station_id":"ce4bhqp2rcd13ifvqhog","pricing_plan_id":"cebpf4jnsgd1na2vs0mg"},{"bike_id":"cdc03e87-01f0-4203-8ad6-e9ac25043b78","system_id":"levelo_inurba_marseille","lat":43.27812,"lon":5.40717,"is_reserved":false,"is_disabled":false,"rental_uris":{"android":"levelo://app?vid=cdc03e87-01f0-4203-8ad6-e9ac25043b78","ios":"levelo://app?vid=cdc03e87-01f0-4203-8ad6-e9ac25043b78"},"vehicle_type_id":"4","last_reported":1732364233,"current_range_meters":24800,"station_id":"ce4bhnh2rcd13ifvqgtg","pricing_plan_id":"cebpf4jnsgd1na2vs0mg"},{"bike_id":"5c53cfbd-2547-413a-b79a-f8cc3b1ca992","system_id":"levelo_inurba_marseille","lat":43.321124,"lon":5.367694,"is_reserved":false,"is_disabled":false,"rental_uris":{"android":"levelo://app?vid=5c53cfbd-2547-413a-b79a-f8cc3b1ca992","ios":"levelo://app?vid=5c53cfbd-2547-413a-b79a-f8cc3b1ca992"},"vehicle_type_id":"4","last_reported":1732364233,"current_range_meters":10800,"station_id":"ce4bhrh2rcd13ifvqhug","pricing_plan_id":"cebpf4jnsgd1na2vs0mg"},{"bike_id":"9efd8c15-c1c0-4821-a907-77be611467c4","system_id":"levelo_inurba_marseille","lat":43.23192,"lon":5.35547,"is_reserved":false,"is_disabled":false,"rental_uris":{"android":"levelo://app?vid=9efd8c15-c1c0-4821-a907-77be611467c4","ios":"levelo://app?vid=9efd8c15-c1c0-4821-a907-77be611467c4"},"vehicle_type_id":"4","last_reported":1732364233,"current_range_meters":18800,"station_id":"ce4bhu92rcd13ifvqi70","pricing_plan_id":"cebpf4jnsgd1na2vs0mg"},{"bike_id":"ad1f2800-81bc-487f-82bd-6a2aac897bd9","system_id":"levelo_inurba_marseille","lat":43.28377,"lon":5.38633,"is_reserved":false,"is_disabled":false,"rental_uris":{"android":"levelo://app?vid=ad1f2800-81bc-487f-82bd-6a2aac897bd9","ios":"levelo://app?vid=ad1f2800-81bc-487f-82bd-6a2aac897bd9"},"vehicle_type_id":"4","last_reported":1732364233,"current_range_meters":15200,"station_id":"ce4bh492rcd13ifvqdvg","pricing_plan_id":"cebpf4jnsgd1na2vs0mg"},{"bike_id":"85c01c0b-dd5c-4809-bf61-68287b12d903","system_id":"levelo_inurba_marseille","lat":43.32371,"lon":5.38885,"is_reserved":false,"is_disabled":false,"rental_uris":{"android":"levelo://app?vid=85c01c0b-dd5c-4809-bf61-68287b12d903","ios":"levelo://app?vid=85c01c0b-dd5c-4809-bf61-68287b12d903"},"vehicle_type_id":"4","last_reported":1732364233,"current_range_meters":31200,"station_id":"ce4bhqp2rcd13ifvqhog","pricing_plan_id":"cebpf4jnsgd1na2vs0mg"},{"bike_id":"11c71bd9-c0bf-4cf1-82af-f0f558006db9","system_id":"levelo_inurba_marseille","lat":43.29917,"lon":5.37468,"is_reserved":false,"is_disabled":false,"rental_uris":{"android":"levelo://app?vid=11c71bd9-c0bf-4cf1-82af-f0f558006db9","ios":"levelo://app?vid=11c71bd9-c0bf-4cf1-82af-f0f558006db9"},"vehicle_type_id":"4","last_reported":1732364233,"current_range_meters":27600,"station_id":"ce4bgjh2rcd13ifvqbg0","pricing_plan_id":"cebpf4jnsgd1na2vs0mg"},{"bike_id":"5edfe11f-0cc8-4abf-a7b8-0f8431382123","system_id":"levelo_inurba_marseille","lat":43.29086,"lon":5.37194,"is_reserved":false,"is_disabled":false,"rental_uris":{"android":"levelo://app?vid=5edfe11f-0cc8-4abf-a7b8-0f8431382123","ios":"levelo://app?vid=5edfe11f-0cc8-4abf-a7b8-0f8431382123"},"vehicle_type_id":"4","last_reported":1732364233,"current_range_meters":38000,"station_id":"ce4bh5p2rcd13ifvqe4g","pricing_plan_id":"cebpf4jnsgd1na2vs0mg"},{"bike_id":"5739a3b5-f327-4b24-8d9c-0078f71aa84a","system_id":"levelo_inurba_marseille","lat":43.25577,"lon":5.38234,"is_reserved":false,"is_disabled":false,"rental_uris":{"android":"levelo://app?vid=5739a3b5-f327-4b24-8d9c-0078f71aa84a","ios":"levelo://app?vid=5739a3b5-f327-4b24-8d9c-0078f71aa84a"},"vehicle_type_id":"4","last_reported":1732364233,"current_range_meters":32400,"station_id":"ce4bhih2rcd13ifvqfs0","pricing_plan_id":"cebpf4jnsgd1na2vs0mg"},{"bike_id":"29123593-0c86-4724-96a3-4d8d5d68d582","system_id":"levelo_inurba_marseille","lat":43.3094,"lon":5.3904,"is_reserved":false,"is_disabled":false,"rental_uris":{"android":"levelo://app?vid=29123593-0c86-4724-96a3-4d8d5d68d582","ios":"levelo://app?vid=29123593-0c86-4724-96a3-4d8d5d68d582"},"vehicle_type_id":"4","last_reported":1732364233,"current_range_meters":30800,"station_id":"ce4bgup2rcd13ifvqco0","pricing_plan_id":"cebpf4jnsgd1na2vs0mg"},{"bike_id":"56ca6b93-ca3d-4dfc-8e20-e35c24d8bd07","system_id":"levelo_inurba_marseille","lat":43.337444,"lon":5.374475,"is_reserved":false,"is_disabled":true,"rental_uris":{"android":"levelo://app?vid=56ca6b93-ca3d-4dfc-8e20-e35c24d8bd07","ios":"levelo://app?vid=56ca6b93-ca3d-4dfc-8e20-e35c24d8bd07"},"vehicle_type_id":"4","last_reported":1732364233,"current_range_meters":1200,"station_id":"","pricing_plan_id":"cebpf4jnsgd1na2vs0mg"},{"bike_id":"8b913213-c82c-4e11-967e-7d3c72942d7d","system_id":"levelo_inurba_marseille","lat":43.27987,"lon":5.40014,"is_reserved":false,"is_disabled":false,"rental_uris":{"android":"levelo://app?vid=8b913213-c82c-4e11-967e-7d3c72942d7d","ios":"levelo://app?vid=8b913213-c82c-4e11-967e-7d3c72942d7d"},"vehicle_type_id":"4","last_reported":1732364233,"current_range_meters":32400,"station_id":"ce4bho92rcd13ifvqh4g","pricing_plan_id":"cebpf4jnsgd1na2vs0mg"},{"bike_id":"9efab7bb-b9af-4dfb-bd79-748c30966d28","system_id":"levelo_inurba_marseille","lat":43.31761,"lon":5.39014,"is_reserved":false,"is_disabled":false,"rental_uris":{"android":"levelo://app?vid=9efab7bb-b9af-4dfb-bd79-748c30966d28","ios":"levelo://app?vid=9efab7bb-b9af-4dfb-bd79-748c30966d28"},"vehicle_type_id":"4","last_reported":1732364233,"current_range_meters":39200,"station_id":"ce4bhqp2rcd13ifvqhng","pricing_plan_id":"cebpf4jnsgd1na2vs0mg"},{"bike_id":"ff4012b7-88b7-4a95-aa70-8cc3753e8abc","system_id":"levelo_inurba_marseille","lat":43.27979,"lon":5.41661,"is_reserved":false,"is_disabled":false,"rental_uris":{"android":"levelo://app?vid=ff4012b7-88b7-4a95-aa70-8cc3753e8abc","ios":"levelo://app?vid=ff4012b7-88b7-4a95-aa70-8cc3753e8abc"},"vehicle_type_id":"4","last_reported":1732364233,"current_range_meters":3600,"station_id":"ce4bho12rcd13ifvqh1g","pricing_plan_id":"cebpf4jnsgd1na2vs0mg"},{"bike_id":"32b8fad8-34aa-4e29-a53b-f9f57551f04d","system_id":"levelo_inurba_marseille","lat":43.28091,"lon":5.39283,"is_reserved":false,"is_disabled":false,"rental_uris":{"android":"levelo://app?vid=32b8fad8-34aa-4e29-a53b-f9f57551f04d","ios":"levelo://app?vid=32b8fad8-34aa-4e29-a53b-f9f57551f04d"},"vehicle_type_id":"4","last_reported":1732364233,"current_range_meters":9600,"station_id":"ce4bh2p2rcd13ifvqdi0","pricing_plan_id":"cebpf4jnsgd1na2vs0mg"},{"bike_id":"0c0284d3-2160-4ed3-9743-ad06a5b34516","system_id":"levelo_inurba_marseille","lat":43.30454,"lon":5.37902,"is_reserved":false,"is_disabled":true,"rental_uris":{"android":"levelo://app?vid=0c0284d3-2160-4ed3-9743-ad06a5b34516","ios":"levelo://app?vid=0c0284d3-2160-4ed3-9743-ad06a5b34516"},"vehicle_type_id":"4","last_reported":1732364233,"current_range_meters":1200,"station_id":"ce4bgup2rcd13ifvqcn0","pricing_plan_id":"cebpf4jnsgd1na2vs0mg"},{"bike_id":"be89899d-cd2a-4b81-bebf-e01048f56b99","system_id":"levelo_inurba_marseille","lat":43.3095,"lon":5.39038,"is_reserved":false,"is_disabled":false,"rental_uris":{"android":"levelo://app?vid=be89899d-cd2a-4b81-bebf-e01048f56b99","ios":"levelo://app?vid=be89899d-cd2a-4b81-bebf-e01048f56b99"},"vehicle_type_id":"4","last_reported":1732364233,"current_range_meters":20400,"station_id":"ce4bgup2rcd13ifvqco0","pricing_plan_id":"cebpf4jnsgd1na2vs0mg"},{"bike_id":"e9fc18e1-4686-452d-b29b-bde3e9705fd0","system_id":"levelo_inurba_marseille","lat":43.24071,"lon":5.37758,"is_reserved":false,"is_disabled":false,"rental_uris":{"android":"levelo://app?vid=e9fc18e1-4686-452d-b29b-bde3e9705fd0","ios":"levelo://app?vid=e9fc18e1-4686-452d-b29b-bde3e9705fd0"},"vehicle_type_id":"4","last_reported":1732364233,"current_range_meters":10800,"station_id":"ce4bhnp2rcd13ifvqgvg","pricing_plan_id":"cebpf4jnsgd1na2vs0mg"},{"bike_id":"5dd0614d-8509-4a17-9246-efc4f3a3f829","system_id":"levelo_inurba_marseille","lat":43.30146,"lon":5.38079,"is_reserved":false,"is_disabled":false,"rental_uris":{"android":"levelo://app?vid=5dd0614d-8509-4a17-9246-efc4f3a3f829","ios":"levelo://app?vid=5dd0614d-8509-4a17-9246-efc4f3a3f829"},"vehicle_type_id":"4","last_reported":1732364233,"current_range_meters":33200,"station_id":"ce4bgjp2rcd13ifvqbh0","pricing_plan_id":"cebpf4jnsgd1na2vs0mg"},{"bike_id":"8ed38d32-aafb-4457-8ef7-cbf9ca4d7abc","system_id":"levelo_inurba_marseille","lat":43.27617,"lon":5.36109,"is_reserved":false,"is_disabled":false,"rental_uris":{"android":"levelo://app?vid=8ed38d32-aafb-4457-8ef7-cbf9ca4d7abc","ios":"levelo://app?vid=8ed38d32-aafb-4457-8ef7-cbf9ca4d7abc"},"vehicle_type_id":"4","last_reported":1732364233,"current_range_meters":35600,"station_id":"ce4bgj92rcd13ifvqbe0","pricing_plan_id":"cebpf4jnsgd1na2vs0mg"},{"bike_id":"89429ed2-f839-4749-bcb9-3e5230fe3bfb","system_id":"levelo_inurba_marseille","lat":43.33715,"lon":5.39174,"is_reserved":false,"is_disabled":false,"rental_uris":{"android":"levelo://app?vid=89429ed2-f839-4749-bcb9-3e5230fe3bfb","ios":"levelo://app?vid=89429ed2-f839-4749-bcb9-3e5230fe3bfb"},"vehicle_type_id":"4","last_reported":1732364233,"current_range_meters":33600,"station_id":"ce4bhr92rcd13ifvqhsg","pricing_plan_id":"cebpf4jnsgd1na2vs0mg"},{"bike_id":"9484666f-7d4b-4dae-9bda-a0aea41ab787","system_id":"levelo_inurba_marseille","lat":43.29224,"lon":5.3607,"is_reserved":false,"is_disabled":false,"rental_uris":{"android":"levelo://app?vid=9484666f-7d4b-4dae-9bda-a0aea41ab787","ios":"levelo://app?vid=9484666f-7d4b-4dae-9bda-a0aea41ab787"},"vehicle_type_id":"4","last_reported":1732364233,"current_range_meters":22800,"station_id":"ce4bhbh2rcd13ifvqeqg","pricing_plan_id":"cebpf4jnsgd1na2vs0mg"},{"bike_id":"2c0d1600-f9f9-4a5c-8a8d-87863e3564ba","system_id":"levelo_inurba_marseille","lat":43.28568,"lon":5.39498,"is_reserved":false,"is_disabled":false,"rental_uris":{"android":"levelo://app?vid=2c0d1600-f9f9-4a5c-8a8d-87863e3564ba","ios":"levelo://app?vid=2c0d1600-f9f9-4a5c-8a8d-87863e3564ba"},"vehicle_type_id":"4","last_reported":1732364233,"current_range_meters":32000,"station_id":"ce4bh292rcd13ifvqdg0","pricing_plan_id":"cebpf4jnsgd1na2vs0mg"},{"bike_id":"f69c285f-5a57-461d-aa0c-c84a132a3d57","system_id":"levelo_inurba_marseille","lat":43.2572,"lon":5.41119,"is_reserved":false,"is_disabled":false,"rental_uris":{"android":"levelo://app?vid=f69c285f-5a57-461d-aa0c-c84a132a3d57","ios":"levelo://app?vid=f69c285f-5a57-461d-aa0c-c84a132a3d57"},"vehicle_type_id":"4","last_reported":1732364233,"current_range_meters":7200,"station_id":"ce4bhkp2rcd13ifvqgd0","pricing_plan_id":"cebpf4jnsgd1na2vs0mg"},{"bike_id":"11dc5a4b-e325-4438-9541-d2add67a0a3b","system_id":"levelo_inurba_marseille","lat":43.26553,"lon":5.37282,"is_reserved":false,"is_disabled":false,"rental_uris":{"android":"levelo://app?vid=11dc5a4b-e325-4438-9541-d2add67a0a3b","ios":"levelo://app?vid=11dc5a4b-e325-4438-9541-d2add67a0a3b"},"vehicle_type_id":"4","last_reported":1732364233,"current_range_meters":29600,"station_id":"ce4bhg12rcd13ifvqf70","pricing_plan_id":"cebpf4jnsgd1na2vs0mg"},{"bike_id":"739de72f-68fd-471d-9283-29e2719dbbe9","system_id":"levelo_inurba_marseille","lat":43.29004,"lon":5.35623,"is_reserved":false,"is_disabled":false,"rental_uris":{"android":"levelo://app?vid=739de72f-68fd-471d-9283-29e2719dbbe9","ios":"levelo://app?vid=739de72f-68fd-471d-9283-29e2719dbbe9"},"vehicle_type_id":"4","last_reported":1732364233,"current_range_meters":25600,"station_id":"ce4bhb92rcd13ifvqen0","pricing_plan_id":"cebpf4jnsgd1na2vs0mg"},{"bike_id":"718b3104-e91a-4bc1-8262-8fdfe5629b76","system_id":"levelo_inurba_marseille","lat":43.31763,"lon":5.39006,"is_reserved":false,"is_disabled":false,"rental_uris":{"android":"levelo://app?vid=718b3104-e91a-4bc1-8262-8fdfe5629b76","ios":"levelo://app?vid=718b3104-e91a-4bc1-8262-8fdfe5629b76"},"vehicle_type_id":"4","last_reported":1732364233,"current_range_meters":6000,"station_id":"ce4bhqp2rcd13ifvqhng","pricing_plan_id":"cebpf4jnsgd1na2vs0mg"},{"bike_id":"fe8527a8-280b-41b6-9334-55b226bd660d","system_id":"levelo_inurba_marseille","lat":43.28836,"lon":5.39307,"is_reserved":false,"is_disabled":false,"rental_uris":{"android":"levelo://app?vid=fe8527a8-280b-41b6-9334-55b226bd660d","ios":"levelo://app?vid=fe8527a8-280b-41b6-9334-55b226bd660d"},"vehicle_type_id":"4","last_reported":1732364233,"current_range_meters":28400,"station_id":"ce4bh2p2rcd13ifvqdi0","pricing_plan_id":"cebpf4jnsgd1na2vs0mg"},{"bike_id":"7770b1cc-2a54-4d08-8255-6bed2fc397aa","system_id":"levelo_inurba_marseille","lat":43.231913,"lon":5.35545,"is_reserved":false,"is_disabled":false,"rental_uris":{"android":"levelo://app?vid=7770b1cc-2a54-4d08-8255-6bed2fc397aa","ios":"levelo://app?vid=7770b1cc-2a54-4d08-8255-6bed2fc397aa"},"vehicle_type_id":"4","last_reported":1732364233,"current_range_meters":4800,"station_id":"ce4bhu92rcd13ifvqi70","pricing_plan_id":"cebpf4jnsgd1na2vs0mg"},{"bike_id":"7f723b0b-cbe8-4f68-b8fe-2ce3d5e983bd","system_id":"levelo_inurba_marseille","lat":43.32102,"lon":5.36768,"is_reserved":false,"is_disabled":true,"rental_uris":{"android":"levelo://app?vid=7f723b0b-cbe8-4f68-b8fe-2ce3d5e983bd","ios":"levelo://app?vid=7f723b0b-cbe8-4f68-b8fe-2ce3d5e983bd"},"vehicle_type_id":"4","last_reported":1732364233,"current_range_meters":36000,"station_id":"","pricing_plan_id":"cebpf4jnsgd1na2vs0mg"},{"bike_id":"577b5ce8-c8a1-4aa2-a2d4-4577b3cf7687","system_id":"levelo_inurba_marseille","lat":43.26549,"lon":5.37287,"is_reserved":false,"is_disabled":false,"rental_uris":{"android":"levelo://app?vid=577b5ce8-c8a1-4aa2-a2d4-4577b3cf7687","ios":"levelo://app?vid=577b5ce8-c8a1-4aa2-a2d4-4577b3cf7687"},"vehicle_type_id":"4","last_reported":1732364233,"current_range_meters":6800,"station_id":"ce4bhg12rcd13ifvqf70","pricing_plan_id":"cebpf4jnsgd1na2vs0mg"},{"bike_id":"cb2e2e73-5216-4b53-aed6-918fad9cac5b","system_id":"levelo_inurba_marseille","lat":43.2705,"lon":5.40258,"is_reserved":false,"is_disabled":false,"rental_uris":{"android":"levelo://app?vid=cb2e2e73-5216-4b53-aed6-918fad9cac5b","ios":"levelo://app?vid=cb2e2e73-5216-4b53-aed6-918fad9cac5b"},"vehicle_type_id":"4","last_reported":1732364233,"current_range_meters":28000,"station_id":"ce4bhk92rcd13ifvqgc0","pricing_plan_id":"cebpf4jnsgd1na2vs0mg"},{"bike_id":"cee81c8e-d296-49d5-888a-e371a4863f4e","system_id":"levelo_inurba_marseille","lat":43.25719,"lon":5.41106,"is_reserved":false,"is_disabled":false,"rental_uris":{"android":"levelo://app?vid=cee81c8e-d296-49d5-888a-e371a4863f4e","ios":"levelo://app?vid=cee81c8e-d296-49d5-888a-e371a4863f4e"},"vehicle_type_id":"4","last_reported":1732364233,"current_range_meters":40000,"station_id":"ce4bhkp2rcd13ifvqgd0","pricing_plan_id":"cebpf4jnsgd1na2vs0mg"},{"bike_id":"7e9061cd-5627-407a-8c6f-fcf878e75a40","system_id":"levelo_inurba_marseille","lat":43.27946,"lon":5.41046,"is_reserved":false,"is_disabled":true,"rental_uris":{"android":"levelo://app?vid=7e9061cd-5627-407a-8c6f-fcf878e75a40","ios":"levelo://app?vid=7e9061cd-5627-407a-8c6f-fcf878e75a40"},"vehicle_type_id":"4","last_reported":1732364233,"current_range_meters":18800,"station_id":"ce4bhnp2rcd13ifvqh0g","pricing_plan_id":"cebpf4jnsgd1na2vs0mg"},{"bike_id":"aa960f22-4f9c-484d-b1e4-f1c5727b8bad","system_id":"levelo_inurba_marseille","lat":43.23175,"lon":5.3999,"is_reserved":false,"is_disabled":false,"rental_uris":{"android":"levelo://app?vid=aa960f22-4f9c-484d-b1e4-f1c5727b8bad","ios":"levelo://app?vid=aa960f22-4f9c-484d-b1e4-f1c5727b8bad"},"vehicle_type_id":"4","last_reported":1732364233,"current_range_meters":14000,"station_id":"ce4bhn12rcd13ifvqgqg","pricing_plan_id":"cebpf4jnsgd1na2vs0mg"},{"bike_id":"43eb7303-d80c-491b-a2f3-6366c7854f1b","system_id":"levelo_inurba_marseille","lat":43.26555,"lon":5.37285,"is_reserved":false,"is_disabled":true,"rental_uris":{"android":"levelo://app?vid=43eb7303-d80c-491b-a2f3-6366c7854f1b","ios":"levelo://app?vid=43eb7303-d80c-491b-a2f3-6366c7854f1b"},"vehicle_type_id":"4","last_reported":1732364233,"current_range_meters":0,"station_id":"ce4bhg12rcd13ifvqf70","pricing_plan_id":"cebpf4jnsgd1na2vs0mg"},