{"last_updated":1748527834,"ttl":60,"version":"2.2","data":{"bikes":[{"bike_id":"d2c21961-d5c0-4716-b763-799e07d2549c","system_id":"levelo_inurba_marseille","lat":43.301414,"lon":5.374184,"is_reserved":false,"is_disabled":false,"rental_uris":{"android":"levelo://app?vid=d2c21961-d5c0-4716-b763-799e07d2549c","ios":"levelo://app?vid=d2c21961-d5c0-4716-b763-799e07d2549c"},"vehicle_type_id":"4","last_reported":1748527834,"current_range_meters":2800,"station_id":"ce4bgs92rcd13ifvqcc0","pricing_plan_id":"cebpf4jnsgd1na2vs0mg"},{"bike_id":"691e143e-7598-4bb5-a680-dd484825032d","system_id":"levelo_inurba_marseille","lat":43.23183,"lon":5.39997,"is_reserved":false,"is_disabled":false,"rental_uris":{"android":"levelo://app?vid=691e143e-7598-4bb5-a680-dd484825032d","ios":"levelo://app?vid=691e143e-7598-4bb5-a680-dd484825032d"},"vehicle_type_id":"4","last_reported":1748527834,"current_range_meters":2000,"station_id":"ce4bhn12rcd13ifvqgqg","pricing_plan_id":"cebpf4jnsgd1na2vs0mg"},{"bike_id":"efddbc8f-a768-4035-8282-4f3679162f18","system_id":"levelo_inurba_marseille","lat":43.2396,"lon":5.36626,"is_reserved":false,"is_disabled":false,"rental_uris":{"android":"levelo://app?vid=efddbc8f-a768-4035-8282-4f3679162f18","ios":"levelo://app?vid=efddbc8f-a768-4035-8282-4f3679162f18"},"vehicle_type_id":"4","last_reported":1748527834,"current_range_meters":3200,"station_id":"ce4bhi12rcd13ifvqfp0","pricing_plan_id":"cebpf4jnsgd1na2vs0mg"},{"bike_id":"58b30293-826a-42fc-9571-354407e8193f","system_id":"levelo_inurba_marseille","lat":43.23153,"lon":5.43719,"is_reserved":false,"is_disabled":false,"rental_uris":{"android":"levelo://app?vid=58b30293-826a-42fc-9571-354407e8193f","ios":"levelo://app?vid=58b30293-826a-42fc-9571-354407e8193f"},"vehicle_type_id":"4","last_reported":1748527834,"current_range_meters":3200,"station_id":"ce4bhmp2rcd13ifvqgog","pricing_plan_id":"cebpf4jnsgd1na2vs0mg"},{"bike_id":"6fd0553f-4e04-492c-b547-111a54a2dff8","system_id":"levelo_inurba_marseille","lat":43.26205,"lon":5.37933,"is_reserved":false,"is_disabled":false,"rental_uris":{"android":"levelo://app?vid=6fd0553f-4e04-492c-b547-111a54a2dff8","ios":"levelo://app?vid=6fd0553f-4e04-492c-b547-111a54a2dff8"},"vehicle_type_id":"4","last_reported":1748527834,"current_range_meters":3200,"station_id":"ce4bhjp2rcd13ifvqg90","pricing_plan_id":"cebpf4jnsgd1na2vs0mg"},{"bike_id":"e671ea4b-2577-470f-b0ed-66caad1390fa","system_id":"levelo_inurba_marseille","lat":43.25492,"lon":5.37652,"is_reserved":false,"is_disabled":false,"rental_uris":{"android":"levelo://app?vid=e671ea4b-2577-470f-b0ed-66caad1390fa","ios":"levelo://app?vid=e671ea4b-2577-470f-b0ed-66caad1390fa"},"vehicle_type_id":"4","last_reported":1748527834,"current_range_meters":3200,"station_id":"ce4bhh12rcd13ifvqff0","pricing_plan_id":"cebpf4jnsgd1na2vs0mg"},{"bike_id":"25290c3f-a948-48c7-aff5-25d3e21ed973","system_id":"levelo_inurba_marseille","lat":43.23966,"lon":5.36634,"is_reserved":false,"is_disabled":false,"rental_uris":{"android":"levelo://app?vid=25290c3f-a948-48c7-aff5-25d3e21ed973","ios":"levelo://app?vid=25290c3f-a948-48c7-aff5-25d3e21ed973"},"vehicle_type_id":"4","last_reported":1748527834,"current_range_meters":3600,"station_id":"ce4bhi12rcd13ifvqfp0","pricing_plan_id":"cebpf4jnsgd1na2vs0mg"},{"bike_id":"c3a0bd73-5813-47f0-a5c8-27701041c8ba","system_id":"levelo_inurba_marseille","lat":43.27256,"lon":5.42396,"is_reserved":false,"is_disabled":false,"rental_uris":{"android":"levelo://app?vid=c3a0bd73-5813-47f0-a5c8-27701041c8ba","ios":"levelo://app?vid=c3a0bd73-5813-47f0-a5c8-27701041c8ba"},"vehicle_type_id":"4","last_reported":1748527834,"current_range_meters":3600,"station_id":"","pricing_plan_id":"cebpf4jnsgd1na2vs0mg"},{"bike_id":"6d2b87c1-99a2-4f8f-9e86-a0be9607e375","system_id":"levelo_inurba_marseille","lat":43.23964,"lon":5.36642,"is_reserved":false,"is_disabled":false,"rental_uris":{"android":"levelo://app?vid=6d2b87c1-99a2-4f8f-9e86-a0be9607e375","ios":"levelo://app?vid=6d2b87c1-99a2-4f8f-9e86-a0be9607e375"},"vehicle_type_id":"4","last_reported":1748527834,"current_range_meters":3600,"station_id":"ce4bhi12rcd13ifvqfp0","pricing_plan_id":"cebpf4jnsgd1na2vs0mg"},{"bike_id":"5429ceb2-4d3c-465e-befe-effe6c1dd73a","system_id":"levelo_inurba_marseille","lat":43.282728,"lon":5.350684,"is_reserved":false,"is_disabled":false,"rental_uris":{"android":"levelo://app?vid=5429ceb2-4d3c-465e-befe-effe6c1dd73a","ios":"levelo://app?vid=5429ceb2-4d3c-465e-befe-effe6c1dd73a"},"vehicle_type_id":"4","last_reported":1748527834,"current_range_meters":3600,"station_id":"ce4bhbp2rcd13ifvqerg","pricing_plan_id":"cebpf4jnsgd1na2vs0mg"},{"bike_id":"c3d05f5c-532f-46e6-bcf9-1f3dae53201c","system_id":"levelo_inurba_marseille","lat":43.286162,"lon":5.351073,"is_reserved":false,"is_disabled":false,"rental_uris":{"android":"levelo://app?vid=c3d05f5c-532f-46e6-bcf9-1f3dae53201c","ios":"levelo://app?vid=c3d05f5c-532f-46e6-bcf9-1f3dae53201c"},"vehicle_type_id":"4","last_reported":1748527834,"current_range_meters":3600,"station_id":"ce4bhch2rcd13ifvqeug","pricing_plan_id":"cebpf4jnsgd1na2vs0mg"},{"bike_id":"ca297358-aea8-4a51-b224-a7e559129561","system_id":"levelo_inurba_marseille","lat":43.29542,"lon":5.37501,"is_reserved":false,"is_disabled":false,"rental_uris":{"android":"levelo://app?vid=ca297358-aea8-4a51-b224-a7e559129561","ios":"levelo://app?vid=ca297358-aea8-4a51-b224-a7e559129561"},"vehicle_type_id":"4","last_reported":1748527834,"current_range_meters":4000,"station_id":"ce4bgkp2rcd13ifvqbmg","pricing_plan_id":"cebpf4jnsgd1na2vs0mg"},{"bike_id":"09a0eb02-41ed-4978-ad37-a47dbbbd0d8b","system_id":"levelo_inurba_marseille","lat":43.24183,"lon":5.39734,"is_reserved":false,"is_disabled":false,"rental_uris":{"android":"levelo://app?vid=09a0eb02-41ed-4978-ad37-a47dbbbd0d8b","ios":"levelo://app?vid=09a0eb02-41ed-4978-ad37-a47dbbbd0d8b"},"vehicle_type_id":"4","last_reported":1748527834,"current_range_meters":4000,"station_id":"","pricing_plan_id":"cebpf4jnsgd1na2vs0mg"},{"bike_id":"6ed4f318-e3fc-4482-a2fe-f4f0fc121e65","system_id":"levelo_inurba_marseille","lat":43.229346,"lon":5.353773,"is_reserved":false,"is_disabled":false,"rental_uris":{"android":"levelo://app?vid=6ed4f318-e3fc-4482-a2fe-f4f0fc121e65","ios":"levelo://app?vid=6ed4f318-e3fc-4482-a2fe-f4f0fc121e65"},"vehicle_type_id":"4","last_reported":1748527834,"current_range_meters":4000,"station_id":"cpo3532slgdg3j2ikp40","pricing_plan_id":"cebpf4jnsgd1na2vs0mg"},{"bike_id":"f6a47009-c675-4b06-8efe-f673cb9fe3e8","system_id":"levelo_inurba_marseille","lat":43.26553,"lon":5.37284,"is_reserved":false,"is_disabled":false,"rental_uris":{"android":"levelo://app?vid=f6a47009-c675-4b06-8efe-f673cb9fe3e8","ios":"levelo://app?vid=f6a47009-c675-4b06-8efe-f673cb9fe3e8"},"vehicle_type_id":"4","last_reported":1748527834,"current_range_meters":4400,"station_id":"ce4bhg12rcd13ifvqf70","pricing_plan_id":"cebpf4jnsgd1na2vs0mg"},{"bike_id":"b80ee325-09b2-4724-993d-4f8d3707c41c","system_id":"levelo_inurba_marseille","lat":43.25862,"lon":5.39902,"is_reserved":false,"is_disabled":false,"rental_uris":{"android":"levelo://app?vid=b80ee325-09b2-4724-993d-4f8d3707c41c","ios":"levelo://app?vid=b80ee325-09b2-4724-993d-4f8d3707c41c"},"vehicle_type_id":"4","last_reported":1748527834,"current_range_meters":4400,"station_id":"ce4bhl92rcd13ifvqghg","pricing_plan_id":"cebpf4jnsgd1na2vs0mg"},{"bike_id":"fd27d019-b4e5-4f9a-885a-8c9341f78fd0","system_id":"levelo_inurba_marseille","lat":43.296072,"lon":5.403608,"is_reserved":false,"is_disabled":false,"rental_uris":{"android":"levelo://app?vid=fd27d019-b4e5-4f9a-885a-8c9341f78fd0","ios":"levelo://app?vid=fd27d019-b4e5-4f9a-885a-8c9341f78fd0"},"vehicle_type_id":"4","last_reported":1748527834,"current_range_meters":4400,"station_id":"ce4bh112rcd13ifvqd90","pricing_plan_id":"cebpf4jnsgd1na2vs0mg"},{"bike_id":"14b37f7a-0704-4bdf-81a0-ad89dfe887c6","system_id":"levelo_inurba_marseille","lat":43.28656,"lon":5.363439,"is_reserved":false,"is_disabled":false,"rental_uris":{"android":"levelo://app?vid=14b37f7a-0704-4bdf-81a0-ad89dfe887c6","ios":"levelo://app?vid=14b37f7a-0704-4bdf-81a0-ad89dfe887c6"},"vehicle_type_id":"4","last_reported":1748527834,"current_range_meters":4400,"station_id":"ce4bhah2rcd13ifvqej0","pricing_plan_id":"cebpf4jnsgd1na2vs0mg"},{"bike_id":"05e24864-92f0-4eba-9e98-970711f51852","system_id":"levelo_inurba_marseille","lat":43.282593,"lon":5.350604,"is_reserved":false,"is_disabled":false,"rental_uris":{"android":"levelo://app?vid=05e24864-92f0-4eba-9e98-970711f51852","ios":"levelo://app?vid=05e24864-92f0-4eba-9e98-970711f51852"},"vehicle_type_id":"4","last_reported":1748527834,"current_range_meters":4400,"station_id":"ce4bhbp2rcd13ifvqerg","pricing_plan_id":"cebpf4jnsgd1na2vs0mg"},{"bike_id":"bf3c8254-5e11-449a-b44c-77db706aeb33","system_id":"levelo_inurba_marseille","lat":43.28371,"lon":5.38636,"is_reserved":false,"is_disabled":false,"rental_uris":{"android":"levelo://app?vid=bf3c8254-5e11-449a-b44c-77db706aeb33","ios":"levelo://app?vid=bf3c8254-5e11-449a-b44c-77db706aeb33"},"vehicle_type_id":"4","last_reported":1748527834,"current_range_meters":4000,"station_id":"ce4bh492rcd13ifvqdvg","pricing_plan_id":"cebpf4jnsgd1na2vs0mg"},{"bike_id":"9fa35ba9-3d35-4ea9-8fd7-8c67a43f8fa6","system_id":"levelo_inurba_marseille","lat":43.26021,"lon":5.37558,"is_reserved":false,"is_disabled":false,"rental_uris":{"android":"levelo://app?vid=9fa35ba9-3d35-4ea9-8fd7-8c67a43f8fa6","ios":"levelo://app?vid=9fa35ba9-3d35-4ea9-8fd7-8c67a43f8fa6"},"vehicle_type_id":"4","last_reported":1748527834,"current_range_meters":4400,"station_id":"ce4bhgh2rcd13ifvqfa0","pricing_plan_id":"cebpf4jnsgd1na2vs0mg"},{"bike_id":"f9eb1931-182e-4240-85dd-a690297f73d5","system_id":"levelo_inurba_marseille","lat":43.276135,"lon":5.360998,"is_reserved":false,"is_disabled":false,"rental_uris":{"android":"levelo://app?vid=f9eb1931-182e-4240-85dd-a690297f73d5","ios":"levelo://app?vid=f9eb1931-182e-4240-85dd-a690297f73d5"},"vehicle_type_id":"4","last_reported":1748527834,"current_range_meters":4800,"station_id":"ce4bgj92rcd13ifvqbe0","pricing_plan_id":"cebpf4jnsgd1na2vs0mg"},{"bike_id":"8d58868a-90c7-4354-bd95-c9b1424e7e94","system_id":"levelo_inurba_marseille","lat":43.30871,"lon":5.3745,"is_reserved":false,"is_disabled":false,"rental_uris":{"android":"levelo://app?vid=8d58868a-90c7-4354-bd95-c9b1424e7e94","ios":"levelo://app?vid=8d58868a-90c7-4354-bd95-c9b1424e7e94"},"vehicle_type_id":"4","last_reported":1748527834,"current_range_meters":4000,"station_id":"","pricing_plan_id":"cebpf4jnsgd1na2vs0mg"},{"bike_id":"b0a25b5c-b702-42c8-8351-55f4b646f479","system_id":"levelo_inurba_marseille","lat":43.27382,"lon":5.3626,"is_reserved":false,"is_disabled":false,"rental_uris":{"android":"levelo://app?vid=b0a25b5c-b702-42c8-8351-55f4b646f479","ios":"levelo://app?vid=b0a25b5c-b702-42c8-8351-55f4b646f479"},"vehicle_type_id":"4","last_reported":1748527834,"current_range_meters":4800,"station_id":"ce4bhbh2rcd13ifvqeo0","pricing_plan_id":"cebpf4jnsgd1na2vs0mg"},{"bike_id":"4d0ab1ea-f35e-4f3c-94d0-a99035b5b753","system_id":"levelo_inurba_marseille","lat":43.29063,"lon":5.35569,"is_reserved":false,"is_disabled":false,"rental_uris":{"android":"levelo://app?vid=4d0ab1ea-f35e-4f3c-94d0-a99035b5b753","ios":"levelo://app?vid=4d0ab1ea-f35e-4f3c-94d0-a99035b5b753"},"vehicle_type_id":"4","last_reported":1748527834,"current_range_meters":4800,"station_id":"","pricing_plan_id":"cebpf4jnsgd1na2vs0mg"},{"bike_id":"1b9c44ac-969a-4768-a1a3-21c86e0814fc","system_id":"levelo_inurba_marseille","lat":43.24172,"lon":5.36426,"is_reserved":false,"is_disabled":false,"rental_uris":{"android":"levelo://app?vid=1b9c44ac-969a-4768-a1a3-21c86e0814fc","ios":"levelo://app?vid=1b9c44ac-969a-4768-a1a3-21c86e0814fc"},"vehicle_type_id":"4","last_reported":1748527834,"current_range_meters":4800,"station_id":"cpo36qri1sfpv3e86is0","pricing_plan_id":"cebpf4jnsgd1na2vs0mg"},{"bike_id":"0a133366-6a81-48d6-9f4b-b40e61f89f4c","system_id":"levelo_inurba_marseille","lat":43.3046,"lon":5.37906,"is_reserved":false,"is_disabled":false,"rental_uris":{"android":"levelo://app?vid=0a133366-6a81-48d6-9f4b-b40e61f89f4c","ios":"levelo://app?vid=0a133366-6a81-48d6-9f4b-b40e61f89f4c"},"vehicle_type_id":"4","last_reported":1748527834,"current_range_meters":4400,"station_id":"ce4bgup2rcd13ifvqcn0","pricing_plan_id":"cebpf4jnsgd1na2vs0mg"},{"bike_id":"ecbdbf46-9056-4a5f-bf09-cefcb2d2cd53","system_id":"levelo_inurba_marseille","lat":43.23198,"lon":5.35553,"is_reserved":false,"is_disabled":false,"rental_uris":{"android":"levelo://app?vid=ecbdbf46-9056-4a5f-bf09-cefcb2d2cd53","ios":"levelo://app?vid=ecbdbf46-9056-4a5f-bf09-cefcb2d2cd53"},"vehicle_type_id":"4","last_reported":1748527834,"current_range_meters":4800,"station_id":"ce4bhu92rcd13ifvqi70","pricing_plan_id":"cebpf4jnsgd1na2vs0mg"},{"bike_id":"32bd30d0-84e8-4064-9033-444ef9a5a959","system_id":"levelo_inurba_marseille","lat":43.31486,"lon":5.37308,"is_reserved":false,"is_disabled":false,"rental_uris":{"android":"levelo://app?vid=32bd30d0-84e8-4064-9033-444ef9a5a959","ios":"levelo://app?vid=32bd30d0-84e8-4064-9033-444ef9a5a959"},"vehicle_type_id":"4","last_reported":1748527834,"current_range_meters":5600,"station_id":"ce4bgt12rcd13ifvqcd0","pricing_plan_id":"cebpf4jnsgd1na2vs0mg"},{"bike_id":"ee4805fc-08cd-4377-be04-3721b1f97d83","system_id":"levelo_inurba_marseille","lat":43.24169,"lon":5.36407,"is_reserved":false,"is_disabled":false,"rental_uris":{"android":"levelo://app?vid=ee4805fc-08cd-4377-be04-3721b1f97d83","ios":"levelo://app?vid=ee4805fc-08cd-4377-be04-3721b1f97d83"},"vehicle_type_id":"4","last_reported":1748527834,"current_range_meters":5600,"station_id":"cpo36qri1sfpv3e86is0","pricing_plan_id":"cebpf4jnsgd1na2vs0mg"},{"bike_id":"9240d739-e951-4b5d-a81b-f4e7c28bf9c1","system_id":"levelo_inurba_marseille","lat":43.24388,"lon":5.37065,"is_reserved":false,"is_disabled":false,"rental_uris":{"android":"levelo://app?vid=9240d739-e951-4b5d-a81b-f4e7c28bf9c1","ios":"levelo://app?vid=9240d739-e951-4b5d-a81b-f4e7c28bf9c1"},"vehicle_type_id":"4","last_reported":1748527834,"current_range_meters":5600,"station_id":"ce4bhhh2rcd13ifvqfk0","pricing_plan_id":"cebpf4jnsgd1na2vs0mg"},{"bike_id":"e509c36d-f2cc-42e6-92cc-ae21bd41da80","system_id":"levelo_inurba_marseille","lat":43.26935,"lon":5.38917,"is_reserved":false,"is_disabled":false,"rental_uris":{"android":"levelo://app?vid=e509c36d-f2cc-42e6-92cc-ae21bd41da80","ios":"levelo://app?vid=e509c36d-f2cc-42e6-92cc-ae21bd41da80"},"vehicle_type_id":"4","last_reported":1748527834,"current_range_meters":5600,"station_id":"ce4bhhh2rcd13ifvqfl0","pricing_plan_id":"cebpf4jnsgd1na2vs0mg"},{"bike_id":"6d7cfdcd-f061-4eee-b4e5-78d9b6729328","system_id":"levelo_inurba_marseille","lat":43.329915,"lon":5.438477,"is_reserved":false,"is_disabled":false,"rental_uris":{"android":"levelo://app?vid=6d7cfdcd-f061-4eee-b4e5-78d9b6729328","ios":"levelo://app?vid=6d7cfdcd-f061-4eee-b4e5-78d9b6729328"},"vehicle_type_id":"4","last_reported":1748527834,"current_range_meters":6000,"station_id":"","pricing_plan_id":"cebpf4jnsgd1na2vs0mg"},{"bike_id":"d3eb2465-21a0-4e6a-9706-da0ba9a55ec9","system_id":"levelo_inurba_marseille","lat":43.2928,"lon":5.40114,"is_reserved":false,"is_disabled":false,"rental_uris":{"android":"levelo://app?vid=d3eb2465-21a0-4e6a-9706-da0ba9a55ec9","ios":"levelo://app?vid=d3eb2465-21a0-4e6a-9706-da0ba9a55ec9"},"vehicle_type_id":"4","last_reported":1748527834,"current_range_meters":6000,"station_id":"ce4bh312rcd13ifvqdk0","pricing_plan_id":"cebpf4jnsgd1na2vs0mg"},{"bike_id":"f6adfe90-7282-45d0-b8c6-d7e56b94794c","system_id":"levelo_inurba_marseille","lat":43.23149,"lon":5.43716,"is_reserved":false,"is_disabled":false,"rental_uris":{"android":"levelo://app?vid=f6adfe90-7282-45d0-b8c6-d7e56b94794c","ios":"levelo://app?vid=f6adfe90-7282-45d0-b8c6-d7e56b94794c"},"vehicle_type_id":"4","last_reported":1748527834,"current_range_meters":6000,"station_id":"ce4bhmp2rcd13ifvqgog","pricing_plan_id":"cebpf4jnsgd1na2vs0mg"},{"bike_id":"ede90320-0a32-4e7a-9972-070e26426437","system_id":"levelo_inurba_marseille","lat":43.28268,"lon":5.35083,"is_reserved":false,"is_disabled":false,"rental_uris":{"android":"levelo://app?vid=ede90320-0a32-4e7a-9972-070e26426437","ios":"levelo://app?vid=ede90320-0a32-4e7a-9972-070e26426437"},"vehicle_type_id":"4","last_reported":1748527834,"current_range_meters":6400,"station_id":"ce4bhbp2rcd13ifvqerg","pricing_plan_id":"cebpf4jnsgd1na2vs0mg"},{"bike_id":"ba8c5155-1067-40e8-bff2-cdaf27f369b9","system_id":"levelo_inurba_marseille","lat":43.24393,"lon":5.37056,"is_reserved":false,"is_disabled":false,"rental_uris":{"android":"levelo://app?vid=ba8c5155-1067-40e8-bff2-cdaf27f369b9","ios":"levelo://app?vid=ba8c5155-1067-40e8-bff2-cdaf27f369b9"},"vehicle_type_id":"4","last_reported":1748527834,"current_range_meters":6400,"station_id":"ce4bhhh2rcd13ifvqfk0","pricing_plan_id":"cebpf4jnsgd1na2vs0mg"},{"bike_id":"65311a44-bd41-49b9-a451-fe99bb00a36e","system_id":"levelo_inurba_marseille","lat":43.28421,"lon":5.34984,"is_reserved":false,"is_disabled":false,"rental_uris":{"android":"levelo://app?vid=65311a44-bd41-49b9-a451-fe99bb00a36e","ios":"levelo://app?vid=65311a44-bd41-49b9-a451-fe99bb00a36e"},"vehicle_type_id":"4","last_reported":1748527834,"current_range_meters":6400,"station_id":"ce4bhbh2rcd13ifvqepg","pricing_plan_id":"cebpf4jnsgd1na2vs0mg"},{"bike_id":"99413328-8481-475f-9709-0644bfa1ce0d","system_id":"levelo_inurba_marseille","lat":43.290481,"lon":5.359232,"is_reserved":false,"is_disabled":false,"rental_uris":{"android":"levelo://app?vid=99413328-8481-475f-9709-0644bfa1ce0d","ios":"levelo://app?vid=99413328-8481-475f-9709-0644bfa1ce0d"},"vehicle_type_id":"4","last_reported":1748527834,"current_range_meters":6400,"station_id":"ce4bha92rcd13ifvqeg0","pricing_plan_id":"cebpf4jnsgd1na2vs0mg"},{"bike_id":"be4b293e-8744-4637-8ca2-a3e9032e9cec","system_id":"levelo_inurba_marseille","lat":43.229285,"lon":5.353772,"is_reserved":false,"is_disabled":false,"rental_uris":{"android":"levelo://app?vid=be4b293e-8744-4637-8ca2-a3e9032e9cec","ios":"levelo://app?vid=be4b293e-8744-4637-8ca2-a3e9032e9cec"},"vehicle_type_id":"4","last_reported":1748527834,"current_range_meters":6400,"station_id":"cpo3532slgdg3j2ikp40","pricing_plan_id":"cebpf4jnsgd1na2vs0mg"},{"bike_id":"cbf82928-2792-4e81-88d5-39bd32ff77ee","system_id":"levelo_inurba_marseille","lat":43.2872,"lon":5.36104,"is_reserved":false,"is_disabled":false,"rental_uris":{"android":"levelo://app?vid=cbf82928-2792-4e81-88d5-39bd32ff77ee","ios":"levelo://app?vid=cbf82928-2792-4e81-88d5-39bd32ff77ee"},"vehicle_type_id":"4","last_reported":1748527834,"current_range_meters":6000,"station_id":"cki0cbj6b192h4jlfktg","pricing_plan_id":"cebpf4jnsgd1na2vs0mg"},{"bike_id":"67faa85a-9056-489e-9b04-0fef25d3980a","system_id":"levelo_inurba_marseille","lat":43.2695,"lon":5.38674,"is_reserved":false,"is_disabled":false,"rental_uris":{"android":"levelo://app?vid=67faa85a-9056-489e-9b04-0fef25d3980a","ios":"levelo://app?vid=67faa85a-9056-489e-9b04-0fef25d3980a"},"vehicle_type_id":"4","last_reported":1748527834,"current_range_meters":6400,"station_id":"ce4bhh92rcd13ifvqfh0","pricing_plan_id":"cebpf4jnsgd1na2vs0mg"},{"bike_id":"b6194222-a80b-43bc-b765-fba2143e9c5c","system_id":"levelo_inurba_marseille","lat":43.23195,"lon":5.35572,"is_reserved":false,"is_disabled":false,"rental_uris":{"android":"levelo://app?vid=b6194222-a80b-43bc-b765-fba2143e9c5c","ios":"levelo://app?vid=b6194222-a80b-43bc-b765-fba2143e9c5c"},"vehicle_type_id":"4","last_reported":1748527834,"current_range_meters":6800,"station_id":"ce4bhu92rcd13ifvqi70","pricing_plan_id":"cebpf4jnsgd1na2vs0mg"},{"bike_id":"b7c9fc3e-8656-4f75-ad07-a9daf7877cde","system_id":"levelo_inurba_marseille","lat":43.25582,"lon":5.3824,"is_reserved":false,"is_disabled":false,"rental_uris":{"android":"levelo://app?vid=b7c9fc3e-8656-4f75-ad07-a9daf7877cde","ios":"levelo://app?vid=b7c9fc3e-8656-4f75-ad07-a9daf7877cde"},"vehicle_type_id":"4","last_reported":1748527834,"current_range_meters":6800,"station_id":"ce4bhih2rcd13ifvqfs0","pricing_plan_id":"cebpf4jnsgd1na2vs0mg"},{"bike_id":"513b31ef-05fe-42b4-af27-da1c216b5294","system_id":"levelo_inurba_marseille","lat":43.28616,"lon":5.35098,"is_reserved":false,"is_disabled":false,"rental_uris":{"android":"levelo://app?vid=513b31ef-05fe-42b4-af27-da1c216b5294","ios":"levelo://app?vid=513b31ef-05fe-42b4-af27-da1c216b5294"},"vehicle_type_id":"4","last_reported":1748527834,"current_range_meters":6800,"station_id":"ce4bhch2rcd13ifvqeug","pricing_plan_id":"cebpf4jnsgd1na2vs0mg"},{"bike_id":"0d27c8fb-aac3-4d65-aa1d-e457b391a890","system_id":"levelo_inurba_marseille","lat":43.24382,"lon":5.37053,"is_reserved":false,"is_disabled":false,"rental_uris":{"android":"levelo://app?vid=0d27c8fb-aac3-4d65-aa1d-e457b391a890","ios":"levelo://app?vid=0d27c8fb-aac3-4d65-aa1d-e457b391a890"},"vehicle_type_id":"4","last_reported":1748527834,"current_range_meters":6800,"station_id":"ce4bhhh2rcd13ifvqfk0","pricing_plan_id":"cebpf4jnsgd1na2vs0mg"},{"bike_id":"77f2a78c-cfd3-4f76-8c88-9bf4a383893f","system_id":"levelo_inurba_marseille","lat":43.22938,"lon":5.35382,"is_reserved":false,"is_disabled":false,"rental_uris":{"android":"levelo://app?vid=77f2a78c-cfd3-4f76-8c88-9bf4a383893f","ios":"levelo://app?vid=77f2a78c-cfd3-4f76-8c88-9bf4a383893f"},"vehicle_type_id":"4","last_reported":1748527834,"current_range_meters":6800,"station_id":"cpo3532slgdg3j2ikp40","pricing_plan_id":"cebpf4jnsgd1na2vs0mg"},{"bike_id":"67e2d65b-01d3-48d6-a4fa-09c8b5d1dfad","system_id":"levelo_inurba_marseille","lat":43.31362,"lon":5.38493,"is_reserved":false,"is_disabled":false,"rental_uris":{"android":"levelo://app?vid=67e2d65b-01d3-48d6-a4fa-09c8b5d1dfad","ios":"levelo://app?vid=67e2d65b-01d3-48d6-a4fa-09c8b5d1dfad"},"vehicle_type_id":"4","last_reported":1748527834,"current_range_meters":6800,"station_id":"ce4bgt92rcd13ifvqcf0","pricing_plan_id":"cebpf4jnsgd1na2vs0mg"},{"bike_id":"ce7b18e4-7948-40ae-b647-c69f45870dbb","system_id":"levelo_inurba_marseille","lat":43.30939,"lon":5.40169,"is_reserved":false,"is_disabled":false,"rental_uris":{"android":"levelo://app?vid=ce7b18e4-7948-40ae-b647-c69f45870dbb","ios":"levelo://app?vid=ce7b18e4-7948-40ae-b647-c69f45870dbb"},"vehicle_type_id":"4","last_reported":1748527834,"current_range_meters":6800,"station_id":"ce4bgvp2rcd13ifvqct0","pricing_plan_id":"cebpf4jnsgd1na2vs0mg"},{"bike_id":"51e6f2d8-cf6f-40fa-9ad0-897fa3adc423","system_id":"levelo_inurba_marseille","lat":43.26557,"lon":5.37268,"is_reserved":false,"is_disabled":false,"rental_uris":{"android":"levelo://app?vid=51e6f2d8-cf6f-40fa-9ad0-897fa3adc423","ios":"levelo://app?vid=51e6f2d8-cf6f-40fa-9ad0-897fa3adc423"},"vehicle_type_id":"4","last_reported":1748527834,"current_range_meters":6800,"station_id":"ce4bhg12rcd13ifvqf70","pricing_plan_id":"cebpf4jnsgd1na2vs0mg"},{"bike_id":"26215b64-c72d-4e30-9ec3-7337bd22d765","system_id":"levelo_inurba_marseille","lat":43.28191,"lon":5.390277,"is_reserved":false,"is_disabled":false,"rental_uris":{"android":"levelo://app?vid=26215b64-c72d-4e30-9ec3-7337bd22d765","ios":"levelo://app?vid=26215b64-c72d-4e30-9ec3-7337bd22d765"},"vehicle_type_id":"4","last_reported":1748527834,"current_range_meters":6800,"station_id":"","pricing_plan_id":"cebpf4jnsgd1na2vs0mg"},{"bike_id":"782c6a7b-75bc-4aae-b597-285efe43fd59","system_id":"levelo_inurba_marseille","lat":43.30779,"lon":5.37651,"is_reserved":false,"is_disabled":false,"rental_uris":{"android":"levelo://app?vid=782c6a7b-75bc-4aae-b597-285efe43fd59","ios":"levelo://app?vid=782c6a7b-75bc-4aae-b597-285efe43fd59"},"vehicle_type_id":"4","last_reported":1748527834,"current_range_meters":6800,"station_id":"ce4bgv92rcd13ifvqcq0","pricing_plan_id":"cebpf4jnsgd1na2vs0mg"},{"bike_id":"1eed49fb-ce64-4ebd-9903-7d87835a2ccf","system_id":"levelo_inurba_marseille","lat":43.29769,"lon":5.45987,"is_reserved":false,"is_disabled":false,"rental_uris":{"android":"levelo://app?vid=1eed49fb-ce64-4ebd-9903-7d87835a2ccf","ios":"levelo://app?vid=1eed49fb-ce64-4ebd-9903-7d87835a2ccf"},"vehicle_type_id":"4","last_reported":1748527834,"current_range_meters":7200,"station_id":"","pricing_plan_id":"cebpf4jnsgd1na2vs0mg"},{"bike_id":"73b15496-321b-4e21-90dc-bdfca526257b","system_id":"levelo_inurba_marseille","lat":43.295954,"lon":5.381016,"is_reserved":false,"is_disabled":false,"rental_uris":{"android":"levelo://app?vid=73b15496-321b-4e21-90dc-bdfca526257b","ios":"levelo://app?vid=73b15496-321b-4e21-90dc-bdfca526257b"},"vehicle_type_id":"4","last_reported":1748527834,"current_range_meters":6800,"station_id":"ce4bgl12rcd13ifvqbo0","pricing_plan_id":"cebpf4jnsgd1na2vs0mg"},{"bike_id":"2dc5e5a5-497c-4ee4-9225-99797869912c","system_id":"levelo_inurba_marseille","lat":43.27621,"lon":5.36121,"is_reserved":false,"is_disabled":false,"rental_uris":{"android":"levelo://app?vid=2dc5e5a5-497c-4ee4-9225-99797869912c","ios":"levelo://app?vid=2dc5e5a5-497c-4ee4-9225-99797869912c"},"vehicle_type_id":"4","last_reported":1748527834,"current_range_meters":7200,"station_id":"ce4bgj92rcd13ifvqbe0","pricing_plan_id":"cebpf4jnsgd1na2vs0mg"},{"bike_id":"8513c124-8e9f-4001-9cae-dbd6d856385e","system_id":"levelo_inurba_marseille","lat":43.29623,"lon":5.37153,"is_reserved":false,"is_disabled":false,"rental_uris":{"android":"levelo://app?vid=8513c124-8e9f-4001-9cae-dbd6d856385e","ios":"levelo://app?vid=8513c124-8e9f-4001-9cae-dbd6d856385e"},"vehicle_type_id":"4","last_reported":1748527834,"current_range_meters":7200,"station_id":"ce4bgnh2rcd13ifvqc0g","pricing_plan_id":"cebpf4jnsgd1na2vs0mg"},{"bike_id":"4f8e2251-af9b-4414-8f6c-c6e64bbf1756","system_id":"levelo_inurba_marseille","lat":43.31703,"lon":5.40477,"is_reserved":false,"is_disabled":false,"rental_uris":{"android":"levelo://app?vid=4f8e2251-af9b-4414-8f6c-c6e64bbf1756","ios":"levelo://app?vid=4f8e2251-af9b-4414-8f6c-c6e64bbf1756"},"vehicle_type_id":"4","last_reported":1748527834,"current_range_meters":7200,"station_id":"ce4bh012rcd13ifvqd00","pricing_plan_id":"cebpf4jnsgd1na2vs0mg"},{"bike_id":"f0e12869-ccfc-49f7-8bf1-87de5389d98e","system_id":"levelo_inurba_marseille","lat":43.2749,"lon":5.42451,"is_reserved":false,"is_disabled":false,"rental_uris":{"android":"levelo://app?vid=f0e12869-ccfc-49f7-8bf1-87de5389d98e","ios":"levelo://app?vid=f0e12869-ccfc-49f7-8bf1-87de5389d98e"},"vehicle_type_id":"4","last_reported":1748527834,"current_range_meters":7200,"station_id":"ce4bhn92rcd13ifvqgrg","pricing_plan_id":"cebpf4jnsgd1na2vs0mg"},{"bike_id":"799e1d6d-478a-40ad-929a-9bc3e8f71c80","system_id":"levelo_inurba_marseille","lat":43.23184,"lon":5.35578,"is_reserved":false,"is_disabled":false,"rental_uris":{"android":"levelo://app?vid=799e1d6d-478a-40ad-929a-9bc3e8f71c80","ios":"levelo://app?vid=799e1d6d-478a-40ad-929a-9bc3e8f71c80"},"vehicle_type_id":"4","last_reported":1748527834,"current_range_meters":7200,"station_id":"ce4bhu92rcd13ifvqi70","pricing_plan_id":"cebpf4jnsgd1na2vs0mg"},{"bike_id":"2da0b303-be05-4f73-838d-0f59b84e211b","system_id":"levelo_inurba_marseille","lat":43.26207,"lon":5.37444,"is_reserved":false,"is_disabled":false,"rental_uris":{"android":"levelo://app?vid=2da0b303-be05-4f73-838d-0f59b84e211b","ios":"levelo://app?vid=2da0b303-be05-4f73-838d-0f59b84e211b"},"vehicle_type_id":"4","last_reported":1748527834,"current_range_meters":7200,"station_id":"ce4bhgp2rcd13ifvqfc0","pricing_plan_id":"cebpf4jnsgd1na2vs0mg"},{"bike_id":"785ab2d1-4c41-44e9-97c6-b0c1175926fc","system_id":"levelo_inurba_marseille","lat":43.29265,"lon":5.40906,"is_reserved":false,"is_disabled":false,"rental_uris":{"android":"levelo://app?vid=785ab2d1-4c41-44e9-97c6-b0c1175926fc","ios":"levelo://app?vid=785ab2d1-4c41-44e9-97c6-b0c1175926fc"},"vehicle_type_id":"4","last_reported":1748527834,"current_range_meters":6800,"station_id":"ce4bh192rcd13ifvqdc0","pricing_plan_id":"cebpf4jnsgd1na2vs0mg"},{"bike_id":"18a9323b-78fb-41ee-b1b9-989903bd6867","system_id":"levelo_inurba_marseille","lat":43.30462,"lon":5.37901,"is_reserved":false,"is_disabled":false,"rental_uris":{"android":"levelo://app?vid=18a9323b-78fb-41ee-b1b9-989903bd6867","ios":"levelo://app?vid=18a9323b-78fb-41ee-b1b9-989903bd6867"},"vehicle_type_id":"4","last_reported":1748527834,"current_range_meters":8400,"station_id":"ce4bgup2rcd13ifvqcn0","pricing_plan_id":"cebpf4jnsgd1na2vs0mg"},{"bike_id":"97f0d98a-b9cd-4369-81b9-9a95a6f222c8","system_id":"levelo_inurba_marseille","lat":43.25934,"lon":5.40914,"is_reserved":false,"is_disabled":false,"rental_uris":{"android":"levelo://app?vid=97f0d98a-b9cd-4369-81b9-9a95a6f222c8","ios":"levelo://app?vid=97f0d98a-b9cd-4369-81b9-9a95a6f222c8"},"vehicle_type_id":"4","last_reported":1748527834,"current_range_meters":8000,"station_id":"ce4bhm92rcd13ifvqglg","pricing_plan_id":"cebpf4jnsgd1na2vs0mg"},{"bike_id":"da279776-c099-4cdd-acd3-f802ffed4965","system_id":"levelo_inurba_marseille","lat":43.2956,"lon":5.42292,"is_reserved":false,"is_disabled":false,"rental_uris":{"android":"levelo://app?vid=da279776-c099-4cdd-acd3-f802ffed4965","ios":"levelo://app?vid=da279776-c099-4cdd-acd3-f802ffed4965"},"vehicle_type_id":"4","last_reported":1748527834,"current_range_meters":6400,"station_id":"ce4bhph2rcd13ifvqhdg","pricing_plan_id":"cebpf4jnsgd1na2vs0mg"},{"bike_id":"5d68f62c-eb39-40af-bbb2-d7e15646df4b","system_id":"levelo_inurba_marseille","lat":43.30802,"lon":5.3816,"is_reserved":false,"is_disabled":false,"rental_uris":{"android":"levelo://app?vid=5d68f62c-eb39-40af-bbb2-d7e15646df4b","ios":"levelo://app?vid=5d68f62c-eb39-40af-bbb2-d7e15646df4b"},"vehicle_type_id":"4","last_reported":1748527834,"current_range_meters":7200,"station_id":"ce4bgt12rcd13ifvqce0","pricing_plan_id":"cebpf4jnsgd1na2vs0mg"},{"bike_id":"90ff43cc-0fa0-4b44-af11-0bde91bebba0","system_id":"levelo_inurba_marseille","lat":43.28414,"lon":5.3498,"is_reserved":false,"is_disabled":false,"rental_uris":{"android":"levelo://app?vid=90ff43cc-0fa0-4b44-af11-0bde91bebba0","ios":"levelo://app?vid=90ff43cc-0fa0-4b44-af11-0bde91bebba0"},"vehicle_type_id":"4","last_reported":1748527834,"current_range_meters":8000,"station_id":"ce4bhbh2rcd13ifvqepg","pricing_plan_id":"cebpf4jnsgd1na2vs0mg"},{"bike_id":"722de25a-56fa-4f32-893f-135441683445","system_id":"levelo_inurba_marseille","lat":43.30421,"lon":5.4129,"is_reserved":false,"is_disabled":false,"rental_uris":{"android":"levelo://app?vid=722de25a-56fa-4f32-893f-135441683445","ios":"levelo://app?vid=722de25a-56fa-4f32-893f-135441683445"},"vehicle_type_id":"4","last_reported":1748527834,"current_range_meters":8400,"station_id":"ce4bhop2rcd13ifvqh8g","pricing_plan_id":"cebpf4jnsgd1na2vs0mg"},{"bike_id":"c0d5ccd3-cc9b-42dc-bafd-57829be782b0","system_id":"levelo_inurba_marseille","lat":43.308,"lon":5.43533,"is_reserved":false,"is_disabled":false,"rental_uris":{"android":"levelo://app?vid=c0d5ccd3-cc9b-42dc-bafd-57829be782b0","ios":"levelo://app?vid=c0d5ccd3-cc9b-42dc-bafd-57829be782b0"},"vehicle_type_id":"4","last_reported":1748527834,"current_range_meters":8400,"station_id":"ce4bhph2rcd13ifvqheg","pricing_plan_id":"cebpf4jnsgd1na2vs0mg"},{"bike_id":"84adab0f-96c1-4426-bc86-147d47e6151b","system_id":"levelo_inurba_marseille","lat":43.23187,"lon":5.35559,"is_reserved":false,"is_disabled":false,"rental_uris":{"android":"levelo://app?vid=84adab0f-96c1-4426-bc86-147d47e6151b","ios":"levelo://app?vid=84adab0f-96c1-4426-bc86-147d47e6151b"},"vehicle_type_id":"4","last_reported":1748527834,"current_range_meters":8400,"station_id":"ce4bhu92rcd13ifvqi70","pricing_plan_id":"cebpf4jnsgd1na2vs0mg"},{"bike_id":"c61d6114-7cc3-4956-bb3c-b4a6743a6b7b","system_id":"levelo_inurba_marseille","lat":43.2624,"lon":5.40442,"is_reserved":false,"is_disabled":false,"rental_uris":{"android":"levelo://app?vid=c61d6114-7cc3-4956-bb3c-b4a6743a6b7b","ios":"levelo://app?vid=c61d6114-7cc3-4956-bb3c-b4a6743a6b7b"},"vehicle_type_id":"4","last_reported":1748527834,"current_range_meters":8400,"station_id":"ce4bhmh2rcd13ifvqgmg","pricing_plan_id":"cebpf4jnsgd1na2vs0mg"},{"bike_id":"86f11208-7f90-4009-a976-cc81e2c7825f","system_id":"levelo_inurba_marseille","lat":43.241688,"lon":5.364003,"is_reserved":false,"is_disabled":false,"rental_uris":{"android":"levelo://app?vid=86f11208-7f90-4009-a976-cc81e2c7825f","ios":"levelo://app?vid=86f11208-7f90-4009-a976-cc81e2c7825f"},"vehicle_type_id":"4","last_reported":1748527834,"current_range_meters":8400,"station_id":"cpo36qri1sfpv3e86is0","pricing_plan_id":"cebpf4jnsgd1na2vs0mg"},{"bike_id":"11efe713-ed18-41e4-afcb-6538cda54c1b","system_id":"levelo_inurba_marseille","lat":43.24175,"lon":5.36405,"is_reserved":false,"is_disabled":false,"rental_uris":{"android":"levelo://app?vid=11efe713-ed18-41e4-afcb-6538cda54c1b","ios":"levelo://app?vid=11efe713-ed18-41e4-afcb-6538cda54c1b"},"vehicle_type_id":"4","last_reported":1748527834,"current_range_meters":8400,"station_id":"cpo36qri1sfpv3e86is0","pricing_plan_id":"cebpf4jnsgd1na2vs0mg"},{"bike_id":"cb6fb715-a0ad-41f6-837c-f45f14907429","system_id":"levelo_inurba_marseille","lat":43.296234,"lon":5.371606,"is_reserved":false,"is_disabled":false,"rental_uris":{"android":"levelo://app?vid=cb6fb715-a0ad-41f6-837c-f45f14907429","ios":"levelo://app?vid=cb6fb715-a0ad-41f6-837c-f45f14907429"},"vehicle_type_id":"4","last_reported":1748527834,"current_range_meters":8400,"station_id":"","pricing_plan_id":"cebpf4jnsgd1na2vs0mg"},{"bike_id":"6643e7dc-ebd0-4d9e-991f-66d548da70eb","system_id":"levelo_inurba_marseille","lat":43.248222,"lon":5.374818,"is_reserved":false,"is_disabled":false,"rental_uris":{"android":"levelo://app?vid=6643e7dc-ebd0-4d9e-991f-66d548da70eb","ios":"levelo://app?vid=6643e7dc-ebd0-4d9e-991f-66d548da70eb"},"vehicle_type_id":"4","last_reported":1748527834,"current_range_meters":8000,"station_id":"ce4bhgh2rcd13ifvqfb0","pricing_plan_id":"cebpf4jnsgd1na2vs0mg"},{"bike_id":"2f650bb1-6027-4191-83d2-16315820a0a7","system_id":"levelo_inurba_marseille","lat":43.29863,"lon":5.37425,"is_reserved":false,"is_disabled":false,"rental_uris":{"android":"levelo://app?vid=2f650bb1-6027-4191-83d2-16315820a0a7","ios":"levelo://app?vid=2f650bb1-6027-4191-83d2-16315820a0a7"},"vehicle_type_id":"4","last_reported":1748527834,"current_range_meters":8400,"station_id":"","pricing_plan_id":"cebpf4jnsgd1na2vs0mg"},{"bike_id":"2713d767-7ce1-4397-ab22-df87e7661762","system_id":"levelo_inurba_marseille","lat":43.30891,"lon":5.39653,"is_reserved":false,"is_disabled":false,"rental_uris":{"android":"levelo://app?vid=2713d767-7ce1-4397-ab22-df87e7661762","ios":"levelo://app?vid=2713d767-7ce1-4397-ab22-df87e7661762"},"vehicle_type_id":"4","last_reported":1748527834,"current_range_meters":8400,"station_id":"ce4bh012rcd13ifvqcv0","pricing_plan_id":"cebpf4jnsgd1na2vs0mg"},{"bike_id":"13f84c1a-f88d-4c2e-85a9-ad23a713a50d","system_id":"levelo_inurba_marseille","lat":43.23059,"lon":5.3549,"is_reserved":false,"is_disabled":false,"rental_uris":{"android":"levelo://app?vid=13f84c1a-f88d-4c2e-85a9-ad23a713a50d","ios":"levelo://app?vid=13f84c1a-f88d-4c2e-85a9-ad23a713a50d"},"vehicle_type_id":"4","last_reported":1748527834,"current_range_meters":8400,"station_id":"cpo3342slgdg3j2ifvpg","pricing_plan_id":"cebpf4jnsgd1na2vs0mg"},{"bike_id":"cba24cd3-6e1e-4dd0-99db-128429028805","system_id":"levelo_inurba_marseille","lat":43.316354,"lon":5.404465,"is_reserved":false,"is_disabled":false,"rental_uris":{"android":"levelo://app?vid=cba24cd3-6e1e-4dd0-99db-128429028805","ios":"levelo://app?vid=cba24cd3-6e1e-4dd0-99db-128429028805"},"vehicle_type_id":"4","last_reported":1748527834,"current_range_meters":8800,"station_id":"ce4bh012rcd13ifvqd00","pricing_plan_id":"cebpf4jnsgd1na2vs0mg"},{"bike_id":"6d9fa702-19d9-445a-9211-9ed1eb5ea4b9","system_id":"levelo_inurba_marseille","lat":43.28616,"lon":5.3511,"is_reserved":false,"is_disabled":false,"rental_uris":{"android":"levelo://app?vid=6d9fa702-19d9-445a-9211-9ed1eb5ea4b9","ios":"levelo://app?vid=6d9fa702-19d9-445a-9211-9ed1eb5ea4b9"},"vehicle_type_id":"4","last_reported":1748527834,"current_range_meters":8800,"station_id":"ce4bhch2rcd13ifvqeug","pricing_plan_id":"cebpf4jnsgd1na2vs0mg"},{"bike_id":"247a6378-ccc7-40e1-b808-2e69eb1b4d04","system_id":"levelo_inurba_marseille","lat":43.272417,"lon":5.391898,"is_reserved":false,"is_disabled":false,"rental_uris":{"android":"levelo://app?vid=247a6378-ccc7-40e1-b808-2e69eb1b4d04","ios":"levelo://app?vid=247a6378-ccc7-40e1-b808-2e69eb1b4d04"},"vehicle_type_id":"4","last_reported":1748527834,"current_range_meters":8800,"station_id":"","pricing_plan_id":"cebpf4jnsgd1na2vs0mg"},{"bike_id":"8472c6ba-4097-4b01-afcd-c81b98519f37","system_id":"levelo_inurba_marseille","lat":43.24998,"lon":5.38938,"is_reserved":false,"is_disabled":false,"rental_uris":{"android":"levelo://app?vid=8472c6ba-4097-4b01-afcd-c81b98519f37","ios":"levelo://app?vid=8472c6ba-4097-4b01-afcd-c81b98519f37"},"vehicle_type_id":"4","last_reported":1748527834,"current_range_meters":8800,"station_id":"ce4bhgp2rcd13ifvqfd0","pricing_plan_id":"cebpf4jnsgd1na2vs0mg"},{"bike_id":"983b0a35-9ebd-4603-ba28-bdc65476588f","system_id":"levelo_inurba_marseille","lat":43.31482,"lon":5.37309,"is_reserved":false,"is_disabled":false,"rental_uris":{"android":"levelo://app?vid=983b0a35-9ebd-4603-ba28-bdc65476588f","ios":"levelo://app?vid=983b0a35-9ebd-4603-ba28-bdc65476588f"},"vehicle_type_id":"4","last_reported":1748527834,"current_range_meters":8800,"station_id":"ce4bgt12rcd13ifvqcd0","pricing_plan_id":"cebpf4jnsgd1na2vs0mg"},{"bike_id":"7ff37228-6ae9-45f4-b1dd-6c3f3ecb4dfd","system_id":"levelo_inurba_marseille","lat":43.23198,"lon":5.35544,"is_reserved":false,"is_disabled":false,"rental_uris":{"android":"levelo://app?vid=7ff37228-6ae9-45f4-b1dd-6c3f3ecb4dfd","ios":"levelo://app?vid=7ff37228-6ae9-45f4-b1dd-6c3f3ecb4dfd"},"vehicle_type_id":"4","last_reported":1748527834,"current_range_meters":9200,"station_id":"ce4bhu92rcd13ifvqi70","pricing_plan_id":"cebpf4jnsgd1na2vs0mg"},{"bike_id":"a853e1c2-8d75-493a-840b-aaba88d28284","system_id":"levelo_inurba_marseille","lat":43.26192,"lon":5.37469,"is_reserved":false,"is_disabled":false,"rental_uris":{"android":"levelo://app?vid=a853e1c2-8d75-493a-840b-aaba88d28284","ios":"levelo://app?vid=a853e1c2-8d75-493a-840b-aaba88d28284"},"vehicle_type_id":"4","last_reported":1748527834,"current_range_meters":9200,"station_id":"ce4bhgp2rcd13ifvqfc0","pricing_plan_id":"cebpf4jnsgd1na2vs0mg"},{"bike_id":"1d0b9fe6-a279-4f62-9939-3a61d144c376","system_id":"levelo_inurba_marseille","lat":43.26225,"lon":5.40452,"is_reserved":false,"is_disabled":false,"rental_uris":{"android":"levelo://app?vid=1d0b9fe6-a279-4f62-9939-3a61d144c376","ios":"levelo://app?vid=1d0b9fe6-a279-4f62-9939-3a61d144c376"},"vehicle_type_id":"4","last_reported":1748527834,"current_range_meters":9200,"station_id":"ce4bhmh2rcd13ifvqgmg","pricing_plan_id":"cebpf4jnsgd1na2vs0mg"},{"bike_id":"3bb37163-2af3-4942-be75-db9d95d79d26","system_id":"levelo_inurba_marseille","lat":43.23161,"lon":5.437,"is_reserved":false,"is_disabled":false,"rental_uris":{"android":"levelo://app?vid=3bb37163-2af3-4942-be75-db9d95d79d26","ios":"levelo://app?vid=3bb37163-2af3-4942-be75-db9d95d79d26"},"vehicle_type_id":"4","last_reported":1748527834,"current_range_meters":9200,"station_id":"ce4bhmp2rcd13ifvqgog","pricing_plan_id":"cebpf4jnsgd1na2vs0mg"},{"bike_id":"22771043-09b1-43eb-91e0-5c845144e1e3","system_id":"levelo_inurba_marseille","lat":43.27702,"lon":5.40876,"is_reserved":false,"is_disabled":false,"rental_uris":{"android":"levelo://app?vid=22771043-09b1-43eb-91e0-5c845144e1e3","ios":"levelo://app?vid=22771043-09b1-43eb-91e0-5c845144e1e3"},"vehicle_type_id":"4","last_reported":1748527834,"current_range_meters":9200,"station_id":"","pricing_plan_id":"cebpf4jnsgd1na2vs0mg"},{"bike_id":"ede3ce1e-05f8-41ba-a103-34cff4d30823","system_id":"levelo_inurba_marseille","lat":43.262127,"lon":5.37437,"is_reserved":false,"is_disabled":false,"rental_uris":{"android":"levelo://app?vid=ede3ce1e-05f8-41ba-a103-34cff4d30823","ios":"levelo://app?vid=ede3ce1e-05f8-41ba-a103-34cff4d30823"},"vehicle_type_id":"4","last_reported":1748527834,"current_range_meters":9200,"station_id":"ce4bhgp2rcd13ifvqfc0","pricing_plan_id":"cebpf4jnsgd1na2vs0mg"},{"bike_id":"502128a8-3e89-42e2-9786-43608580e312","system_id":"levelo_inurba_marseille","lat":43.27945,"lon":5.41044,"is_reserved":false,"is_disabled":false,"rental_uris":{"android":"levelo://app?vid=502128a8-3e89-42e2-9786-43608580e312","ios":"levelo://app?vid=502128a8-3e89-42e2-9786-43608580e312"},"vehicle_type_id":"4","last_reported":1748527834,"current_range_meters":9200,"station_id":"ce4bhnp2rcd13ifvqh0g","pricing_plan_id":"cebpf4jnsgd1na2vs0mg"},{"bike_id":"82096069-64b7-4fa6-b4a8-82fb0677ee9e","system_id":"levelo_inurba_marseille","lat":43.23958,"lon":5.36645,"is_reserved":false,"is_disabled":false,"rental_uris":{"android":"levelo://app?vid=82096069-64b7-4fa6-b4a8-82fb0677ee9e","ios":"levelo://app?vid=82096069-64b7-4fa6-b4a8-82fb0677ee9e"},"vehicle_type_id":"4","last_reported":1748527834,"current_range_meters":9200,"station_id":"ce4bhi12rcd13ifvqfp0","pricing_plan_id":"cebpf4jnsgd1na2vs0mg"},{"bike_id":"ea65ba25-8345-4b4a-91da-84153fe7877f","system_id":"levelo_inurba_marseille","lat":43.23154,"lon":5.43713,"is_reserved":false,"is_disabled":false,"rental_uris":{"android":"levelo://app?vid=ea65ba25-8345-4b4a-91da-84153fe7877f","ios":"levelo://app?vid=ea65ba25-8345-4b4a-91da-84153fe7877f"},"vehicle_type_id":"4","last_reported":1748527834,"current_range_meters":9200,"station_id":"ce4bhmp2rcd13ifvqgog","pricing_plan_id":"cebpf4jnsgd1na2vs0mg"},{"bike_id":"59c5ae1d-26bc-4678-8124-2acf8c5528d1","system_id":"levelo_inurba_marseille","lat":43.308,"lon":5.43532,"is_reserved":false,"is_disabled":false,"rental_uris":{"android":"levelo://app?vid=59c5ae1d-26bc-4678-8124-2acf8c5528d1","ios":"levelo://app?vid=59c5ae1d-26bc-4678-8124-2acf8c5528d1"},"vehicle_type_id":"4","last_reported":1748527834,"current_range_meters":10000,"station_id":"ce4bhph2rcd13ifvqheg","pricing_plan_id":"cebpf4jnsgd1na2vs0mg"},{"bike_id":"a21be509-bfe6-4b2b-b3db-7c018bbcc587","system_id":"levelo_inurba_marseille","lat":43.30461,"lon":5.37904,"is_reserved":false,"is_disabled":false,"rental_uris":{"android":"levelo://app?vid=a21be509-bfe6-4b2b-b3db-7c018bbcc587","ios":"levelo://app?vid=a21be509-bfe6-4b2b-b3db-7c018bbcc587"},"vehicle_type_id":"4","last_reported":1748527834,"current_range_meters":9600,"station_id":"ce4bgup2rcd13ifvqcn0","pricing_plan_id":"cebpf4jnsgd1na2vs0mg"},{"bike_id":"5b4848c5-8ba8-4962-874c-70ed3d1b9ec3","system_id":"levelo_inurba_marseille","lat":43.23203,"lon":5.35574,"is_reserved":false,"is_disabled":false,"rental_uris":{"android":"levelo://app?vid=5b4848c5-8ba8-4962-874c-70ed3d1b9ec3","ios":"levelo://app?vid=5b4848c5-8ba8-4962-874c-70ed3d1b9ec3"},"vehicle_type_id":"4","last_reported":1748527834,"current_range_meters":9600,"station_id":"ce4bhu92rcd13ifvqi70","pricing_plan_id":"cebpf4jnsgd1na2vs0mg"},{"bike_id":"0919fb58-232e-4ff6-a80e-2b1f2d93d3cf","system_id":"levelo_inurba_marseille","lat":43.2315,"lon":5.43724,"is_reserved":false,"is_disabled":false,"rental_uris":{"android":"levelo://app?vid=0919fb58-232e-4ff6-a80e-2b1f2d93d3cf","ios":"levelo://app?vid=0919fb58-232e-4ff6-a80e-2b1f2d93d3cf"},"vehicle_type_id":"4","last_reported":1748527834,"current_range_meters":9600,"station_id":"ce4bhmp2rcd13ifvqgog","pricing_plan_id":"cebpf4jnsgd1na2vs0mg"},{"bike_id":"af1dc9b2-164b-4021-88df-830111ab755c","system_id":"levelo_inurba_marseille","lat":43.3235,"lon":5.36915,"is_reserved":false,"is_disabled":false,"rental_uris":{"android":"levelo://app?vid=af1dc9b2-164b-4021-88df-830111ab755c","ios":"levelo://app?vid=af1dc9b2-164b-4021-88df-830111ab755c"},"vehicle_type_id":"4","last_reported":1748527834,"current_range_meters":9600,"station_id":"","pricing_plan_id":"cebpf4jnsgd1na2vs0mg"},{"bike_id":"6c9f7391-2266-42a8-a97b-97223893fe92","system_id":"levelo_inurba_marseille","lat":43.30526,"lon":5.36733,"is_reserved":false,"is_disabled":false,"rental_uris":{"android":"levelo://app?vid=6c9f7391-2266-42a8-a97b-97223893fe92","ios":"levelo://app?vid=6c9f7391-2266-42a8-a97b-97223893fe92"},"vehicle_type_id":"4","last_reported":1748527834,"current_range_meters":9600,"station_id":"ce4bgrp2rcd13ifvqc9g","pricing_plan_id":"cebpf4jnsgd1na2vs0mg"},{"bike_id":"85181ff5-9de4-4653-a6f7-39d97240d73b","system_id":"levelo_inurba_marseille","lat":43.30902,"lon":5.39674,"is_reserved":false,"is_disabled":false,"rental_uris":{"android":"levelo://app?vid=85181ff5-9de4-4653-a6f7-39d97240d73b","ios":"levelo://app?vid=85181ff5-9de4-4653-a6f7-39d97240d73b"},"vehicle_type_id":"4","last_reported":1748527834,"current_range_meters":9600,"station_id":"ce4bh012rcd13ifvqcv0","pricing_plan_id":"cebpf4jnsgd1na2vs0mg"},{"bike_id":"24cd34e1-bb74-4352-90f7-805b9231f525","system_id":"levelo_inurba_marseille","lat":43.263765,"lon":5.420095,"is_reserved":false,"is_disabled":false,"rental_uris":{"android":"levelo://app?vid=24cd34e1-bb74-4352-90f7-805b9231f525","ios":"levelo://app?vid=24cd34e1-bb74-4352-90f7-805b9231f525"},"vehicle_type_id":"4","last_reported":1748527834,"current_range_meters":9600,"station_id":"","pricing_plan_id":"cebpf4jnsgd1na2vs0mg"},{"bike_id":"6af3c224-0761-4800-a562-e06feca0d455","system_id":"levelo_inurba_marseille","lat":43.24998,"lon":5.38972,"is_reserved":false,"is_disabled":false,"rental_uris":{"android":"levelo://app?vid=6af3c224-0761-4800-a562-e06feca0d455","ios":"levelo://app?vid=6af3c224-0761-4800-a562-e06feca0d455"},"vehicle_type_id":"4","last_reported":1748527834,"current_range_meters":9600,"station_id":"ce4bhgp2rcd13ifvqfd0","pricing_plan_id":"cebpf4jnsgd1na2vs0mg"},{"bike_id":"1492e3c6-bf8f-4c20-86ad-978d836f6f2c","system_id":"levelo_inurba_marseille","lat":43.23156,"lon":5.43719,"is_reserved":false,"is_disabled":false,"rental_uris":{"android":"levelo://app?vid=1492e3c6-bf8f-4c20-86ad-978d836f6f2c","ios":"levelo://app?vid=1492e3c6-bf8f-4c20-86ad-978d836f6f2c"},"vehicle_type_id":"4","last_reported":1748527834,"current_range_meters":9600,"station_id":"ce4bhmp2rcd13ifvqgog","pricing_plan_id":"cebpf4jnsgd1na2vs0mg"},{"bike_id":"c51516fc-5a53-4e8c-95c5-ac15ee10548e","system_id":"levelo_inurba_marseille","lat":43.255,"lon":5.37634,"is_reserved":false,"is_disabled":false,"rental_uris":{"android":"levelo://app?vid=c51516fc-5a53-4e8c-95c5-ac15ee10548e","ios":"levelo://app?vid=c51516fc-5a53-4e8c-95c5-ac15ee10548e"},"vehicle_type_id":"4","last_reported":1748527834,"current_range_meters":10000,"station_id":"ce4bhh12rcd13ifvqff0","pricing_plan_id":"cebpf4jnsgd1na2vs0mg"},{"bike_id":"f293ba09-4b7e-4261-9c45-5e8e5f6ff81c","system_id":"levelo_inurba_marseille","lat":43.303733,"lon":5.424833,"is_reserved":false,"is_disabled":false,"rental_uris":{"android":"levelo://app?vid=f293ba09-4b7e-4261-9c45-5e8e5f6ff81c","ios":"levelo://app?vid=f293ba09-4b7e-4261-9c45-5e8e5f6ff81c"},"vehicle_type_id":"4","last_reported":1748527834,"current_range_meters":10000,"station_id":"ce4bhoh2rcd13ifvqh6g","pricing_plan_id":"cebpf4jnsgd1na2vs0mg"},{"bike_id":"42b87bdb-7e1f-4f86-88b0-1735afbe2e33","system_id":"levelo_inurba_marseille","lat":43.2894,"lon":5.36396,"is_reserved":false,"is_disabled":false,"rental_uris":{"android":"levelo://app?vid=42b87bdb-7e1f-4f86-88b0-1735afbe2e33","ios":"levelo://app?vid=42b87bdb-7e1f-4f86-88b0-1735afbe2e33"},"vehicle_type_id":"4","last_reported":1748527834,"current_range_meters":10000,"station_id":"ce4bhc92rcd13ifvqetg","pricing_plan_id":"cebpf4jnsgd1na2vs0mg"},{"bike_id":"62a7871b-0845-4b45-b812-5829f3252cc2","system_id":"levelo_inurba_marseille","lat":43.23197,"lon":5.35557,"is_reserved":false,"is_disabled":false,"rental_uris":{"android":"levelo://app?vid=62a7871b-0845-4b45-b812-5829f3252cc2","ios":"levelo://app?vid=62a7871b-0845-4b45-b812-5829f3252cc2"},"vehicle_type_id":"4","last_reported":1748527834,"current_range_meters":10000,"station_id":"ce4bhu92rcd13ifvqi70","pricing_plan_id":"cebpf4jnsgd1na2vs0mg"},{"bike_id":"0ddf143a-b94d-46b5-9d71-2e4b1540432b","system_id":"levelo_inurba_marseille","lat":43.26576,"lon":5.39003,"is_reserved":false,"is_disabled":false,"rental_uris":{"android":"levelo://app?vid=0ddf143a-b94d-46b5-9d71-2e4b1540432b","ios":"levelo://app?vid=0ddf143a-b94d-46b5-9d71-2e4b1540432b"},"vehicle_type_id":"4","last_reported":1748527834,"current_range_meters":10000,"station_id":"ce4bhe12rcd13ifvqf30","pricing_plan_id":"cebpf4jnsgd1na2vs0mg"},{"bike_id":"48553ef7-6022-483a-88ee-097e6c9d7daf","system_id":"levelo_inurba_marseille","lat":43.25502,"lon":5.3767,"is_reserved":false,"is_disabled":false,"rental_uris":{"android":"levelo://app?vid=48553ef7-6022-483a-88ee-097e6c9d7daf","ios":"levelo://app?vid=48553ef7-6022-483a-88ee-097e6c9d7daf"},"vehicle_type_id":"4","last_reported":1748527834,"current_range_meters":10000,"station_id":"ce4bhh12rcd13ifvqff0","pricing_plan_id":"cebpf4jnsgd1na2vs0mg"},{"bike_id":"a828df87-5741-4b66-b47d-1ee3bbf1a098","system_id":"levelo_inurba_marseille","lat":43.25005,"lon":5.38924,"is_reserved":false,"is_disabled":false,"rental_uris":{"android":"levelo://app?vid=a828df87-5741-4b66-b47d-1ee3bbf1a098","ios":"levelo://app?vid=a828df87-5741-4b66-b47d-1ee3bbf1a098"},"vehicle_type_id":"4","last_reported":1748527834,"current_range_meters":9600,"station_id":"ce4bhgp2rcd13ifvqfd0","pricing_plan_id":"cebpf4jnsgd1na2vs0mg"},{"bike_id":"dc009045-7aef-4d17-bcae-67daeb608dc6","system_id":"levelo_inurba_marseille","lat":43.24193,"lon":5.36417,"is_reserved":false,"is_disabled":false,"rental_uris":{"android":"levelo://app?vid=dc009045-7aef-4d17-bcae-67daeb608dc6","ios":"levelo://app?vid=dc009045-7aef-4d17-bcae-67daeb608dc6"},"vehicle_type_id":"4","last_reported":1748527834,"current_range_meters":10000,"station_id":"cpo36qri1sfpv3e86is0","pricing_plan_id":"cebpf4jnsgd1na2vs0mg"},{"bike_id":"9c38f07e-3f64-469b-95a0-8f9b1843fc8e","system_id":"levelo_inurba_marseille","lat":43.23151,"lon":5.43716,"is_reserved":false,"is_disabled":false,"rental_uris":{"android":"levelo://app?vid=9c38f07e-3f64-469b-95a0-8f9b1843fc8e","ios":"levelo://app?vid=9c38f07e-3f64-469b-95a0-8f9b1843fc8e"},"vehicle_type_id":"4","last_reported":1748527834,"current_range_meters":10000,"station_id":"ce4bhmp2rcd13ifvqgog","pricing_plan_id":"cebpf4jnsgd1na2vs0mg"},{"bike_id":"5db87fc7-7d9e-46e2-99c8-821684c057cc","system_id":"levelo_inurba_marseille","lat":43.28269,"lon":5.35063,"is_reserved":false,"is_disabled":false,"rental_uris":{"android":"levelo://app?vid=5db87fc7-7d9e-46e2-99c8-821684c057cc","ios":"levelo://app?vid=5db87fc7-7d9e-46e2-99c8-821684c057cc"},"vehicle_type_id":"4","last_reported":1748527834,"current_range_meters":10800,"station_id":"ce4bhbp2rcd13ifvqerg","pricing_plan_id":"cebpf4jnsgd1na2vs0mg"},{"bike_id":"3ea3ecce-622c-477b-97fb-8c92fdde9e2c","system_id":"levelo_inurba_marseille","lat":43.28618,"lon":5.35105,"is_reserved":false,"is_disabled":false,"rental_uris":{"android":"levelo://app?vid=3ea3ecce-622c-477b-97fb-8c92fdde9e2c","ios":"levelo://app?vid=3ea3ecce-622c-477b-97fb-8c92fdde9e2c"},"vehicle_type_id":"4","last_reported":1748527834,"current_range_meters":10800,"station_id":"ce4bhch2rcd13ifvqeug","pricing_plan_id":"cebpf4jnsgd1na2vs0mg"},{"bike_id":"026568ca-f554-4246-a986-c91a1d706ce7","system_id":"levelo_inurba_marseille","lat":43.30417,"lon":5.41288,"is_reserved":false,"is_disabled":false,"rental_uris":{"android":"levelo://app?vid=026568ca-f554-4246-a986-c91a1d706ce7","ios":"levelo://app?vid=026568ca-f554-4246-a986-c91a1d706ce7"},"vehicle_type_id":"4","last_reported":1748527834,"current_range_meters":10800,"station_id":"ce4bhop2rcd13ifvqh8g","pricing_plan_id":"cebpf4jnsgd1na2vs0mg"},{"bike_id":"4455e2f8-cf09-4078-bce2-5b40e09569e4","system_id":"levelo_inurba_marseille","lat":43.282593,"lon":5.3506,"is_reserved":false,"is_disabled":false,"rental_uris":{"android":"levelo://app?vid=4455e2f8-cf09-4078-bce2-5b40e09569e4","ios":"levelo://app?vid=4455e2f8-cf09-4078-bce2-5b40e09569e4"},"vehicle_type_id":"4","last_reported":1748527834,"current_range_meters":10800,"station_id":"ce4bhbp2rcd13ifvqerg","pricing_plan_id":"cebpf4jnsgd1na2vs0mg"},{"bike_id":"d4128219-6b40-4819-b5ea-147e4151cd34","system_id":"levelo_inurba_marseille","lat":43.28852,"lon":5.35838,"is_reserved":false,"is_disabled":false,"rental_uris":{"android":"levelo://app?vid=d4128219-6b40-4819-b5ea-147e4151cd34","ios":"levelo://app?vid=d4128219-6b40-4819-b5ea-147e4151cd34"},"vehicle_type_id":"4","last_reported":1748527834,"current_range_meters":10800,"station_id":"ce4bhb12rcd13ifvqem0","pricing_plan_id":"cebpf4jnsgd1na2vs0mg"},{"bike_id":"ab3fb841-000b-4600-afe3-0d3bae496fbc","system_id":"levelo_inurba_marseille","lat":43.23138,"lon":5.43711,"is_reserved":false,"is_disabled":false,"rental_uris":{"android":"levelo://app?vid=ab3fb841-000b-4600-afe3-0d3bae496fbc","ios":"levelo://app?vid=ab3fb841-000b-4600-afe3-0d3bae496fbc"},"vehicle_type_id":"4","last_reported":1748527834,"current_range_meters":10800,"station_id":"ce4bhmp2rcd13ifvqgog","pricing_plan_id":"cebpf4jnsgd1na2vs0mg"},{"bike_id":"4f28c650-21f0-48c4-9bf2-d324d32d2ed8","system_id":"levelo_inurba_marseille","lat":43.25502,"lon":5.37644,"is_reserved":false,"is_disabled":false,"rental_uris":{"android":"levelo://app?vid=4f28c650-21f0-48c4-9bf2-d324d32d2ed8","ios":"levelo://app?vid=4f28c650-21f0-48c4-9bf2-d324d32d2ed8"},"vehicle_type_id":"4","last_reported":1748527834,"current_range_meters":10800,"station_id":"ce4bhh12rcd13ifvqff0","pricing_plan_id":"cebpf4jnsgd1na2vs0mg"},{"bike_id":"f85c4e66-410c-4bdd-b72d-b9511fd1a353","system_id":"levelo_inurba_marseille","lat":43.27379,"lon":5.36261,"is_reserved":false,"is_disabled":false,"rental_uris":{"android":"levelo://app?vid=f85c4e66-410c-4bdd-b72d-b9511fd1a353","ios":"levelo://app?vid=f85c4e66-410c-4bdd-b72d-b9511fd1a353"},"vehicle_type_id":"4","last_reported":1748527834,"current_range_meters":11200,"station_id":"ce4bhbh2rcd13ifvqeo0","pricing_plan_id":"cebpf4jnsgd1na2vs0mg"},{"bike_id":"f28793b1-6b2b-4e08-b5dc-2e9e4d4ce0cd","system_id":"levelo_inurba_marseille","lat":43.28264,"lon":5.35064,"is_reserved":false,"is_disabled":false,"rental_uris":{"android":"levelo://app?vid=f28793b1-6b2b-4e08-b5dc-2e9e4d4ce0cd","ios":"levelo://app?vid=f28793b1-6b2b-4e08-b5dc-2e9e4d4ce0cd"},"vehicle_type_id":"4","last_reported":1748527834,"current_range_meters":11200,"station_id":"ce4bhbp2rcd13ifvqerg","pricing_plan_id":"cebpf4jnsgd1na2vs0mg"},{"bike_id":"42dca157-bdb0-4361-8022-7979135f94aa","system_id":"levelo_inurba_marseille","lat":43.28579,"lon":5.36551,"is_reserved":false,"is_disabled":false,"rental_uris":{"android":"levelo://app?vid=42dca157-bdb0-4361-8022-7979135f94aa","ios":"levelo://app?vid=42dca157-bdb0-4361-8022-7979135f94aa"},"vehicle_type_id":"4","last_reported":1748527834,"current_range_meters":11200,"station_id":"","pricing_plan_id":"cebpf4jnsgd1na2vs0mg"},{"bike_id":"7aa283d7-02d1-4ffe-afeb-3b1a9120c104","system_id":"levelo_inurba_marseille","lat":43.25936,"lon":5.40904,"is_reserved":false,"is_disabled":false,"rental_uris":{"android":"levelo://app?vid=7aa283d7-02d1-4ffe-afeb-3b1a9120c104","ios":"levelo://app?vid=7aa283d7-02d1-4ffe-afeb-3b1a9120c104"},"vehicle_type_id":"4","last_reported":1748527834,"current_range_meters":11200,"station_id":"ce4bhm92rcd13ifvqglg","pricing_plan_id":"cebpf4jnsgd1na2vs0mg"},{"bike_id":"2672106b-39ee-4fbe-9abe-7034cca1dc6a","system_id":"levelo_inurba_marseille","lat":43.261972,"lon":5.379315,"is_reserved":false,"is_disabled":false,"rental_uris":{"android":"levelo://app?vid=2672106b-39ee-4fbe-9abe-7034cca1dc6a","ios":"levelo://app?vid=2672106b-39ee-4fbe-9abe-7034cca1dc6a"},"vehicle_type_id":"4","last_reported":1748527834,"current_range_meters":11200,"station_id":"ce4bhjp2rcd13ifvqg90","pricing_plan_id":"cebpf4jnsgd1na2vs0mg"},{"bike_id":"94ab50c5-5ed4-4425-a125-4254018f67e8","system_id":"levelo_inurba_marseille","lat":43.28619,"lon":5.35092,"is_reserved":false,"is_disabled":false,"rental_uris":{"android":"levelo://app?vid=94ab50c5-5ed4-4425-a125-4254018f67e8","ios":"levelo://app?vid=94ab50c5-5ed4-4425-a125-4254018f67e8"},"vehicle_type_id":"4","last_reported":1748527834,"current_range_meters":11200,"station_id":"ce4bhch2rcd13ifvqeug","pricing_plan_id":"cebpf4jnsgd1na2vs0mg"},{"bike_id":"642f6059-de2c-4172-86e3-c25be04d3d2c","system_id":"levelo_inurba_marseille","lat":43.24808,"lon":5.37454,"is_reserved":false,"is_disabled":false,"rental_uris":{"android":"levelo://app?vid=642f6059-de2c-4172-86e3-c25be04d3d2c","ios":"levelo://app?vid=642f6059-de2c-4172-86e3-c25be04d3d2c"},"vehicle_type_id":"4","last_reported":1748527834,"current_range_meters":11200,"station_id":"ce4bhgh2rcd13ifvqfb0","pricing_plan_id":"cebpf4jnsgd1na2vs0mg"},{"bike_id":"ac5f6473-3cd7-4624-b19b-a80b870aaab7","system_id":"levelo_inurba_marseille","lat":43.27381,"lon":5.36257,"is_reserved":false,"is_disabled":false,"rental_uris":{"android":"levelo://app?vid=ac5f6473-3cd7-4624-b19b-a80b870aaab7","ios":"levelo://app?vid=ac5f6473-3cd7-4624-b19b-a80b870aaab7"},"vehicle_type_id":"4","last_reported":1748527834,"current_range_meters":11200,"station_id":"ce4bhbh2rcd13ifvqeo0","pricing_plan_id":"cebpf4jnsgd1na2vs0mg"},{"bike_id":"90f8705c-92bb-4c3e-beea-11c14b43fd01","system_id":"levelo_inurba_marseille","lat":43.29896,"lon":5.43655,"is_reserved":false,"is_disabled":false,"rental_uris":{"android":"levelo://app?vid=90f8705c-92bb-4c3e-beea-11c14b43fd01","ios":"levelo://app?vid=90f8705c-92bb-4c3e-beea-11c14b43fd01"},"vehicle_type_id":"4","last_reported":1748527834,"current_range_meters":11600,"station_id":"ce4bhpp2rcd13ifvqhfg","pricing_plan_id":"cebpf4jnsgd1na2vs0mg"},{"bike_id":"0e009545-9acc-491d-b143-22cbd0096db4","system_id":"levelo_inurba_marseille","lat":43.33809,"lon":5.39259,"is_reserved":false,"is_disabled":false,"rental_uris":{"android":"levelo://app?vid=0e009545-9acc-491d-b143-22cbd0096db4","ios":"levelo://app?vid=0e009545-9acc-491d-b143-22cbd0096db4"},"vehicle_type_id":"4","last_reported":1748527834,"current_range_meters":12000,"station_id":"","pricing_plan_id":"cebpf4jnsgd1na2vs0mg"},{"bike_id":"3b523edd-d384-406b-83c0-d584e89a359d","system_id":"levelo_inurba_marseille","lat":43.23145,"lon":5.437,"is_reserved":false,"is_disabled":false,"rental_uris":{"android":"levelo://app?vid=3b523edd-d384-406b-83c0-d584e89a359d","ios":"levelo://app?vid=3b523edd-d384-406b-83c0-d584e89a359d"},"vehicle_type_id":"4","last_reported":1748527834,"current_range_meters":11600,"station_id":"ce4bhmp2rcd13ifvqgog","pricing_plan_id":"cebpf4jnsgd1na2vs0mg"},{"bike_id":"b181058a-6712-4a5f-b2eb-4e495664113a","system_id":"levelo_inurba_marseille","lat":43.28264,"lon":5.3507,"is_reserved":false,"is_disabled":false,"rental_uris":{"android":"levelo://app?vid=b181058a-6712-4a5f-b2eb-4e495664113a","ios":"levelo://app?vid=b181058a-6712-4a5f-b2eb-4e495664113a"},"vehicle_type_id":"4","last_reported":1748527834,"current_range_meters":11600,"station_id":"ce4bhbp2rcd13ifvqerg","pricing_plan_id":"cebpf4jnsgd1na2vs0mg"},{"bike_id":"93dcde4c-7a82-4724-86dc-31aa98c4d4a2","system_id":"levelo_inurba_marseille","lat":43.28275,"lon":5.3509,"is_reserved":false,"is_disabled":false,"rental_uris":{"android":"levelo://app?vid=93dcde4c-7a82-4724-86dc-31aa98c4d4a2","ios":"levelo://app?vid=93dcde4c-7a82-4724-86dc-31aa98c4d4a2"},"vehicle_type_id":"4","last_reported":1748527834,"current_range_meters":11600,"station_id":"ce4bhbp2rcd13ifvqerg","pricing_plan_id":"cebpf4jnsgd1na2vs0mg"},{"bike_id":"e2f7769d-4694-4754-b55d-951b51b3d57b","system_id":"levelo_inurba_marseille","lat":43.23152,"lon":5.43713,"is_reserved":false,"is_disabled":false,"rental_uris":{"android":"levelo://app?vid=e2f7769d-4694-4754-b55d-951b51b3d57b","ios":"levelo://app?vid=e2f7769d-4694-4754-b55d-951b51b3d57b"},"vehicle_type_id":"4","last_reported":1748527834,"current_range_meters":11600,"station_id":"ce4bhmp2rcd13ifvqgog","pricing_plan_id":"cebpf4jnsgd1na2vs0mg"},{"bike_id":"acf4b2a6-60bf-4a98-b809-40c02702c701","system_id":"levelo_inurba_marseille","lat":43.30423,"lon":5.412968,"is_reserved":false,"is_disabled":false,"rental_uris":{"android":"levelo://app?vid=acf4b2a6-60bf-4a98-b809-40c02702c701","ios":"levelo://app?vid=acf4b2a6-60bf-4a98-b809-40c02702c701"},"vehicle_type_id":"4","last_reported":1748527834,"current_range_meters":11200,"station_id":"ce4bhop2rcd13ifvqh8g","pricing_plan_id":"cebpf4jnsgd1na2vs0mg"},{"bike_id":"1f841896-7f2b-4a31-9d2b-89b12aba1c2b","system_id":"levelo_inurba_marseille","lat":43.28416,"lon":5.34991,"is_reserved":false,"is_disabled":false,"rental_uris":{"android":"levelo://app?vid=1f841896-7f2b-4a31-9d2b-89b12aba1c2b","ios":"levelo://app?vid=1f841896-7f2b-4a31-9d2b-89b12aba1c2b"},"vehicle_type_id":"4","last_reported":1748527834,"current_range_meters":12000,"station_id":"ce4bhbh2rcd13ifvqepg","pricing_plan_id":"cebpf4jnsgd1na2vs0mg"},{"bike_id":"5aecc21e-c201-4d6c-9574-0ed2fedb6de1","system_id":"levelo_inurba_marseille","lat":43.30134,"lon":5.39874,"is_reserved":false,"is_disabled":false,"rental_uris":{"android":"levelo://app?vid=5aecc21e-c201-4d6c-9574-0ed2fedb6de1","ios":"levelo://app?vid=5aecc21e-c201-4d6c-9574-0ed2fedb6de1"},"vehicle_type_id":"4","last_reported":1748527834,"current_range_meters":12000,"station_id":"ce4bh0h2rcd13ifvqd40","pricing_plan_id":"cebpf4jnsgd1na2vs0mg"},{"bike_id":"f347a1b7-e27e-4b3a-a2e1-ca6ab0c17cac","system_id":"levelo_inurba_marseille","lat":43.27372,"lon":5.36249,"is_reserved":false,"is_disabled":false,"rental_uris":{"android":"levelo://app?vid=f347a1b7-e27e-4b3a-a2e1-ca6ab0c17cac","ios":"levelo://app?vid=f347a1b7-e27e-4b3a-a2e1-ca6ab0c17cac"},"vehicle_type_id":"4","last_reported":1748527834,"current_range_meters":12000,"station_id":"ce4bhbh2rcd13ifvqeo0","pricing_plan_id":"cebpf4jnsgd1na2vs0mg"},{"bike_id":"8d8c5fec-11db-456e-8447-a56269dc30da","system_id":"levelo_inurba_marseille","lat":43.29041,"lon":5.35933,"is_reserved":false,"is_disabled":false,"rental_uris":{"android":"levelo://app?vid=8d8c5fec-11db-456e-8447-a56269dc30da","ios":"levelo://app?vid=8d8c5fec-11db-456e-8447-a56269dc30da"},"vehicle_type_id":"4","last_reported":1748527834,"current_range_meters":12000,"station_id":"ce4bha92rcd13ifvqeg0","pricing_plan_id":"cebpf4jnsgd1na2vs0mg"},{"bike_id":"686f8160-a6fa-4fa0-88d6-ae56148ecdd6","system_id":"levelo_inurba_marseille","lat":43.248041,"lon":5.37453,"is_reserved":false,"is_disabled":false,"rental_uris":{"android":"levelo://app?vid=686f8160-a6fa-4fa0-88d6-ae56148ecdd6","ios":"levelo://app?vid=686f8160-a6fa-4fa0-88d6-ae56148ecdd6"},"vehicle_type_id":"4","last_reported":1748527834,"current_range_meters":12000,"station_id":"ce4bhgh2rcd13ifvqfb0","pricing_plan_id":"cebpf4jnsgd1na2vs0mg"},{"bike_id":"7096cd6f-3c31-46cc-95b2-b15171365e78","system_id":"levelo_inurba_marseille","lat":43.30471,"lon":5.37904,"is_reserved":false,"is_disabled":false,"rental_uris":{"android":"levelo://app?vid=7096cd6f-3c31-46cc-95b2-b15171365e78","ios":"levelo://app?vid=7096cd6f-3c31-46cc-95b2-b15171365e78"},"vehicle_type_id":"4","last_reported":1748527834,"current_range_meters":11600,"station_id":"ce4bgup2rcd13ifvqcn0","pricing_plan_id":"cebpf4jnsgd1na2vs0mg"},{"bike_id":"4b512bb3-bd41-4ef3-862f-c5a79ad17f1a","system_id":"levelo_inurba_marseille","lat":43.25492,"lon":5.37652,"is_reserved":false,"is_disabled":false,"rental_uris":{"android":"levelo://app?vid=4b512bb3-bd41-4ef3-862f-c5a79ad17f1a","ios":"levelo://app?vid=4b512bb3-bd41-4ef3-862f-c5a79ad17f1a"},"vehicle_type_id":"4","last_reported":1748527834,"current_range_meters":12000,"station_id":"ce4bhh12rcd13ifvqff0","pricing_plan_id":"cebpf4jnsgd1na2vs0mg"},{"bike_id":"c29f4392-81e7-4634-b67e-caaf40d30cb2","system_id":"levelo_inurba_marseille","lat":43.23195,"lon":5.35551,"is_reserved":false,"is_disabled":false,"rental_uris":{"android":"levelo://app?vid=c29f4392-81e7-4634-b67e-caaf40d30cb2","ios":"levelo://app?vid=c29f4392-81e7-4634-b67e-caaf40d30cb2"},"vehicle_type_id":"4","last_reported":1748527834,"current_range_meters":12400,"station_id":"ce4bhu92rcd13ifvqi70","pricing_plan_id":"cebpf4jnsgd1na2vs0mg"},{"bike_id":"a426f99b-d34a-41bf-bbda-59f7dfd6939b","system_id":"levelo_inurba_marseille","lat":43.255796,"lon":5.382262,"is_reserved":false,"is_disabled":false,"rental_uris":{"android":"levelo://app?vid=a426f99b-d34a-41bf-bbda-59f7dfd6939b","ios":"levelo://app?vid=a426f99b-d34a-41bf-bbda-59f7dfd6939b"},"vehicle_type_id":"4","last_reported":1748527834,"current_range_meters":12800,"station_id":"ce501612rcd8frsf0b60","pricing_plan_id":"cebpf4jnsgd1na2vs0mg"},{"bike_id":"c7b93978-a078-4e21-b827-6cb18fcdb3a4","system_id":"levelo_inurba_marseille","lat":43.28415,"lon":5.34975,"is_reserved":false,"is_disabled":false,"rental_uris":{"android":"levelo://app?vid=c7b93978-a078-4e21-b827-6cb18fcdb3a4","ios":"levelo://app?vid=c7b93978-a078-4e21-b827-6cb18fcdb3a4"},"vehicle_type_id":"4","last_reported":1748527834,"current_range_meters":12800,"station_id":"ce4bhbh2rcd13ifvqepg","pricing_plan_id":"cebpf4jnsgd1na2vs0mg"},{"bike_id":"48e26ea8-1795-4299-a1c4-724bbc46d8d5","system_id":"levelo_inurba_marseille","lat":43.2893,"lon":5.366513,"is_reserved":false,"is_disabled":false,"rental_uris":{"android":"levelo://app?vid=48e26ea8-1795-4299-a1c4-724bbc46d8d5","ios":"levelo://app?vid=48e26ea8-1795-4299-a1c4-724bbc46d8d5"},"vehicle_type_id":"4","last_reported":1748527834,"current_range_meters":12800,"station_id":"ce4bhap2rcd13ifvqek0","pricing_plan_id":"cebpf4jnsgd1na2vs0mg"},{"bike_id":"c8e3e8d4-2760-439c-b028-b56f52c7347e","system_id":"levelo_inurba_marseille","lat":43.21224,"lon":5.35079,"is_reserved":false,"is_disabled":false,"rental_uris":{"android":"levelo://app?vid=c8e3e8d4-2760-439c-b028-b56f52c7347e","ios":"levelo://app?vid=c8e3e8d4-2760-439c-b028-b56f52c7347e"},"vehicle_type_id":"4","last_reported":1748527834,"current_range_meters":12800,"station_id":"st_cvj6sg6p6f1abm77japg","pricing_plan_id":"cebpf4jnsgd1na2vs0mg"},{"bike_id":"5f411f71-41f3-487d-aced-b1365ad0f0d9","system_id":"levelo_inurba_marseille","lat":43.21754,"lon":5.34606,"is_reserved":false,"is_disabled":false,"rental_uris":{"android":"levelo://app?vid=5f411f71-41f3-487d-aced-b1365ad0f0d9","ios":"levelo://app?vid=5f411f71-41f3-487d-aced-b1365ad0f0d9"},"vehicle_type_id":"4","last_reported":1748527834,"current_range_meters":12800,"station_id":"","pricing_plan_id":"cebpf4jnsgd1na2vs0mg"},{"bike_id":"f4ce79f6-76fa-481a-80ef-493b162f9b09","system_id":"levelo_inurba_marseille","lat":43.282657,"lon":5.350691,"is_reserved":false,"is_disabled":false,"rental_uris":{"android":"levelo://app?vid=f4ce79f6-76fa-481a-80ef-493b162f9b09","ios":"levelo://app?vid=f4ce79f6-76fa-481a-80ef-493b162f9b09"},"vehicle_type_id":"4","last_reported":1748527834,"current_range_meters":12800,"station_id":"ce4bhbp2rcd13ifvqerg","pricing_plan_id":"cebpf4jnsgd1na2vs0mg"},{"bike_id":"fd3c611e-388a-4963-8796-70ce94fac7bc","system_id":"levelo_inurba_marseille","lat":43.2904,"lon":5.35918,"is_reserved":false,"is_disabled":false,"rental_uris":{"android":"levelo://app?vid=fd3c611e-388a-4963-8796-70ce94fac7bc","ios":"levelo://app?vid=fd3c611e-388a-4963-8796-70ce94fac7bc"},"vehicle_type_id":"4","last_reported":1748527834,"current_range_meters":12800,"station_id":"ce4bha92rcd13ifvqeg0","pricing_plan_id":"cebpf4jnsgd1na2vs0mg"},{"bike_id":"243329ec-61f4-47d0-ac7f-0dbb82dc38af","system_id":"levelo_inurba_marseille","lat":43.26043,"lon":5.37557,"is_reserved":false,"is_disabled":false,"rental_uris":{"android":"levelo://app?vid=243329ec-61f4-47d0-ac7f-0dbb82dc38af","ios":"levelo://app?vid=243329ec-61f4-47d0-ac7f-0dbb82dc38af"},"vehicle_type_id":"4","last_reported":1748527834,"current_range_meters":12800,"station_id":"ce4bhgh2rcd13ifvqfa0","pricing_plan_id":"cebpf4jnsgd1na2vs0mg"},{"bike_id":"d83bc391-0718-49ae-9b9b-2595c3b5c7eb","system_id":"levelo_inurba_marseille","lat":43.26217,"lon":5.37438,"is_reserved":false,"is_disabled":false,"rental_uris":{"android":"levelo://app?vid=d83bc391-0718-49ae-9b9b-2595c3b5c7eb","ios":"levelo://app?vid=d83bc391-0718-49ae-9b9b-2595c3b5c7eb"},"vehicle_type_id":"4","last_reported":1748527834,"current_range_meters":12800,"station_id":"ce4bhgp2rcd13ifvqfc0","pricing_plan_id":"cebpf4jnsgd1na2vs0mg"},{"bike_id":"e8752688-a20d-44e7-8ff4-7ee1798987b2","system_id":"levelo_inurba_marseille","lat":43.24393,"lon":5.37068,"is_reserved":false,"is_disabled":false,"rental_uris":{"android":"levelo://app?vid=e8752688-a20d-44e7-8ff4-7ee1798987b2","ios":"levelo://app?vid=e8752688-a20d-44e7-8ff4-7ee1798987b2"},"vehicle_type_id":"4","last_reported":1748527834,"current_range_meters":12800,"station_id":"ce4bhhh2rcd13ifvqfk0","pricing_plan_id":"cebpf4jnsgd1na2vs0mg"},{"bike_id":"bcb2d9a9-133e-44ad-af7d-7eed5bc448c6","system_id":"levelo_inurba_marseille","lat":43.28419,"lon":5.3498,"is_reserved":false,"is_disabled":false,"rental_uris":{"android":"levelo://app?vid=bcb2d9a9-133e-44ad-af7d-7eed5bc448c6","ios":"levelo://app?vid=bcb2d9a9-133e-44ad-af7d-7eed5bc448c6"},"vehicle_type_id":"4","last_reported":1748527834,"current_range_meters":12800,"station_id":"ce4bhbh2rcd13ifvqepg","pricing_plan_id":"cebpf4jnsgd1na2vs0mg"},{"bike_id":"541d2f0a-b5f7-4ef1-8894-52b2843bac73","system_id":"levelo_inurba_marseille","lat":43.26205,"lon":5.37456,"is_reserved":false,"is_disabled":false,"rental_uris":{"android":"levelo://app?vid=541d2f0a-b5f7-4ef1-8894-52b2843bac73","ios":"levelo://app?vid=541d2f0a-b5f7-4ef1-8894-52b2843bac73"},"vehicle_type_id":"4","last_reported":1748527834,"current_range_meters":12800,"station_id":"ce4bhgp2rcd13ifvqfc0","pricing_plan_id":"cebpf4jnsgd1na2vs0mg"},{"bike_id":"5a640631-01a7-467b-b52f-e460979e92af","system_id":"levelo_inurba_marseille","lat":43.24392,"lon":5.37122,"is_reserved":false,"is_disabled":false,"rental_uris":{"android":"levelo://app?vid=5a640631-01a7-467b-b52f-e460979e92af","ios":"levelo://app?vid=5a640631-01a7-467b-b52f-e460979e92af"},"vehicle_type_id":"4","last_reported":1748527834,"current_range_meters":12800,"station_id":"ce4bhhh2rcd13ifvqfk0","pricing_plan_id":"cebpf4jnsgd1na2vs0mg"},{"bike_id":"4090e617-0442-40aa-8118-910282b48710","system_id":"levelo_inurba_marseille","lat":43.28274,"lon":5.35065,"is_reserved":false,"is_disabled":false,"rental_uris":{"android":"levelo://app?vid=4090e617-0442-40aa-8118-910282b48710","ios":"levelo://app?vid=4090e617-0442-40aa-8118-910282b48710"},"vehicle_type_id":"4","last_reported":1748527834,"current_range_meters":13600,"station_id":"ce4bhbp2rcd13ifvqerg","pricing_plan_id":"cebpf4jnsgd1na2vs0mg"},{"bike_id":"a225a460-3f96-4a73-a6be-5a656bdf63c0","system_id":"levelo_inurba_marseille","lat":43.282684,"lon":5.350709,"is_reserved":false,"is_disabled":false,"rental_uris":{"android":"levelo://app?vid=a225a460-3f96-4a73-a6be-5a656bdf63c0","ios":"levelo://app?vid=a225a460-3f96-4a73-a6be-5a656bdf63c0"},"vehicle_type_id":"4","last_reported":1748527834,"current_range_meters":13600,"station_id":"","pricing_plan_id":"cebpf4jnsgd1na2vs0mg"},{"bike_id":"d10d29f7-70e6-4be8-bfb3-1f95c76520b4","system_id":"levelo_inurba_marseille","lat":43.24166,"lon":5.364013,"is_reserved":false,"is_disabled":false,"rental_uris":{"android":"levelo://app?vid=d10d29f7-70e6-4be8-bfb3-1f95c76520b4","ios":"levelo://app?vid=d10d29f7-70e6-4be8-bfb3-1f95c76520b4"},"vehicle_type_id":"4","last_reported":1748527834,"current_range_meters":13600,"station_id":"cpo36qri1sfpv3e86is0","pricing_plan_id":"cebpf4jnsgd1na2vs0mg"},{"bike_id":"f5733814-9732-4748-bcc9-3b2fac8e1564","system_id":"levelo_inurba_marseille","lat":43.31256,"lon":5.37829,"is_reserved":false,"is_disabled":false,"rental_uris":{"android":"levelo://app?vid=f5733814-9732-4748-bcc9-3b2fac8e1564","ios":"levelo://app?vid=f5733814-9732-4748-bcc9-3b2fac8e1564"},"vehicle_type_id":"4","last_reported":1748527834,"current_range_meters":13600,"station_id":"","pricing_plan_id":"cebpf4jnsgd1na2vs0mg"},{"bike_id":"d0042c0d-9598-4fc5-a592-644db6188b6b","system_id":"levelo_inurba_marseille","lat":43.26958,"lon":5.3864,"is_reserved":false,"is_disabled":false,"rental_uris":{"android":"levelo://app?vid=d0042c0d-9598-4fc5-a592-644db6188b6b","ios":"levelo://app?vid=d0042c0d-9598-4fc5-a592-644db6188b6b"},"vehicle_type_id":"4","last_reported":1748527834,"current_range_meters":14000,"station_id":"ce4bhh92rcd13ifvqfh0","pricing_plan_id":"cebpf4jnsgd1na2vs0mg"},{"bike_id":"7f9625fb-a2e6-409e-b394-6277c0d3b326","system_id":"levelo_inurba_marseille","lat":43.26212,"lon":5.37461,"is_reserved":false,"is_disabled":false,"rental_uris":{"android":"levelo://app?vid=7f9625fb-a2e6-409e-b394-6277c0d3b326","ios":"levelo://app?vid=7f9625fb-a2e6-409e-b394-6277c0d3b326"},"vehicle_type_id":"4","last_reported":1748527834,"current_range_meters":14000,"station_id":"ce4bhgp2rcd13ifvqfc0","pricing_plan_id":"cebpf4jnsgd1na2vs0mg"},{"bike_id":"52d5fac3-b8b2-412f-9940-ac0c06f6478f","system_id":"levelo_inurba_marseille","lat":43.2963,"lon":5.40604,"is_reserved":false,"is_disabled":false,"rental_uris":{"android":"levelo://app?vid=52d5fac3-b8b2-412f-9940-ac0c06f6478f","ios":"levelo://app?vid=52d5fac3-b8b2-412f-9940-ac0c06f6478f"},"vehicle_type_id":"4","last_reported":1748527834,"current_range_meters":14000,"station_id":"","pricing_plan_id":"cebpf4jnsgd1na2vs0mg"},{"bike_id":"e9cda520-c6f4-465d-ad7f-8c059b3dc45a","system_id":"levelo_inurba_marseille","lat":43.313967,"lon":5.383993,"is_reserved":false,"is_disabled":false,"rental_uris":{"android":"levelo://app?vid=e9cda520-c6f4-465d-ad7f-8c059b3dc45a","ios":"levelo://app?vid=e9cda520-c6f4-465d-ad7f-8c059b3dc45a"},"vehicle_type_id":"4","last_reported":1748527834,"current_range_meters":14000,"station_id":"","pricing_plan_id":"cebpf4jnsgd1na2vs0mg"},{"bike_id":"f96d3350-c5bf-4b21-add4-93ecfdb5e9e5","system_id":"levelo_inurba_marseille","lat":43.2649,"lon":5.37399,"is_reserved":false,"is_disabled":false,"rental_uris":{"android":"levelo://app?vid=f96d3350-c5bf-4b21-add4-93ecfdb5e9e5","ios":"levelo://app?vid=f96d3350-c5bf-4b21-add4-93ecfdb5e9e5"},"vehicle_type_id":"4","last_reported":1748527834,"current_range_meters":14000,"station_id":"ce4bhg12rcd13ifvqf70","pricing_plan_id":"cebpf4jnsgd1na2vs0mg"},{"bike_id":"cd018a14-e83d-4d40-ac42-b66ab9d8e9cc","system_id":"levelo_inurba_marseille","lat":43.22491,"lon":5.3478,"is_reserved":false,"is_disabled":false,"rental_uris":{"android":"levelo://app?vid=cd018a14-e83d-4d40-ac42-b66ab9d8e9cc","ios":"levelo://app?vid=cd018a14-e83d-4d40-ac42-b66ab9d8e9cc"},"vehicle_type_id":"4","last_reported":1748527834,"current_range_meters":14400,"station_id":"","pricing_plan_id":"cebpf4jnsgd1na2vs0mg"},{"bike_id":"a6fcf92d-b48a-43bd-9f22-a886d75832d6","system_id":"levelo_inurba_marseille","lat":43.245636,"lon":5.380452,"is_reserved":false,"is_disabled":false,"rental_uris":{"android":"levelo://app?vid=a6fcf92d-b48a-43bd-9f22-a886d75832d6","ios":"levelo://app?vid=a6fcf92d-b48a-43bd-9f22-a886d75832d6"},"vehicle_type_id":"4","last_reported":1748527834,"current_range_meters":10000,"station_id":"ce4bhm12rcd13ifvqgkg","pricing_plan_id":"cebpf4jnsgd1na2vs0mg"},{"bike_id":"59e6687b-b34d-4e97-ad31-63f476b7d586","system_id":"levelo_inurba_marseille","lat":43.24191,"lon":5.39733,"is_reserved":false,"is_disabled":false,"rental_uris":{"android":"levelo://app?vid=59e6687b-b34d-4e97-ad31-63f476b7d586","ios":"levelo://app?vid=59e6687b-b34d-4e97-ad31-63f476b7d586"},"vehicle_type_id":"4","last_reported":1748527834,"current_range_meters":14400,"station_id":"ce4bhn12rcd13ifvqgpg","pricing_plan_id":"cebpf4jnsgd1na2vs0mg"},{"bike_id":"a75866c0-48e6-48f4-a969-8e359a7341e9","system_id":"levelo_inurba_marseille","lat":43.26206,"lon":5.37494,"is_reserved":false,"is_disabled":false,"rental_uris":{"android":"levelo://app?vid=a75866c0-48e6-48f4-a969-8e359a7341e9","ios":"levelo://app?vid=a75866c0-48e6-48f4-a969-8e359a7341e9"},"vehicle_type_id":"4","last_reported":1748527834,"current_range_meters":14400,"station_id":"ce4bhgp2rcd13ifvqfc0","pricing_plan_id":"cebpf4jnsgd1na2vs0mg"},{"bike_id":"5739080f-5047-4267-a709-c7c06117874b","system_id":"levelo_inurba_marseille","lat":43.28461,"lon":5.35885,"is_reserved":false,"is_disabled":false,"rental_uris":{"android":"levelo://app?vid=5739080f-5047-4267-a709-c7c06117874b","ios":"levelo://app?vid=5739080f-5047-4267-a709-c7c06117874b"},"vehicle_type_id":"4","last_reported":1748527834,"current_range_meters":14400,"station_id":"ce4bhah2rcd13ifvqei0","pricing_plan_id":"cebpf4jnsgd1na2vs0mg"},{"bike_id":"d453b4cb-9fdc-4dc7-99be-69b01faef401","system_id":"levelo_inurba_marseille","lat":43.25108,"lon":5.40348,"is_reserved":false,"is_disabled":false,"rental_uris":{"android":"levelo://app?vid=d453b4cb-9fdc-4dc7-99be-69b01faef401","ios":"levelo://app?vid=d453b4cb-9fdc-4dc7-99be-69b01faef401"},"vehicle_type_id":"4","last_reported":1748527834,"current_range_meters":14400,"station_id":"ce4bhlh2rcd13ifvqgig","pricing_plan_id":"cebpf4jnsgd1na2vs0mg"},{"bike_id":"559fd09b-6e52-41cf-b97f-3f535b5c49c0","system_id":"levelo_inurba_marseille","lat":43.24381,"lon":5.37042,"is_reserved":false,"is_disabled":false,"rental_uris":{"android":"levelo://app?vid=559fd09b-6e52-41cf-b97f-3f535b5c49c0","ios":"levelo://app?vid=559fd09b-6e52-41cf-b97f-3f535b5c49c0"},"vehicle_type_id":"4","last_reported":1748527834,"current_range_meters":14400,"station_id":"ce4bhhh2rcd13ifvqfk0","pricing_plan_id":"cebpf4jnsgd1na2vs0mg"},{"bike_id":"ac499457-474d-4723-bb2a-b7ce4fea36dc","system_id":"levelo_inurba_marseille","lat":43.2655,"lon":5.37295,"is_reserved":false,"is_disabled":false,"rental_uris":{"android":"levelo://app?vid=ac499457-474d-4723-bb2a-b7ce4fea36dc","ios":"levelo://app?vid=ac499457-474d-4723-bb2a-b7ce4fea36dc"},"vehicle_type_id":"4","last_reported":1748527834,"current_range_meters":14400,"station_id":"ce4bhg12rcd13ifvqf70","pricing_plan_id":"cebpf4jnsgd1na2vs0mg"},{"bike_id":"b195202c-4c84-4e87-a531-86c5c29c67d7","system_id":"levelo_inurba_marseille","lat":43.28036,"lon":5.36941,"is_reserved":false,"is_disabled":false,"rental_uris":{"android":"levelo://app?vid=b195202c-4c84-4e87-a531-86c5c29c67d7","ios":"levelo://app?vid=b195202c-4c84-4e87-a531-86c5c29c67d7"},"vehicle_type_id":"4","last_reported":1748527834,"current_range_meters":14400,"station_id":"ce4bha12rcd13ifvqef0","pricing_plan_id":"cebpf4jnsgd1na2vs0mg"},{"bike_id":"bcb5f74e-9dd0-4985-b414-732f19015f6a","system_id":"levelo_inurba_marseille","lat":43.28415,"lon":5.35003,"is_reserved":false,"is_disabled":false,"rental_uris":{"android":"levelo://app?vid=bcb5f74e-9dd0-4985-b414-732f19015f6a","ios":"levelo://app?vid=bcb5f74e-9dd0-4985-b414-732f19015f6a"},"vehicle_type_id":"4","last_reported":1748527834,"current_range_meters":14400,"station_id":"ce4bhbh2rcd13ifvqepg","pricing_plan_id":"cebpf4jnsgd1na2vs0mg"},{"bike_id":"9a4c61ca-d6b9-4794-a6e5-000625ab06f5","system_id":"levelo_inurba_marseille","lat":43.28266,"lon":5.35079,"is_reserved":false,"is_disabled":false,"rental_uris":{"android":"levelo://app?vid=9a4c61ca-d6b9-4794-a6e5-000625ab06f5","ios":"levelo://app?vid=9a4c61ca-d6b9-4794-a6e5-000625ab06f5"},"vehicle_type_id":"4","last_reported":1748527834,"current_range_meters":14800,"station_id":"ce4bhbp2rcd13ifvqerg","pricing_plan_id":"cebpf4jnsgd1na2vs0mg"},{"bike_id":"d7c15566-5f9d-47ca-8b50-5fd29416f2af","system_id":"levelo_inurba_marseille","lat":43.241695,"lon":5.363972,"is_reserved":false,"is_disabled":false,"rental_uris":{"android":"levelo://app?vid=d7c15566-5f9d-47ca-8b50-5fd29416f2af","ios":"levelo://app?vid=d7c15566-5f9d-47ca-8b50-5fd29416f2af"},"vehicle_type_id":"4","last_reported":1748527834,"current_range_meters":14800,"station_id":"","pricing_plan_id":"cebpf4jnsgd1na2vs0mg"},{"bike_id":"329472c4-d4c8-4263-9582-53e6e2a439ef","system_id":"levelo_inurba_marseille","lat":43.23191,"lon":5.35035,"is_reserved":false,"is_disabled":false,"rental_uris":{"android":"levelo://app?vid=329472c4-d4c8-4263-9582-53e6e2a439ef","ios":"levelo://app?vid=329472c4-d4c8-4263-9582-53e6e2a439ef"},"vehicle_type_id":"4","last_reported":1748527834,"current_range_meters":14800,"station_id":"","pricing_plan_id":"cebpf4jnsgd1na2vs0mg"},{"bike_id":"7fd5dbd7-7d12-42d8-9434-2fcb8eaa7c1c","system_id":"levelo_inurba_marseille","lat":43.28867,"lon":5.35857,"is_reserved":false,"is_disabled":false,"rental_uris":{"android":"levelo://app?vid=7fd5dbd7-7d12-42d8-9434-2fcb8eaa7c1c","ios":"levelo://app?vid=7fd5dbd7-7d12-42d8-9434-2fcb8eaa7c1c"},"vehicle_type_id":"4","last_reported":1748527834,"current_range_meters":14800,"station_id":"ce4bhb12rcd13ifvqem0","pricing_plan_id":"cebpf4jnsgd1na2vs0mg"},{"bike_id":"517c5907-c92e-4b88-8b70-46e89413c8c5","system_id":"levelo_inurba_marseille","lat":43.23168,"lon":5.43713,"is_reserved":false,"is_disabled":false,"rental_uris":{"android":"levelo://app?vid=517c5907-c92e-4b88-8b70-46e89413c8c5","ios":"levelo://app?vid=517c5907-c92e-4b88-8b70-46e89413c8c5"},"vehicle_type_id":"4","last_reported":1748527834,"current_range_meters":15200,"station_id":"ce4bhmp2rcd13ifvqgog","pricing_plan_id":"cebpf4jnsgd1na2vs0mg"},{"bike_id":"747224c9-7e52-4c58-9390-d943c4f5446c","system_id":"levelo_inurba_marseille","lat":43.27173,"lon":5.41014,"is_reserved":false,"is_disabled":false,"rental_uris":{"android":"levelo://app?vid=747224c9-7e52-4c58-9390-d943c4f5446c","ios":"levelo://app?vid=747224c9-7e52-4c58-9390-d943c4f5446c"},"vehicle_type_id":"4","last_reported":1748527834,"current_range_meters":15200,"station_id":"ce4bhl12rcd13ifvqgf0","pricing_plan_id":"cebpf4jnsgd1na2vs0mg"},{"bike_id":"06b7229a-a441-4a21-8a18-787b633469a3","system_id":"levelo_inurba_marseille","lat":43.25001,"lon":5.38928,"is_reserved":false,"is_disabled":false,"rental_uris":{"android":"levelo://app?vid=06b7229a-a441-4a21-8a18-787b633469a3","ios":"levelo://app?vid=06b7229a-a441-4a21-8a18-787b633469a3"},"vehicle_type_id":"4","last_reported":1748527834,"current_range_meters":15200,"station_id":"ce4bhgp2rcd13ifvqfd0","pricing_plan_id":"cebpf4jnsgd1na2vs0mg"},{"bike_id":"8d8c770f-ecb6-4fb4-a771-7d258681a7fc","system_id":"levelo_inurba_marseille","lat":43.231966,"lon":5.355521,"is_reserved":false,"is_disabled":false,"rental_uris":{"android":"levelo://app?vid=8d8c770f-ecb6-4fb4-a771-7d258681a7fc","ios":"levelo://app?vid=8d8c770f-ecb6-4fb4-a771-7d258681a7fc"},"vehicle_type_id":"4","last_reported":1748527834,"current_range_meters":15200,"station_id":"ce4bhu92rcd13ifvqi70","pricing_plan_id":"cebpf4jnsgd1na2vs0mg"},{"bike_id":"ff5c5666-0f13-43a8-9e08-66f0ad7ecaa3","system_id":"levelo_inurba_marseille","lat":43.29418,"lon":5.38645,"is_reserved":false,"is_disabled":false,"rental_uris":{"android":"levelo://app?vid=ff5c5666-0f13-43a8-9e08-66f0ad7ecaa3","ios":"levelo://app?vid=ff5c5666-0f13-43a8-9e08-66f0ad7ecaa3"},"vehicle_type_id":"4","last_reported":1748527834,"current_range_meters":16000,"station_id":"ce4bh2h2rcd13ifvqdh0","pricing_plan_id":"cebpf4jnsgd1na2vs0mg"},{"bike_id":"cc09afa2-a4a5-4b3b-bee8-137fc8b6e944","system_id":"levelo_inurba_marseille","lat":43.22506,"lon":5.34785,"is_reserved":false,"is_disabled":false,"rental_uris":{"android":"levelo://app?vid=cc09afa2-a4a5-4b3b-bee8-137fc8b6e944","ios":"levelo://app?vid=cc09afa2-a4a5-4b3b-bee8-137fc8b6e944"},"vehicle_type_id":"4","last_reported":1748527834,"current_range_meters":16000,"station_id":"","pricing_plan_id":"cebpf4jnsgd1na2vs0mg"},{"bike_id":"6b77d8e2-6914-4f74-b37c-4eb29bd3731c","system_id":"levelo_inurba_marseille","lat":43.259588,"lon":5.408948,"is_reserved":false,"is_disabled":false,"rental_uris":{"android":"levelo://app?vid=6b77d8e2-6914-4f74-b37c-4eb29bd3731c","ios":"levelo://app?vid=6b77d8e2-6914-4f74-b37c-4eb29bd3731c"},"vehicle_type_id":"4","last_reported":1748527834,"current_range_meters":16000,"station_id":"ce4bhm92rcd13ifvqglg","pricing_plan_id":"cebpf4jnsgd1na2vs0mg"},{"bike_id":"c30c17d7-d533-4f44-b174-06654fb93b39","system_id":"levelo_inurba_marseille","lat":43.25824,"lon":5.39431,"is_reserved":false,"is_disabled":false,"rental_uris":{"android":"levelo://app?vid=c30c17d7-d533-4f44-b174-06654fb93b39","ios":"levelo://app?vid=c30c17d7-d533-4f44-b174-06654fb93b39"},"vehicle_type_id":"4","last_reported":1748527834,"current_range_meters":16000,"station_id":"ce4bhip2rcd13ifvqft0","pricing_plan_id":"cebpf4jnsgd1na2vs0mg"},{"bike_id":"f61b7f73-84e3-4805-a73d-0334d49a8a59","system_id":"levelo_inurba_marseille","lat":43.23193,"lon":5.40011,"is_reserved":false,"is_disabled":false,"rental_uris":{"android":"levelo://app?vid=f61b7f73-84e3-4805-a73d-0334d49a8a59","ios":"levelo://app?vid=f61b7f73-84e3-4805-a73d-0334d49a8a59"},"vehicle_type_id":"4","last_reported":1748527834,"current_range_meters":16000,"station_id":"ce4bhn12rcd13ifvqgqg","pricing_plan_id":"cebpf4jnsgd1na2vs0mg"},{"bike_id":"0ec33410-e383-40cb-ac1a-7855b23750ae","system_id":"levelo_inurba_marseille","lat":43.28464,"lon":5.35891,"is_reserved":false,"is_disabled":false,"rental_uris":{"android":"levelo://app?vid=0ec33410-e383-40cb-ac1a-7855b23750ae","ios":"levelo://app?vid=0ec33410-e383-40cb-ac1a-7855b23750ae"},"vehicle_type_id":"4","last_reported":1748527834,"current_range_meters":16000,"station_id":"ce4bhah2rcd13ifvqei0","pricing_plan_id":"cebpf4jnsgd1na2vs0mg"},{"bike_id":"98bf983f-c073-4776-b5a1-9e337ad01995","system_id":"levelo_inurba_marseille","lat":43.2827,"lon":5.35081,"is_reserved":false,"is_disabled":false,"rental_uris":{"android":"levelo://app?vid=98bf983f-c073-4776-b5a1-9e337ad01995","ios":"levelo://app?vid=98bf983f-c073-4776-b5a1-9e337ad01995"},"vehicle_type_id":"4","last_reported":1748527834,"current_range_meters":16000,"station_id":"ce4bhbp2rcd13ifvqerg","pricing_plan_id":"cebpf4jnsgd1na2vs0mg"},{"bike_id":"279aef9d-8440-405f-8556-f4e33a7ce61e","system_id":"levelo_inurba_marseille","lat":43.28419,"lon":5.34979,"is_reserved":false,"is_disabled":false,"rental_uris":{"android":"levelo://app?vid=279aef9d-8440-405f-8556-f4e33a7ce61e","ios":"levelo://app?vid=279aef9d-8440-405f-8556-f4e33a7ce61e"},"vehicle_type_id":"4","last_reported":1748527834,"current_range_meters":16000,"station_id":"ce4bhbh2rcd13ifvqepg","pricing_plan_id":"cebpf4jnsgd1na2vs0mg"},{"bike_id":"0eede3ed-34fe-4ea3-acda-0122138310c0","system_id":"levelo_inurba_marseille","lat":43.28917,"lon":5.3638,"is_reserved":false,"is_disabled":false,"rental_uris":{"android":"levelo://app?vid=0eede3ed-34fe-4ea3-acda-0122138310c0","ios":"levelo://app?vid=0eede3ed-34fe-4ea3-acda-0122138310c0"},"vehicle_type_id":"4","last_reported":1748527834,"current_range_meters":16000,"station_id":"ce4bhc92rcd13ifvqetg","pricing_plan_id":"cebpf4jnsgd1na2vs0mg"},{"bike_id":"caac217f-7292-4c57-bfce-76d9beeb04c4","system_id":"levelo_inurba_marseille","lat":43.255127,"lon":5.37675,"is_reserved":false,"is_disabled":false,"rental_uris":{"android":"levelo://app?vid=caac217f-7292-4c57-bfce-76d9beeb04c4","ios":"levelo://app?vid=caac217f-7292-4c57-bfce-76d9beeb04c4"},"vehicle_type_id":"4","last_reported":1748527834,"current_range_meters":16000,"station_id":"ce4bhh12rcd13ifvqff0","pricing_plan_id":"cebpf4jnsgd1na2vs0mg"},{"bike_id":"d61288f7-3174-4efe-8b83-ec9987e569e2","system_id":"levelo_inurba_marseille","lat":43.231872,"lon":5.399808,"is_reserved":false,"is_disabled":false,"rental_uris":{"android":"levelo://app?vid=d61288f7-3174-4efe-8b83-ec9987e569e2","ios":"levelo://app?vid=d61288f7-3174-4efe-8b83-ec9987e569e2"},"vehicle_type_id":"4","last_reported":1748527834,"current_range_meters":16000,"station_id":"ce4bhn12rcd13ifvqgqg","pricing_plan_id":"cebpf4jnsgd1na2vs0mg"},{"bike_id":"9a86381f-51bc-4d54-858d-d27c0e51d901","system_id":"levelo_inurba_marseille","lat":43.30724,"lon":5.42451,"is_reserved":false,"is_disabled":false,"rental_uris":{"android":"levelo://app?vid=9a86381f-51bc-4d54-858d-d27c0e51d901","ios":"levelo://app?vid=9a86381f-51bc-4d54-858d-d27c0e51d901"},"vehicle_type_id":"4","last_reported":1748527834,"current_range_meters":16000,"station_id":"st_cvj6ca6bvosntc0bfgr0","pricing_plan_id":"cebpf4jnsgd1na2vs0mg"},{"bike_id":"2a9acb4b-2bb8-4ce6-982a-371ff22de0c6","system_id":"levelo_inurba_marseille","lat":43.211952,"lon":5.350714,"is_reserved":false,"is_disabled":false,"rental_uris":{"android":"levelo://app?vid=2a9acb4b-2bb8-4ce6-982a-371ff22de0c6","ios":"levelo://app?vid=2a9acb4b-2bb8-4ce6-982a-371ff22de0c6"},"vehicle_type_id":"4","last_reported":1748527834,"current_range_meters":16000,"station_id":"st_cvj6sg6p6f1abm77japg","pricing_plan_id":"cebpf4jnsgd1na2vs0mg"},{"bike_id":"207f8feb-a1a5-4651-bade-17e0403607dd","system_id":"levelo_inurba_marseille","lat":43.27618,"lon":5.36128,"is_reserved":false,"is_disabled":false,"rental_uris":{"android":"levelo://app?vid=207f8feb-a1a5-4651-bade-17e0403607dd","ios":"levelo://app?vid=207f8feb-a1a5-4651-bade-17e0403607dd"},"vehicle_type_id":"4","last_reported":1748527834,"current_range_meters":16400,"station_id":"ce4bgj92rcd13ifvqbe0","pricing_plan_id":"cebpf4jnsgd1na2vs0mg"},{"bike_id":"2f0b886c-8247-496f-bdc3-327761e32d8c","system_id":"levelo_inurba_marseille","lat":43.23162,"lon":5.4371,"is_reserved":false,"is_disabled":false,"rental_uris":{"android":"levelo://app?vid=2f0b886c-8247-496f-bdc3-327761e32d8c","ios":"levelo://app?vid=2f0b886c-8247-496f-bdc3-327761e32d8c"},"vehicle_type_id":"4","last_reported":1748527834,"current_range_meters":16400,"station_id":"ce4bhmp2rcd13ifvqgog","pricing_plan_id":"cebpf4jnsgd1na2vs0mg"},{"bike_id":"81a86096-7693-4752-87e4-5c8242dbe7da","system_id":"levelo_inurba_marseille","lat":43.28853,"lon":5.35847,"is_reserved":false,"is_disabled":false,"rental_uris":{"android":"levelo://app?vid=81a86096-7693-4752-87e4-5c8242dbe7da","ios":"levelo://app?vid=81a86096-7693-4752-87e4-5c8242dbe7da"},"vehicle_type_id":"4","last_reported":1748527834,"current_range_meters":16400,"station_id":"ce4bhb12rcd13ifvqem0","pricing_plan_id":"cebpf4jnsgd1na2vs0mg"},{"bike_id":"3ccfefeb-b5a3-4150-8cd7-fef26f5cc798","system_id":"levelo_inurba_marseille","lat":43.2842,"lon":5.34992,"is_reserved":false,"is_disabled":false,"rental_uris":{"android":"levelo://app?vid=3ccfefeb-b5a3-4150-8cd7-fef26f5cc798","ios":"levelo://app?vid=3ccfefeb-b5a3-4150-8cd7-fef26f5cc798"},"vehicle_type_id":"4","last_reported":1748527834,"current_range_meters":16400,"station_id":"ce4bhbh2rcd13ifvqepg","pricing_plan_id":"cebpf4jnsgd1na2vs0mg"},{"bike_id":"0fb2042e-c469-4720-ac0d-b92d0565ad26","system_id":"levelo_inurba_marseille","lat":43.21742,"lon":5.34603,"is_reserved":false,"is_disabled":false,"rental_uris":{"android":"levelo://app?vid=0fb2042e-c469-4720-ac0d-b92d0565ad26","ios":"levelo://app?vid=0fb2042e-c469-4720-ac0d-b92d0565ad26"},"vehicle_type_id":"4","last_reported":1748527834,"current_range_meters":16400,"station_id":"st_cvj6r9ubvosntc0bgbag","pricing_plan_id":"cebpf4jnsgd1na2vs0mg"},{"bike_id":"7ec11ee4-c33d-4aa3-b202-460401c3bb12","system_id":"levelo_inurba_marseille","lat":43.30144,"lon":5.37426,"is_reserved":false,"is_disabled":false,"rental_uris":{"android":"levelo://app?vid=7ec11ee4-c33d-4aa3-b202-460401c3bb12","ios":"levelo://app?vid=7ec11ee4-c33d-4aa3-b202-460401c3bb12"},"vehicle_type_id":"4","last_reported":1748527834,"current_range_meters":16000,"station_id":"ce4bgs92rcd13ifvqcc0","pricing_plan_id":"cebpf4jnsgd1na2vs0mg"},{"bike_id":"86bbb871-e61a-45cf-9cb0-48859fdf3c58","system_id":"levelo_inurba_marseille","lat":43.28627,"lon":5.35106,"is_reserved":false,"is_disabled":false,"rental_uris":{"android":"levelo://app?vid=86bbb871-e61a-45cf-9cb0-48859fdf3c58","ios":"levelo://app?vid=86bbb871-e61a-45cf-9cb0-48859fdf3c58"},"vehicle_type_id":"4","last_reported":1748527834,"current_range_meters":16800,"station_id":"ce4bhch2rcd13ifvqeug","pricing_plan_id":"cebpf4jnsgd1na2vs0mg"},{"bike_id":"a21c9df7-1c4f-471c-b0a8-d68534b53d73","system_id":"levelo_inurba_marseille","lat":43.30144,"lon":5.38064,"is_reserved":false,"is_disabled":false,"rental_uris":{"android":"levelo://app?vid=a21c9df7-1c4f-471c-b0a8-d68534b53d73","ios":"levelo://app?vid=a21c9df7-1c4f-471c-b0a8-d68534b53d73"},"vehicle_type_id":"4","last_reported":1748527834,"current_range_meters":16800,"station_id":"ce4bgjp2rcd13ifvqbh0","pricing_plan_id":"cebpf4jnsgd1na2vs0mg"},{"bike_id":"7a83c844-e2f2-4f66-a40c-ecc90ce6c34f","system_id":"levelo_inurba_marseille","lat":43.21206,"lon":5.35063,"is_reserved":false,"is_disabled":false,"rental_uris":{"android":"levelo://app?vid=7a83c844-e2f2-4f66-a40c-ecc90ce6c34f","ios":"levelo://app?vid=7a83c844-e2f2-4f66-a40c-ecc90ce6c34f"},"vehicle_type_id":"4","last_reported":1748527834,"current_range_meters":16800,"station_id":"st_cvj6sg6p6f1abm77japg","pricing_plan_id":"cebpf4jnsgd1na2vs0mg"},{"bike_id":"90ebddc6-d5da-4039-8a05-a547159a4e63","system_id":"levelo_inurba_marseille","lat":43.24172,"lon":5.364,"is_reserved":false,"is_disabled":false,"rental_uris":{"android":"levelo://app?vid=90ebddc6-d5da-4039-8a05-a547159a4e63","ios":"levelo://app?vid=90ebddc6-d5da-4039-8a05-a547159a4e63"},"vehicle_type_id":"4","last_reported":1748527834,"current_range_meters":16800,"station_id":"cpo36qri1sfpv3e86is0","pricing_plan_id":"cebpf4jnsgd1na2vs0mg"},{"bike_id":"7190414d-81cf-453d-81bf-69c4cdaa0b28","system_id":"levelo_inurba_marseille","lat":43.217458,"lon":5.34595,"is_reserved":false,"is_disabled":false,"rental_uris":{"android":"levelo://app?vid=7190414d-81cf-453d-81bf-69c4cdaa0b28","ios":"levelo://app?vid=7190414d-81cf-453d-81bf-69c4cdaa0b28"},"vehicle_type_id":"4","last_reported":1748527834,"current_range_meters":16800,"station_id":"","pricing_plan_id":"cebpf4jnsgd1na2vs0mg"},{"bike_id":"7243d7c8-02f5-4392-89cf-8c360e846d55","system_id":"levelo_inurba_marseille","lat":43.25283,"lon":5.37813,"is_reserved":false,"is_disabled":false,"rental_uris":{"android":"levelo://app?vid=7243d7c8-02f5-4392-89cf-8c360e846d55","ios":"levelo://app?vid=7243d7c8-02f5-4392-89cf-8c360e846d55"},"vehicle_type_id":"4","last_reported":1748527834,"current_range_meters":17200,"station_id":"","pricing_plan_id":"cebpf4jnsgd1na2vs0mg"},{"bike_id":"4d214bca-45f8-4722-bfe1-27a94bf1c099","system_id":"levelo_inurba_marseille","lat":43.2175,"lon":5.34605,"is_reserved":false,"is_disabled":false,"rental_uris":{"android":"levelo://app?vid=4d214bca-45f8-4722-bfe1-27a94bf1c099","ios":"levelo://app?vid=4d214bca-45f8-4722-bfe1-27a94bf1c099"},"vehicle_type_id":"4","last_reported":1748527834,"current_range_meters":17200,"station_id":"st_cvj6r9ubvosntc0bgbag","pricing_plan_id":"cebpf4jnsgd1na2vs0mg"},{"bike_id":"b9fc76d8-1bdf-48f3-84a2-3e91d9ed74dc","system_id":"levelo_inurba_marseille","lat":43.30804,"lon":5.43548,"is_reserved":false,"is_disabled":false,"rental_uris":{"android":"levelo://app?vid=b9fc76d8-1bdf-48f3-84a2-3e91d9ed74dc","ios":"levelo://app?vid=b9fc76d8-1bdf-48f3-84a2-3e91d9ed74dc"},"vehicle_type_id":"4","last_reported":1748527834,"current_range_meters":17200,"station_id":"ce4bhph2rcd13ifvqheg","pricing_plan_id":"cebpf4jnsgd1na2vs0mg"},{"bike_id":"fc748fc9-1056-44c2-9eae-a5deed27208a","system_id":"levelo_inurba_marseille","lat":43.31694,"lon":5.40474,"is_reserved":false,"is_disabled":false,"rental_uris":{"android":"levelo://app?vid=fc748fc9-1056-44c2-9eae-a5deed27208a","ios":"levelo://app?vid=fc748fc9-1056-44c2-9eae-a5deed27208a"},"vehicle_type_id":"4","last_reported":1748527834,"current_range_meters":17200,"station_id":"ce4bh012rcd13ifvqd00","pricing_plan_id":"cebpf4jnsgd1na2vs0mg"},{"bike_id":"062ff17d-183d-42c7-851f-6f5c81dc90fc","system_id":"levelo_inurba_marseille","lat":43.21193,"lon":5.35075,"is_reserved":false,"is_disabled":false,"rental_uris":{"android":"levelo://app?vid=062ff17d-183d-42c7-851f-6f5c81dc90fc","ios":"levelo://app?vid=062ff17d-183d-42c7-851f-6f5c81dc90fc"},"vehicle_type_id":"4","last_reported":1748527834,"current_range_meters":17200,"station_id":"st_cvj6sg6p6f1abm77japg","pricing_plan_id":"cebpf4jnsgd1na2vs0mg"},{"bike_id":"9e077e27-33c0-4331-96cc-ce43f93f1c2b","system_id":"levelo_inurba_marseille","lat":43.26729,"lon":5.37208,"is_reserved":false,"is_disabled":false,"rental_uris":{"android":"levelo://app?vid=9e077e27-33c0-4331-96cc-ce43f93f1c2b","ios":"levelo://app?vid=9e077e27-33c0-4331-96cc-ce43f93f1c2b"},"vehicle_type_id":"4","last_reported":1748527834,"current_range_meters":17200,"station_id":"","pricing_plan_id":"cebpf4jnsgd1na2vs0mg"},{"bike_id":"4fcc1bb5-4d8d-4de5-bfd8-aea914e1b3cc","system_id":"levelo_inurba_marseille","lat":43.28415,"lon":5.34983,"is_reserved":false,"is_disabled":false,"rental_uris":{"android":"levelo://app?vid=4fcc1bb5-4d8d-4de5-bfd8-aea914e1b3cc","ios":"levelo://app?vid=4fcc1bb5-4d8d-4de5-bfd8-aea914e1b3cc"},"vehicle_type_id":"4","last_reported":1748527834,"current_range_meters":17600,"station_id":"ce4bhbh2rcd13ifvqepg","pricing_plan_id":"cebpf4jnsgd1na2vs0mg"},{"bike_id":"4c7665fb-fd6a-433d-9989-7a05d2c0e266","system_id":"levelo_inurba_marseille","lat":43.28267,"lon":5.35074,"is_reserved":false,"is_disabled":false,"rental_uris":{"android":"levelo://app?vid=4c7665fb-fd6a-433d-9989-7a05d2c0e266","ios":"levelo://app?vid=4c7665fb-fd6a-433d-9989-7a05d2c0e266"},"vehicle_type_id":"4","last_reported":1748527834,"current_range_meters":17600,"station_id":"ce4bhbp2rcd13ifvqerg","pricing_plan_id":"cebpf4jnsgd1na2vs0mg"},{"bike_id":"9a6b190e-b0b5-4687-a00a-b8527c0d6a79","system_id":"levelo_inurba_marseille","lat":43.29309,"lon":5.37468,"is_reserved":false,"is_disabled":false,"rental_uris":{"android":"levelo://app?vid=9a6b190e-b0b5-4687-a00a-b8527c0d6a79","ios":"levelo://app?vid=9a6b190e-b0b5-4687-a00a-b8527c0d6a79"},"vehicle_type_id":"4","last_reported":1748527834,"current_range_meters":17600,"station_id":"ce4bgi12rcd13ifvqb70","pricing_plan_id":"cebpf4jnsgd1na2vs0mg"},{"bike_id":"c7fb8801-1239-4db5-9763-b956981f7fda","system_id":"levelo_inurba_marseille","lat":43.32515,"lon":5.42478,"is_reserved":false,"is_disabled":false,"rental_uris":{"android":"levelo://app?vid=c7fb8801-1239-4db5-9763-b956981f7fda","ios":"levelo://app?vid=c7fb8801-1239-4db5-9763-b956981f7fda"},"vehicle_type_id":"4","last_reported":1748527834,"current_range_meters":17600,"station_id":"","pricing_plan_id":"cebpf4jnsgd1na2vs0mg"},{"bike_id":"05d5d538-0a42-4022-a974-7cb3c1e831b1","system_id":"levelo_inurba_marseille","lat":43.209656,"lon":5.372292,"is_reserved":false,"is_disabled":false,"rental_uris":{"android":"levelo://app?vid=05d5d538-0a42-4022-a974-7cb3c1e831b1","ios":"levelo://app?vid=05d5d538-0a42-4022-a974-7cb3c1e831b1"},"vehicle_type_id":"4","last_reported":1748527834,"current_range_meters":17600,"station_id":"st_cvj6sg6p6f1abm77japg","pricing_plan_id":"cebpf4jnsgd1na2vs0mg"},{"bike_id":"2b4a476a-bb6e-419e-9798-2f55b6e4f4e9","system_id":"levelo_inurba_marseille","lat":43.2739,"lon":5.3627,"is_reserved":false,"is_disabled":false,"rental_uris":{"android":"levelo://app?vid=2b4a476a-bb6e-419e-9798-2f55b6e4f4e9","ios":"levelo://app?vid=2b4a476a-bb6e-419e-9798-2f55b6e4f4e9"},"vehicle_type_id":"4","last_reported":1748527834,"current_range_meters":17600,"station_id":"ce4bhbh2rcd13ifvqeo0","pricing_plan_id":"cebpf4jnsgd1na2vs0mg"},{"bike_id":"bf4a0959-f180-4d54-9913-5e4a1fd78137","system_id":"levelo_inurba_marseille","lat":43.2118,"lon":5.35085,"is_reserved":false,"is_disabled":false,"rental_uris":{"android":"levelo://app?vid=bf4a0959-f180-4d54-9913-5e4a1fd78137","ios":"levelo://app?vid=bf4a0959-f180-4d54-9913-5e4a1fd78137"},"vehicle_type_id":"4","last_reported":1748527834,"current_range_meters":17600,"station_id":"st_cvj6sg6p6f1abm77japg","pricing_plan_id":"cebpf4jnsgd1na2vs0mg"},{"bike_id":"2787aa28-2488-4367-941a-5f6b835ef6be","system_id":"levelo_inurba_marseille","lat":43.2417,"lon":5.36394,"is_reserved":false,"is_disabled":false,"rental_uris":{"android":"levelo://app?vid=2787aa28-2488-4367-941a-5f6b835ef6be","ios":"levelo://app?vid=2787aa28-2488-4367-941a-5f6b835ef6be"},"vehicle_type_id":"4","last_reported":1748527834,"current_range_meters":18000,"station_id":"cpo36qri1sfpv3e86is0","pricing_plan_id":"cebpf4jnsgd1na2vs0mg"},{"bike_id":"f797899a-4240-40dc-9bc7-4929d7fb6d12","system_id":"levelo_inurba_marseille","lat":43.27376,"lon":5.36243,"is_reserved":false,"is_disabled":false,"rental_uris":{"android":"levelo://app?vid=f797899a-4240-40dc-9bc7-4929d7fb6d12","ios":"levelo://app?vid=f797899a-4240-40dc-9bc7-4929d7fb6d12"},"vehicle_type_id":"4","last_reported":1748527834,"current_range_meters":18000,"station_id":"ce4bhbh2rcd13ifvqeo0","pricing_plan_id":"cebpf4jnsgd1na2vs0mg"},{"bike_id":"fa7ffb12-5a72-41b7-b309-7f0eaffdeb82","system_id":"levelo_inurba_marseille","lat":43.30434,"lon":5.39745,"is_reserved":false,"is_disabled":false,"rental_uris":{"android":"levelo://app?vid=fa7ffb12-5a72-41b7-b309-7f0eaffdeb82","ios":"levelo://app?vid=fa7ffb12-5a72-41b7-b309-7f0eaffdeb82"},"vehicle_type_id":"4","last_reported":1748527834,"current_range_meters":17600,"station_id":"ce4bh092rcd13ifvqd20","pricing_plan_id":"cebpf4jnsgd1na2vs0mg"},