{"last_updated":1742072939,"ttl":60,"version":"2.2","data":{"bikes":[{"bike_id":"7db9235c-9c67-42de-9517-6ba12cc78925","system_id":"levelo_inurba_marseille","lat":43.26552,"lon":5.39055,"is_reserved":false,"is_disabled":false,"rental_uris":{"android":"levelo://app?vid=7db9235c-9c67-42de-9517-6ba12cc78925","ios":"levelo://app?vid=7db9235c-9c67-42de-9517-6ba12cc78925"},"vehicle_type_id":"4","last_reported":1742072939,"current_range_meters":2800,"station_id":"ce4bhe12rcd13ifvqf30","pricing_plan_id":"cebpf4jnsgd1na2vs0mg"},{"bike_id":"0f3d6d5a-7335-4c03-b49d-1312d507b539","system_id":"levelo_inurba_marseille","lat":43.27951,"lon":5.4105,"is_reserved":false,"is_disabled":false,"rental_uris":{"android":"levelo://app?vid=0f3d6d5a-7335-4c03-b49d-1312d507b539","ios":"levelo://app?vid=0f3d6d5a-7335-4c03-b49d-1312d507b539"},"vehicle_type_id":"4","last_reported":1742072939,"current_range_meters":2800,"station_id":"ce4bhnp2rcd13ifvqh0g","pricing_plan_id":"cebpf4jnsgd1na2vs0mg"},{"bike_id":"303172f0-e2a5-483f-bf53-e2ffb4800eff","system_id":"levelo_inurba_marseille","lat":43.28929,"lon":5.36642,"is_reserved":false,"is_disabled":false,"rental_uris":{"android":"levelo://app?vid=303172f0-e2a5-483f-bf53-e2ffb4800eff","ios":"levelo://app?vid=303172f0-e2a5-483f-bf53-e2ffb4800eff"},"vehicle_type_id":"4","last_reported":1742072939,"current_range_meters":2800,"station_id":"ce4bhap2rcd13ifvqek0","pricing_plan_id":"cebpf4jnsgd1na2vs0mg"},{"bike_id":"36ec5a15-215b-4367-a3ca-336aadd9a251","system_id":"levelo_inurba_marseille","lat":43.33746,"lon":5.3745,"is_reserved":false,"is_disabled":false,"rental_uris":{"android":"levelo://app?vid=36ec5a15-215b-4367-a3ca-336aadd9a251","ios":"levelo://app?vid=36ec5a15-215b-4367-a3ca-336aadd9a251"},"vehicle_type_id":"4","last_reported":1742072939,"current_range_meters":2800,"station_id":"","pricing_plan_id":"cebpf4jnsgd1na2vs0mg"},{"bike_id":"306bc947-be01-4525-b92d-d60c8d288dd8","system_id":"levelo_inurba_marseille","lat":43.29975,"lon":5.38489,"is_reserved":false,"is_disabled":false,"rental_uris":{"android":"levelo://app?vid=306bc947-be01-4525-b92d-d60c8d288dd8","ios":"levelo://app?vid=306bc947-be01-4525-b92d-d60c8d288dd8"},"vehicle_type_id":"4","last_reported":1742072939,"current_range_meters":3200,"station_id":"ce4bgj92rcd13ifvqbd0","pricing_plan_id":"cebpf4jnsgd1na2vs0mg"},{"bike_id":"5211ff05-eb88-4ac5-be0e-e66c62526e63","system_id":"levelo_inurba_marseille","lat":43.29566,"lon":5.42271,"is_reserved":false,"is_disabled":false,"rental_uris":{"android":"levelo://app?vid=5211ff05-eb88-4ac5-be0e-e66c62526e63","ios":"levelo://app?vid=5211ff05-eb88-4ac5-be0e-e66c62526e63"},"vehicle_type_id":"4","last_reported":1742072939,"current_range_meters":3200,"station_id":"ce4bhph2rcd13ifvqhdg","pricing_plan_id":"cebpf4jnsgd1na2vs0mg"},{"bike_id":"2a10b5ba-9b20-4811-9068-8e957ce2badb","system_id":"levelo_inurba_marseille","lat":43.29373,"lon":5.37855,"is_reserved":false,"is_disabled":false,"rental_uris":{"android":"levelo://app?vid=2a10b5ba-9b20-4811-9068-8e957ce2badb","ios":"levelo://app?vid=2a10b5ba-9b20-4811-9068-8e957ce2badb"},"vehicle_type_id":"4","last_reported":1742072939,"current_range_meters":3200,"station_id":"ce4bgjh2rcd13ifvqbf0","pricing_plan_id":"cebpf4jnsgd1na2vs0mg"},{"bike_id":"9a45c941-c100-4929-b293-93215a9afdf8","system_id":"levelo_inurba_marseille","lat":43.29711,"lon":5.37701,"is_reserved":false,"is_disabled":false,"rental_uris":{"android":"levelo://app?vid=9a45c941-c100-4929-b293-93215a9afdf8","ios":"levelo://app?vid=9a45c941-c100-4929-b293-93215a9afdf8"},"vehicle_type_id":"4","last_reported":1742072939,"current_range_meters":800,"station_id":"ce4bgkh2rcd13ifvqbl0","pricing_plan_id":"cebpf4jnsgd1na2vs0mg"},{"bike_id":"b5068f6b-8c9a-4a7e-85e2-83b19be9c574","system_id":"levelo_inurba_marseille","lat":43.28725,"lon":5.37955,"is_reserved":false,"is_disabled":true,"rental_uris":{"android":"levelo://app?vid=b5068f6b-8c9a-4a7e-85e2-83b19be9c574","ios":"levelo://app?vid=b5068f6b-8c9a-4a7e-85e2-83b19be9c574"},"vehicle_type_id":"4","last_reported":1742072939,"current_range_meters":3200,"station_id":"ce4bh9p2rcd13ifvqec0","pricing_plan_id":"cebpf4jnsgd1na2vs0mg"},{"bike_id":"4e7d069c-fe1a-4bde-b7b9-5ea18972be95","system_id":"levelo_inurba_marseille","lat":43.28917,"lon":5.38406,"is_reserved":false,"is_disabled":false,"rental_uris":{"android":"levelo://app?vid=4e7d069c-fe1a-4bde-b7b9-5ea18972be95","ios":"levelo://app?vid=4e7d069c-fe1a-4bde-b7b9-5ea18972be95"},"vehicle_type_id":"4","last_reported":1742072939,"current_range_meters":3600,"station_id":"ce4bh612rcd13ifvqe6g","pricing_plan_id":"cebpf4jnsgd1na2vs0mg"},{"bike_id":"822ef5ba-8f30-40e9-874e-8aab0635a3e4","system_id":"levelo_inurba_marseille","lat":43.31687,"lon":5.40476,"is_reserved":false,"is_disabled":false,"rental_uris":{"android":"levelo://app?vid=822ef5ba-8f30-40e9-874e-8aab0635a3e4","ios":"levelo://app?vid=822ef5ba-8f30-40e9-874e-8aab0635a3e4"},"vehicle_type_id":"4","last_reported":1742072939,"current_range_meters":3200,"station_id":"ce4bh012rcd13ifvqd00","pricing_plan_id":"cebpf4jnsgd1na2vs0mg"},{"bike_id":"fa20323d-abe1-4feb-ae5b-c6d792a00f6a","system_id":"levelo_inurba_marseille","lat":43.32361,"lon":5.38885,"is_reserved":false,"is_disabled":false,"rental_uris":{"android":"levelo://app?vid=fa20323d-abe1-4feb-ae5b-c6d792a00f6a","ios":"levelo://app?vid=fa20323d-abe1-4feb-ae5b-c6d792a00f6a"},"vehicle_type_id":"4","last_reported":1742072939,"current_range_meters":4000,"station_id":"ce4bhqp2rcd13ifvqhog","pricing_plan_id":"cebpf4jnsgd1na2vs0mg"},{"bike_id":"f2eb4374-0875-4873-8177-a38f3baa6f3a","system_id":"levelo_inurba_marseille","lat":43.24069,"lon":5.37743,"is_reserved":false,"is_disabled":false,"rental_uris":{"android":"levelo://app?vid=f2eb4374-0875-4873-8177-a38f3baa6f3a","ios":"levelo://app?vid=f2eb4374-0875-4873-8177-a38f3baa6f3a"},"vehicle_type_id":"4","last_reported":1742072939,"current_range_meters":4000,"station_id":"ce4bhnp2rcd13ifvqgvg","pricing_plan_id":"cebpf4jnsgd1na2vs0mg"},{"bike_id":"1b1b8b7a-1bb1-4f65-a070-4a4cf74718ab","system_id":"levelo_inurba_marseille","lat":43.22935,"lon":5.35449,"is_reserved":false,"is_disabled":false,"rental_uris":{"android":"levelo://app?vid=1b1b8b7a-1bb1-4f65-a070-4a4cf74718ab","ios":"levelo://app?vid=1b1b8b7a-1bb1-4f65-a070-4a4cf74718ab"},"vehicle_type_id":"4","last_reported":1742072939,"current_range_meters":4000,"station_id":"","pricing_plan_id":"cebpf4jnsgd1na2vs0mg"},{"bike_id":"e849d648-4ecb-477c-b2d2-c44665e052e6","system_id":"levelo_inurba_marseille","lat":43.23973,"lon":5.36457,"is_reserved":false,"is_disabled":false,"rental_uris":{"android":"levelo://app?vid=e849d648-4ecb-477c-b2d2-c44665e052e6","ios":"levelo://app?vid=e849d648-4ecb-477c-b2d2-c44665e052e6"},"vehicle_type_id":"4","last_reported":1742072939,"current_range_meters":4000,"station_id":"","pricing_plan_id":"cebpf4jnsgd1na2vs0mg"},{"bike_id":"8004995f-b53b-4dbf-a777-07e822504fc9","system_id":"levelo_inurba_marseille","lat":43.27943,"lon":5.41034,"is_reserved":false,"is_disabled":false,"rental_uris":{"android":"levelo://app?vid=8004995f-b53b-4dbf-a777-07e822504fc9","ios":"levelo://app?vid=8004995f-b53b-4dbf-a777-07e822504fc9"},"vehicle_type_id":"4","last_reported":1742072939,"current_range_meters":4000,"station_id":"ce4bhnp2rcd13ifvqh0g","pricing_plan_id":"cebpf4jnsgd1na2vs0mg"},{"bike_id":"340488f0-9988-427b-a9bc-7386c392af7a","system_id":"levelo_inurba_marseille","lat":43.25704,"lon":5.4112,"is_reserved":false,"is_disabled":false,"rental_uris":{"android":"levelo://app?vid=340488f0-9988-427b-a9bc-7386c392af7a","ios":"levelo://app?vid=340488f0-9988-427b-a9bc-7386c392af7a"},"vehicle_type_id":"4","last_reported":1742072939,"current_range_meters":4400,"station_id":"ce4bhkp2rcd13ifvqgd0","pricing_plan_id":"cebpf4jnsgd1na2vs0mg"},{"bike_id":"01ffb64d-c410-44c8-a032-25c338689f9c","system_id":"levelo_inurba_marseille","lat":43.28611,"lon":5.35103,"is_reserved":false,"is_disabled":false,"rental_uris":{"android":"levelo://app?vid=01ffb64d-c410-44c8-a032-25c338689f9c","ios":"levelo://app?vid=01ffb64d-c410-44c8-a032-25c338689f9c"},"vehicle_type_id":"4","last_reported":1742072939,"current_range_meters":4400,"station_id":"ce4bhch2rcd13ifvqeug","pricing_plan_id":"cebpf4jnsgd1na2vs0mg"},{"bike_id":"96c95cc5-3655-4976-bd9e-8b622b598117","system_id":"levelo_inurba_marseille","lat":43.2801,"lon":5.4166,"is_reserved":false,"is_disabled":true,"rental_uris":{"android":"levelo://app?vid=96c95cc5-3655-4976-bd9e-8b622b598117","ios":"levelo://app?vid=96c95cc5-3655-4976-bd9e-8b622b598117"},"vehicle_type_id":"4","last_reported":1742072939,"current_range_meters":4400,"station_id":"ce4bho12rcd13ifvqh1g","pricing_plan_id":"cebpf4jnsgd1na2vs0mg"},{"bike_id":"31c00cef-4804-477d-bf30-4f37006862c7","system_id":"levelo_inurba_marseille","lat":43.31079,"lon":5.38353,"is_reserved":false,"is_disabled":false,"rental_uris":{"android":"levelo://app?vid=31c00cef-4804-477d-bf30-4f37006862c7","ios":"levelo://app?vid=31c00cef-4804-477d-bf30-4f37006862c7"},"vehicle_type_id":"4","last_reported":1742072939,"current_range_meters":4400,"station_id":"ce4bgv92rcd13ifvqcr0","pricing_plan_id":"cebpf4jnsgd1na2vs0mg"},{"bike_id":"7fb96057-c4c0-4c1d-a599-e0fa92d96ac9","system_id":"levelo_inurba_marseille","lat":43.29031,"lon":5.38638,"is_reserved":false,"is_disabled":false,"rental_uris":{"android":"levelo://app?vid=7fb96057-c4c0-4c1d-a599-e0fa92d96ac9","ios":"levelo://app?vid=7fb96057-c4c0-4c1d-a599-e0fa92d96ac9"},"vehicle_type_id":"4","last_reported":1742072939,"current_range_meters":4400,"station_id":"ce4bh4p2rcd13ifvqe0g","pricing_plan_id":"cebpf4jnsgd1na2vs0mg"},{"bike_id":"97c7812e-f131-49f5-8d31-b806643d4c45","system_id":"levelo_inurba_marseille","lat":43.29806,"lon":5.40409,"is_reserved":false,"is_disabled":false,"rental_uris":{"android":"levelo://app?vid=97c7812e-f131-49f5-8d31-b806643d4c45","ios":"levelo://app?vid=97c7812e-f131-49f5-8d31-b806643d4c45"},"vehicle_type_id":"4","last_reported":1742072939,"current_range_meters":4800,"station_id":"ce4bh112rcd13ifvqd90","pricing_plan_id":"cebpf4jnsgd1na2vs0mg"},{"bike_id":"b76967ef-432a-4b0a-a1aa-bc28216361bc","system_id":"levelo_inurba_marseille","lat":43.23184,"lon":5.39981,"is_reserved":false,"is_disabled":false,"rental_uris":{"android":"levelo://app?vid=b76967ef-432a-4b0a-a1aa-bc28216361bc","ios":"levelo://app?vid=b76967ef-432a-4b0a-a1aa-bc28216361bc"},"vehicle_type_id":"4","last_reported":1742072939,"current_range_meters":4800,"station_id":"ce4bhn12rcd13ifvqgqg","pricing_plan_id":"cebpf4jnsgd1na2vs0mg"},{"bike_id":"74e795d2-6a94-477e-8d7e-fc98ca1d8b70","system_id":"levelo_inurba_marseille","lat":43.292776,"lon":5.368647,"is_reserved":false,"is_disabled":false,"rental_uris":{"android":"levelo://app?vid=74e795d2-6a94-477e-8d7e-fc98ca1d8b70","ios":"levelo://app?vid=74e795d2-6a94-477e-8d7e-fc98ca1d8b70"},"vehicle_type_id":"4","last_reported":1742072939,"current_range_meters":4800,"station_id":"ce4bhbp2rcd13ifvqesg","pricing_plan_id":"cebpf4jnsgd1na2vs0mg"},{"bike_id":"9529594b-66fe-4fd2-9089-ee50b770e1fa","system_id":"levelo_inurba_marseille","lat":43.2951,"lon":5.39389,"is_reserved":false,"is_disabled":false,"rental_uris":{"android":"levelo://app?vid=9529594b-66fe-4fd2-9089-ee50b770e1fa","ios":"levelo://app?vid=9529594b-66fe-4fd2-9089-ee50b770e1fa"},"vehicle_type_id":"4","last_reported":1742072939,"current_range_meters":4800,"station_id":"ce4bh292rcd13ifvqdf0","pricing_plan_id":"cebpf4jnsgd1na2vs0mg"},{"bike_id":"fa5894d7-1c98-4f78-8661-afc7d0ea5566","system_id":"levelo_inurba_marseille","lat":43.26952,"lon":5.40247,"is_reserved":false,"is_disabled":false,"rental_uris":{"android":"levelo://app?vid=fa5894d7-1c98-4f78-8661-afc7d0ea5566","ios":"levelo://app?vid=fa5894d7-1c98-4f78-8661-afc7d0ea5566"},"vehicle_type_id":"4","last_reported":1742072939,"current_range_meters":4800,"station_id":"cjm6bp8fraef2m0cb0m0","pricing_plan_id":"cebpf4jnsgd1na2vs0mg"},{"bike_id":"dcd435ce-b0f6-4a81-9070-9cefd39577e9","system_id":"levelo_inurba_marseille","lat":43.29874,"lon":5.38913,"is_reserved":false,"is_disabled":true,"rental_uris":{"android":"levelo://app?vid=dcd435ce-b0f6-4a81-9070-9cefd39577e9","ios":"levelo://app?vid=dcd435ce-b0f6-4a81-9070-9cefd39577e9"},"vehicle_type_id":"4","last_reported":1742072939,"current_range_meters":4800,"station_id":"ce4bh392rcd13ifvqdl0","pricing_plan_id":"cebpf4jnsgd1na2vs0mg"},{"bike_id":"9d5ec8b3-c7d4-4bbd-8510-b628f6123ba9","system_id":"levelo_inurba_marseille","lat":43.28697,"lon":5.37388,"is_reserved":false,"is_disabled":false,"rental_uris":{"android":"levelo://app?vid=9d5ec8b3-c7d4-4bbd-8510-b628f6123ba9","ios":"levelo://app?vid=9d5ec8b3-c7d4-4bbd-8510-b628f6123ba9"},"vehicle_type_id":"4","last_reported":1742072939,"current_range_meters":4800,"station_id":"ce4bh3p2rcd13ifvqdq0","pricing_plan_id":"cebpf4jnsgd1na2vs0mg"},{"bike_id":"dfb1890d-a53d-42f7-a687-0bca1634d203","system_id":"levelo_inurba_marseille","lat":43.27008,"lon":5.38709,"is_reserved":false,"is_disabled":false,"rental_uris":{"android":"levelo://app?vid=dfb1890d-a53d-42f7-a687-0bca1634d203","ios":"levelo://app?vid=dfb1890d-a53d-42f7-a687-0bca1634d203"},"vehicle_type_id":"4","last_reported":1742072939,"current_range_meters":4800,"station_id":"","pricing_plan_id":"cebpf4jnsgd1na2vs0mg"},{"bike_id":"98836e19-8221-42d1-946f-956561327618","system_id":"levelo_inurba_marseille","lat":43.27376,"lon":5.3625,"is_reserved":false,"is_disabled":true,"rental_uris":{"android":"levelo://app?vid=98836e19-8221-42d1-946f-956561327618","ios":"levelo://app?vid=98836e19-8221-42d1-946f-956561327618"},"vehicle_type_id":"4","last_reported":1742072939,"current_range_meters":4800,"station_id":"ce4bhbh2rcd13ifvqeo0","pricing_plan_id":"cebpf4jnsgd1na2vs0mg"},{"bike_id":"9e47f4dd-e296-4fc3-ba49-3cb504725941","system_id":"levelo_inurba_marseille","lat":43.27986,"lon":5.40056,"is_reserved":false,"is_disabled":false,"rental_uris":{"android":"levelo://app?vid=9e47f4dd-e296-4fc3-ba49-3cb504725941","ios":"levelo://app?vid=9e47f4dd-e296-4fc3-ba49-3cb504725941"},"vehicle_type_id":"4","last_reported":1742072939,"current_range_meters":4800,"station_id":"ce4bho92rcd13ifvqh4g","pricing_plan_id":"cebpf4jnsgd1na2vs0mg"},{"bike_id":"b8dc8f59-88b2-4cec-b5bd-26e833ba9750","system_id":"levelo_inurba_marseille","lat":43.32474,"lon":5.36567,"is_reserved":false,"is_disabled":true,"rental_uris":{"android":"levelo://app?vid=b8dc8f59-88b2-4cec-b5bd-26e833ba9750","ios":"levelo://app?vid=b8dc8f59-88b2-4cec-b5bd-26e833ba9750"},"vehicle_type_id":"4","last_reported":1742072939,"current_range_meters":4800,"station_id":"ce4bhs12rcd13ifvqhvg","pricing_plan_id":"cebpf4jnsgd1na2vs0mg"},{"bike_id":"862a66c1-780e-43a8-b169-96436443dfc7","system_id":"levelo_inurba_marseille","lat":43.27968,"lon":5.38751,"is_reserved":false,"is_disabled":false,"rental_uris":{"android":"levelo://app?vid=862a66c1-780e-43a8-b169-96436443dfc7","ios":"levelo://app?vid=862a66c1-780e-43a8-b169-96436443dfc7"},"vehicle_type_id":"4","last_reported":1742072939,"current_range_meters":5600,"station_id":"ce4bhg12rcd13ifvqf80","pricing_plan_id":"cebpf4jnsgd1na2vs0mg"},{"bike_id":"3076c43f-7560-49d4-914c-1b64b914ae40","system_id":"levelo_inurba_marseille","lat":43.29508,"lon":5.37512,"is_reserved":false,"is_disabled":false,"rental_uris":{"android":"levelo://app?vid=3076c43f-7560-49d4-914c-1b64b914ae40","ios":"levelo://app?vid=3076c43f-7560-49d4-914c-1b64b914ae40"},"vehicle_type_id":"4","last_reported":1742072939,"current_range_meters":5600,"station_id":"ce4bgkp2rcd13ifvqbmg","pricing_plan_id":"cebpf4jnsgd1na2vs0mg"},{"bike_id":"2c5ef32a-d2e9-4b3d-ac11-024e048b7a4f","system_id":"levelo_inurba_marseille","lat":43.28075,"lon":5.39657,"is_reserved":false,"is_disabled":false,"rental_uris":{"android":"levelo://app?vid=2c5ef32a-d2e9-4b3d-ac11-024e048b7a4f","ios":"levelo://app?vid=2c5ef32a-d2e9-4b3d-ac11-024e048b7a4f"},"vehicle_type_id":"4","last_reported":1742072939,"current_range_meters":4800,"station_id":"ce4bho12rcd13ifvqh2g","pricing_plan_id":"cebpf4jnsgd1na2vs0mg"},{"bike_id":"37105870-a52d-4d83-adae-a06522440b5f","system_id":"levelo_inurba_marseille","lat":43.28921,"lon":5.384,"is_reserved":false,"is_disabled":false,"rental_uris":{"android":"levelo://app?vid=37105870-a52d-4d83-adae-a06522440b5f","ios":"levelo://app?vid=37105870-a52d-4d83-adae-a06522440b5f"},"vehicle_type_id":"4","last_reported":1742072939,"current_range_meters":5600,"station_id":"ce4bh612rcd13ifvqe6g","pricing_plan_id":"cebpf4jnsgd1na2vs0mg"},{"bike_id":"ee04f0d7-be84-4b6b-b77c-e161e113ebb7","system_id":"levelo_inurba_marseille","lat":43.23184,"lon":5.39981,"is_reserved":false,"is_disabled":false,"rental_uris":{"android":"levelo://app?vid=ee04f0d7-be84-4b6b-b77c-e161e113ebb7","ios":"levelo://app?vid=ee04f0d7-be84-4b6b-b77c-e161e113ebb7"},"vehicle_type_id":"4","last_reported":1742072939,"current_range_meters":6000,"station_id":"ce4bhn12rcd13ifvqgqg","pricing_plan_id":"cebpf4jnsgd1na2vs0mg"},{"bike_id":"cf56573e-7b1f-460b-a578-0d021efd9dc7","system_id":"levelo_inurba_marseille","lat":43.28461,"lon":5.35883,"is_reserved":false,"is_disabled":false,"rental_uris":{"android":"levelo://app?vid=cf56573e-7b1f-460b-a578-0d021efd9dc7","ios":"levelo://app?vid=cf56573e-7b1f-460b-a578-0d021efd9dc7"},"vehicle_type_id":"4","last_reported":1742072939,"current_range_meters":12400,"station_id":"ce4bhah2rcd13ifvqei0","pricing_plan_id":"cebpf4jnsgd1na2vs0mg"},{"bike_id":"35f8b310-e141-45a7-bc00-9e52ca08fedf","system_id":"levelo_inurba_marseille","lat":43.28924,"lon":5.383959,"is_reserved":false,"is_disabled":false,"rental_uris":{"android":"levelo://app?vid=35f8b310-e141-45a7-bc00-9e52ca08fedf","ios":"levelo://app?vid=35f8b310-e141-45a7-bc00-9e52ca08fedf"},"vehicle_type_id":"4","last_reported":1742072939,"current_range_meters":6000,"station_id":"ce4bha92rcd13ifvqeh0","pricing_plan_id":"cebpf4jnsgd1na2vs0mg"},{"bike_id":"5d51dfd6-d2b8-4008-9bb1-54e15f06911c","system_id":"levelo_inurba_marseille","lat":43.30128,"lon":5.38791,"is_reserved":false,"is_disabled":false,"rental_uris":{"android":"levelo://app?vid=5d51dfd6-d2b8-4008-9bb1-54e15f06911c","ios":"levelo://app?vid=5d51dfd6-d2b8-4008-9bb1-54e15f06911c"},"vehicle_type_id":"4","last_reported":1742072939,"current_range_meters":6400,"station_id":"ce4bghh2rcd13ifvqb60","pricing_plan_id":"cebpf4jnsgd1na2vs0mg"},{"bike_id":"f5d879b5-4e8a-4e91-bc2b-907eff703e2f","system_id":"levelo_inurba_marseille","lat":43.24675,"lon":5.38155,"is_reserved":false,"is_disabled":false,"rental_uris":{"android":"levelo://app?vid=f5d879b5-4e8a-4e91-bc2b-907eff703e2f","ios":"levelo://app?vid=f5d879b5-4e8a-4e91-bc2b-907eff703e2f"},"vehicle_type_id":"4","last_reported":1742072939,"current_range_meters":6400,"station_id":"ce4bhih2rcd13ifvqfr0","pricing_plan_id":"cebpf4jnsgd1na2vs0mg"},{"bike_id":"895ed339-d2e8-455d-8c91-c58694d5dcc5","system_id":"levelo_inurba_marseille","lat":43.30582,"lon":5.39358,"is_reserved":false,"is_disabled":false,"rental_uris":{"android":"levelo://app?vid=895ed339-d2e8-455d-8c91-c58694d5dcc5","ios":"levelo://app?vid=895ed339-d2e8-455d-8c91-c58694d5dcc5"},"vehicle_type_id":"4","last_reported":1742072939,"current_range_meters":6400,"station_id":"ce4bh0p2rcd13ifvqd80","pricing_plan_id":"cebpf4jnsgd1na2vs0mg"},{"bike_id":"6b43488e-49e7-4159-b7e7-54e154d8769f","system_id":"levelo_inurba_marseille","lat":43.23062,"lon":5.35501,"is_reserved":false,"is_disabled":false,"rental_uris":{"android":"levelo://app?vid=6b43488e-49e7-4159-b7e7-54e154d8769f","ios":"levelo://app?vid=6b43488e-49e7-4159-b7e7-54e154d8769f"},"vehicle_type_id":"4","last_reported":1742072939,"current_range_meters":6400,"station_id":"cpo3342slgdg3j2ifvpg","pricing_plan_id":"cebpf4jnsgd1na2vs0mg"},{"bike_id":"16223f35-fe5a-44f7-8761-e68f95e4aa70","system_id":"levelo_inurba_marseille","lat":43.27817,"lon":5.40734,"is_reserved":false,"is_disabled":false,"rental_uris":{"android":"levelo://app?vid=16223f35-fe5a-44f7-8761-e68f95e4aa70","ios":"levelo://app?vid=16223f35-fe5a-44f7-8761-e68f95e4aa70"},"vehicle_type_id":"4","last_reported":1742072939,"current_range_meters":6400,"station_id":"ce4bhnh2rcd13ifvqgtg","pricing_plan_id":"cebpf4jnsgd1na2vs0mg"},{"bike_id":"a8e67676-89ba-43e0-82dc-5ef4b0a5e328","system_id":"levelo_inurba_marseille","lat":43.31627,"lon":5.38606,"is_reserved":false,"is_disabled":false,"rental_uris":{"android":"levelo://app?vid=a8e67676-89ba-43e0-82dc-5ef4b0a5e328","ios":"levelo://app?vid=a8e67676-89ba-43e0-82dc-5ef4b0a5e328"},"vehicle_type_id":"4","last_reported":1742072939,"current_range_meters":6400,"station_id":"","pricing_plan_id":"cebpf4jnsgd1na2vs0mg"},{"bike_id":"9e763656-124f-449b-8369-476a0acf3318","system_id":"levelo_inurba_marseille","lat":43.29071,"lon":5.37153,"is_reserved":false,"is_disabled":false,"rental_uris":{"android":"levelo://app?vid=9e763656-124f-449b-8369-476a0acf3318","ios":"levelo://app?vid=9e763656-124f-449b-8369-476a0acf3318"},"vehicle_type_id":"4","last_reported":1742072939,"current_range_meters":6400,"station_id":"ce4bh5p2rcd13ifvqe4g","pricing_plan_id":"cebpf4jnsgd1na2vs0mg"},{"bike_id":"4fba7e23-c0bd-469b-817e-c2e00b4ad63a","system_id":"levelo_inurba_marseille","lat":43.29032,"lon":5.38658,"is_reserved":false,"is_disabled":false,"rental_uris":{"android":"levelo://app?vid=4fba7e23-c0bd-469b-817e-c2e00b4ad63a","ios":"levelo://app?vid=4fba7e23-c0bd-469b-817e-c2e00b4ad63a"},"vehicle_type_id":"4","last_reported":1742072939,"current_range_meters":6400,"station_id":"ce4bh4p2rcd13ifvqe0g","pricing_plan_id":"cebpf4jnsgd1na2vs0mg"},{"bike_id":"cb2bd665-ee1a-456f-aba4-1ecffae6f1e6","system_id":"levelo_inurba_marseille","lat":43.29967,"lon":5.38498,"is_reserved":false,"is_disabled":false,"rental_uris":{"android":"levelo://app?vid=cb2bd665-ee1a-456f-aba4-1ecffae6f1e6","ios":"levelo://app?vid=cb2bd665-ee1a-456f-aba4-1ecffae6f1e6"},"vehicle_type_id":"4","last_reported":1742072939,"current_range_meters":6400,"station_id":"ce4bgj92rcd13ifvqbd0","pricing_plan_id":"cebpf4jnsgd1na2vs0mg"},{"bike_id":"d6dc0d2a-774e-4719-aadb-172d44102923","system_id":"levelo_inurba_marseille","lat":43.31181,"lon":5.38717,"is_reserved":false,"is_disabled":false,"rental_uris":{"android":"levelo://app?vid=d6dc0d2a-774e-4719-aadb-172d44102923","ios":"levelo://app?vid=d6dc0d2a-774e-4719-aadb-172d44102923"},"vehicle_type_id":"4","last_reported":1742072939,"current_range_meters":6800,"station_id":"ce4bgv12rcd13ifvqcp0","pricing_plan_id":"cebpf4jnsgd1na2vs0mg"},{"bike_id":"a8db734b-bd7d-4d7a-a437-7c9f339f7518","system_id":"levelo_inurba_marseille","lat":43.29971,"lon":5.38511,"is_reserved":false,"is_disabled":false,"rental_uris":{"android":"levelo://app?vid=a8db734b-bd7d-4d7a-a437-7c9f339f7518","ios":"levelo://app?vid=a8db734b-bd7d-4d7a-a437-7c9f339f7518"},"vehicle_type_id":"4","last_reported":1742072939,"current_range_meters":6800,"station_id":"ce4bgj92rcd13ifvqbd0","pricing_plan_id":"cebpf4jnsgd1na2vs0mg"},{"bike_id":"48f968e9-2670-450c-9a50-b12a7ac1907f","system_id":"levelo_inurba_marseille","lat":43.25735,"lon":5.41111,"is_reserved":false,"is_disabled":false,"rental_uris":{"android":"levelo://app?vid=48f968e9-2670-450c-9a50-b12a7ac1907f","ios":"levelo://app?vid=48f968e9-2670-450c-9a50-b12a7ac1907f"},"vehicle_type_id":"4","last_reported":1742072939,"current_range_meters":6800,"station_id":"ce4bhkp2rcd13ifvqgd0","pricing_plan_id":"cebpf4jnsgd1na2vs0mg"},{"bike_id":"ab723573-31c5-40ad-93ce-25d60f3cc249","system_id":"levelo_inurba_marseille","lat":43.30591,"lon":5.39355,"is_reserved":false,"is_disabled":false,"rental_uris":{"android":"levelo://app?vid=ab723573-31c5-40ad-93ce-25d60f3cc249","ios":"levelo://app?vid=ab723573-31c5-40ad-93ce-25d60f3cc249"},"vehicle_type_id":"4","last_reported":1742072939,"current_range_meters":6800,"station_id":"ce4bh0p2rcd13ifvqd80","pricing_plan_id":"cebpf4jnsgd1na2vs0mg"},{"bike_id":"f88f80d3-9df8-4102-bc05-765d6265e2da","system_id":"levelo_inurba_marseille","lat":43.29901,"lon":5.38144,"is_reserved":false,"is_disabled":false,"rental_uris":{"android":"levelo://app?vid=f88f80d3-9df8-4102-bc05-765d6265e2da","ios":"levelo://app?vid=f88f80d3-9df8-4102-bc05-765d6265e2da"},"vehicle_type_id":"4","last_reported":1742072939,"current_range_meters":6800,"station_id":"ce4bgj12rcd13ifvqbc0","pricing_plan_id":"cebpf4jnsgd1na2vs0mg"},{"bike_id":"b0628f91-0381-46e9-aedc-696d89a79b61","system_id":"levelo_inurba_marseille","lat":43.25719,"lon":5.41113,"is_reserved":false,"is_disabled":false,"rental_uris":{"android":"levelo://app?vid=b0628f91-0381-46e9-aedc-696d89a79b61","ios":"levelo://app?vid=b0628f91-0381-46e9-aedc-696d89a79b61"},"vehicle_type_id":"4","last_reported":1742072939,"current_range_meters":6800,"station_id":"ce4bhkp2rcd13ifvqgd0","pricing_plan_id":"cebpf4jnsgd1na2vs0mg"},{"bike_id":"5f302834-47d4-401d-a4b4-804921831d5f","system_id":"levelo_inurba_marseille","lat":43.278155,"lon":5.40719,"is_reserved":false,"is_disabled":false,"rental_uris":{"android":"levelo://app?vid=5f302834-47d4-401d-a4b4-804921831d5f","ios":"levelo://app?vid=5f302834-47d4-401d-a4b4-804921831d5f"},"vehicle_type_id":"4","last_reported":1742072939,"current_range_meters":6800,"station_id":"ce4bhnh2rcd13ifvqgtg","pricing_plan_id":"cebpf4jnsgd1na2vs0mg"},{"bike_id":"355fb77e-22da-4ed4-bab8-f395a5c5d15a","system_id":"levelo_inurba_marseille","lat":43.24685,"lon":5.38149,"is_reserved":false,"is_disabled":false,"rental_uris":{"android":"levelo://app?vid=355fb77e-22da-4ed4-bab8-f395a5c5d15a","ios":"levelo://app?vid=355fb77e-22da-4ed4-bab8-f395a5c5d15a"},"vehicle_type_id":"4","last_reported":1742072939,"current_range_meters":6800,"station_id":"ce4bhih2rcd13ifvqfr0","pricing_plan_id":"cebpf4jnsgd1na2vs0mg"},{"bike_id":"bd7fb638-a561-41df-90ca-f32685780427","system_id":"levelo_inurba_marseille","lat":43.229279,"lon":5.353769,"is_reserved":false,"is_disabled":false,"rental_uris":{"android":"levelo://app?vid=bd7fb638-a561-41df-90ca-f32685780427","ios":"levelo://app?vid=bd7fb638-a561-41df-90ca-f32685780427"},"vehicle_type_id":"4","last_reported":1742072939,"current_range_meters":6800,"station_id":"cpo3532slgdg3j2ikp40","pricing_plan_id":"cebpf4jnsgd1na2vs0mg"},{"bike_id":"0effbbb8-a931-404a-a47c-69bda0c677cc","system_id":"levelo_inurba_marseille","lat":43.22939,"lon":5.35371,"is_reserved":false,"is_disabled":false,"rental_uris":{"android":"levelo://app?vid=0effbbb8-a931-404a-a47c-69bda0c677cc","ios":"levelo://app?vid=0effbbb8-a931-404a-a47c-69bda0c677cc"},"vehicle_type_id":"4","last_reported":1742072939,"current_range_meters":6800,"station_id":"cpo3532slgdg3j2ikp40","pricing_plan_id":"cebpf4jnsgd1na2vs0mg"},{"bike_id":"2ec0f046-4e68-4150-a618-5c892d6b2cb5","system_id":"levelo_inurba_marseille","lat":43.26231,"lon":5.40456,"is_reserved":false,"is_disabled":false,"rental_uris":{"android":"levelo://app?vid=2ec0f046-4e68-4150-a618-5c892d6b2cb5","ios":"levelo://app?vid=2ec0f046-4e68-4150-a618-5c892d6b2cb5"},"vehicle_type_id":"4","last_reported":1742072939,"current_range_meters":6800,"station_id":"ce4bhmh2rcd13ifvqgmg","pricing_plan_id":"cebpf4jnsgd1na2vs0mg"},{"bike_id":"ef0891e0-58f3-4bfb-8020-31958cb4270d","system_id":"levelo_inurba_marseille","lat":43.29527,"lon":5.37495,"is_reserved":false,"is_disabled":false,"rental_uris":{"android":"levelo://app?vid=ef0891e0-58f3-4bfb-8020-31958cb4270d","ios":"levelo://app?vid=ef0891e0-58f3-4bfb-8020-31958cb4270d"},"vehicle_type_id":"4","last_reported":1742072939,"current_range_meters":7200,"station_id":"ce4bgkp2rcd13ifvqbmg","pricing_plan_id":"cebpf4jnsgd1na2vs0mg"},{"bike_id":"1ec01547-d7be-479c-bf18-ac6931f44751","system_id":"levelo_inurba_marseille","lat":43.29962,"lon":5.38497,"is_reserved":false,"is_disabled":false,"rental_uris":{"android":"levelo://app?vid=1ec01547-d7be-479c-bf18-ac6931f44751","ios":"levelo://app?vid=1ec01547-d7be-479c-bf18-ac6931f44751"},"vehicle_type_id":"4","last_reported":1742072939,"current_range_meters":7200,"station_id":"ce4bgj92rcd13ifvqbd0","pricing_plan_id":"cebpf4jnsgd1na2vs0mg"},{"bike_id":"32e54212-bcb0-4c34-9b2b-debf9a0c5310","system_id":"levelo_inurba_marseille","lat":43.29524,"lon":5.39026,"is_reserved":false,"is_disabled":false,"rental_uris":{"android":"levelo://app?vid=32e54212-bcb0-4c34-9b2b-debf9a0c5310","ios":"levelo://app?vid=32e54212-bcb0-4c34-9b2b-debf9a0c5310"},"vehicle_type_id":"4","last_reported":1742072939,"current_range_meters":7200,"station_id":"ce4bh3p2rcd13ifvqdp0","pricing_plan_id":"cebpf4jnsgd1na2vs0mg"},{"bike_id":"8a5bd971-61c1-4475-933b-dffdb284dd01","system_id":"levelo_inurba_marseille","lat":43.25024,"lon":5.3892,"is_reserved":false,"is_disabled":false,"rental_uris":{"android":"levelo://app?vid=8a5bd971-61c1-4475-933b-dffdb284dd01","ios":"levelo://app?vid=8a5bd971-61c1-4475-933b-dffdb284dd01"},"vehicle_type_id":"4","last_reported":1742072939,"current_range_meters":7200,"station_id":"ce4bhgp2rcd13ifvqfd0","pricing_plan_id":"cebpf4jnsgd1na2vs0mg"},{"bike_id":"745536dc-c7aa-4813-9f2d-a3c042de011d","system_id":"levelo_inurba_marseille","lat":43.2951,"lon":5.39415,"is_reserved":false,"is_disabled":false,"rental_uris":{"android":"levelo://app?vid=745536dc-c7aa-4813-9f2d-a3c042de011d","ios":"levelo://app?vid=745536dc-c7aa-4813-9f2d-a3c042de011d"},"vehicle_type_id":"4","last_reported":1742072939,"current_range_meters":7200,"station_id":"ce4bh292rcd13ifvqdf0","pricing_plan_id":"cebpf4jnsgd1na2vs0mg"},{"bike_id":"88c2ec9c-c2ee-474d-a6aa-dbb7a53fc0ca","system_id":"levelo_inurba_marseille","lat":43.24181,"lon":5.39734,"is_reserved":false,"is_disabled":true,"rental_uris":{"android":"levelo://app?vid=88c2ec9c-c2ee-474d-a6aa-dbb7a53fc0ca","ios":"levelo://app?vid=88c2ec9c-c2ee-474d-a6aa-dbb7a53fc0ca"},"vehicle_type_id":"4","last_reported":1742072939,"current_range_meters":7200,"station_id":"ce4bhn12rcd13ifvqgpg","pricing_plan_id":"cebpf4jnsgd1na2vs0mg"},{"bike_id":"290fed96-c961-40dd-8907-eaa6ef861c1c","system_id":"levelo_inurba_marseille","lat":43.25083,"lon":5.39525,"is_reserved":false,"is_disabled":false,"rental_uris":{"android":"levelo://app?vid=290fed96-c961-40dd-8907-eaa6ef861c1c","ios":"levelo://app?vid=290fed96-c961-40dd-8907-eaa6ef861c1c"},"vehicle_type_id":"4","last_reported":1742072939,"current_range_meters":7200,"station_id":"ce4bhm12rcd13ifvqgkg","pricing_plan_id":"cebpf4jnsgd1na2vs0mg"},{"bike_id":"a48a4c08-1744-4127-9d1a-8414680229a6","system_id":"levelo_inurba_marseille","lat":43.29988,"lon":5.38502,"is_reserved":false,"is_disabled":false,"rental_uris":{"android":"levelo://app?vid=a48a4c08-1744-4127-9d1a-8414680229a6","ios":"levelo://app?vid=a48a4c08-1744-4127-9d1a-8414680229a6"},"vehicle_type_id":"4","last_reported":1742072939,"current_range_meters":7200,"station_id":"ce4bgj92rcd13ifvqbd0","pricing_plan_id":"cebpf4jnsgd1na2vs0mg"},{"bike_id":"1617e1d5-ec59-46d1-832a-23fcba57c45a","system_id":"levelo_inurba_marseille","lat":43.26227,"lon":5.40464,"is_reserved":false,"is_disabled":false,"rental_uris":{"android":"levelo://app?vid=1617e1d5-ec59-46d1-832a-23fcba57c45a","ios":"levelo://app?vid=1617e1d5-ec59-46d1-832a-23fcba57c45a"},"vehicle_type_id":"4","last_reported":1742072939,"current_range_meters":7200,"station_id":"ce4bhmh2rcd13ifvqgmg","pricing_plan_id":"cebpf4jnsgd1na2vs0mg"},{"bike_id":"cd599479-cb87-429c-83a1-742e20b1c9d7","system_id":"levelo_inurba_marseille","lat":43.2318,"lon":5.39979,"is_reserved":false,"is_disabled":false,"rental_uris":{"android":"levelo://app?vid=cd599479-cb87-429c-83a1-742e20b1c9d7","ios":"levelo://app?vid=cd599479-cb87-429c-83a1-742e20b1c9d7"},"vehicle_type_id":"4","last_reported":1742072939,"current_range_meters":7200,"station_id":"ce4bhn12rcd13ifvqgqg","pricing_plan_id":"cebpf4jnsgd1na2vs0mg"},{"bike_id":"fac72a9f-567c-4f5c-a660-e799aff46f55","system_id":"levelo_inurba_marseille","lat":43.25102,"lon":5.40322,"is_reserved":false,"is_disabled":false,"rental_uris":{"android":"levelo://app?vid=fac72a9f-567c-4f5c-a660-e799aff46f55","ios":"levelo://app?vid=fac72a9f-567c-4f5c-a660-e799aff46f55"},"vehicle_type_id":"4","last_reported":1742072939,"current_range_meters":7200,"station_id":"ce4bhlh2rcd13ifvqgig","pricing_plan_id":"cebpf4jnsgd1na2vs0mg"},{"bike_id":"ef0420cd-62d9-46e6-bc23-a8b7c01978bb","system_id":"levelo_inurba_marseille","lat":43.29797,"lon":5.38099,"is_reserved":false,"is_disabled":true,"rental_uris":{"android":"levelo://app?vid=ef0420cd-62d9-46e6-bc23-a8b7c01978bb","ios":"levelo://app?vid=ef0420cd-62d9-46e6-bc23-a8b7c01978bb"},"vehicle_type_id":"4","last_reported":1742072939,"current_range_meters":7200,"station_id":"ce4bgip2rcd13ifvqbb0","pricing_plan_id":"cebpf4jnsgd1na2vs0mg"},{"bike_id":"a368ec29-4619-427b-b3cd-dd9e3edf5231","system_id":"levelo_inurba_marseille","lat":43.34144,"lon":5.40909,"is_reserved":false,"is_disabled":false,"rental_uris":{"android":"levelo://app?vid=a368ec29-4619-427b-b3cd-dd9e3edf5231","ios":"levelo://app?vid=a368ec29-4619-427b-b3cd-dd9e3edf5231"},"vehicle_type_id":"4","last_reported":1742072939,"current_range_meters":8000,"station_id":"ce4bhqh2rcd13ifvqhlg","pricing_plan_id":"cebpf4jnsgd1na2vs0mg"},{"bike_id":"ae101444-9461-4e76-a90e-2e5eacdcafbc","system_id":"levelo_inurba_marseille","lat":43.27867,"lon":5.38713,"is_reserved":false,"is_disabled":true,"rental_uris":{"android":"levelo://app?vid=ae101444-9461-4e76-a90e-2e5eacdcafbc","ios":"levelo://app?vid=ae101444-9461-4e76-a90e-2e5eacdcafbc"},"vehicle_type_id":"4","last_reported":1742072939,"current_range_meters":8000,"station_id":"","pricing_plan_id":"cebpf4jnsgd1na2vs0mg"},{"bike_id":"74d04e7e-29ca-4cf3-b82a-9775acfeb45e","system_id":"levelo_inurba_marseille","lat":43.29034,"lon":5.38637,"is_reserved":false,"is_disabled":false,"rental_uris":{"android":"levelo://app?vid=74d04e7e-29ca-4cf3-b82a-9775acfeb45e","ios":"levelo://app?vid=74d04e7e-29ca-4cf3-b82a-9775acfeb45e"},"vehicle_type_id":"4","last_reported":1742072939,"current_range_meters":8000,"station_id":"ce4bh4p2rcd13ifvqe0g","pricing_plan_id":"cebpf4jnsgd1na2vs0mg"},{"bike_id":"a75b9f2f-f1c1-4b6d-ac8f-577368a4e69b","system_id":"levelo_inurba_marseille","lat":43.2693,"lon":5.40282,"is_reserved":false,"is_disabled":false,"rental_uris":{"android":"levelo://app?vid=a75b9f2f-f1c1-4b6d-ac8f-577368a4e69b","ios":"levelo://app?vid=a75b9f2f-f1c1-4b6d-ac8f-577368a4e69b"},"vehicle_type_id":"4","last_reported":1742072939,"current_range_meters":8400,"station_id":"cjm6bp8fraef2m0cb0m0","pricing_plan_id":"cebpf4jnsgd1na2vs0mg"},{"bike_id":"b7244dbe-5e90-463e-ae4a-32e650252c09","system_id":"levelo_inurba_marseille","lat":43.28949,"lon":5.3661,"is_reserved":false,"is_disabled":false,"rental_uris":{"android":"levelo://app?vid=b7244dbe-5e90-463e-ae4a-32e650252c09","ios":"levelo://app?vid=b7244dbe-5e90-463e-ae4a-32e650252c09"},"vehicle_type_id":"4","last_reported":1742072939,"current_range_meters":8400,"station_id":"ce4bhap2rcd13ifvqek0","pricing_plan_id":"cebpf4jnsgd1na2vs0mg"},{"bike_id":"2cdf3b18-0a82-4018-b15a-9fa6067e63d4","system_id":"levelo_inurba_marseille","lat":43.28943,"lon":5.36622,"is_reserved":false,"is_disabled":false,"rental_uris":{"android":"levelo://app?vid=2cdf3b18-0a82-4018-b15a-9fa6067e63d4","ios":"levelo://app?vid=2cdf3b18-0a82-4018-b15a-9fa6067e63d4"},"vehicle_type_id":"4","last_reported":1742072939,"current_range_meters":8400,"station_id":"ce4bhap2rcd13ifvqek0","pricing_plan_id":"cebpf4jnsgd1na2vs0mg"},{"bike_id":"bde31b6e-d6e4-43cd-966e-a6b549bf9f71","system_id":"levelo_inurba_marseille","lat":43.2997,"lon":5.38483,"is_reserved":false,"is_disabled":false,"rental_uris":{"android":"levelo://app?vid=bde31b6e-d6e4-43cd-966e-a6b549bf9f71","ios":"levelo://app?vid=bde31b6e-d6e4-43cd-966e-a6b549bf9f71"},"vehicle_type_id":"4","last_reported":1742072939,"current_range_meters":8400,"station_id":"ce4bgj92rcd13ifvqbd0","pricing_plan_id":"cebpf4jnsgd1na2vs0mg"},{"bike_id":"a51e83ee-53b4-4965-b5bb-694ae883e860","system_id":"levelo_inurba_marseille","lat":43.26229,"lon":5.37417,"is_reserved":false,"is_disabled":true,"rental_uris":{"android":"levelo://app?vid=a51e83ee-53b4-4965-b5bb-694ae883e860","ios":"levelo://app?vid=a51e83ee-53b4-4965-b5bb-694ae883e860"},"vehicle_type_id":"4","last_reported":1742072939,"current_range_meters":8400,"station_id":"","pricing_plan_id":"cebpf4jnsgd1na2vs0mg"},{"bike_id":"aa795381-5174-4265-abe3-ddbff84516c8","system_id":"levelo_inurba_marseille","lat":43.30137,"lon":5.37412,"is_reserved":false,"is_disabled":true,"rental_uris":{"android":"levelo://app?vid=aa795381-5174-4265-abe3-ddbff84516c8","ios":"levelo://app?vid=aa795381-5174-4265-abe3-ddbff84516c8"},"vehicle_type_id":"4","last_reported":1742072939,"current_range_meters":8400,"station_id":"ce4bgs92rcd13ifvqcc0","pricing_plan_id":"cebpf4jnsgd1na2vs0mg"},{"bike_id":"77ff1956-e3fe-42ae-b360-8d558895275b","system_id":"levelo_inurba_marseille","lat":43.29025,"lon":5.3866,"is_reserved":false,"is_disabled":false,"rental_uris":{"android":"levelo://app?vid=77ff1956-e3fe-42ae-b360-8d558895275b","ios":"levelo://app?vid=77ff1956-e3fe-42ae-b360-8d558895275b"},"vehicle_type_id":"4","last_reported":1742072939,"current_range_meters":8400,"station_id":"ce4bh4p2rcd13ifvqe0g","pricing_plan_id":"cebpf4jnsgd1na2vs0mg"},{"bike_id":"daddb0e4-6e68-407a-84c7-bc1f3ac8ef61","system_id":"levelo_inurba_marseille","lat":43.29028,"lon":5.38649,"is_reserved":false,"is_disabled":false,"rental_uris":{"android":"levelo://app?vid=daddb0e4-6e68-407a-84c7-bc1f3ac8ef61","ios":"levelo://app?vid=daddb0e4-6e68-407a-84c7-bc1f3ac8ef61"},"vehicle_type_id":"4","last_reported":1742072939,"current_range_meters":8400,"station_id":"ce4bh4p2rcd13ifvqe0g","pricing_plan_id":"cebpf4jnsgd1na2vs0mg"},{"bike_id":"fce291b7-ea10-4d8e-ada9-0a02184bf6fd","system_id":"levelo_inurba_marseille","lat":43.25099,"lon":5.39516,"is_reserved":false,"is_disabled":false,"rental_uris":{"android":"levelo://app?vid=fce291b7-ea10-4d8e-ada9-0a02184bf6fd","ios":"levelo://app?vid=fce291b7-ea10-4d8e-ada9-0a02184bf6fd"},"vehicle_type_id":"4","last_reported":1742072939,"current_range_meters":8400,"station_id":"ce4bhm12rcd13ifvqgkg","pricing_plan_id":"cebpf4jnsgd1na2vs0mg"},{"bike_id":"11877a08-1209-410f-8a57-ef814c57a390","system_id":"levelo_inurba_marseille","lat":43.24169,"lon":5.36384,"is_reserved":false,"is_disabled":false,"rental_uris":{"android":"levelo://app?vid=11877a08-1209-410f-8a57-ef814c57a390","ios":"levelo://app?vid=11877a08-1209-410f-8a57-ef814c57a390"},"vehicle_type_id":"4","last_reported":1742072939,"current_range_meters":8400,"station_id":"cpo36qri1sfpv3e86is0","pricing_plan_id":"cebpf4jnsgd1na2vs0mg"},{"bike_id":"99388530-3199-4a9b-85e9-15b56e29535b","system_id":"levelo_inurba_marseille","lat":43.31305,"lon":5.37296,"is_reserved":false,"is_disabled":false,"rental_uris":{"android":"levelo://app?vid=99388530-3199-4a9b-85e9-15b56e29535b","ios":"levelo://app?vid=99388530-3199-4a9b-85e9-15b56e29535b"},"vehicle_type_id":"4","last_reported":1742072939,"current_range_meters":8400,"station_id":"","pricing_plan_id":"cebpf4jnsgd1na2vs0mg"},{"bike_id":"1ad34a54-73cc-435c-96fa-ad1f01dbf37b","system_id":"levelo_inurba_marseille","lat":43.30144,"lon":5.38782,"is_reserved":false,"is_disabled":false,"rental_uris":{"android":"levelo://app?vid=1ad34a54-73cc-435c-96fa-ad1f01dbf37b","ios":"levelo://app?vid=1ad34a54-73cc-435c-96fa-ad1f01dbf37b"},"vehicle_type_id":"4","last_reported":1742072939,"current_range_meters":8400,"station_id":"ce4bghh2rcd13ifvqb60","pricing_plan_id":"cebpf4jnsgd1na2vs0mg"},{"bike_id":"07462697-9727-42c5-a00d-efea2ff39280","system_id":"levelo_inurba_marseille","lat":43.29195,"lon":5.39324,"is_reserved":false,"is_disabled":false,"rental_uris":{"android":"levelo://app?vid=07462697-9727-42c5-a00d-efea2ff39280","ios":"levelo://app?vid=07462697-9727-42c5-a00d-efea2ff39280"},"vehicle_type_id":"4","last_reported":1742072939,"current_range_meters":8400,"station_id":"ce4bh192rcd13ifvqdd0","pricing_plan_id":"cebpf4jnsgd1na2vs0mg"},{"bike_id":"1999cecf-f38c-4961-9580-ef6a50d3e0be","system_id":"levelo_inurba_marseille","lat":43.24172,"lon":5.36403,"is_reserved":false,"is_disabled":false,"rental_uris":{"android":"levelo://app?vid=1999cecf-f38c-4961-9580-ef6a50d3e0be","ios":"levelo://app?vid=1999cecf-f38c-4961-9580-ef6a50d3e0be"},"vehicle_type_id":"4","last_reported":1742072939,"current_range_meters":8400,"station_id":"cpo36qri1sfpv3e86is0","pricing_plan_id":"cebpf4jnsgd1na2vs0mg"},{"bike_id":"385ae15c-2c3c-4490-a507-5eb20fb883a5","system_id":"levelo_inurba_marseille","lat":43.25906,"lon":5.40875,"is_reserved":false,"is_disabled":false,"rental_uris":{"android":"levelo://app?vid=385ae15c-2c3c-4490-a507-5eb20fb883a5","ios":"levelo://app?vid=385ae15c-2c3c-4490-a507-5eb20fb883a5"},"vehicle_type_id":"4","last_reported":1742072939,"current_range_meters":8400,"station_id":"ce4bhm92rcd13ifvqglg","pricing_plan_id":"cebpf4jnsgd1na2vs0mg"},{"bike_id":"19d40a31-db0e-48ce-a3c7-b7e217247c29","system_id":"levelo_inurba_marseille","lat":43.29267,"lon":5.37621,"is_reserved":false,"is_disabled":false,"rental_uris":{"android":"levelo://app?vid=19d40a31-db0e-48ce-a3c7-b7e217247c29","ios":"levelo://app?vid=19d40a31-db0e-48ce-a3c7-b7e217247c29"},"vehicle_type_id":"4","last_reported":1742072939,"current_range_meters":8400,"station_id":"ce4bgi12rcd13ifvqb80","pricing_plan_id":"cebpf4jnsgd1na2vs0mg"},{"bike_id":"832d4ee6-23fb-4c75-9bc5-6a2d919c8c55","system_id":"levelo_inurba_marseille","lat":43.25928,"lon":5.40901,"is_reserved":false,"is_disabled":false,"rental_uris":{"android":"levelo://app?vid=832d4ee6-23fb-4c75-9bc5-6a2d919c8c55","ios":"levelo://app?vid=832d4ee6-23fb-4c75-9bc5-6a2d919c8c55"},"vehicle_type_id":"4","last_reported":1742072939,"current_range_meters":8400,"station_id":"ce4bhm92rcd13ifvqglg","pricing_plan_id":"cebpf4jnsgd1na2vs0mg"},{"bike_id":"6f143c5b-933e-4a51-97d8-72a3705988b8","system_id":"levelo_inurba_marseille","lat":43.32234,"lon":5.37956,"is_reserved":false,"is_disabled":false,"rental_uris":{"android":"levelo://app?vid=6f143c5b-933e-4a51-97d8-72a3705988b8","ios":"levelo://app?vid=6f143c5b-933e-4a51-97d8-72a3705988b8"},"vehicle_type_id":"4","last_reported":1742072939,"current_range_meters":8400,"station_id":"","pricing_plan_id":"cebpf4jnsgd1na2vs0mg"},{"bike_id":"98eaae14-a018-43b6-81d4-082a4d3c26ec","system_id":"levelo_inurba_marseille","lat":43.30525,"lon":5.36709,"is_reserved":false,"is_disabled":false,"rental_uris":{"android":"levelo://app?vid=98eaae14-a018-43b6-81d4-082a4d3c26ec","ios":"levelo://app?vid=98eaae14-a018-43b6-81d4-082a4d3c26ec"},"vehicle_type_id":"4","last_reported":1742072939,"current_range_meters":10000,"station_id":"ce4bgrp2rcd13ifvqc9g","pricing_plan_id":"cebpf4jnsgd1na2vs0mg"},{"bike_id":"f584f5c1-03e6-4ffd-a12d-11d936067489","system_id":"levelo_inurba_marseille","lat":43.31266,"lon":5.40164,"is_reserved":false,"is_disabled":false,"rental_uris":{"android":"levelo://app?vid=f584f5c1-03e6-4ffd-a12d-11d936067489","ios":"levelo://app?vid=f584f5c1-03e6-4ffd-a12d-11d936067489"},"vehicle_type_id":"4","last_reported":1742072939,"current_range_meters":9200,"station_id":"ce4bh092rcd13ifvqd30","pricing_plan_id":"cebpf4jnsgd1na2vs0mg"},{"bike_id":"1ac0ebad-6828-4242-99b2-14a9f8209f79","system_id":"levelo_inurba_marseille","lat":43.23213,"lon":5.3552,"is_reserved":false,"is_disabled":false,"rental_uris":{"android":"levelo://app?vid=1ac0ebad-6828-4242-99b2-14a9f8209f79","ios":"levelo://app?vid=1ac0ebad-6828-4242-99b2-14a9f8209f79"},"vehicle_type_id":"4","last_reported":1742072939,"current_range_meters":8800,"station_id":"ce4bhu92rcd13ifvqi70","pricing_plan_id":"cebpf4jnsgd1na2vs0mg"},{"bike_id":"676e66c6-8e50-404c-b512-5f94c7d6a8fc","system_id":"levelo_inurba_marseille","lat":43.24198,"lon":5.36335,"is_reserved":false,"is_disabled":false,"rental_uris":{"android":"levelo://app?vid=676e66c6-8e50-404c-b512-5f94c7d6a8fc","ios":"levelo://app?vid=676e66c6-8e50-404c-b512-5f94c7d6a8fc"},"vehicle_type_id":"4","last_reported":1742072939,"current_range_meters":8800,"station_id":"cpo36qri1sfpv3e86is0","pricing_plan_id":"cebpf4jnsgd1na2vs0mg"},{"bike_id":"44d79f58-cca2-4705-bda9-631a6081b387","system_id":"levelo_inurba_marseille","lat":43.29256,"lon":5.38422,"is_reserved":false,"is_disabled":false,"rental_uris":{"android":"levelo://app?vid=44d79f58-cca2-4705-bda9-631a6081b387","ios":"levelo://app?vid=44d79f58-cca2-4705-bda9-631a6081b387"},"vehicle_type_id":"4","last_reported":1742072939,"current_range_meters":8800,"station_id":"","pricing_plan_id":"cebpf4jnsgd1na2vs0mg"},{"bike_id":"2ada218c-4e3e-433b-a33e-91e0fed6090b","system_id":"levelo_inurba_marseille","lat":43.29432,"lon":5.39783,"is_reserved":false,"is_disabled":true,"rental_uris":{"android":"levelo://app?vid=2ada218c-4e3e-433b-a33e-91e0fed6090b","ios":"levelo://app?vid=2ada218c-4e3e-433b-a33e-91e0fed6090b"},"vehicle_type_id":"4","last_reported":1742072939,"current_range_meters":8800,"station_id":"ce4bh3h2rcd13ifvqdo0","pricing_plan_id":"cebpf4jnsgd1na2vs0mg"},{"bike_id":"263a2dc6-0555-4ced-84b2-7c2d011da4c5","system_id":"levelo_inurba_marseille","lat":43.30916,"lon":5.40137,"is_reserved":false,"is_disabled":false,"rental_uris":{"android":"levelo://app?vid=263a2dc6-0555-4ced-84b2-7c2d011da4c5","ios":"levelo://app?vid=263a2dc6-0555-4ced-84b2-7c2d011da4c5"},"vehicle_type_id":"4","last_reported":1742072939,"current_range_meters":8800,"station_id":"ce4bgvp2rcd13ifvqct0","pricing_plan_id":"cebpf4jnsgd1na2vs0mg"},{"bike_id":"e0834956-e6d7-4bc3-862d-e76e3f887cbb","system_id":"levelo_inurba_marseille","lat":43.23066,"lon":5.3549,"is_reserved":false,"is_disabled":false,"rental_uris":{"android":"levelo://app?vid=e0834956-e6d7-4bc3-862d-e76e3f887cbb","ios":"levelo://app?vid=e0834956-e6d7-4bc3-862d-e76e3f887cbb"},"vehicle_type_id":"4","last_reported":1742072939,"current_range_meters":8800,"station_id":"cpo3342slgdg3j2ifvpg","pricing_plan_id":"cebpf4jnsgd1na2vs0mg"},{"bike_id":"92bd2e8f-197b-47ad-8530-ee4394b2ecce","system_id":"levelo_inurba_marseille","lat":43.24179,"lon":5.36406,"is_reserved":false,"is_disabled":false,"rental_uris":{"android":"levelo://app?vid=92bd2e8f-197b-47ad-8530-ee4394b2ecce","ios":"levelo://app?vid=92bd2e8f-197b-47ad-8530-ee4394b2ecce"},"vehicle_type_id":"4","last_reported":1742072939,"current_range_meters":8800,"station_id":"cpo36qri1sfpv3e86is0","pricing_plan_id":"cebpf4jnsgd1na2vs0mg"},{"bike_id":"374c16be-0a72-4407-9bc0-efe7b00bc1af","system_id":"levelo_inurba_marseille","lat":43.29263,"lon":5.38433,"is_reserved":false,"is_disabled":false,"rental_uris":{"android":"levelo://app?vid=374c16be-0a72-4407-9bc0-efe7b00bc1af","ios":"levelo://app?vid=374c16be-0a72-4407-9bc0-efe7b00bc1af"},"vehicle_type_id":"4","last_reported":1742072939,"current_range_meters":8800,"station_id":"","pricing_plan_id":"cebpf4jnsgd1na2vs0mg"},{"bike_id":"4a1bbf96-65e1-4a39-ace7-b5a98c8befe0","system_id":"levelo_inurba_marseille","lat":43.29992,"lon":5.38474,"is_reserved":false,"is_disabled":false,"rental_uris":{"android":"levelo://app?vid=4a1bbf96-65e1-4a39-ace7-b5a98c8befe0","ios":"levelo://app?vid=4a1bbf96-65e1-4a39-ace7-b5a98c8befe0"},"vehicle_type_id":"4","last_reported":1742072939,"current_range_meters":8800,"station_id":"ce4bgj92rcd13ifvqbd0","pricing_plan_id":"cebpf4jnsgd1na2vs0mg"},{"bike_id":"bcac2298-211c-4aac-aead-90450354ff15","system_id":"levelo_inurba_marseille","lat":43.28924,"lon":5.38389,"is_reserved":false,"is_disabled":false,"rental_uris":{"android":"levelo://app?vid=bcac2298-211c-4aac-aead-90450354ff15","ios":"levelo://app?vid=bcac2298-211c-4aac-aead-90450354ff15"},"vehicle_type_id":"4","last_reported":1742072939,"current_range_meters":8800,"station_id":"ce4bh612rcd13ifvqe6g","pricing_plan_id":"cebpf4jnsgd1na2vs0mg"},{"bike_id":"f6b3a511-92bb-49b4-ad08-ada46b8c21af","system_id":"levelo_inurba_marseille","lat":43.29301,"lon":5.37167,"is_reserved":false,"is_disabled":false,"rental_uris":{"android":"levelo://app?vid=f6b3a511-92bb-49b4-ad08-ada46b8c21af","ios":"levelo://app?vid=f6b3a511-92bb-49b4-ad08-ada46b8c21af"},"vehicle_type_id":"4","last_reported":1742072939,"current_range_meters":8800,"station_id":"ce4bgh92rcd13ifvqb40","pricing_plan_id":"cebpf4jnsgd1na2vs0mg"},{"bike_id":"85d10f39-4b49-477c-b6e3-e96eb6cda2fc","system_id":"levelo_inurba_marseille","lat":43.27618,"lon":5.36122,"is_reserved":false,"is_disabled":false,"rental_uris":{"android":"levelo://app?vid=85d10f39-4b49-477c-b6e3-e96eb6cda2fc","ios":"levelo://app?vid=85d10f39-4b49-477c-b6e3-e96eb6cda2fc"},"vehicle_type_id":"4","last_reported":1742072939,"current_range_meters":9200,"station_id":"ce4bgj92rcd13ifvqbe0","pricing_plan_id":"cebpf4jnsgd1na2vs0mg"},{"bike_id":"e3a30a82-7658-49e2-a1fe-3e3d39261b93","system_id":"levelo_inurba_marseille","lat":43.29928,"lon":5.39238,"is_reserved":false,"is_disabled":false,"rental_uris":{"android":"levelo://app?vid=e3a30a82-7658-49e2-a1fe-3e3d39261b93","ios":"levelo://app?vid=e3a30a82-7658-49e2-a1fe-3e3d39261b93"},"vehicle_type_id":"4","last_reported":1742072939,"current_range_meters":9200,"station_id":"","pricing_plan_id":"cebpf4jnsgd1na2vs0mg"},{"bike_id":"63cfaea5-f172-409c-93d3-875ff9136d61","system_id":"levelo_inurba_marseille","lat":43.24664,"lon":5.38162,"is_reserved":false,"is_disabled":false,"rental_uris":{"android":"levelo://app?vid=63cfaea5-f172-409c-93d3-875ff9136d61","ios":"levelo://app?vid=63cfaea5-f172-409c-93d3-875ff9136d61"},"vehicle_type_id":"4","last_reported":1742072939,"current_range_meters":9200,"station_id":"ce4bhih2rcd13ifvqfr0","pricing_plan_id":"cebpf4jnsgd1na2vs0mg"},{"bike_id":"b614f100-11d7-4ef9-8f84-7c5dea0b786b","system_id":"levelo_inurba_marseille","lat":43.26944,"lon":5.40282,"is_reserved":false,"is_disabled":false,"rental_uris":{"android":"levelo://app?vid=b614f100-11d7-4ef9-8f84-7c5dea0b786b","ios":"levelo://app?vid=b614f100-11d7-4ef9-8f84-7c5dea0b786b"},"vehicle_type_id":"4","last_reported":1742072939,"current_range_meters":9200,"station_id":"cjm6bp8fraef2m0cb0m0","pricing_plan_id":"cebpf4jnsgd1na2vs0mg"},{"bike_id":"3034db0c-7cfa-4361-a8e5-85d8b0635402","system_id":"levelo_inurba_marseille","lat":43.23955,"lon":5.36638,"is_reserved":false,"is_disabled":false,"rental_uris":{"android":"levelo://app?vid=3034db0c-7cfa-4361-a8e5-85d8b0635402","ios":"levelo://app?vid=3034db0c-7cfa-4361-a8e5-85d8b0635402"},"vehicle_type_id":"4","last_reported":1742072939,"current_range_meters":9200,"station_id":"ce4bhi12rcd13ifvqfp0","pricing_plan_id":"cebpf4jnsgd1na2vs0mg"},{"bike_id":"75beec41-4a88-4024-bcbf-fdcd1b863557","system_id":"levelo_inurba_marseille","lat":43.29598,"lon":5.38095,"is_reserved":false,"is_disabled":false,"rental_uris":{"android":"levelo://app?vid=75beec41-4a88-4024-bcbf-fdcd1b863557","ios":"levelo://app?vid=75beec41-4a88-4024-bcbf-fdcd1b863557"},"vehicle_type_id":"4","last_reported":1742072939,"current_range_meters":9200,"station_id":"ce4bgl12rcd13ifvqbo0","pricing_plan_id":"cebpf4jnsgd1na2vs0mg"},{"bike_id":"5b11d238-4115-4238-b343-5a01412da5fe","system_id":"levelo_inurba_marseille","lat":43.29372,"lon":5.37838,"is_reserved":false,"is_disabled":false,"rental_uris":{"android":"levelo://app?vid=5b11d238-4115-4238-b343-5a01412da5fe","ios":"levelo://app?vid=5b11d238-4115-4238-b343-5a01412da5fe"},"vehicle_type_id":"4","last_reported":1742072939,"current_range_meters":9200,"station_id":"ce4bgjh2rcd13ifvqbf0","pricing_plan_id":"cebpf4jnsgd1na2vs0mg"},{"bike_id":"9625f194-a853-4767-bda8-0eedb08b2cb3","system_id":"levelo_inurba_marseille","lat":43.28722,"lon":5.39996,"is_reserved":false,"is_disabled":true,"rental_uris":{"android":"levelo://app?vid=9625f194-a853-4767-bda8-0eedb08b2cb3","ios":"levelo://app?vid=9625f194-a853-4767-bda8-0eedb08b2cb3"},"vehicle_type_id":"4","last_reported":1742072939,"current_range_meters":9200,"station_id":"ce4bho92rcd13ifvqh3g","pricing_plan_id":"cebpf4jnsgd1na2vs0mg"},{"bike_id":"efb53dda-871b-483c-8dec-e716116f9234","system_id":"levelo_inurba_marseille","lat":43.3112,"lon":5.3674,"is_reserved":false,"is_disabled":false,"rental_uris":{"android":"levelo://app?vid=efb53dda-871b-483c-8dec-e716116f9234","ios":"levelo://app?vid=efb53dda-871b-483c-8dec-e716116f9234"},"vehicle_type_id":"4","last_reported":1742072939,"current_range_meters":9200,"station_id":"","pricing_plan_id":"cebpf4jnsgd1na2vs0mg"},{"bike_id":"122d3c0b-8ce7-4d45-b19c-631c20d2088e","system_id":"levelo_inurba_marseille","lat":43.2904,"lon":5.38654,"is_reserved":false,"is_disabled":false,"rental_uris":{"android":"levelo://app?vid=122d3c0b-8ce7-4d45-b19c-631c20d2088e","ios":"levelo://app?vid=122d3c0b-8ce7-4d45-b19c-631c20d2088e"},"vehicle_type_id":"4","last_reported":1742072939,"current_range_meters":9200,"station_id":"ce4bh4p2rcd13ifvqe0g","pricing_plan_id":"cebpf4jnsgd1na2vs0mg"},{"bike_id":"7dd7534f-0cfd-40bf-b3d9-06f5cc8b4cbc","system_id":"levelo_inurba_marseille","lat":43.24805,"lon":5.37457,"is_reserved":false,"is_disabled":false,"rental_uris":{"android":"levelo://app?vid=7dd7534f-0cfd-40bf-b3d9-06f5cc8b4cbc","ios":"levelo://app?vid=7dd7534f-0cfd-40bf-b3d9-06f5cc8b4cbc"},"vehicle_type_id":"4","last_reported":1742072939,"current_range_meters":9200,"station_id":"ce4bhgh2rcd13ifvqfb0","pricing_plan_id":"cebpf4jnsgd1na2vs0mg"},{"bike_id":"4f33dae6-602c-4c1c-804a-25b8bcc2b238","system_id":"levelo_inurba_marseille","lat":43.29023,"lon":5.38656,"is_reserved":false,"is_disabled":false,"rental_uris":{"android":"levelo://app?vid=4f33dae6-602c-4c1c-804a-25b8bcc2b238","ios":"levelo://app?vid=4f33dae6-602c-4c1c-804a-25b8bcc2b238"},"vehicle_type_id":"4","last_reported":1742072939,"current_range_meters":9200,"station_id":"ce4bh4p2rcd13ifvqe0g","pricing_plan_id":"cebpf4jnsgd1na2vs0mg"},{"bike_id":"c491e804-fc87-4c1d-bae5-12449e8e3260","system_id":"levelo_inurba_marseille","lat":43.29969,"lon":5.38513,"is_reserved":false,"is_disabled":false,"rental_uris":{"android":"levelo://app?vid=c491e804-fc87-4c1d-bae5-12449e8e3260","ios":"levelo://app?vid=c491e804-fc87-4c1d-bae5-12449e8e3260"},"vehicle_type_id":"4","last_reported":1742072939,"current_range_meters":9200,"station_id":"ce4bgj92rcd13ifvqbd0","pricing_plan_id":"cebpf4jnsgd1na2vs0mg"},{"bike_id":"0b7bfdb8-fd03-4687-9225-8085184f929c","system_id":"levelo_inurba_marseille","lat":43.32363,"lon":5.36809,"is_reserved":false,"is_disabled":false,"rental_uris":{"android":"levelo://app?vid=0b7bfdb8-fd03-4687-9225-8085184f929c","ios":"levelo://app?vid=0b7bfdb8-fd03-4687-9225-8085184f929c"},"vehicle_type_id":"4","last_reported":1742072939,"current_range_meters":9600,"station_id":"ce4bhsh2rcd13ifvqi2g","pricing_plan_id":"cebpf4jnsgd1na2vs0mg"},{"bike_id":"f086f384-feec-4968-a0b6-7828464e346f","system_id":"levelo_inurba_marseille","lat":43.28395,"lon":5.37486,"is_reserved":false,"is_disabled":false,"rental_uris":{"android":"levelo://app?vid=f086f384-feec-4968-a0b6-7828464e346f","ios":"levelo://app?vid=f086f384-feec-4968-a0b6-7828464e346f"},"vehicle_type_id":"4","last_reported":1742072939,"current_range_meters":9600,"station_id":"ce4bh412rcd13ifvqds0","pricing_plan_id":"cebpf4jnsgd1na2vs0mg"},{"bike_id":"e52b41b5-52df-4c67-a85c-3cebb3bf7504","system_id":"levelo_inurba_marseille","lat":43.32364,"lon":5.36769,"is_reserved":false,"is_disabled":false,"rental_uris":{"android":"levelo://app?vid=e52b41b5-52df-4c67-a85c-3cebb3bf7504","ios":"levelo://app?vid=e52b41b5-52df-4c67-a85c-3cebb3bf7504"},"vehicle_type_id":"4","last_reported":1742072939,"current_range_meters":9600,"station_id":"ce4bhsh2rcd13ifvqi2g","pricing_plan_id":"cebpf4jnsgd1na2vs0mg"},{"bike_id":"91cb9d70-b79b-4df4-8b4b-1738ec0fd951","system_id":"levelo_inurba_marseille","lat":43.29029,"lon":5.3866,"is_reserved":false,"is_disabled":false,"rental_uris":{"android":"levelo://app?vid=91cb9d70-b79b-4df4-8b4b-1738ec0fd951","ios":"levelo://app?vid=91cb9d70-b79b-4df4-8b4b-1738ec0fd951"},"vehicle_type_id":"4","last_reported":1742072939,"current_range_meters":9600,"station_id":"ce4bh4p2rcd13ifvqe0g","pricing_plan_id":"cebpf4jnsgd1na2vs0mg"},{"bike_id":"71d6b220-48b3-44b0-9feb-d7bbfca6b232","system_id":"levelo_inurba_marseille","lat":43.254921,"lon":5.376611,"is_reserved":false,"is_disabled":true,"rental_uris":{"android":"levelo://app?vid=71d6b220-48b3-44b0-9feb-d7bbfca6b232","ios":"levelo://app?vid=71d6b220-48b3-44b0-9feb-d7bbfca6b232"},"vehicle_type_id":"4","last_reported":1742072939,"current_range_meters":9600,"station_id":"ce4bhh12rcd13ifvqff0","pricing_plan_id":"cebpf4jnsgd1na2vs0mg"},{"bike_id":"ac28eb0b-f9e3-454d-8eb6-b1f5cccb5d84","system_id":"levelo_inurba_marseille","lat":43.29977,"lon":5.38509,"is_reserved":false,"is_disabled":false,"rental_uris":{"android":"levelo://app?vid=ac28eb0b-f9e3-454d-8eb6-b1f5cccb5d84","ios":"levelo://app?vid=ac28eb0b-f9e3-454d-8eb6-b1f5cccb5d84"},"vehicle_type_id":"4","last_reported":1742072939,"current_range_meters":9600,"station_id":"ce4bgj92rcd13ifvqbd0","pricing_plan_id":"cebpf4jnsgd1na2vs0mg"},{"bike_id":"cfabaa4d-15fd-4b12-8893-bb822c895519","system_id":"levelo_inurba_marseille","lat":43.29299,"lon":5.37456,"is_reserved":false,"is_disabled":false,"rental_uris":{"android":"levelo://app?vid=cfabaa4d-15fd-4b12-8893-bb822c895519","ios":"levelo://app?vid=cfabaa4d-15fd-4b12-8893-bb822c895519"},"vehicle_type_id":"4","last_reported":1742072939,"current_range_meters":9600,"station_id":"ce4bgi12rcd13ifvqb70","pricing_plan_id":"cebpf4jnsgd1na2vs0mg"},{"bike_id":"a7c61189-d39b-4cf7-a782-bd9ecbf9bfa4","system_id":"levelo_inurba_marseille","lat":43.29529,"lon":5.39064,"is_reserved":false,"is_disabled":false,"rental_uris":{"android":"levelo://app?vid=a7c61189-d39b-4cf7-a782-bd9ecbf9bfa4","ios":"levelo://app?vid=a7c61189-d39b-4cf7-a782-bd9ecbf9bfa4"},"vehicle_type_id":"4","last_reported":1742072939,"current_range_meters":9600,"station_id":"ce4bh3p2rcd13ifvqdp0","pricing_plan_id":"cebpf4jnsgd1na2vs0mg"},{"bike_id":"2e57b3a3-b0f7-46e9-8467-c545170db7fe","system_id":"levelo_inurba_marseille","lat":43.2958,"lon":5.38996,"is_reserved":false,"is_disabled":false,"rental_uris":{"android":"levelo://app?vid=2e57b3a3-b0f7-46e9-8467-c545170db7fe","ios":"levelo://app?vid=2e57b3a3-b0f7-46e9-8467-c545170db7fe"},"vehicle_type_id":"4","last_reported":1742072939,"current_range_meters":10000,"station_id":"ce4bh3p2rcd13ifvqdp0","pricing_plan_id":"cebpf4jnsgd1na2vs0mg"},{"bike_id":"c5f3baa5-071e-49c9-a279-6962d03083ac","system_id":"levelo_inurba_marseille","lat":43.30405,"lon":5.36774,"is_reserved":false,"is_disabled":false,"rental_uris":{"android":"levelo://app?vid=c5f3baa5-071e-49c9-a279-6962d03083ac","ios":"levelo://app?vid=c5f3baa5-071e-49c9-a279-6962d03083ac"},"vehicle_type_id":"4","last_reported":1742072939,"current_range_meters":10000,"station_id":"","pricing_plan_id":"cebpf4jnsgd1na2vs0mg"},{"bike_id":"393d5e0c-b0b1-4362-abc5-3dff5cc16a82","system_id":"levelo_inurba_marseille","lat":43.29183,"lon":5.39325,"is_reserved":false,"is_disabled":false,"rental_uris":{"android":"levelo://app?vid=393d5e0c-b0b1-4362-abc5-3dff5cc16a82","ios":"levelo://app?vid=393d5e0c-b0b1-4362-abc5-3dff5cc16a82"},"vehicle_type_id":"4","last_reported":1742072939,"current_range_meters":10000,"station_id":"ce4bh192rcd13ifvqdd0","pricing_plan_id":"cebpf4jnsgd1na2vs0mg"},{"bike_id":"328af8a3-4fb0-4e47-944b-bf366e3aa7cc","system_id":"levelo_inurba_marseille","lat":43.29298,"lon":5.37449,"is_reserved":false,"is_disabled":false,"rental_uris":{"android":"levelo://app?vid=328af8a3-4fb0-4e47-944b-bf366e3aa7cc","ios":"levelo://app?vid=328af8a3-4fb0-4e47-944b-bf366e3aa7cc"},"vehicle_type_id":"4","last_reported":1742072939,"current_range_meters":10000,"station_id":"ce4bgi12rcd13ifvqb70","pricing_plan_id":"cebpf4jnsgd1na2vs0mg"},{"bike_id":"1ce69257-9fdb-4677-84b5-31d22ae86b4f","system_id":"levelo_inurba_marseille","lat":43.29292,"lon":5.37458,"is_reserved":false,"is_disabled":false,"rental_uris":{"android":"levelo://app?vid=1ce69257-9fdb-4677-84b5-31d22ae86b4f","ios":"levelo://app?vid=1ce69257-9fdb-4677-84b5-31d22ae86b4f"},"vehicle_type_id":"4","last_reported":1742072939,"current_range_meters":10000,"station_id":"ce4bgi12rcd13ifvqb70","pricing_plan_id":"cebpf4jnsgd1na2vs0mg"},{"bike_id":"2888920d-5337-4dad-b80c-b748fa94c0d3","system_id":"levelo_inurba_marseille","lat":43.24649,"lon":5.38908,"is_reserved":false,"is_disabled":false,"rental_uris":{"android":"levelo://app?vid=2888920d-5337-4dad-b80c-b748fa94c0d3","ios":"levelo://app?vid=2888920d-5337-4dad-b80c-b748fa94c0d3"},"vehicle_type_id":"4","last_reported":1742072939,"current_range_meters":10000,"station_id":"ce4bhg12rcd13ifvqf60","pricing_plan_id":"cebpf4jnsgd1na2vs0mg"},{"bike_id":"394da895-de5c-4e89-9659-0e5c97b15363","system_id":"levelo_inurba_marseille","lat":43.278124,"lon":5.407146,"is_reserved":false,"is_disabled":false,"rental_uris":{"android":"levelo://app?vid=394da895-de5c-4e89-9659-0e5c97b15363","ios":"levelo://app?vid=394da895-de5c-4e89-9659-0e5c97b15363"},"vehicle_type_id":"4","last_reported":1742072939,"current_range_meters":10000,"station_id":"ce4bh392rcd13ifvqdm0","pricing_plan_id":"cebpf4jnsgd1na2vs0mg"},{"bike_id":"2bc050d9-2120-4b33-8309-3a17da1a8770","system_id":"levelo_inurba_marseille","lat":43.28933,"lon":5.38399,"is_reserved":false,"is_disabled":false,"rental_uris":{"android":"levelo://app?vid=2bc050d9-2120-4b33-8309-3a17da1a8770","ios":"levelo://app?vid=2bc050d9-2120-4b33-8309-3a17da1a8770"},"vehicle_type_id":"4","last_reported":1742072939,"current_range_meters":10800,"station_id":"ce4bh612rcd13ifvqe6g","pricing_plan_id":"cebpf4jnsgd1na2vs0mg"},{"bike_id":"33bebc78-59e6-4ca2-a2ef-6c7554b85cf4","system_id":"levelo_inurba_marseille","lat":43.29383,"lon":5.3786,"is_reserved":false,"is_disabled":false,"rental_uris":{"android":"levelo://app?vid=33bebc78-59e6-4ca2-a2ef-6c7554b85cf4","ios":"levelo://app?vid=33bebc78-59e6-4ca2-a2ef-6c7554b85cf4"},"vehicle_type_id":"4","last_reported":1742072939,"current_range_meters":10800,"station_id":"ce4bgjh2rcd13ifvqbf0","pricing_plan_id":"cebpf4jnsgd1na2vs0mg"},{"bike_id":"b79fb99a-9a33-46ce-be17-95ffa87072bc","system_id":"levelo_inurba_marseille","lat":43.28921,"lon":5.38398,"is_reserved":false,"is_disabled":false,"rental_uris":{"android":"levelo://app?vid=b79fb99a-9a33-46ce-be17-95ffa87072bc","ios":"levelo://app?vid=b79fb99a-9a33-46ce-be17-95ffa87072bc"},"vehicle_type_id":"4","last_reported":1742072939,"current_range_meters":10800,"station_id":"ce4bh612rcd13ifvqe6g","pricing_plan_id":"cebpf4jnsgd1na2vs0mg"},{"bike_id":"5f7f03a2-add7-44f0-9ebb-8428c5f0e58a","system_id":"levelo_inurba_marseille","lat":43.25933,"lon":5.4088,"is_reserved":false,"is_disabled":false,"rental_uris":{"android":"levelo://app?vid=5f7f03a2-add7-44f0-9ebb-8428c5f0e58a","ios":"levelo://app?vid=5f7f03a2-add7-44f0-9ebb-8428c5f0e58a"},"vehicle_type_id":"4","last_reported":1742072939,"current_range_meters":10800,"station_id":"ce4bhm92rcd13ifvqglg","pricing_plan_id":"cebpf4jnsgd1na2vs0mg"},{"bike_id":"33ba17cc-e7c9-42b4-aa95-607bce61f638","system_id":"levelo_inurba_marseille","lat":43.29574,"lon":5.37519,"is_reserved":false,"is_disabled":false,"rental_uris":{"android":"levelo://app?vid=33ba17cc-e7c9-42b4-aa95-607bce61f638","ios":"levelo://app?vid=33ba17cc-e7c9-42b4-aa95-607bce61f638"},"vehicle_type_id":"4","last_reported":1742072939,"current_range_meters":10800,"station_id":"ce4bgh92rcd13ifvqb50","pricing_plan_id":"cebpf4jnsgd1na2vs0mg"},{"bike_id":"b017039e-a41c-4a9c-8009-3c57bed44ca2","system_id":"levelo_inurba_marseille","lat":43.29033,"lon":5.3867,"is_reserved":false,"is_disabled":false,"rental_uris":{"android":"levelo://app?vid=b017039e-a41c-4a9c-8009-3c57bed44ca2","ios":"levelo://app?vid=b017039e-a41c-4a9c-8009-3c57bed44ca2"},"vehicle_type_id":"4","last_reported":1742072939,"current_range_meters":10800,"station_id":"ce4bh4p2rcd13ifvqe0g","pricing_plan_id":"cebpf4jnsgd1na2vs0mg"},{"bike_id":"982f4015-7051-462f-8b00-100a746067b2","system_id":"levelo_inurba_marseille","lat":43.29078,"lon":5.38208,"is_reserved":false,"is_disabled":false,"rental_uris":{"android":"levelo://app?vid=982f4015-7051-462f-8b00-100a746067b2","ios":"levelo://app?vid=982f4015-7051-462f-8b00-100a746067b2"},"vehicle_type_id":"4","last_reported":1742072939,"current_range_meters":10800,"station_id":"","pricing_plan_id":"cebpf4jnsgd1na2vs0mg"},{"bike_id":"3f51f1f5-7a39-4364-adc9-c4c0ef6e90b0","system_id":"levelo_inurba_marseille","lat":43.28619,"lon":5.35102,"is_reserved":false,"is_disabled":false,"rental_uris":{"android":"levelo://app?vid=3f51f1f5-7a39-4364-adc9-c4c0ef6e90b0","ios":"levelo://app?vid=3f51f1f5-7a39-4364-adc9-c4c0ef6e90b0"},"vehicle_type_id":"4","last_reported":1742072939,"current_range_meters":10800,"station_id":"ce4bhch2rcd13ifvqeug","pricing_plan_id":"cebpf4jnsgd1na2vs0mg"},{"bike_id":"4e4ff17e-ac6f-4836-86cd-ac570da0ce62","system_id":"levelo_inurba_marseille","lat":43.30431,"lon":5.39744,"is_reserved":false,"is_disabled":false,"rental_uris":{"android":"levelo://app?vid=4e4ff17e-ac6f-4836-86cd-ac570da0ce62","ios":"levelo://app?vid=4e4ff17e-ac6f-4836-86cd-ac570da0ce62"},"vehicle_type_id":"4","last_reported":1742072939,"current_range_meters":10000,"station_id":"ce4bhgp2rcd13ifvqfe0","pricing_plan_id":"cebpf4jnsgd1na2vs0mg"},{"bike_id":"5e54b498-8c8a-4913-93ce-6481493b12c0","system_id":"levelo_inurba_marseille","lat":43.28661,"lon":5.36341,"is_reserved":false,"is_disabled":false,"rental_uris":{"android":"levelo://app?vid=5e54b498-8c8a-4913-93ce-6481493b12c0","ios":"levelo://app?vid=5e54b498-8c8a-4913-93ce-6481493b12c0"},"vehicle_type_id":"4","last_reported":1742072939,"current_range_meters":13600,"station_id":"ce4bhah2rcd13ifvqej0","pricing_plan_id":"cebpf4jnsgd1na2vs0mg"},{"bike_id":"a159b65b-688c-4675-afbe-cdb2041dfb71","system_id":"levelo_inurba_marseille","lat":43.29943,"lon":5.36529,"is_reserved":false,"is_disabled":false,"rental_uris":{"android":"levelo://app?vid=a159b65b-688c-4675-afbe-cdb2041dfb71","ios":"levelo://app?vid=a159b65b-688c-4675-afbe-cdb2041dfb71"},"vehicle_type_id":"4","last_reported":1742072939,"current_range_meters":10800,"station_id":"ce4bgm92rcd13ifvqbr0","pricing_plan_id":"cebpf4jnsgd1na2vs0mg"},{"bike_id":"5fc2887f-2e96-4617-9e73-6d0fcd067f47","system_id":"levelo_inurba_marseille","lat":43.29034,"lon":5.38636,"is_reserved":false,"is_disabled":false,"rental_uris":{"android":"levelo://app?vid=5fc2887f-2e96-4617-9e73-6d0fcd067f47","ios":"levelo://app?vid=5fc2887f-2e96-4617-9e73-6d0fcd067f47"},"vehicle_type_id":"4","last_reported":1742072939,"current_range_meters":10800,"station_id":"ce4bh4p2rcd13ifvqe0g","pricing_plan_id":"cebpf4jnsgd1na2vs0mg"},{"bike_id":"6a8fcd44-d4c6-48b2-995d-39f28fa0cf9c","system_id":"levelo_inurba_marseille","lat":43.29194,"lon":5.39328,"is_reserved":false,"is_disabled":false,"rental_uris":{"android":"levelo://app?vid=6a8fcd44-d4c6-48b2-995d-39f28fa0cf9c","ios":"levelo://app?vid=6a8fcd44-d4c6-48b2-995d-39f28fa0cf9c"},"vehicle_type_id":"4","last_reported":1742072939,"current_range_meters":10800,"station_id":"ce4bh192rcd13ifvqdd0","pricing_plan_id":"cebpf4jnsgd1na2vs0mg"},{"bike_id":"b1e7df8d-18c5-4120-bd63-c931da54d431","system_id":"levelo_inurba_marseille","lat":43.30144,"lon":5.38069,"is_reserved":false,"is_disabled":false,"rental_uris":{"android":"levelo://app?vid=b1e7df8d-18c5-4120-bd63-c931da54d431","ios":"levelo://app?vid=b1e7df8d-18c5-4120-bd63-c931da54d431"},"vehicle_type_id":"4","last_reported":1742072939,"current_range_meters":10800,"station_id":"ce4bgjp2rcd13ifvqbh0","pricing_plan_id":"cebpf4jnsgd1na2vs0mg"},{"bike_id":"743c9fbf-42df-4986-bc8c-9b4a2bc386be","system_id":"levelo_inurba_marseille","lat":43.24071,"lon":5.37759,"is_reserved":false,"is_disabled":false,"rental_uris":{"android":"levelo://app?vid=743c9fbf-42df-4986-bc8c-9b4a2bc386be","ios":"levelo://app?vid=743c9fbf-42df-4986-bc8c-9b4a2bc386be"},"vehicle_type_id":"4","last_reported":1742072939,"current_range_meters":10800,"station_id":"ce4bhnp2rcd13ifvqgvg","pricing_plan_id":"cebpf4jnsgd1na2vs0mg"},{"bike_id":"8051c7a9-0a60-414c-b7fa-755e910cd3b8","system_id":"levelo_inurba_marseille","lat":43.29166,"lon":5.38426,"is_reserved":false,"is_disabled":false,"rental_uris":{"android":"levelo://app?vid=8051c7a9-0a60-414c-b7fa-755e910cd3b8","ios":"levelo://app?vid=8051c7a9-0a60-414c-b7fa-755e910cd3b8"},"vehicle_type_id":"4","last_reported":1742072939,"current_range_meters":10800,"station_id":"","pricing_plan_id":"cebpf4jnsgd1na2vs0mg"},{"bike_id":"f2b7b04e-8089-4d6c-9db8-5e21bca75c26","system_id":"levelo_inurba_marseille","lat":43.27824,"lon":5.39194,"is_reserved":false,"is_disabled":true,"rental_uris":{"android":"levelo://app?vid=f2b7b04e-8089-4d6c-9db8-5e21bca75c26","ios":"levelo://app?vid=f2b7b04e-8089-4d6c-9db8-5e21bca75c26"},"vehicle_type_id":"4","last_reported":1742072939,"current_range_meters":10800,"station_id":"ce4bhjp2rcd13ifvqga0","pricing_plan_id":"cebpf4jnsgd1na2vs0mg"},{"bike_id":"78c4d574-73f3-4076-a478-aca5b316873d","system_id":"levelo_inurba_marseille","lat":43.30141,"lon":5.3878,"is_reserved":false,"is_disabled":false,"rental_uris":{"android":"levelo://app?vid=78c4d574-73f3-4076-a478-aca5b316873d","ios":"levelo://app?vid=78c4d574-73f3-4076-a478-aca5b316873d"},"vehicle_type_id":"4","last_reported":1742072939,"current_range_meters":10800,"station_id":"ce4bghh2rcd13ifvqb60","pricing_plan_id":"cebpf4jnsgd1na2vs0mg"},{"bike_id":"b723aca3-8e78-42dc-aea3-2292da138d59","system_id":"levelo_inurba_marseille","lat":43.23061,"lon":5.35497,"is_reserved":false,"is_disabled":false,"rental_uris":{"android":"levelo://app?vid=b723aca3-8e78-42dc-aea3-2292da138d59","ios":"levelo://app?vid=b723aca3-8e78-42dc-aea3-2292da138d59"},"vehicle_type_id":"4","last_reported":1742072939,"current_range_meters":10800,"station_id":"cpo3342slgdg3j2ifvpg","pricing_plan_id":"cebpf4jnsgd1na2vs0mg"},{"bike_id":"3a766561-d5df-4bb1-accb-85c347f27a70","system_id":"levelo_inurba_marseille","lat":43.3373,"lon":5.39188,"is_reserved":false,"is_disabled":false,"rental_uris":{"android":"levelo://app?vid=3a766561-d5df-4bb1-accb-85c347f27a70","ios":"levelo://app?vid=3a766561-d5df-4bb1-accb-85c347f27a70"},"vehicle_type_id":"4","last_reported":1742072939,"current_range_meters":10800,"station_id":"ce4bhr92rcd13ifvqhsg","pricing_plan_id":"cebpf4jnsgd1na2vs0mg"},{"bike_id":"8473bf4e-bce4-4915-beac-ba58d56310a4","system_id":"levelo_inurba_marseille","lat":43.29607,"lon":5.38096,"is_reserved":false,"is_disabled":false,"rental_uris":{"android":"levelo://app?vid=8473bf4e-bce4-4915-beac-ba58d56310a4","ios":"levelo://app?vid=8473bf4e-bce4-4915-beac-ba58d56310a4"},"vehicle_type_id":"4","last_reported":1742072939,"current_range_meters":10800,"station_id":"ce4bgl12rcd13ifvqbo0","pricing_plan_id":"cebpf4jnsgd1na2vs0mg"},{"bike_id":"8d46dbc7-e893-4a8a-92aa-43a9252bb22d","system_id":"levelo_inurba_marseille","lat":43.2988,"lon":5.38917,"is_reserved":false,"is_disabled":false,"rental_uris":{"android":"levelo://app?vid=8d46dbc7-e893-4a8a-92aa-43a9252bb22d","ios":"levelo://app?vid=8d46dbc7-e893-4a8a-92aa-43a9252bb22d"},"vehicle_type_id":"4","last_reported":1742072939,"current_range_meters":10800,"station_id":"ce4bh392rcd13ifvqdl0","pricing_plan_id":"cebpf4jnsgd1na2vs0mg"},{"bike_id":"c1c84464-002e-4984-9db8-adafbd1ce62d","system_id":"levelo_inurba_marseille","lat":43.30891,"lon":5.39659,"is_reserved":false,"is_disabled":false,"rental_uris":{"android":"levelo://app?vid=c1c84464-002e-4984-9db8-adafbd1ce62d","ios":"levelo://app?vid=c1c84464-002e-4984-9db8-adafbd1ce62d"},"vehicle_type_id":"4","last_reported":1742072939,"current_range_meters":10800,"station_id":"ce4bh012rcd13ifvqcv0","pricing_plan_id":"cebpf4jnsgd1na2vs0mg"},{"bike_id":"051f8d0f-3233-4330-b3cc-3f3cb6e82ba6","system_id":"levelo_inurba_marseille","lat":43.28612,"lon":5.35095,"is_reserved":false,"is_disabled":false,"rental_uris":{"android":"levelo://app?vid=051f8d0f-3233-4330-b3cc-3f3cb6e82ba6","ios":"levelo://app?vid=051f8d0f-3233-4330-b3cc-3f3cb6e82ba6"},"vehicle_type_id":"4","last_reported":1742072939,"current_range_meters":10800,"station_id":"ce4bhch2rcd13ifvqeug","pricing_plan_id":"cebpf4jnsgd1na2vs0mg"},{"bike_id":"31710fca-ccfa-43a5-ac6f-5ec923018ebf","system_id":"levelo_inurba_marseille","lat":43.27427,"lon":5.4202,"is_reserved":false,"is_disabled":false,"rental_uris":{"android":"levelo://app?vid=31710fca-ccfa-43a5-ac6f-5ec923018ebf","ios":"levelo://app?vid=31710fca-ccfa-43a5-ac6f-5ec923018ebf"},"vehicle_type_id":"4","last_reported":1742072939,"current_range_meters":10800,"station_id":"","pricing_plan_id":"cebpf4jnsgd1na2vs0mg"},{"bike_id":"d1376596-0fd1-4dda-9d47-e4734828599d","system_id":"levelo_inurba_marseille","lat":43.29601,"lon":5.37522,"is_reserved":false,"is_disabled":false,"rental_uris":{"android":"levelo://app?vid=d1376596-0fd1-4dda-9d47-e4734828599d","ios":"levelo://app?vid=d1376596-0fd1-4dda-9d47-e4734828599d"},"vehicle_type_id":"4","last_reported":1742072939,"current_range_meters":11200,"station_id":"ce4bgh92rcd13ifvqb50","pricing_plan_id":"cebpf4jnsgd1na2vs0mg"},{"bike_id":"d42219f3-8e55-4fc6-a0b8-66df6e2e70b1","system_id":"levelo_inurba_marseille","lat":43.23963,"lon":5.36621,"is_reserved":false,"is_disabled":false,"rental_uris":{"android":"levelo://app?vid=d42219f3-8e55-4fc6-a0b8-66df6e2e70b1","ios":"levelo://app?vid=d42219f3-8e55-4fc6-a0b8-66df6e2e70b1"},"vehicle_type_id":"4","last_reported":1742072939,"current_range_meters":11200,"station_id":"ce4bhi12rcd13ifvqfp0","pricing_plan_id":"cebpf4jnsgd1na2vs0mg"},{"bike_id":"10044722-9baa-416e-a6f1-7ac67f5372b1","system_id":"levelo_inurba_marseille","lat":43.29615,"lon":5.37729,"is_reserved":false,"is_disabled":true,"rental_uris":{"android":"levelo://app?vid=10044722-9baa-416e-a6f1-7ac67f5372b1","ios":"levelo://app?vid=10044722-9baa-416e-a6f1-7ac67f5372b1"},"vehicle_type_id":"4","last_reported":1742072939,"current_range_meters":11200,"station_id":"ce4bgi92rcd13ifvqb90","pricing_plan_id":"cebpf4jnsgd1na2vs0mg"},{"bike_id":"6582e7c2-5aa5-4e6a-abc5-fa241e74aeb6","system_id":"levelo_inurba_marseille","lat":43.29907,"lon":5.43645,"is_reserved":false,"is_disabled":false,"rental_uris":{"android":"levelo://app?vid=6582e7c2-5aa5-4e6a-abc5-fa241e74aeb6","ios":"levelo://app?vid=6582e7c2-5aa5-4e6a-abc5-fa241e74aeb6"},"vehicle_type_id":"4","last_reported":1742072939,"current_range_meters":11200,"station_id":"ce4bhpp2rcd13ifvqhfg","pricing_plan_id":"cebpf4jnsgd1na2vs0mg"},{"bike_id":"573899f9-20ab-4211-a282-409e5482a59e","system_id":"levelo_inurba_marseille","lat":43.29028,"lon":5.38662,"is_reserved":false,"is_disabled":false,"rental_uris":{"android":"levelo://app?vid=573899f9-20ab-4211-a282-409e5482a59e","ios":"levelo://app?vid=573899f9-20ab-4211-a282-409e5482a59e"},"vehicle_type_id":"4","last_reported":1742072939,"current_range_meters":11200,"station_id":"","pricing_plan_id":"cebpf4jnsgd1na2vs0mg"},{"bike_id":"8941bf71-1ad4-4e5e-b2f9-d992d8e7140e","system_id":"levelo_inurba_marseille","lat":43.27618,"lon":5.36104,"is_reserved":false,"is_disabled":false,"rental_uris":{"android":"levelo://app?vid=8941bf71-1ad4-4e5e-b2f9-d992d8e7140e","ios":"levelo://app?vid=8941bf71-1ad4-4e5e-b2f9-d992d8e7140e"},"vehicle_type_id":"4","last_reported":1742072939,"current_range_meters":11200,"station_id":"ce4bgj92rcd13ifvqbe0","pricing_plan_id":"cebpf4jnsgd1na2vs0mg"},{"bike_id":"741cb384-440e-429d-8d00-64db83124bfc","system_id":"levelo_inurba_marseille","lat":43.29027,"lon":5.3865,"is_reserved":false,"is_disabled":false,"rental_uris":{"android":"levelo://app?vid=741cb384-440e-429d-8d00-64db83124bfc","ios":"levelo://app?vid=741cb384-440e-429d-8d00-64db83124bfc"},"vehicle_type_id":"4","last_reported":1742072939,"current_range_meters":11200,"station_id":"ce4bh4p2rcd13ifvqe0g","pricing_plan_id":"cebpf4jnsgd1na2vs0mg"},{"bike_id":"fde62088-7d9e-4942-a68d-83227a353470","system_id":"levelo_inurba_marseille","lat":43.27493,"lon":5.42448,"is_reserved":false,"is_disabled":false,"rental_uris":{"android":"levelo://app?vid=fde62088-7d9e-4942-a68d-83227a353470","ios":"levelo://app?vid=fde62088-7d9e-4942-a68d-83227a353470"},"vehicle_type_id":"4","last_reported":1742072939,"current_range_meters":11200,"station_id":"ce4bhn92rcd13ifvqgrg","pricing_plan_id":"cebpf4jnsgd1na2vs0mg"},{"bike_id":"3b2ee3e5-6b8b-42c5-a8b6-9a7198d64732","system_id":"levelo_inurba_marseille","lat":43.29874,"lon":5.38913,"is_reserved":false,"is_disabled":false,"rental_uris":{"android":"levelo://app?vid=3b2ee3e5-6b8b-42c5-a8b6-9a7198d64732","ios":"levelo://app?vid=3b2ee3e5-6b8b-42c5-a8b6-9a7198d64732"},"vehicle_type_id":"4","last_reported":1742072939,"current_range_meters":11200,"station_id":"ce4bh392rcd13ifvqdl0","pricing_plan_id":"cebpf4jnsgd1na2vs0mg"},{"bike_id":"e2eeef0a-6097-43b2-ac9f-071e43b60347","system_id":"levelo_inurba_marseille","lat":43.28422,"lon":5.37535,"is_reserved":false,"is_disabled":false,"rental_uris":{"android":"levelo://app?vid=e2eeef0a-6097-43b2-ac9f-071e43b60347","ios":"levelo://app?vid=e2eeef0a-6097-43b2-ac9f-071e43b60347"},"vehicle_type_id":"4","last_reported":1742072939,"current_range_meters":11600,"station_id":"ce4bh412rcd13ifvqds0","pricing_plan_id":"cebpf4jnsgd1na2vs0mg"},{"bike_id":"90c707aa-0edc-4e94-a911-252e6bd4d4c2","system_id":"levelo_inurba_marseille","lat":43.28623,"lon":5.3511,"is_reserved":false,"is_disabled":false,"rental_uris":{"android":"levelo://app?vid=90c707aa-0edc-4e94-a911-252e6bd4d4c2","ios":"levelo://app?vid=90c707aa-0edc-4e94-a911-252e6bd4d4c2"},"vehicle_type_id":"4","last_reported":1742072939,"current_range_meters":11600,"station_id":"ce4bhch2rcd13ifvqeug","pricing_plan_id":"cebpf4jnsgd1na2vs0mg"},{"bike_id":"557dbc26-6b3a-432d-9b99-ae8fd514d2d0","system_id":"levelo_inurba_marseille","lat":43.32026,"lon":5.41481,"is_reserved":false,"is_disabled":false,"rental_uris":{"android":"levelo://app?vid=557dbc26-6b3a-432d-9b99-ae8fd514d2d0","ios":"levelo://app?vid=557dbc26-6b3a-432d-9b99-ae8fd514d2d0"},"vehicle_type_id":"4","last_reported":1742072939,"current_range_meters":11600,"station_id":"","pricing_plan_id":"cebpf4jnsgd1na2vs0mg"},{"bike_id":"ea3afc6b-4ef9-4dd5-bea0-ef1f9fd26a86","system_id":"levelo_inurba_marseille","lat":43.29196,"lon":5.39321,"is_reserved":false,"is_disabled":false,"rental_uris":{"android":"levelo://app?vid=ea3afc6b-4ef9-4dd5-bea0-ef1f9fd26a86","ios":"levelo://app?vid=ea3afc6b-4ef9-4dd5-bea0-ef1f9fd26a86"},"vehicle_type_id":"4","last_reported":1742072939,"current_range_meters":11600,"station_id":"ce4bh192rcd13ifvqdd0","pricing_plan_id":"cebpf4jnsgd1na2vs0mg"},{"bike_id":"fc071de1-2cc0-488a-a43e-f8037a5a9a49","system_id":"levelo_inurba_marseille","lat":43.23071,"lon":5.35483,"is_reserved":false,"is_disabled":false,"rental_uris":{"android":"levelo://app?vid=fc071de1-2cc0-488a-a43e-f8037a5a9a49","ios":"levelo://app?vid=fc071de1-2cc0-488a-a43e-f8037a5a9a49"},"vehicle_type_id":"4","last_reported":1742072939,"current_range_meters":11600,"station_id":"cpo3342slgdg3j2ifvpg","pricing_plan_id":"cebpf4jnsgd1na2vs0mg"},{"bike_id":"233afda6-fab0-48c3-a086-0f451dfdb082","system_id":"levelo_inurba_marseille","lat":43.31111,"lon":5.37755,"is_reserved":false,"is_disabled":false,"rental_uris":{"android":"levelo://app?vid=233afda6-fab0-48c3-a086-0f451dfdb082","ios":"levelo://app?vid=233afda6-fab0-48c3-a086-0f451dfdb082"},"vehicle_type_id":"4","last_reported":1742072939,"current_range_meters":11600,"station_id":"ce4bgt92rcd13ifvqcg0","pricing_plan_id":"cebpf4jnsgd1na2vs0mg"},{"bike_id":"cec596e7-05db-41ae-acd9-68cf99ac7b7f","system_id":"levelo_inurba_marseille","lat":43.2931,"lon":5.37444,"is_reserved":false,"is_disabled":false,"rental_uris":{"android":"levelo://app?vid=cec596e7-05db-41ae-acd9-68cf99ac7b7f","ios":"levelo://app?vid=cec596e7-05db-41ae-acd9-68cf99ac7b7f"},"vehicle_type_id":"4","last_reported":1742072939,"current_range_meters":11600,"station_id":"ce4bgi12rcd13ifvqb70","pricing_plan_id":"cebpf4jnsgd1na2vs0mg"},{"bike_id":"59fabd73-c806-41b6-bcf9-f66a2e415d54","system_id":"levelo_inurba_marseille","lat":43.26233,"lon":5.40389,"is_reserved":false,"is_disabled":false,"rental_uris":{"android":"levelo://app?vid=59fabd73-c806-41b6-bcf9-f66a2e415d54","ios":"levelo://app?vid=59fabd73-c806-41b6-bcf9-f66a2e415d54"},"vehicle_type_id":"4","last_reported":1742072939,"current_range_meters":11600,"station_id":"ce4bhmh2rcd13ifvqgmg","pricing_plan_id":"cebpf4jnsgd1na2vs0mg"},{"bike_id":"2127c283-3bf3-4081-9791-ba201cf5a542","system_id":"levelo_inurba_marseille","lat":43.30483,"lon":5.37338,"is_reserved":false,"is_disabled":false,"rental_uris":{"android":"levelo://app?vid=2127c283-3bf3-4081-9791-ba201cf5a542","ios":"levelo://app?vid=2127c283-3bf3-4081-9791-ba201cf5a542"},"vehicle_type_id":"4","last_reported":1742072939,"current_range_meters":11600,"station_id":"","pricing_plan_id":"cebpf4jnsgd1na2vs0mg"},{"bike_id":"9c153339-ffc3-4e73-9dd4-5e83c5bb119e","system_id":"levelo_inurba_marseille","lat":43.23186,"lon":5.39982,"is_reserved":false,"is_disabled":false,"rental_uris":{"android":"levelo://app?vid=9c153339-ffc3-4e73-9dd4-5e83c5bb119e","ios":"levelo://app?vid=9c153339-ffc3-4e73-9dd4-5e83c5bb119e"},"vehicle_type_id":"4","last_reported":1742072939,"current_range_meters":11600,"station_id":"ce4bhn12rcd13ifvqgqg","pricing_plan_id":"cebpf4jnsgd1na2vs0mg"},{"bike_id":"41970761-c71f-4a6f-a944-2cf61e38d29f","system_id":"levelo_inurba_marseille","lat":43.25088,"lon":5.39506,"is_reserved":false,"is_disabled":false,"rental_uris":{"android":"levelo://app?vid=41970761-c71f-4a6f-a944-2cf61e38d29f","ios":"levelo://app?vid=41970761-c71f-4a6f-a944-2cf61e38d29f"},"vehicle_type_id":"4","last_reported":1742072939,"current_range_meters":11600,"station_id":"ce4bhm12rcd13ifvqgkg","pricing_plan_id":"cebpf4jnsgd1na2vs0mg"},{"bike_id":"c9e8fc85-1c5e-44e3-85d8-6e373e11af96","system_id":"levelo_inurba_marseille","lat":43.29527,"lon":5.39028,"is_reserved":false,"is_disabled":false,"rental_uris":{"android":"levelo://app?vid=c9e8fc85-1c5e-44e3-85d8-6e373e11af96","ios":"levelo://app?vid=c9e8fc85-1c5e-44e3-85d8-6e373e11af96"},"vehicle_type_id":"4","last_reported":1742072939,"current_range_meters":11600,"station_id":"ce4bh3p2rcd13ifvqdp0","pricing_plan_id":"cebpf4jnsgd1na2vs0mg"},{"bike_id":"8778d468-9b6c-4224-a814-764b272e2d1b","system_id":"levelo_inurba_marseille","lat":43.29521,"lon":5.39029,"is_reserved":false,"is_disabled":false,"rental_uris":{"android":"levelo://app?vid=8778d468-9b6c-4224-a814-764b272e2d1b","ios":"levelo://app?vid=8778d468-9b6c-4224-a814-764b272e2d1b"},"vehicle_type_id":"4","last_reported":1742072939,"current_range_meters":11600,"station_id":"ce4bh3p2rcd13ifvqdp0","pricing_plan_id":"cebpf4jnsgd1na2vs0mg"},{"bike_id":"b13c83ce-5089-4b9c-ba5c-9505d62705c8","system_id":"levelo_inurba_marseille","lat":43.29304,"lon":5.37455,"is_reserved":false,"is_disabled":false,"rental_uris":{"android":"levelo://app?vid=b13c83ce-5089-4b9c-ba5c-9505d62705c8","ios":"levelo://app?vid=b13c83ce-5089-4b9c-ba5c-9505d62705c8"},"vehicle_type_id":"4","last_reported":1742072939,"current_range_meters":11600,"station_id":"ce4bgi12rcd13ifvqb70","pricing_plan_id":"cebpf4jnsgd1na2vs0mg"},{"bike_id":"0102a975-ca16-4d1e-8694-d919e87a2584","system_id":"levelo_inurba_marseille","lat":43.29547,"lon":5.42278,"is_reserved":false,"is_disabled":false,"rental_uris":{"android":"levelo://app?vid=0102a975-ca16-4d1e-8694-d919e87a2584","ios":"levelo://app?vid=0102a975-ca16-4d1e-8694-d919e87a2584"},"vehicle_type_id":"4","last_reported":1742072939,"current_range_meters":12000,"station_id":"ce4bhph2rcd13ifvqhdg","pricing_plan_id":"cebpf4jnsgd1na2vs0mg"},{"bike_id":"7fc2703c-4fbb-417b-9ba3-7377e1a72bb5","system_id":"levelo_inurba_marseille","lat":43.29103,"lon":5.38149,"is_reserved":false,"is_disabled":false,"rental_uris":{"android":"levelo://app?vid=7fc2703c-4fbb-417b-9ba3-7377e1a72bb5","ios":"levelo://app?vid=7fc2703c-4fbb-417b-9ba3-7377e1a72bb5"},"vehicle_type_id":"4","last_reported":1742072939,"current_range_meters":12000,"station_id":"ce4bh512rcd13ifvqe2g","pricing_plan_id":"cebpf4jnsgd1na2vs0mg"},{"bike_id":"45e64157-60d6-4bb8-89de-24b046c27447","system_id":"levelo_inurba_marseille","lat":43.29611,"lon":5.38109,"is_reserved":false,"is_disabled":false,"rental_uris":{"android":"levelo://app?vid=45e64157-60d6-4bb8-89de-24b046c27447","ios":"levelo://app?vid=45e64157-60d6-4bb8-89de-24b046c27447"},"vehicle_type_id":"4","last_reported":1742072939,"current_range_meters":12000,"station_id":"ce4bgl12rcd13ifvqbo0","pricing_plan_id":"cebpf4jnsgd1na2vs0mg"},{"bike_id":"dd3cd798-787d-4c31-b0e6-37631fe69a4a","system_id":"levelo_inurba_marseille","lat":43.27814,"lon":5.40697,"is_reserved":false,"is_disabled":false,"rental_uris":{"android":"levelo://app?vid=dd3cd798-787d-4c31-b0e6-37631fe69a4a","ios":"levelo://app?vid=dd3cd798-787d-4c31-b0e6-37631fe69a4a"},"vehicle_type_id":"4","last_reported":1742072939,"current_range_meters":12000,"station_id":"ce4bhnh2rcd13ifvqgtg","pricing_plan_id":"cebpf4jnsgd1na2vs0mg"},{"bike_id":"71b342b8-694b-40d5-99e8-310baf77a970","system_id":"levelo_inurba_marseille","lat":43.23059,"lon":5.35475,"is_reserved":false,"is_disabled":false,"rental_uris":{"android":"levelo://app?vid=71b342b8-694b-40d5-99e8-310baf77a970","ios":"levelo://app?vid=71b342b8-694b-40d5-99e8-310baf77a970"},"vehicle_type_id":"4","last_reported":1742072939,"current_range_meters":12000,"station_id":"cpo3342slgdg3j2ifvpg","pricing_plan_id":"cebpf4jnsgd1na2vs0mg"},{"bike_id":"b7cb0b7b-a52e-4992-b1ef-18fcece38eab","system_id":"levelo_inurba_marseille","lat":43.29026,"lon":5.38653,"is_reserved":false,"is_disabled":false,"rental_uris":{"android":"levelo://app?vid=b7cb0b7b-a52e-4992-b1ef-18fcece38eab","ios":"levelo://app?vid=b7cb0b7b-a52e-4992-b1ef-18fcece38eab"},"vehicle_type_id":"4","last_reported":1742072939,"current_range_meters":12000,"station_id":"ce4bh4p2rcd13ifvqe0g","pricing_plan_id":"cebpf4jnsgd1na2vs0mg"},{"bike_id":"174c9c66-b172-484e-b7f9-5752aa18aabf","system_id":"levelo_inurba_marseille","lat":43.23081,"lon":5.35505,"is_reserved":false,"is_disabled":false,"rental_uris":{"android":"levelo://app?vid=174c9c66-b172-484e-b7f9-5752aa18aabf","ios":"levelo://app?vid=174c9c66-b172-484e-b7f9-5752aa18aabf"},"vehicle_type_id":"4","last_reported":1742072939,"current_range_meters":12000,"station_id":"cpo3342slgdg3j2ifvpg","pricing_plan_id":"cebpf4jnsgd1na2vs0mg"},{"bike_id":"c79bb127-8198-4096-96ea-1444569e00c1","system_id":"levelo_inurba_marseille","lat":43.23957,"lon":5.36625,"is_reserved":false,"is_disabled":true,"rental_uris":{"android":"levelo://app?vid=c79bb127-8198-4096-96ea-1444569e00c1","ios":"levelo://app?vid=c79bb127-8198-4096-96ea-1444569e00c1"},"vehicle_type_id":"4","last_reported":1742072939,"current_range_meters":12000,"station_id":"ce4bhi12rcd13ifvqfp0","pricing_plan_id":"cebpf4jnsgd1na2vs0mg"},{"bike_id":"c157a298-7a54-454c-a077-8b011c144bf3","system_id":"levelo_inurba_marseille","lat":43.27828,"lon":5.39215,"is_reserved":false,"is_disabled":false,"rental_uris":{"android":"levelo://app?vid=c157a298-7a54-454c-a077-8b011c144bf3","ios":"levelo://app?vid=c157a298-7a54-454c-a077-8b011c144bf3"},"vehicle_type_id":"4","last_reported":1742072939,"current_range_meters":8400,"station_id":"ce4bhjp2rcd13ifvqga0","pricing_plan_id":"cebpf4jnsgd1na2vs0mg"},{"bike_id":"0162ff87-7148-49d2-82e1-db37eca7d49d","system_id":"levelo_inurba_marseille","lat":43.28615,"lon":5.3509,"is_reserved":false,"is_disabled":false,"rental_uris":{"android":"levelo://app?vid=0162ff87-7148-49d2-82e1-db37eca7d49d","ios":"levelo://app?vid=0162ff87-7148-49d2-82e1-db37eca7d49d"},"vehicle_type_id":"4","last_reported":1742072939,"current_range_meters":12000,"station_id":"ce4bhch2rcd13ifvqeug","pricing_plan_id":"cebpf4jnsgd1na2vs0mg"},{"bike_id":"c964aef5-f35a-4c0b-b7dc-7ea2eccac1cc","system_id":"levelo_inurba_marseille","lat":43.30636,"lon":5.40097,"is_reserved":false,"is_disabled":false,"rental_uris":{"android":"levelo://app?vid=c964aef5-f35a-4c0b-b7dc-7ea2eccac1cc","ios":"levelo://app?vid=c964aef5-f35a-4c0b-b7dc-7ea2eccac1cc"},"vehicle_type_id":"4","last_reported":1742072939,"current_range_meters":12000,"station_id":"ce4bh112rcd13ifvqda0","pricing_plan_id":"cebpf4jnsgd1na2vs0mg"},{"bike_id":"6e440fec-3f34-47f1-805d-f6f61d389b68","system_id":"levelo_inurba_marseille","lat":43.24803,"lon":5.37456,"is_reserved":false,"is_disabled":false,"rental_uris":{"android":"levelo://app?vid=6e440fec-3f34-47f1-805d-f6f61d389b68","ios":"levelo://app?vid=6e440fec-3f34-47f1-805d-f6f61d389b68"},"vehicle_type_id":"4","last_reported":1742072939,"current_range_meters":9200,"station_id":"ce4bhgh2rcd13ifvqfb0","pricing_plan_id":"cebpf4jnsgd1na2vs0mg"},{"bike_id":"04ba382a-dafc-4bb1-9e9d-48180838b585","system_id":"levelo_inurba_marseille","lat":43.29535,"lon":5.39031,"is_reserved":false,"is_disabled":false,"rental_uris":{"android":"levelo://app?vid=04ba382a-dafc-4bb1-9e9d-48180838b585","ios":"levelo://app?vid=04ba382a-dafc-4bb1-9e9d-48180838b585"},"vehicle_type_id":"4","last_reported":1742072939,"current_range_meters":12000,"station_id":"ce4bh3p2rcd13ifvqdp0","pricing_plan_id":"cebpf4jnsgd1na2vs0mg"},{"bike_id":"9e8e3bc5-42af-465c-8e8f-f0e71fe6c491","system_id":"levelo_inurba_marseille","lat":43.257101,"lon":5.378742,"is_reserved":false,"is_disabled":false,"rental_uris":{"android":"levelo://app?vid=9e8e3bc5-42af-465c-8e8f-f0e71fe6c491","ios":"levelo://app?vid=9e8e3bc5-42af-465c-8e8f-f0e71fe6c491"},"vehicle_type_id":"4","last_reported":1742072939,"current_range_meters":12400,"station_id":"ce4bhih2rcd13ifvqfr0","pricing_plan_id":"cebpf4jnsgd1na2vs0mg"},{"bike_id":"dabc5740-01e5-4dfd-b5c3-33816c157c08","system_id":"levelo_inurba_marseille","lat":43.230993,"lon":5.354783,"is_reserved":false,"is_disabled":false,"rental_uris":{"android":"levelo://app?vid=dabc5740-01e5-4dfd-b5c3-33816c157c08","ios":"levelo://app?vid=dabc5740-01e5-4dfd-b5c3-33816c157c08"},"vehicle_type_id":"4","last_reported":1742072939,"current_range_meters":12400,"station_id":"","pricing_plan_id":"cebpf4jnsgd1na2vs0mg"},{"bike_id":"7f085ede-3dd3-4648-a4bc-68694d0dbf60","system_id":"levelo_inurba_marseille","lat":43.2997,"lon":5.38547,"is_reserved":false,"is_disabled":false,"rental_uris":{"android":"levelo://app?vid=7f085ede-3dd3-4648-a4bc-68694d0dbf60","ios":"levelo://app?vid=7f085ede-3dd3-4648-a4bc-68694d0dbf60"},"vehicle_type_id":"4","last_reported":1742072939,"current_range_meters":12400,"station_id":"ce4bgj92rcd13ifvqbd0","pricing_plan_id":"cebpf4jnsgd1na2vs0mg"},{"bike_id":"d29954b9-94a9-4d4b-8f2a-4f834cdcd24e","system_id":"levelo_inurba_marseille","lat":43.30593,"lon":5.401,"is_reserved":false,"is_disabled":false,"rental_uris":{"android":"levelo://app?vid=d29954b9-94a9-4d4b-8f2a-4f834cdcd24e","ios":"levelo://app?vid=d29954b9-94a9-4d4b-8f2a-4f834cdcd24e"},"vehicle_type_id":"4","last_reported":1742072939,"current_range_meters":12400,"station_id":"","pricing_plan_id":"cebpf4jnsgd1na2vs0mg"},{"bike_id":"b1f3f85b-9f66-4326-9110-a6b584319c09","system_id":"levelo_inurba_marseille","lat":43.29037,"lon":5.38647,"is_reserved":false,"is_disabled":false,"rental_uris":{"android":"levelo://app?vid=b1f3f85b-9f66-4326-9110-a6b584319c09","ios":"levelo://app?vid=b1f3f85b-9f66-4326-9110-a6b584319c09"},"vehicle_type_id":"4","last_reported":1742072939,"current_range_meters":12400,"station_id":"ce4bh4p2rcd13ifvqe0g","pricing_plan_id":"cebpf4jnsgd1na2vs0mg"},{"bike_id":"8de1c418-c1ee-4859-b361-f1234012f1a2","system_id":"levelo_inurba_marseille","lat":43.30173,"lon":5.36625,"is_reserved":false,"is_disabled":false,"rental_uris":{"android":"levelo://app?vid=8de1c418-c1ee-4859-b361-f1234012f1a2","ios":"levelo://app?vid=8de1c418-c1ee-4859-b361-f1234012f1a2"},"vehicle_type_id":"4","last_reported":1742072939,"current_range_meters":12400,"station_id":"ce4bgrh2rcd13ifvqc8g","pricing_plan_id":"cebpf4jnsgd1na2vs0mg"},{"bike_id":"39d030ef-054a-4036-8b6d-d282e341b155","system_id":"levelo_inurba_marseille","lat":43.30087,"lon":5.39085,"is_reserved":false,"is_disabled":false,"rental_uris":{"android":"levelo://app?vid=39d030ef-054a-4036-8b6d-d282e341b155","ios":"levelo://app?vid=39d030ef-054a-4036-8b6d-d282e341b155"},"vehicle_type_id":"4","last_reported":1742072939,"current_range_meters":11600,"station_id":"ce4bh192rcd13ifvqdb0","pricing_plan_id":"cebpf4jnsgd1na2vs0mg"},{"bike_id":"8f834772-de54-433a-b9c5-04b6550e4230","system_id":"levelo_inurba_marseille","lat":43.29218,"lon":5.39329,"is_reserved":false,"is_disabled":false,"rental_uris":{"android":"levelo://app?vid=8f834772-de54-433a-b9c5-04b6550e4230","ios":"levelo://app?vid=8f834772-de54-433a-b9c5-04b6550e4230"},"vehicle_type_id":"4","last_reported":1742072939,"current_range_meters":12400,"station_id":"ce4bh192rcd13ifvqdd0","pricing_plan_id":"cebpf4jnsgd1na2vs0mg"},{"bike_id":"084e9cd0-ba7b-4410-911b-bd29122b16f6","system_id":"levelo_inurba_marseille","lat":43.24171,"lon":5.36417,"is_reserved":false,"is_disabled":false,"rental_uris":{"android":"levelo://app?vid=084e9cd0-ba7b-4410-911b-bd29122b16f6","ios":"levelo://app?vid=084e9cd0-ba7b-4410-911b-bd29122b16f6"},"vehicle_type_id":"4","last_reported":1742072939,"current_range_meters":12400,"station_id":"cpo36qri1sfpv3e86is0","pricing_plan_id":"cebpf4jnsgd1na2vs0mg"},{"bike_id":"001f1fad-8233-4cb7-ade3-8cc7ce262441","system_id":"levelo_inurba_marseille","lat":43.29293,"lon":5.37445,"is_reserved":false,"is_disabled":false,"rental_uris":{"android":"levelo://app?vid=001f1fad-8233-4cb7-ade3-8cc7ce262441","ios":"levelo://app?vid=001f1fad-8233-4cb7-ade3-8cc7ce262441"},"vehicle_type_id":"4","last_reported":1742072939,"current_range_meters":12800,"station_id":"ce4bgi12rcd13ifvqb70","pricing_plan_id":"cebpf4jnsgd1na2vs0mg"},{"bike_id":"e45b0fd7-4e87-4303-b524-8302e30de230","system_id":"levelo_inurba_marseille","lat":43.24665,"lon":5.38153,"is_reserved":false,"is_disabled":false,"rental_uris":{"android":"levelo://app?vid=e45b0fd7-4e87-4303-b524-8302e30de230","ios":"levelo://app?vid=e45b0fd7-4e87-4303-b524-8302e30de230"},"vehicle_type_id":"4","last_reported":1742072939,"current_range_meters":12800,"station_id":"ce4bhih2rcd13ifvqfr0","pricing_plan_id":"cebpf4jnsgd1na2vs0mg"},{"bike_id":"fda98d16-ab08-4429-a59b-fe867b07dc13","system_id":"levelo_inurba_marseille","lat":43.29303,"lon":5.37172,"is_reserved":false,"is_disabled":false,"rental_uris":{"android":"levelo://app?vid=fda98d16-ab08-4429-a59b-fe867b07dc13","ios":"levelo://app?vid=fda98d16-ab08-4429-a59b-fe867b07dc13"},"vehicle_type_id":"4","last_reported":1742072939,"current_range_meters":12800,"station_id":"ce4bgh92rcd13ifvqb40","pricing_plan_id":"cebpf4jnsgd1na2vs0mg"},{"bike_id":"eaf30439-7640-44c9-a4d2-03d548171d2f","system_id":"levelo_inurba_marseille","lat":43.29318,"lon":5.37182,"is_reserved":false,"is_disabled":false,"rental_uris":{"android":"levelo://app?vid=eaf30439-7640-44c9-a4d2-03d548171d2f","ios":"levelo://app?vid=eaf30439-7640-44c9-a4d2-03d548171d2f"},"vehicle_type_id":"4","last_reported":1742072939,"current_range_meters":12800,"station_id":"ce4bgh92rcd13ifvqb40","pricing_plan_id":"cebpf4jnsgd1na2vs0mg"},{"bike_id":"054d989e-f390-4b3b-be81-cdcefa514848","system_id":"levelo_inurba_marseille","lat":43.30353,"lon":5.41879,"is_reserved":false,"is_disabled":false,"rental_uris":{"android":"levelo://app?vid=054d989e-f390-4b3b-be81-cdcefa514848","ios":"levelo://app?vid=054d989e-f390-4b3b-be81-cdcefa514848"},"vehicle_type_id":"4","last_reported":1742072939,"current_range_meters":12800,"station_id":"ce4bhop2rcd13ifvqh7g","pricing_plan_id":"cebpf4jnsgd1na2vs0mg"},{"bike_id":"6888d166-61cd-43ad-b993-c1eed371e615","system_id":"levelo_inurba_marseille","lat":43.2927,"lon":5.38457,"is_reserved":false,"is_disabled":false,"rental_uris":{"android":"levelo://app?vid=6888d166-61cd-43ad-b993-c1eed371e615","ios":"levelo://app?vid=6888d166-61cd-43ad-b993-c1eed371e615"},"vehicle_type_id":"4","last_reported":1742072939,"current_range_meters":12800,"station_id":"","pricing_plan_id":"cebpf4jnsgd1na2vs0mg"},{"bike_id":"70a814d3-4cde-4074-b4cb-eb620bb0cbc9","system_id":"levelo_inurba_marseille","lat":43.32372,"lon":5.38895,"is_reserved":false,"is_disabled":false,"rental_uris":{"android":"levelo://app?vid=70a814d3-4cde-4074-b4cb-eb620bb0cbc9","ios":"levelo://app?vid=70a814d3-4cde-4074-b4cb-eb620bb0cbc9"},"vehicle_type_id":"4","last_reported":1742072939,"current_range_meters":12800,"station_id":"ce4bhqp2rcd13ifvqhog","pricing_plan_id":"cebpf4jnsgd1na2vs0mg"},{"bike_id":"ec4c8fc9-399f-4f5a-b345-e19e03d811c3","system_id":"levelo_inurba_marseille","lat":43.27175,"lon":5.40999,"is_reserved":false,"is_disabled":true,"rental_uris":{"android":"levelo://app?vid=ec4c8fc9-399f-4f5a-b345-e19e03d811c3","ios":"levelo://app?vid=ec4c8fc9-399f-4f5a-b345-e19e03d811c3"},"vehicle_type_id":"4","last_reported":1742072939,"current_range_meters":12800,"station_id":"ce4bhl12rcd13ifvqgf0","pricing_plan_id":"cebpf4jnsgd1na2vs0mg"},{"bike_id":"8c329b8b-e9f6-45f6-9749-328bf6c1e896","system_id":"levelo_inurba_marseille","lat":43.25014,"lon":5.38912,"is_reserved":false,"is_disabled":false,"rental_uris":{"android":"levelo://app?vid=8c329b8b-e9f6-45f6-9749-328bf6c1e896","ios":"levelo://app?vid=8c329b8b-e9f6-45f6-9749-328bf6c1e896"},"vehicle_type_id":"4","last_reported":1742072939,"current_range_meters":12800,"station_id":"ce4bhgp2rcd13ifvqfd0","pricing_plan_id":"cebpf4jnsgd1na2vs0mg"},{"bike_id":"457ac819-f080-441f-910a-cb8e5598ba49","system_id":"levelo_inurba_marseille","lat":43.29014,"lon":5.38642,"is_reserved":false,"is_disabled":false,"rental_uris":{"android":"levelo://app?vid=457ac819-f080-441f-910a-cb8e5598ba49","ios":"levelo://app?vid=457ac819-f080-441f-910a-cb8e5598ba49"},"vehicle_type_id":"4","last_reported":1742072939,"current_range_meters":12800,"station_id":"ce4bh4p2rcd13ifvqe0g","pricing_plan_id":"cebpf4jnsgd1na2vs0mg"},{"bike_id":"27e2b1b0-941e-4452-b6a3-e80701f5818c","system_id":"levelo_inurba_marseille","lat":43.3043,"lon":5.38895,"is_reserved":false,"is_disabled":false,"rental_uris":{"android":"levelo://app?vid=27e2b1b0-941e-4452-b6a3-e80701f5818c","ios":"levelo://app?vid=27e2b1b0-941e-4452-b6a3-e80701f5818c"},"vehicle_type_id":"4","last_reported":1742072939,"current_range_meters":12800,"station_id":"ce4bgk12rcd13ifvqbi0","pricing_plan_id":"cebpf4jnsgd1na2vs0mg"},{"bike_id":"3f3e844d-8056-4826-a519-e24eec72528f","system_id":"levelo_inurba_marseille","lat":43.30663,"lon":5.3656,"is_reserved":false,"is_disabled":false,"rental_uris":{"android":"levelo://app?vid=3f3e844d-8056-4826-a519-e24eec72528f","ios":"levelo://app?vid=3f3e844d-8056-4826-a519-e24eec72528f"},"vehicle_type_id":"4","last_reported":1742072939,"current_range_meters":12800,"station_id":"","pricing_plan_id":"cebpf4jnsgd1na2vs0mg"},{"bike_id":"37c063db-6126-4678-a1a5-5c7a19908162","system_id":"levelo_inurba_marseille","lat":43.2892,"lon":5.38402,"is_reserved":false,"is_disabled":false,"rental_uris":{"android":"levelo://app?vid=37c063db-6126-4678-a1a5-5c7a19908162","ios":"levelo://app?vid=37c063db-6126-4678-a1a5-5c7a19908162"},"vehicle_type_id":"4","last_reported":1742072939,"current_range_meters":12800,"station_id":"ce4bh612rcd13ifvqe6g","pricing_plan_id":"cebpf4jnsgd1na2vs0mg"},{"bike_id":"52a9d8a3-b485-4635-8ad6-71170050f74b","system_id":"levelo_inurba_marseille","lat":43.26226,"lon":5.40491,"is_reserved":false,"is_disabled":false,"rental_uris":{"android":"levelo://app?vid=52a9d8a3-b485-4635-8ad6-71170050f74b","ios":"levelo://app?vid=52a9d8a3-b485-4635-8ad6-71170050f74b"},"vehicle_type_id":"4","last_reported":1742072939,"current_range_meters":13600,"station_id":"ce4bhmh2rcd13ifvqgmg","pricing_plan_id":"cebpf4jnsgd1na2vs0mg"},{"bike_id":"138e620c-f578-4ef6-a1cc-4efaf81ff921","system_id":"levelo_inurba_marseille","lat":43.2467,"lon":5.38168,"is_reserved":false,"is_disabled":false,"rental_uris":{"android":"levelo://app?vid=138e620c-f578-4ef6-a1cc-4efaf81ff921","ios":"levelo://app?vid=138e620c-f578-4ef6-a1cc-4efaf81ff921"},"vehicle_type_id":"4","last_reported":1742072939,"current_range_meters":13600,"station_id":"ce4bhih2rcd13ifvqfr0","pricing_plan_id":"cebpf4jnsgd1na2vs0mg"},{"bike_id":"0114df12-833f-4118-8bdf-9a1c7c2fc225","system_id":"levelo_inurba_marseille","lat":43.29572,"lon":5.39981,"is_reserved":false,"is_disabled":false,"rental_uris":{"android":"levelo://app?vid=0114df12-833f-4118-8bdf-9a1c7c2fc225","ios":"levelo://app?vid=0114df12-833f-4118-8bdf-9a1c7c2fc225"},"vehicle_type_id":"4","last_reported":1742072939,"current_range_meters":13600,"station_id":"ce4bh312rcd13ifvqdj0","pricing_plan_id":"cebpf4jnsgd1na2vs0mg"},{"bike_id":"41a76303-5b46-4172-b841-3a6fe95d193d","system_id":"levelo_inurba_marseille","lat":43.28451,"lon":5.3588,"is_reserved":false,"is_disabled":false,"rental_uris":{"android":"levelo://app?vid=41a76303-5b46-4172-b841-3a6fe95d193d","ios":"levelo://app?vid=41a76303-5b46-4172-b841-3a6fe95d193d"},"vehicle_type_id":"4","last_reported":1742072939,"current_range_meters":13600,"station_id":"ce4bhah2rcd13ifvqei0","pricing_plan_id":"cebpf4jnsgd1na2vs0mg"},