{"last_updated":1685297260,"ttl":30,"version":"2.2","data":{"bikes":[{"bike_id":"d83fe556-d09f-41cd-a484-22a0d680e04a","system_id":"levelo_inurba_marseille","lat":43.314811,"lon":5.373104,"is_reserved":false,"is_disabled":false,"rental_uris":{"android":"levelo://app?vid=d83fe556-d09f-41cd-a484-22a0d680e04a","ios":"levelo://app?vid=d83fe556-d09f-41cd-a484-22a0d680e04a"},"vehicle_type_id":"4","last_reported":1685297260,"current_range_meters":20400,"station_id":"ce4bgt12rcd13ifvqcd0","pricing_plan_id":"free"},{"bike_id":"8ba05b99-8e07-458d-b3fd-f1b09beb1f9b","system_id":"levelo_inurba_marseille","lat":43.314811,"lon":5.373103,"is_reserved":false,"is_disabled":false,"rental_uris":{"android":"levelo://app?vid=8ba05b99-8e07-458d-b3fd-f1b09beb1f9b","ios":"levelo://app?vid=8ba05b99-8e07-458d-b3fd-f1b09beb1f9b"},"vehicle_type_id":"4","last_reported":1685297260,"current_range_meters":4800,"station_id":"ce4bgt12rcd13ifvqcd0","pricing_plan_id":"free"},{"bike_id":"fd58def1-b15b-4a0d-bda4-e1801eb7a0bb","system_id":"levelo_inurba_marseille","lat":43.314811,"lon":5.373103,"is_reserved":false,"is_disabled":false,"rental_uris":{"android":"levelo://app?vid=fd58def1-b15b-4a0d-bda4-e1801eb7a0bb","ios":"levelo://app?vid=fd58def1-b15b-4a0d-bda4-e1801eb7a0bb"},"vehicle_type_id":"4","last_reported":1685297260,"current_range_meters":22800,"station_id":"ce4bgt12rcd13ifvqcd0","pricing_plan_id":"free"},{"bike_id":"e694a2c9-97cc-425f-944d-2dac475f074f","system_id":"levelo_inurba_marseille","lat":43.305989,"lon":5.37225,"is_reserved":false,"is_disabled":false,"rental_uris":{"android":"levelo://app?vid=e694a2c9-97cc-425f-944d-2dac475f074f","ios":"levelo://app?vid=e694a2c9-97cc-425f-944d-2dac475f074f"},"vehicle_type_id":"4","last_reported":1685297260,"current_range_meters":10400,"station_id":"ce4bgqh2rcd13ifvqc4g","pricing_plan_id":"free"},{"bike_id":"6b015c21-1af0-4ec0-ad0f-92eed32550f4","system_id":"levelo_inurba_marseille","lat":43.31532,"lon":5.38038,"is_reserved":false,"is_disabled":false,"rental_uris":{"android":"levelo://app?vid=6b015c21-1af0-4ec0-ad0f-92eed32550f4","ios":"levelo://app?vid=6b015c21-1af0-4ec0-ad0f-92eed32550f4"},"vehicle_type_id":"4","last_reported":1685297260,"current_range_meters":5600,"station_id":"ce4bhsp2rcd13ifvqi50","pricing_plan_id":"free"},{"bike_id":"b7262d0b-fd82-40e7-aa93-b2a55bd12a2c","system_id":"levelo_inurba_marseille","lat":43.315293,"lon":5.380349,"is_reserved":false,"is_disabled":false,"rental_uris":{"android":"levelo://app?vid=b7262d0b-fd82-40e7-aa93-b2a55bd12a2c","ios":"levelo://app?vid=b7262d0b-fd82-40e7-aa93-b2a55bd12a2c"},"vehicle_type_id":"4","last_reported":1685297260,"current_range_meters":3200,"station_id":"ce4bhsp2rcd13ifvqi50","pricing_plan_id":"free"},{"bike_id":"98a48e57-36a7-4287-b1ae-1ac686462986","system_id":"levelo_inurba_marseille","lat":43.304606,"lon":5.379026,"is_reserved":false,"is_disabled":false,"rental_uris":{"android":"levelo://app?vid=98a48e57-36a7-4287-b1ae-1ac686462986","ios":"levelo://app?vid=98a48e57-36a7-4287-b1ae-1ac686462986"},"vehicle_type_id":"4","last_reported":1685297260,"current_range_meters":8400,"station_id":"ce4bgup2rcd13ifvqcn0","pricing_plan_id":"free"},{"bike_id":"8f5dc1d6-13c3-4a82-889f-66b8a26a161e","system_id":"levelo_inurba_marseille","lat":43.31365,"lon":5.38512,"is_reserved":false,"is_disabled":false,"rental_uris":{"android":"levelo://app?vid=8f5dc1d6-13c3-4a82-889f-66b8a26a161e","ios":"levelo://app?vid=8f5dc1d6-13c3-4a82-889f-66b8a26a161e"},"vehicle_type_id":"4","last_reported":1685297260,"current_range_meters":17600,"station_id":"ce4bgt92rcd13ifvqcf0","pricing_plan_id":"free"},{"bike_id":"cc8d7ce2-e4f2-46c8-9146-a1140f8a9a9f","system_id":"levelo_inurba_marseille","lat":43.298433,"lon":5.362774,"is_reserved":false,"is_disabled":false,"rental_uris":{"android":"levelo://app?vid=cc8d7ce2-e4f2-46c8-9146-a1140f8a9a9f","ios":"levelo://app?vid=cc8d7ce2-e4f2-46c8-9146-a1140f8a9a9f"},"vehicle_type_id":"4","last_reported":1685297260,"current_range_meters":7200,"station_id":"ce4bgpp2rcd13ifvqc3g","pricing_plan_id":"free"},{"bike_id":"29d23244-909c-46a2-b79b-e78e380675e5","system_id":"levelo_inurba_marseille","lat":43.311722,"lon":5.387247,"is_reserved":false,"is_disabled":false,"rental_uris":{"android":"levelo://app?vid=29d23244-909c-46a2-b79b-e78e380675e5","ios":"levelo://app?vid=29d23244-909c-46a2-b79b-e78e380675e5"},"vehicle_type_id":"4","last_reported":1685297260,"current_range_meters":3200,"station_id":"ce4bgv12rcd13ifvqcp0","pricing_plan_id":"free"},{"bike_id":"1b064916-ce14-4dd7-8822-0096c3687352","system_id":"levelo_inurba_marseille","lat":43.31191,"lon":5.38712,"is_reserved":false,"is_disabled":false,"rental_uris":{"android":"levelo://app?vid=1b064916-ce14-4dd7-8822-0096c3687352","ios":"levelo://app?vid=1b064916-ce14-4dd7-8822-0096c3687352"},"vehicle_type_id":"4","last_reported":1685297260,"current_range_meters":3200,"station_id":"ce4bgv12rcd13ifvqcp0","pricing_plan_id":"free"},{"bike_id":"13820d23-caaf-4317-93ea-3ee725a29903","system_id":"levelo_inurba_marseille","lat":43.311722,"lon":5.387247,"is_reserved":false,"is_disabled":false,"rental_uris":{"android":"levelo://app?vid=13820d23-caaf-4317-93ea-3ee725a29903","ios":"levelo://app?vid=13820d23-caaf-4317-93ea-3ee725a29903"},"vehicle_type_id":"4","last_reported":1685297260,"current_range_meters":8000,"station_id":"ce4bgv12rcd13ifvqcp0","pricing_plan_id":"free"},{"bike_id":"3f083a9e-458d-4882-9f17-2bf4f527638d","system_id":"levelo_inurba_marseille","lat":43.311722,"lon":5.387247,"is_reserved":false,"is_disabled":false,"rental_uris":{"android":"levelo://app?vid=3f083a9e-458d-4882-9f17-2bf4f527638d","ios":"levelo://app?vid=3f083a9e-458d-4882-9f17-2bf4f527638d"},"vehicle_type_id":"4","last_reported":1685297260,"current_range_meters":1600,"station_id":"ce4bgv12rcd13ifvqcp0","pricing_plan_id":"free"},{"bike_id":"d438489c-4be9-4cfa-9132-8bab6904e54b","system_id":"levelo_inurba_marseille","lat":43.297794,"lon":5.370888,"is_reserved":false,"is_disabled":false,"rental_uris":{"android":"levelo://app?vid=d438489c-4be9-4cfa-9132-8bab6904e54b","ios":"levelo://app?vid=d438489c-4be9-4cfa-9132-8bab6904e54b"},"vehicle_type_id":"4","last_reported":1685297260,"current_range_meters":0,"station_id":"ce4bgop2rcd13ifvqc1g","pricing_plan_id":"free"},{"bike_id":"43d041a6-cdcf-4897-8665-6ed61b2c409c","system_id":"levelo_inurba_marseille","lat":43.32828,"lon":5.3667,"is_reserved":false,"is_disabled":false,"rental_uris":{"android":"levelo://app?vid=43d041a6-cdcf-4897-8665-6ed61b2c409c","ios":"levelo://app?vid=43d041a6-cdcf-4897-8665-6ed61b2c409c"},"vehicle_type_id":"4","last_reported":1685297260,"current_range_meters":29200,"station_id":"ce4bhs92rcd13ifvqi0g","pricing_plan_id":"free"},{"bike_id":"6aadd20f-ee22-42f7-9c69-f3066c5dfcf1","system_id":"levelo_inurba_marseille","lat":43.328371,"lon":5.366912,"is_reserved":false,"is_disabled":false,"rental_uris":{"android":"levelo://app?vid=6aadd20f-ee22-42f7-9c69-f3066c5dfcf1","ios":"levelo://app?vid=6aadd20f-ee22-42f7-9c69-f3066c5dfcf1"},"vehicle_type_id":"4","last_reported":1685297260,"current_range_meters":10400,"station_id":"ce4bhs92rcd13ifvqi0g","pricing_plan_id":"free"},{"bike_id":"bb1e0ad9-df4b-41de-bdd5-bce01dd60691","system_id":"levelo_inurba_marseille","lat":43.328371,"lon":5.366909,"is_reserved":false,"is_disabled":false,"rental_uris":{"android":"levelo://app?vid=bb1e0ad9-df4b-41de-bdd5-bce01dd60691","ios":"levelo://app?vid=bb1e0ad9-df4b-41de-bdd5-bce01dd60691"},"vehicle_type_id":"4","last_reported":1685297260,"current_range_meters":28800,"station_id":"ce4bhs92rcd13ifvqi0g","pricing_plan_id":"free"},{"bike_id":"285c145e-777a-4b00-b299-e3b44b9cb422","system_id":"levelo_inurba_marseille","lat":43.32832,"lon":5.36672,"is_reserved":false,"is_disabled":false,"rental_uris":{"android":"levelo://app?vid=285c145e-777a-4b00-b299-e3b44b9cb422","ios":"levelo://app?vid=285c145e-777a-4b00-b299-e3b44b9cb422"},"vehicle_type_id":"4","last_reported":1685297260,"current_range_meters":7200,"station_id":"ce4bhs92rcd13ifvqi0g","pricing_plan_id":"free"},{"bike_id":"03df26fb-4020-4fd1-b178-e5978d1245cc","system_id":"levelo_inurba_marseille","lat":43.29714,"lon":5.36606,"is_reserved":false,"is_disabled":false,"rental_uris":{"android":"levelo://app?vid=03df26fb-4020-4fd1-b178-e5978d1245cc","ios":"levelo://app?vid=03df26fb-4020-4fd1-b178-e5978d1245cc"},"vehicle_type_id":"4","last_reported":1685297260,"current_range_meters":6400,"station_id":"","pricing_plan_id":"free"},{"bike_id":"383aa7a2-3538-4d7d-9ca2-1fbba8b52814","system_id":"levelo_inurba_marseille","lat":43.29733,"lon":5.35966,"is_reserved":false,"is_disabled":false,"rental_uris":{"android":"levelo://app?vid=383aa7a2-3538-4d7d-9ca2-1fbba8b52814","ios":"levelo://app?vid=383aa7a2-3538-4d7d-9ca2-1fbba8b52814"},"vehicle_type_id":"4","last_reported":1685297260,"current_range_meters":26400,"station_id":"","pricing_plan_id":"free"},{"bike_id":"64104bcb-2aaa-4e88-b0e6-b5a9011bdaf2","system_id":"levelo_inurba_marseille","lat":43.304278,"lon":5.388868,"is_reserved":false,"is_disabled":false,"rental_uris":{"android":"levelo://app?vid=64104bcb-2aaa-4e88-b0e6-b5a9011bdaf2","ios":"levelo://app?vid=64104bcb-2aaa-4e88-b0e6-b5a9011bdaf2"},"vehicle_type_id":"4","last_reported":1685297260,"current_range_meters":8000,"station_id":"ce4bgk12rcd13ifvqbi0","pricing_plan_id":"free"},{"bike_id":"849ea762-7ea9-431a-9337-ca8e35d5d834","system_id":"levelo_inurba_marseille","lat":43.304278,"lon":5.388868,"is_reserved":false,"is_disabled":false,"rental_uris":{"android":"levelo://app?vid=849ea762-7ea9-431a-9337-ca8e35d5d834","ios":"levelo://app?vid=849ea762-7ea9-431a-9337-ca8e35d5d834"},"vehicle_type_id":"4","last_reported":1685297260,"current_range_meters":14000,"station_id":"ce4bgk12rcd13ifvqbi0","pricing_plan_id":"free"},{"bike_id":"7433a6e3-0954-44ca-bd1e-492595f6fd83","system_id":"levelo_inurba_marseille","lat":43.296277,"lon":5.377108,"is_reserved":false,"is_disabled":false,"rental_uris":{"android":"levelo://app?vid=7433a6e3-0954-44ca-bd1e-492595f6fd83","ios":"levelo://app?vid=7433a6e3-0954-44ca-bd1e-492595f6fd83"},"vehicle_type_id":"4","last_reported":1685297260,"current_range_meters":800,"station_id":"ce4bgi92rcd13ifvqb90","pricing_plan_id":"free"},{"bike_id":"a07ced41-cdde-4da9-a556-bbd7ea8aac2b","system_id":"levelo_inurba_marseille","lat":43.29521,"lon":5.37507,"is_reserved":false,"is_disabled":false,"rental_uris":{"android":"levelo://app?vid=a07ced41-cdde-4da9-a556-bbd7ea8aac2b","ios":"levelo://app?vid=a07ced41-cdde-4da9-a556-bbd7ea8aac2b"},"vehicle_type_id":"4","last_reported":1685297260,"current_range_meters":16400,"station_id":"ce4bgkp2rcd13ifvqbmg","pricing_plan_id":"free"},{"bike_id":"9ac729d2-c393-4963-811d-4e6a4478feb4","system_id":"levelo_inurba_marseille","lat":43.32367,"lon":5.388836,"is_reserved":false,"is_disabled":false,"rental_uris":{"android":"levelo://app?vid=9ac729d2-c393-4963-811d-4e6a4478feb4","ios":"levelo://app?vid=9ac729d2-c393-4963-811d-4e6a4478feb4"},"vehicle_type_id":"4","last_reported":1685297260,"current_range_meters":2000,"station_id":"ce4bhqp2rcd13ifvqhog","pricing_plan_id":"free"},{"bike_id":"d701d198-0cef-4214-8175-053f3f922041","system_id":"levelo_inurba_marseille","lat":43.29601,"lon":5.381084,"is_reserved":false,"is_disabled":false,"rental_uris":{"android":"levelo://app?vid=d701d198-0cef-4214-8175-053f3f922041","ios":"levelo://app?vid=d701d198-0cef-4214-8175-053f3f922041"},"vehicle_type_id":"4","last_reported":1685297260,"current_range_meters":1200,"station_id":"ce4bgl12rcd13ifvqbo0","pricing_plan_id":"free"},{"bike_id":"11cfcaab-3a9b-4b7a-b169-ad8fa7d6a83d","system_id":"levelo_inurba_marseille","lat":43.293104,"lon":5.371817,"is_reserved":false,"is_disabled":false,"rental_uris":{"android":"levelo://app?vid=11cfcaab-3a9b-4b7a-b169-ad8fa7d6a83d","ios":"levelo://app?vid=11cfcaab-3a9b-4b7a-b169-ad8fa7d6a83d"},"vehicle_type_id":"4","last_reported":1685297260,"current_range_meters":0,"station_id":"","pricing_plan_id":"free"},{"bike_id":"7d170f2d-2689-410b-8ec7-28530a4c95c3","system_id":"levelo_inurba_marseille","lat":43.29307,"lon":5.3717,"is_reserved":false,"is_disabled":false,"rental_uris":{"android":"levelo://app?vid=7d170f2d-2689-410b-8ec7-28530a4c95c3","ios":"levelo://app?vid=7d170f2d-2689-410b-8ec7-28530a4c95c3"},"vehicle_type_id":"4","last_reported":1685297260,"current_range_meters":8000,"station_id":"","pricing_plan_id":"free"},{"bike_id":"1ddcc1e3-064a-45fe-8548-c3fa9200518e","system_id":"levelo_inurba_marseille","lat":43.29411,"lon":5.37712,"is_reserved":false,"is_disabled":false,"rental_uris":{"android":"levelo://app?vid=1ddcc1e3-064a-45fe-8548-c3fa9200518e","ios":"levelo://app?vid=1ddcc1e3-064a-45fe-8548-c3fa9200518e"},"vehicle_type_id":"4","last_reported":1685297260,"current_range_meters":0,"station_id":"","pricing_plan_id":"free"},{"bike_id":"c13d5d24-7a1e-48c3-96b6-41ad382701ec","system_id":"levelo_inurba_marseille","lat":43.29301,"lon":5.37459,"is_reserved":false,"is_disabled":false,"rental_uris":{"android":"levelo://app?vid=c13d5d24-7a1e-48c3-96b6-41ad382701ec","ios":"levelo://app?vid=c13d5d24-7a1e-48c3-96b6-41ad382701ec"},"vehicle_type_id":"4","last_reported":1685297260,"current_range_meters":22400,"station_id":"ce4bgi12rcd13ifvqb70","pricing_plan_id":"free"},{"bike_id":"5353eec8-80cc-49c2-b347-ac41b098c82e","system_id":"levelo_inurba_marseille","lat":43.29297,"lon":5.37454,"is_reserved":false,"is_disabled":false,"rental_uris":{"android":"levelo://app?vid=5353eec8-80cc-49c2-b347-ac41b098c82e","ios":"levelo://app?vid=5353eec8-80cc-49c2-b347-ac41b098c82e"},"vehicle_type_id":"4","last_reported":1685297260,"current_range_meters":6400,"station_id":"ce4bgi12rcd13ifvqb70","pricing_plan_id":"free"},{"bike_id":"d27bd68f-3b05-498e-840a-6de76d214ddf","system_id":"levelo_inurba_marseille","lat":43.293009,"lon":5.374584,"is_reserved":false,"is_disabled":false,"rental_uris":{"android":"levelo://app?vid=d27bd68f-3b05-498e-840a-6de76d214ddf","ios":"levelo://app?vid=d27bd68f-3b05-498e-840a-6de76d214ddf"},"vehicle_type_id":"4","last_reported":1685297260,"current_range_meters":0,"station_id":"ce4bgi12rcd13ifvqb70","pricing_plan_id":"free"},{"bike_id":"cd97b307-b574-4822-bacd-98be54343eec","system_id":"levelo_inurba_marseille","lat":43.29371,"lon":5.37858,"is_reserved":false,"is_disabled":false,"rental_uris":{"android":"levelo://app?vid=cd97b307-b574-4822-bacd-98be54343eec","ios":"levelo://app?vid=cd97b307-b574-4822-bacd-98be54343eec"},"vehicle_type_id":"4","last_reported":1685297260,"current_range_meters":0,"station_id":"ce4bgjh2rcd13ifvqbf0","pricing_plan_id":"free"},{"bike_id":"46b4a8a3-66b2-4feb-934e-2026f0c26333","system_id":"levelo_inurba_marseille","lat":43.30085,"lon":5.390856,"is_reserved":false,"is_disabled":false,"rental_uris":{"android":"levelo://app?vid=46b4a8a3-66b2-4feb-934e-2026f0c26333","ios":"levelo://app?vid=46b4a8a3-66b2-4feb-934e-2026f0c26333"},"vehicle_type_id":"4","last_reported":1685297260,"current_range_meters":6000,"station_id":"ce4bh192rcd13ifvqdb0","pricing_plan_id":"free"},{"bike_id":"686ea136-c6ab-4114-9767-abe1531e9ad7","system_id":"levelo_inurba_marseille","lat":43.292311,"lon":5.360731,"is_reserved":false,"is_disabled":false,"rental_uris":{"android":"levelo://app?vid=686ea136-c6ab-4114-9767-abe1531e9ad7","ios":"levelo://app?vid=686ea136-c6ab-4114-9767-abe1531e9ad7"},"vehicle_type_id":"4","last_reported":1685297260,"current_range_meters":10000,"station_id":"ce4bhbh2rcd13ifvqeqg","pricing_plan_id":"free"},{"bike_id":"a1495fa6-cb08-4b41-9fe6-1855f84fb3ec","system_id":"levelo_inurba_marseille","lat":43.300852,"lon":5.390859,"is_reserved":false,"is_disabled":false,"rental_uris":{"android":"levelo://app?vid=a1495fa6-cb08-4b41-9fe6-1855f84fb3ec","ios":"levelo://app?vid=a1495fa6-cb08-4b41-9fe6-1855f84fb3ec"},"vehicle_type_id":"4","last_reported":1685297260,"current_range_meters":800,"station_id":"ce4bh192rcd13ifvqdb0","pricing_plan_id":"free"},{"bike_id":"cbe9a30a-6189-474b-beff-a5b31dd5f349","system_id":"levelo_inurba_marseille","lat":43.298764,"lon":5.388973,"is_reserved":false,"is_disabled":false,"rental_uris":{"android":"levelo://app?vid=cbe9a30a-6189-474b-beff-a5b31dd5f349","ios":"levelo://app?vid=cbe9a30a-6189-474b-beff-a5b31dd5f349"},"vehicle_type_id":"4","last_reported":1685297260,"current_range_meters":2800,"station_id":"ce4bh392rcd13ifvqdl0","pricing_plan_id":"free"},{"bike_id":"7b9a6900-ae39-450f-a648-15b4f8428c46","system_id":"levelo_inurba_marseille","lat":43.291994,"lon":5.357886,"is_reserved":false,"is_disabled":false,"rental_uris":{"android":"levelo://app?vid=7b9a6900-ae39-450f-a648-15b4f8428c46","ios":"levelo://app?vid=7b9a6900-ae39-450f-a648-15b4f8428c46"},"vehicle_type_id":"4","last_reported":1685297260,"current_range_meters":3200,"station_id":"ce4bhb12rcd13ifvqel0","pricing_plan_id":"free"},{"bike_id":"3c733726-ae1a-4b9c-90a8-c0e9e4ad920f","system_id":"levelo_inurba_marseille","lat":43.29223,"lon":5.37724,"is_reserved":false,"is_disabled":false,"rental_uris":{"android":"levelo://app?vid=3c733726-ae1a-4b9c-90a8-c0e9e4ad920f","ios":"levelo://app?vid=3c733726-ae1a-4b9c-90a8-c0e9e4ad920f"},"vehicle_type_id":"4","last_reported":1685297260,"current_range_meters":4400,"station_id":"","pricing_plan_id":"free"},{"bike_id":"73c52863-cf5a-40f6-8394-1b350d976bef","system_id":"levelo_inurba_marseille","lat":43.31325,"lon":5.39695,"is_reserved":false,"is_disabled":false,"rental_uris":{"android":"levelo://app?vid=73c52863-cf5a-40f6-8394-1b350d976bef","ios":"levelo://app?vid=73c52863-cf5a-40f6-8394-1b350d976bef"},"vehicle_type_id":"4","last_reported":1685297260,"current_range_meters":8800,"station_id":"ce4bgvp2rcd13ifvqcu0","pricing_plan_id":"free"},{"bike_id":"23f89600-9edd-4586-8265-2b9e42ad1f80","system_id":"levelo_inurba_marseille","lat":43.309038,"lon":5.396546,"is_reserved":false,"is_disabled":false,"rental_uris":{"android":"levelo://app?vid=23f89600-9edd-4586-8265-2b9e42ad1f80","ios":"levelo://app?vid=23f89600-9edd-4586-8265-2b9e42ad1f80"},"vehicle_type_id":"4","last_reported":1685297260,"current_range_meters":800,"station_id":"ce4bh012rcd13ifvqcv0","pricing_plan_id":"free"},{"bike_id":"261bc309-df74-4294-84ed-99320fa22658","system_id":"levelo_inurba_marseille","lat":43.309038,"lon":5.396546,"is_reserved":false,"is_disabled":false,"rental_uris":{"android":"levelo://app?vid=261bc309-df74-4294-84ed-99320fa22658","ios":"levelo://app?vid=261bc309-df74-4294-84ed-99320fa22658"},"vehicle_type_id":"4","last_reported":1685297260,"current_range_meters":2400,"station_id":"ce4bh012rcd13ifvqcv0","pricing_plan_id":"free"},{"bike_id":"c5d14d2b-5658-4111-aeec-a32091be0ea1","system_id":"levelo_inurba_marseille","lat":43.29529,"lon":5.385581,"is_reserved":false,"is_disabled":false,"rental_uris":{"android":"levelo://app?vid=c5d14d2b-5658-4111-aeec-a32091be0ea1","ios":"levelo://app?vid=c5d14d2b-5658-4111-aeec-a32091be0ea1"},"vehicle_type_id":"4","last_reported":1685297260,"current_range_meters":800,"station_id":"ce4bgih2rcd13ifvqba0","pricing_plan_id":"free"},{"bike_id":"4275f51c-457c-4bbc-8a9b-eaa0e85cef98","system_id":"levelo_inurba_marseille","lat":43.29037,"lon":5.35906,"is_reserved":false,"is_disabled":false,"rental_uris":{"android":"levelo://app?vid=4275f51c-457c-4bbc-8a9b-eaa0e85cef98","ios":"levelo://app?vid=4275f51c-457c-4bbc-8a9b-eaa0e85cef98"},"vehicle_type_id":"4","last_reported":1685297260,"current_range_meters":18800,"station_id":"ce4bha92rcd13ifvqeg0","pricing_plan_id":"free"},{"bike_id":"f4615c3e-83d5-4b1f-a5c2-8f9ab2426527","system_id":"levelo_inurba_marseille","lat":43.304,"lon":5.39732,"is_reserved":false,"is_disabled":false,"rental_uris":{"android":"levelo://app?vid=f4615c3e-83d5-4b1f-a5c2-8f9ab2426527","ios":"levelo://app?vid=f4615c3e-83d5-4b1f-a5c2-8f9ab2426527"},"vehicle_type_id":"4","last_reported":1685297260,"current_range_meters":10400,"station_id":"ce4bgvp2rcd13ifvqcu0","pricing_plan_id":"free"},{"bike_id":"58c3d343-8d85-46b0-ae26-61f50f330eff","system_id":"levelo_inurba_marseille","lat":43.297814,"lon":5.393513,"is_reserved":false,"is_disabled":false,"rental_uris":{"android":"levelo://app?vid=58c3d343-8d85-46b0-ae26-61f50f330eff","ios":"levelo://app?vid=58c3d343-8d85-46b0-ae26-61f50f330eff"},"vehicle_type_id":"4","last_reported":1685297260,"current_range_meters":2800,"station_id":"chh1huq6cuj3fo74tm60","pricing_plan_id":"free"},{"bike_id":"b9cd0b36-d51b-47a8-859a-4ac735d6b975","system_id":"levelo_inurba_marseille","lat":43.290995,"lon":5.381361,"is_reserved":false,"is_disabled":false,"rental_uris":{"android":"levelo://app?vid=b9cd0b36-d51b-47a8-859a-4ac735d6b975","ios":"levelo://app?vid=b9cd0b36-d51b-47a8-859a-4ac735d6b975"},"vehicle_type_id":"4","last_reported":1685297260,"current_range_meters":11200,"station_id":"ce4bh512rcd13ifvqe2g","pricing_plan_id":"free"},{"bike_id":"141c14ea-594b-43ee-894e-8c44af1dcd73","system_id":"levelo_inurba_marseille","lat":43.33735,"lon":5.37451,"is_reserved":false,"is_disabled":false,"rental_uris":{"android":"levelo://app?vid=141c14ea-594b-43ee-894e-8c44af1dcd73","ios":"levelo://app?vid=141c14ea-594b-43ee-894e-8c44af1dcd73"},"vehicle_type_id":"4","last_reported":1685297260,"current_range_meters":31200,"station_id":"","pricing_plan_id":"free"},{"bike_id":"915a1d5d-0a9c-4982-bd00-ae384a29cdde","system_id":"levelo_inurba_marseille","lat":43.33743,"lon":5.37448,"is_reserved":false,"is_disabled":false,"rental_uris":{"android":"levelo://app?vid=915a1d5d-0a9c-4982-bd00-ae384a29cdde","ios":"levelo://app?vid=915a1d5d-0a9c-4982-bd00-ae384a29cdde"},"vehicle_type_id":"4","last_reported":1685297260,"current_range_meters":29600,"station_id":"","pricing_plan_id":"free"},{"bike_id":"4d395139-b839-4ab0-8519-abb908308d08","system_id":"levelo_inurba_marseille","lat":43.33746,"lon":5.37435,"is_reserved":false,"is_disabled":false,"rental_uris":{"android":"levelo://app?vid=4d395139-b839-4ab0-8519-abb908308d08","ios":"levelo://app?vid=4d395139-b839-4ab0-8519-abb908308d08"},"vehicle_type_id":"4","last_reported":1685297260,"current_range_meters":28800,"station_id":"","pricing_plan_id":"free"},{"bike_id":"c67b547c-3fcb-4384-8614-e15f558fec55","system_id":"levelo_inurba_marseille","lat":43.33744,"lon":5.37451,"is_reserved":false,"is_disabled":false,"rental_uris":{"android":"levelo://app?vid=c67b547c-3fcb-4384-8614-e15f558fec55","ios":"levelo://app?vid=c67b547c-3fcb-4384-8614-e15f558fec55"},"vehicle_type_id":"4","last_reported":1685297260,"current_range_meters":26400,"station_id":"","pricing_plan_id":"free"},{"bike_id":"493860ce-e063-4684-ab33-c360eaf64153","system_id":"levelo_inurba_marseille","lat":43.33744,"lon":5.37451,"is_reserved":false,"is_disabled":false,"rental_uris":{"android":"levelo://app?vid=493860ce-e063-4684-ab33-c360eaf64153","ios":"levelo://app?vid=493860ce-e063-4684-ab33-c360eaf64153"},"vehicle_type_id":"4","last_reported":1685297260,"current_range_meters":17200,"station_id":"","pricing_plan_id":"free"},{"bike_id":"556c6db1-2600-4c2b-9521-aae8453517c1","system_id":"levelo_inurba_marseille","lat":43.33753,"lon":5.37442,"is_reserved":false,"is_disabled":false,"rental_uris":{"android":"levelo://app?vid=556c6db1-2600-4c2b-9521-aae8453517c1","ios":"levelo://app?vid=556c6db1-2600-4c2b-9521-aae8453517c1"},"vehicle_type_id":"4","last_reported":1685297260,"current_range_meters":13200,"station_id":"","pricing_plan_id":"free"},{"bike_id":"5aaf445f-f097-4041-99e9-0b2edc8a39b1","system_id":"levelo_inurba_marseille","lat":43.33755,"lon":5.37447,"is_reserved":false,"is_disabled":false,"rental_uris":{"android":"levelo://app?vid=5aaf445f-f097-4041-99e9-0b2edc8a39b1","ios":"levelo://app?vid=5aaf445f-f097-4041-99e9-0b2edc8a39b1"},"vehicle_type_id":"4","last_reported":1685297260,"current_range_meters":28000,"station_id":"","pricing_plan_id":"free"},{"bike_id":"ff5ec8e3-d721-44eb-9261-d7d10ead3435","system_id":"levelo_inurba_marseille","lat":43.30642,"lon":5.401031,"is_reserved":false,"is_disabled":false,"rental_uris":{"android":"levelo://app?vid=ff5ec8e3-d721-44eb-9261-d7d10ead3435","ios":"levelo://app?vid=ff5ec8e3-d721-44eb-9261-d7d10ead3435"},"vehicle_type_id":"4","last_reported":1685297260,"current_range_meters":5200,"station_id":"ce4bh112rcd13ifvqda0","pricing_plan_id":"free"},{"bike_id":"8a0e430b-877a-4f5d-ad09-ce116160bf3d","system_id":"levelo_inurba_marseille","lat":43.30642,"lon":5.401031,"is_reserved":false,"is_disabled":false,"rental_uris":{"android":"levelo://app?vid=8a0e430b-877a-4f5d-ad09-ce116160bf3d","ios":"levelo://app?vid=8a0e430b-877a-4f5d-ad09-ce116160bf3d"},"vehicle_type_id":"4","last_reported":1685297260,"current_range_meters":5600,"station_id":"ce4bh112rcd13ifvqda0","pricing_plan_id":"free"},{"bike_id":"e2ff679e-5971-4ea4-9d0b-3c91ea059b40","system_id":"levelo_inurba_marseille","lat":43.30642,"lon":5.401031,"is_reserved":false,"is_disabled":false,"rental_uris":{"android":"levelo://app?vid=e2ff679e-5971-4ea4-9d0b-3c91ea059b40","ios":"levelo://app?vid=e2ff679e-5971-4ea4-9d0b-3c91ea059b40"},"vehicle_type_id":"4","last_reported":1685297260,"current_range_meters":5200,"station_id":"ce4bh112rcd13ifvqda0","pricing_plan_id":"free"},{"bike_id":"9a57f0f9-bb12-41a5-8f0b-f76563f38829","system_id":"levelo_inurba_marseille","lat":43.301117,"lon":5.398795,"is_reserved":false,"is_disabled":false,"rental_uris":{"android":"levelo://app?vid=9a57f0f9-bb12-41a5-8f0b-f76563f38829","ios":"levelo://app?vid=9a57f0f9-bb12-41a5-8f0b-f76563f38829"},"vehicle_type_id":"4","last_reported":1685297260,"current_range_meters":0,"station_id":"ce4bh0h2rcd13ifvqd40","pricing_plan_id":"free"},{"bike_id":"0a3e1ca5-d3c9-4616-9f15-41f9c7537283","system_id":"levelo_inurba_marseille","lat":43.3043,"lon":5.40093,"is_reserved":false,"is_disabled":false,"rental_uris":{"android":"levelo://app?vid=0a3e1ca5-d3c9-4616-9f15-41f9c7537283","ios":"levelo://app?vid=0a3e1ca5-d3c9-4616-9f15-41f9c7537283"},"vehicle_type_id":"4","last_reported":1685297260,"current_range_meters":6000,"station_id":"","pricing_plan_id":"free"},{"bike_id":"b76b53d1-bf77-4ce6-828e-cbc052a1e20d","system_id":"levelo_inurba_marseille","lat":43.298681,"lon":5.397225,"is_reserved":false,"is_disabled":false,"rental_uris":{"android":"levelo://app?vid=b76b53d1-bf77-4ce6-828e-cbc052a1e20d","ios":"levelo://app?vid=b76b53d1-bf77-4ce6-828e-cbc052a1e20d"},"vehicle_type_id":"4","last_reported":1685297260,"current_range_meters":400,"station_id":"ce4bh0h2rcd13ifvqd50","pricing_plan_id":"free"},{"bike_id":"38e14f7c-c10f-44de-b493-aea47ae9b526","system_id":"levelo_inurba_marseille","lat":43.29525,"lon":5.39392,"is_reserved":false,"is_disabled":false,"rental_uris":{"android":"levelo://app?vid=38e14f7c-c10f-44de-b493-aea47ae9b526","ios":"levelo://app?vid=38e14f7c-c10f-44de-b493-aea47ae9b526"},"vehicle_type_id":"4","last_reported":1685297260,"current_range_meters":0,"station_id":"ce4bh292rcd13ifvqdf0","pricing_plan_id":"free"},{"bike_id":"2b578f1d-fab1-4259-a878-4d65febf993c","system_id":"levelo_inurba_marseille","lat":43.302759,"lon":5.400793,"is_reserved":false,"is_disabled":false,"rental_uris":{"android":"levelo://app?vid=2b578f1d-fab1-4259-a878-4d65febf993c","ios":"levelo://app?vid=2b578f1d-fab1-4259-a878-4d65febf993c"},"vehicle_type_id":"4","last_reported":1685297260,"current_range_meters":400,"station_id":"ce4bgvh2rcd13ifvqcs0","pricing_plan_id":"free"},{"bike_id":"7959adb8-57ae-45d3-b22e-9141987799b0","system_id":"levelo_inurba_marseille","lat":43.290345,"lon":5.38646,"is_reserved":false,"is_disabled":false,"rental_uris":{"android":"levelo://app?vid=7959adb8-57ae-45d3-b22e-9141987799b0","ios":"levelo://app?vid=7959adb8-57ae-45d3-b22e-9141987799b0"},"vehicle_type_id":"4","last_reported":1685297260,"current_range_meters":13200,"station_id":"ce4bh4p2rcd13ifvqe0g","pricing_plan_id":"free"},{"bike_id":"66e87f85-f28f-4e41-b0b0-b291202908b5","system_id":"levelo_inurba_marseille","lat":43.28718,"lon":5.37938,"is_reserved":false,"is_disabled":false,"rental_uris":{"android":"levelo://app?vid=66e87f85-f28f-4e41-b0b0-b291202908b5","ios":"levelo://app?vid=66e87f85-f28f-4e41-b0b0-b291202908b5"},"vehicle_type_id":"4","last_reported":1685297260,"current_range_meters":400,"station_id":"ce4bh9p2rcd13ifvqec0","pricing_plan_id":"free"},{"bike_id":"67a4da92-9c76-4dfa-9f33-f050ead52adc","system_id":"levelo_inurba_marseille","lat":43.316517,"lon":5.404375,"is_reserved":false,"is_disabled":false,"rental_uris":{"android":"levelo://app?vid=67a4da92-9c76-4dfa-9f33-f050ead52adc","ios":"levelo://app?vid=67a4da92-9c76-4dfa-9f33-f050ead52adc"},"vehicle_type_id":"4","last_reported":1685297260,"current_range_meters":3600,"station_id":"ce4bh012rcd13ifvqd00","pricing_plan_id":"free"},{"bike_id":"64115a02-eb9b-4553-b822-f05c43dc2031","system_id":"levelo_inurba_marseille","lat":43.28613,"lon":5.35101,"is_reserved":false,"is_disabled":false,"rental_uris":{"android":"levelo://app?vid=64115a02-eb9b-4553-b822-f05c43dc2031","ios":"levelo://app?vid=64115a02-eb9b-4553-b822-f05c43dc2031"},"vehicle_type_id":"4","last_reported":1685297260,"current_range_meters":10000,"station_id":"","pricing_plan_id":"free"},{"bike_id":"05961f8d-ce72-4288-b933-c9a4e7b8ada0","system_id":"levelo_inurba_marseille","lat":43.295713,"lon":5.399639,"is_reserved":false,"is_disabled":false,"rental_uris":{"android":"levelo://app?vid=05961f8d-ce72-4288-b933-c9a4e7b8ada0","ios":"levelo://app?vid=05961f8d-ce72-4288-b933-c9a4e7b8ada0"},"vehicle_type_id":"4","last_reported":1685297260,"current_range_meters":0,"station_id":"ce4bh312rcd13ifvqdj0","pricing_plan_id":"free"},{"bike_id":"8a8ab331-976e-465f-b235-29a10b68caa3","system_id":"levelo_inurba_marseille","lat":43.28657,"lon":5.38575,"is_reserved":false,"is_disabled":false,"rental_uris":{"android":"levelo://app?vid=8a8ab331-976e-465f-b235-29a10b68caa3","ios":"levelo://app?vid=8a8ab331-976e-465f-b235-29a10b68caa3"},"vehicle_type_id":"4","last_reported":1685297260,"current_range_meters":4400,"station_id":"","pricing_plan_id":"free"},{"bike_id":"8a35842c-e1ce-4c78-b998-c11217ec6c2c","system_id":"levelo_inurba_marseille","lat":43.284793,"lon":5.384113,"is_reserved":false,"is_disabled":false,"rental_uris":{"android":"levelo://app?vid=8a35842c-e1ce-4c78-b998-c11217ec6c2c","ios":"levelo://app?vid=8a35842c-e1ce-4c78-b998-c11217ec6c2c"},"vehicle_type_id":"4","last_reported":1685297260,"current_range_meters":800,"station_id":"ce4bh512rcd13ifvqe3g","pricing_plan_id":"free"},{"bike_id":"cf41159a-1fb9-4168-8e7e-ab3b677e73f4","system_id":"levelo_inurba_marseille","lat":43.283498,"lon":5.380948,"is_reserved":false,"is_disabled":false,"rental_uris":{"android":"levelo://app?vid=cf41159a-1fb9-4168-8e7e-ab3b677e73f4","ios":"levelo://app?vid=cf41159a-1fb9-4168-8e7e-ab3b677e73f4"},"vehicle_type_id":"4","last_reported":1685297260,"current_range_meters":1600,"station_id":"ce4bh412rcd13ifvqdr0","pricing_plan_id":"free"},{"bike_id":"db90e368-d522-4def-9982-940dafcee815","system_id":"levelo_inurba_marseille","lat":43.284219,"lon":5.3497,"is_reserved":false,"is_disabled":false,"rental_uris":{"android":"levelo://app?vid=db90e368-d522-4def-9982-940dafcee815","ios":"levelo://app?vid=db90e368-d522-4def-9982-940dafcee815"},"vehicle_type_id":"4","last_reported":1685297260,"current_range_meters":0,"station_id":"ce4bhbh2rcd13ifvqepg","pricing_plan_id":"free"},{"bike_id":"5235aed9-a00a-4f29-955b-5cc97d9c79a9","system_id":"levelo_inurba_marseille","lat":43.284217,"lon":5.349697,"is_reserved":false,"is_disabled":false,"rental_uris":{"android":"levelo://app?vid=5235aed9-a00a-4f29-955b-5cc97d9c79a9","ios":"levelo://app?vid=5235aed9-a00a-4f29-955b-5cc97d9c79a9"},"vehicle_type_id":"4","last_reported":1685297260,"current_range_meters":0,"station_id":"ce4bhbh2rcd13ifvqepg","pricing_plan_id":"free"},{"bike_id":"4d2ddf16-48e5-426b-9f49-7a83729058bc","system_id":"levelo_inurba_marseille","lat":43.283096,"lon":5.350401,"is_reserved":false,"is_disabled":false,"rental_uris":{"android":"levelo://app?vid=4d2ddf16-48e5-426b-9f49-7a83729058bc","ios":"levelo://app?vid=4d2ddf16-48e5-426b-9f49-7a83729058bc"},"vehicle_type_id":"4","last_reported":1685297260,"current_range_meters":3200,"station_id":"ce4bhgp2rcd13ifvqfc0","pricing_plan_id":"free"},{"bike_id":"3d2de94e-f66d-4aa8-8f7a-ec53ac888ad4","system_id":"levelo_inurba_marseille","lat":43.28266,"lon":5.3506,"is_reserved":false,"is_disabled":false,"rental_uris":{"android":"levelo://app?vid=3d2de94e-f66d-4aa8-8f7a-ec53ac888ad4","ios":"levelo://app?vid=3d2de94e-f66d-4aa8-8f7a-ec53ac888ad4"},"vehicle_type_id":"4","last_reported":1685297260,"current_range_meters":0,"station_id":"ce4bhbp2rcd13ifvqerg","pricing_plan_id":"free"},{"bike_id":"9b4d5bee-d40d-4a5b-9021-b497b861054f","system_id":"levelo_inurba_marseille","lat":43.28039,"lon":5.369297,"is_reserved":false,"is_disabled":false,"rental_uris":{"android":"levelo://app?vid=9b4d5bee-d40d-4a5b-9021-b497b861054f","ios":"levelo://app?vid=9b4d5bee-d40d-4a5b-9021-b497b861054f"},"vehicle_type_id":"4","last_reported":1685297260,"current_range_meters":0,"station_id":"ce4bha12rcd13ifvqef0","pricing_plan_id":"free"},{"bike_id":"5c80fd8d-9e11-4697-a599-7d81cf892c46","system_id":"levelo_inurba_marseille","lat":43.281069,"lon":5.378312,"is_reserved":false,"is_disabled":false,"rental_uris":{"android":"levelo://app?vid=5c80fd8d-9e11-4697-a599-7d81cf892c46","ios":"levelo://app?vid=5c80fd8d-9e11-4697-a599-7d81cf892c46"},"vehicle_type_id":"4","last_reported":1685297260,"current_range_meters":22800,"station_id":"","pricing_plan_id":"free"},{"bike_id":"db1489de-a7c4-4c0f-8abf-73d0898bb77a","system_id":"levelo_inurba_marseille","lat":43.28168,"lon":5.39169,"is_reserved":false,"is_disabled":false,"rental_uris":{"android":"levelo://app?vid=db1489de-a7c4-4c0f-8abf-73d0898bb77a","ios":"levelo://app?vid=db1489de-a7c4-4c0f-8abf-73d0898bb77a"},"vehicle_type_id":"4","last_reported":1685297260,"current_range_meters":17600,"station_id":"","pricing_plan_id":"free"},{"bike_id":"e4fae145-287c-4ad9-885c-af1dd85b7193","system_id":"levelo_inurba_marseille","lat":43.325233,"lon":5.414318,"is_reserved":false,"is_disabled":false,"rental_uris":{"android":"levelo://app?vid=e4fae145-287c-4ad9-885c-af1dd85b7193","ios":"levelo://app?vid=e4fae145-287c-4ad9-885c-af1dd85b7193"},"vehicle_type_id":"4","last_reported":1685297260,"current_range_meters":19600,"station_id":"ce4bhq12rcd13ifvqhhg","pricing_plan_id":"free"},{"bike_id":"f52fe5b7-07b5-499b-846d-faf57791264c","system_id":"levelo_inurba_marseille","lat":43.325233,"lon":5.414318,"is_reserved":false,"is_disabled":false,"rental_uris":{"android":"levelo://app?vid=f52fe5b7-07b5-499b-846d-faf57791264c","ios":"levelo://app?vid=f52fe5b7-07b5-499b-846d-faf57791264c"},"vehicle_type_id":"4","last_reported":1685297260,"current_range_meters":3200,"station_id":"ce4bhq12rcd13ifvqhhg","pricing_plan_id":"free"},{"bike_id":"286258f5-ac0b-4a30-a6cc-cd45e1cdecf2","system_id":"levelo_inurba_marseille","lat":43.32535,"lon":5.41437,"is_reserved":false,"is_disabled":false,"rental_uris":{"android":"levelo://app?vid=286258f5-ac0b-4a30-a6cc-cd45e1cdecf2","ios":"levelo://app?vid=286258f5-ac0b-4a30-a6cc-cd45e1cdecf2"},"vehicle_type_id":"4","last_reported":1685297260,"current_range_meters":31200,"station_id":"ce4bhq12rcd13ifvqhhg","pricing_plan_id":"free"},{"bike_id":"b825cc48-1e3d-4178-93f6-8fb4d03247ce","system_id":"levelo_inurba_marseille","lat":43.30351,"lon":5.41886,"is_reserved":false,"is_disabled":false,"rental_uris":{"android":"levelo://app?vid=b825cc48-1e3d-4178-93f6-8fb4d03247ce","ios":"levelo://app?vid=b825cc48-1e3d-4178-93f6-8fb4d03247ce"},"vehicle_type_id":"4","last_reported":1685297260,"current_range_meters":0,"station_id":"ce4bhop2rcd13ifvqh7g","pricing_plan_id":"free"},{"bike_id":"6a7eb689-879e-42e3-a72a-9c065fc1ccae","system_id":"levelo_inurba_marseille","lat":43.278401,"lon":5.392152,"is_reserved":false,"is_disabled":false,"rental_uris":{"android":"levelo://app?vid=6a7eb689-879e-42e3-a72a-9c065fc1ccae","ios":"levelo://app?vid=6a7eb689-879e-42e3-a72a-9c065fc1ccae"},"vehicle_type_id":"4","last_reported":1685297260,"current_range_meters":14400,"station_id":"ce4bhjp2rcd13ifvqga0","pricing_plan_id":"free"},{"bike_id":"58b00bf2-a752-4133-9b5b-5fe9282dd0e4","system_id":"levelo_inurba_marseille","lat":43.33608,"lon":5.41011,"is_reserved":false,"is_disabled":false,"rental_uris":{"android":"levelo://app?vid=58b00bf2-a752-4133-9b5b-5fe9282dd0e4","ios":"levelo://app?vid=58b00bf2-a752-4133-9b5b-5fe9282dd0e4"},"vehicle_type_id":"4","last_reported":1685297260,"current_range_meters":21200,"station_id":"ce4bhqh2rcd13ifvqhmg","pricing_plan_id":"free"},{"bike_id":"ce52cd8d-16a6-4d57-ab02-5898d4dbe6c1","system_id":"levelo_inurba_marseille","lat":43.33612,"lon":5.410321,"is_reserved":false,"is_disabled":false,"rental_uris":{"android":"levelo://app?vid=ce52cd8d-16a6-4d57-ab02-5898d4dbe6c1","ios":"levelo://app?vid=ce52cd8d-16a6-4d57-ab02-5898d4dbe6c1"},"vehicle_type_id":"4","last_reported":1685297260,"current_range_meters":4800,"station_id":"ce4bhqh2rcd13ifvqhmg","pricing_plan_id":"free"},{"bike_id":"91b49189-18df-431a-bbbf-f0b2350181de","system_id":"levelo_inurba_marseille","lat":43.28423,"lon":5.40788,"is_reserved":false,"is_disabled":false,"rental_uris":{"android":"levelo://app?vid=91b49189-18df-431a-bbbf-f0b2350181de","ios":"levelo://app?vid=91b49189-18df-431a-bbbf-f0b2350181de"},"vehicle_type_id":"4","last_reported":1685297260,"current_range_meters":6400,"station_id":"","pricing_plan_id":"free"},{"bike_id":"de88f9bd-fcfb-40fa-8f4f-0c4afdfd2242","system_id":"levelo_inurba_marseille","lat":43.27777,"lon":5.3993,"is_reserved":false,"is_disabled":false,"rental_uris":{"android":"levelo://app?vid=de88f9bd-fcfb-40fa-8f4f-0c4afdfd2242","ios":"levelo://app?vid=de88f9bd-fcfb-40fa-8f4f-0c4afdfd2242"},"vehicle_type_id":"4","last_reported":1685297260,"current_range_meters":400,"station_id":"","pricing_plan_id":"free"},{"bike_id":"15c3c7e6-b4dd-446e-8825-3c2bae107a17","system_id":"levelo_inurba_marseille","lat":43.273129,"lon":5.390725,"is_reserved":false,"is_disabled":false,"rental_uris":{"android":"levelo://app?vid=15c3c7e6-b4dd-446e-8825-3c2bae107a17","ios":"levelo://app?vid=15c3c7e6-b4dd-446e-8825-3c2bae107a17"},"vehicle_type_id":"4","last_reported":1685297260,"current_range_meters":0,"station_id":"ce4bhgp2rcd13ifvqfe0","pricing_plan_id":"free"},{"bike_id":"61975327-2901-4c46-99c0-45dcaddab9b1","system_id":"levelo_inurba_marseille","lat":43.27309,"lon":5.39095,"is_reserved":false,"is_disabled":false,"rental_uris":{"android":"levelo://app?vid=61975327-2901-4c46-99c0-45dcaddab9b1","ios":"levelo://app?vid=61975327-2901-4c46-99c0-45dcaddab9b1"},"vehicle_type_id":"4","last_reported":1685297260,"current_range_meters":0,"station_id":"ce4bhgp2rcd13ifvqfe0","pricing_plan_id":"free"},{"bike_id":"a429b482-454d-4125-b3ab-2aedb91094d1","system_id":"levelo_inurba_marseille","lat":43.29551,"lon":5.42293,"is_reserved":false,"is_disabled":false,"rental_uris":{"android":"levelo://app?vid=a429b482-454d-4125-b3ab-2aedb91094d1","ios":"levelo://app?vid=a429b482-454d-4125-b3ab-2aedb91094d1"},"vehicle_type_id":"4","last_reported":1685297260,"current_range_meters":2800,"station_id":"ce4bhph2rcd13ifvqhdg","pricing_plan_id":"free"},{"bike_id":"d1a7981b-7fa3-4c2e-8100-1a7adb06866b","system_id":"levelo_inurba_marseille","lat":43.27811,"lon":5.40709,"is_reserved":false,"is_disabled":false,"rental_uris":{"android":"levelo://app?vid=d1a7981b-7fa3-4c2e-8100-1a7adb06866b","ios":"levelo://app?vid=d1a7981b-7fa3-4c2e-8100-1a7adb06866b"},"vehicle_type_id":"4","last_reported":1685297260,"current_range_meters":1600,"station_id":"ce4bhnh2rcd13ifvqgtg","pricing_plan_id":"free"},{"bike_id":"66f2b837-d256-46b9-b3b9-08ba66c8c234","system_id":"levelo_inurba_marseille","lat":43.26681,"lon":5.382694,"is_reserved":false,"is_disabled":false,"rental_uris":{"android":"levelo://app?vid=66f2b837-d256-46b9-b3b9-08ba66c8c234","ios":"levelo://app?vid=66f2b837-d256-46b9-b3b9-08ba66c8c234"},"vehicle_type_id":"4","last_reported":1685297260,"current_range_meters":19600,"station_id":"ce4bhg92rcd13ifvqf90","pricing_plan_id":"free"},{"bike_id":"473390e8-3160-44ea-98dc-0d5a7456aac3","system_id":"levelo_inurba_marseille","lat":43.26555,"lon":5.37282,"is_reserved":false,"is_disabled":false,"rental_uris":{"android":"levelo://app?vid=473390e8-3160-44ea-98dc-0d5a7456aac3","ios":"levelo://app?vid=473390e8-3160-44ea-98dc-0d5a7456aac3"},"vehicle_type_id":"4","last_reported":1685297260,"current_range_meters":400,"station_id":"ce4bhg12rcd13ifvqf70","pricing_plan_id":"free"},{"bike_id":"1b1dc1c7-e4f3-4755-beb4-d1290cbc15c7","system_id":"levelo_inurba_marseille","lat":43.26544,"lon":5.37296,"is_reserved":false,"is_disabled":false,"rental_uris":{"android":"levelo://app?vid=1b1dc1c7-e4f3-4755-beb4-d1290cbc15c7","ios":"levelo://app?vid=1b1dc1c7-e4f3-4755-beb4-d1290cbc15c7"},"vehicle_type_id":"4","last_reported":1685297260,"current_range_meters":6400,"station_id":"","pricing_plan_id":"free"},{"bike_id":"97f92444-dc7f-4ac8-885e-43ac50454dc0","system_id":"levelo_inurba_marseille","lat":43.31681,"lon":5.43323,"is_reserved":false,"is_disabled":false,"rental_uris":{"android":"levelo://app?vid=97f92444-dc7f-4ac8-885e-43ac50454dc0","ios":"levelo://app?vid=97f92444-dc7f-4ac8-885e-43ac50454dc0"},"vehicle_type_id":"4","last_reported":1685297260,"current_range_meters":0,"station_id":"","pricing_plan_id":"free"},{"bike_id":"e065ceaf-3d4c-4df5-ab28-155e7ac2b139","system_id":"levelo_inurba_marseille","lat":43.28004,"lon":5.41657,"is_reserved":false,"is_disabled":false,"rental_uris":{"android":"levelo://app?vid=e065ceaf-3d4c-4df5-ab28-155e7ac2b139","ios":"levelo://app?vid=e065ceaf-3d4c-4df5-ab28-155e7ac2b139"},"vehicle_type_id":"4","last_reported":1685297260,"current_range_meters":0,"station_id":"ce4bho12rcd13ifvqh1g","pricing_plan_id":"free"},{"bike_id":"f4607cb9-cf33-4955-8e12-d2ab5d135241","system_id":"levelo_inurba_marseille","lat":43.27996,"lon":5.416624,"is_reserved":false,"is_disabled":false,"rental_uris":{"android":"levelo://app?vid=f4607cb9-cf33-4955-8e12-d2ab5d135241","ios":"levelo://app?vid=f4607cb9-cf33-4955-8e12-d2ab5d135241"},"vehicle_type_id":"4","last_reported":1685297260,"current_range_meters":2000,"station_id":"ce4bho12rcd13ifvqh1g","pricing_plan_id":"free"},{"bike_id":"8c02bad2-966b-4a85-9c5a-2cd89a56bac5","system_id":"levelo_inurba_marseille","lat":43.27996,"lon":5.416624,"is_reserved":false,"is_disabled":false,"rental_uris":{"android":"levelo://app?vid=8c02bad2-966b-4a85-9c5a-2cd89a56bac5","ios":"levelo://app?vid=8c02bad2-966b-4a85-9c5a-2cd89a56bac5"},"vehicle_type_id":"4","last_reported":1685297260,"current_range_meters":6000,"station_id":"ce4bho12rcd13ifvqh1g","pricing_plan_id":"free"},{"bike_id":"81819bd7-e08b-4104-8fcc-4541b115d4cc","system_id":"levelo_inurba_marseille","lat":43.267966,"lon":5.393976,"is_reserved":false,"is_disabled":false,"rental_uris":{"android":"levelo://app?vid=81819bd7-e08b-4104-8fcc-4541b115d4cc","ios":"levelo://app?vid=81819bd7-e08b-4104-8fcc-4541b115d4cc"},"vehicle_type_id":"4","last_reported":1685297260,"current_range_meters":9200,"station_id":"ce4bhh12rcd13ifvqfg0","pricing_plan_id":"free"},{"bike_id":"b8e07922-f074-4378-9c0d-0a256de36fe0","system_id":"levelo_inurba_marseille","lat":43.30803,"lon":5.43522,"is_reserved":false,"is_disabled":false,"rental_uris":{"android":"levelo://app?vid=b8e07922-f074-4378-9c0d-0a256de36fe0","ios":"levelo://app?vid=b8e07922-f074-4378-9c0d-0a256de36fe0"},"vehicle_type_id":"4","last_reported":1685297260,"current_range_meters":13200,"station_id":"","pricing_plan_id":"free"},{"bike_id":"2c45440e-1828-4603-b51e-78bb9b02645f","system_id":"levelo_inurba_marseille","lat":43.30428,"lon":5.43476,"is_reserved":false,"is_disabled":false,"rental_uris":{"android":"levelo://app?vid=2c45440e-1828-4603-b51e-78bb9b02645f","ios":"levelo://app?vid=2c45440e-1828-4603-b51e-78bb9b02645f"},"vehicle_type_id":"4","last_reported":1685297260,"current_range_meters":2000,"station_id":"","pricing_plan_id":"free"},{"bike_id":"933f42be-453b-4f51-8fc5-139da5459b29","system_id":"levelo_inurba_marseille","lat":43.28096,"lon":5.4221,"is_reserved":false,"is_disabled":false,"rental_uris":{"android":"levelo://app?vid=933f42be-453b-4f51-8fc5-139da5459b29","ios":"levelo://app?vid=933f42be-453b-4f51-8fc5-139da5459b29"},"vehicle_type_id":"4","last_reported":1685297260,"current_range_meters":4400,"station_id":"","pricing_plan_id":"free"},{"bike_id":"760bfc38-e96f-40b9-8091-70e7d4460480","system_id":"levelo_inurba_marseille","lat":43.26195,"lon":5.37927,"is_reserved":false,"is_disabled":false,"rental_uris":{"android":"levelo://app?vid=760bfc38-e96f-40b9-8091-70e7d4460480","ios":"levelo://app?vid=760bfc38-e96f-40b9-8091-70e7d4460480"},"vehicle_type_id":"4","last_reported":1685297260,"current_range_meters":0,"station_id":"ce4bhjp2rcd13ifvqg90","pricing_plan_id":"free"},{"bike_id":"d6a9a463-8108-427e-8697-fbeb79ad77e3","system_id":"levelo_inurba_marseille","lat":43.267959,"lon":5.402687,"is_reserved":false,"is_disabled":false,"rental_uris":{"android":"levelo://app?vid=d6a9a463-8108-427e-8697-fbeb79ad77e3","ios":"levelo://app?vid=d6a9a463-8108-427e-8697-fbeb79ad77e3"},"vehicle_type_id":"4","last_reported":1685297260,"current_range_meters":0,"station_id":"ce501612rcd8frsf0b60","pricing_plan_id":"free"},{"bike_id":"d6c8c401-6699-40cd-b8c1-9a45a5c5a568","system_id":"levelo_inurba_marseille","lat":43.298768,"lon":5.43643,"is_reserved":false,"is_disabled":false,"rental_uris":{"android":"levelo://app?vid=d6c8c401-6699-40cd-b8c1-9a45a5c5a568","ios":"levelo://app?vid=d6c8c401-6699-40cd-b8c1-9a45a5c5a568"},"vehicle_type_id":"4","last_reported":1685297260,"current_range_meters":21200,"station_id":"ce4bhpp2rcd13ifvqhfg","pricing_plan_id":"free"},{"bike_id":"6b404443-757b-4b8d-9a78-a03ca59013fb","system_id":"levelo_inurba_marseille","lat":43.2592,"lon":5.37283,"is_reserved":false,"is_disabled":false,"rental_uris":{"android":"levelo://app?vid=6b404443-757b-4b8d-9a78-a03ca59013fb","ios":"levelo://app?vid=6b404443-757b-4b8d-9a78-a03ca59013fb"},"vehicle_type_id":"4","last_reported":1685297260,"current_range_meters":9600,"station_id":"","pricing_plan_id":"free"},{"bike_id":"14e4ee57-d3a7-4a07-b559-64b1787d3c2f","system_id":"levelo_inurba_marseille","lat":43.26064,"lon":5.39385,"is_reserved":false,"is_disabled":false,"rental_uris":{"android":"levelo://app?vid=14e4ee57-d3a7-4a07-b559-64b1787d3c2f","ios":"levelo://app?vid=14e4ee57-d3a7-4a07-b559-64b1787d3c2f"},"vehicle_type_id":"4","last_reported":1685297260,"current_range_meters":7200,"station_id":"ce4bhh92rcd13ifvqfj0","pricing_plan_id":"free"},{"bike_id":"2b54b50c-15c7-4e49-a5d1-3a300285d606","system_id":"levelo_inurba_marseille","lat":43.2607,"lon":5.393983,"is_reserved":false,"is_disabled":false,"rental_uris":{"android":"levelo://app?vid=2b54b50c-15c7-4e49-a5d1-3a300285d606","ios":"levelo://app?vid=2b54b50c-15c7-4e49-a5d1-3a300285d606"},"vehicle_type_id":"4","last_reported":1685297260,"current_range_meters":0,"station_id":"ce4bhh92rcd13ifvqfj0","pricing_plan_id":"free"},{"bike_id":"21a94e83-2bcf-4902-8a6a-85407ac0d3c9","system_id":"levelo_inurba_marseille","lat":43.254952,"lon":5.376471,"is_reserved":false,"is_disabled":false,"rental_uris":{"android":"levelo://app?vid=21a94e83-2bcf-4902-8a6a-85407ac0d3c9","ios":"levelo://app?vid=21a94e83-2bcf-4902-8a6a-85407ac0d3c9"},"vehicle_type_id":"4","last_reported":1685297260,"current_range_meters":0,"station_id":"","pricing_plan_id":"free"},{"bike_id":"6b56023f-6b7b-4ff1-9c3d-37cdcee7dd09","system_id":"levelo_inurba_marseille","lat":43.254947,"lon":5.376454,"is_reserved":false,"is_disabled":false,"rental_uris":{"android":"levelo://app?vid=6b56023f-6b7b-4ff1-9c3d-37cdcee7dd09","ios":"levelo://app?vid=6b56023f-6b7b-4ff1-9c3d-37cdcee7dd09"},"vehicle_type_id":"4","last_reported":1685297260,"current_range_meters":26400,"station_id":"ce4bhh12rcd13ifvqff0","pricing_plan_id":"free"},{"bike_id":"d8e98011-2455-40c0-aa05-c24e05f3b134","system_id":"levelo_inurba_marseille","lat":43.25902,"lon":5.39902,"is_reserved":false,"is_disabled":false,"rental_uris":{"android":"levelo://app?vid=d8e98011-2455-40c0-aa05-c24e05f3b134","ios":"levelo://app?vid=d8e98011-2455-40c0-aa05-c24e05f3b134"},"vehicle_type_id":"4","last_reported":1685297260,"current_range_meters":28000,"station_id":"","pricing_plan_id":"free"},{"bike_id":"75ee4f26-009b-4d8c-a3df-d1158aedb244","system_id":"levelo_inurba_marseille","lat":43.25934,"lon":5.4091,"is_reserved":false,"is_disabled":false,"rental_uris":{"android":"levelo://app?vid=75ee4f26-009b-4d8c-a3df-d1158aedb244","ios":"levelo://app?vid=75ee4f26-009b-4d8c-a3df-d1158aedb244"},"vehicle_type_id":"4","last_reported":1685297260,"current_range_meters":400,"station_id":"","pricing_plan_id":"free"},{"bike_id":"1103cb1f-28c2-46c3-9c9a-8627eecef9c9","system_id":"levelo_inurba_marseille","lat":43.250009,"lon":5.389195,"is_reserved":false,"is_disabled":false,"rental_uris":{"android":"levelo://app?vid=1103cb1f-28c2-46c3-9c9a-8627eecef9c9","ios":"levelo://app?vid=1103cb1f-28c2-46c3-9c9a-8627eecef9c9"},"vehicle_type_id":"4","last_reported":1685297260,"current_range_meters":0,"station_id":"ce4bhgp2rcd13ifvqfd0","pricing_plan_id":"free"},{"bike_id":"4293f786-dc11-4fa8-991d-9cde1c8821d8","system_id":"levelo_inurba_marseille","lat":43.250009,"lon":5.389195,"is_reserved":false,"is_disabled":false,"rental_uris":{"android":"levelo://app?vid=4293f786-dc11-4fa8-991d-9cde1c8821d8","ios":"levelo://app?vid=4293f786-dc11-4fa8-991d-9cde1c8821d8"},"vehicle_type_id":"4","last_reported":1685297260,"current_range_meters":0,"station_id":"ce4bhgp2rcd13ifvqfd0","pricing_plan_id":"free"},{"bike_id":"b6b463c8-c7bf-4bf4-8791-29f3f27f74a1","system_id":"levelo_inurba_marseille","lat":43.250023,"lon":5.38919,"is_reserved":false,"is_disabled":false,"rental_uris":{"android":"levelo://app?vid=b6b463c8-c7bf-4bf4-8791-29f3f27f74a1","ios":"levelo://app?vid=b6b463c8-c7bf-4bf4-8791-29f3f27f74a1"},"vehicle_type_id":"4","last_reported":1685297260,"current_range_meters":3200,"station_id":"ce4bhgp2rcd13ifvqfd0","pricing_plan_id":"free"},{"bike_id":"5694635a-17f5-4202-a3dd-185477a66e65","system_id":"levelo_inurba_marseille","lat":43.248072,"lon":5.374607,"is_reserved":false,"is_disabled":false,"rental_uris":{"android":"levelo://app?vid=5694635a-17f5-4202-a3dd-185477a66e65","ios":"levelo://app?vid=5694635a-17f5-4202-a3dd-185477a66e65"},"vehicle_type_id":"4","last_reported":1685297260,"current_range_meters":6400,"station_id":"","pricing_plan_id":"free"},{"bike_id":"3d4541ec-0981-4f8d-a449-9e856ff8a5e8","system_id":"levelo_inurba_marseille","lat":43.24806,"lon":5.37456,"is_reserved":false,"is_disabled":false,"rental_uris":{"android":"levelo://app?vid=3d4541ec-0981-4f8d-a449-9e856ff8a5e8","ios":"levelo://app?vid=3d4541ec-0981-4f8d-a449-9e856ff8a5e8"},"vehicle_type_id":"4","last_reported":1685297260,"current_range_meters":0,"station_id":"ce4bhgh2rcd13ifvqfb0","pricing_plan_id":"free"},{"bike_id":"87c32979-8bbc-495a-a45a-a29cfb5150a5","system_id":"levelo_inurba_marseille","lat":43.24804,"lon":5.37454,"is_reserved":false,"is_disabled":false,"rental_uris":{"android":"levelo://app?vid=87c32979-8bbc-495a-a45a-a29cfb5150a5","ios":"levelo://app?vid=87c32979-8bbc-495a-a45a-a29cfb5150a5"},"vehicle_type_id":"4","last_reported":1685297260,"current_range_meters":5200,"station_id":"ce4bhgh2rcd13ifvqfb0","pricing_plan_id":"free"},{"bike_id":"6f5b4142-7324-480e-be8f-a1f74146c898","system_id":"levelo_inurba_marseille","lat":43.250966,"lon":5.395186,"is_reserved":false,"is_disabled":false,"rental_uris":{"android":"levelo://app?vid=6f5b4142-7324-480e-be8f-a1f74146c898","ios":"levelo://app?vid=6f5b4142-7324-480e-be8f-a1f74146c898"},"vehicle_type_id":"4","last_reported":1685297260,"current_range_meters":5600,"station_id":"ce4bhm12rcd13ifvqgkg","pricing_plan_id":"free"},{"bike_id":"08e3c551-05ba-4d38-bf64-97d941eadf8e","system_id":"levelo_inurba_marseille","lat":43.24667,"lon":5.38171,"is_reserved":false,"is_disabled":false,"rental_uris":{"android":"levelo://app?vid=08e3c551-05ba-4d38-bf64-97d941eadf8e","ios":"levelo://app?vid=08e3c551-05ba-4d38-bf64-97d941eadf8e"},"vehicle_type_id":"4","last_reported":1685297260,"current_range_meters":1200,"station_id":"","pricing_plan_id":"free"},{"bike_id":"c72559f0-3c60-4b9c-9ce3-24158e720fdb","system_id":"levelo_inurba_marseille","lat":43.24654,"lon":5.38161,"is_reserved":false,"is_disabled":false,"rental_uris":{"android":"levelo://app?vid=c72559f0-3c60-4b9c-9ce3-24158e720fdb","ios":"levelo://app?vid=c72559f0-3c60-4b9c-9ce3-24158e720fdb"},"vehicle_type_id":"4","last_reported":1685297260,"current_range_meters":12400,"station_id":"","pricing_plan_id":"free"},{"bike_id":"186860d5-9fc8-4b7b-95ec-67b82ff3b63c","system_id":"levelo_inurba_marseille","lat":43.243884,"lon":5.370736,"is_reserved":false,"is_disabled":false,"rental_uris":{"android":"levelo://app?vid=186860d5-9fc8-4b7b-95ec-67b82ff3b63c","ios":"levelo://app?vid=186860d5-9fc8-4b7b-95ec-67b82ff3b63c"},"vehicle_type_id":"4","last_reported":1685297260,"current_range_meters":7200,"station_id":"ce4bhhh2rcd13ifvqfk0","pricing_plan_id":"free"},{"bike_id":"24fb4b69-2e63-47ee-bf98-1a9a16683dcc","system_id":"levelo_inurba_marseille","lat":43.24085,"lon":5.37752,"is_reserved":false,"is_disabled":false,"rental_uris":{"android":"levelo://app?vid=24fb4b69-2e63-47ee-bf98-1a9a16683dcc","ios":"levelo://app?vid=24fb4b69-2e63-47ee-bf98-1a9a16683dcc"},"vehicle_type_id":"4","last_reported":1685297260,"current_range_meters":27600,"station_id":"","pricing_plan_id":"free"},{"bike_id":"3c0fb543-7d5f-4ba2-a741-510a465558d5","system_id":"levelo_inurba_marseille","lat":43.24084,"lon":5.37751,"is_reserved":false,"is_disabled":false,"rental_uris":{"android":"levelo://app?vid=3c0fb543-7d5f-4ba2-a741-510a465558d5","ios":"levelo://app?vid=3c0fb543-7d5f-4ba2-a741-510a465558d5"},"vehicle_type_id":"4","last_reported":1685297260,"current_range_meters":29600,"station_id":"","pricing_plan_id":"free"},{"bike_id":"3f0a9dc9-0509-4c14-9cde-4da06b6fe1a3","system_id":"levelo_inurba_marseille","lat":43.24082,"lon":5.37747,"is_reserved":false,"is_disabled":false,"rental_uris":{"android":"levelo://app?vid=3f0a9dc9-0509-4c14-9cde-4da06b6fe1a3","ios":"levelo://app?vid=3f0a9dc9-0509-4c14-9cde-4da06b6fe1a3"},"vehicle_type_id":"4","last_reported":1685297260,"current_range_meters":11200,"station_id":"","pricing_plan_id":"free"},{"bike_id":"936357a5-48fc-44ea-a059-3fbf2761c020","system_id":"levelo_inurba_marseille","lat":43.24082,"lon":5.37751,"is_reserved":false,"is_disabled":false,"rental_uris":{"android":"levelo://app?vid=936357a5-48fc-44ea-a059-3fbf2761c020","ios":"levelo://app?vid=936357a5-48fc-44ea-a059-3fbf2761c020"},"vehicle_type_id":"4","last_reported":1685297260,"current_range_meters":28800,"station_id":"","pricing_plan_id":"free"},{"bike_id":"cbbd08c5-0253-46f1-872a-15def88c8d47","system_id":"levelo_inurba_marseille","lat":43.24082,"lon":5.37756,"is_reserved":false,"is_disabled":false,"rental_uris":{"android":"levelo://app?vid=cbbd08c5-0253-46f1-872a-15def88c8d47","ios":"levelo://app?vid=cbbd08c5-0253-46f1-872a-15def88c8d47"},"vehicle_type_id":"4","last_reported":1685297260,"current_range_meters":20800,"station_id":"","pricing_plan_id":"free"},{"bike_id":"a7496784-6a6e-438b-982b-361a84d337d6","system_id":"levelo_inurba_marseille","lat":43.24081,"lon":5.37745,"is_reserved":false,"is_disabled":false,"rental_uris":{"android":"levelo://app?vid=a7496784-6a6e-438b-982b-361a84d337d6","ios":"levelo://app?vid=a7496784-6a6e-438b-982b-361a84d337d6"},"vehicle_type_id":"4","last_reported":1685297260,"current_range_meters":28800,"station_id":"","pricing_plan_id":"free"},{"bike_id":"e0f8d820-f6b0-4427-91e6-b251bd50dfb6","system_id":"levelo_inurba_marseille","lat":43.24081,"lon":5.37755,"is_reserved":false,"is_disabled":false,"rental_uris":{"android":"levelo://app?vid=e0f8d820-f6b0-4427-91e6-b251bd50dfb6","ios":"levelo://app?vid=e0f8d820-f6b0-4427-91e6-b251bd50dfb6"},"vehicle_type_id":"4","last_reported":1685297260,"current_range_meters":18400,"station_id":"","pricing_plan_id":"free"},{"bike_id":"ceca2ac0-fad6-49a0-803a-c9d0b85268fd","system_id":"levelo_inurba_marseille","lat":43.24078,"lon":5.37755,"is_reserved":false,"is_disabled":false,"rental_uris":{"android":"levelo://app?vid=ceca2ac0-fad6-49a0-803a-c9d0b85268fd","ios":"levelo://app?vid=ceca2ac0-fad6-49a0-803a-c9d0b85268fd"},"vehicle_type_id":"4","last_reported":1685297260,"current_range_meters":29600,"station_id":"","pricing_plan_id":"free"},{"bike_id":"375bea00-7535-40cf-9db3-726053b2716a","system_id":"levelo_inurba_marseille","lat":43.24077,"lon":5.37748,"is_reserved":false,"is_disabled":false,"rental_uris":{"android":"levelo://app?vid=375bea00-7535-40cf-9db3-726053b2716a","ios":"levelo://app?vid=375bea00-7535-40cf-9db3-726053b2716a"},"vehicle_type_id":"4","last_reported":1685297260,"current_range_meters":27600,"station_id":"","pricing_plan_id":"free"},{"bike_id":"781bbd6d-69b8-4c01-8b47-26f094642a9f","system_id":"levelo_inurba_marseille","lat":43.24077,"lon":5.37751,"is_reserved":false,"is_disabled":false,"rental_uris":{"android":"levelo://app?vid=781bbd6d-69b8-4c01-8b47-26f094642a9f","ios":"levelo://app?vid=781bbd6d-69b8-4c01-8b47-26f094642a9f"},"vehicle_type_id":"4","last_reported":1685297260,"current_range_meters":10800,"station_id":"","pricing_plan_id":"free"},{"bike_id":"9e2be43e-190b-4cc5-8721-cc57121f2777","system_id":"levelo_inurba_marseille","lat":43.24077,"lon":5.37752,"is_reserved":false,"is_disabled":false,"rental_uris":{"android":"levelo://app?vid=9e2be43e-190b-4cc5-8721-cc57121f2777","ios":"levelo://app?vid=9e2be43e-190b-4cc5-8721-cc57121f2777"},"vehicle_type_id":"4","last_reported":1685297260,"current_range_meters":28400,"station_id":"","pricing_plan_id":"free"},{"bike_id":"390dd92b-1f46-4e43-bd1b-3682ea0b00ca","system_id":"levelo_inurba_marseille","lat":43.24076,"lon":5.37748,"is_reserved":false,"is_disabled":false,"rental_uris":{"android":"levelo://app?vid=390dd92b-1f46-4e43-bd1b-3682ea0b00ca","ios":"levelo://app?vid=390dd92b-1f46-4e43-bd1b-3682ea0b00ca"},"vehicle_type_id":"4","last_reported":1685297260,"current_range_meters":10000,"station_id":"","pricing_plan_id":"free"},{"bike_id":"539ff8db-ea3a-4c41-90c1-5dd8c296a026","system_id":"levelo_inurba_marseille","lat":43.239588,"lon":5.366238,"is_reserved":false,"is_disabled":false,"rental_uris":{"android":"levelo://app?vid=539ff8db-ea3a-4c41-90c1-5dd8c296a026","ios":"levelo://app?vid=539ff8db-ea3a-4c41-90c1-5dd8c296a026"},"vehicle_type_id":"4","last_reported":1685297260,"current_range_meters":4400,"station_id":"ce4bhi12rcd13ifvqfp0","pricing_plan_id":"free"},{"bike_id":"5bed3870-337e-4b2d-9c4b-77d2e0ef04d3","system_id":"levelo_inurba_marseille","lat":43.23846,"lon":5.36495,"is_reserved":false,"is_disabled":false,"rental_uris":{"android":"levelo://app?vid=5bed3870-337e-4b2d-9c4b-77d2e0ef04d3","ios":"levelo://app?vid=5bed3870-337e-4b2d-9c4b-77d2e0ef04d3"},"vehicle_type_id":"4","last_reported":1685297260,"current_range_meters":12800,"station_id":"","pricing_plan_id":"free"},{"bike_id":"621982c5-7b25-400f-aa65-4fe7485cff67","system_id":"levelo_inurba_marseille","lat":43.3041,"lon":5.4743,"is_reserved":false,"is_disabled":false,"rental_uris":{"android":"levelo://app?vid=621982c5-7b25-400f-aa65-4fe7485cff67","ios":"levelo://app?vid=621982c5-7b25-400f-aa65-4fe7485cff67"},"vehicle_type_id":"4","last_reported":1685297260,"current_range_meters":29600,"station_id":"","pricing_plan_id":"free"},{"bike_id":"9b868617-b176-4e5b-bbf3-d168630e1c9d","system_id":"levelo_inurba_marseille","lat":43.231793,"lon":5.400044,"is_reserved":false,"is_disabled":false,"rental_uris":{"android":"levelo://app?vid=9b868617-b176-4e5b-bbf3-d168630e1c9d","ios":"levelo://app?vid=9b868617-b176-4e5b-bbf3-d168630e1c9d"},"vehicle_type_id":"4","last_reported":1685297260,"current_range_meters":31600,"station_id":"ce4bhn12rcd13ifvqgqg","pricing_plan_id":"free"},{"bike_id":"b35c0da7-330d-4e9e-bd1e-9d0408c664b3","system_id":"levelo_inurba_marseille","lat":43.231793,"lon":5.400044,"is_reserved":false,"is_disabled":false,"rental_uris":{"android":"levelo://app?vid=b35c0da7-330d-4e9e-bd1e-9d0408c664b3","ios":"levelo://app?vid=b35c0da7-330d-4e9e-bd1e-9d0408c664b3"},"vehicle_type_id":"4","last_reported":1685297260,"current_range_meters":31600,"station_id":"ce4bhn12rcd13ifvqgqg","pricing_plan_id":"free"},{"bike_id":"19780742-7429-46d5-8a21-489604e7e458","system_id":"levelo_inurba_marseille","lat":43.231793,"lon":5.400044,"is_reserved":false,"is_disabled":false,"rental_uris":{"android":"levelo://app?vid=19780742-7429-46d5-8a21-489604e7e458","ios":"levelo://app?vid=19780742-7429-46d5-8a21-489604e7e458"},"vehicle_type_id":"4","last_reported":1685297260,"current_range_meters":31600,"station_id":"ce4bhn12rcd13ifvqgqg","pricing_plan_id":"free"},{"bike_id":"56230511-dc5b-4d08-9a00-988f627fae27","system_id":"levelo_inurba_marseille","lat":43.231793,"lon":5.400044,"is_reserved":false,"is_disabled":false,"rental_uris":{"android":"levelo://app?vid=56230511-dc5b-4d08-9a00-988f627fae27","ios":"levelo://app?vid=56230511-dc5b-4d08-9a00-988f627fae27"},"vehicle_type_id":"4","last_reported":1685297260,"current_range_meters":31600,"station_id":"ce4bhn12rcd13ifvqgqg","pricing_plan_id":"free"},{"bike_id":"67b77559-a903-49c5-9f37-4b2143617b52","system_id":"levelo_inurba_marseille","lat":43.23189,"lon":5.39978,"is_reserved":false,"is_disabled":false,"rental_uris":{"android":"levelo://app?vid=67b77559-a903-49c5-9f37-4b2143617b52","ios":"levelo://app?vid=67b77559-a903-49c5-9f37-4b2143617b52"},"vehicle_type_id":"4","last_reported":1685297260,"current_range_meters":31200,"station_id":"ce4bhn12rcd13ifvqgqg","pricing_plan_id":"free"},{"bike_id":"46f10739-9f76-433c-8bb0-3129a524ce7d","system_id":"levelo_inurba_marseille","lat":43.23189,"lon":5.39979,"is_reserved":false,"is_disabled":false,"rental_uris":{"android":"levelo://app?vid=46f10739-9f76-433c-8bb0-3129a524ce7d","ios":"levelo://app?vid=46f10739-9f76-433c-8bb0-3129a524ce7d"},"vehicle_type_id":"4","last_reported":1685297260,"current_range_meters":0,"station_id":"ce4bhn12rcd13ifvqgqg","pricing_plan_id":"free"},{"bike_id":"95832486-4dae-4689-9c6a-056a60f31c53","system_id":"levelo_inurba_marseille","lat":43.231793,"lon":5.400044,"is_reserved":false,"is_disabled":false,"rental_uris":{"android":"levelo://app?vid=95832486-4dae-4689-9c6a-056a60f31c53","ios":"levelo://app?vid=95832486-4dae-4689-9c6a-056a60f31c53"},"vehicle_type_id":"4","last_reported":1685297260,"current_range_meters":31600,"station_id":"ce4bhn12rcd13ifvqgqg","pricing_plan_id":"free"},{"bike_id":"ae1dde4d-2bf3-4075-a27d-5c93c15f8c70","system_id":"levelo_inurba_marseille","lat":43.231793,"lon":5.400044,"is_reserved":false,"is_disabled":false,"rental_uris":{"android":"levelo://app?vid=ae1dde4d-2bf3-4075-a27d-5c93c15f8c70","ios":"levelo://app?vid=ae1dde4d-2bf3-4075-a27d-5c93c15f8c70"},"vehicle_type_id":"4","last_reported":1685297260,"current_range_meters":26400,"station_id":"ce4bhn12rcd13ifvqgqg","pricing_plan_id":"free"},{"bike_id":"a7fbfb05-3a72-4dea-b5c9-12ad7997a8ad","system_id":"levelo_inurba_marseille","lat":43.23186,"lon":5.39986,"is_reserved":false,"is_disabled":false,"rental_uris":{"android":"levelo://app?vid=a7fbfb05-3a72-4dea-b5c9-12ad7997a8ad","ios":"levelo://app?vid=a7fbfb05-3a72-4dea-b5c9-12ad7997a8ad"},"vehicle_type_id":"4","last_reported":1685297260,"current_range_meters":29200,"station_id":"","pricing_plan_id":"free"},{"bike_id":"31dd697e-cbbe-4915-a925-b463fdb47aab","system_id":"levelo_inurba_marseille","lat":43.231793,"lon":5.400044,"is_reserved":false,"is_disabled":false,"rental_uris":{"android":"levelo://app?vid=31dd697e-cbbe-4915-a925-b463fdb47aab","ios":"levelo://app?vid=31dd697e-cbbe-4915-a925-b463fdb47aab"},"vehicle_type_id":"4","last_reported":1685297260,"current_range_meters":31600,"station_id":"ce4bhn12rcd13ifvqgqg","pricing_plan_id":"free"},{"bike_id":"523054a1-6a41-4d05-9039-d135dd68ad8d","system_id":"levelo_inurba_marseille","lat":43.23182,"lon":5.39983,"is_reserved":false,"is_disabled":false,"rental_uris":{"android":"levelo://app?vid=523054a1-6a41-4d05-9039-d135dd68ad8d","ios":"levelo://app?vid=523054a1-6a41-4d05-9039-d135dd68ad8d"},"vehicle_type_id":"4","last_reported":1685297260,"current_range_meters":31200,"station_id":"ce4bhn12rcd13ifvqgqg","pricing_plan_id":"free"},{"bike_id":"ddeb217c-c36f-4d9f-a6b7-591bb633c619","system_id":"levelo_inurba_marseille","lat":43.2318,"lon":5.39977,"is_reserved":false,"is_disabled":false,"rental_uris":{"android":"levelo://app?vid=ddeb217c-c36f-4d9f-a6b7-591bb633c619","ios":"levelo://app?vid=ddeb217c-c36f-4d9f-a6b7-591bb633c619"},"vehicle_type_id":"4","last_reported":1685297260,"current_range_meters":31200,"station_id":"","pricing_plan_id":"free"},{"bike_id":"d0b52e7f-623a-4470-b0bc-03da6c1e273a","system_id":"levelo_inurba_marseille","lat":43.2318,"lon":5.39982,"is_reserved":false,"is_disabled":false,"rental_uris":{"android":"levelo://app?vid=d0b52e7f-623a-4470-b0bc-03da6c1e273a","ios":"levelo://app?vid=d0b52e7f-623a-4470-b0bc-03da6c1e273a"},"vehicle_type_id":"4","last_reported":1685297260,"current_range_meters":14800,"station_id":"ce4bhn12rcd13ifvqgqg","pricing_plan_id":"free"},{"bike_id":"9848056b-6f85-4f95-b2e2-506f3033f077","system_id":"levelo_inurba_marseille","lat":43.22794,"lon":5.34989,"is_reserved":false,"is_disabled":false,"rental_uris":{"android":"levelo://app?vid=9848056b-6f85-4f95-b2e2-506f3033f077","ios":"levelo://app?vid=9848056b-6f85-4f95-b2e2-506f3033f077"},"vehicle_type_id":"4","last_reported":1685297260,"current_range_meters":6400,"station_id":"ce4bhgh2rcd13ifvqfb0","pricing_plan_id":"free"}]}}