{"last_updated":1682312804,"ttl":30,"version":"2.2","data":{"bikes":[{"bike_id":"c8d6ee49-72a8-4e67-815e-ffa1eb3b54e8","system_id":"levelo_inurba_marseille","lat":43.312239,"lon":5.368562,"is_reserved":false,"is_disabled":false,"rental_uris":{"android":"levelo://app?vid=c8d6ee49-72a8-4e67-815e-ffa1eb3b54e8","ios":"levelo://app?vid=c8d6ee49-72a8-4e67-815e-ffa1eb3b54e8"},"vehicle_type_id":"4","last_reported":1682312804,"current_range_meters":14800,"station_id":"ce4bgl92rcd13ifvqbq0","pricing_plan_id":"free"},{"bike_id":"bdc1196c-e709-45b1-9487-7a74e725ab34","system_id":"levelo_inurba_marseille","lat":43.31229,"lon":5.36867,"is_reserved":false,"is_disabled":false,"rental_uris":{"android":"levelo://app?vid=bdc1196c-e709-45b1-9487-7a74e725ab34","ios":"levelo://app?vid=bdc1196c-e709-45b1-9487-7a74e725ab34"},"vehicle_type_id":"4","last_reported":1682312804,"current_range_meters":7200,"station_id":"ce4bgl92rcd13ifvqbq0","pricing_plan_id":"free"},{"bike_id":"866c1ed9-8004-4f8f-a687-e99ed9246d87","system_id":"levelo_inurba_marseille","lat":43.312239,"lon":5.368562,"is_reserved":false,"is_disabled":false,"rental_uris":{"android":"levelo://app?vid=866c1ed9-8004-4f8f-a687-e99ed9246d87","ios":"levelo://app?vid=866c1ed9-8004-4f8f-a687-e99ed9246d87"},"vehicle_type_id":"4","last_reported":1682312804,"current_range_meters":31600,"station_id":"ce4bgl92rcd13ifvqbq0","pricing_plan_id":"free"},{"bike_id":"dfc17724-7988-4521-b28f-d981fbb0e670","system_id":"levelo_inurba_marseille","lat":43.31233,"lon":5.3688,"is_reserved":false,"is_disabled":false,"rental_uris":{"android":"levelo://app?vid=dfc17724-7988-4521-b28f-d981fbb0e670","ios":"levelo://app?vid=dfc17724-7988-4521-b28f-d981fbb0e670"},"vehicle_type_id":"4","last_reported":1682312804,"current_range_meters":29600,"station_id":"ce4bgl92rcd13ifvqbq0","pricing_plan_id":"free"},{"bike_id":"221ae2a4-5c5f-4f13-aeed-7607af8bdc90","system_id":"levelo_inurba_marseille","lat":43.31233,"lon":5.36891,"is_reserved":false,"is_disabled":false,"rental_uris":{"android":"levelo://app?vid=221ae2a4-5c5f-4f13-aeed-7607af8bdc90","ios":"levelo://app?vid=221ae2a4-5c5f-4f13-aeed-7607af8bdc90"},"vehicle_type_id":"4","last_reported":1682312804,"current_range_meters":20400,"station_id":"ce4bgl92rcd13ifvqbq0","pricing_plan_id":"free"},{"bike_id":"722badba-6ddd-4f23-b7e1-1f374dade9c0","system_id":"levelo_inurba_marseille","lat":43.30901,"lon":5.36851,"is_reserved":false,"is_disabled":false,"rental_uris":{"android":"levelo://app?vid=722badba-6ddd-4f23-b7e1-1f374dade9c0","ios":"levelo://app?vid=722badba-6ddd-4f23-b7e1-1f374dade9c0"},"vehicle_type_id":"4","last_reported":1682312804,"current_range_meters":7600,"station_id":"ce4bgn92rcd13ifvqbvg","pricing_plan_id":"free"},{"bike_id":"1a623009-c81e-45f0-b90a-87e65fecbb00","system_id":"levelo_inurba_marseille","lat":43.30884,"lon":5.37198,"is_reserved":false,"is_disabled":false,"rental_uris":{"android":"levelo://app?vid=1a623009-c81e-45f0-b90a-87e65fecbb00","ios":"levelo://app?vid=1a623009-c81e-45f0-b90a-87e65fecbb00"},"vehicle_type_id":"4","last_reported":1682312804,"current_range_meters":17200,"station_id":"","pricing_plan_id":"free"},{"bike_id":"f482a30f-1014-4a19-aa9d-88f129d6e2d7","system_id":"levelo_inurba_marseille","lat":43.30879,"lon":5.372,"is_reserved":false,"is_disabled":false,"rental_uris":{"android":"levelo://app?vid=f482a30f-1014-4a19-aa9d-88f129d6e2d7","ios":"levelo://app?vid=f482a30f-1014-4a19-aa9d-88f129d6e2d7"},"vehicle_type_id":"4","last_reported":1682312804,"current_range_meters":2400,"station_id":"","pricing_plan_id":"free"},{"bike_id":"19e93274-22fe-47d2-9497-fe54c18b7854","system_id":"levelo_inurba_marseille","lat":43.30877,"lon":5.37201,"is_reserved":false,"is_disabled":false,"rental_uris":{"android":"levelo://app?vid=19e93274-22fe-47d2-9497-fe54c18b7854","ios":"levelo://app?vid=19e93274-22fe-47d2-9497-fe54c18b7854"},"vehicle_type_id":"4","last_reported":1682312804,"current_range_meters":25200,"station_id":"","pricing_plan_id":"free"},{"bike_id":"c830c802-30a5-4ad2-85cc-adc8dafe5476","system_id":"levelo_inurba_marseille","lat":43.30557,"lon":5.36543,"is_reserved":false,"is_disabled":false,"rental_uris":{"android":"levelo://app?vid=c830c802-30a5-4ad2-85cc-adc8dafe5476","ios":"levelo://app?vid=c830c802-30a5-4ad2-85cc-adc8dafe5476"},"vehicle_type_id":"4","last_reported":1682312804,"current_range_meters":0,"station_id":"ce4bgs12rcd13ifvqcag","pricing_plan_id":"free"},{"bike_id":"9a9554bd-ca88-4e0c-9150-2e920c639e3d","system_id":"levelo_inurba_marseille","lat":43.305368,"lon":5.367343,"is_reserved":false,"is_disabled":false,"rental_uris":{"android":"levelo://app?vid=9a9554bd-ca88-4e0c-9150-2e920c639e3d","ios":"levelo://app?vid=9a9554bd-ca88-4e0c-9150-2e920c639e3d"},"vehicle_type_id":"4","last_reported":1682312804,"current_range_meters":18400,"station_id":"ce4bgrp2rcd13ifvqc9g","pricing_plan_id":"free"},{"bike_id":"6709c70d-8b2a-4707-982a-2326fba3f0bd","system_id":"levelo_inurba_marseille","lat":43.305368,"lon":5.367343,"is_reserved":false,"is_disabled":false,"rental_uris":{"android":"levelo://app?vid=6709c70d-8b2a-4707-982a-2326fba3f0bd","ios":"levelo://app?vid=6709c70d-8b2a-4707-982a-2326fba3f0bd"},"vehicle_type_id":"4","last_reported":1682312804,"current_range_meters":30400,"station_id":"ce4bgrp2rcd13ifvqc9g","pricing_plan_id":"free"},{"bike_id":"2e0b8ddb-9c60-4b99-8985-9b00b9e14709","system_id":"levelo_inurba_marseille","lat":43.305368,"lon":5.367343,"is_reserved":false,"is_disabled":false,"rental_uris":{"android":"levelo://app?vid=2e0b8ddb-9c60-4b99-8985-9b00b9e14709","ios":"levelo://app?vid=2e0b8ddb-9c60-4b99-8985-9b00b9e14709"},"vehicle_type_id":"4","last_reported":1682312804,"current_range_meters":31200,"station_id":"ce4bgrp2rcd13ifvqc9g","pricing_plan_id":"free"},{"bike_id":"dd011fc1-24a5-4eda-adbe-9c7b3da83e77","system_id":"levelo_inurba_marseille","lat":43.305368,"lon":5.367343,"is_reserved":false,"is_disabled":false,"rental_uris":{"android":"levelo://app?vid=dd011fc1-24a5-4eda-adbe-9c7b3da83e77","ios":"levelo://app?vid=dd011fc1-24a5-4eda-adbe-9c7b3da83e77"},"vehicle_type_id":"4","last_reported":1682312804,"current_range_meters":28000,"station_id":"ce4bgrp2rcd13ifvqc9g","pricing_plan_id":"free"},{"bike_id":"3614e972-e448-41d0-a61f-7e6ee59156cd","system_id":"levelo_inurba_marseille","lat":43.305714,"lon":5.365633,"is_reserved":false,"is_disabled":false,"rental_uris":{"android":"levelo://app?vid=3614e972-e448-41d0-a61f-7e6ee59156cd","ios":"levelo://app?vid=3614e972-e448-41d0-a61f-7e6ee59156cd"},"vehicle_type_id":"4","last_reported":1682312804,"current_range_meters":0,"station_id":"ce4bgs12rcd13ifvqcag","pricing_plan_id":"free"},{"bike_id":"40441029-ce40-4896-a06c-942cb6284e73","system_id":"levelo_inurba_marseille","lat":43.30531,"lon":5.36531,"is_reserved":false,"is_disabled":false,"rental_uris":{"android":"levelo://app?vid=40441029-ce40-4896-a06c-942cb6284e73","ios":"levelo://app?vid=40441029-ce40-4896-a06c-942cb6284e73"},"vehicle_type_id":"4","last_reported":1682312804,"current_range_meters":0,"station_id":"","pricing_plan_id":"free"},{"bike_id":"b5107706-a281-4660-b91e-839d1e55fa4a","system_id":"levelo_inurba_marseille","lat":43.305989,"lon":5.37225,"is_reserved":false,"is_disabled":false,"rental_uris":{"android":"levelo://app?vid=b5107706-a281-4660-b91e-839d1e55fa4a","ios":"levelo://app?vid=b5107706-a281-4660-b91e-839d1e55fa4a"},"vehicle_type_id":"4","last_reported":1682312804,"current_range_meters":24000,"station_id":"ce4bgqh2rcd13ifvqc4g","pricing_plan_id":"free"},{"bike_id":"edacb320-8f22-4397-85b2-01fba9b7c3a6","system_id":"levelo_inurba_marseille","lat":43.30603,"lon":5.37228,"is_reserved":false,"is_disabled":false,"rental_uris":{"android":"levelo://app?vid=edacb320-8f22-4397-85b2-01fba9b7c3a6","ios":"levelo://app?vid=edacb320-8f22-4397-85b2-01fba9b7c3a6"},"vehicle_type_id":"4","last_reported":1682312804,"current_range_meters":0,"station_id":"ce4bgqh2rcd13ifvqc4g","pricing_plan_id":"free"},{"bike_id":"228f2e14-4141-4b0a-8bbf-adeaaef3d95e","system_id":"levelo_inurba_marseille","lat":43.30604,"lon":5.37231,"is_reserved":false,"is_disabled":false,"rental_uris":{"android":"levelo://app?vid=228f2e14-4141-4b0a-8bbf-adeaaef3d95e","ios":"levelo://app?vid=228f2e14-4141-4b0a-8bbf-adeaaef3d95e"},"vehicle_type_id":"4","last_reported":1682312804,"current_range_meters":9600,"station_id":"ce4bgqh2rcd13ifvqc4g","pricing_plan_id":"free"},{"bike_id":"07215309-8624-4f89-a1ed-e288a7e4ba8b","system_id":"levelo_inurba_marseille","lat":43.305989,"lon":5.37225,"is_reserved":false,"is_disabled":false,"rental_uris":{"android":"levelo://app?vid=07215309-8624-4f89-a1ed-e288a7e4ba8b","ios":"levelo://app?vid=07215309-8624-4f89-a1ed-e288a7e4ba8b"},"vehicle_type_id":"4","last_reported":1682312804,"current_range_meters":0,"station_id":"ce4bgqh2rcd13ifvqc4g","pricing_plan_id":"free"},{"bike_id":"6836b8a1-f291-4523-bceb-e3d73a4dbf6d","system_id":"levelo_inurba_marseille","lat":43.311131,"lon":5.377651,"is_reserved":false,"is_disabled":false,"rental_uris":{"android":"levelo://app?vid=6836b8a1-f291-4523-bceb-e3d73a4dbf6d","ios":"levelo://app?vid=6836b8a1-f291-4523-bceb-e3d73a4dbf6d"},"vehicle_type_id":"4","last_reported":1682312804,"current_range_meters":0,"station_id":"ce4bgt92rcd13ifvqcg0","pricing_plan_id":"free"},{"bike_id":"79061dbd-584b-4804-b056-19eba552dc31","system_id":"levelo_inurba_marseille","lat":43.30689,"lon":5.3749,"is_reserved":false,"is_disabled":false,"rental_uris":{"android":"levelo://app?vid=79061dbd-584b-4804-b056-19eba552dc31","ios":"levelo://app?vid=79061dbd-584b-4804-b056-19eba552dc31"},"vehicle_type_id":"4","last_reported":1682312804,"current_range_meters":10800,"station_id":"","pricing_plan_id":"free"},{"bike_id":"2f48a665-3f9d-452b-b562-bd860730c185","system_id":"levelo_inurba_marseille","lat":43.317075,"lon":5.377367,"is_reserved":false,"is_disabled":false,"rental_uris":{"android":"levelo://app?vid=2f48a665-3f9d-452b-b562-bd860730c185","ios":"levelo://app?vid=2f48a665-3f9d-452b-b562-bd860730c185"},"vehicle_type_id":"4","last_reported":1682312804,"current_range_meters":31600,"station_id":"ce4bgth2rcd13ifvqch0","pricing_plan_id":"free"},{"bike_id":"3a3e58ef-a41c-4ba3-9a96-cb710ec45e8d","system_id":"levelo_inurba_marseille","lat":43.317075,"lon":5.377367,"is_reserved":false,"is_disabled":false,"rental_uris":{"android":"levelo://app?vid=3a3e58ef-a41c-4ba3-9a96-cb710ec45e8d","ios":"levelo://app?vid=3a3e58ef-a41c-4ba3-9a96-cb710ec45e8d"},"vehicle_type_id":"4","last_reported":1682312804,"current_range_meters":31200,"station_id":"ce4bgth2rcd13ifvqch0","pricing_plan_id":"free"},{"bike_id":"36261672-feaf-4cfc-b21f-f8c2484e6714","system_id":"levelo_inurba_marseille","lat":43.317075,"lon":5.377367,"is_reserved":false,"is_disabled":false,"rental_uris":{"android":"levelo://app?vid=36261672-feaf-4cfc-b21f-f8c2484e6714","ios":"levelo://app?vid=36261672-feaf-4cfc-b21f-f8c2484e6714"},"vehicle_type_id":"4","last_reported":1682312804,"current_range_meters":30400,"station_id":"ce4bgth2rcd13ifvqch0","pricing_plan_id":"free"},{"bike_id":"3c4e6c8c-df65-4deb-8995-f8befa733260","system_id":"levelo_inurba_marseille","lat":43.31534,"lon":5.37884,"is_reserved":false,"is_disabled":false,"rental_uris":{"android":"levelo://app?vid=3c4e6c8c-df65-4deb-8995-f8befa733260","ios":"levelo://app?vid=3c4e6c8c-df65-4deb-8995-f8befa733260"},"vehicle_type_id":"4","last_reported":1682312804,"current_range_meters":2800,"station_id":"","pricing_plan_id":"free"},{"bike_id":"daa063a1-604b-44d7-a184-d182ca32ac47","system_id":"levelo_inurba_marseille","lat":43.303046,"lon":5.368981,"is_reserved":false,"is_disabled":false,"rental_uris":{"android":"levelo://app?vid=daa063a1-604b-44d7-a184-d182ca32ac47","ios":"levelo://app?vid=daa063a1-604b-44d7-a184-d182ca32ac47"},"vehicle_type_id":"4","last_reported":1682312804,"current_range_meters":13600,"station_id":"ce4bgqh2rcd13ifvqc5g","pricing_plan_id":"free"},{"bike_id":"3d67e84b-ed10-4ff4-8598-659c98358cc9","system_id":"levelo_inurba_marseille","lat":43.303046,"lon":5.368981,"is_reserved":false,"is_disabled":false,"rental_uris":{"android":"levelo://app?vid=3d67e84b-ed10-4ff4-8598-659c98358cc9","ios":"levelo://app?vid=3d67e84b-ed10-4ff4-8598-659c98358cc9"},"vehicle_type_id":"4","last_reported":1682312804,"current_range_meters":10400,"station_id":"ce4bgqh2rcd13ifvqc5g","pricing_plan_id":"free"},{"bike_id":"cd0912ee-abbc-4f58-ae34-e24f50029162","system_id":"levelo_inurba_marseille","lat":43.303046,"lon":5.368981,"is_reserved":false,"is_disabled":false,"rental_uris":{"android":"levelo://app?vid=cd0912ee-abbc-4f58-ae34-e24f50029162","ios":"levelo://app?vid=cd0912ee-abbc-4f58-ae34-e24f50029162"},"vehicle_type_id":"4","last_reported":1682312804,"current_range_meters":21200,"station_id":"ce4bgqh2rcd13ifvqc5g","pricing_plan_id":"free"},{"bike_id":"5ab42856-1e54-47ba-a7ae-ccc5b7ba04ea","system_id":"levelo_inurba_marseille","lat":43.315289,"lon":5.380349,"is_reserved":false,"is_disabled":false,"rental_uris":{"android":"levelo://app?vid=5ab42856-1e54-47ba-a7ae-ccc5b7ba04ea","ios":"levelo://app?vid=5ab42856-1e54-47ba-a7ae-ccc5b7ba04ea"},"vehicle_type_id":"4","last_reported":1682312804,"current_range_meters":30000,"station_id":"ce4bhsp2rcd13ifvqi50","pricing_plan_id":"free"},{"bike_id":"b69e69b2-3387-4468-9826-9fc85b0f77d1","system_id":"levelo_inurba_marseille","lat":43.315293,"lon":5.380349,"is_reserved":false,"is_disabled":false,"rental_uris":{"android":"levelo://app?vid=b69e69b2-3387-4468-9826-9fc85b0f77d1","ios":"levelo://app?vid=b69e69b2-3387-4468-9826-9fc85b0f77d1"},"vehicle_type_id":"4","last_reported":1682312804,"current_range_meters":30400,"station_id":"ce4bhsp2rcd13ifvqi50","pricing_plan_id":"free"},{"bike_id":"c2d94ff9-aefc-43f7-8155-0711d273e490","system_id":"levelo_inurba_marseille","lat":43.301939,"lon":5.366286,"is_reserved":false,"is_disabled":false,"rental_uris":{"android":"levelo://app?vid=c2d94ff9-aefc-43f7-8155-0711d273e490","ios":"levelo://app?vid=c2d94ff9-aefc-43f7-8155-0711d273e490"},"vehicle_type_id":"4","last_reported":1682312804,"current_range_meters":28800,"station_id":"ce4bgrh2rcd13ifvqc8g","pricing_plan_id":"free"},{"bike_id":"3ccc2921-5e53-4a5b-b16c-dc6ce17c8717","system_id":"levelo_inurba_marseille","lat":43.308012,"lon":5.381511,"is_reserved":false,"is_disabled":false,"rental_uris":{"android":"levelo://app?vid=3ccc2921-5e53-4a5b-b16c-dc6ce17c8717","ios":"levelo://app?vid=3ccc2921-5e53-4a5b-b16c-dc6ce17c8717"},"vehicle_type_id":"4","last_reported":1682312804,"current_range_meters":0,"station_id":"ce4bgt12rcd13ifvqce0","pricing_plan_id":"free"},{"bike_id":"bb303477-cdaf-4b04-a916-1a7153039646","system_id":"levelo_inurba_marseille","lat":43.304606,"lon":5.379026,"is_reserved":false,"is_disabled":false,"rental_uris":{"android":"levelo://app?vid=bb303477-cdaf-4b04-a916-1a7153039646","ios":"levelo://app?vid=bb303477-cdaf-4b04-a916-1a7153039646"},"vehicle_type_id":"4","last_reported":1682312804,"current_range_meters":31600,"station_id":"ce4bgup2rcd13ifvqcn0","pricing_plan_id":"free"},{"bike_id":"55c635a0-9ee2-4553-87f7-49b91cb57887","system_id":"levelo_inurba_marseille","lat":43.304606,"lon":5.379026,"is_reserved":false,"is_disabled":false,"rental_uris":{"android":"levelo://app?vid=55c635a0-9ee2-4553-87f7-49b91cb57887","ios":"levelo://app?vid=55c635a0-9ee2-4553-87f7-49b91cb57887"},"vehicle_type_id":"4","last_reported":1682312804,"current_range_meters":30400,"station_id":"ce4bgup2rcd13ifvqcn0","pricing_plan_id":"free"},{"bike_id":"943daef2-5d69-4260-b79a-bcd29ffa338c","system_id":"levelo_inurba_marseille","lat":43.304606,"lon":5.379026,"is_reserved":false,"is_disabled":false,"rental_uris":{"android":"levelo://app?vid=943daef2-5d69-4260-b79a-bcd29ffa338c","ios":"levelo://app?vid=943daef2-5d69-4260-b79a-bcd29ffa338c"},"vehicle_type_id":"4","last_reported":1682312804,"current_range_meters":31600,"station_id":"ce4bgup2rcd13ifvqcn0","pricing_plan_id":"free"},{"bike_id":"ffae2914-ba71-4591-bcc0-34602cf570c5","system_id":"levelo_inurba_marseille","lat":43.304606,"lon":5.379026,"is_reserved":false,"is_disabled":false,"rental_uris":{"android":"levelo://app?vid=ffae2914-ba71-4591-bcc0-34602cf570c5","ios":"levelo://app?vid=ffae2914-ba71-4591-bcc0-34602cf570c5"},"vehicle_type_id":"4","last_reported":1682312804,"current_range_meters":31600,"station_id":"ce4bgup2rcd13ifvqcn0","pricing_plan_id":"free"},{"bike_id":"1fb0684d-d35c-42f8-878f-5278dd97b261","system_id":"levelo_inurba_marseille","lat":43.304606,"lon":5.379026,"is_reserved":false,"is_disabled":false,"rental_uris":{"android":"levelo://app?vid=1fb0684d-d35c-42f8-878f-5278dd97b261","ios":"levelo://app?vid=1fb0684d-d35c-42f8-878f-5278dd97b261"},"vehicle_type_id":"4","last_reported":1682312804,"current_range_meters":16000,"station_id":"ce4bgup2rcd13ifvqcn0","pricing_plan_id":"free"},{"bike_id":"f35621c3-fc3d-407a-badd-9e568f3fda74","system_id":"levelo_inurba_marseille","lat":43.304606,"lon":5.379026,"is_reserved":false,"is_disabled":false,"rental_uris":{"android":"levelo://app?vid=f35621c3-fc3d-407a-badd-9e568f3fda74","ios":"levelo://app?vid=f35621c3-fc3d-407a-badd-9e568f3fda74"},"vehicle_type_id":"4","last_reported":1682312804,"current_range_meters":18000,"station_id":"ce4bgup2rcd13ifvqcn0","pricing_plan_id":"free"},{"bike_id":"a0a60d05-e2ce-493a-b613-e806fb978140","system_id":"levelo_inurba_marseille","lat":43.304606,"lon":5.379026,"is_reserved":false,"is_disabled":false,"rental_uris":{"android":"levelo://app?vid=a0a60d05-e2ce-493a-b613-e806fb978140","ios":"levelo://app?vid=a0a60d05-e2ce-493a-b613-e806fb978140"},"vehicle_type_id":"4","last_reported":1682312804,"current_range_meters":21600,"station_id":"ce4bgup2rcd13ifvqcn0","pricing_plan_id":"free"},{"bike_id":"ec93860c-dab7-415b-9ef6-ec8e699109c7","system_id":"levelo_inurba_marseille","lat":43.304606,"lon":5.379026,"is_reserved":false,"is_disabled":false,"rental_uris":{"android":"levelo://app?vid=ec93860c-dab7-415b-9ef6-ec8e699109c7","ios":"levelo://app?vid=ec93860c-dab7-415b-9ef6-ec8e699109c7"},"vehicle_type_id":"4","last_reported":1682312804,"current_range_meters":19600,"station_id":"ce4bgup2rcd13ifvqcn0","pricing_plan_id":"free"},{"bike_id":"72e1fdd5-b87f-4b2c-a249-59ef796ec5e0","system_id":"levelo_inurba_marseille","lat":43.304606,"lon":5.379026,"is_reserved":false,"is_disabled":false,"rental_uris":{"android":"levelo://app?vid=72e1fdd5-b87f-4b2c-a249-59ef796ec5e0","ios":"levelo://app?vid=72e1fdd5-b87f-4b2c-a249-59ef796ec5e0"},"vehicle_type_id":"4","last_reported":1682312804,"current_range_meters":28000,"station_id":"ce4bgup2rcd13ifvqcn0","pricing_plan_id":"free"},{"bike_id":"5588ffe1-83d6-484e-8427-596e76a71f05","system_id":"levelo_inurba_marseille","lat":43.304606,"lon":5.379026,"is_reserved":false,"is_disabled":false,"rental_uris":{"android":"levelo://app?vid=5588ffe1-83d6-484e-8427-596e76a71f05","ios":"levelo://app?vid=5588ffe1-83d6-484e-8427-596e76a71f05"},"vehicle_type_id":"4","last_reported":1682312804,"current_range_meters":27600,"station_id":"ce4bgup2rcd13ifvqcn0","pricing_plan_id":"free"},{"bike_id":"bf27ea6d-f877-47e5-896d-b932a5561e02","system_id":"levelo_inurba_marseille","lat":43.304606,"lon":5.379026,"is_reserved":false,"is_disabled":false,"rental_uris":{"android":"levelo://app?vid=bf27ea6d-f877-47e5-896d-b932a5561e02","ios":"levelo://app?vid=bf27ea6d-f877-47e5-896d-b932a5561e02"},"vehicle_type_id":"4","last_reported":1682312804,"current_range_meters":26400,"station_id":"ce4bgup2rcd13ifvqcn0","pricing_plan_id":"free"},{"bike_id":"788628b6-5c48-4cd0-a21c-7bd29f444a32","system_id":"levelo_inurba_marseille","lat":43.304606,"lon":5.379026,"is_reserved":false,"is_disabled":false,"rental_uris":{"android":"levelo://app?vid=788628b6-5c48-4cd0-a21c-7bd29f444a32","ios":"levelo://app?vid=788628b6-5c48-4cd0-a21c-7bd29f444a32"},"vehicle_type_id":"4","last_reported":1682312804,"current_range_meters":22800,"station_id":"ce4bgup2rcd13ifvqcn0","pricing_plan_id":"free"},{"bike_id":"0794ebcf-31e8-43cb-8b9a-a9d0c181bedd","system_id":"levelo_inurba_marseille","lat":43.301435,"lon":5.374197,"is_reserved":false,"is_disabled":false,"rental_uris":{"android":"levelo://app?vid=0794ebcf-31e8-43cb-8b9a-a9d0c181bedd","ios":"levelo://app?vid=0794ebcf-31e8-43cb-8b9a-a9d0c181bedd"},"vehicle_type_id":"4","last_reported":1682312804,"current_range_meters":0,"station_id":"","pricing_plan_id":"free"},{"bike_id":"4eae4a52-226b-457b-ae4f-a10e823bc14b","system_id":"levelo_inurba_marseille","lat":43.30143,"lon":5.37413,"is_reserved":false,"is_disabled":false,"rental_uris":{"android":"levelo://app?vid=4eae4a52-226b-457b-ae4f-a10e823bc14b","ios":"levelo://app?vid=4eae4a52-226b-457b-ae4f-a10e823bc14b"},"vehicle_type_id":"4","last_reported":1682312804,"current_range_meters":12400,"station_id":"ce4bgs92rcd13ifvqcc0","pricing_plan_id":"free"},{"bike_id":"25ca1814-480c-46a0-b26f-1924f87684ab","system_id":"levelo_inurba_marseille","lat":43.30143,"lon":5.37413,"is_reserved":false,"is_disabled":false,"rental_uris":{"android":"levelo://app?vid=25ca1814-480c-46a0-b26f-1924f87684ab","ios":"levelo://app?vid=25ca1814-480c-46a0-b26f-1924f87684ab"},"vehicle_type_id":"4","last_reported":1682312804,"current_range_meters":25200,"station_id":"ce4bgs92rcd13ifvqcc0","pricing_plan_id":"free"},{"bike_id":"84b46d76-4872-49e4-b816-f64ef6262391","system_id":"levelo_inurba_marseille","lat":43.30143,"lon":5.37413,"is_reserved":false,"is_disabled":false,"rental_uris":{"android":"levelo://app?vid=84b46d76-4872-49e4-b816-f64ef6262391","ios":"levelo://app?vid=84b46d76-4872-49e4-b816-f64ef6262391"},"vehicle_type_id":"4","last_reported":1682312804,"current_range_meters":0,"station_id":"ce4bgs92rcd13ifvqcc0","pricing_plan_id":"free"},{"bike_id":"d11ae077-9da0-4f75-a87e-df5963958181","system_id":"levelo_inurba_marseille","lat":43.313571,"lon":5.384829,"is_reserved":false,"is_disabled":false,"rental_uris":{"android":"levelo://app?vid=d11ae077-9da0-4f75-a87e-df5963958181","ios":"levelo://app?vid=d11ae077-9da0-4f75-a87e-df5963958181"},"vehicle_type_id":"4","last_reported":1682312804,"current_range_meters":1200,"station_id":"ce4bgt92rcd13ifvqcf0","pricing_plan_id":"free"},{"bike_id":"09eaf7cd-3496-430a-8525-ffefd041517f","system_id":"levelo_inurba_marseille","lat":43.313571,"lon":5.384829,"is_reserved":false,"is_disabled":false,"rental_uris":{"android":"levelo://app?vid=09eaf7cd-3496-430a-8525-ffefd041517f","ios":"levelo://app?vid=09eaf7cd-3496-430a-8525-ffefd041517f"},"vehicle_type_id":"4","last_reported":1682312804,"current_range_meters":8400,"station_id":"ce4bgt92rcd13ifvqcf0","pricing_plan_id":"free"},{"bike_id":"35613c1b-14cc-47b1-8533-ed477e469b1a","system_id":"levelo_inurba_marseille","lat":43.313571,"lon":5.384829,"is_reserved":false,"is_disabled":false,"rental_uris":{"android":"levelo://app?vid=35613c1b-14cc-47b1-8533-ed477e469b1a","ios":"levelo://app?vid=35613c1b-14cc-47b1-8533-ed477e469b1a"},"vehicle_type_id":"4","last_reported":1682312804,"current_range_meters":3200,"station_id":"ce4bgt92rcd13ifvqcf0","pricing_plan_id":"free"},{"bike_id":"9d746e5b-cbe6-4172-9d7a-ef65e39b483a","system_id":"levelo_inurba_marseille","lat":43.313571,"lon":5.384829,"is_reserved":false,"is_disabled":false,"rental_uris":{"android":"levelo://app?vid=9d746e5b-cbe6-4172-9d7a-ef65e39b483a","ios":"levelo://app?vid=9d746e5b-cbe6-4172-9d7a-ef65e39b483a"},"vehicle_type_id":"4","last_reported":1682312804,"current_range_meters":7600,"station_id":"ce4bgt92rcd13ifvqcf0","pricing_plan_id":"free"},{"bike_id":"f5e1ee48-a668-4ef4-b67d-fe941d7f54b9","system_id":"levelo_inurba_marseille","lat":43.313571,"lon":5.384829,"is_reserved":false,"is_disabled":false,"rental_uris":{"android":"levelo://app?vid=f5e1ee48-a668-4ef4-b67d-fe941d7f54b9","ios":"levelo://app?vid=f5e1ee48-a668-4ef4-b67d-fe941d7f54b9"},"vehicle_type_id":"4","last_reported":1682312804,"current_range_meters":10800,"station_id":"ce4bgt92rcd13ifvqcf0","pricing_plan_id":"free"},{"bike_id":"04ff6603-471c-48ca-bb82-8dba2fb5500a","system_id":"levelo_inurba_marseille","lat":43.305364,"lon":5.384119,"is_reserved":false,"is_disabled":false,"rental_uris":{"android":"levelo://app?vid=04ff6603-471c-48ca-bb82-8dba2fb5500a","ios":"levelo://app?vid=04ff6603-471c-48ca-bb82-8dba2fb5500a"},"vehicle_type_id":"4","last_reported":1682312804,"current_range_meters":0,"station_id":"ce4bgg92rcd13ifvqb30","pricing_plan_id":"free"},{"bike_id":"f7c2c7b9-d41f-4089-8852-003aac0199d8","system_id":"levelo_inurba_marseille","lat":43.305364,"lon":5.384119,"is_reserved":false,"is_disabled":false,"rental_uris":{"android":"levelo://app?vid=f7c2c7b9-d41f-4089-8852-003aac0199d8","ios":"levelo://app?vid=f7c2c7b9-d41f-4089-8852-003aac0199d8"},"vehicle_type_id":"4","last_reported":1682312804,"current_range_meters":16800,"station_id":"ce4bgg92rcd13ifvqb30","pricing_plan_id":"free"},{"bike_id":"153d570e-97e8-4a25-ac6c-48df83d318f9","system_id":"levelo_inurba_marseille","lat":43.305364,"lon":5.384119,"is_reserved":false,"is_disabled":false,"rental_uris":{"android":"levelo://app?vid=153d570e-97e8-4a25-ac6c-48df83d318f9","ios":"levelo://app?vid=153d570e-97e8-4a25-ac6c-48df83d318f9"},"vehicle_type_id":"4","last_reported":1682312804,"current_range_meters":17600,"station_id":"ce4bgg92rcd13ifvqb30","pricing_plan_id":"free"},{"bike_id":"76e87ed3-26d5-4ee8-8d39-db222ade6c46","system_id":"levelo_inurba_marseille","lat":43.30535,"lon":5.3843,"is_reserved":false,"is_disabled":false,"rental_uris":{"android":"levelo://app?vid=76e87ed3-26d5-4ee8-8d39-db222ade6c46","ios":"levelo://app?vid=76e87ed3-26d5-4ee8-8d39-db222ade6c46"},"vehicle_type_id":"4","last_reported":1682312804,"current_range_meters":0,"station_id":"ce4bgg92rcd13ifvqb30","pricing_plan_id":"free"},{"bike_id":"be5cb906-31fe-4fdf-90a7-f0e9d960fb41","system_id":"levelo_inurba_marseille","lat":43.305364,"lon":5.384119,"is_reserved":false,"is_disabled":false,"rental_uris":{"android":"levelo://app?vid=be5cb906-31fe-4fdf-90a7-f0e9d960fb41","ios":"levelo://app?vid=be5cb906-31fe-4fdf-90a7-f0e9d960fb41"},"vehicle_type_id":"4","last_reported":1682312804,"current_range_meters":30800,"station_id":"ce4bgg92rcd13ifvqb30","pricing_plan_id":"free"},{"bike_id":"db44a82d-b1e8-4429-be69-28fa4fb07902","system_id":"levelo_inurba_marseille","lat":43.311722,"lon":5.387247,"is_reserved":false,"is_disabled":false,"rental_uris":{"android":"levelo://app?vid=db44a82d-b1e8-4429-be69-28fa4fb07902","ios":"levelo://app?vid=db44a82d-b1e8-4429-be69-28fa4fb07902"},"vehicle_type_id":"4","last_reported":1682312804,"current_range_meters":29600,"station_id":"ce4bgv12rcd13ifvqcp0","pricing_plan_id":"free"},{"bike_id":"e85d0363-cd15-411b-856e-6eca3906b910","system_id":"levelo_inurba_marseille","lat":43.31166,"lon":5.38713,"is_reserved":false,"is_disabled":false,"rental_uris":{"android":"levelo://app?vid=e85d0363-cd15-411b-856e-6eca3906b910","ios":"levelo://app?vid=e85d0363-cd15-411b-856e-6eca3906b910"},"vehicle_type_id":"4","last_reported":1682312804,"current_range_meters":17600,"station_id":"ce4bgv12rcd13ifvqcp0","pricing_plan_id":"free"},{"bike_id":"b37b3ac3-fd3c-4113-af67-add648dc9b23","system_id":"levelo_inurba_marseille","lat":43.311722,"lon":5.387247,"is_reserved":false,"is_disabled":false,"rental_uris":{"android":"levelo://app?vid=b37b3ac3-fd3c-4113-af67-add648dc9b23","ios":"levelo://app?vid=b37b3ac3-fd3c-4113-af67-add648dc9b23"},"vehicle_type_id":"4","last_reported":1682312804,"current_range_meters":31600,"station_id":"ce4bgv12rcd13ifvqcp0","pricing_plan_id":"free"},{"bike_id":"b4c97f78-6acc-487d-b7d8-d76ccdaae3be","system_id":"levelo_inurba_marseille","lat":43.299243,"lon":5.37481,"is_reserved":false,"is_disabled":false,"rental_uris":{"android":"levelo://app?vid=b4c97f78-6acc-487d-b7d8-d76ccdaae3be","ios":"levelo://app?vid=b4c97f78-6acc-487d-b7d8-d76ccdaae3be"},"vehicle_type_id":"4","last_reported":1682312804,"current_range_meters":30400,"station_id":"ce4bgjh2rcd13ifvqbg0","pricing_plan_id":"free"},{"bike_id":"94cd0a41-621f-4a07-bb31-bf5659929a0f","system_id":"levelo_inurba_marseille","lat":43.297774,"lon":5.370875,"is_reserved":false,"is_disabled":false,"rental_uris":{"android":"levelo://app?vid=94cd0a41-621f-4a07-bb31-bf5659929a0f","ios":"levelo://app?vid=94cd0a41-621f-4a07-bb31-bf5659929a0f"},"vehicle_type_id":"4","last_reported":1682312804,"current_range_meters":0,"station_id":"ce4bgop2rcd13ifvqc1g","pricing_plan_id":"free"},{"bike_id":"34afaba8-93e5-45d7-836c-866a776c81b8","system_id":"levelo_inurba_marseille","lat":43.328371,"lon":5.366912,"is_reserved":false,"is_disabled":false,"rental_uris":{"android":"levelo://app?vid=34afaba8-93e5-45d7-836c-866a776c81b8","ios":"levelo://app?vid=34afaba8-93e5-45d7-836c-866a776c81b8"},"vehicle_type_id":"4","last_reported":1682312804,"current_range_meters":31200,"station_id":"ce4bhs92rcd13ifvqi0g","pricing_plan_id":"free"},{"bike_id":"a07b6f04-6ed4-41f2-b90a-863cc4ca5121","system_id":"levelo_inurba_marseille","lat":43.328371,"lon":5.366912,"is_reserved":false,"is_disabled":false,"rental_uris":{"android":"levelo://app?vid=a07b6f04-6ed4-41f2-b90a-863cc4ca5121","ios":"levelo://app?vid=a07b6f04-6ed4-41f2-b90a-863cc4ca5121"},"vehicle_type_id":"4","last_reported":1682312804,"current_range_meters":27600,"station_id":"ce4bhs92rcd13ifvqi0g","pricing_plan_id":"free"},{"bike_id":"6eefb3ec-87e5-418f-8757-2069de526952","system_id":"levelo_inurba_marseille","lat":43.32827,"lon":5.3668,"is_reserved":false,"is_disabled":false,"rental_uris":{"android":"levelo://app?vid=6eefb3ec-87e5-418f-8757-2069de526952","ios":"levelo://app?vid=6eefb3ec-87e5-418f-8757-2069de526952"},"vehicle_type_id":"4","last_reported":1682312804,"current_range_meters":26400,"station_id":"ce4bhs92rcd13ifvqi0g","pricing_plan_id":"free"},{"bike_id":"06165b73-0659-444e-b5d1-fdaee1a6da70","system_id":"levelo_inurba_marseille","lat":43.328371,"lon":5.366912,"is_reserved":false,"is_disabled":false,"rental_uris":{"android":"levelo://app?vid=06165b73-0659-444e-b5d1-fdaee1a6da70","ios":"levelo://app?vid=06165b73-0659-444e-b5d1-fdaee1a6da70"},"vehicle_type_id":"4","last_reported":1682312804,"current_range_meters":27200,"station_id":"ce4bhs92rcd13ifvqi0g","pricing_plan_id":"free"},{"bike_id":"bb095569-7c3f-435a-af11-3d18055547f4","system_id":"levelo_inurba_marseille","lat":43.328371,"lon":5.366912,"is_reserved":false,"is_disabled":false,"rental_uris":{"android":"levelo://app?vid=bb095569-7c3f-435a-af11-3d18055547f4","ios":"levelo://app?vid=bb095569-7c3f-435a-af11-3d18055547f4"},"vehicle_type_id":"4","last_reported":1682312804,"current_range_meters":25600,"station_id":"ce4bhs92rcd13ifvqi0g","pricing_plan_id":"free"},{"bike_id":"3715c281-72cb-4c63-8c26-a01371a29b03","system_id":"levelo_inurba_marseille","lat":43.328371,"lon":5.366912,"is_reserved":false,"is_disabled":false,"rental_uris":{"android":"levelo://app?vid=3715c281-72cb-4c63-8c26-a01371a29b03","ios":"levelo://app?vid=3715c281-72cb-4c63-8c26-a01371a29b03"},"vehicle_type_id":"4","last_reported":1682312804,"current_range_meters":0,"station_id":"ce4bhs92rcd13ifvqi0g","pricing_plan_id":"free"},{"bike_id":"62125dd7-01b6-4b47-9996-086499457a1d","system_id":"levelo_inurba_marseille","lat":43.3283,"lon":5.36687,"is_reserved":false,"is_disabled":false,"rental_uris":{"android":"levelo://app?vid=62125dd7-01b6-4b47-9996-086499457a1d","ios":"levelo://app?vid=62125dd7-01b6-4b47-9996-086499457a1d"},"vehicle_type_id":"4","last_reported":1682312804,"current_range_meters":26400,"station_id":"ce4bhs92rcd13ifvqi0g","pricing_plan_id":"free"},{"bike_id":"443068c7-0b4a-4c18-863a-1b1da1ea4156","system_id":"levelo_inurba_marseille","lat":43.3283,"lon":5.36686,"is_reserved":false,"is_disabled":false,"rental_uris":{"android":"levelo://app?vid=443068c7-0b4a-4c18-863a-1b1da1ea4156","ios":"levelo://app?vid=443068c7-0b4a-4c18-863a-1b1da1ea4156"},"vehicle_type_id":"4","last_reported":1682312804,"current_range_meters":22400,"station_id":"ce4bhs92rcd13ifvqi0g","pricing_plan_id":"free"},{"bike_id":"77a15084-c151-4d9e-8db8-4eb1a02ee92f","system_id":"levelo_inurba_marseille","lat":43.3283,"lon":5.36685,"is_reserved":false,"is_disabled":false,"rental_uris":{"android":"levelo://app?vid=77a15084-c151-4d9e-8db8-4eb1a02ee92f","ios":"levelo://app?vid=77a15084-c151-4d9e-8db8-4eb1a02ee92f"},"vehicle_type_id":"4","last_reported":1682312804,"current_range_meters":22000,"station_id":"ce4bhs92rcd13ifvqi0g","pricing_plan_id":"free"},{"bike_id":"81b4e9fe-31e2-4a91-9e50-52f1853587cc","system_id":"levelo_inurba_marseille","lat":43.328371,"lon":5.366912,"is_reserved":false,"is_disabled":false,"rental_uris":{"android":"levelo://app?vid=81b4e9fe-31e2-4a91-9e50-52f1853587cc","ios":"levelo://app?vid=81b4e9fe-31e2-4a91-9e50-52f1853587cc"},"vehicle_type_id":"4","last_reported":1682312804,"current_range_meters":6400,"station_id":"ce4bhs92rcd13ifvqi0g","pricing_plan_id":"free"},{"bike_id":"70fbabac-c38a-4ae0-ba9c-7d92375d184b","system_id":"levelo_inurba_marseille","lat":43.32831,"lon":5.36684,"is_reserved":false,"is_disabled":false,"rental_uris":{"android":"levelo://app?vid=70fbabac-c38a-4ae0-ba9c-7d92375d184b","ios":"levelo://app?vid=70fbabac-c38a-4ae0-ba9c-7d92375d184b"},"vehicle_type_id":"4","last_reported":1682312804,"current_range_meters":26000,"station_id":"ce4bhs92rcd13ifvqi0g","pricing_plan_id":"free"},{"bike_id":"02029b27-c00e-47de-bbdd-ff110cce3b77","system_id":"levelo_inurba_marseille","lat":43.32832,"lon":5.36682,"is_reserved":false,"is_disabled":false,"rental_uris":{"android":"levelo://app?vid=02029b27-c00e-47de-bbdd-ff110cce3b77","ios":"levelo://app?vid=02029b27-c00e-47de-bbdd-ff110cce3b77"},"vehicle_type_id":"4","last_reported":1682312804,"current_range_meters":10800,"station_id":"ce4bhs92rcd13ifvqi0g","pricing_plan_id":"free"},{"bike_id":"e6eb28d4-8f9f-49c3-ad12-5b297fc34b1f","system_id":"levelo_inurba_marseille","lat":43.328371,"lon":5.366909,"is_reserved":false,"is_disabled":false,"rental_uris":{"android":"levelo://app?vid=e6eb28d4-8f9f-49c3-ad12-5b297fc34b1f","ios":"levelo://app?vid=e6eb28d4-8f9f-49c3-ad12-5b297fc34b1f"},"vehicle_type_id":"4","last_reported":1682312804,"current_range_meters":21600,"station_id":"ce4bhs92rcd13ifvqi0g","pricing_plan_id":"free"},{"bike_id":"efcf4a18-406e-4422-b55f-8365cff7eb6e","system_id":"levelo_inurba_marseille","lat":43.31618,"lon":5.38937,"is_reserved":false,"is_disabled":false,"rental_uris":{"android":"levelo://app?vid=efcf4a18-406e-4422-b55f-8365cff7eb6e","ios":"levelo://app?vid=efcf4a18-406e-4422-b55f-8365cff7eb6e"},"vehicle_type_id":"4","last_reported":1682312804,"current_range_meters":14000,"station_id":"","pricing_plan_id":"free"},{"bike_id":"22616b34-d7ef-47de-ab02-00d537985753","system_id":"levelo_inurba_marseille","lat":43.29573,"lon":5.367355,"is_reserved":false,"is_disabled":false,"rental_uris":{"android":"levelo://app?vid=22616b34-d7ef-47de-ab02-00d537985753","ios":"levelo://app?vid=22616b34-d7ef-47de-ab02-00d537985753"},"vehicle_type_id":"4","last_reported":1682312804,"current_range_meters":19200,"station_id":"ce4bgph2rcd13ifvqc2g","pricing_plan_id":"free"},{"bike_id":"42736de9-ad60-45bc-a938-824350711d96","system_id":"levelo_inurba_marseille","lat":43.296921,"lon":5.376579,"is_reserved":false,"is_disabled":false,"rental_uris":{"android":"levelo://app?vid=42736de9-ad60-45bc-a938-824350711d96","ios":"levelo://app?vid=42736de9-ad60-45bc-a938-824350711d96"},"vehicle_type_id":"4","last_reported":1682312804,"current_range_meters":24400,"station_id":"ce4bgkh2rcd13ifvqbl0","pricing_plan_id":"free"},{"bike_id":"64443f19-0f0a-483c-8dae-21a3d83a8915","system_id":"levelo_inurba_marseille","lat":43.309589,"lon":5.390258,"is_reserved":false,"is_disabled":false,"rental_uris":{"android":"levelo://app?vid=64443f19-0f0a-483c-8dae-21a3d83a8915","ios":"levelo://app?vid=64443f19-0f0a-483c-8dae-21a3d83a8915"},"vehicle_type_id":"4","last_reported":1682312804,"current_range_meters":30800,"station_id":"ce4bgup2rcd13ifvqco0","pricing_plan_id":"free"},{"bike_id":"b303c44f-ef71-4670-bba7-3dc7817dbd1d","system_id":"levelo_inurba_marseille","lat":43.296921,"lon":5.376579,"is_reserved":false,"is_disabled":false,"rental_uris":{"android":"levelo://app?vid=b303c44f-ef71-4670-bba7-3dc7817dbd1d","ios":"levelo://app?vid=b303c44f-ef71-4670-bba7-3dc7817dbd1d"},"vehicle_type_id":"4","last_reported":1682312804,"current_range_meters":31600,"station_id":"ce4bgkh2rcd13ifvqbl0","pricing_plan_id":"free"},{"bike_id":"4ea826ca-9727-45bb-8b37-e21c87cd9c86","system_id":"levelo_inurba_marseille","lat":43.2972,"lon":5.37699,"is_reserved":false,"is_disabled":false,"rental_uris":{"android":"levelo://app?vid=4ea826ca-9727-45bb-8b37-e21c87cd9c86","ios":"levelo://app?vid=4ea826ca-9727-45bb-8b37-e21c87cd9c86"},"vehicle_type_id":"4","last_reported":1682312804,"current_range_meters":0,"station_id":"","pricing_plan_id":"free"},{"bike_id":"ee7e17a1-ccf5-4515-b258-6d8da231855d","system_id":"levelo_inurba_marseille","lat":43.296921,"lon":5.376579,"is_reserved":false,"is_disabled":false,"rental_uris":{"android":"levelo://app?vid=ee7e17a1-ccf5-4515-b258-6d8da231855d","ios":"levelo://app?vid=ee7e17a1-ccf5-4515-b258-6d8da231855d"},"vehicle_type_id":"4","last_reported":1682312804,"current_range_meters":28000,"station_id":"ce4bgkh2rcd13ifvqbl0","pricing_plan_id":"free"},{"bike_id":"f0d4d421-cc0a-4503-a5b5-e3ec819664ca","system_id":"levelo_inurba_marseille","lat":43.299028,"lon":5.381509,"is_reserved":false,"is_disabled":false,"rental_uris":{"android":"levelo://app?vid=f0d4d421-cc0a-4503-a5b5-e3ec819664ca","ios":"levelo://app?vid=f0d4d421-cc0a-4503-a5b5-e3ec819664ca"},"vehicle_type_id":"4","last_reported":1682312804,"current_range_meters":28400,"station_id":"ce4bgj12rcd13ifvqbc0","pricing_plan_id":"free"},{"bike_id":"fb4dce40-bffb-4132-af5d-ce50a33d0c0a","system_id":"levelo_inurba_marseille","lat":43.309589,"lon":5.390258,"is_reserved":false,"is_disabled":false,"rental_uris":{"android":"levelo://app?vid=fb4dce40-bffb-4132-af5d-ce50a33d0c0a","ios":"levelo://app?vid=fb4dce40-bffb-4132-af5d-ce50a33d0c0a"},"vehicle_type_id":"4","last_reported":1682312804,"current_range_meters":31200,"station_id":"ce4bgup2rcd13ifvqco0","pricing_plan_id":"free"},{"bike_id":"015b6fb5-2752-49c7-86f5-57dfae396cee","system_id":"levelo_inurba_marseille","lat":43.317557,"lon":5.390173,"is_reserved":false,"is_disabled":false,"rental_uris":{"android":"levelo://app?vid=015b6fb5-2752-49c7-86f5-57dfae396cee","ios":"levelo://app?vid=015b6fb5-2752-49c7-86f5-57dfae396cee"},"vehicle_type_id":"4","last_reported":1682312804,"current_range_meters":31200,"station_id":"ce4bhqp2rcd13ifvqhng","pricing_plan_id":"free"},{"bike_id":"ae138dd4-58ea-4225-b40f-10999a24e79b","system_id":"levelo_inurba_marseille","lat":43.30156,"lon":5.38551,"is_reserved":false,"is_disabled":false,"rental_uris":{"android":"levelo://app?vid=ae138dd4-58ea-4225-b40f-10999a24e79b","ios":"levelo://app?vid=ae138dd4-58ea-4225-b40f-10999a24e79b"},"vehicle_type_id":"4","last_reported":1682312804,"current_range_meters":20000,"station_id":"","pricing_plan_id":"free"},{"bike_id":"8759d877-d110-40a5-9ff3-98482e0f3f14","system_id":"levelo_inurba_marseille","lat":43.317557,"lon":5.390173,"is_reserved":false,"is_disabled":false,"rental_uris":{"android":"levelo://app?vid=8759d877-d110-40a5-9ff3-98482e0f3f14","ios":"levelo://app?vid=8759d877-d110-40a5-9ff3-98482e0f3f14"},"vehicle_type_id":"4","last_reported":1682312804,"current_range_meters":31200,"station_id":"ce4bhqp2rcd13ifvqhng","pricing_plan_id":"free"},{"bike_id":"8b2c329a-9e8a-447c-878a-89c38eee2f9d","system_id":"levelo_inurba_marseille","lat":43.30152,"lon":5.38555,"is_reserved":false,"is_disabled":false,"rental_uris":{"android":"levelo://app?vid=8b2c329a-9e8a-447c-878a-89c38eee2f9d","ios":"levelo://app?vid=8b2c329a-9e8a-447c-878a-89c38eee2f9d"},"vehicle_type_id":"4","last_reported":1682312804,"current_range_meters":6400,"station_id":"","pricing_plan_id":"free"},{"bike_id":"d814db30-d8b4-4e72-b4c4-b7de11f80e4b","system_id":"levelo_inurba_marseille","lat":43.317557,"lon":5.390173,"is_reserved":false,"is_disabled":false,"rental_uris":{"android":"levelo://app?vid=d814db30-d8b4-4e72-b4c4-b7de11f80e4b","ios":"levelo://app?vid=d814db30-d8b4-4e72-b4c4-b7de11f80e4b"},"vehicle_type_id":"4","last_reported":1682312804,"current_range_meters":14000,"station_id":"ce4bhqp2rcd13ifvqhng","pricing_plan_id":"free"},{"bike_id":"6b02d072-6200-4387-be33-11ed0508fde4","system_id":"levelo_inurba_marseille","lat":43.304278,"lon":5.388868,"is_reserved":false,"is_disabled":false,"rental_uris":{"android":"levelo://app?vid=6b02d072-6200-4387-be33-11ed0508fde4","ios":"levelo://app?vid=6b02d072-6200-4387-be33-11ed0508fde4"},"vehicle_type_id":"4","last_reported":1682312804,"current_range_meters":5600,"station_id":"ce4bgk12rcd13ifvqbi0","pricing_plan_id":"free"},{"bike_id":"1991c43c-7fa5-407c-bb65-777f2e23ab72","system_id":"levelo_inurba_marseille","lat":43.304278,"lon":5.388868,"is_reserved":false,"is_disabled":false,"rental_uris":{"android":"levelo://app?vid=1991c43c-7fa5-407c-bb65-777f2e23ab72","ios":"levelo://app?vid=1991c43c-7fa5-407c-bb65-777f2e23ab72"},"vehicle_type_id":"4","last_reported":1682312804,"current_range_meters":5600,"station_id":"ce4bgk12rcd13ifvqbi0","pricing_plan_id":"free"},{"bike_id":"2b5c968f-bead-429d-9014-db540b51d312","system_id":"levelo_inurba_marseille","lat":43.304278,"lon":5.388868,"is_reserved":false,"is_disabled":false,"rental_uris":{"android":"levelo://app?vid=2b5c968f-bead-429d-9014-db540b51d312","ios":"levelo://app?vid=2b5c968f-bead-429d-9014-db540b51d312"},"vehicle_type_id":"4","last_reported":1682312804,"current_range_meters":28400,"station_id":"ce4bgk12rcd13ifvqbi0","pricing_plan_id":"free"},{"bike_id":"b781f99a-d03b-4f88-9b2e-0b69847c979f","system_id":"levelo_inurba_marseille","lat":43.304278,"lon":5.388868,"is_reserved":false,"is_disabled":false,"rental_uris":{"android":"levelo://app?vid=b781f99a-d03b-4f88-9b2e-0b69847c979f","ios":"levelo://app?vid=b781f99a-d03b-4f88-9b2e-0b69847c979f"},"vehicle_type_id":"4","last_reported":1682312804,"current_range_meters":9600,"station_id":"ce4bgk12rcd13ifvqbi0","pricing_plan_id":"free"},{"bike_id":"c24806b4-986a-4cb2-8aa7-79d3c42076ec","system_id":"levelo_inurba_marseille","lat":43.304278,"lon":5.388868,"is_reserved":false,"is_disabled":false,"rental_uris":{"android":"levelo://app?vid=c24806b4-986a-4cb2-8aa7-79d3c42076ec","ios":"levelo://app?vid=c24806b4-986a-4cb2-8aa7-79d3c42076ec"},"vehicle_type_id":"4","last_reported":1682312804,"current_range_meters":13200,"station_id":"ce4bgk12rcd13ifvqbi0","pricing_plan_id":"free"},{"bike_id":"27c9cff9-c1ed-4103-9d37-5a6b08649532","system_id":"levelo_inurba_marseille","lat":43.304278,"lon":5.388868,"is_reserved":false,"is_disabled":false,"rental_uris":{"android":"levelo://app?vid=27c9cff9-c1ed-4103-9d37-5a6b08649532","ios":"levelo://app?vid=27c9cff9-c1ed-4103-9d37-5a6b08649532"},"vehicle_type_id":"4","last_reported":1682312804,"current_range_meters":14400,"station_id":"ce4bgk12rcd13ifvqbi0","pricing_plan_id":"free"},{"bike_id":"67c8b951-2d86-46db-b764-6436fadadc01","system_id":"levelo_inurba_marseille","lat":43.29791,"lon":5.38107,"is_reserved":false,"is_disabled":false,"rental_uris":{"android":"levelo://app?vid=67c8b951-2d86-46db-b764-6436fadadc01","ios":"levelo://app?vid=67c8b951-2d86-46db-b764-6436fadadc01"},"vehicle_type_id":"4","last_reported":1682312804,"current_range_meters":0,"station_id":"ce4bgip2rcd13ifvqbb0","pricing_plan_id":"free"},{"bike_id":"028c01b7-b4b7-4f6c-886a-e8e62c4a28c1","system_id":"levelo_inurba_marseille","lat":43.304278,"lon":5.388868,"is_reserved":false,"is_disabled":false,"rental_uris":{"android":"levelo://app?vid=028c01b7-b4b7-4f6c-886a-e8e62c4a28c1","ios":"levelo://app?vid=028c01b7-b4b7-4f6c-886a-e8e62c4a28c1"},"vehicle_type_id":"4","last_reported":1682312804,"current_range_meters":8400,"station_id":"ce4bgk12rcd13ifvqbi0","pricing_plan_id":"free"},{"bike_id":"c3368182-b6bf-4d5a-8955-c5ae159bf20c","system_id":"levelo_inurba_marseille","lat":43.30437,"lon":5.38893,"is_reserved":false,"is_disabled":false,"rental_uris":{"android":"levelo://app?vid=c3368182-b6bf-4d5a-8955-c5ae159bf20c","ios":"levelo://app?vid=c3368182-b6bf-4d5a-8955-c5ae159bf20c"},"vehicle_type_id":"4","last_reported":1682312804,"current_range_meters":20800,"station_id":"ce4bgk12rcd13ifvqbi0","pricing_plan_id":"free"},{"bike_id":"83960824-6c02-4ec7-80bb-b3e48124816a","system_id":"levelo_inurba_marseille","lat":43.29615,"lon":5.3771,"is_reserved":false,"is_disabled":false,"rental_uris":{"android":"levelo://app?vid=83960824-6c02-4ec7-80bb-b3e48124816a","ios":"levelo://app?vid=83960824-6c02-4ec7-80bb-b3e48124816a"},"vehicle_type_id":"4","last_reported":1682312804,"current_range_meters":0,"station_id":"ce4bgi92rcd13ifvqb90","pricing_plan_id":"free"},{"bike_id":"062a7204-8bee-4b9d-bf77-e63f37357f29","system_id":"levelo_inurba_marseille","lat":43.29614,"lon":5.37722,"is_reserved":false,"is_disabled":false,"rental_uris":{"android":"levelo://app?vid=062a7204-8bee-4b9d-bf77-e63f37357f29","ios":"levelo://app?vid=062a7204-8bee-4b9d-bf77-e63f37357f29"},"vehicle_type_id":"4","last_reported":1682312804,"current_range_meters":0,"station_id":"ce4bgi92rcd13ifvqb90","pricing_plan_id":"free"},{"bike_id":"cc636927-8d5a-4977-b8c2-72cdbf22ce60","system_id":"levelo_inurba_marseille","lat":43.29628,"lon":5.37793,"is_reserved":false,"is_disabled":false,"rental_uris":{"android":"levelo://app?vid=cc636927-8d5a-4977-b8c2-72cdbf22ce60","ios":"levelo://app?vid=cc636927-8d5a-4977-b8c2-72cdbf22ce60"},"vehicle_type_id":"4","last_reported":1682312804,"current_range_meters":0,"station_id":"","pricing_plan_id":"free"},{"bike_id":"6b6f61e0-5823-4f6b-ad61-4b366b6c6351","system_id":"levelo_inurba_marseille","lat":43.299717,"lon":5.384845,"is_reserved":false,"is_disabled":false,"rental_uris":{"android":"levelo://app?vid=6b6f61e0-5823-4f6b-ad61-4b366b6c6351","ios":"levelo://app?vid=6b6f61e0-5823-4f6b-ad61-4b366b6c6351"},"vehicle_type_id":"4","last_reported":1682312804,"current_range_meters":18800,"station_id":"ce4bgj92rcd13ifvqbd0","pricing_plan_id":"free"},{"bike_id":"d9a1c413-03db-409d-95d4-e15d5007e265","system_id":"levelo_inurba_marseille","lat":43.299717,"lon":5.384845,"is_reserved":false,"is_disabled":false,"rental_uris":{"android":"levelo://app?vid=d9a1c413-03db-409d-95d4-e15d5007e265","ios":"levelo://app?vid=d9a1c413-03db-409d-95d4-e15d5007e265"},"vehicle_type_id":"4","last_reported":1682312804,"current_range_meters":30000,"station_id":"ce4bgj92rcd13ifvqbd0","pricing_plan_id":"free"},{"bike_id":"334e6156-667a-47b9-9b26-19a716c9c75d","system_id":"levelo_inurba_marseille","lat":43.29602,"lon":5.381084,"is_reserved":false,"is_disabled":false,"rental_uris":{"android":"levelo://app?vid=334e6156-667a-47b9-9b26-19a716c9c75d","ios":"levelo://app?vid=334e6156-667a-47b9-9b26-19a716c9c75d"},"vehicle_type_id":"4","last_reported":1682312804,"current_range_meters":22400,"station_id":"ce4bgl12rcd13ifvqbo0","pricing_plan_id":"free"},{"bike_id":"fc4092ee-46c8-4159-bba6-f0378b0ba19b","system_id":"levelo_inurba_marseille","lat":43.29601,"lon":5.381084,"is_reserved":false,"is_disabled":false,"rental_uris":{"android":"levelo://app?vid=fc4092ee-46c8-4159-bba6-f0378b0ba19b","ios":"levelo://app?vid=fc4092ee-46c8-4159-bba6-f0378b0ba19b"},"vehicle_type_id":"4","last_reported":1682312804,"current_range_meters":22400,"station_id":"ce4bgl12rcd13ifvqbo0","pricing_plan_id":"free"},{"bike_id":"9dfe9db9-6abd-4ed7-ac62-0a98f6a5d19e","system_id":"levelo_inurba_marseille","lat":43.29583,"lon":5.38107,"is_reserved":false,"is_disabled":false,"rental_uris":{"android":"levelo://app?vid=9dfe9db9-6abd-4ed7-ac62-0a98f6a5d19e","ios":"levelo://app?vid=9dfe9db9-6abd-4ed7-ac62-0a98f6a5d19e"},"vehicle_type_id":"4","last_reported":1682312804,"current_range_meters":0,"station_id":"ce4bgl12rcd13ifvqbo0","pricing_plan_id":"free"},{"bike_id":"b17a05eb-bbc0-4618-b675-d8ebb2a1a1f7","system_id":"levelo_inurba_marseille","lat":43.293249,"lon":5.371578,"is_reserved":false,"is_disabled":false,"rental_uris":{"android":"levelo://app?vid=b17a05eb-bbc0-4618-b675-d8ebb2a1a1f7","ios":"levelo://app?vid=b17a05eb-bbc0-4618-b675-d8ebb2a1a1f7"},"vehicle_type_id":"4","last_reported":1682312804,"current_range_meters":25600,"station_id":"ce4bgh92rcd13ifvqb40","pricing_plan_id":"free"},{"bike_id":"1e92d7a7-1a5b-4a49-b86e-aeec39f28518","system_id":"levelo_inurba_marseille","lat":43.29309,"lon":5.37179,"is_reserved":false,"is_disabled":false,"rental_uris":{"android":"levelo://app?vid=1e92d7a7-1a5b-4a49-b86e-aeec39f28518","ios":"levelo://app?vid=1e92d7a7-1a5b-4a49-b86e-aeec39f28518"},"vehicle_type_id":"4","last_reported":1682312804,"current_range_meters":0,"station_id":"ce4bgh92rcd13ifvqb40","pricing_plan_id":"free"},{"bike_id":"500c836e-5a76-45c1-bd1e-765ff97e4296","system_id":"levelo_inurba_marseille","lat":43.305994,"lon":5.393687,"is_reserved":false,"is_disabled":false,"rental_uris":{"android":"levelo://app?vid=500c836e-5a76-45c1-bd1e-765ff97e4296","ios":"levelo://app?vid=500c836e-5a76-45c1-bd1e-765ff97e4296"},"vehicle_type_id":"4","last_reported":1682312804,"current_range_meters":31200,"station_id":"ce4bh0p2rcd13ifvqd80","pricing_plan_id":"free"},{"bike_id":"b94a7bb5-5f3d-42b2-82f1-ccf54dbf0c42","system_id":"levelo_inurba_marseille","lat":43.305994,"lon":5.393687,"is_reserved":false,"is_disabled":false,"rental_uris":{"android":"levelo://app?vid=b94a7bb5-5f3d-42b2-82f1-ccf54dbf0c42","ios":"levelo://app?vid=b94a7bb5-5f3d-42b2-82f1-ccf54dbf0c42"},"vehicle_type_id":"4","last_reported":1682312804,"current_range_meters":30400,"station_id":"ce4bh0p2rcd13ifvqd80","pricing_plan_id":"free"},{"bike_id":"757eee25-14a6-471b-aa76-a540a5d2ffea","system_id":"levelo_inurba_marseille","lat":43.324981,"lon":5.38965,"is_reserved":false,"is_disabled":false,"rental_uris":{"android":"levelo://app?vid=757eee25-14a6-471b-aa76-a540a5d2ffea","ios":"levelo://app?vid=757eee25-14a6-471b-aa76-a540a5d2ffea"},"vehicle_type_id":"4","last_reported":1682312804,"current_range_meters":1200,"station_id":"","pricing_plan_id":"free"},{"bike_id":"ea338f02-0a62-4da0-85ae-881953535c9a","system_id":"levelo_inurba_marseille","lat":43.305994,"lon":5.393687,"is_reserved":false,"is_disabled":false,"rental_uris":{"android":"levelo://app?vid=ea338f02-0a62-4da0-85ae-881953535c9a","ios":"levelo://app?vid=ea338f02-0a62-4da0-85ae-881953535c9a"},"vehicle_type_id":"4","last_reported":1682312804,"current_range_meters":31600,"station_id":"ce4bh0p2rcd13ifvqd80","pricing_plan_id":"free"},{"bike_id":"73c47074-c243-493f-9ea7-6beebfd0d98d","system_id":"levelo_inurba_marseille","lat":43.305994,"lon":5.393687,"is_reserved":false,"is_disabled":false,"rental_uris":{"android":"levelo://app?vid=73c47074-c243-493f-9ea7-6beebfd0d98d","ios":"levelo://app?vid=73c47074-c243-493f-9ea7-6beebfd0d98d"},"vehicle_type_id":"4","last_reported":1682312804,"current_range_meters":31600,"station_id":"ce4bh0p2rcd13ifvqd80","pricing_plan_id":"free"},{"bike_id":"cebc8740-b12a-4e8e-86c4-afecff2f72c1","system_id":"levelo_inurba_marseille","lat":43.293463,"lon":5.377389,"is_reserved":false,"is_disabled":false,"rental_uris":{"android":"levelo://app?vid=cebc8740-b12a-4e8e-86c4-afecff2f72c1","ios":"levelo://app?vid=cebc8740-b12a-4e8e-86c4-afecff2f72c1"},"vehicle_type_id":"4","last_reported":1682312804,"current_range_meters":2400,"station_id":"ce4bhq12rcd13ifvqhhg","pricing_plan_id":"free"},{"bike_id":"3eb11db8-cd1a-4c15-ae9d-9e0693c389e9","system_id":"levelo_inurba_marseille","lat":43.30295,"lon":5.39207,"is_reserved":false,"is_disabled":false,"rental_uris":{"android":"levelo://app?vid=3eb11db8-cd1a-4c15-ae9d-9e0693c389e9","ios":"levelo://app?vid=3eb11db8-cd1a-4c15-ae9d-9e0693c389e9"},"vehicle_type_id":"4","last_reported":1682312804,"current_range_meters":0,"station_id":"ce4bgkh2rcd13ifvqbk0","pricing_plan_id":"free"},{"bike_id":"a79e249a-2415-44f3-a66e-00042803f06a","system_id":"levelo_inurba_marseille","lat":43.300852,"lon":5.390859,"is_reserved":false,"is_disabled":false,"rental_uris":{"android":"levelo://app?vid=a79e249a-2415-44f3-a66e-00042803f06a","ios":"levelo://app?vid=a79e249a-2415-44f3-a66e-00042803f06a"},"vehicle_type_id":"4","last_reported":1682312804,"current_range_meters":29600,"station_id":"ce4bh192rcd13ifvqdb0","pricing_plan_id":"free"},{"bike_id":"0e398c96-6d8f-4587-8932-505a96fb8236","system_id":"levelo_inurba_marseille","lat":43.29227,"lon":5.36059,"is_reserved":false,"is_disabled":false,"rental_uris":{"android":"levelo://app?vid=0e398c96-6d8f-4587-8932-505a96fb8236","ios":"levelo://app?vid=0e398c96-6d8f-4587-8932-505a96fb8236"},"vehicle_type_id":"4","last_reported":1682312804,"current_range_meters":1200,"station_id":"ce4bhbh2rcd13ifvqeqg","pricing_plan_id":"free"},{"bike_id":"cb9df10c-4c7f-477e-b12d-b84cea38af9c","system_id":"levelo_inurba_marseille","lat":43.29227,"lon":5.36057,"is_reserved":false,"is_disabled":false,"rental_uris":{"android":"levelo://app?vid=cb9df10c-4c7f-477e-b12d-b84cea38af9c","ios":"levelo://app?vid=cb9df10c-4c7f-477e-b12d-b84cea38af9c"},"vehicle_type_id":"4","last_reported":1682312804,"current_range_meters":31200,"station_id":"ce4bhbh2rcd13ifvqeqg","pricing_plan_id":"free"},{"bike_id":"25201b98-8936-41dc-9215-d450c07102d7","system_id":"levelo_inurba_marseille","lat":43.29225,"lon":5.36066,"is_reserved":false,"is_disabled":false,"rental_uris":{"android":"levelo://app?vid=25201b98-8936-41dc-9215-d450c07102d7","ios":"levelo://app?vid=25201b98-8936-41dc-9215-d450c07102d7"},"vehicle_type_id":"4","last_reported":1682312804,"current_range_meters":22400,"station_id":"ce4bhbh2rcd13ifvqeqg","pricing_plan_id":"free"},{"bike_id":"724ae615-ee82-4b81-872e-047beb0b9ce8","system_id":"levelo_inurba_marseille","lat":43.29225,"lon":5.36065,"is_reserved":false,"is_disabled":false,"rental_uris":{"android":"levelo://app?vid=724ae615-ee82-4b81-872e-047beb0b9ce8","ios":"levelo://app?vid=724ae615-ee82-4b81-872e-047beb0b9ce8"},"vehicle_type_id":"4","last_reported":1682312804,"current_range_meters":0,"station_id":"ce4bhbh2rcd13ifvqeqg","pricing_plan_id":"free"},{"bike_id":"ee496ab4-ba0b-4dbe-a581-3681d464f000","system_id":"levelo_inurba_marseille","lat":43.29226,"lon":5.36054,"is_reserved":false,"is_disabled":false,"rental_uris":{"android":"levelo://app?vid=ee496ab4-ba0b-4dbe-a581-3681d464f000","ios":"levelo://app?vid=ee496ab4-ba0b-4dbe-a581-3681d464f000"},"vehicle_type_id":"4","last_reported":1682312804,"current_range_meters":0,"station_id":"ce4bhbh2rcd13ifvqeqg","pricing_plan_id":"free"},{"bike_id":"e4acc4ed-3f62-4ba6-8979-01cec4f7e908","system_id":"levelo_inurba_marseille","lat":43.30095,"lon":5.39083,"is_reserved":false,"is_disabled":false,"rental_uris":{"android":"levelo://app?vid=e4acc4ed-3f62-4ba6-8979-01cec4f7e908","ios":"levelo://app?vid=e4acc4ed-3f62-4ba6-8979-01cec4f7e908"},"vehicle_type_id":"4","last_reported":1682312804,"current_range_meters":28000,"station_id":"ce4bh192rcd13ifvqdb0","pricing_plan_id":"free"},{"bike_id":"74b24daf-7690-4f6f-b8b3-c9599b742914","system_id":"levelo_inurba_marseille","lat":43.29223,"lon":5.36063,"is_reserved":false,"is_disabled":false,"rental_uris":{"android":"levelo://app?vid=74b24daf-7690-4f6f-b8b3-c9599b742914","ios":"levelo://app?vid=74b24daf-7690-4f6f-b8b3-c9599b742914"},"vehicle_type_id":"4","last_reported":1682312804,"current_range_meters":25600,"station_id":"ce4bhbh2rcd13ifvqeqg","pricing_plan_id":"free"},{"bike_id":"57d49816-bec1-48da-8896-bec94d5b0816","system_id":"levelo_inurba_marseille","lat":43.30089,"lon":5.39079,"is_reserved":false,"is_disabled":false,"rental_uris":{"android":"levelo://app?vid=57d49816-bec1-48da-8896-bec94d5b0816","ios":"levelo://app?vid=57d49816-bec1-48da-8896-bec94d5b0816"},"vehicle_type_id":"4","last_reported":1682312804,"current_range_meters":12000,"station_id":"ce4bh192rcd13ifvqdb0","pricing_plan_id":"free"},{"bike_id":"8bca91f3-6bca-4810-bb85-9005913cbb11","system_id":"levelo_inurba_marseille","lat":43.3009,"lon":5.3908,"is_reserved":false,"is_disabled":false,"rental_uris":{"android":"levelo://app?vid=8bca91f3-6bca-4810-bb85-9005913cbb11","ios":"levelo://app?vid=8bca91f3-6bca-4810-bb85-9005913cbb11"},"vehicle_type_id":"4","last_reported":1682312804,"current_range_meters":17200,"station_id":"ce4bh192rcd13ifvqdb0","pricing_plan_id":"free"},{"bike_id":"bb9aa53e-c72f-4475-b9d9-63bc04c58476","system_id":"levelo_inurba_marseille","lat":43.3009,"lon":5.39086,"is_reserved":false,"is_disabled":false,"rental_uris":{"android":"levelo://app?vid=bb9aa53e-c72f-4475-b9d9-63bc04c58476","ios":"levelo://app?vid=bb9aa53e-c72f-4475-b9d9-63bc04c58476"},"vehicle_type_id":"4","last_reported":1682312804,"current_range_meters":21600,"station_id":"ce4bh192rcd13ifvqdb0","pricing_plan_id":"free"},{"bike_id":"d13ed1f8-8cd2-4f56-a666-70b07e37f9a9","system_id":"levelo_inurba_marseille","lat":43.30084,"lon":5.39093,"is_reserved":false,"is_disabled":false,"rental_uris":{"android":"levelo://app?vid=d13ed1f8-8cd2-4f56-a666-70b07e37f9a9","ios":"levelo://app?vid=d13ed1f8-8cd2-4f56-a666-70b07e37f9a9"},"vehicle_type_id":"4","last_reported":1682312804,"current_range_meters":27600,"station_id":"ce4bh192rcd13ifvqdb0","pricing_plan_id":"free"},{"bike_id":"5e66a441-a4fd-4ef9-b3d0-dd237fb99477","system_id":"levelo_inurba_marseille","lat":43.298764,"lon":5.388973,"is_reserved":false,"is_disabled":false,"rental_uris":{"android":"levelo://app?vid=5e66a441-a4fd-4ef9-b3d0-dd237fb99477","ios":"levelo://app?vid=5e66a441-a4fd-4ef9-b3d0-dd237fb99477"},"vehicle_type_id":"4","last_reported":1682312804,"current_range_meters":6800,"station_id":"ce4bh392rcd13ifvqdl0","pricing_plan_id":"free"},{"bike_id":"3ff7e02b-5b8e-4acb-be25-e80c310172cf","system_id":"levelo_inurba_marseille","lat":43.29878,"lon":5.38914,"is_reserved":false,"is_disabled":false,"rental_uris":{"android":"levelo://app?vid=3ff7e02b-5b8e-4acb-be25-e80c310172cf","ios":"levelo://app?vid=3ff7e02b-5b8e-4acb-be25-e80c310172cf"},"vehicle_type_id":"4","last_reported":1682312804,"current_range_meters":20800,"station_id":"ce4bh392rcd13ifvqdl0","pricing_plan_id":"free"},{"bike_id":"23b87a6c-fa70-4ac6-af41-a42501c3e0ef","system_id":"levelo_inurba_marseille","lat":43.298764,"lon":5.388973,"is_reserved":false,"is_disabled":false,"rental_uris":{"android":"levelo://app?vid=23b87a6c-fa70-4ac6-af41-a42501c3e0ef","ios":"levelo://app?vid=23b87a6c-fa70-4ac6-af41-a42501c3e0ef"},"vehicle_type_id":"4","last_reported":1682312804,"current_range_meters":6400,"station_id":"ce4bh392rcd13ifvqdl0","pricing_plan_id":"free"},{"bike_id":"b7ea54f0-4f32-42a0-b107-ffe994957f39","system_id":"levelo_inurba_marseille","lat":43.313291,"lon":5.396838,"is_reserved":false,"is_disabled":false,"rental_uris":{"android":"levelo://app?vid=b7ea54f0-4f32-42a0-b107-ffe994957f39","ios":"levelo://app?vid=b7ea54f0-4f32-42a0-b107-ffe994957f39"},"vehicle_type_id":"4","last_reported":1682312804,"current_range_meters":26800,"station_id":"ce4bgvp2rcd13ifvqcu0","pricing_plan_id":"free"},{"bike_id":"1917a75b-1621-4c47-afec-fc1fb5f462c2","system_id":"levelo_inurba_marseille","lat":43.313291,"lon":5.396838,"is_reserved":false,"is_disabled":false,"rental_uris":{"android":"levelo://app?vid=1917a75b-1621-4c47-afec-fc1fb5f462c2","ios":"levelo://app?vid=1917a75b-1621-4c47-afec-fc1fb5f462c2"},"vehicle_type_id":"4","last_reported":1682312804,"current_range_meters":30400,"station_id":"ce4bgvp2rcd13ifvqcu0","pricing_plan_id":"free"},{"bike_id":"71caf9fb-569e-4cc6-8667-e94c9cf7fd43","system_id":"levelo_inurba_marseille","lat":43.313291,"lon":5.396838,"is_reserved":false,"is_disabled":false,"rental_uris":{"android":"levelo://app?vid=71caf9fb-569e-4cc6-8667-e94c9cf7fd43","ios":"levelo://app?vid=71caf9fb-569e-4cc6-8667-e94c9cf7fd43"},"vehicle_type_id":"4","last_reported":1682312804,"current_range_meters":31200,"station_id":"ce4bgvp2rcd13ifvqcu0","pricing_plan_id":"free"},{"bike_id":"4d8679e3-b318-4378-be0b-229cc11524a1","system_id":"levelo_inurba_marseille","lat":43.309038,"lon":5.396546,"is_reserved":false,"is_disabled":false,"rental_uris":{"android":"levelo://app?vid=4d8679e3-b318-4378-be0b-229cc11524a1","ios":"levelo://app?vid=4d8679e3-b318-4378-be0b-229cc11524a1"},"vehicle_type_id":"4","last_reported":1682312804,"current_range_meters":15200,"station_id":"ce4bh012rcd13ifvqcv0","pricing_plan_id":"free"},{"bike_id":"224ecd79-8b1b-478c-aaa2-9e649f913b2a","system_id":"levelo_inurba_marseille","lat":43.313291,"lon":5.396838,"is_reserved":false,"is_disabled":false,"rental_uris":{"android":"levelo://app?vid=224ecd79-8b1b-478c-aaa2-9e649f913b2a","ios":"levelo://app?vid=224ecd79-8b1b-478c-aaa2-9e649f913b2a"},"vehicle_type_id":"4","last_reported":1682312804,"current_range_meters":31200,"station_id":"ce4bgvp2rcd13ifvqcu0","pricing_plan_id":"free"},{"bike_id":"ca2688f6-7857-42b2-8ea6-ca1ce4766020","system_id":"levelo_inurba_marseille","lat":43.309038,"lon":5.396546,"is_reserved":false,"is_disabled":false,"rental_uris":{"android":"levelo://app?vid=ca2688f6-7857-42b2-8ea6-ca1ce4766020","ios":"levelo://app?vid=ca2688f6-7857-42b2-8ea6-ca1ce4766020"},"vehicle_type_id":"4","last_reported":1682312804,"current_range_meters":15200,"station_id":"ce4bh012rcd13ifvqcv0","pricing_plan_id":"free"},{"bike_id":"61b77220-ff68-44ef-901f-6137ffb00a12","system_id":"levelo_inurba_marseille","lat":43.309038,"lon":5.396546,"is_reserved":false,"is_disabled":false,"rental_uris":{"android":"levelo://app?vid=61b77220-ff68-44ef-901f-6137ffb00a12","ios":"levelo://app?vid=61b77220-ff68-44ef-901f-6137ffb00a12"},"vehicle_type_id":"4","last_reported":1682312804,"current_range_meters":12000,"station_id":"ce4bh012rcd13ifvqcv0","pricing_plan_id":"free"},{"bike_id":"42279b60-caac-46a4-b2c6-b356057fc443","system_id":"levelo_inurba_marseille","lat":43.309038,"lon":5.396546,"is_reserved":false,"is_disabled":false,"rental_uris":{"android":"levelo://app?vid=42279b60-caac-46a4-b2c6-b356057fc443","ios":"levelo://app?vid=42279b60-caac-46a4-b2c6-b356057fc443"},"vehicle_type_id":"4","last_reported":1682312804,"current_range_meters":31200,"station_id":"ce4bh012rcd13ifvqcv0","pricing_plan_id":"free"},{"bike_id":"91190270-8cba-4e70-ab78-1aafad19282c","system_id":"levelo_inurba_marseille","lat":43.302008,"lon":5.394694,"is_reserved":false,"is_disabled":false,"rental_uris":{"android":"levelo://app?vid=91190270-8cba-4e70-ab78-1aafad19282c","ios":"levelo://app?vid=91190270-8cba-4e70-ab78-1aafad19282c"},"vehicle_type_id":"4","last_reported":1682312804,"current_range_meters":0,"station_id":"ce4bh0p2rcd13ifvqd70","pricing_plan_id":"free"},{"bike_id":"38eb610b-fcba-44e3-8352-6f069f3a57bb","system_id":"levelo_inurba_marseille","lat":43.302008,"lon":5.394694,"is_reserved":false,"is_disabled":false,"rental_uris":{"android":"levelo://app?vid=38eb610b-fcba-44e3-8352-6f069f3a57bb","ios":"levelo://app?vid=38eb610b-fcba-44e3-8352-6f069f3a57bb"},"vehicle_type_id":"4","last_reported":1682312804,"current_range_meters":31600,"station_id":"ce4bh0p2rcd13ifvqd70","pricing_plan_id":"free"},{"bike_id":"500ed136-23cb-4a53-af6a-10dd172763c1","system_id":"levelo_inurba_marseille","lat":43.302008,"lon":5.394694,"is_reserved":false,"is_disabled":false,"rental_uris":{"android":"levelo://app?vid=500ed136-23cb-4a53-af6a-10dd172763c1","ios":"levelo://app?vid=500ed136-23cb-4a53-af6a-10dd172763c1"},"vehicle_type_id":"4","last_reported":1682312804,"current_range_meters":7200,"station_id":"ce4bh0p2rcd13ifvqd70","pricing_plan_id":"free"},{"bike_id":"c55f8edc-d011-41f6-826a-f77050d8d2c4","system_id":"levelo_inurba_marseille","lat":43.302008,"lon":5.394694,"is_reserved":false,"is_disabled":false,"rental_uris":{"android":"levelo://app?vid=c55f8edc-d011-41f6-826a-f77050d8d2c4","ios":"levelo://app?vid=c55f8edc-d011-41f6-826a-f77050d8d2c4"},"vehicle_type_id":"4","last_reported":1682312804,"current_range_meters":31200,"station_id":"ce4bh0p2rcd13ifvqd70","pricing_plan_id":"free"},{"bike_id":"46e2ca5a-1e52-415e-9ed3-a8fa408b5635","system_id":"levelo_inurba_marseille","lat":43.302008,"lon":5.394694,"is_reserved":false,"is_disabled":false,"rental_uris":{"android":"levelo://app?vid=46e2ca5a-1e52-415e-9ed3-a8fa408b5635","ios":"levelo://app?vid=46e2ca5a-1e52-415e-9ed3-a8fa408b5635"},"vehicle_type_id":"4","last_reported":1682312804,"current_range_meters":31600,"station_id":"ce4bh0p2rcd13ifvqd70","pricing_plan_id":"free"},{"bike_id":"80d29fd4-0d5c-490c-b9c6-428c7c1ca327","system_id":"levelo_inurba_marseille","lat":43.302008,"lon":5.394694,"is_reserved":false,"is_disabled":false,"rental_uris":{"android":"levelo://app?vid=80d29fd4-0d5c-490c-b9c6-428c7c1ca327","ios":"levelo://app?vid=80d29fd4-0d5c-490c-b9c6-428c7c1ca327"},"vehicle_type_id":"4","last_reported":1682312804,"current_range_meters":31200,"station_id":"ce4bh0p2rcd13ifvqd70","pricing_plan_id":"free"},{"bike_id":"d67d1605-4a6b-43e2-8838-290a418135e0","system_id":"levelo_inurba_marseille","lat":43.290319,"lon":5.375732,"is_reserved":false,"is_disabled":false,"rental_uris":{"android":"levelo://app?vid=d67d1605-4a6b-43e2-8838-290a418135e0","ios":"levelo://app?vid=d67d1605-4a6b-43e2-8838-290a418135e0"},"vehicle_type_id":"4","last_reported":1682312804,"current_range_meters":16800,"station_id":"ce4bh692rcd13ifvqe90","pricing_plan_id":"free"},{"bike_id":"c3a4a46f-b01f-4b97-a8cd-7e4ee27503d5","system_id":"levelo_inurba_marseille","lat":43.294153,"lon":5.386305,"is_reserved":false,"is_disabled":false,"rental_uris":{"android":"levelo://app?vid=c3a4a46f-b01f-4b97-a8cd-7e4ee27503d5","ios":"levelo://app?vid=c3a4a46f-b01f-4b97-a8cd-7e4ee27503d5"},"vehicle_type_id":"4","last_reported":1682312804,"current_range_meters":28400,"station_id":"ce4bh2h2rcd13ifvqdh0","pricing_plan_id":"free"},{"bike_id":"54ea5f75-2942-441f-84f6-cd60bfb8545f","system_id":"levelo_inurba_marseille","lat":43.290319,"lon":5.375732,"is_reserved":false,"is_disabled":false,"rental_uris":{"android":"levelo://app?vid=54ea5f75-2942-441f-84f6-cd60bfb8545f","ios":"levelo://app?vid=54ea5f75-2942-441f-84f6-cd60bfb8545f"},"vehicle_type_id":"4","last_reported":1682312804,"current_range_meters":29600,"station_id":"ce4bh692rcd13ifvqe90","pricing_plan_id":"free"},{"bike_id":"49bdae84-cbea-4ab7-9dcc-773d5564d28e","system_id":"levelo_inurba_marseille","lat":43.290319,"lon":5.375732,"is_reserved":false,"is_disabled":false,"rental_uris":{"android":"levelo://app?vid=49bdae84-cbea-4ab7-9dcc-773d5564d28e","ios":"levelo://app?vid=49bdae84-cbea-4ab7-9dcc-773d5564d28e"},"vehicle_type_id":"4","last_reported":1682312804,"current_range_meters":21200,"station_id":"ce4bh692rcd13ifvqe90","pricing_plan_id":"free"},{"bike_id":"c3b80cbe-7ca0-4416-8a76-fec0db6fa714","system_id":"levelo_inurba_marseille","lat":43.290319,"lon":5.375732,"is_reserved":false,"is_disabled":false,"rental_uris":{"android":"levelo://app?vid=c3b80cbe-7ca0-4416-8a76-fec0db6fa714","ios":"levelo://app?vid=c3b80cbe-7ca0-4416-8a76-fec0db6fa714"},"vehicle_type_id":"4","last_reported":1682312804,"current_range_meters":31200,"station_id":"ce4bh692rcd13ifvqe90","pricing_plan_id":"free"},{"bike_id":"28d83122-3620-4501-bfe6-73e48f850f2e","system_id":"levelo_inurba_marseille","lat":43.290319,"lon":5.375732,"is_reserved":false,"is_disabled":false,"rental_uris":{"android":"levelo://app?vid=28d83122-3620-4501-bfe6-73e48f850f2e","ios":"levelo://app?vid=28d83122-3620-4501-bfe6-73e48f850f2e"},"vehicle_type_id":"4","last_reported":1682312804,"current_range_meters":31600,"station_id":"ce4bh692rcd13ifvqe90","pricing_plan_id":"free"},{"bike_id":"d60129c1-264b-44fe-9431-cb7fed7bcf25","system_id":"levelo_inurba_marseille","lat":43.289184,"lon":5.366408,"is_reserved":false,"is_disabled":false,"rental_uris":{"android":"levelo://app?vid=d60129c1-264b-44fe-9431-cb7fed7bcf25","ios":"levelo://app?vid=d60129c1-264b-44fe-9431-cb7fed7bcf25"},"vehicle_type_id":"4","last_reported":1682312804,"current_range_meters":27200,"station_id":"ce4bhap2rcd13ifvqek0","pricing_plan_id":"free"},{"bike_id":"fab2563b-ce17-4fcb-8ef7-be232df6768c","system_id":"levelo_inurba_marseille","lat":43.289184,"lon":5.366408,"is_reserved":false,"is_disabled":false,"rental_uris":{"android":"levelo://app?vid=fab2563b-ce17-4fcb-8ef7-be232df6768c","ios":"levelo://app?vid=fab2563b-ce17-4fcb-8ef7-be232df6768c"},"vehicle_type_id":"4","last_reported":1682312804,"current_range_meters":26800,"station_id":"ce4bhap2rcd13ifvqek0","pricing_plan_id":"free"},{"bike_id":"9688d96f-bca4-435d-954f-b293ba759cb8","system_id":"levelo_inurba_marseille","lat":43.289184,"lon":5.366408,"is_reserved":false,"is_disabled":false,"rental_uris":{"android":"levelo://app?vid=9688d96f-bca4-435d-954f-b293ba759cb8","ios":"levelo://app?vid=9688d96f-bca4-435d-954f-b293ba759cb8"},"vehicle_type_id":"4","last_reported":1682312804,"current_range_meters":31600,"station_id":"ce4bhap2rcd13ifvqek0","pricing_plan_id":"free"},{"bike_id":"46a62c7d-9b8d-45a4-860c-db770f49da6a","system_id":"levelo_inurba_marseille","lat":43.28948,"lon":5.36405,"is_reserved":false,"is_disabled":false,"rental_uris":{"android":"levelo://app?vid=46a62c7d-9b8d-45a4-860c-db770f49da6a","ios":"levelo://app?vid=46a62c7d-9b8d-45a4-860c-db770f49da6a"},"vehicle_type_id":"4","last_reported":1682312804,"current_range_meters":13200,"station_id":"ce4bhc92rcd13ifvqetg","pricing_plan_id":"free"},{"bike_id":"45d02958-65b0-437c-9844-a3e1ab4eaf38","system_id":"levelo_inurba_marseille","lat":43.289184,"lon":5.366408,"is_reserved":false,"is_disabled":false,"rental_uris":{"android":"levelo://app?vid=45d02958-65b0-437c-9844-a3e1ab4eaf38","ios":"levelo://app?vid=45d02958-65b0-437c-9844-a3e1ab4eaf38"},"vehicle_type_id":"4","last_reported":1682312804,"current_range_meters":30000,"station_id":"ce4bhap2rcd13ifvqek0","pricing_plan_id":"free"},{"bike_id":"7e16b1a4-1d91-4491-a7e3-f457707b5d1a","system_id":"levelo_inurba_marseille","lat":43.289184,"lon":5.366408,"is_reserved":false,"is_disabled":false,"rental_uris":{"android":"levelo://app?vid=7e16b1a4-1d91-4491-a7e3-f457707b5d1a","ios":"levelo://app?vid=7e16b1a4-1d91-4491-a7e3-f457707b5d1a"},"vehicle_type_id":"4","last_reported":1682312804,"current_range_meters":31600,"station_id":"ce4bhap2rcd13ifvqek0","pricing_plan_id":"free"},{"bike_id":"b24c79fc-5502-44c3-b61f-ea4e6b295774","system_id":"levelo_inurba_marseille","lat":43.289184,"lon":5.366408,"is_reserved":false,"is_disabled":false,"rental_uris":{"android":"levelo://app?vid=b24c79fc-5502-44c3-b61f-ea4e6b295774","ios":"levelo://app?vid=b24c79fc-5502-44c3-b61f-ea4e6b295774"},"vehicle_type_id":"4","last_reported":1682312804,"current_range_meters":31600,"station_id":"ce4bhap2rcd13ifvqek0","pricing_plan_id":"free"},{"bike_id":"34268010-8d75-45ae-a4bd-357ece86f25e","system_id":"levelo_inurba_marseille","lat":43.289184,"lon":5.366408,"is_reserved":false,"is_disabled":false,"rental_uris":{"android":"levelo://app?vid=34268010-8d75-45ae-a4bd-357ece86f25e","ios":"levelo://app?vid=34268010-8d75-45ae-a4bd-357ece86f25e"},"vehicle_type_id":"4","last_reported":1682312804,"current_range_meters":31600,"station_id":"ce4bhap2rcd13ifvqek0","pricing_plan_id":"free"},{"bike_id":"36e4004f-aafa-4fd8-b623-ed94f830d1f7","system_id":"levelo_inurba_marseille","lat":43.289184,"lon":5.366408,"is_reserved":false,"is_disabled":false,"rental_uris":{"android":"levelo://app?vid=36e4004f-aafa-4fd8-b623-ed94f830d1f7","ios":"levelo://app?vid=36e4004f-aafa-4fd8-b623-ed94f830d1f7"},"vehicle_type_id":"4","last_reported":1682312804,"current_range_meters":31600,"station_id":"ce4bhap2rcd13ifvqek0","pricing_plan_id":"free"},{"bike_id":"24a48910-4d31-4d22-8a45-ab83271f2266","system_id":"levelo_inurba_marseille","lat":43.289468,"lon":5.363719,"is_reserved":false,"is_disabled":false,"rental_uris":{"android":"levelo://app?vid=24a48910-4d31-4d22-8a45-ab83271f2266","ios":"levelo://app?vid=24a48910-4d31-4d22-8a45-ab83271f2266"},"vehicle_type_id":"4","last_reported":1682312804,"current_range_meters":31200,"station_id":"ce4bhc92rcd13ifvqetg","pricing_plan_id":"free"},{"bike_id":"b6d09682-fd7f-44a3-b548-a40f5cfe56bd","system_id":"levelo_inurba_marseille","lat":43.29268,"lon":5.38451,"is_reserved":false,"is_disabled":false,"rental_uris":{"android":"levelo://app?vid=b6d09682-fd7f-44a3-b548-a40f5cfe56bd","ios":"levelo://app?vid=b6d09682-fd7f-44a3-b548-a40f5cfe56bd"},"vehicle_type_id":"4","last_reported":1682312804,"current_range_meters":0,"station_id":"ce4bh692rcd13ifvqea0","pricing_plan_id":"free"},{"bike_id":"fd2a80ac-5c03-4769-9f2f-1e5a5396f5bb","system_id":"levelo_inurba_marseille","lat":43.292644,"lon":5.384257,"is_reserved":false,"is_disabled":false,"rental_uris":{"android":"levelo://app?vid=fd2a80ac-5c03-4769-9f2f-1e5a5396f5bb","ios":"levelo://app?vid=fd2a80ac-5c03-4769-9f2f-1e5a5396f5bb"},"vehicle_type_id":"4","last_reported":1682312804,"current_range_meters":30000,"station_id":"ce4bh692rcd13ifvqea0","pricing_plan_id":"free"},{"bike_id":"a1f97480-6188-48b9-9300-2822690f4fb0","system_id":"levelo_inurba_marseille","lat":43.3302,"lon":5.38918,"is_reserved":false,"is_disabled":false,"rental_uris":{"android":"levelo://app?vid=a1f97480-6188-48b9-9300-2822690f4fb0","ios":"levelo://app?vid=a1f97480-6188-48b9-9300-2822690f4fb0"},"vehicle_type_id":"4","last_reported":1682312804,"current_range_meters":30400,"station_id":"ce4bhr92rcd13ifvqhrg","pricing_plan_id":"free"},{"bike_id":"4db327bc-6126-4bc2-842b-f06bd7b9f54f","system_id":"levelo_inurba_marseille","lat":43.3304,"lon":5.38915,"is_reserved":false,"is_disabled":false,"rental_uris":{"android":"levelo://app?vid=4db327bc-6126-4bc2-842b-f06bd7b9f54f","ios":"levelo://app?vid=4db327bc-6126-4bc2-842b-f06bd7b9f54f"},"vehicle_type_id":"4","last_reported":1682312804,"current_range_meters":31200,"station_id":"ce4bhr92rcd13ifvqhrg","pricing_plan_id":"free"},{"bike_id":"2df211f7-d22e-4f3f-a09d-701f0f089e4c","system_id":"levelo_inurba_marseille","lat":43.33033,"lon":5.38927,"is_reserved":false,"is_disabled":false,"rental_uris":{"android":"levelo://app?vid=2df211f7-d22e-4f3f-a09d-701f0f089e4c","ios":"levelo://app?vid=2df211f7-d22e-4f3f-a09d-701f0f089e4c"},"vehicle_type_id":"4","last_reported":1682312804,"current_range_meters":0,"station_id":"ce4bhr92rcd13ifvqhrg","pricing_plan_id":"free"},{"bike_id":"33722839-6a53-443e-9a73-e5cc9b3a44ce","system_id":"levelo_inurba_marseille","lat":43.33034,"lon":5.38926,"is_reserved":false,"is_disabled":false,"rental_uris":{"android":"levelo://app?vid=33722839-6a53-443e-9a73-e5cc9b3a44ce","ios":"levelo://app?vid=33722839-6a53-443e-9a73-e5cc9b3a44ce"},"vehicle_type_id":"4","last_reported":1682312804,"current_range_meters":31200,"station_id":"ce4bhr92rcd13ifvqhrg","pricing_plan_id":"free"},{"bike_id":"7c63fd15-42d2-433e-9414-21cada8b87b0","system_id":"levelo_inurba_marseille","lat":43.33041,"lon":5.38918,"is_reserved":false,"is_disabled":false,"rental_uris":{"android":"levelo://app?vid=7c63fd15-42d2-433e-9414-21cada8b87b0","ios":"levelo://app?vid=7c63fd15-42d2-433e-9414-21cada8b87b0"},"vehicle_type_id":"4","last_reported":1682312804,"current_range_meters":30400,"station_id":"ce4bhr92rcd13ifvqhrg","pricing_plan_id":"free"},{"bike_id":"62920b51-913f-48fd-9dc7-bb6d9ea5ff54","system_id":"levelo_inurba_marseille","lat":43.33041,"lon":5.38919,"is_reserved":false,"is_disabled":false,"rental_uris":{"android":"levelo://app?vid=62920b51-913f-48fd-9dc7-bb6d9ea5ff54","ios":"levelo://app?vid=62920b51-913f-48fd-9dc7-bb6d9ea5ff54"},"vehicle_type_id":"4","last_reported":1682312804,"current_range_meters":31200,"station_id":"ce4bhr92rcd13ifvqhrg","pricing_plan_id":"free"},{"bike_id":"ef5bdc27-8dc3-40e7-90e3-6c39017dadb6","system_id":"levelo_inurba_marseille","lat":43.33041,"lon":5.38919,"is_reserved":false,"is_disabled":false,"rental_uris":{"android":"levelo://app?vid=ef5bdc27-8dc3-40e7-90e3-6c39017dadb6","ios":"levelo://app?vid=ef5bdc27-8dc3-40e7-90e3-6c39017dadb6"},"vehicle_type_id":"4","last_reported":1682312804,"current_range_meters":14400,"station_id":"ce4bhr92rcd13ifvqhrg","pricing_plan_id":"free"},{"bike_id":"6c29e414-5565-4d7a-91b1-9898e30f3de9","system_id":"levelo_inurba_marseille","lat":43.3304,"lon":5.38922,"is_reserved":false,"is_disabled":false,"rental_uris":{"android":"levelo://app?vid=6c29e414-5565-4d7a-91b1-9898e30f3de9","ios":"levelo://app?vid=6c29e414-5565-4d7a-91b1-9898e30f3de9"},"vehicle_type_id":"4","last_reported":1682312804,"current_range_meters":18400,"station_id":"ce4bhr92rcd13ifvqhrg","pricing_plan_id":"free"},{"bike_id":"e9366c90-dd9a-4814-84be-ec46dc025363","system_id":"levelo_inurba_marseille","lat":43.33044,"lon":5.38916,"is_reserved":false,"is_disabled":false,"rental_uris":{"android":"levelo://app?vid=e9366c90-dd9a-4814-84be-ec46dc025363","ios":"levelo://app?vid=e9366c90-dd9a-4814-84be-ec46dc025363"},"vehicle_type_id":"4","last_reported":1682312804,"current_range_meters":20400,"station_id":"ce4bhr92rcd13ifvqhrg","pricing_plan_id":"free"},{"bike_id":"152a61d3-27a6-468c-9991-43bbeba88927","system_id":"levelo_inurba_marseille","lat":43.29005,"lon":5.35615,"is_reserved":false,"is_disabled":false,"rental_uris":{"android":"levelo://app?vid=152a61d3-27a6-468c-9991-43bbeba88927","ios":"levelo://app?vid=152a61d3-27a6-468c-9991-43bbeba88927"},"vehicle_type_id":"4","last_reported":1682312804,"current_range_meters":0,"station_id":"ce4bhb92rcd13ifvqen0","pricing_plan_id":"free"},{"bike_id":"14aa728b-3ba9-473d-9479-495ddc53154b","system_id":"levelo_inurba_marseille","lat":43.290995,"lon":5.381361,"is_reserved":false,"is_disabled":false,"rental_uris":{"android":"levelo://app?vid=14aa728b-3ba9-473d-9479-495ddc53154b","ios":"levelo://app?vid=14aa728b-3ba9-473d-9479-495ddc53154b"},"vehicle_type_id":"4","last_reported":1682312804,"current_range_meters":0,"station_id":"ce4bh512rcd13ifvqe2g","pricing_plan_id":"free"},{"bike_id":"5c8ec7b6-ed71-4da4-bc1d-4f2224113eee","system_id":"levelo_inurba_marseille","lat":43.290995,"lon":5.381361,"is_reserved":false,"is_disabled":false,"rental_uris":{"android":"levelo://app?vid=5c8ec7b6-ed71-4da4-bc1d-4f2224113eee","ios":"levelo://app?vid=5c8ec7b6-ed71-4da4-bc1d-4f2224113eee"},"vehicle_type_id":"4","last_reported":1682312804,"current_range_meters":14000,"station_id":"ce4bh512rcd13ifvqe2g","pricing_plan_id":"free"},{"bike_id":"c03a27b4-1603-4046-a07f-eb5051874206","system_id":"levelo_inurba_marseille","lat":43.289743,"lon":5.378304,"is_reserved":false,"is_disabled":false,"rental_uris":{"android":"levelo://app?vid=c03a27b4-1603-4046-a07f-eb5051874206","ios":"levelo://app?vid=c03a27b4-1603-4046-a07f-eb5051874206"},"vehicle_type_id":"4","last_reported":1682312804,"current_range_meters":26000,"station_id":"ce4bh9p2rcd13ifvqed0","pricing_plan_id":"free"},{"bike_id":"8f3342f7-ef28-4cb0-abdb-84cde528148a","system_id":"levelo_inurba_marseille","lat":43.30513,"lon":5.39897,"is_reserved":false,"is_disabled":false,"rental_uris":{"android":"levelo://app?vid=8f3342f7-ef28-4cb0-abdb-84cde528148a","ios":"levelo://app?vid=8f3342f7-ef28-4cb0-abdb-84cde528148a"},"vehicle_type_id":"4","last_reported":1682312804,"current_range_meters":24800,"station_id":"","pricing_plan_id":"free"},{"bike_id":"ac6dbce5-f5c6-46ba-9b7a-c0ce5c4187b9","system_id":"levelo_inurba_marseille","lat":43.29024,"lon":5.38144,"is_reserved":false,"is_disabled":false,"rental_uris":{"android":"levelo://app?vid=ac6dbce5-f5c6-46ba-9b7a-c0ce5c4187b9","ios":"levelo://app?vid=ac6dbce5-f5c6-46ba-9b7a-c0ce5c4187b9"},"vehicle_type_id":"4","last_reported":1682312804,"current_range_meters":0,"station_id":"ce4bh4p2rcd13ifvqe1g","pricing_plan_id":"free"},{"bike_id":"ee667816-a8bd-4cea-b565-e1e465e36c62","system_id":"levelo_inurba_marseille","lat":43.290094,"lon":5.381264,"is_reserved":false,"is_disabled":false,"rental_uris":{"android":"levelo://app?vid=ee667816-a8bd-4cea-b565-e1e465e36c62","ios":"levelo://app?vid=ee667816-a8bd-4cea-b565-e1e465e36c62"},"vehicle_type_id":"4","last_reported":1682312804,"current_range_meters":28800,"station_id":"ce4bh4p2rcd13ifvqe1g","pricing_plan_id":"free"},{"bike_id":"1f94c161-d3b6-498e-bb3e-609dd67be584","system_id":"levelo_inurba_marseille","lat":43.28856,"lon":5.358371,"is_reserved":false,"is_disabled":false,"rental_uris":{"android":"levelo://app?vid=1f94c161-d3b6-498e-bb3e-609dd67be584","ios":"levelo://app?vid=1f94c161-d3b6-498e-bb3e-609dd67be584"},"vehicle_type_id":"4","last_reported":1682312804,"current_range_meters":29200,"station_id":"ce4bhb12rcd13ifvqem0","pricing_plan_id":"free"},{"bike_id":"a77e0e45-c6ef-4b16-84b8-df5f6e2b0bfc","system_id":"levelo_inurba_marseille","lat":43.28856,"lon":5.358371,"is_reserved":false,"is_disabled":false,"rental_uris":{"android":"levelo://app?vid=a77e0e45-c6ef-4b16-84b8-df5f6e2b0bfc","ios":"levelo://app?vid=a77e0e45-c6ef-4b16-84b8-df5f6e2b0bfc"},"vehicle_type_id":"4","last_reported":1682312804,"current_range_meters":26800,"station_id":"ce4bhb12rcd13ifvqem0","pricing_plan_id":"free"},{"bike_id":"19af556d-15df-4104-9c00-5e7095a2ea38","system_id":"levelo_inurba_marseille","lat":43.28856,"lon":5.358371,"is_reserved":false,"is_disabled":false,"rental_uris":{"android":"levelo://app?vid=19af556d-15df-4104-9c00-5e7095a2ea38","ios":"levelo://app?vid=19af556d-15df-4104-9c00-5e7095a2ea38"},"vehicle_type_id":"4","last_reported":1682312804,"current_range_meters":28400,"station_id":"ce4bhb12rcd13ifvqem0","pricing_plan_id":"free"},{"bike_id":"87c9531a-2f0a-4a46-8b78-48565f2cf299","system_id":"levelo_inurba_marseille","lat":43.30638,"lon":5.4007,"is_reserved":false,"is_disabled":false,"rental_uris":{"android":"levelo://app?vid=87c9531a-2f0a-4a46-8b78-48565f2cf299","ios":"levelo://app?vid=87c9531a-2f0a-4a46-8b78-48565f2cf299"},"vehicle_type_id":"4","last_reported":1682312804,"current_range_meters":13600,"station_id":"ce4bh112rcd13ifvqda0","pricing_plan_id":"free"},{"bike_id":"3cc6199f-8fae-43f4-b0b4-f0f6eef71102","system_id":"levelo_inurba_marseille","lat":43.3064,"lon":5.40074,"is_reserved":false,"is_disabled":false,"rental_uris":{"android":"levelo://app?vid=3cc6199f-8fae-43f4-b0b4-f0f6eef71102","ios":"levelo://app?vid=3cc6199f-8fae-43f4-b0b4-f0f6eef71102"},"vehicle_type_id":"4","last_reported":1682312804,"current_range_meters":31200,"station_id":"ce4bh112rcd13ifvqda0","pricing_plan_id":"free"},{"bike_id":"a8a788cf-01cb-4e9c-a1e2-29a1bc8105cb","system_id":"levelo_inurba_marseille","lat":43.30639,"lon":5.40074,"is_reserved":false,"is_disabled":false,"rental_uris":{"android":"levelo://app?vid=a8a788cf-01cb-4e9c-a1e2-29a1bc8105cb","ios":"levelo://app?vid=a8a788cf-01cb-4e9c-a1e2-29a1bc8105cb"},"vehicle_type_id":"4","last_reported":1682312804,"current_range_meters":28800,"station_id":"ce4bh112rcd13ifvqda0","pricing_plan_id":"free"},{"bike_id":"fa9f8966-ed2f-448f-9cf0-cc6ba1faadba","system_id":"levelo_inurba_marseille","lat":43.30633,"lon":5.40075,"is_reserved":false,"is_disabled":false,"rental_uris":{"android":"levelo://app?vid=fa9f8966-ed2f-448f-9cf0-cc6ba1faadba","ios":"levelo://app?vid=fa9f8966-ed2f-448f-9cf0-cc6ba1faadba"},"vehicle_type_id":"4","last_reported":1682312804,"current_range_meters":4000,"station_id":"ce4bh112rcd13ifvqda0","pricing_plan_id":"free"},{"bike_id":"1f44f9b6-7fc8-4c57-b801-05963730d52a","system_id":"levelo_inurba_marseille","lat":43.30642,"lon":5.401031,"is_reserved":false,"is_disabled":false,"rental_uris":{"android":"levelo://app?vid=1f44f9b6-7fc8-4c57-b801-05963730d52a","ios":"levelo://app?vid=1f44f9b6-7fc8-4c57-b801-05963730d52a"},"vehicle_type_id":"4","last_reported":1682312804,"current_range_meters":5200,"station_id":"ce4bh112rcd13ifvqda0","pricing_plan_id":"free"},{"bike_id":"88de9049-7e2d-4ae9-93e3-49202578a63b","system_id":"levelo_inurba_marseille","lat":43.30654,"lon":5.40089,"is_reserved":false,"is_disabled":false,"rental_uris":{"android":"levelo://app?vid=88de9049-7e2d-4ae9-93e3-49202578a63b","ios":"levelo://app?vid=88de9049-7e2d-4ae9-93e3-49202578a63b"},"vehicle_type_id":"4","last_reported":1682312804,"current_range_meters":9600,"station_id":"ce4bh112rcd13ifvqda0","pricing_plan_id":"free"},{"bike_id":"3cd8cb13-3230-41f8-91bf-cf63ada4973a","system_id":"levelo_inurba_marseille","lat":43.30642,"lon":5.401031,"is_reserved":false,"is_disabled":false,"rental_uris":{"android":"levelo://app?vid=3cd8cb13-3230-41f8-91bf-cf63ada4973a","ios":"levelo://app?vid=3cd8cb13-3230-41f8-91bf-cf63ada4973a"},"vehicle_type_id":"4","last_reported":1682312804,"current_range_meters":0,"station_id":"ce4bh112rcd13ifvqda0","pricing_plan_id":"free"},{"bike_id":"9a2c80b1-042d-4667-afea-99bed233480a","system_id":"levelo_inurba_marseille","lat":43.30634,"lon":5.40086,"is_reserved":false,"is_disabled":false,"rental_uris":{"android":"levelo://app?vid=9a2c80b1-042d-4667-afea-99bed233480a","ios":"levelo://app?vid=9a2c80b1-042d-4667-afea-99bed233480a"},"vehicle_type_id":"4","last_reported":1682312804,"current_range_meters":4400,"station_id":"ce4bh112rcd13ifvqda0","pricing_plan_id":"free"},{"bike_id":"f7f63c4c-97c8-4544-8958-da7feb5b8363","system_id":"levelo_inurba_marseille","lat":43.30643,"lon":5.40095,"is_reserved":false,"is_disabled":false,"rental_uris":{"android":"levelo://app?vid=f7f63c4c-97c8-4544-8958-da7feb5b8363","ios":"levelo://app?vid=f7f63c4c-97c8-4544-8958-da7feb5b8363"},"vehicle_type_id":"4","last_reported":1682312804,"current_range_meters":0,"station_id":"ce4bh112rcd13ifvqda0","pricing_plan_id":"free"},{"bike_id":"b107789d-b082-4171-adf8-d11884ee4d9d","system_id":"levelo_inurba_marseille","lat":43.301117,"lon":5.398795,"is_reserved":false,"is_disabled":false,"rental_uris":{"android":"levelo://app?vid=b107789d-b082-4171-adf8-d11884ee4d9d","ios":"levelo://app?vid=b107789d-b082-4171-adf8-d11884ee4d9d"},"vehicle_type_id":"4","last_reported":1682312804,"current_range_meters":31600,"station_id":"ce4bh0h2rcd13ifvqd40","pricing_plan_id":"free"},{"bike_id":"7f6c87d0-b9c2-4fb2-a74c-7987d0f864c0","system_id":"levelo_inurba_marseille","lat":43.298681,"lon":5.397225,"is_reserved":false,"is_disabled":false,"rental_uris":{"android":"levelo://app?vid=7f6c87d0-b9c2-4fb2-a74c-7987d0f864c0","ios":"levelo://app?vid=7f6c87d0-b9c2-4fb2-a74c-7987d0f864c0"},"vehicle_type_id":"4","last_reported":1682312804,"current_range_meters":31200,"station_id":"ce4bh0h2rcd13ifvqd50","pricing_plan_id":"free"},{"bike_id":"8db0fdbf-cb4a-46c1-8763-92853f1f53e7","system_id":"levelo_inurba_marseille","lat":43.298681,"lon":5.397225,"is_reserved":false,"is_disabled":false,"rental_uris":{"android":"levelo://app?vid=8db0fdbf-cb4a-46c1-8763-92853f1f53e7","ios":"levelo://app?vid=8db0fdbf-cb4a-46c1-8763-92853f1f53e7"},"vehicle_type_id":"4","last_reported":1682312804,"current_range_meters":1600,"station_id":"ce4bh0h2rcd13ifvqd50","pricing_plan_id":"free"},{"bike_id":"67c97f90-a93e-4844-b0b6-418dfc69c15b","system_id":"levelo_inurba_marseille","lat":43.298681,"lon":5.397225,"is_reserved":false,"is_disabled":false,"rental_uris":{"android":"levelo://app?vid=67c97f90-a93e-4844-b0b6-418dfc69c15b","ios":"levelo://app?vid=67c97f90-a93e-4844-b0b6-418dfc69c15b"},"vehicle_type_id":"4","last_reported":1682312804,"current_range_meters":30400,"station_id":"ce4bh0h2rcd13ifvqd50","pricing_plan_id":"free"},{"bike_id":"b349ad68-540e-4b80-b470-6ba682d91b94","system_id":"levelo_inurba_marseille","lat":43.298681,"lon":5.397225,"is_reserved":false,"is_disabled":false,"rental_uris":{"android":"levelo://app?vid=b349ad68-540e-4b80-b470-6ba682d91b94","ios":"levelo://app?vid=b349ad68-540e-4b80-b470-6ba682d91b94"},"vehicle_type_id":"4","last_reported":1682312804,"current_range_meters":17600,"station_id":"ce4bh0h2rcd13ifvqd50","pricing_plan_id":"free"},{"bike_id":"b5cc1503-95cf-489c-9efe-d8f372b21ec9","system_id":"levelo_inurba_marseille","lat":43.298681,"lon":5.397225,"is_reserved":false,"is_disabled":false,"rental_uris":{"android":"levelo://app?vid=b5cc1503-95cf-489c-9efe-d8f372b21ec9","ios":"levelo://app?vid=b5cc1503-95cf-489c-9efe-d8f372b21ec9"},"vehicle_type_id":"4","last_reported":1682312804,"current_range_meters":11600,"station_id":"ce4bh0h2rcd13ifvqd50","pricing_plan_id":"free"},{"bike_id":"a7b04f1c-0192-4fe8-823b-46ad2e673f70","system_id":"levelo_inurba_marseille","lat":43.298681,"lon":5.397225,"is_reserved":false,"is_disabled":false,"rental_uris":{"android":"levelo://app?vid=a7b04f1c-0192-4fe8-823b-46ad2e673f70","ios":"levelo://app?vid=a7b04f1c-0192-4fe8-823b-46ad2e673f70"},"vehicle_type_id":"4","last_reported":1682312804,"current_range_meters":1600,"station_id":"ce4bh0h2rcd13ifvqd50","pricing_plan_id":"free"},{"bike_id":"d55fcbd7-68b3-4b5b-bb32-63ad14a03d3b","system_id":"levelo_inurba_marseille","lat":43.298681,"lon":5.397225,"is_reserved":false,"is_disabled":false,"rental_uris":{"android":"levelo://app?vid=d55fcbd7-68b3-4b5b-bb32-63ad14a03d3b","ios":"levelo://app?vid=d55fcbd7-68b3-4b5b-bb32-63ad14a03d3b"},"vehicle_type_id":"4","last_reported":1682312804,"current_range_meters":22000,"station_id":"ce4bh0h2rcd13ifvqd50","pricing_plan_id":"free"},{"bike_id":"33adc94d-7ddb-41da-89e8-7e8555259fd0","system_id":"levelo_inurba_marseille","lat":43.286591,"lon":5.363346,"is_reserved":false,"is_disabled":false,"rental_uris":{"android":"levelo://app?vid=33adc94d-7ddb-41da-89e8-7e8555259fd0","ios":"levelo://app?vid=33adc94d-7ddb-41da-89e8-7e8555259fd0"},"vehicle_type_id":"4","last_reported":1682312804,"current_range_meters":3600,"station_id":"ce4bhah2rcd13ifvqej0","pricing_plan_id":"free"},{"bike_id":"03859845-5c3a-419d-9ab0-1aa481d818f1","system_id":"levelo_inurba_marseille","lat":43.298681,"lon":5.397225,"is_reserved":false,"is_disabled":false,"rental_uris":{"android":"levelo://app?vid=03859845-5c3a-419d-9ab0-1aa481d818f1","ios":"levelo://app?vid=03859845-5c3a-419d-9ab0-1aa481d818f1"},"vehicle_type_id":"4","last_reported":1682312804,"current_range_meters":0,"station_id":"ce4bh0h2rcd13ifvqd50","pricing_plan_id":"free"},{"bike_id":"02bf1d85-9b98-40b8-a9d2-bdb1981b0a5a","system_id":"levelo_inurba_marseille","lat":43.298681,"lon":5.397225,"is_reserved":false,"is_disabled":false,"rental_uris":{"android":"levelo://app?vid=02bf1d85-9b98-40b8-a9d2-bdb1981b0a5a","ios":"levelo://app?vid=02bf1d85-9b98-40b8-a9d2-bdb1981b0a5a"},"vehicle_type_id":"4","last_reported":1682312804,"current_range_meters":31200,"station_id":"ce4bh0h2rcd13ifvqd50","pricing_plan_id":"free"},{"bike_id":"1c8b45ef-af2b-4c73-8386-e5ef8cd90899","system_id":"levelo_inurba_marseille","lat":43.298681,"lon":5.397225,"is_reserved":false,"is_disabled":false,"rental_uris":{"android":"levelo://app?vid=1c8b45ef-af2b-4c73-8386-e5ef8cd90899","ios":"levelo://app?vid=1c8b45ef-af2b-4c73-8386-e5ef8cd90899"},"vehicle_type_id":"4","last_reported":1682312804,"current_range_meters":31600,"station_id":"ce4bh0h2rcd13ifvqd50","pricing_plan_id":"free"},{"bike_id":"9c912ac3-34fc-4a98-9034-48278ca63349","system_id":"levelo_inurba_marseille","lat":43.295196,"lon":5.39397,"is_reserved":false,"is_disabled":false,"rental_uris":{"android":"levelo://app?vid=9c912ac3-34fc-4a98-9034-48278ca63349","ios":"levelo://app?vid=9c912ac3-34fc-4a98-9034-48278ca63349"},"vehicle_type_id":"4","last_reported":1682312804,"current_range_meters":30000,"station_id":"ce4bh292rcd13ifvqdf0","pricing_plan_id":"free"},{"bike_id":"1f0d171b-b2a8-488c-bb69-41894f1e5c08","system_id":"levelo_inurba_marseille","lat":43.29518,"lon":5.39403,"is_reserved":false,"is_disabled":false,"rental_uris":{"android":"levelo://app?vid=1f0d171b-b2a8-488c-bb69-41894f1e5c08","ios":"levelo://app?vid=1f0d171b-b2a8-488c-bb69-41894f1e5c08"},"vehicle_type_id":"4","last_reported":1682312804,"current_range_meters":8400,"station_id":"ce4bh292rcd13ifvqdf0","pricing_plan_id":"free"},{"bike_id":"480d12c3-b172-42da-b62a-b90aa1da70f4","system_id":"levelo_inurba_marseille","lat":43.295196,"lon":5.39397,"is_reserved":false,"is_disabled":false,"rental_uris":{"android":"levelo://app?vid=480d12c3-b172-42da-b62a-b90aa1da70f4","ios":"levelo://app?vid=480d12c3-b172-42da-b62a-b90aa1da70f4"},"vehicle_type_id":"4","last_reported":1682312804,"current_range_meters":31600,"station_id":"ce4bh292rcd13ifvqdf0","pricing_plan_id":"free"},{"bike_id":"673dce35-baee-4d64-ba68-2c2b9463d33b","system_id":"levelo_inurba_marseille","lat":43.302759,"lon":5.400793,"is_reserved":false,"is_disabled":false,"rental_uris":{"android":"levelo://app?vid=673dce35-baee-4d64-ba68-2c2b9463d33b","ios":"levelo://app?vid=673dce35-baee-4d64-ba68-2c2b9463d33b"},"vehicle_type_id":"4","last_reported":1682312804,"current_range_meters":31600,"station_id":"ce4bgvh2rcd13ifvqcs0","pricing_plan_id":"free"},{"bike_id":"dc493822-a257-45a0-8feb-b33e3d73675f","system_id":"levelo_inurba_marseille","lat":43.295194,"lon":5.39397,"is_reserved":false,"is_disabled":false,"rental_uris":{"android":"levelo://app?vid=dc493822-a257-45a0-8feb-b33e3d73675f","ios":"levelo://app?vid=dc493822-a257-45a0-8feb-b33e3d73675f"},"vehicle_type_id":"4","last_reported":1682312804,"current_range_meters":6800,"station_id":"ce4bh292rcd13ifvqdf0","pricing_plan_id":"free"},{"bike_id":"53ba91e5-fc18-4929-bb31-10b5c17fb98e","system_id":"levelo_inurba_marseille","lat":43.302759,"lon":5.400793,"is_reserved":false,"is_disabled":false,"rental_uris":{"android":"levelo://app?vid=53ba91e5-fc18-4929-bb31-10b5c17fb98e","ios":"levelo://app?vid=53ba91e5-fc18-4929-bb31-10b5c17fb98e"},"vehicle_type_id":"4","last_reported":1682312804,"current_range_meters":30000,"station_id":"ce4bgvh2rcd13ifvqcs0","pricing_plan_id":"free"},{"bike_id":"e86c08f3-d9a0-4a13-90cd-a4aa9cd09109","system_id":"levelo_inurba_marseille","lat":43.29572,"lon":5.39503,"is_reserved":false,"is_disabled":false,"rental_uris":{"android":"levelo://app?vid=e86c08f3-d9a0-4a13-90cd-a4aa9cd09109","ios":"levelo://app?vid=e86c08f3-d9a0-4a13-90cd-a4aa9cd09109"},"vehicle_type_id":"4","last_reported":1682312804,"current_range_meters":0,"station_id":"","pricing_plan_id":"free"},{"bike_id":"901d599f-0176-4028-b4cf-719fe8befea4","system_id":"levelo_inurba_marseille","lat":43.302759,"lon":5.400793,"is_reserved":false,"is_disabled":false,"rental_uris":{"android":"levelo://app?vid=901d599f-0176-4028-b4cf-719fe8befea4","ios":"levelo://app?vid=901d599f-0176-4028-b4cf-719fe8befea4"},"vehicle_type_id":"4","last_reported":1682312804,"current_range_meters":30400,"station_id":"ce4bgvh2rcd13ifvqcs0","pricing_plan_id":"free"},{"bike_id":"822e94a0-aaf8-45f2-b041-f9f9fe00b021","system_id":"levelo_inurba_marseille","lat":43.302759,"lon":5.400793,"is_reserved":false,"is_disabled":false,"rental_uris":{"android":"levelo://app?vid=822e94a0-aaf8-45f2-b041-f9f9fe00b021","ios":"levelo://app?vid=822e94a0-aaf8-45f2-b041-f9f9fe00b021"},"vehicle_type_id":"4","last_reported":1682312804,"current_range_meters":31200,"station_id":"ce4bgvh2rcd13ifvqcs0","pricing_plan_id":"free"},{"bike_id":"e3c67437-1e62-4be2-b395-ebc83b72eb6c","system_id":"levelo_inurba_marseille","lat":43.286039,"lon":5.370679,"is_reserved":false,"is_disabled":false,"rental_uris":{"android":"levelo://app?vid=e3c67437-1e62-4be2-b395-ebc83b72eb6c","ios":"levelo://app?vid=e3c67437-1e62-4be2-b395-ebc83b72eb6c"},"vehicle_type_id":"4","last_reported":1682312804,"current_range_meters":31200,"station_id":"ce4bht12rcd13ifvqi60","pricing_plan_id":"free"},{"bike_id":"ad71066c-254c-42f7-860d-db53b98d281b","system_id":"levelo_inurba_marseille","lat":43.28613,"lon":5.37065,"is_reserved":false,"is_disabled":false,"rental_uris":{"android":"levelo://app?vid=ad71066c-254c-42f7-860d-db53b98d281b","ios":"levelo://app?vid=ad71066c-254c-42f7-860d-db53b98d281b"},"vehicle_type_id":"4","last_reported":1682312804,"current_range_meters":3600,"station_id":"ce4bht12rcd13ifvqi60","pricing_plan_id":"free"},{"bike_id":"d2a38e27-e9e4-4901-ac17-40e154b73137","system_id":"levelo_inurba_marseille","lat":43.286039,"lon":5.370679,"is_reserved":false,"is_disabled":false,"rental_uris":{"android":"levelo://app?vid=d2a38e27-e9e4-4901-ac17-40e154b73137","ios":"levelo://app?vid=d2a38e27-e9e4-4901-ac17-40e154b73137"},"vehicle_type_id":"4","last_reported":1682312804,"current_range_meters":31600,"station_id":"ce4bht12rcd13ifvqi60","pricing_plan_id":"free"},{"bike_id":"4c5e60d7-de19-4591-99a8-614e3b163789","system_id":"levelo_inurba_marseille","lat":43.28609,"lon":5.37062,"is_reserved":false,"is_disabled":false,"rental_uris":{"android":"levelo://app?vid=4c5e60d7-de19-4591-99a8-614e3b163789","ios":"levelo://app?vid=4c5e60d7-de19-4591-99a8-614e3b163789"},"vehicle_type_id":"4","last_reported":1682312804,"current_range_meters":5600,"station_id":"ce4bht12rcd13ifvqi60","pricing_plan_id":"free"},{"bike_id":"717bc5a2-0918-40da-ae71-520c5decadac","system_id":"levelo_inurba_marseille","lat":43.286039,"lon":5.370679,"is_reserved":false,"is_disabled":false,"rental_uris":{"android":"levelo://app?vid=717bc5a2-0918-40da-ae71-520c5decadac","ios":"levelo://app?vid=717bc5a2-0918-40da-ae71-520c5decadac"},"vehicle_type_id":"4","last_reported":1682312804,"current_range_meters":23600,"station_id":"ce4bht12rcd13ifvqi60","pricing_plan_id":"free"},{"bike_id":"c9dfe817-a554-47d1-9e27-c410fcc4a968","system_id":"levelo_inurba_marseille","lat":43.286039,"lon":5.370679,"is_reserved":false,"is_disabled":false,"rental_uris":{"android":"levelo://app?vid=c9dfe817-a554-47d1-9e27-c410fcc4a968","ios":"levelo://app?vid=c9dfe817-a554-47d1-9e27-c410fcc4a968"},"vehicle_type_id":"4","last_reported":1682312804,"current_range_meters":31200,"station_id":"ce4bht12rcd13ifvqi60","pricing_plan_id":"free"},{"bike_id":"b13bf3e4-6f91-49ad-a9fb-6e119a20a845","system_id":"levelo_inurba_marseille","lat":43.28603,"lon":5.37065,"is_reserved":false,"is_disabled":false,"rental_uris":{"android":"levelo://app?vid=b13bf3e4-6f91-49ad-a9fb-6e119a20a845","ios":"levelo://app?vid=b13bf3e4-6f91-49ad-a9fb-6e119a20a845"},"vehicle_type_id":"4","last_reported":1682312804,"current_range_meters":2000,"station_id":"ce4bht12rcd13ifvqi60","pricing_plan_id":"free"},{"bike_id":"6ec89a52-ffd4-4cbf-8105-7f6960223b25","system_id":"levelo_inurba_marseille","lat":43.287184,"lon":5.37937,"is_reserved":false,"is_disabled":false,"rental_uris":{"android":"levelo://app?vid=6ec89a52-ffd4-4cbf-8105-7f6960223b25","ios":"levelo://app?vid=6ec89a52-ffd4-4cbf-8105-7f6960223b25"},"vehicle_type_id":"4","last_reported":1682312804,"current_range_meters":31600,"station_id":"ce4bh9p2rcd13ifvqec0","pricing_plan_id":"free"},{"bike_id":"befa3f61-4b3d-40e6-8b87-7f1fb730c05d","system_id":"levelo_inurba_marseille","lat":43.287184,"lon":5.37937,"is_reserved":false,"is_disabled":false,"rental_uris":{"android":"levelo://app?vid=befa3f61-4b3d-40e6-8b87-7f1fb730c05d","ios":"levelo://app?vid=befa3f61-4b3d-40e6-8b87-7f1fb730c05d"},"vehicle_type_id":"4","last_reported":1682312804,"current_range_meters":31600,"station_id":"ce4bh9p2rcd13ifvqec0","pricing_plan_id":"free"},{"bike_id":"4c379c92-241a-40e8-a153-004d7675e472","system_id":"levelo_inurba_marseille","lat":43.287184,"lon":5.37937,"is_reserved":false,"is_disabled":false,"rental_uris":{"android":"levelo://app?vid=4c379c92-241a-40e8-a153-004d7675e472","ios":"levelo://app?vid=4c379c92-241a-40e8-a153-004d7675e472"},"vehicle_type_id":"4","last_reported":1682312804,"current_range_meters":30400,"station_id":"ce4bh9p2rcd13ifvqec0","pricing_plan_id":"free"},{"bike_id":"2edd24ff-4781-4feb-b74e-003778feb3a8","system_id":"levelo_inurba_marseille","lat":43.32948,"lon":5.39637,"is_reserved":false,"is_disabled":false,"rental_uris":{"android":"levelo://app?vid=2edd24ff-4781-4feb-b74e-003778feb3a8","ios":"levelo://app?vid=2edd24ff-4781-4feb-b74e-003778feb3a8"},"vehicle_type_id":"4","last_reported":1682312804,"current_range_meters":18000,"station_id":"","pricing_plan_id":"free"},{"bike_id":"c4a29cf5-b050-4a35-9937-d5ebfbddd78a","system_id":"levelo_inurba_marseille","lat":43.316517,"lon":5.404375,"is_reserved":false,"is_disabled":false,"rental_uris":{"android":"levelo://app?vid=c4a29cf5-b050-4a35-9937-d5ebfbddd78a","ios":"levelo://app?vid=c4a29cf5-b050-4a35-9937-d5ebfbddd78a"},"vehicle_type_id":"4","last_reported":1682312804,"current_range_meters":18400,"station_id":"ce4bh012rcd13ifvqd00","pricing_plan_id":"free"},{"bike_id":"9bc328c3-60b6-44d5-8333-abbcf22f5351","system_id":"levelo_inurba_marseille","lat":43.33102,"lon":5.39638,"is_reserved":false,"is_disabled":false,"rental_uris":{"android":"levelo://app?vid=9bc328c3-60b6-44d5-8333-abbcf22f5351","ios":"levelo://app?vid=9bc328c3-60b6-44d5-8333-abbcf22f5351"},"vehicle_type_id":"4","last_reported":1682312804,"current_range_meters":7200,"station_id":"","pricing_plan_id":"free"},{"bike_id":"8892c16d-ca3b-4605-88f8-3753bfb7fa73","system_id":"levelo_inurba_marseille","lat":43.29196,"lon":5.39314,"is_reserved":false,"is_disabled":false,"rental_uris":{"android":"levelo://app?vid=8892c16d-ca3b-4605-88f8-3753bfb7fa73","ios":"levelo://app?vid=8892c16d-ca3b-4605-88f8-3753bfb7fa73"},"vehicle_type_id":"4","last_reported":1682312804,"current_range_meters":17200,"station_id":"ce4bh192rcd13ifvqdd0","pricing_plan_id":"free"},