{"last_updated":1736331000,"ttl":60,"version":"2.2","data":{"bikes":[{"bike_id":"89421f62-06fd-4b68-bcb1-b94fd7ea6d26","system_id":"levelo_inurba_marseille","lat":43.32349,"lon":5.38912,"is_reserved":false,"is_disabled":false,"rental_uris":{"android":"levelo://app?vid=89421f62-06fd-4b68-bcb1-b94fd7ea6d26","ios":"levelo://app?vid=89421f62-06fd-4b68-bcb1-b94fd7ea6d26"},"vehicle_type_id":"4","last_reported":1736331000,"current_range_meters":18000,"station_id":"ce4bhqp2rcd13ifvqhog","pricing_plan_id":"cebpf4jnsgd1na2vs0mg"},{"bike_id":"fd95cfcd-a09f-4036-9fd0-9f821cea96a9","system_id":"levelo_inurba_marseille","lat":43.27811,"lon":5.40713,"is_reserved":false,"is_disabled":false,"rental_uris":{"android":"levelo://app?vid=fd95cfcd-a09f-4036-9fd0-9f821cea96a9","ios":"levelo://app?vid=fd95cfcd-a09f-4036-9fd0-9f821cea96a9"},"vehicle_type_id":"4","last_reported":1736331000,"current_range_meters":31200,"station_id":"ce4bhnh2rcd13ifvqgtg","pricing_plan_id":"cebpf4jnsgd1na2vs0mg"},{"bike_id":"19aa1d25-f781-496a-bbb9-147e19783b08","system_id":"levelo_inurba_marseille","lat":43.29548,"lon":5.42282,"is_reserved":false,"is_disabled":false,"rental_uris":{"android":"levelo://app?vid=19aa1d25-f781-496a-bbb9-147e19783b08","ios":"levelo://app?vid=19aa1d25-f781-496a-bbb9-147e19783b08"},"vehicle_type_id":"4","last_reported":1736331000,"current_range_meters":37600,"station_id":"ce4bhph2rcd13ifvqhdg","pricing_plan_id":"cebpf4jnsgd1na2vs0mg"},{"bike_id":"f086534f-8587-4544-b0b2-7ce9820777a1","system_id":"levelo_inurba_marseille","lat":43.29519,"lon":5.39057,"is_reserved":false,"is_disabled":false,"rental_uris":{"android":"levelo://app?vid=f086534f-8587-4544-b0b2-7ce9820777a1","ios":"levelo://app?vid=f086534f-8587-4544-b0b2-7ce9820777a1"},"vehicle_type_id":"4","last_reported":1736331000,"current_range_meters":8400,"station_id":"ce4bh3p2rcd13ifvqdp0","pricing_plan_id":"cebpf4jnsgd1na2vs0mg"},{"bike_id":"8fcb09d7-adbd-442f-8abe-4829f0288e18","system_id":"levelo_inurba_marseille","lat":43.23145,"lon":5.43725,"is_reserved":false,"is_disabled":false,"rental_uris":{"android":"levelo://app?vid=8fcb09d7-adbd-442f-8abe-4829f0288e18","ios":"levelo://app?vid=8fcb09d7-adbd-442f-8abe-4829f0288e18"},"vehicle_type_id":"4","last_reported":1736331000,"current_range_meters":7200,"station_id":"ce4bhmp2rcd13ifvqgog","pricing_plan_id":"cebpf4jnsgd1na2vs0mg"},{"bike_id":"cbb08560-dd28-41f8-bfe9-675b1b5cc4d9","system_id":"levelo_inurba_marseille","lat":43.26924,"lon":5.38622,"is_reserved":false,"is_disabled":false,"rental_uris":{"android":"levelo://app?vid=cbb08560-dd28-41f8-bfe9-675b1b5cc4d9","ios":"levelo://app?vid=cbb08560-dd28-41f8-bfe9-675b1b5cc4d9"},"vehicle_type_id":"4","last_reported":1736331000,"current_range_meters":19200,"station_id":"ce4bhh92rcd13ifvqfh0","pricing_plan_id":"cebpf4jnsgd1na2vs0mg"},{"bike_id":"f065f7d9-a8ce-4520-8997-39d76473d5d9","system_id":"levelo_inurba_marseille","lat":43.29581,"lon":5.37729,"is_reserved":false,"is_disabled":false,"rental_uris":{"android":"levelo://app?vid=f065f7d9-a8ce-4520-8997-39d76473d5d9","ios":"levelo://app?vid=f065f7d9-a8ce-4520-8997-39d76473d5d9"},"vehicle_type_id":"4","last_reported":1736331000,"current_range_meters":22800,"station_id":"","pricing_plan_id":"cebpf4jnsgd1na2vs0mg"},{"bike_id":"a289fb1b-5f21-48af-a806-ce60b8382da2","system_id":"levelo_inurba_marseille","lat":43.22914,"lon":5.35377,"is_reserved":false,"is_disabled":false,"rental_uris":{"android":"levelo://app?vid=a289fb1b-5f21-48af-a806-ce60b8382da2","ios":"levelo://app?vid=a289fb1b-5f21-48af-a806-ce60b8382da2"},"vehicle_type_id":"4","last_reported":1736331000,"current_range_meters":6400,"station_id":"cpo3532slgdg3j2ikp40","pricing_plan_id":"cebpf4jnsgd1na2vs0mg"},{"bike_id":"55d08fde-ac2b-4230-9985-be7440636dea","system_id":"levelo_inurba_marseille","lat":43.27488,"lon":5.42465,"is_reserved":false,"is_disabled":false,"rental_uris":{"android":"levelo://app?vid=55d08fde-ac2b-4230-9985-be7440636dea","ios":"levelo://app?vid=55d08fde-ac2b-4230-9985-be7440636dea"},"vehicle_type_id":"4","last_reported":1736331000,"current_range_meters":23200,"station_id":"ce4bhn92rcd13ifvqgrg","pricing_plan_id":"cebpf4jnsgd1na2vs0mg"},{"bike_id":"0c06f679-85b2-4f8b-8237-3c1bdba6d34d","system_id":"levelo_inurba_marseille","lat":43.27174,"lon":5.41006,"is_reserved":false,"is_disabled":false,"rental_uris":{"android":"levelo://app?vid=0c06f679-85b2-4f8b-8237-3c1bdba6d34d","ios":"levelo://app?vid=0c06f679-85b2-4f8b-8237-3c1bdba6d34d"},"vehicle_type_id":"4","last_reported":1736331000,"current_range_meters":38000,"station_id":"ce4bhl12rcd13ifvqgf0","pricing_plan_id":"cebpf4jnsgd1na2vs0mg"},{"bike_id":"4b29141b-4a03-4076-8d70-de5cc02e29f3","system_id":"levelo_inurba_marseille","lat":43.25825,"lon":5.39434,"is_reserved":false,"is_disabled":true,"rental_uris":{"android":"levelo://app?vid=4b29141b-4a03-4076-8d70-de5cc02e29f3","ios":"levelo://app?vid=4b29141b-4a03-4076-8d70-de5cc02e29f3"},"vehicle_type_id":"4","last_reported":1736331000,"current_range_meters":32800,"station_id":"ce4bhip2rcd13ifvqft0","pricing_plan_id":"cebpf4jnsgd1na2vs0mg"},{"bike_id":"59dc453e-d41e-4765-b184-ca351874bb8f","system_id":"levelo_inurba_marseille","lat":43.27063,"lon":5.40285,"is_reserved":false,"is_disabled":false,"rental_uris":{"android":"levelo://app?vid=59dc453e-d41e-4765-b184-ca351874bb8f","ios":"levelo://app?vid=59dc453e-d41e-4765-b184-ca351874bb8f"},"vehicle_type_id":"4","last_reported":1736331000,"current_range_meters":22800,"station_id":"ce4bhk92rcd13ifvqgc0","pricing_plan_id":"cebpf4jnsgd1na2vs0mg"},{"bike_id":"a66a0c9d-3e90-4e2f-a813-6ebdf1b8c770","system_id":"levelo_inurba_marseille","lat":43.33744,"lon":5.39215,"is_reserved":false,"is_disabled":false,"rental_uris":{"android":"levelo://app?vid=a66a0c9d-3e90-4e2f-a813-6ebdf1b8c770","ios":"levelo://app?vid=a66a0c9d-3e90-4e2f-a813-6ebdf1b8c770"},"vehicle_type_id":"4","last_reported":1736331000,"current_range_meters":36800,"station_id":"ce4bhr92rcd13ifvqhsg","pricing_plan_id":"cebpf4jnsgd1na2vs0mg"},{"bike_id":"deb9d35f-eef1-4545-ad5e-e86f1dd16f69","system_id":"levelo_inurba_marseille","lat":43.30278,"lon":5.37716,"is_reserved":false,"is_disabled":false,"rental_uris":{"android":"levelo://app?vid=deb9d35f-eef1-4545-ad5e-e86f1dd16f69","ios":"levelo://app?vid=deb9d35f-eef1-4545-ad5e-e86f1dd16f69"},"vehicle_type_id":"4","last_reported":1736331000,"current_range_meters":36800,"station_id":"ce4bguh2rcd13ifvqcj0","pricing_plan_id":"cebpf4jnsgd1na2vs0mg"},{"bike_id":"2e3020fc-739e-484f-aff1-968aa18f2ac1","system_id":"levelo_inurba_marseille","lat":43.27988,"lon":5.41663,"is_reserved":false,"is_disabled":true,"rental_uris":{"android":"levelo://app?vid=2e3020fc-739e-484f-aff1-968aa18f2ac1","ios":"levelo://app?vid=2e3020fc-739e-484f-aff1-968aa18f2ac1"},"vehicle_type_id":"4","last_reported":1736331000,"current_range_meters":30400,"station_id":"ce4bho12rcd13ifvqh1g","pricing_plan_id":"cebpf4jnsgd1na2vs0mg"},{"bike_id":"dcea8a0c-4dbb-4c3f-bce6-379c8a88a9c4","system_id":"levelo_inurba_marseille","lat":43.29607,"lon":5.40591,"is_reserved":false,"is_disabled":false,"rental_uris":{"android":"levelo://app?vid=dcea8a0c-4dbb-4c3f-bce6-379c8a88a9c4","ios":"levelo://app?vid=dcea8a0c-4dbb-4c3f-bce6-379c8a88a9c4"},"vehicle_type_id":"4","last_reported":1736331000,"current_range_meters":38800,"station_id":"ce4bh0h2rcd13ifvqd60","pricing_plan_id":"cebpf4jnsgd1na2vs0mg"},{"bike_id":"508712e8-c246-4ef4-9b9e-20f18ed4e9a4","system_id":"levelo_inurba_marseille","lat":43.2749,"lon":5.42466,"is_reserved":false,"is_disabled":false,"rental_uris":{"android":"levelo://app?vid=508712e8-c246-4ef4-9b9e-20f18ed4e9a4","ios":"levelo://app?vid=508712e8-c246-4ef4-9b9e-20f18ed4e9a4"},"vehicle_type_id":"4","last_reported":1736331000,"current_range_meters":16400,"station_id":"ce4bhn92rcd13ifvqgrg","pricing_plan_id":"cebpf4jnsgd1na2vs0mg"},{"bike_id":"6e031888-b11e-4c1e-840a-d82dae47ce46","system_id":"levelo_inurba_marseille","lat":43.30592,"lon":5.39355,"is_reserved":false,"is_disabled":false,"rental_uris":{"android":"levelo://app?vid=6e031888-b11e-4c1e-840a-d82dae47ce46","ios":"levelo://app?vid=6e031888-b11e-4c1e-840a-d82dae47ce46"},"vehicle_type_id":"4","last_reported":1736331000,"current_range_meters":38800,"station_id":"ce4bh0p2rcd13ifvqd80","pricing_plan_id":"cebpf4jnsgd1na2vs0mg"},{"bike_id":"54706f4d-3807-4316-80c4-c6c99386bb04","system_id":"levelo_inurba_marseille","lat":43.26679,"lon":5.3827,"is_reserved":false,"is_disabled":false,"rental_uris":{"android":"levelo://app?vid=54706f4d-3807-4316-80c4-c6c99386bb04","ios":"levelo://app?vid=54706f4d-3807-4316-80c4-c6c99386bb04"},"vehicle_type_id":"4","last_reported":1736331000,"current_range_meters":38400,"station_id":"ce4bhg92rcd13ifvqf90","pricing_plan_id":"cebpf4jnsgd1na2vs0mg"},{"bike_id":"cac6d88b-d7ac-46a8-bc8b-d11694250484","system_id":"levelo_inurba_marseille","lat":43.28354,"lon":5.38628,"is_reserved":false,"is_disabled":false,"rental_uris":{"android":"levelo://app?vid=cac6d88b-d7ac-46a8-bc8b-d11694250484","ios":"levelo://app?vid=cac6d88b-d7ac-46a8-bc8b-d11694250484"},"vehicle_type_id":"4","last_reported":1736331000,"current_range_meters":38400,"station_id":"ce4bh492rcd13ifvqdvg","pricing_plan_id":"cebpf4jnsgd1na2vs0mg"},{"bike_id":"8b7b03a4-76c0-429d-86c4-2cba528f75db","system_id":"levelo_inurba_marseille","lat":43.32365,"lon":5.38897,"is_reserved":false,"is_disabled":false,"rental_uris":{"android":"levelo://app?vid=8b7b03a4-76c0-429d-86c4-2cba528f75db","ios":"levelo://app?vid=8b7b03a4-76c0-429d-86c4-2cba528f75db"},"vehicle_type_id":"4","last_reported":1736331000,"current_range_meters":800,"station_id":"ce4bhqp2rcd13ifvqhog","pricing_plan_id":"cebpf4jnsgd1na2vs0mg"},{"bike_id":"d4e6248e-5526-47d5-86cf-f46afb735eb2","system_id":"levelo_inurba_marseille","lat":43.27494,"lon":5.42442,"is_reserved":false,"is_disabled":false,"rental_uris":{"android":"levelo://app?vid=d4e6248e-5526-47d5-86cf-f46afb735eb2","ios":"levelo://app?vid=d4e6248e-5526-47d5-86cf-f46afb735eb2"},"vehicle_type_id":"4","last_reported":1736331000,"current_range_meters":30000,"station_id":"ce4bhn92rcd13ifvqgrg","pricing_plan_id":"cebpf4jnsgd1na2vs0mg"},{"bike_id":"e1d67e76-e9ef-43a5-b307-2704c03519b0","system_id":"levelo_inurba_marseille","lat":43.28947,"lon":5.39708,"is_reserved":false,"is_disabled":false,"rental_uris":{"android":"levelo://app?vid=e1d67e76-e9ef-43a5-b307-2704c03519b0","ios":"levelo://app?vid=e1d67e76-e9ef-43a5-b307-2704c03519b0"},"vehicle_type_id":"4","last_reported":1736331000,"current_range_meters":17600,"station_id":"","pricing_plan_id":"cebpf4jnsgd1na2vs0mg"},{"bike_id":"3fd8c986-d393-40dd-a28c-67a9ff20b0ca","system_id":"levelo_inurba_marseille","lat":43.30275,"lon":5.37722,"is_reserved":false,"is_disabled":false,"rental_uris":{"android":"levelo://app?vid=3fd8c986-d393-40dd-a28c-67a9ff20b0ca","ios":"levelo://app?vid=3fd8c986-d393-40dd-a28c-67a9ff20b0ca"},"vehicle_type_id":"4","last_reported":1736331000,"current_range_meters":38800,"station_id":"ce4bguh2rcd13ifvqcj0","pricing_plan_id":"cebpf4jnsgd1na2vs0mg"},{"bike_id":"8d65b2b1-927b-45d9-8b22-6f75685ab908","system_id":"levelo_inurba_marseille","lat":43.23145,"lon":5.43737,"is_reserved":false,"is_disabled":false,"rental_uris":{"android":"levelo://app?vid=8d65b2b1-927b-45d9-8b22-6f75685ab908","ios":"levelo://app?vid=8d65b2b1-927b-45d9-8b22-6f75685ab908"},"vehicle_type_id":"4","last_reported":1736331000,"current_range_meters":38800,"station_id":"ce4bhmp2rcd13ifvqgog","pricing_plan_id":"cebpf4jnsgd1na2vs0mg"},{"bike_id":"5dee414e-c252-4db1-a57d-605e2fc00798","system_id":"levelo_inurba_marseille","lat":43.29173,"lon":5.3715,"is_reserved":false,"is_disabled":false,"rental_uris":{"android":"levelo://app?vid=5dee414e-c252-4db1-a57d-605e2fc00798","ios":"levelo://app?vid=5dee414e-c252-4db1-a57d-605e2fc00798"},"vehicle_type_id":"4","last_reported":1736331000,"current_range_meters":28800,"station_id":"ce4bha92rcd13ifvqeh0","pricing_plan_id":"cebpf4jnsgd1na2vs0mg"},{"bike_id":"b07d00a8-6032-4d59-abf5-d2c19c2da952","system_id":"levelo_inurba_marseille","lat":43.313518,"lon":5.367099,"is_reserved":false,"is_disabled":false,"rental_uris":{"android":"levelo://app?vid=b07d00a8-6032-4d59-abf5-d2c19c2da952","ios":"levelo://app?vid=b07d00a8-6032-4d59-abf5-d2c19c2da952"},"vehicle_type_id":"4","last_reported":1736331000,"current_range_meters":11200,"station_id":"ce4bgr92rcd13ifvqc6g","pricing_plan_id":"cebpf4jnsgd1na2vs0mg"},{"bike_id":"d9ac62af-9c37-49ff-a666-fbd1bf117e24","system_id":"levelo_inurba_marseille","lat":43.28349,"lon":5.381,"is_reserved":false,"is_disabled":false,"rental_uris":{"android":"levelo://app?vid=d9ac62af-9c37-49ff-a666-fbd1bf117e24","ios":"levelo://app?vid=d9ac62af-9c37-49ff-a666-fbd1bf117e24"},"vehicle_type_id":"4","last_reported":1736331000,"current_range_meters":26000,"station_id":"ce4bh412rcd13ifvqdr0","pricing_plan_id":"cebpf4jnsgd1na2vs0mg"},{"bike_id":"f8c4877a-beee-4798-92eb-04e9371f94d3","system_id":"levelo_inurba_marseille","lat":43.24397,"lon":5.37062,"is_reserved":false,"is_disabled":false,"rental_uris":{"android":"levelo://app?vid=f8c4877a-beee-4798-92eb-04e9371f94d3","ios":"levelo://app?vid=f8c4877a-beee-4798-92eb-04e9371f94d3"},"vehicle_type_id":"4","last_reported":1736331000,"current_range_meters":38800,"station_id":"ce4bhhh2rcd13ifvqfk0","pricing_plan_id":"cebpf4jnsgd1na2vs0mg"},{"bike_id":"5bde2dd3-e7be-47d5-aa2f-c2857939c399","system_id":"levelo_inurba_marseille","lat":43.24068,"lon":5.37761,"is_reserved":false,"is_disabled":false,"rental_uris":{"android":"levelo://app?vid=5bde2dd3-e7be-47d5-aa2f-c2857939c399","ios":"levelo://app?vid=5bde2dd3-e7be-47d5-aa2f-c2857939c399"},"vehicle_type_id":"4","last_reported":1736331000,"current_range_meters":16400,"station_id":"ce4bhnp2rcd13ifvqgvg","pricing_plan_id":"cebpf4jnsgd1na2vs0mg"},{"bike_id":"d201fd91-b116-47c6-b879-fa489756dca6","system_id":"levelo_inurba_marseille","lat":43.24067,"lon":5.37763,"is_reserved":false,"is_disabled":false,"rental_uris":{"android":"levelo://app?vid=d201fd91-b116-47c6-b879-fa489756dca6","ios":"levelo://app?vid=d201fd91-b116-47c6-b879-fa489756dca6"},"vehicle_type_id":"4","last_reported":1736331000,"current_range_meters":36800,"station_id":"ce4bhnp2rcd13ifvqgvg","pricing_plan_id":"cebpf4jnsgd1na2vs0mg"},{"bike_id":"f5477bd9-ae2b-4f4a-90d2-43e1d2905a20","system_id":"levelo_inurba_marseille","lat":43.28419,"lon":5.34995,"is_reserved":false,"is_disabled":false,"rental_uris":{"android":"levelo://app?vid=f5477bd9-ae2b-4f4a-90d2-43e1d2905a20","ios":"levelo://app?vid=f5477bd9-ae2b-4f4a-90d2-43e1d2905a20"},"vehicle_type_id":"4","last_reported":1736331000,"current_range_meters":19600,"station_id":"ce4bhbh2rcd13ifvqepg","pricing_plan_id":"cebpf4jnsgd1na2vs0mg"},{"bike_id":"3db76c14-10ba-44c7-9025-9f542d5d4924","system_id":"levelo_inurba_marseille","lat":43.29288,"lon":5.37446,"is_reserved":false,"is_disabled":false,"rental_uris":{"android":"levelo://app?vid=3db76c14-10ba-44c7-9025-9f542d5d4924","ios":"levelo://app?vid=3db76c14-10ba-44c7-9025-9f542d5d4924"},"vehicle_type_id":"4","last_reported":1736331000,"current_range_meters":38800,"station_id":"ce4bgi12rcd13ifvqb70","pricing_plan_id":"cebpf4jnsgd1na2vs0mg"},{"bike_id":"a25a9571-68eb-4f8c-b5c4-11cd6d79579e","system_id":"levelo_inurba_marseille","lat":43.23154,"lon":5.43729,"is_reserved":false,"is_disabled":false,"rental_uris":{"android":"levelo://app?vid=a25a9571-68eb-4f8c-b5c4-11cd6d79579e","ios":"levelo://app?vid=a25a9571-68eb-4f8c-b5c4-11cd6d79579e"},"vehicle_type_id":"4","last_reported":1736331000,"current_range_meters":33200,"station_id":"ce4bhmp2rcd13ifvqgog","pricing_plan_id":"cebpf4jnsgd1na2vs0mg"},{"bike_id":"de51a85f-03f3-4384-88ee-fd97bc417246","system_id":"levelo_inurba_marseille","lat":43.27418,"lon":5.39419,"is_reserved":false,"is_disabled":false,"rental_uris":{"android":"levelo://app?vid=de51a85f-03f3-4384-88ee-fd97bc417246","ios":"levelo://app?vid=de51a85f-03f3-4384-88ee-fd97bc417246"},"vehicle_type_id":"4","last_reported":1736331000,"current_range_meters":28800,"station_id":"ce4bhdp2rcd13ifvqf20","pricing_plan_id":"cebpf4jnsgd1na2vs0mg"},{"bike_id":"031c2797-021a-413d-9a4a-117028831830","system_id":"levelo_inurba_marseille","lat":43.28409,"lon":5.37511,"is_reserved":false,"is_disabled":true,"rental_uris":{"android":"levelo://app?vid=031c2797-021a-413d-9a4a-117028831830","ios":"levelo://app?vid=031c2797-021a-413d-9a4a-117028831830"},"vehicle_type_id":"4","last_reported":1736331000,"current_range_meters":0,"station_id":"ce4bh412rcd13ifvqds0","pricing_plan_id":"cebpf4jnsgd1na2vs0mg"},{"bike_id":"3e436db9-f423-4441-8ddd-f48e627696a4","system_id":"levelo_inurba_marseille","lat":43.30523,"lon":5.36539,"is_reserved":false,"is_disabled":false,"rental_uris":{"android":"levelo://app?vid=3e436db9-f423-4441-8ddd-f48e627696a4","ios":"levelo://app?vid=3e436db9-f423-4441-8ddd-f48e627696a4"},"vehicle_type_id":"4","last_reported":1736331000,"current_range_meters":35200,"station_id":"ce4bgs12rcd13ifvqcag","pricing_plan_id":"cebpf4jnsgd1na2vs0mg"},{"bike_id":"c736efc7-bdd4-4760-a57b-96851815e95f","system_id":"levelo_inurba_marseille","lat":43.26483,"lon":5.3955,"is_reserved":false,"is_disabled":false,"rental_uris":{"android":"levelo://app?vid=c736efc7-bdd4-4760-a57b-96851815e95f","ios":"levelo://app?vid=c736efc7-bdd4-4760-a57b-96851815e95f"},"vehicle_type_id":"4","last_reported":1736331000,"current_range_meters":38800,"station_id":"ce4bhi12rcd13ifvqfq0","pricing_plan_id":"cebpf4jnsgd1na2vs0mg"},{"bike_id":"a1ceaab5-cc98-4739-8fba-923512224dcf","system_id":"levelo_inurba_marseille","lat":43.23186,"lon":5.35553,"is_reserved":false,"is_disabled":false,"rental_uris":{"android":"levelo://app?vid=a1ceaab5-cc98-4739-8fba-923512224dcf","ios":"levelo://app?vid=a1ceaab5-cc98-4739-8fba-923512224dcf"},"vehicle_type_id":"4","last_reported":1736331000,"current_range_meters":38800,"station_id":"ce4bhu92rcd13ifvqi70","pricing_plan_id":"cebpf4jnsgd1na2vs0mg"},{"bike_id":"19a2e6e5-2826-4489-8e2c-76dfec5c26a1","system_id":"levelo_inurba_marseille","lat":43.29356,"lon":5.3784,"is_reserved":false,"is_disabled":false,"rental_uris":{"android":"levelo://app?vid=19a2e6e5-2826-4489-8e2c-76dfec5c26a1","ios":"levelo://app?vid=19a2e6e5-2826-4489-8e2c-76dfec5c26a1"},"vehicle_type_id":"4","last_reported":1736331000,"current_range_meters":39200,"station_id":"ce4bgjh2rcd13ifvqbf0","pricing_plan_id":"cebpf4jnsgd1na2vs0mg"},{"bike_id":"670aca15-a0b5-4e9b-9f94-4d512f324a68","system_id":"levelo_inurba_marseille","lat":43.29193,"lon":5.39323,"is_reserved":false,"is_disabled":true,"rental_uris":{"android":"levelo://app?vid=670aca15-a0b5-4e9b-9f94-4d512f324a68","ios":"levelo://app?vid=670aca15-a0b5-4e9b-9f94-4d512f324a68"},"vehicle_type_id":"4","last_reported":1736331000,"current_range_meters":4800,"station_id":"ce4bh192rcd13ifvqdd0","pricing_plan_id":"cebpf4jnsgd1na2vs0mg"},{"bike_id":"1bdf9ea7-9cda-433d-929f-366643850a3b","system_id":"levelo_inurba_marseille","lat":43.23149,"lon":5.43714,"is_reserved":false,"is_disabled":false,"rental_uris":{"android":"levelo://app?vid=1bdf9ea7-9cda-433d-929f-366643850a3b","ios":"levelo://app?vid=1bdf9ea7-9cda-433d-929f-366643850a3b"},"vehicle_type_id":"4","last_reported":1736331000,"current_range_meters":5600,"station_id":"ce4bhmp2rcd13ifvqgog","pricing_plan_id":"cebpf4jnsgd1na2vs0mg"},{"bike_id":"0d869571-702b-474e-9734-e51fa36b8db2","system_id":"levelo_inurba_marseille","lat":43.2918,"lon":5.39306,"is_reserved":false,"is_disabled":true,"rental_uris":{"android":"levelo://app?vid=0d869571-702b-474e-9734-e51fa36b8db2","ios":"levelo://app?vid=0d869571-702b-474e-9734-e51fa36b8db2"},"vehicle_type_id":"4","last_reported":1736331000,"current_range_meters":4000,"station_id":"ce4bh192rcd13ifvqdd0","pricing_plan_id":"cebpf4jnsgd1na2vs0mg"},{"bike_id":"aac094c1-81e5-48d7-8e08-ccb7b93aa5ea","system_id":"levelo_inurba_marseille","lat":43.29736,"lon":5.37687,"is_reserved":false,"is_disabled":false,"rental_uris":{"android":"levelo://app?vid=aac094c1-81e5-48d7-8e08-ccb7b93aa5ea","ios":"levelo://app?vid=aac094c1-81e5-48d7-8e08-ccb7b93aa5ea"},"vehicle_type_id":"4","last_reported":1736331000,"current_range_meters":38800,"station_id":"ce4bgkh2rcd13ifvqbl0","pricing_plan_id":"cebpf4jnsgd1na2vs0mg"},{"bike_id":"cde998b7-1b3f-4cde-973b-b40e33443723","system_id":"levelo_inurba_marseille","lat":43.29619,"lon":5.37152,"is_reserved":false,"is_disabled":false,"rental_uris":{"android":"levelo://app?vid=cde998b7-1b3f-4cde-973b-b40e33443723","ios":"levelo://app?vid=cde998b7-1b3f-4cde-973b-b40e33443723"},"vehicle_type_id":"4","last_reported":1736331000,"current_range_meters":28400,"station_id":"ce4bgnh2rcd13ifvqc0g","pricing_plan_id":"cebpf4jnsgd1na2vs0mg"},{"bike_id":"c276b730-5d31-4ec8-9c89-be9e0b19b00e","system_id":"levelo_inurba_marseille","lat":43.27971,"lon":5.38754,"is_reserved":false,"is_disabled":false,"rental_uris":{"android":"levelo://app?vid=c276b730-5d31-4ec8-9c89-be9e0b19b00e","ios":"levelo://app?vid=c276b730-5d31-4ec8-9c89-be9e0b19b00e"},"vehicle_type_id":"4","last_reported":1736331000,"current_range_meters":9600,"station_id":"ce4bhg12rcd13ifvqf80","pricing_plan_id":"cebpf4jnsgd1na2vs0mg"},{"bike_id":"f5ccc5f6-079e-40fb-8a2d-13909406ac83","system_id":"levelo_inurba_marseille","lat":43.269507,"lon":5.386211,"is_reserved":false,"is_disabled":false,"rental_uris":{"android":"levelo://app?vid=f5ccc5f6-079e-40fb-8a2d-13909406ac83","ios":"levelo://app?vid=f5ccc5f6-079e-40fb-8a2d-13909406ac83"},"vehicle_type_id":"4","last_reported":1736331000,"current_range_meters":20000,"station_id":"ce4bhh92rcd13ifvqfh0","pricing_plan_id":"cebpf4jnsgd1na2vs0mg"},{"bike_id":"89211829-6a20-497c-8e50-7e7d27e11d4c","system_id":"levelo_inurba_marseille","lat":43.28148,"lon":5.42636,"is_reserved":false,"is_disabled":false,"rental_uris":{"android":"levelo://app?vid=89211829-6a20-497c-8e50-7e7d27e11d4c","ios":"levelo://app?vid=89211829-6a20-497c-8e50-7e7d27e11d4c"},"vehicle_type_id":"4","last_reported":1736331000,"current_range_meters":8000,"station_id":"ce4bhnh2rcd13ifvqgug","pricing_plan_id":"cebpf4jnsgd1na2vs0mg"},{"bike_id":"b0967e4d-c82e-468e-ab57-1c33c47bc6bc","system_id":"levelo_inurba_marseille","lat":43.285026,"lon":5.383937,"is_reserved":false,"is_disabled":false,"rental_uris":{"android":"levelo://app?vid=b0967e4d-c82e-468e-ab57-1c33c47bc6bc","ios":"levelo://app?vid=b0967e4d-c82e-468e-ab57-1c33c47bc6bc"},"vehicle_type_id":"4","last_reported":1736331000,"current_range_meters":38800,"station_id":"ce4bh512rcd13ifvqe3g","pricing_plan_id":"cebpf4jnsgd1na2vs0mg"},{"bike_id":"ac91465c-f04a-4a79-8c64-9eeff5c7e05e","system_id":"levelo_inurba_marseille","lat":43.25081,"lon":5.39513,"is_reserved":false,"is_disabled":false,"rental_uris":{"android":"levelo://app?vid=ac91465c-f04a-4a79-8c64-9eeff5c7e05e","ios":"levelo://app?vid=ac91465c-f04a-4a79-8c64-9eeff5c7e05e"},"vehicle_type_id":"4","last_reported":1736331000,"current_range_meters":35600,"station_id":"ce4bhm12rcd13ifvqgkg","pricing_plan_id":"cebpf4jnsgd1na2vs0mg"},{"bike_id":"45d8c38d-f6d8-403b-8ce3-9f5a1eec15f7","system_id":"levelo_inurba_marseille","lat":43.27436,"lon":5.4247,"is_reserved":false,"is_disabled":false,"rental_uris":{"android":"levelo://app?vid=45d8c38d-f6d8-403b-8ce3-9f5a1eec15f7","ios":"levelo://app?vid=45d8c38d-f6d8-403b-8ce3-9f5a1eec15f7"},"vehicle_type_id":"4","last_reported":1736331000,"current_range_meters":38800,"station_id":"","pricing_plan_id":"cebpf4jnsgd1na2vs0mg"},{"bike_id":"5cf5d467-316b-44fa-8fb8-856da6a44a4c","system_id":"levelo_inurba_marseille","lat":43.27814,"lon":5.40729,"is_reserved":false,"is_disabled":true,"rental_uris":{"android":"levelo://app?vid=5cf5d467-316b-44fa-8fb8-856da6a44a4c","ios":"levelo://app?vid=5cf5d467-316b-44fa-8fb8-856da6a44a4c"},"vehicle_type_id":"4","last_reported":1736331000,"current_range_meters":0,"station_id":"ce4bhnh2rcd13ifvqgtg","pricing_plan_id":"cebpf4jnsgd1na2vs0mg"},{"bike_id":"d3223931-0093-411c-bbb1-9586b74e30b4","system_id":"levelo_inurba_marseille","lat":43.27065,"lon":5.42277,"is_reserved":false,"is_disabled":false,"rental_uris":{"android":"levelo://app?vid=d3223931-0093-411c-bbb1-9586b74e30b4","ios":"levelo://app?vid=d3223931-0093-411c-bbb1-9586b74e30b4"},"vehicle_type_id":"4","last_reported":1736331000,"current_range_meters":26800,"station_id":"ce4bhk92rcd13ifvqgb0","pricing_plan_id":"cebpf4jnsgd1na2vs0mg"},{"bike_id":"9316647f-ed5c-4405-9959-54bd12d4298a","system_id":"levelo_inurba_marseille","lat":43.2826,"lon":5.35073,"is_reserved":false,"is_disabled":false,"rental_uris":{"android":"levelo://app?vid=9316647f-ed5c-4405-9959-54bd12d4298a","ios":"levelo://app?vid=9316647f-ed5c-4405-9959-54bd12d4298a"},"vehicle_type_id":"4","last_reported":1736331000,"current_range_meters":6400,"station_id":"ce4bhbp2rcd13ifvqerg","pricing_plan_id":"cebpf4jnsgd1na2vs0mg"},{"bike_id":"30fd8a3b-82f4-4d0a-9b53-eaa517395ec7","system_id":"levelo_inurba_marseille","lat":43.29171,"lon":5.37153,"is_reserved":false,"is_disabled":false,"rental_uris":{"android":"levelo://app?vid=30fd8a3b-82f4-4d0a-9b53-eaa517395ec7","ios":"levelo://app?vid=30fd8a3b-82f4-4d0a-9b53-eaa517395ec7"},"vehicle_type_id":"4","last_reported":1736331000,"current_range_meters":13600,"station_id":"ce4bha92rcd13ifvqeh0","pricing_plan_id":"cebpf4jnsgd1na2vs0mg"},{"bike_id":"eec7a26a-363d-4616-a5da-9de2258d40f5","system_id":"levelo_inurba_marseille","lat":43.2407,"lon":5.37763,"is_reserved":false,"is_disabled":false,"rental_uris":{"android":"levelo://app?vid=eec7a26a-363d-4616-a5da-9de2258d40f5","ios":"levelo://app?vid=eec7a26a-363d-4616-a5da-9de2258d40f5"},"vehicle_type_id":"4","last_reported":1736331000,"current_range_meters":38800,"station_id":"ce4bhnp2rcd13ifvqgvg","pricing_plan_id":"cebpf4jnsgd1na2vs0mg"},{"bike_id":"f5f5c0c3-bf0d-4e89-9bff-89b492f51af6","system_id":"levelo_inurba_marseille","lat":43.24059,"lon":5.37772,"is_reserved":false,"is_disabled":false,"rental_uris":{"android":"levelo://app?vid=f5f5c0c3-bf0d-4e89-9bff-89b492f51af6","ios":"levelo://app?vid=f5f5c0c3-bf0d-4e89-9bff-89b492f51af6"},"vehicle_type_id":"4","last_reported":1736331000,"current_range_meters":39200,"station_id":"ce4bhnp2rcd13ifvqgvg","pricing_plan_id":"cebpf4jnsgd1na2vs0mg"},{"bike_id":"a1092041-779a-4253-8bce-5465f2c69d9c","system_id":"levelo_inurba_marseille","lat":43.28482,"lon":5.38562,"is_reserved":false,"is_disabled":false,"rental_uris":{"android":"levelo://app?vid=a1092041-779a-4253-8bce-5465f2c69d9c","ios":"levelo://app?vid=a1092041-779a-4253-8bce-5465f2c69d9c"},"vehicle_type_id":"4","last_reported":1736331000,"current_range_meters":39200,"station_id":"ce4bh8p2rcd13ifvqeb0","pricing_plan_id":"cebpf4jnsgd1na2vs0mg"},{"bike_id":"840e3f90-17d0-4c94-88a0-c5120c40cdea","system_id":"levelo_inurba_marseille","lat":43.25724,"lon":5.41103,"is_reserved":false,"is_disabled":false,"rental_uris":{"android":"levelo://app?vid=840e3f90-17d0-4c94-88a0-c5120c40cdea","ios":"levelo://app?vid=840e3f90-17d0-4c94-88a0-c5120c40cdea"},"vehicle_type_id":"4","last_reported":1736331000,"current_range_meters":39200,"station_id":"ce4bhkp2rcd13ifvqgd0","pricing_plan_id":"cebpf4jnsgd1na2vs0mg"},{"bike_id":"1bc78c82-74eb-430f-9c54-76623708396a","system_id":"levelo_inurba_marseille","lat":43.26208,"lon":5.37915,"is_reserved":false,"is_disabled":false,"rental_uris":{"android":"levelo://app?vid=1bc78c82-74eb-430f-9c54-76623708396a","ios":"levelo://app?vid=1bc78c82-74eb-430f-9c54-76623708396a"},"vehicle_type_id":"4","last_reported":1736331000,"current_range_meters":21600,"station_id":"ce4bhjp2rcd13ifvqg90","pricing_plan_id":"cebpf4jnsgd1na2vs0mg"},{"bike_id":"3f205333-1375-4776-8495-32be9889d547","system_id":"levelo_inurba_marseille","lat":43.2693,"lon":5.38904,"is_reserved":false,"is_disabled":false,"rental_uris":{"android":"levelo://app?vid=3f205333-1375-4776-8495-32be9889d547","ios":"levelo://app?vid=3f205333-1375-4776-8495-32be9889d547"},"vehicle_type_id":"4","last_reported":1736331000,"current_range_meters":28800,"station_id":"ce4bhhh2rcd13ifvqfl0","pricing_plan_id":"cebpf4jnsgd1na2vs0mg"},{"bike_id":"331f980c-3ddd-4523-93e5-74e3e8e69607","system_id":"levelo_inurba_marseille","lat":43.293,"lon":5.37432,"is_reserved":false,"is_disabled":false,"rental_uris":{"android":"levelo://app?vid=331f980c-3ddd-4523-93e5-74e3e8e69607","ios":"levelo://app?vid=331f980c-3ddd-4523-93e5-74e3e8e69607"},"vehicle_type_id":"4","last_reported":1736331000,"current_range_meters":8400,"station_id":"ce4bgi12rcd13ifvqb70","pricing_plan_id":"cebpf4jnsgd1na2vs0mg"},{"bike_id":"69c8b9dd-859b-4507-8bd1-e448b3f99682","system_id":"levelo_inurba_marseille","lat":43.32283,"lon":5.382672,"is_reserved":false,"is_disabled":false,"rental_uris":{"android":"levelo://app?vid=69c8b9dd-859b-4507-8bd1-e448b3f99682","ios":"levelo://app?vid=69c8b9dd-859b-4507-8bd1-e448b3f99682"},"vehicle_type_id":"4","last_reported":1736331000,"current_range_meters":36400,"station_id":"ce4bhr12rcd13ifvqhqg","pricing_plan_id":"cebpf4jnsgd1na2vs0mg"},{"bike_id":"f5a57341-d2f8-4a69-bf53-d7f21b551eff","system_id":"levelo_inurba_marseille","lat":43.30891,"lon":5.37196,"is_reserved":false,"is_disabled":false,"rental_uris":{"android":"levelo://app?vid=f5a57341-d2f8-4a69-bf53-d7f21b551eff","ios":"levelo://app?vid=f5a57341-d2f8-4a69-bf53-d7f21b551eff"},"vehicle_type_id":"4","last_reported":1736331000,"current_range_meters":6400,"station_id":"ce4bguh2rcd13ifvqckg","pricing_plan_id":"cebpf4jnsgd1na2vs0mg"},{"bike_id":"f315f1f6-15a6-45f1-b66d-ebc071343df0","system_id":"levelo_inurba_marseille","lat":43.29378,"lon":5.37868,"is_reserved":false,"is_disabled":true,"rental_uris":{"android":"levelo://app?vid=f315f1f6-15a6-45f1-b66d-ebc071343df0","ios":"levelo://app?vid=f315f1f6-15a6-45f1-b66d-ebc071343df0"},"vehicle_type_id":"4","last_reported":1736331000,"current_range_meters":32400,"station_id":"ce4bgjh2rcd13ifvqbf0","pricing_plan_id":"cebpf4jnsgd1na2vs0mg"},{"bike_id":"514d218d-b1d9-4d7b-9fa0-8ced26e21a3c","system_id":"levelo_inurba_marseille","lat":43.27189,"lon":5.40984,"is_reserved":false,"is_disabled":false,"rental_uris":{"android":"levelo://app?vid=514d218d-b1d9-4d7b-9fa0-8ced26e21a3c","ios":"levelo://app?vid=514d218d-b1d9-4d7b-9fa0-8ced26e21a3c"},"vehicle_type_id":"4","last_reported":1736331000,"current_range_meters":38800,"station_id":"ce4bhl12rcd13ifvqgf0","pricing_plan_id":"cebpf4jnsgd1na2vs0mg"},{"bike_id":"55fe54e5-625f-4946-8ab0-64babb1eee55","system_id":"levelo_inurba_marseille","lat":43.2952,"lon":5.39032,"is_reserved":false,"is_disabled":false,"rental_uris":{"android":"levelo://app?vid=55fe54e5-625f-4946-8ab0-64babb1eee55","ios":"levelo://app?vid=55fe54e5-625f-4946-8ab0-64babb1eee55"},"vehicle_type_id":"4","last_reported":1736331000,"current_range_meters":30000,"station_id":"ce4bh3p2rcd13ifvqdp0","pricing_plan_id":"cebpf4jnsgd1na2vs0mg"},{"bike_id":"78287ef3-3a1c-4e73-966f-b1de185a4040","system_id":"levelo_inurba_marseille","lat":43.30952,"lon":5.39039,"is_reserved":false,"is_disabled":false,"rental_uris":{"android":"levelo://app?vid=78287ef3-3a1c-4e73-966f-b1de185a4040","ios":"levelo://app?vid=78287ef3-3a1c-4e73-966f-b1de185a4040"},"vehicle_type_id":"4","last_reported":1736331000,"current_range_meters":12400,"station_id":"ce4bgup2rcd13ifvqco0","pricing_plan_id":"cebpf4jnsgd1na2vs0mg"},{"bike_id":"224a60e5-c52c-48b0-a24b-de7b1b71367c","system_id":"levelo_inurba_marseille","lat":43.31515,"lon":5.37295,"is_reserved":false,"is_disabled":true,"rental_uris":{"android":"levelo://app?vid=224a60e5-c52c-48b0-a24b-de7b1b71367c","ios":"levelo://app?vid=224a60e5-c52c-48b0-a24b-de7b1b71367c"},"vehicle_type_id":"4","last_reported":1736331000,"current_range_meters":8800,"station_id":"ce4bgt12rcd13ifvqcd0","pricing_plan_id":"cebpf4jnsgd1na2vs0mg"},{"bike_id":"8c9f902b-6145-4b29-8893-9f907145c8a9","system_id":"levelo_inurba_marseille","lat":43.230584,"lon":5.354988,"is_reserved":false,"is_disabled":false,"rental_uris":{"android":"levelo://app?vid=8c9f902b-6145-4b29-8893-9f907145c8a9","ios":"levelo://app?vid=8c9f902b-6145-4b29-8893-9f907145c8a9"},"vehicle_type_id":"4","last_reported":1736331000,"current_range_meters":37600,"station_id":"cpo3342slgdg3j2ifvpg","pricing_plan_id":"cebpf4jnsgd1na2vs0mg"},{"bike_id":"c149f94c-e67e-4d82-8d58-defaef1244a4","system_id":"levelo_inurba_marseille","lat":43.24539,"lon":5.39529,"is_reserved":false,"is_disabled":false,"rental_uris":{"android":"levelo://app?vid=c149f94c-e67e-4d82-8d58-defaef1244a4","ios":"levelo://app?vid=c149f94c-e67e-4d82-8d58-defaef1244a4"},"vehicle_type_id":"4","last_reported":1736331000,"current_range_meters":38800,"station_id":"ce4bhlp2rcd13ifvqgjg","pricing_plan_id":"cebpf4jnsgd1na2vs0mg"},{"bike_id":"6a299307-cb31-4701-aff9-d0095ea2acfb","system_id":"levelo_inurba_marseille","lat":43.23142,"lon":5.43726,"is_reserved":false,"is_disabled":false,"rental_uris":{"android":"levelo://app?vid=6a299307-cb31-4701-aff9-d0095ea2acfb","ios":"levelo://app?vid=6a299307-cb31-4701-aff9-d0095ea2acfb"},"vehicle_type_id":"4","last_reported":1736331000,"current_range_meters":20800,"station_id":"ce4bhmp2rcd13ifvqgog","pricing_plan_id":"cebpf4jnsgd1na2vs0mg"},{"bike_id":"ccefbdf4-df27-4947-9b01-eba3707af800","system_id":"levelo_inurba_marseille","lat":43.29528,"lon":5.38544,"is_reserved":false,"is_disabled":true,"rental_uris":{"android":"levelo://app?vid=ccefbdf4-df27-4947-9b01-eba3707af800","ios":"levelo://app?vid=ccefbdf4-df27-4947-9b01-eba3707af800"},"vehicle_type_id":"4","last_reported":1736331000,"current_range_meters":16000,"station_id":"","pricing_plan_id":"cebpf4jnsgd1na2vs0mg"},{"bike_id":"ea60edce-76ab-4155-8e79-99022a30bcac","system_id":"levelo_inurba_marseille","lat":43.29545,"lon":5.42278,"is_reserved":false,"is_disabled":false,"rental_uris":{"android":"levelo://app?vid=ea60edce-76ab-4155-8e79-99022a30bcac","ios":"levelo://app?vid=ea60edce-76ab-4155-8e79-99022a30bcac"},"vehicle_type_id":"4","last_reported":1736331000,"current_range_meters":10000,"station_id":"ce4bhph2rcd13ifvqhdg","pricing_plan_id":"cebpf4jnsgd1na2vs0mg"},{"bike_id":"23855dc5-5879-4251-80ba-18b8e1b17b19","system_id":"levelo_inurba_marseille","lat":43.24075,"lon":5.37763,"is_reserved":false,"is_disabled":false,"rental_uris":{"android":"levelo://app?vid=23855dc5-5879-4251-80ba-18b8e1b17b19","ios":"levelo://app?vid=23855dc5-5879-4251-80ba-18b8e1b17b19"},"vehicle_type_id":"4","last_reported":1736331000,"current_range_meters":31200,"station_id":"ce4bhnp2rcd13ifvqgvg","pricing_plan_id":"cebpf4jnsgd1na2vs0mg"},{"bike_id":"9e3531dc-4d9b-4cb1-96a9-6fe31db2f92e","system_id":"levelo_inurba_marseille","lat":43.30872,"lon":5.37198,"is_reserved":false,"is_disabled":false,"rental_uris":{"android":"levelo://app?vid=9e3531dc-4d9b-4cb1-96a9-6fe31db2f92e","ios":"levelo://app?vid=9e3531dc-4d9b-4cb1-96a9-6fe31db2f92e"},"vehicle_type_id":"4","last_reported":1736331000,"current_range_meters":24000,"station_id":"ce4bguh2rcd13ifvqckg","pricing_plan_id":"cebpf4jnsgd1na2vs0mg"},{"bike_id":"b13965eb-7a3e-487c-8f4f-1d2936af4009","system_id":"levelo_inurba_marseille","lat":43.25808,"lon":5.39424,"is_reserved":false,"is_disabled":false,"rental_uris":{"android":"levelo://app?vid=b13965eb-7a3e-487c-8f4f-1d2936af4009","ios":"levelo://app?vid=b13965eb-7a3e-487c-8f4f-1d2936af4009"},"vehicle_type_id":"4","last_reported":1736331000,"current_range_meters":38800,"station_id":"ce4bhip2rcd13ifvqft0","pricing_plan_id":"cebpf4jnsgd1na2vs0mg"},{"bike_id":"304884a8-edbb-4b51-8422-42a9e30f1931","system_id":"levelo_inurba_marseille","lat":43.2407,"lon":5.37757,"is_reserved":false,"is_disabled":false,"rental_uris":{"android":"levelo://app?vid=304884a8-edbb-4b51-8422-42a9e30f1931","ios":"levelo://app?vid=304884a8-edbb-4b51-8422-42a9e30f1931"},"vehicle_type_id":"4","last_reported":1736331000,"current_range_meters":38800,"station_id":"ce4bhnp2rcd13ifvqgvg","pricing_plan_id":"cebpf4jnsgd1na2vs0mg"},{"bike_id":"3ad0f3ed-1061-459e-b238-515ecfd1abd9","system_id":"levelo_inurba_marseille","lat":43.30784,"lon":5.37666,"is_reserved":false,"is_disabled":false,"rental_uris":{"android":"levelo://app?vid=3ad0f3ed-1061-459e-b238-515ecfd1abd9","ios":"levelo://app?vid=3ad0f3ed-1061-459e-b238-515ecfd1abd9"},"vehicle_type_id":"4","last_reported":1736331000,"current_range_meters":38400,"station_id":"ce4bgv92rcd13ifvqcq0","pricing_plan_id":"cebpf4jnsgd1na2vs0mg"},{"bike_id":"637c9e25-6ec5-4d5c-9ec9-ed6c73dcb821","system_id":"levelo_inurba_marseille","lat":43.31709,"lon":5.37792,"is_reserved":false,"is_disabled":false,"rental_uris":{"android":"levelo://app?vid=637c9e25-6ec5-4d5c-9ec9-ed6c73dcb821","ios":"levelo://app?vid=637c9e25-6ec5-4d5c-9ec9-ed6c73dcb821"},"vehicle_type_id":"4","last_reported":1736331000,"current_range_meters":31200,"station_id":"ce4bgth2rcd13ifvqch0","pricing_plan_id":"cebpf4jnsgd1na2vs0mg"},{"bike_id":"8c6e351c-0361-48f3-a409-0c5834f3f005","system_id":"levelo_inurba_marseille","lat":43.2315,"lon":5.43706,"is_reserved":false,"is_disabled":false,"rental_uris":{"android":"levelo://app?vid=8c6e351c-0361-48f3-a409-0c5834f3f005","ios":"levelo://app?vid=8c6e351c-0361-48f3-a409-0c5834f3f005"},"vehicle_type_id":"4","last_reported":1736331000,"current_range_meters":24800,"station_id":"ce4bhmp2rcd13ifvqgog","pricing_plan_id":"cebpf4jnsgd1na2vs0mg"},{"bike_id":"265429c4-abc5-45b6-826f-dcdac046c374","system_id":"levelo_inurba_marseille","lat":43.30329,"lon":5.40434,"is_reserved":false,"is_disabled":false,"rental_uris":{"android":"levelo://app?vid=265429c4-abc5-45b6-826f-dcdac046c374","ios":"levelo://app?vid=265429c4-abc5-45b6-826f-dcdac046c374"},"vehicle_type_id":"4","last_reported":1736331000,"current_range_meters":35600,"station_id":"ce4bh012rcd13ifvqd10","pricing_plan_id":"cebpf4jnsgd1na2vs0mg"},{"bike_id":"91786216-201c-40fc-8ff2-68250e9cb6a8","system_id":"levelo_inurba_marseille","lat":43.24385,"lon":5.37062,"is_reserved":false,"is_disabled":false,"rental_uris":{"android":"levelo://app?vid=91786216-201c-40fc-8ff2-68250e9cb6a8","ios":"levelo://app?vid=91786216-201c-40fc-8ff2-68250e9cb6a8"},"vehicle_type_id":"4","last_reported":1736331000,"current_range_meters":8400,"station_id":"ce4bhhh2rcd13ifvqfk0","pricing_plan_id":"cebpf4jnsgd1na2vs0mg"},{"bike_id":"5671a7cc-1094-4b46-906d-b97f733ad9e2","system_id":"levelo_inurba_marseille","lat":43.30324,"lon":5.40465,"is_reserved":false,"is_disabled":true,"rental_uris":{"android":"levelo://app?vid=5671a7cc-1094-4b46-906d-b97f733ad9e2","ios":"levelo://app?vid=5671a7cc-1094-4b46-906d-b97f733ad9e2"},"vehicle_type_id":"4","last_reported":1736331000,"current_range_meters":33200,"station_id":"ce4bh012rcd13ifvqd10","pricing_plan_id":"cebpf4jnsgd1na2vs0mg"},{"bike_id":"e595796a-c7a2-4bc5-9efd-820721cae471","system_id":"levelo_inurba_marseille","lat":43.25926,"lon":5.40909,"is_reserved":false,"is_disabled":false,"rental_uris":{"android":"levelo://app?vid=e595796a-c7a2-4bc5-9efd-820721cae471","ios":"levelo://app?vid=e595796a-c7a2-4bc5-9efd-820721cae471"},"vehicle_type_id":"4","last_reported":1736331000,"current_range_meters":37600,"station_id":"ce4bhm92rcd13ifvqglg","pricing_plan_id":"cebpf4jnsgd1na2vs0mg"},{"bike_id":"013091b2-da9b-4660-95cc-06e55ec64952","system_id":"levelo_inurba_marseille","lat":43.25075,"lon":5.39502,"is_reserved":false,"is_disabled":false,"rental_uris":{"android":"levelo://app?vid=013091b2-da9b-4660-95cc-06e55ec64952","ios":"levelo://app?vid=013091b2-da9b-4660-95cc-06e55ec64952"},"vehicle_type_id":"4","last_reported":1736331000,"current_range_meters":16400,"station_id":"ce4bhm12rcd13ifvqgkg","pricing_plan_id":"cebpf4jnsgd1na2vs0mg"},{"bike_id":"005c2044-0c78-410b-b1cd-e1e9feaa0e05","system_id":"levelo_inurba_marseille","lat":43.239608,"lon":5.366358,"is_reserved":false,"is_disabled":false,"rental_uris":{"android":"levelo://app?vid=005c2044-0c78-410b-b1cd-e1e9feaa0e05","ios":"levelo://app?vid=005c2044-0c78-410b-b1cd-e1e9feaa0e05"},"vehicle_type_id":"4","last_reported":1736331000,"current_range_meters":14000,"station_id":"ce4bhi12rcd13ifvqfp0","pricing_plan_id":"cebpf4jnsgd1na2vs0mg"},{"bike_id":"db190856-6440-4075-89bd-6bb8e507459d","system_id":"levelo_inurba_marseille","lat":43.2396,"lon":5.36648,"is_reserved":false,"is_disabled":false,"rental_uris":{"android":"levelo://app?vid=db190856-6440-4075-89bd-6bb8e507459d","ios":"levelo://app?vid=db190856-6440-4075-89bd-6bb8e507459d"},"vehicle_type_id":"4","last_reported":1736331000,"current_range_meters":9200,"station_id":"ce4bhi12rcd13ifvqfp0","pricing_plan_id":"cebpf4jnsgd1na2vs0mg"},{"bike_id":"852bb58f-753e-44d5-a1ca-cd1ad65bb366","system_id":"levelo_inurba_marseille","lat":43.29781,"lon":5.37104,"is_reserved":false,"is_disabled":false,"rental_uris":{"android":"levelo://app?vid=852bb58f-753e-44d5-a1ca-cd1ad65bb366","ios":"levelo://app?vid=852bb58f-753e-44d5-a1ca-cd1ad65bb366"},"vehicle_type_id":"4","last_reported":1736331000,"current_range_meters":30000,"station_id":"ce4bgop2rcd13ifvqc1g","pricing_plan_id":"cebpf4jnsgd1na2vs0mg"},{"bike_id":"6a595de3-0911-46a9-bdbf-4cca5437105e","system_id":"levelo_inurba_marseille","lat":43.23191,"lon":5.35558,"is_reserved":false,"is_disabled":false,"rental_uris":{"android":"levelo://app?vid=6a595de3-0911-46a9-bdbf-4cca5437105e","ios":"levelo://app?vid=6a595de3-0911-46a9-bdbf-4cca5437105e"},"vehicle_type_id":"4","last_reported":1736331000,"current_range_meters":10800,"station_id":"ce4bhu92rcd13ifvqi70","pricing_plan_id":"cebpf4jnsgd1na2vs0mg"},{"bike_id":"641d8acc-50b2-4173-ab23-c70f2a11d28e","system_id":"levelo_inurba_marseille","lat":43.28146,"lon":5.42636,"is_reserved":false,"is_disabled":true,"rental_uris":{"android":"levelo://app?vid=641d8acc-50b2-4173-ab23-c70f2a11d28e","ios":"levelo://app?vid=641d8acc-50b2-4173-ab23-c70f2a11d28e"},"vehicle_type_id":"4","last_reported":1736331000,"current_range_meters":19200,"station_id":"ce4bhnh2rcd13ifvqgug","pricing_plan_id":"cebpf4jnsgd1na2vs0mg"},{"bike_id":"4a309558-80dc-41fc-8d1f-f7f76baadbf6","system_id":"levelo_inurba_marseille","lat":43.29842,"lon":5.36279,"is_reserved":false,"is_disabled":false,"rental_uris":{"android":"levelo://app?vid=4a309558-80dc-41fc-8d1f-f7f76baadbf6","ios":"levelo://app?vid=4a309558-80dc-41fc-8d1f-f7f76baadbf6"},"vehicle_type_id":"4","last_reported":1736331000,"current_range_meters":16800,"station_id":"ce4bgpp2rcd13ifvqc3g","pricing_plan_id":"cebpf4jnsgd1na2vs0mg"},{"bike_id":"d9697bb8-b1e0-405f-a7a8-a19e2df9e468","system_id":"levelo_inurba_marseille","lat":43.30515,"lon":5.36691,"is_reserved":false,"is_disabled":false,"rental_uris":{"android":"levelo://app?vid=d9697bb8-b1e0-405f-a7a8-a19e2df9e468","ios":"levelo://app?vid=d9697bb8-b1e0-405f-a7a8-a19e2df9e468"},"vehicle_type_id":"4","last_reported":1736331000,"current_range_meters":38800,"station_id":"ce4bgrp2rcd13ifvqc9g","pricing_plan_id":"cebpf4jnsgd1na2vs0mg"},{"bike_id":"55a5c3ba-fac7-4ea1-a96b-f251028f0c81","system_id":"levelo_inurba_marseille","lat":43.31487,"lon":5.37311,"is_reserved":false,"is_disabled":false,"rental_uris":{"android":"levelo://app?vid=55a5c3ba-fac7-4ea1-a96b-f251028f0c81","ios":"levelo://app?vid=55a5c3ba-fac7-4ea1-a96b-f251028f0c81"},"vehicle_type_id":"4","last_reported":1736331000,"current_range_meters":38000,"station_id":"ce4bgt12rcd13ifvqcd0","pricing_plan_id":"cebpf4jnsgd1na2vs0mg"},{"bike_id":"44ab28fa-0b3d-469d-97ff-06319e1159ef","system_id":"levelo_inurba_marseille","lat":43.2396,"lon":5.36653,"is_reserved":false,"is_disabled":false,"rental_uris":{"android":"levelo://app?vid=44ab28fa-0b3d-469d-97ff-06319e1159ef","ios":"levelo://app?vid=44ab28fa-0b3d-469d-97ff-06319e1159ef"},"vehicle_type_id":"4","last_reported":1736331000,"current_range_meters":15200,"station_id":"ce4bhi12rcd13ifvqfp0","pricing_plan_id":"cebpf4jnsgd1na2vs0mg"},{"bike_id":"eb76c646-8adc-409f-b1e6-d1eabb3d2215","system_id":"levelo_inurba_marseille","lat":43.25929,"lon":5.40905,"is_reserved":false,"is_disabled":false,"rental_uris":{"android":"levelo://app?vid=eb76c646-8adc-409f-b1e6-d1eabb3d2215","ios":"levelo://app?vid=eb76c646-8adc-409f-b1e6-d1eabb3d2215"},"vehicle_type_id":"4","last_reported":1736331000,"current_range_meters":27200,"station_id":"ce4bhm92rcd13ifvqglg","pricing_plan_id":"cebpf4jnsgd1na2vs0mg"},{"bike_id":"bba33199-d298-4bdd-9482-3054b2aae091","system_id":"levelo_inurba_marseille","lat":43.29979,"lon":5.38493,"is_reserved":false,"is_disabled":false,"rental_uris":{"android":"levelo://app?vid=bba33199-d298-4bdd-9482-3054b2aae091","ios":"levelo://app?vid=bba33199-d298-4bdd-9482-3054b2aae091"},"vehicle_type_id":"4","last_reported":1736331000,"current_range_meters":38800,"station_id":"ce4bgj92rcd13ifvqbd0","pricing_plan_id":"cebpf4jnsgd1na2vs0mg"},{"bike_id":"0a79eed2-003b-4218-9fdf-f43d76c17e3e","system_id":"levelo_inurba_marseille","lat":43.292991,"lon":5.374633,"is_reserved":false,"is_disabled":true,"rental_uris":{"android":"levelo://app?vid=0a79eed2-003b-4218-9fdf-f43d76c17e3e","ios":"levelo://app?vid=0a79eed2-003b-4218-9fdf-f43d76c17e3e"},"vehicle_type_id":"4","last_reported":1736331000,"current_range_meters":34800,"station_id":"ce4bgi12rcd13ifvqb70","pricing_plan_id":"cebpf4jnsgd1na2vs0mg"},{"bike_id":"6d88bbf0-f428-4bd4-ab8a-2ee8d5e7c74e","system_id":"levelo_inurba_marseille","lat":43.23064,"lon":5.35506,"is_reserved":false,"is_disabled":false,"rental_uris":{"android":"levelo://app?vid=6d88bbf0-f428-4bd4-ab8a-2ee8d5e7c74e","ios":"levelo://app?vid=6d88bbf0-f428-4bd4-ab8a-2ee8d5e7c74e"},"vehicle_type_id":"4","last_reported":1736331000,"current_range_meters":35200,"station_id":"cpo3342slgdg3j2ifvpg","pricing_plan_id":"cebpf4jnsgd1na2vs0mg"},{"bike_id":"e3fb05d7-491e-4ca0-bd25-0e9b0619e01a","system_id":"levelo_inurba_marseille","lat":43.26951,"lon":5.38644,"is_reserved":false,"is_disabled":false,"rental_uris":{"android":"levelo://app?vid=e3fb05d7-491e-4ca0-bd25-0e9b0619e01a","ios":"levelo://app?vid=e3fb05d7-491e-4ca0-bd25-0e9b0619e01a"},"vehicle_type_id":"4","last_reported":1736331000,"current_range_meters":36400,"station_id":"ce4bhh92rcd13ifvqfh0","pricing_plan_id":"cebpf4jnsgd1na2vs0mg"},{"bike_id":"506e8078-8034-4dd8-8e07-30d71824416d","system_id":"levelo_inurba_marseille","lat":43.31532,"lon":5.38048,"is_reserved":false,"is_disabled":false,"rental_uris":{"android":"levelo://app?vid=506e8078-8034-4dd8-8e07-30d71824416d","ios":"levelo://app?vid=506e8078-8034-4dd8-8e07-30d71824416d"},"vehicle_type_id":"4","last_reported":1736331000,"current_range_meters":28400,"station_id":"ce4bhsp2rcd13ifvqi50","pricing_plan_id":"cebpf4jnsgd1na2vs0mg"},{"bike_id":"5d19cbc2-5f5a-46ee-8f84-8da80bfe76be","system_id":"levelo_inurba_marseille","lat":43.24078,"lon":5.37741,"is_reserved":false,"is_disabled":false,"rental_uris":{"android":"levelo://app?vid=5d19cbc2-5f5a-46ee-8f84-8da80bfe76be","ios":"levelo://app?vid=5d19cbc2-5f5a-46ee-8f84-8da80bfe76be"},"vehicle_type_id":"4","last_reported":1736331000,"current_range_meters":38800,"station_id":"ce4bhnp2rcd13ifvqgvg","pricing_plan_id":"cebpf4jnsgd1na2vs0mg"},{"bike_id":"de2e19f8-37a6-4c24-a728-4f2bfb588c5a","system_id":"levelo_inurba_marseille","lat":43.29707,"lon":5.37707,"is_reserved":false,"is_disabled":false,"rental_uris":{"android":"levelo://app?vid=de2e19f8-37a6-4c24-a728-4f2bfb588c5a","ios":"levelo://app?vid=de2e19f8-37a6-4c24-a728-4f2bfb588c5a"},"vehicle_type_id":"4","last_reported":1736331000,"current_range_meters":24400,"station_id":"ce4bgkh2rcd13ifvqbl0","pricing_plan_id":"cebpf4jnsgd1na2vs0mg"},{"bike_id":"768e9c78-d0a3-4809-a132-8653852c97b2","system_id":"levelo_inurba_marseille","lat":43.27496,"lon":5.42474,"is_reserved":false,"is_disabled":false,"rental_uris":{"android":"levelo://app?vid=768e9c78-d0a3-4809-a132-8653852c97b2","ios":"levelo://app?vid=768e9c78-d0a3-4809-a132-8653852c97b2"},"vehicle_type_id":"4","last_reported":1736331000,"current_range_meters":20000,"station_id":"ce4bhn92rcd13ifvqgrg","pricing_plan_id":"cebpf4jnsgd1na2vs0mg"},{"bike_id":"5e106622-1b1d-4d23-8700-bb5b92ae4b6b","system_id":"levelo_inurba_marseille","lat":43.29026,"lon":5.39961,"is_reserved":false,"is_disabled":false,"rental_uris":{"android":"levelo://app?vid=5e106622-1b1d-4d23-8700-bb5b92ae4b6b","ios":"levelo://app?vid=5e106622-1b1d-4d23-8700-bb5b92ae4b6b"},"vehicle_type_id":"4","last_reported":1736331000,"current_range_meters":38800,"station_id":"ce4bh392rcd13ifvqdm0","pricing_plan_id":"cebpf4jnsgd1na2vs0mg"},{"bike_id":"05171470-9655-4536-889b-43822d7bd8f5","system_id":"levelo_inurba_marseille","lat":43.31293,"lon":5.37386,"is_reserved":false,"is_disabled":false,"rental_uris":{"android":"levelo://app?vid=05171470-9655-4536-889b-43822d7bd8f5","ios":"levelo://app?vid=05171470-9655-4536-889b-43822d7bd8f5"},"vehicle_type_id":"4","last_reported":1736331000,"current_range_meters":10000,"station_id":"","pricing_plan_id":"cebpf4jnsgd1na2vs0mg"},{"bike_id":"aae3be7c-9f84-4d73-acc6-b7f51578fa4e","system_id":"levelo_inurba_marseille","lat":43.24068,"lon":5.37775,"is_reserved":false,"is_disabled":false,"rental_uris":{"android":"levelo://app?vid=aae3be7c-9f84-4d73-acc6-b7f51578fa4e","ios":"levelo://app?vid=aae3be7c-9f84-4d73-acc6-b7f51578fa4e"},"vehicle_type_id":"4","last_reported":1736331000,"current_range_meters":30400,"station_id":"ce4bhnp2rcd13ifvqgvg","pricing_plan_id":"cebpf4jnsgd1na2vs0mg"},{"bike_id":"b5d9853c-5c5b-44bf-b6f0-a5d8d0fa1e4f","system_id":"levelo_inurba_marseille","lat":43.28481,"lon":5.38573,"is_reserved":false,"is_disabled":false,"rental_uris":{"android":"levelo://app?vid=b5d9853c-5c5b-44bf-b6f0-a5d8d0fa1e4f","ios":"levelo://app?vid=b5d9853c-5c5b-44bf-b6f0-a5d8d0fa1e4f"},"vehicle_type_id":"4","last_reported":1736331000,"current_range_meters":4800,"station_id":"ce4bh8p2rcd13ifvqeb0","pricing_plan_id":"cebpf4jnsgd1na2vs0mg"},{"bike_id":"dac13373-ea26-4b26-b6ac-4dabd0ff721b","system_id":"levelo_inurba_marseille","lat":43.29383,"lon":5.37843,"is_reserved":false,"is_disabled":false,"rental_uris":{"android":"levelo://app?vid=dac13373-ea26-4b26-b6ac-4dabd0ff721b","ios":"levelo://app?vid=dac13373-ea26-4b26-b6ac-4dabd0ff721b"},"vehicle_type_id":"4","last_reported":1736331000,"current_range_meters":38800,"station_id":"ce4bgjh2rcd13ifvqbf0","pricing_plan_id":"cebpf4jnsgd1na2vs0mg"},{"bike_id":"ef18015a-c2b8-4fe2-b01a-49731bda1825","system_id":"levelo_inurba_marseille","lat":43.29707,"lon":5.37702,"is_reserved":false,"is_disabled":false,"rental_uris":{"android":"levelo://app?vid=ef18015a-c2b8-4fe2-b01a-49731bda1825","ios":"levelo://app?vid=ef18015a-c2b8-4fe2-b01a-49731bda1825"},"vehicle_type_id":"4","last_reported":1736331000,"current_range_meters":31200,"station_id":"ce4bgkh2rcd13ifvqbl0","pricing_plan_id":"cebpf4jnsgd1na2vs0mg"},{"bike_id":"ab037b9e-8e35-4497-b3de-17439dda7625","system_id":"levelo_inurba_marseille","lat":43.23156,"lon":5.43702,"is_reserved":false,"is_disabled":false,"rental_uris":{"android":"levelo://app?vid=ab037b9e-8e35-4497-b3de-17439dda7625","ios":"levelo://app?vid=ab037b9e-8e35-4497-b3de-17439dda7625"},"vehicle_type_id":"4","last_reported":1736331000,"current_range_meters":25200,"station_id":"ce4bhmp2rcd13ifvqgog","pricing_plan_id":"cebpf4jnsgd1na2vs0mg"},{"bike_id":"1eb8b8fc-0fdf-4440-98ab-d54db1502e51","system_id":"levelo_inurba_marseille","lat":43.30182,"lon":5.36616,"is_reserved":false,"is_disabled":false,"rental_uris":{"android":"levelo://app?vid=1eb8b8fc-0fdf-4440-98ab-d54db1502e51","ios":"levelo://app?vid=1eb8b8fc-0fdf-4440-98ab-d54db1502e51"},"vehicle_type_id":"4","last_reported":1736331000,"current_range_meters":38800,"station_id":"ce4bgrh2rcd13ifvqc8g","pricing_plan_id":"cebpf4jnsgd1na2vs0mg"},{"bike_id":"0d5482e7-f541-412e-a421-0991dca692ea","system_id":"levelo_inurba_marseille","lat":43.31338,"lon":5.36739,"is_reserved":false,"is_disabled":false,"rental_uris":{"android":"levelo://app?vid=0d5482e7-f541-412e-a421-0991dca692ea","ios":"levelo://app?vid=0d5482e7-f541-412e-a421-0991dca692ea"},"vehicle_type_id":"4","last_reported":1736331000,"current_range_meters":11600,"station_id":"ce4bgr92rcd13ifvqc6g","pricing_plan_id":"cebpf4jnsgd1na2vs0mg"},{"bike_id":"fad30bfe-5d6d-49c7-ad5a-33beadc13905","system_id":"levelo_inurba_marseille","lat":43.29783,"lon":5.37093,"is_reserved":false,"is_disabled":false,"rental_uris":{"android":"levelo://app?vid=fad30bfe-5d6d-49c7-ad5a-33beadc13905","ios":"levelo://app?vid=fad30bfe-5d6d-49c7-ad5a-33beadc13905"},"vehicle_type_id":"4","last_reported":1736331000,"current_range_meters":18800,"station_id":"ce4bgop2rcd13ifvqc1g","pricing_plan_id":"cebpf4jnsgd1na2vs0mg"},{"bike_id":"cdfea266-e5fd-4018-a292-1ba3701f72dd","system_id":"levelo_inurba_marseille","lat":43.25479,"lon":5.37649,"is_reserved":false,"is_disabled":false,"rental_uris":{"android":"levelo://app?vid=cdfea266-e5fd-4018-a292-1ba3701f72dd","ios":"levelo://app?vid=cdfea266-e5fd-4018-a292-1ba3701f72dd"},"vehicle_type_id":"4","last_reported":1736331000,"current_range_meters":28000,"station_id":"ce4bhh12rcd13ifvqff0","pricing_plan_id":"cebpf4jnsgd1na2vs0mg"},{"bike_id":"ebe2855d-10ef-4682-8861-c7f4ec91888f","system_id":"levelo_inurba_marseille","lat":43.33721,"lon":5.39198,"is_reserved":false,"is_disabled":false,"rental_uris":{"android":"levelo://app?vid=ebe2855d-10ef-4682-8861-c7f4ec91888f","ios":"levelo://app?vid=ebe2855d-10ef-4682-8861-c7f4ec91888f"},"vehicle_type_id":"4","last_reported":1736331000,"current_range_meters":38800,"station_id":"ce4bhr92rcd13ifvqhsg","pricing_plan_id":"cebpf4jnsgd1na2vs0mg"},{"bike_id":"cf55238d-3e2d-485d-8238-c5609593f49b","system_id":"levelo_inurba_marseille","lat":43.26683,"lon":5.38273,"is_reserved":false,"is_disabled":true,"rental_uris":{"android":"levelo://app?vid=cf55238d-3e2d-485d-8238-c5609593f49b","ios":"levelo://app?vid=cf55238d-3e2d-485d-8238-c5609593f49b"},"vehicle_type_id":"4","last_reported":1736331000,"current_range_meters":22000,"station_id":"ce4bhg92rcd13ifvqf90","pricing_plan_id":"cebpf4jnsgd1na2vs0mg"},{"bike_id":"336be5b4-41be-4c93-8b79-276dcd225506","system_id":"levelo_inurba_marseille","lat":43.29201,"lon":5.3604,"is_reserved":false,"is_disabled":true,"rental_uris":{"android":"levelo://app?vid=336be5b4-41be-4c93-8b79-276dcd225506","ios":"levelo://app?vid=336be5b4-41be-4c93-8b79-276dcd225506"},"vehicle_type_id":"4","last_reported":1736331000,"current_range_meters":27200,"station_id":"ce4bhbh2rcd13ifvqeqg","pricing_plan_id":"cebpf4jnsgd1na2vs0mg"},{"bike_id":"a038acd5-df80-40b0-854d-db4e76ddfe83","system_id":"levelo_inurba_marseille","lat":43.29175,"lon":5.37173,"is_reserved":false,"is_disabled":false,"rental_uris":{"android":"levelo://app?vid=a038acd5-df80-40b0-854d-db4e76ddfe83","ios":"levelo://app?vid=a038acd5-df80-40b0-854d-db4e76ddfe83"},"vehicle_type_id":"4","last_reported":1736331000,"current_range_meters":38000,"station_id":"ce4bha92rcd13ifvqeh0","pricing_plan_id":"cebpf4jnsgd1na2vs0mg"},{"bike_id":"ae35b077-318b-4350-ac7b-915734220233","system_id":"levelo_inurba_marseille","lat":43.29102,"lon":5.38164,"is_reserved":false,"is_disabled":false,"rental_uris":{"android":"levelo://app?vid=ae35b077-318b-4350-ac7b-915734220233","ios":"levelo://app?vid=ae35b077-318b-4350-ac7b-915734220233"},"vehicle_type_id":"4","last_reported":1736331000,"current_range_meters":34800,"station_id":"ce4bh512rcd13ifvqe2g","pricing_plan_id":"cebpf4jnsgd1na2vs0mg"},{"bike_id":"c4ece075-62d8-400a-b873-18850276cf5a","system_id":"levelo_inurba_marseille","lat":43.27959,"lon":5.38706,"is_reserved":false,"is_disabled":false,"rental_uris":{"android":"levelo://app?vid=c4ece075-62d8-400a-b873-18850276cf5a","ios":"levelo://app?vid=c4ece075-62d8-400a-b873-18850276cf5a"},"vehicle_type_id":"4","last_reported":1736331000,"current_range_meters":12000,"station_id":"ce4bhg12rcd13ifvqf80","pricing_plan_id":"cebpf4jnsgd1na2vs0mg"},{"bike_id":"bd7a65c2-9d47-4a77-9109-57459ddf79ea","system_id":"levelo_inurba_marseille","lat":43.33596,"lon":5.41045,"is_reserved":false,"is_disabled":false,"rental_uris":{"android":"levelo://app?vid=bd7a65c2-9d47-4a77-9109-57459ddf79ea","ios":"levelo://app?vid=bd7a65c2-9d47-4a77-9109-57459ddf79ea"},"vehicle_type_id":"4","last_reported":1736331000,"current_range_meters":36800,"station_id":"ce4bhqh2rcd13ifvqhmg","pricing_plan_id":"cebpf4jnsgd1na2vs0mg"},{"bike_id":"d2b56a15-230e-4877-8466-23e461fb8aea","system_id":"levelo_inurba_marseille","lat":43.30519,"lon":5.36538,"is_reserved":false,"is_disabled":false,"rental_uris":{"android":"levelo://app?vid=d2b56a15-230e-4877-8466-23e461fb8aea","ios":"levelo://app?vid=d2b56a15-230e-4877-8466-23e461fb8aea"},"vehicle_type_id":"4","last_reported":1736331000,"current_range_meters":20400,"station_id":"","pricing_plan_id":"cebpf4jnsgd1na2vs0mg"},{"bike_id":"39bedfab-5abf-4402-bf7e-cb9f470f945f","system_id":"levelo_inurba_marseille","lat":43.25704,"lon":5.41119,"is_reserved":false,"is_disabled":false,"rental_uris":{"android":"levelo://app?vid=39bedfab-5abf-4402-bf7e-cb9f470f945f","ios":"levelo://app?vid=39bedfab-5abf-4402-bf7e-cb9f470f945f"},"vehicle_type_id":"4","last_reported":1736331000,"current_range_meters":6800,"station_id":"ce4bhkp2rcd13ifvqgd0","pricing_plan_id":"cebpf4jnsgd1na2vs0mg"},{"bike_id":"9535e3a7-5cf3-4d8b-b4c1-a58d434715e2","system_id":"levelo_inurba_marseille","lat":43.26952,"lon":5.38627,"is_reserved":false,"is_disabled":false,"rental_uris":{"android":"levelo://app?vid=9535e3a7-5cf3-4d8b-b4c1-a58d434715e2","ios":"levelo://app?vid=9535e3a7-5cf3-4d8b-b4c1-a58d434715e2"},"vehicle_type_id":"4","last_reported":1736331000,"current_range_meters":25600,"station_id":"ce4bhh92rcd13ifvqfh0","pricing_plan_id":"cebpf4jnsgd1na2vs0mg"},{"bike_id":"4a436ff9-2f27-47ae-bc9e-9853924b2843","system_id":"levelo_inurba_marseille","lat":43.30553,"lon":5.3652,"is_reserved":false,"is_disabled":false,"rental_uris":{"android":"levelo://app?vid=4a436ff9-2f27-47ae-bc9e-9853924b2843","ios":"levelo://app?vid=4a436ff9-2f27-47ae-bc9e-9853924b2843"},"vehicle_type_id":"4","last_reported":1736331000,"current_range_meters":31200,"station_id":"ce4bgs12rcd13ifvqcag","pricing_plan_id":"cebpf4jnsgd1na2vs0mg"},{"bike_id":"534d5c19-63eb-487b-ba35-7ca0d64394d9","system_id":"levelo_inurba_marseille","lat":43.27056,"lon":5.40283,"is_reserved":false,"is_disabled":false,"rental_uris":{"android":"levelo://app?vid=534d5c19-63eb-487b-ba35-7ca0d64394d9","ios":"levelo://app?vid=534d5c19-63eb-487b-ba35-7ca0d64394d9"},"vehicle_type_id":"4","last_reported":1736331000,"current_range_meters":7200,"station_id":"ce4bhk92rcd13ifvqgc0","pricing_plan_id":"cebpf4jnsgd1na2vs0mg"},{"bike_id":"c9195917-e117-4e90-9956-1cf319725063","system_id":"levelo_inurba_marseille","lat":43.24542,"lon":5.39533,"is_reserved":false,"is_disabled":false,"rental_uris":{"android":"levelo://app?vid=c9195917-e117-4e90-9956-1cf319725063","ios":"levelo://app?vid=c9195917-e117-4e90-9956-1cf319725063"},"vehicle_type_id":"4","last_reported":1736331000,"current_range_meters":18000,"station_id":"ce4bhlp2rcd13ifvqgjg","pricing_plan_id":"cebpf4jnsgd1na2vs0mg"},{"bike_id":"ec5e1995-bc93-4317-a3ea-c5a3988c773e","system_id":"levelo_inurba_marseille","lat":43.2319,"lon":5.35552,"is_reserved":false,"is_disabled":false,"rental_uris":{"android":"levelo://app?vid=ec5e1995-bc93-4317-a3ea-c5a3988c773e","ios":"levelo://app?vid=ec5e1995-bc93-4317-a3ea-c5a3988c773e"},"vehicle_type_id":"4","last_reported":1736331000,"current_range_meters":13600,"station_id":"ce4bhu92rcd13ifvqi70","pricing_plan_id":"cebpf4jnsgd1na2vs0mg"},{"bike_id":"e63f1381-465a-42a4-9983-175aafc43e9d","system_id":"levelo_inurba_marseille","lat":43.23143,"lon":5.43723,"is_reserved":false,"is_disabled":false,"rental_uris":{"android":"levelo://app?vid=e63f1381-465a-42a4-9983-175aafc43e9d","ios":"levelo://app?vid=e63f1381-465a-42a4-9983-175aafc43e9d"},"vehicle_type_id":"4","last_reported":1736331000,"current_range_meters":19600,"station_id":"ce4bhmp2rcd13ifvqgog","pricing_plan_id":"cebpf4jnsgd1na2vs0mg"},{"bike_id":"3af9aed3-600d-41eb-821b-058b9ff7b0d9","system_id":"levelo_inurba_marseille","lat":43.26198,"lon":5.37928,"is_reserved":false,"is_disabled":false,"rental_uris":{"android":"levelo://app?vid=3af9aed3-600d-41eb-821b-058b9ff7b0d9","ios":"levelo://app?vid=3af9aed3-600d-41eb-821b-058b9ff7b0d9"},"vehicle_type_id":"4","last_reported":1736331000,"current_range_meters":38000,"station_id":"ce4bhjp2rcd13ifvqg90","pricing_plan_id":"cebpf4jnsgd1na2vs0mg"},{"bike_id":"28c7b99f-bdc7-487d-89e9-1540511d675b","system_id":"levelo_inurba_marseille","lat":43.28919,"lon":5.38409,"is_reserved":false,"is_disabled":false,"rental_uris":{"android":"levelo://app?vid=28c7b99f-bdc7-487d-89e9-1540511d675b","ios":"levelo://app?vid=28c7b99f-bdc7-487d-89e9-1540511d675b"},"vehicle_type_id":"4","last_reported":1736331000,"current_range_meters":4800,"station_id":"ce4bh612rcd13ifvqe6g","pricing_plan_id":"cebpf4jnsgd1na2vs0mg"},{"bike_id":"18e331ea-1f05-47ba-82b6-99d6f4fdbdf2","system_id":"levelo_inurba_marseille","lat":43.28647,"lon":5.35095,"is_reserved":false,"is_disabled":false,"rental_uris":{"android":"levelo://app?vid=18e331ea-1f05-47ba-82b6-99d6f4fdbdf2","ios":"levelo://app?vid=18e331ea-1f05-47ba-82b6-99d6f4fdbdf2"},"vehicle_type_id":"4","last_reported":1736331000,"current_range_meters":24400,"station_id":"ce4bhch2rcd13ifvqeug","pricing_plan_id":"cebpf4jnsgd1na2vs0mg"},{"bike_id":"a0d81ac3-6702-4830-8876-66a7cf6de763","system_id":"levelo_inurba_marseille","lat":43.25559,"lon":5.38241,"is_reserved":false,"is_disabled":false,"rental_uris":{"android":"levelo://app?vid=a0d81ac3-6702-4830-8876-66a7cf6de763","ios":"levelo://app?vid=a0d81ac3-6702-4830-8876-66a7cf6de763"},"vehicle_type_id":"4","last_reported":1736331000,"current_range_meters":31200,"station_id":"ce4bhih2rcd13ifvqfs0","pricing_plan_id":"cebpf4jnsgd1na2vs0mg"},{"bike_id":"470a0a7e-dbfe-4326-9489-cedffb503df1","system_id":"levelo_inurba_marseille","lat":43.29271,"lon":5.38447,"is_reserved":false,"is_disabled":true,"rental_uris":{"android":"levelo://app?vid=470a0a7e-dbfe-4326-9489-cedffb503df1","ios":"levelo://app?vid=470a0a7e-dbfe-4326-9489-cedffb503df1"},"vehicle_type_id":"4","last_reported":1736331000,"current_range_meters":11200,"station_id":"ce4bh692rcd13ifvqea0","pricing_plan_id":"cebpf4jnsgd1na2vs0mg"},{"bike_id":"aa33a53e-f806-43a8-ad7e-8e2bd9644426","system_id":"levelo_inurba_marseille","lat":43.32345,"lon":5.40629,"is_reserved":false,"is_disabled":true,"rental_uris":{"android":"levelo://app?vid=aa33a53e-f806-43a8-ad7e-8e2bd9644426","ios":"levelo://app?vid=aa33a53e-f806-43a8-ad7e-8e2bd9644426"},"vehicle_type_id":"4","last_reported":1736331000,"current_range_meters":0,"station_id":"ce4bhq92rcd13ifvqhjg","pricing_plan_id":"cebpf4jnsgd1na2vs0mg"},{"bike_id":"06de74e9-392c-4f3d-9422-c171e3e3ea02","system_id":"levelo_inurba_marseille","lat":43.26558,"lon":5.37283,"is_reserved":false,"is_disabled":false,"rental_uris":{"android":"levelo://app?vid=06de74e9-392c-4f3d-9422-c171e3e3ea02","ios":"levelo://app?vid=06de74e9-392c-4f3d-9422-c171e3e3ea02"},"vehicle_type_id":"4","last_reported":1736331000,"current_range_meters":26000,"station_id":"ce4bhg12rcd13ifvqf70","pricing_plan_id":"cebpf4jnsgd1na2vs0mg"},{"bike_id":"139d7fee-ba07-4123-ad67-237db0bc1f21","system_id":"levelo_inurba_marseille","lat":43.26945,"lon":5.38646,"is_reserved":false,"is_disabled":false,"rental_uris":{"android":"levelo://app?vid=139d7fee-ba07-4123-ad67-237db0bc1f21","ios":"levelo://app?vid=139d7fee-ba07-4123-ad67-237db0bc1f21"},"vehicle_type_id":"4","last_reported":1736331000,"current_range_meters":28800,"station_id":"ce4bhh92rcd13ifvqfh0","pricing_plan_id":"cebpf4jnsgd1na2vs0mg"},{"bike_id":"9a036d7f-58a4-4dd9-a561-64a6144c1184","system_id":"levelo_inurba_marseille","lat":43.24069,"lon":5.37776,"is_reserved":false,"is_disabled":false,"rental_uris":{"android":"levelo://app?vid=9a036d7f-58a4-4dd9-a561-64a6144c1184","ios":"levelo://app?vid=9a036d7f-58a4-4dd9-a561-64a6144c1184"},"vehicle_type_id":"4","last_reported":1736331000,"current_range_meters":14400,"station_id":"ce4bhnp2rcd13ifvqgvg","pricing_plan_id":"cebpf4jnsgd1na2vs0mg"},{"bike_id":"015df2ec-0dd0-4de1-8244-56462b4571fd","system_id":"levelo_inurba_marseille","lat":43.25826,"lon":5.39419,"is_reserved":false,"is_disabled":false,"rental_uris":{"android":"levelo://app?vid=015df2ec-0dd0-4de1-8244-56462b4571fd","ios":"levelo://app?vid=015df2ec-0dd0-4de1-8244-56462b4571fd"},"vehicle_type_id":"4","last_reported":1736331000,"current_range_meters":12400,"station_id":"ce4bhip2rcd13ifvqft0","pricing_plan_id":"cebpf4jnsgd1na2vs0mg"},{"bike_id":"6bcb1d85-d1d6-4db5-a7d7-b7b2eabc73d5","system_id":"levelo_inurba_marseille","lat":43.30598,"lon":5.3723,"is_reserved":false,"is_disabled":false,"rental_uris":{"android":"levelo://app?vid=6bcb1d85-d1d6-4db5-a7d7-b7b2eabc73d5","ios":"levelo://app?vid=6bcb1d85-d1d6-4db5-a7d7-b7b2eabc73d5"},"vehicle_type_id":"4","last_reported":1736331000,"current_range_meters":6400,"station_id":"ce4bgqh2rcd13ifvqc4g","pricing_plan_id":"cebpf4jnsgd1na2vs0mg"},{"bike_id":"be457d0e-e951-4c20-92b5-c162743063cd","system_id":"levelo_inurba_marseille","lat":43.33016,"lon":5.39055,"is_reserved":false,"is_disabled":false,"rental_uris":{"android":"levelo://app?vid=be457d0e-e951-4c20-92b5-c162743063cd","ios":"levelo://app?vid=be457d0e-e951-4c20-92b5-c162743063cd"},"vehicle_type_id":"4","last_reported":1736331000,"current_range_meters":14000,"station_id":"ce4bhr92rcd13ifvqhrg","pricing_plan_id":"cebpf4jnsgd1na2vs0mg"},{"bike_id":"5a610a92-ec66-4c09-b8f2-d292ab86e791","system_id":"levelo_inurba_marseille","lat":43.30134,"lon":5.37407,"is_reserved":false,"is_disabled":true,"rental_uris":{"android":"levelo://app?vid=5a610a92-ec66-4c09-b8f2-d292ab86e791","ios":"levelo://app?vid=5a610a92-ec66-4c09-b8f2-d292ab86e791"},"vehicle_type_id":"4","last_reported":1736331000,"current_range_meters":38400,"station_id":"","pricing_plan_id":"cebpf4jnsgd1na2vs0mg"},{"bike_id":"848a32f2-5334-415d-b217-dfbc39bd34b9","system_id":"levelo_inurba_marseille","lat":43.30823,"lon":5.38042,"is_reserved":false,"is_disabled":true,"rental_uris":{"android":"levelo://app?vid=848a32f2-5334-415d-b217-dfbc39bd34b9","ios":"levelo://app?vid=848a32f2-5334-415d-b217-dfbc39bd34b9"},"vehicle_type_id":"4","last_reported":1736331000,"current_range_meters":0,"station_id":"ce4bgt12rcd13ifvqce0","pricing_plan_id":"cebpf4jnsgd1na2vs0mg"},{"bike_id":"8b42b122-781c-4312-8289-d3e216b3876e","system_id":"levelo_inurba_marseille","lat":43.25943,"lon":5.40902,"is_reserved":false,"is_disabled":false,"rental_uris":{"android":"levelo://app?vid=8b42b122-781c-4312-8289-d3e216b3876e","ios":"levelo://app?vid=8b42b122-781c-4312-8289-d3e216b3876e"},"vehicle_type_id":"4","last_reported":1736331000,"current_range_meters":38800,"station_id":"ce4bhm92rcd13ifvqglg","pricing_plan_id":"cebpf4jnsgd1na2vs0mg"},{"bike_id":"34c9a149-7d1b-4e58-a6b4-17edaa5a6718","system_id":"levelo_inurba_marseille","lat":43.3254,"lon":5.41448,"is_reserved":false,"is_disabled":false,"rental_uris":{"android":"levelo://app?vid=34c9a149-7d1b-4e58-a6b4-17edaa5a6718","ios":"levelo://app?vid=34c9a149-7d1b-4e58-a6b4-17edaa5a6718"},"vehicle_type_id":"4","last_reported":1736331000,"current_range_meters":39200,"station_id":"ce4bhq12rcd13ifvqhhg","pricing_plan_id":"cebpf4jnsgd1na2vs0mg"},{"bike_id":"45976433-508e-4d90-a5fb-7a7f31608f71","system_id":"levelo_inurba_marseille","lat":43.26209,"lon":5.37451,"is_reserved":false,"is_disabled":false,"rental_uris":{"android":"levelo://app?vid=45976433-508e-4d90-a5fb-7a7f31608f71","ios":"levelo://app?vid=45976433-508e-4d90-a5fb-7a7f31608f71"},"vehicle_type_id":"4","last_reported":1736331000,"current_range_meters":35600,"station_id":"ce4bhgp2rcd13ifvqfc0","pricing_plan_id":"cebpf4jnsgd1na2vs0mg"},{"bike_id":"14a4122a-f452-4aae-b18c-712339646710","system_id":"levelo_inurba_marseille","lat":43.33028,"lon":5.39053,"is_reserved":false,"is_disabled":false,"rental_uris":{"android":"levelo://app?vid=14a4122a-f452-4aae-b18c-712339646710","ios":"levelo://app?vid=14a4122a-f452-4aae-b18c-712339646710"},"vehicle_type_id":"4","last_reported":1736331000,"current_range_meters":38800,"station_id":"ce4bhr92rcd13ifvqhrg","pricing_plan_id":"cebpf4jnsgd1na2vs0mg"},{"bike_id":"31fc1b88-f4e1-46ba-b85e-c38872103c84","system_id":"levelo_inurba_marseille","lat":43.2792,"lon":5.38695,"is_reserved":false,"is_disabled":true,"rental_uris":{"android":"levelo://app?vid=31fc1b88-f4e1-46ba-b85e-c38872103c84","ios":"levelo://app?vid=31fc1b88-f4e1-46ba-b85e-c38872103c84"},"vehicle_type_id":"4","last_reported":1736331000,"current_range_meters":2000,"station_id":"","pricing_plan_id":"cebpf4jnsgd1na2vs0mg"},{"bike_id":"7b786416-a15d-4888-bc83-cebc3c5143fe","system_id":"levelo_inurba_marseille","lat":43.28029,"lon":5.36939,"is_reserved":false,"is_disabled":false,"rental_uris":{"android":"levelo://app?vid=7b786416-a15d-4888-bc83-cebc3c5143fe","ios":"levelo://app?vid=7b786416-a15d-4888-bc83-cebc3c5143fe"},"vehicle_type_id":"4","last_reported":1736331000,"current_range_meters":35600,"station_id":"ce4bha12rcd13ifvqef0","pricing_plan_id":"cebpf4jnsgd1na2vs0mg"},{"bike_id":"f1d6cef7-2da6-42ec-9c9e-af841bdcc194","system_id":"levelo_inurba_marseille","lat":43.28414,"lon":5.34977,"is_reserved":false,"is_disabled":false,"rental_uris":{"android":"levelo://app?vid=f1d6cef7-2da6-42ec-9c9e-af841bdcc194","ios":"levelo://app?vid=f1d6cef7-2da6-42ec-9c9e-af841bdcc194"},"vehicle_type_id":"4","last_reported":1736331000,"current_range_meters":28400,"station_id":"ce4bhbh2rcd13ifvqepg","pricing_plan_id":"cebpf4jnsgd1na2vs0mg"},{"bike_id":"e5bdb990-8fd8-4d6b-a4be-716d9b355fa0","system_id":"levelo_inurba_marseille","lat":43.33601,"lon":5.41023,"is_reserved":false,"is_disabled":false,"rental_uris":{"android":"levelo://app?vid=e5bdb990-8fd8-4d6b-a4be-716d9b355fa0","ios":"levelo://app?vid=e5bdb990-8fd8-4d6b-a4be-716d9b355fa0"},"vehicle_type_id":"4","last_reported":1736331000,"current_range_meters":38800,"station_id":"ce4bhqh2rcd13ifvqhmg","pricing_plan_id":"cebpf4jnsgd1na2vs0mg"},{"bike_id":"e1d357a4-d5a1-4633-b7e3-29c6923d8af1","system_id":"levelo_inurba_marseille","lat":43.27209,"lon":5.39185,"is_reserved":false,"is_disabled":false,"rental_uris":{"android":"levelo://app?vid=e1d357a4-d5a1-4633-b7e3-29c6923d8af1","ios":"levelo://app?vid=e1d357a4-d5a1-4633-b7e3-29c6923d8af1"},"vehicle_type_id":"4","last_reported":1736331000,"current_range_meters":31200,"station_id":"ce4bhhp2rcd13ifvqfm0","pricing_plan_id":"cebpf4jnsgd1na2vs0mg"},{"bike_id":"bbf998ea-d252-4590-8711-16d78ff4b07c","system_id":"levelo_inurba_marseille","lat":43.24639,"lon":5.38903,"is_reserved":false,"is_disabled":false,"rental_uris":{"android":"levelo://app?vid=bbf998ea-d252-4590-8711-16d78ff4b07c","ios":"levelo://app?vid=bbf998ea-d252-4590-8711-16d78ff4b07c"},"vehicle_type_id":"4","last_reported":1736331000,"current_range_meters":23200,"station_id":"ce4bhg12rcd13ifvqf60","pricing_plan_id":"cebpf4jnsgd1na2vs0mg"},{"bike_id":"7196576b-2155-4b8e-a9a4-55c43dc2da07","system_id":"levelo_inurba_marseille","lat":43.30949,"lon":5.39049,"is_reserved":false,"is_disabled":false,"rental_uris":{"android":"levelo://app?vid=7196576b-2155-4b8e-a9a4-55c43dc2da07","ios":"levelo://app?vid=7196576b-2155-4b8e-a9a4-55c43dc2da07"},"vehicle_type_id":"4","last_reported":1736331000,"current_range_meters":11200,"station_id":"ce4bgup2rcd13ifvqco0","pricing_plan_id":"cebpf4jnsgd1na2vs0mg"},{"bike_id":"029846ec-4a4b-4a30-bda8-b1a9de2c64fb","system_id":"levelo_inurba_marseille","lat":43.3138,"lon":5.36779,"is_reserved":false,"is_disabled":false,"rental_uris":{"android":"levelo://app?vid=029846ec-4a4b-4a30-bda8-b1a9de2c64fb","ios":"levelo://app?vid=029846ec-4a4b-4a30-bda8-b1a9de2c64fb"},"vehicle_type_id":"4","last_reported":1736331000,"current_range_meters":27200,"station_id":"","pricing_plan_id":"cebpf4jnsgd1na2vs0mg"},{"bike_id":"37698a4d-41ce-40a9-8f29-743ff9776bba","system_id":"levelo_inurba_marseille","lat":43.28849,"lon":5.39303,"is_reserved":false,"is_disabled":false,"rental_uris":{"android":"levelo://app?vid=37698a4d-41ce-40a9-8f29-743ff9776bba","ios":"levelo://app?vid=37698a4d-41ce-40a9-8f29-743ff9776bba"},"vehicle_type_id":"4","last_reported":1736331000,"current_range_meters":25200,"station_id":"ce4bh2p2rcd13ifvqdi0","pricing_plan_id":"cebpf4jnsgd1na2vs0mg"},{"bike_id":"923074d6-010f-4e55-8918-33d31e71d5a6","system_id":"levelo_inurba_marseille","lat":43.26049,"lon":5.39406,"is_reserved":false,"is_disabled":false,"rental_uris":{"android":"levelo://app?vid=923074d6-010f-4e55-8918-33d31e71d5a6","ios":"levelo://app?vid=923074d6-010f-4e55-8918-33d31e71d5a6"},"vehicle_type_id":"4","last_reported":1736331000,"current_range_meters":14400,"station_id":"ce4bhh92rcd13ifvqfj0","pricing_plan_id":"cebpf4jnsgd1na2vs0mg"},{"bike_id":"37dc7e31-18a7-47cf-b248-e427a28c7f54","system_id":"levelo_inurba_marseille","lat":43.29188,"lon":5.39319,"is_reserved":false,"is_disabled":false,"rental_uris":{"android":"levelo://app?vid=37dc7e31-18a7-47cf-b248-e427a28c7f54","ios":"levelo://app?vid=37dc7e31-18a7-47cf-b248-e427a28c7f54"},"vehicle_type_id":"4","last_reported":1736331000,"current_range_meters":29600,"station_id":"ce4bh192rcd13ifvqdd0","pricing_plan_id":"cebpf4jnsgd1na2vs0mg"},{"bike_id":"ac378c34-4184-45d2-94fe-9e715bf2795b","system_id":"levelo_inurba_marseille","lat":43.30306,"lon":5.36899,"is_reserved":false,"is_disabled":false,"rental_uris":{"android":"levelo://app?vid=ac378c34-4184-45d2-94fe-9e715bf2795b","ios":"levelo://app?vid=ac378c34-4184-45d2-94fe-9e715bf2795b"},"vehicle_type_id":"4","last_reported":1736331000,"current_range_meters":39200,"station_id":"ce4bgqh2rcd13ifvqc5g","pricing_plan_id":"cebpf4jnsgd1na2vs0mg"},{"bike_id":"145c2818-8ca4-406d-b951-510856f0ed73","system_id":"levelo_inurba_marseille","lat":43.33744,"lon":5.37456,"is_reserved":false,"is_disabled":false,"rental_uris":{"android":"levelo://app?vid=145c2818-8ca4-406d-b951-510856f0ed73","ios":"levelo://app?vid=145c2818-8ca4-406d-b951-510856f0ed73"},"vehicle_type_id":"4","last_reported":1736331000,"current_range_meters":38000,"station_id":"","pricing_plan_id":"cebpf4jnsgd1na2vs0mg"},{"bike_id":"d9498735-00f3-48c9-ad13-3d0c9ae00353","system_id":"levelo_inurba_marseille","lat":43.26675,"lon":5.38267,"is_reserved":false,"is_disabled":false,"rental_uris":{"android":"levelo://app?vid=d9498735-00f3-48c9-ad13-3d0c9ae00353","ios":"levelo://app?vid=d9498735-00f3-48c9-ad13-3d0c9ae00353"},"vehicle_type_id":"4","last_reported":1736331000,"current_range_meters":38800,"station_id":"ce4bhg92rcd13ifvqf90","pricing_plan_id":"cebpf4jnsgd1na2vs0mg"},{"bike_id":"bc2873b0-9774-491c-a2de-b95e350f7bdb","system_id":"levelo_inurba_marseille","lat":43.27752,"lon":5.39923,"is_reserved":false,"is_disabled":true,"rental_uris":{"android":"levelo://app?vid=bc2873b0-9774-491c-a2de-b95e350f7bdb","ios":"levelo://app?vid=bc2873b0-9774-491c-a2de-b95e350f7bdb"},"vehicle_type_id":"4","last_reported":1736331000,"current_range_meters":0,"station_id":"","pricing_plan_id":"cebpf4jnsgd1na2vs0mg"},{"bike_id":"7b36e9ad-92a4-4d34-85c8-c08b978ade3d","system_id":"levelo_inurba_marseille","lat":43.29002,"lon":5.35611,"is_reserved":false,"is_disabled":false,"rental_uris":{"android":"levelo://app?vid=7b36e9ad-92a4-4d34-85c8-c08b978ade3d","ios":"levelo://app?vid=7b36e9ad-92a4-4d34-85c8-c08b978ade3d"},"vehicle_type_id":"4","last_reported":1736331000,"current_range_meters":38800,"station_id":"ce4bhb92rcd13ifvqen0","pricing_plan_id":"cebpf4jnsgd1na2vs0mg"},{"bike_id":"d9829386-769b-47b8-9214-63b638d1061f","system_id":"levelo_inurba_marseille","lat":43.26555,"lon":5.37315,"is_reserved":false,"is_disabled":false,"rental_uris":{"android":"levelo://app?vid=d9829386-769b-47b8-9214-63b638d1061f","ios":"levelo://app?vid=d9829386-769b-47b8-9214-63b638d1061f"},"vehicle_type_id":"4","last_reported":1736331000,"current_range_meters":17200,"station_id":"ce4bhg12rcd13ifvqf70","pricing_plan_id":"cebpf4jnsgd1na2vs0mg"},{"bike_id":"9de0f47f-f279-475a-9983-15ddd7678129","system_id":"levelo_inurba_marseille","lat":43.31531,"lon":5.38055,"is_reserved":false,"is_disabled":false,"rental_uris":{"android":"levelo://app?vid=9de0f47f-f279-475a-9983-15ddd7678129","ios":"levelo://app?vid=9de0f47f-f279-475a-9983-15ddd7678129"},"vehicle_type_id":"4","last_reported":1736331000,"current_range_meters":17600,"station_id":"ce4bhsp2rcd13ifvqi50","pricing_plan_id":"cebpf4jnsgd1na2vs0mg"},{"bike_id":"42d179d0-7dda-416c-9035-751e9ce07fd5","system_id":"levelo_inurba_marseille","lat":43.2958,"lon":5.36747,"is_reserved":false,"is_disabled":false,"rental_uris":{"android":"levelo://app?vid=42d179d0-7dda-416c-9035-751e9ce07fd5","ios":"levelo://app?vid=42d179d0-7dda-416c-9035-751e9ce07fd5"},"vehicle_type_id":"4","last_reported":1736331000,"current_range_meters":38800,"station_id":"ce4bgph2rcd13ifvqc2g","pricing_plan_id":"cebpf4jnsgd1na2vs0mg"},{"bike_id":"2607304d-58d7-43d4-9311-b084ca776d33","system_id":"levelo_inurba_marseille","lat":43.28721,"lon":5.37924,"is_reserved":false,"is_disabled":false,"rental_uris":{"android":"levelo://app?vid=2607304d-58d7-43d4-9311-b084ca776d33","ios":"levelo://app?vid=2607304d-58d7-43d4-9311-b084ca776d33"},"vehicle_type_id":"4","last_reported":1736331000,"current_range_meters":32400,"station_id":"ce4bh9p2rcd13ifvqec0","pricing_plan_id":"cebpf4jnsgd1na2vs0mg"},{"bike_id":"12862326-6e9b-4d25-bff6-7861cc3847bb","system_id":"levelo_inurba_marseille","lat":43.26945,"lon":5.38644,"is_reserved":false,"is_disabled":false,"rental_uris":{"android":"levelo://app?vid=12862326-6e9b-4d25-bff6-7861cc3847bb","ios":"levelo://app?vid=12862326-6e9b-4d25-bff6-7861cc3847bb"},"vehicle_type_id":"4","last_reported":1736331000,"current_range_meters":34000,"station_id":"ce4bhh92rcd13ifvqfh0","pricing_plan_id":"cebpf4jnsgd1na2vs0mg"},{"bike_id":"f3068faf-6ea3-45c0-943e-8f5eb9fecb3c","system_id":"levelo_inurba_marseille","lat":43.23963,"lon":5.36635,"is_reserved":false,"is_disabled":false,"rental_uris":{"android":"levelo://app?vid=f3068faf-6ea3-45c0-943e-8f5eb9fecb3c","ios":"levelo://app?vid=f3068faf-6ea3-45c0-943e-8f5eb9fecb3c"},"vehicle_type_id":"4","last_reported":1736331000,"current_range_meters":33600,"station_id":"ce4bhi12rcd13ifvqfp0","pricing_plan_id":"cebpf4jnsgd1na2vs0mg"},{"bike_id":"e40367b0-c531-4691-bd5b-4322a48cc8cc","system_id":"levelo_inurba_marseille","lat":43.24068,"lon":5.37766,"is_reserved":false,"is_disabled":false,"rental_uris":{"android":"levelo://app?vid=e40367b0-c531-4691-bd5b-4322a48cc8cc","ios":"levelo://app?vid=e40367b0-c531-4691-bd5b-4322a48cc8cc"},"vehicle_type_id":"4","last_reported":1736331000,"current_range_meters":20400,"station_id":"ce4bhnp2rcd13ifvqgvg","pricing_plan_id":"cebpf4jnsgd1na2vs0mg"},{"bike_id":"23a66e3f-8e17-4ad8-b689-a42d7cb5191e","system_id":"levelo_inurba_marseille","lat":43.27845,"lon":5.39254,"is_reserved":false,"is_disabled":true,"rental_uris":{"android":"levelo://app?vid=23a66e3f-8e17-4ad8-b689-a42d7cb5191e","ios":"levelo://app?vid=23a66e3f-8e17-4ad8-b689-a42d7cb5191e"},"vehicle_type_id":"4","last_reported":1736331000,"current_range_meters":1600,"station_id":"","pricing_plan_id":"cebpf4jnsgd1na2vs0mg"},{"bike_id":"2937c8f0-6f06-4c7f-8240-41ad44bc55fa","system_id":"levelo_inurba_marseille","lat":43.23187,"lon":5.39993,"is_reserved":false,"is_disabled":false,"rental_uris":{"android":"levelo://app?vid=2937c8f0-6f06-4c7f-8240-41ad44bc55fa","ios":"levelo://app?vid=2937c8f0-6f06-4c7f-8240-41ad44bc55fa"},"vehicle_type_id":"4","last_reported":1736331000,"current_range_meters":16000,"station_id":"ce4bhn12rcd13ifvqgqg","pricing_plan_id":"cebpf4jnsgd1na2vs0mg"},{"bike_id":"8b6bd09b-7c67-4d4b-a54b-feb493adacfb","system_id":"levelo_inurba_marseille","lat":43.29017,"lon":5.38133,"is_reserved":false,"is_disabled":true,"rental_uris":{"android":"levelo://app?vid=8b6bd09b-7c67-4d4b-a54b-feb493adacfb","ios":"levelo://app?vid=8b6bd09b-7c67-4d4b-a54b-feb493adacfb"},"vehicle_type_id":"4","last_reported":1736331000,"current_range_meters":0,"station_id":"ce4bh4p2rcd13ifvqe1g","pricing_plan_id":"cebpf4jnsgd1na2vs0mg"},{"bike_id":"c67f86a7-d1e6-4e2d-a762-5d292001711c","system_id":"levelo_inurba_marseille","lat":43.33015,"lon":5.39045,"is_reserved":false,"is_disabled":false,"rental_uris":{"android":"levelo://app?vid=c67f86a7-d1e6-4e2d-a762-5d292001711c","ios":"levelo://app?vid=c67f86a7-d1e6-4e2d-a762-5d292001711c"},"vehicle_type_id":"4","last_reported":1736331000,"current_range_meters":38400,"station_id":"ce4bhr92rcd13ifvqhrg","pricing_plan_id":"cebpf4jnsgd1na2vs0mg"},{"bike_id":"4573febf-41be-436a-886f-a2ae8b9d4d57","system_id":"levelo_inurba_marseille","lat":43.32539,"lon":5.41427,"is_reserved":false,"is_disabled":false,"rental_uris":{"android":"levelo://app?vid=4573febf-41be-436a-886f-a2ae8b9d4d57","ios":"levelo://app?vid=4573febf-41be-436a-886f-a2ae8b9d4d57"},"vehicle_type_id":"4","last_reported":1736331000,"current_range_meters":24800,"station_id":"ce4bhq12rcd13ifvqhhg","pricing_plan_id":"cebpf4jnsgd1na2vs0mg"},{"bike_id":"784f216f-cabe-47b2-ab8f-fb21f31f3f79","system_id":"levelo_inurba_marseille","lat":43.29272,"lon":5.36845,"is_reserved":false,"is_disabled":false,"rental_uris":{"android":"levelo://app?vid=784f216f-cabe-47b2-ab8f-fb21f31f3f79","ios":"levelo://app?vid=784f216f-cabe-47b2-ab8f-fb21f31f3f79"},"vehicle_type_id":"4","last_reported":1736331000,"current_range_meters":38000,"station_id":"ce4bhbp2rcd13ifvqesg","pricing_plan_id":"cebpf4jnsgd1na2vs0mg"},{"bike_id":"2936ab5c-617a-42df-8c15-d614acfc7fc0","system_id":"levelo_inurba_marseille","lat":43.29879,"lon":5.39732,"is_reserved":false,"is_disabled":false,"rental_uris":{"android":"levelo://app?vid=2936ab5c-617a-42df-8c15-d614acfc7fc0","ios":"levelo://app?vid=2936ab5c-617a-42df-8c15-d614acfc7fc0"},"vehicle_type_id":"4","last_reported":1736331000,"current_range_meters":33600,"station_id":"ce4bh0h2rcd13ifvqd50","pricing_plan_id":"cebpf4jnsgd1na2vs0mg"},{"bike_id":"c5f8f22d-3e47-4405-a9fb-74cfce6679cc","system_id":"levelo_inurba_marseille","lat":43.28956,"lon":5.37851,"is_reserved":false,"is_disabled":false,"rental_uris":{"android":"levelo://app?vid=c5f8f22d-3e47-4405-a9fb-74cfce6679cc","ios":"levelo://app?vid=c5f8f22d-3e47-4405-a9fb-74cfce6679cc"},"vehicle_type_id":"4","last_reported":1736331000,"current_range_meters":38800,"station_id":"ce4bh9p2rcd13ifvqed0","pricing_plan_id":"cebpf4jnsgd1na2vs0mg"},{"bike_id":"d014f699-d84d-436b-b3bf-8c059d18ea89","system_id":"levelo_inurba_marseille","lat":43.22923,"lon":5.35383,"is_reserved":false,"is_disabled":false,"rental_uris":{"android":"levelo://app?vid=d014f699-d84d-436b-b3bf-8c059d18ea89","ios":"levelo://app?vid=d014f699-d84d-436b-b3bf-8c059d18ea89"},"vehicle_type_id":"4","last_reported":1736331000,"current_range_meters":3600,"station_id":"cpo3532slgdg3j2ikp40","pricing_plan_id":"cebpf4jnsgd1na2vs0mg"},{"bike_id":"85db0274-aa0a-4f9a-b691-02cfca5d3623","system_id":"levelo_inurba_marseille","lat":43.29867,"lon":5.36279,"is_reserved":false,"is_disabled":false,"rental_uris":{"android":"levelo://app?vid=85db0274-aa0a-4f9a-b691-02cfca5d3623","ios":"levelo://app?vid=85db0274-aa0a-4f9a-b691-02cfca5d3623"},"vehicle_type_id":"4","last_reported":1736331000,"current_range_meters":38800,"station_id":"ce4bgpp2rcd13ifvqc3g","pricing_plan_id":"cebpf4jnsgd1na2vs0mg"},{"bike_id":"3374f223-19f0-4f61-a0b7-9467e4640e9f","system_id":"levelo_inurba_marseille","lat":43.29369,"lon":5.37833,"is_reserved":false,"is_disabled":false,"rental_uris":{"android":"levelo://app?vid=3374f223-19f0-4f61-a0b7-9467e4640e9f","ios":"levelo://app?vid=3374f223-19f0-4f61-a0b7-9467e4640e9f"},"vehicle_type_id":"4","last_reported":1736331000,"current_range_meters":18800,"station_id":"ce4bgjh2rcd13ifvqbf0","pricing_plan_id":"cebpf4jnsgd1na2vs0mg"},{"bike_id":"727adc74-ff95-43c1-ae2c-3d143f397981","system_id":"levelo_inurba_marseille","lat":43.29188,"lon":5.35794,"is_reserved":false,"is_disabled":false,"rental_uris":{"android":"levelo://app?vid=727adc74-ff95-43c1-ae2c-3d143f397981","ios":"levelo://app?vid=727adc74-ff95-43c1-ae2c-3d143f397981"},"vehicle_type_id":"4","last_reported":1736331000,"current_range_meters":37600,"station_id":"ce4bhb12rcd13ifvqel0","pricing_plan_id":"cebpf4jnsgd1na2vs0mg"},{"bike_id":"955387a8-4a47-4691-946f-78754c88504b","system_id":"levelo_inurba_marseille","lat":43.23199,"lon":5.35519,"is_reserved":false,"is_disabled":false,"rental_uris":{"android":"levelo://app?vid=955387a8-4a47-4691-946f-78754c88504b","ios":"levelo://app?vid=955387a8-4a47-4691-946f-78754c88504b"},"vehicle_type_id":"4","last_reported":1736331000,"current_range_meters":32800,"station_id":"ce4bhu92rcd13ifvqi70","pricing_plan_id":"cebpf4jnsgd1na2vs0mg"},{"bike_id":"f949af9a-2683-4ec9-b4bf-168b31b3bcb2","system_id":"levelo_inurba_marseille","lat":43.24647,"lon":5.38911,"is_reserved":false,"is_disabled":false,"rental_uris":{"android":"levelo://app?vid=f949af9a-2683-4ec9-b4bf-168b31b3bcb2","ios":"levelo://app?vid=f949af9a-2683-4ec9-b4bf-168b31b3bcb2"},"vehicle_type_id":"4","last_reported":1736331000,"current_range_meters":12800,"station_id":"ce4bhg12rcd13ifvqf60","pricing_plan_id":"cebpf4jnsgd1na2vs0mg"},{"bike_id":"9a9f40db-98b8-4c03-a419-e4b9c52e8d68","system_id":"levelo_inurba_marseille","lat":43.290055,"lon":5.35612,"is_reserved":false,"is_disabled":false,"rental_uris":{"android":"levelo://app?vid=9a9f40db-98b8-4c03-a419-e4b9c52e8d68","ios":"levelo://app?vid=9a9f40db-98b8-4c03-a419-e4b9c52e8d68"},"vehicle_type_id":"4","last_reported":1736331000,"current_range_meters":36400,"station_id":"ce4bhb92rcd13ifvqen0","pricing_plan_id":"cebpf4jnsgd1na2vs0mg"},{"bike_id":"924cf6cf-e55f-47b8-a215-85149c3ae1eb","system_id":"levelo_inurba_marseille","lat":43.29596,"lon":5.3774,"is_reserved":false,"is_disabled":false,"rental_uris":{"android":"levelo://app?vid=924cf6cf-e55f-47b8-a215-85149c3ae1eb","ios":"levelo://app?vid=924cf6cf-e55f-47b8-a215-85149c3ae1eb"},"vehicle_type_id":"4","last_reported":1736331000,"current_range_meters":30400,"station_id":"ce4bgi92rcd13ifvqb90","pricing_plan_id":"cebpf4jnsgd1na2vs0mg"},{"bike_id":"963de74f-cac6-496f-b456-d8e98cb22421","system_id":"levelo_inurba_marseille","lat":43.28267,"lon":5.35079,"is_reserved":false,"is_disabled":false,"rental_uris":{"android":"levelo://app?vid=963de74f-cac6-496f-b456-d8e98cb22421","ios":"levelo://app?vid=963de74f-cac6-496f-b456-d8e98cb22421"},"vehicle_type_id":"4","last_reported":1736331000,"current_range_meters":38400,"station_id":"ce4bhbp2rcd13ifvqerg","pricing_plan_id":"cebpf4jnsgd1na2vs0mg"},{"bike_id":"aa850542-0e89-4864-a06c-1c75e60a736e","system_id":"levelo_inurba_marseille","lat":43.26796,"lon":5.39417,"is_reserved":false,"is_disabled":false,"rental_uris":{"android":"levelo://app?vid=aa850542-0e89-4864-a06c-1c75e60a736e","ios":"levelo://app?vid=aa850542-0e89-4864-a06c-1c75e60a736e"},"vehicle_type_id":"4","last_reported":1736331000,"current_range_meters":38800,"station_id":"ce4bhh12rcd13ifvqfg0","pricing_plan_id":"cebpf4jnsgd1na2vs0mg"},{"bike_id":"5c2b1534-cdee-4a91-86be-9c3b91724d06","system_id":"levelo_inurba_marseille","lat":43.24544,"lon":5.39526,"is_reserved":false,"is_disabled":false,"rental_uris":{"android":"levelo://app?vid=5c2b1534-cdee-4a91-86be-9c3b91724d06","ios":"levelo://app?vid=5c2b1534-cdee-4a91-86be-9c3b91724d06"},"vehicle_type_id":"4","last_reported":1736331000,"current_range_meters":24400,"station_id":"ce4bhlp2rcd13ifvqgjg","pricing_plan_id":"cebpf4jnsgd1na2vs0mg"},{"bike_id":"bfa48a80-9b65-46cd-b2e8-810ef73b75e8","system_id":"levelo_inurba_marseille","lat":43.29046,"lon":5.39949,"is_reserved":false,"is_disabled":false,"rental_uris":{"android":"levelo://app?vid=bfa48a80-9b65-46cd-b2e8-810ef73b75e8","ios":"levelo://app?vid=bfa48a80-9b65-46cd-b2e8-810ef73b75e8"},"vehicle_type_id":"4","last_reported":1736331000,"current_range_meters":30800,"station_id":"ce4bh392rcd13ifvqdm0","pricing_plan_id":"cebpf4jnsgd1na2vs0mg"},{"bike_id":"a344e607-2212-45d5-b6de-a9033a6aa79f","system_id":"levelo_inurba_marseille","lat":43.26203,"lon":5.37933,"is_reserved":false,"is_disabled":false,"rental_uris":{"android":"levelo://app?vid=a344e607-2212-45d5-b6de-a9033a6aa79f","ios":"levelo://app?vid=a344e607-2212-45d5-b6de-a9033a6aa79f"},"vehicle_type_id":"4","last_reported":1736331000,"current_range_meters":36400,"station_id":"ce4bhjp2rcd13ifvqg90","pricing_plan_id":"cebpf4jnsgd1na2vs0mg"},{"bike_id":"250110ef-5b20-479c-b7a7-8ad60af21569","system_id":"levelo_inurba_marseille","lat":43.30148,"lon":5.38091,"is_reserved":false,"is_disabled":false,"rental_uris":{"android":"levelo://app?vid=250110ef-5b20-479c-b7a7-8ad60af21569","ios":"levelo://app?vid=250110ef-5b20-479c-b7a7-8ad60af21569"},"vehicle_type_id":"4","last_reported":1736331000,"current_range_meters":38800,"station_id":"ce4bgjp2rcd13ifvqbh0","pricing_plan_id":"cebpf4jnsgd1na2vs0mg"},{"bike_id":"135c4e6a-de27-463d-8345-d40eb173f42e","system_id":"levelo_inurba_marseille","lat":43.30252,"lon":5.40074,"is_reserved":false,"is_disabled":false,"rental_uris":{"android":"levelo://app?vid=135c4e6a-de27-463d-8345-d40eb173f42e","ios":"levelo://app?vid=135c4e6a-de27-463d-8345-d40eb173f42e"},"vehicle_type_id":"4","last_reported":1736331000,"current_range_meters":23200,"station_id":"ce4bgvh2rcd13ifvqcs0","pricing_plan_id":"cebpf4jnsgd1na2vs0mg"},{"bike_id":"16b0ab00-8b4f-4f6e-9216-7be0728dd86e","system_id":"levelo_inurba_marseille","lat":43.31337,"lon":5.36745,"is_reserved":false,"is_disabled":false,"rental_uris":{"android":"levelo://app?vid=16b0ab00-8b4f-4f6e-9216-7be0728dd86e","ios":"levelo://app?vid=16b0ab00-8b4f-4f6e-9216-7be0728dd86e"},"vehicle_type_id":"4","last_reported":1736331000,"current_range_meters":4000,"station_id":"ce4bgr92rcd13ifvqc6g","pricing_plan_id":"cebpf4jnsgd1na2vs0mg"},{"bike_id":"4d8933e2-5888-4f6b-80fa-fa70e448ecfe","system_id":"levelo_inurba_marseille","lat":43.24169,"lon":5.36412,"is_reserved":false,"is_disabled":false,"rental_uris":{"android":"levelo://app?vid=4d8933e2-5888-4f6b-80fa-fa70e448ecfe","ios":"levelo://app?vid=4d8933e2-5888-4f6b-80fa-fa70e448ecfe"},"vehicle_type_id":"4","last_reported":1736331000,"current_range_meters":20000,"station_id":"cpo36qri1sfpv3e86is0","pricing_plan_id":"cebpf4jnsgd1na2vs0mg"},{"bike_id":"4a668f30-3ac2-4c09-a676-43b7579d0d95","system_id":"levelo_inurba_marseille","lat":43.28156,"lon":5.42643,"is_reserved":false,"is_disabled":true,"rental_uris":{"android":"levelo://app?vid=4a668f30-3ac2-4c09-a676-43b7579d0d95","ios":"levelo://app?vid=4a668f30-3ac2-4c09-a676-43b7579d0d95"},"vehicle_type_id":"4","last_reported":1736331000,"current_range_meters":36800,"station_id":"ce4bhnh2rcd13ifvqgug","pricing_plan_id":"cebpf4jnsgd1na2vs0mg"},{"bike_id":"75409a45-61ce-4b14-be6b-710007820052","system_id":"levelo_inurba_marseille","lat":43.2984,"lon":5.36269,"is_reserved":false,"is_disabled":false,"rental_uris":{"android":"levelo://app?vid=75409a45-61ce-4b14-be6b-710007820052","ios":"levelo://app?vid=75409a45-61ce-4b14-be6b-710007820052"},"vehicle_type_id":"4","last_reported":1736331000,"current_range_meters":28800,"station_id":"ce4bgpp2rcd13ifvqc3g","pricing_plan_id":"cebpf4jnsgd1na2vs0mg"},{"bike_id":"79e4c495-71e2-48e1-96ce-26f15ec0fd56","system_id":"levelo_inurba_marseille","lat":43.29571,"lon":5.36746,"is_reserved":false,"is_disabled":false,"rental_uris":{"android":"levelo://app?vid=79e4c495-71e2-48e1-96ce-26f15ec0fd56","ios":"levelo://app?vid=79e4c495-71e2-48e1-96ce-26f15ec0fd56"},"vehicle_type_id":"4","last_reported":1736331000,"current_range_meters":32000,"station_id":"ce4bgph2rcd13ifvqc2g","pricing_plan_id":"cebpf4jnsgd1na2vs0mg"},{"bike_id":"cbffa85f-21da-4f55-8518-83068fef689f","system_id":"levelo_inurba_marseille","lat":43.26676,"lon":5.38337,"is_reserved":false,"is_disabled":true,"rental_uris":{"android":"levelo://app?vid=cbffa85f-21da-4f55-8518-83068fef689f","ios":"levelo://app?vid=cbffa85f-21da-4f55-8518-83068fef689f"},"vehicle_type_id":"4","last_reported":1736331000,"current_range_meters":35600,"station_id":"ce4bhg92rcd13ifvqf90","pricing_plan_id":"cebpf4jnsgd1na2vs0mg"},{"bike_id":"09eef186-38b8-4ef0-a084-8519d0c60e4f","system_id":"levelo_inurba_marseille","lat":43.29016,"lon":5.38145,"is_reserved":false,"is_disabled":false,"rental_uris":{"android":"levelo://app?vid=09eef186-38b8-4ef0-a084-8519d0c60e4f","ios":"levelo://app?vid=09eef186-38b8-4ef0-a084-8519d0c60e4f"},"vehicle_type_id":"4","last_reported":1736331000,"current_range_meters":39200,"station_id":"ce4bh4p2rcd13ifvqe1g","pricing_plan_id":"cebpf4jnsgd1na2vs0mg"},{"bike_id":"db91c807-5ca0-42e9-af27-da03ee60f8ee","system_id":"levelo_inurba_marseille","lat":43.306183,"lon":5.393465,"is_reserved":false,"is_disabled":false,"rental_uris":{"android":"levelo://app?vid=db91c807-5ca0-42e9-af27-da03ee60f8ee","ios":"levelo://app?vid=db91c807-5ca0-42e9-af27-da03ee60f8ee"},"vehicle_type_id":"4","last_reported":1736331000,"current_range_meters":6800,"station_id":"ce4bh0p2rcd13ifvqd80","pricing_plan_id":"cebpf4jnsgd1na2vs0mg"},{"bike_id":"8acf80f2-4e4a-44a4-941b-f3bd188c4a73","system_id":"levelo_inurba_marseille","lat":43.28284,"lon":5.35069,"is_reserved":false,"is_disabled":false,"rental_uris":{"android":"levelo://app?vid=8acf80f2-4e4a-44a4-941b-f3bd188c4a73","ios":"levelo://app?vid=8acf80f2-4e4a-44a4-941b-f3bd188c4a73"},"vehicle_type_id":"4","last_reported":1736331000,"current_range_meters":38400,"station_id":"ce4bhbp2rcd13ifvqerg","pricing_plan_id":"cebpf4jnsgd1na2vs0mg"},{"bike_id":"4010b5fc-e265-42e3-95df-3e0be1917975","system_id":"levelo_inurba_marseille","lat":43.292633,"lon":5.401134,"is_reserved":false,"is_disabled":false,"rental_uris":{"android":"levelo://app?vid=4010b5fc-e265-42e3-95df-3e0be1917975","ios":"levelo://app?vid=4010b5fc-e265-42e3-95df-3e0be1917975"},"vehicle_type_id":"4","last_reported":1736331000,"current_range_meters":30800,"station_id":"ce4bh312rcd13ifvqdk0","pricing_plan_id":"cebpf4jnsgd1na2vs0mg"},{"bike_id":"5bc37f34-a570-4087-afd6-4faaf22dd83e","system_id":"levelo_inurba_marseille","lat":43.32541,"lon":5.414499,"is_reserved":false,"is_disabled":false,"rental_uris":{"android":"levelo://app?vid=5bc37f34-a570-4087-afd6-4faaf22dd83e","ios":"levelo://app?vid=5bc37f34-a570-4087-afd6-4faaf22dd83e"},"vehicle_type_id":"4","last_reported":1736331000,"current_range_meters":32800,"station_id":"ce4bhq12rcd13ifvqhhg","pricing_plan_id":"cebpf4jnsgd1na2vs0mg"},{"bike_id":"fb01eb7d-0d19-4ede-832c-c472d729b8d4","system_id":"levelo_inurba_marseille","lat":43.30945,"lon":5.3905,"is_reserved":false,"is_disabled":false,"rental_uris":{"android":"levelo://app?vid=fb01eb7d-0d19-4ede-832c-c472d729b8d4","ios":"levelo://app?vid=fb01eb7d-0d19-4ede-832c-c472d729b8d4"},"vehicle_type_id":"4","last_reported":1736331000,"current_range_meters":15200,"station_id":"ce4bgup2rcd13ifvqco0","pricing_plan_id":"cebpf4jnsgd1na2vs0mg"},{"bike_id":"0b9cc547-5f61-4b6f-ad98-e007b15971b7","system_id":"levelo_inurba_marseille","lat":43.29628,"lon":5.37718,"is_reserved":false,"is_disabled":false,"rental_uris":{"android":"levelo://app?vid=0b9cc547-5f61-4b6f-ad98-e007b15971b7","ios":"levelo://app?vid=0b9cc547-5f61-4b6f-ad98-e007b15971b7"},"vehicle_type_id":"4","last_reported":1736331000,"current_range_meters":24000,"station_id":"ce4bgi92rcd13ifvqb90","pricing_plan_id":"cebpf4jnsgd1na2vs0mg"},{"bike_id":"295a4dcf-0b6e-4c11-b779-d48b33f08e0b","system_id":"levelo_inurba_marseille","lat":43.30166,"lon":5.36613,"is_reserved":false,"is_disabled":false,"rental_uris":{"android":"levelo://app?vid=295a4dcf-0b6e-4c11-b779-d48b33f08e0b","ios":"levelo://app?vid=295a4dcf-0b6e-4c11-b779-d48b33f08e0b"},"vehicle_type_id":"4","last_reported":1736331000,"current_range_meters":38800,"station_id":"ce4bgrh2rcd13ifvqc8g","pricing_plan_id":"cebpf4jnsgd1na2vs0mg"},{"bike_id":"ea3f7ffa-01ca-4030-84be-88dbb8d13230","system_id":"levelo_inurba_marseille","lat":43.27472,"lon":5.42452,"is_reserved":false,"is_disabled":false,"rental_uris":{"android":"levelo://app?vid=ea3f7ffa-01ca-4030-84be-88dbb8d13230","ios":"levelo://app?vid=ea3f7ffa-01ca-4030-84be-88dbb8d13230"},"vehicle_type_id":"4","last_reported":1736331000,"current_range_meters":32800,"station_id":"ce4bhn92rcd13ifvqgrg","pricing_plan_id":"cebpf4jnsgd1na2vs0mg"},{"bike_id":"1569853a-3f58-4ae9-8f61-db33ec95dfbc","system_id":"levelo_inurba_marseille","lat":43.32283,"lon":5.38287,"is_reserved":false,"is_disabled":false,"rental_uris":{"android":"levelo://app?vid=1569853a-3f58-4ae9-8f61-db33ec95dfbc","ios":"levelo://app?vid=1569853a-3f58-4ae9-8f61-db33ec95dfbc"},"vehicle_type_id":"4","last_reported":1736331000,"current_range_meters":38800,"station_id":"ce4bhr12rcd13ifvqhqg","pricing_plan_id":"cebpf4jnsgd1na2vs0mg"},{"bike_id":"f2ea6372-b9d9-4d1a-8370-1cf09c6d3f49","system_id":"levelo_inurba_marseille","lat":43.24093,"lon":5.37786,"is_reserved":false,"is_disabled":false,"rental_uris":{"android":"levelo://app?vid=f2ea6372-b9d9-4d1a-8370-1cf09c6d3f49","ios":"levelo://app?vid=f2ea6372-b9d9-4d1a-8370-1cf09c6d3f49"},"vehicle_type_id":"4","last_reported":1736331000,"current_range_meters":38800,"station_id":"ce4bhnp2rcd13ifvqgvg","pricing_plan_id":"cebpf4jnsgd1na2vs0mg"},{"bike_id":"546bf4ad-2cba-47ff-8fff-98adf60600c8","system_id":"levelo_inurba_marseille","lat":43.28616,"lon":5.35106,"is_reserved":false,"is_disabled":false,"rental_uris":{"android":"levelo://app?vid=546bf4ad-2cba-47ff-8fff-98adf60600c8","ios":"levelo://app?vid=546bf4ad-2cba-47ff-8fff-98adf60600c8"},"vehicle_type_id":"4","last_reported":1736331000,"current_range_meters":38400,"station_id":"ce4bhch2rcd13ifvqeug","pricing_plan_id":"cebpf4jnsgd1na2vs0mg"},{"bike_id":"ad5fa59e-3cd9-400e-b6df-20421d65f745","system_id":"levelo_inurba_marseille","lat":43.24068,"lon":5.37764,"is_reserved":false,"is_disabled":false,"rental_uris":{"android":"levelo://app?vid=ad5fa59e-3cd9-400e-b6df-20421d65f745","ios":"levelo://app?vid=ad5fa59e-3cd9-400e-b6df-20421d65f745"},"vehicle_type_id":"4","last_reported":1736331000,"current_range_meters":38800,"station_id":"ce4bhnp2rcd13ifvqgvg","pricing_plan_id":"cebpf4jnsgd1na2vs0mg"},{"bike_id":"1eecce4e-e774-4370-9544-6bbcd39b10bc","system_id":"levelo_inurba_marseille","lat":43.31217,"lon":5.36872,"is_reserved":false,"is_disabled":false,"rental_uris":{"android":"levelo://app?vid=1eecce4e-e774-4370-9544-6bbcd39b10bc","ios":"levelo://app?vid=1eecce4e-e774-4370-9544-6bbcd39b10bc"},"vehicle_type_id":"4","last_reported":1736331000,"current_range_meters":39200,"station_id":"ce4bgl92rcd13ifvqbq0","pricing_plan_id":"cebpf4jnsgd1na2vs0mg"},{"bike_id":"13ef97fd-a4dc-4128-81ba-c93f77a5e6f9","system_id":"levelo_inurba_marseille","lat":43.2705,"lon":5.40268,"is_reserved":false,"is_disabled":false,"rental_uris":{"android":"levelo://app?vid=13ef97fd-a4dc-4128-81ba-c93f77a5e6f9","ios":"levelo://app?vid=13ef97fd-a4dc-4128-81ba-c93f77a5e6f9"},"vehicle_type_id":"4","last_reported":1736331000,"current_range_meters":38400,"station_id":"ce4bhk92rcd13ifvqgc0","pricing_plan_id":"cebpf4jnsgd1na2vs0mg"},{"bike_id":"f0f170b8-94b1-4968-8b89-52f9e32fa834","system_id":"levelo_inurba_marseille","lat":43.24987,"lon":5.38959,"is_reserved":false,"is_disabled":false,"rental_uris":{"android":"levelo://app?vid=f0f170b8-94b1-4968-8b89-52f9e32fa834","ios":"levelo://app?vid=f0f170b8-94b1-4968-8b89-52f9e32fa834"},"vehicle_type_id":"4","last_reported":1736331000,"current_range_meters":24800,"station_id":"ce4bhgp2rcd13ifvqfd0","pricing_plan_id":"cebpf4jnsgd1na2vs0mg"},{"bike_id":"adb19c5c-da51-4fba-ba32-d2fa6d281586","system_id":"levelo_inurba_marseille","lat":43.27494,"lon":5.42455,"is_reserved":false,"is_disabled":false,"rental_uris":{"android":"levelo://app?vid=adb19c5c-da51-4fba-ba32-d2fa6d281586","ios":"levelo://app?vid=adb19c5c-da51-4fba-ba32-d2fa6d281586"},"vehicle_type_id":"4","last_reported":1736331000,"current_range_meters":28000,"station_id":"ce4bhn92rcd13ifvqgrg","pricing_plan_id":"cebpf4jnsgd1na2vs0mg"},{"bike_id":"304c7b37-1bde-4e18-a904-167256b37599","system_id":"levelo_inurba_marseille","lat":43.27486,"lon":5.42461,"is_reserved":false,"is_disabled":false,"rental_uris":{"android":"levelo://app?vid=304c7b37-1bde-4e18-a904-167256b37599","ios":"levelo://app?vid=304c7b37-1bde-4e18-a904-167256b37599"},"vehicle_type_id":"4","last_reported":1736331000,"current_range_meters":3200,"station_id":"ce4bhn92rcd13ifvqgrg","pricing_plan_id":"cebpf4jnsgd1na2vs0mg"},{"bike_id":"9f1d3216-7725-4600-abc1-82447f7ecac3","system_id":"levelo_inurba_marseille","lat":43.30551,"lon":5.3653,"is_reserved":false,"is_disabled":false,"rental_uris":{"android":"levelo://app?vid=9f1d3216-7725-4600-abc1-82447f7ecac3","ios":"levelo://app?vid=9f1d3216-7725-4600-abc1-82447f7ecac3"},"vehicle_type_id":"4","last_reported":1736331000,"current_range_meters":31200,"station_id":"ce4bgs12rcd13ifvqcag","pricing_plan_id":"cebpf4jnsgd1na2vs0mg"},