{"last_updated":1761476851,"ttl":60,"version":"2.2","data":{"bikes":[{"bike_id":"b9764ed2-f91a-421e-b54e-d7527bd8af22","system_id":"levelo_inurba_marseille","lat":43.29811,"lon":5.36588,"is_reserved":false,"is_disabled":false,"rental_uris":{"android":"levelo://app?vid=b9764ed2-f91a-421e-b54e-d7527bd8af22","ios":"levelo://app?vid=b9764ed2-f91a-421e-b54e-d7527bd8af22"},"vehicle_type_id":"4","last_reported":1761476851,"current_range_meters":2800,"station_id":"","pricing_plan_id":"cebpf4jnsgd1na2vs0mg"},{"bike_id":"69fbf5d7-a9e3-4bf6-a8f2-00d5422c6837","system_id":"levelo_inurba_marseille","lat":43.25099,"lon":5.39497,"is_reserved":false,"is_disabled":false,"rental_uris":{"android":"levelo://app?vid=69fbf5d7-a9e3-4bf6-a8f2-00d5422c6837","ios":"levelo://app?vid=69fbf5d7-a9e3-4bf6-a8f2-00d5422c6837"},"vehicle_type_id":"4","last_reported":1761476851,"current_range_meters":2800,"station_id":"ce4bhm12rcd13ifvqgkg","pricing_plan_id":"cebpf4jnsgd1na2vs0mg"},{"bike_id":"139d020b-78f9-452a-b9f6-07a4ecc161b4","system_id":"levelo_inurba_marseille","lat":43.245445,"lon":5.395257,"is_reserved":false,"is_disabled":false,"rental_uris":{"android":"levelo://app?vid=139d020b-78f9-452a-b9f6-07a4ecc161b4","ios":"levelo://app?vid=139d020b-78f9-452a-b9f6-07a4ecc161b4"},"vehicle_type_id":"4","last_reported":1761476851,"current_range_meters":2800,"station_id":"ce4bhlp2rcd13ifvqgjg","pricing_plan_id":"cebpf4jnsgd1na2vs0mg"},{"bike_id":"83d1586e-3b57-4f00-bd98-8daaf40bd93b","system_id":"levelo_inurba_marseille","lat":43.29848,"lon":5.36277,"is_reserved":false,"is_disabled":false,"rental_uris":{"android":"levelo://app?vid=83d1586e-3b57-4f00-bd98-8daaf40bd93b","ios":"levelo://app?vid=83d1586e-3b57-4f00-bd98-8daaf40bd93b"},"vehicle_type_id":"4","last_reported":1761476851,"current_range_meters":2800,"station_id":"ce4bgpp2rcd13ifvqc3g","pricing_plan_id":"cebpf4jnsgd1na2vs0mg"},{"bike_id":"e2b3d420-8e10-45de-9356-49d3b3d4105c","system_id":"levelo_inurba_marseille","lat":43.27207,"lon":5.39181,"is_reserved":false,"is_disabled":false,"rental_uris":{"android":"levelo://app?vid=e2b3d420-8e10-45de-9356-49d3b3d4105c","ios":"levelo://app?vid=e2b3d420-8e10-45de-9356-49d3b3d4105c"},"vehicle_type_id":"4","last_reported":1761476851,"current_range_meters":4000,"station_id":"ce4bhhp2rcd13ifvqfm0","pricing_plan_id":"cebpf4jnsgd1na2vs0mg"},{"bike_id":"11ed3229-da96-464f-bee1-15ff06dff35a","system_id":"levelo_inurba_marseille","lat":43.21192,"lon":5.35071,"is_reserved":false,"is_disabled":false,"rental_uris":{"android":"levelo://app?vid=11ed3229-da96-464f-bee1-15ff06dff35a","ios":"levelo://app?vid=11ed3229-da96-464f-bee1-15ff06dff35a"},"vehicle_type_id":"4","last_reported":1761476851,"current_range_meters":4000,"station_id":"st_cvj6sg6p6f1abm77japg","pricing_plan_id":"cebpf4jnsgd1na2vs0mg"},{"bike_id":"b77291d9-5b98-4fa6-93de-8ef47d6057cf","system_id":"levelo_inurba_marseille","lat":43.300452,"lon":5.374167,"is_reserved":false,"is_disabled":false,"rental_uris":{"android":"levelo://app?vid=b77291d9-5b98-4fa6-93de-8ef47d6057cf","ios":"levelo://app?vid=b77291d9-5b98-4fa6-93de-8ef47d6057cf"},"vehicle_type_id":"4","last_reported":1761476851,"current_range_meters":4000,"station_id":"ce4bgs92rcd13ifvqcc0","pricing_plan_id":"cebpf4jnsgd1na2vs0mg"},{"bike_id":"4cc0edfc-ff46-4c96-9438-209e9afb380b","system_id":"levelo_inurba_marseille","lat":43.2823,"lon":5.37252,"is_reserved":false,"is_disabled":false,"rental_uris":{"android":"levelo://app?vid=4cc0edfc-ff46-4c96-9438-209e9afb380b","ios":"levelo://app?vid=4cc0edfc-ff46-4c96-9438-209e9afb380b"},"vehicle_type_id":"4","last_reported":1761476851,"current_range_meters":4400,"station_id":"","pricing_plan_id":"cebpf4jnsgd1na2vs0mg"},{"bike_id":"e35e1247-2ec0-4206-a360-6aaa534a130f","system_id":"levelo_inurba_marseille","lat":43.28484,"lon":5.48388,"is_reserved":false,"is_disabled":false,"rental_uris":{"android":"levelo://app?vid=e35e1247-2ec0-4206-a360-6aaa534a130f","ios":"levelo://app?vid=e35e1247-2ec0-4206-a360-6aaa534a130f"},"vehicle_type_id":"4","last_reported":1761476851,"current_range_meters":4400,"station_id":"st_d3svhcjqgbts73a3dn0g","pricing_plan_id":"cebpf4jnsgd1na2vs0mg"},{"bike_id":"c97e2da3-f938-4bb6-a99e-7041ad969b33","system_id":"levelo_inurba_marseille","lat":43.28583,"lon":5.39918,"is_reserved":false,"is_disabled":false,"rental_uris":{"android":"levelo://app?vid=c97e2da3-f938-4bb6-a99e-7041ad969b33","ios":"levelo://app?vid=c97e2da3-f938-4bb6-a99e-7041ad969b33"},"vehicle_type_id":"4","last_reported":1761476851,"current_range_meters":4800,"station_id":"","pricing_plan_id":"cebpf4jnsgd1na2vs0mg"},{"bike_id":"b3160317-0963-48d9-91d8-043b1042fa86","system_id":"levelo_inurba_marseille","lat":43.269415,"lon":5.392587,"is_reserved":false,"is_disabled":false,"rental_uris":{"android":"levelo://app?vid=b3160317-0963-48d9-91d8-043b1042fa86","ios":"levelo://app?vid=b3160317-0963-48d9-91d8-043b1042fa86"},"vehicle_type_id":"4","last_reported":1761476851,"current_range_meters":4800,"station_id":"","pricing_plan_id":"cebpf4jnsgd1na2vs0mg"},{"bike_id":"a347fd3c-29f5-450a-a50d-19637b2e7075","system_id":"levelo_inurba_marseille","lat":43.295283,"lon":5.38539,"is_reserved":false,"is_disabled":true,"rental_uris":{"android":"levelo://app?vid=a347fd3c-29f5-450a-a50d-19637b2e7075","ios":"levelo://app?vid=a347fd3c-29f5-450a-a50d-19637b2e7075"},"vehicle_type_id":"4","last_reported":1761476851,"current_range_meters":4800,"station_id":"ce4bgih2rcd13ifvqba0","pricing_plan_id":"cebpf4jnsgd1na2vs0mg"},{"bike_id":"5f9debc0-c360-4a2e-b517-592e9a0c2818","system_id":"levelo_inurba_marseille","lat":43.32933,"lon":5.42766,"is_reserved":false,"is_disabled":false,"rental_uris":{"android":"levelo://app?vid=5f9debc0-c360-4a2e-b517-592e9a0c2818","ios":"levelo://app?vid=5f9debc0-c360-4a2e-b517-592e9a0c2818"},"vehicle_type_id":"4","last_reported":1761476851,"current_range_meters":5600,"station_id":"","pricing_plan_id":"cebpf4jnsgd1na2vs0mg"},{"bike_id":"fec7e578-506b-4de7-ae48-8569e4904ddb","system_id":"levelo_inurba_marseille","lat":43.2826,"lon":5.35054,"is_reserved":false,"is_disabled":false,"rental_uris":{"android":"levelo://app?vid=fec7e578-506b-4de7-ae48-8569e4904ddb","ios":"levelo://app?vid=fec7e578-506b-4de7-ae48-8569e4904ddb"},"vehicle_type_id":"4","last_reported":1761476851,"current_range_meters":5600,"station_id":"ce4bhbp2rcd13ifvqerg","pricing_plan_id":"cebpf4jnsgd1na2vs0mg"},{"bike_id":"ce4cbc8c-f134-4256-a32e-1f00470425f1","system_id":"levelo_inurba_marseille","lat":43.30322,"lon":5.40421,"is_reserved":false,"is_disabled":false,"rental_uris":{"android":"levelo://app?vid=ce4cbc8c-f134-4256-a32e-1f00470425f1","ios":"levelo://app?vid=ce4cbc8c-f134-4256-a32e-1f00470425f1"},"vehicle_type_id":"4","last_reported":1761476851,"current_range_meters":6000,"station_id":"ce4bh012rcd13ifvqd10","pricing_plan_id":"cebpf4jnsgd1na2vs0mg"},{"bike_id":"6398fd05-47e5-41f8-95bf-116d17d1d757","system_id":"levelo_inurba_marseille","lat":43.292603,"lon":5.384447,"is_reserved":false,"is_disabled":false,"rental_uris":{"android":"levelo://app?vid=6398fd05-47e5-41f8-95bf-116d17d1d757","ios":"levelo://app?vid=6398fd05-47e5-41f8-95bf-116d17d1d757"},"vehicle_type_id":"4","last_reported":1761476851,"current_range_meters":6000,"station_id":"","pricing_plan_id":"cebpf4jnsgd1na2vs0mg"},{"bike_id":"450d8b79-87cf-4bc9-9f1e-178fdba5128a","system_id":"levelo_inurba_marseille","lat":43.29844,"lon":5.36268,"is_reserved":false,"is_disabled":false,"rental_uris":{"android":"levelo://app?vid=450d8b79-87cf-4bc9-9f1e-178fdba5128a","ios":"levelo://app?vid=450d8b79-87cf-4bc9-9f1e-178fdba5128a"},"vehicle_type_id":"4","last_reported":1761476851,"current_range_meters":6000,"station_id":"ce4bgpp2rcd13ifvqc3g","pricing_plan_id":"cebpf4jnsgd1na2vs0mg"},{"bike_id":"490a1ed7-74fb-4948-a6bb-63cb3053ea75","system_id":"levelo_inurba_marseille","lat":43.28271,"lon":5.35058,"is_reserved":false,"is_disabled":false,"rental_uris":{"android":"levelo://app?vid=490a1ed7-74fb-4948-a6bb-63cb3053ea75","ios":"levelo://app?vid=490a1ed7-74fb-4948-a6bb-63cb3053ea75"},"vehicle_type_id":"4","last_reported":1761476851,"current_range_meters":6400,"station_id":"ce4bhbp2rcd13ifvqerg","pricing_plan_id":"cebpf4jnsgd1na2vs0mg"},{"bike_id":"4f5c5045-2f2c-4ab7-ad8b-eeba1d52fe66","system_id":"levelo_inurba_marseille","lat":43.3107,"lon":5.37454,"is_reserved":false,"is_disabled":false,"rental_uris":{"android":"levelo://app?vid=4f5c5045-2f2c-4ab7-ad8b-eeba1d52fe66","ios":"levelo://app?vid=4f5c5045-2f2c-4ab7-ad8b-eeba1d52fe66"},"vehicle_type_id":"4","last_reported":1761476851,"current_range_meters":6400,"station_id":"","pricing_plan_id":"cebpf4jnsgd1na2vs0mg"},{"bike_id":"9d52abc8-4980-48f0-9b9e-17d5d8d97fb5","system_id":"levelo_inurba_marseille","lat":43.27209,"lon":5.39187,"is_reserved":false,"is_disabled":false,"rental_uris":{"android":"levelo://app?vid=9d52abc8-4980-48f0-9b9e-17d5d8d97fb5","ios":"levelo://app?vid=9d52abc8-4980-48f0-9b9e-17d5d8d97fb5"},"vehicle_type_id":"4","last_reported":1761476851,"current_range_meters":6400,"station_id":"ce4bhhp2rcd13ifvqfm0","pricing_plan_id":"cebpf4jnsgd1na2vs0mg"},{"bike_id":"fa063608-29c2-42ab-95b5-2fc82231eea9","system_id":"levelo_inurba_marseille","lat":43.21191,"lon":5.35073,"is_reserved":false,"is_disabled":false,"rental_uris":{"android":"levelo://app?vid=fa063608-29c2-42ab-95b5-2fc82231eea9","ios":"levelo://app?vid=fa063608-29c2-42ab-95b5-2fc82231eea9"},"vehicle_type_id":"4","last_reported":1761476851,"current_range_meters":6400,"station_id":"st_cvj6sg6p6f1abm77japg","pricing_plan_id":"cebpf4jnsgd1na2vs0mg"},{"bike_id":"83bde724-3ddc-48e3-b84b-40d42bcf4699","system_id":"levelo_inurba_marseille","lat":43.28408,"lon":5.37509,"is_reserved":false,"is_disabled":false,"rental_uris":{"android":"levelo://app?vid=83bde724-3ddc-48e3-b84b-40d42bcf4699","ios":"levelo://app?vid=83bde724-3ddc-48e3-b84b-40d42bcf4699"},"vehicle_type_id":"4","last_reported":1761476851,"current_range_meters":6400,"station_id":"ce4bh412rcd13ifvqds0","pricing_plan_id":"cebpf4jnsgd1na2vs0mg"},{"bike_id":"b798b7f0-29d3-424d-8fdf-632ddf419df6","system_id":"levelo_inurba_marseille","lat":43.22639,"lon":5.41673,"is_reserved":false,"is_disabled":false,"rental_uris":{"android":"levelo://app?vid=b798b7f0-29d3-424d-8fdf-632ddf419df6","ios":"levelo://app?vid=b798b7f0-29d3-424d-8fdf-632ddf419df6"},"vehicle_type_id":"4","last_reported":1761476851,"current_range_meters":6400,"station_id":"","pricing_plan_id":"cebpf4jnsgd1na2vs0mg"},{"bike_id":"e94f57f2-601c-4cad-a187-6e953770aa25","system_id":"levelo_inurba_marseille","lat":43.31218,"lon":5.37825,"is_reserved":false,"is_disabled":false,"rental_uris":{"android":"levelo://app?vid=e94f57f2-601c-4cad-a187-6e953770aa25","ios":"levelo://app?vid=e94f57f2-601c-4cad-a187-6e953770aa25"},"vehicle_type_id":"4","last_reported":1761476851,"current_range_meters":6800,"station_id":"","pricing_plan_id":"cebpf4jnsgd1na2vs0mg"},{"bike_id":"e11539cf-880f-400e-a217-6721829ae9a7","system_id":"levelo_inurba_marseille","lat":43.3053,"lon":5.36557,"is_reserved":false,"is_disabled":false,"rental_uris":{"android":"levelo://app?vid=e11539cf-880f-400e-a217-6721829ae9a7","ios":"levelo://app?vid=e11539cf-880f-400e-a217-6721829ae9a7"},"vehicle_type_id":"4","last_reported":1761476851,"current_range_meters":6800,"station_id":"ce4bgs12rcd13ifvqcag","pricing_plan_id":"cebpf4jnsgd1na2vs0mg"},{"bike_id":"2b08430f-3826-4249-8325-53b3985c5d73","system_id":"levelo_inurba_marseille","lat":43.27836,"lon":5.41479,"is_reserved":false,"is_disabled":false,"rental_uris":{"android":"levelo://app?vid=2b08430f-3826-4249-8325-53b3985c5d73","ios":"levelo://app?vid=2b08430f-3826-4249-8325-53b3985c5d73"},"vehicle_type_id":"4","last_reported":1761476851,"current_range_meters":7200,"station_id":"","pricing_plan_id":"cebpf4jnsgd1na2vs0mg"},{"bike_id":"50c984a5-58ba-4c44-b577-41bc4679b329","system_id":"levelo_inurba_marseille","lat":43.22562,"lon":5.41629,"is_reserved":false,"is_disabled":false,"rental_uris":{"android":"levelo://app?vid=50c984a5-58ba-4c44-b577-41bc4679b329","ios":"levelo://app?vid=50c984a5-58ba-4c44-b577-41bc4679b329"},"vehicle_type_id":"4","last_reported":1761476851,"current_range_meters":7200,"station_id":"st_d2o4gvlbi1j2169b742g","pricing_plan_id":"cebpf4jnsgd1na2vs0mg"},{"bike_id":"cddf922e-3dbd-438a-88c4-2760593edffe","system_id":"levelo_inurba_marseille","lat":43.29583,"lon":5.37501,"is_reserved":false,"is_disabled":true,"rental_uris":{"android":"levelo://app?vid=cddf922e-3dbd-438a-88c4-2760593edffe","ios":"levelo://app?vid=cddf922e-3dbd-438a-88c4-2760593edffe"},"vehicle_type_id":"4","last_reported":1761476851,"current_range_meters":7200,"station_id":"ce4bgh92rcd13ifvqb50","pricing_plan_id":"cebpf4jnsgd1na2vs0mg"},{"bike_id":"abed73dc-d59e-4615-9a07-884bd6ad46c1","system_id":"levelo_inurba_marseille","lat":43.30429,"lon":5.39743,"is_reserved":false,"is_disabled":false,"rental_uris":{"android":"levelo://app?vid=abed73dc-d59e-4615-9a07-884bd6ad46c1","ios":"levelo://app?vid=abed73dc-d59e-4615-9a07-884bd6ad46c1"},"vehicle_type_id":"4","last_reported":1761476851,"current_range_meters":7200,"station_id":"ce4bh092rcd13ifvqd20","pricing_plan_id":"cebpf4jnsgd1na2vs0mg"},{"bike_id":"51b614d1-6dfe-4e67-9a5e-bfd8acf52d94","system_id":"levelo_inurba_marseille","lat":43.3014,"lon":5.38768,"is_reserved":false,"is_disabled":true,"rental_uris":{"android":"levelo://app?vid=51b614d1-6dfe-4e67-9a5e-bfd8acf52d94","ios":"levelo://app?vid=51b614d1-6dfe-4e67-9a5e-bfd8acf52d94"},"vehicle_type_id":"4","last_reported":1761476851,"current_range_meters":8000,"station_id":"ce4bghh2rcd13ifvqb60","pricing_plan_id":"cebpf4jnsgd1na2vs0mg"},{"bike_id":"a35a4922-b803-4cd9-8623-7e895c294787","system_id":"levelo_inurba_marseille","lat":43.298134,"lon":5.382368,"is_reserved":false,"is_disabled":true,"rental_uris":{"android":"levelo://app?vid=a35a4922-b803-4cd9-8623-7e895c294787","ios":"levelo://app?vid=a35a4922-b803-4cd9-8623-7e895c294787"},"vehicle_type_id":"4","last_reported":1761476851,"current_range_meters":8000,"station_id":"","pricing_plan_id":"cebpf4jnsgd1na2vs0mg"},{"bike_id":"8be6a47c-9542-4fed-8109-f6d91a0f2b3f","system_id":"levelo_inurba_marseille","lat":43.29174,"lon":5.37161,"is_reserved":false,"is_disabled":false,"rental_uris":{"android":"levelo://app?vid=8be6a47c-9542-4fed-8109-f6d91a0f2b3f","ios":"levelo://app?vid=8be6a47c-9542-4fed-8109-f6d91a0f2b3f"},"vehicle_type_id":"4","last_reported":1761476851,"current_range_meters":8400,"station_id":"ce4bha92rcd13ifvqeh0","pricing_plan_id":"cebpf4jnsgd1na2vs0mg"},{"bike_id":"ee4c4f4b-4176-4af3-91f9-c9e6597ed9e6","system_id":"levelo_inurba_marseille","lat":43.26932,"lon":5.3891,"is_reserved":false,"is_disabled":false,"rental_uris":{"android":"levelo://app?vid=ee4c4f4b-4176-4af3-91f9-c9e6597ed9e6","ios":"levelo://app?vid=ee4c4f4b-4176-4af3-91f9-c9e6597ed9e6"},"vehicle_type_id":"4","last_reported":1761476851,"current_range_meters":8400,"station_id":"ce4bhhh2rcd13ifvqfl0","pricing_plan_id":"cebpf4jnsgd1na2vs0mg"},{"bike_id":"9d964ec4-c537-4f1d-b21c-451d3f46b1bf","system_id":"levelo_inurba_marseille","lat":43.29892,"lon":5.37898,"is_reserved":false,"is_disabled":false,"rental_uris":{"android":"levelo://app?vid=9d964ec4-c537-4f1d-b21c-451d3f46b1bf","ios":"levelo://app?vid=9d964ec4-c537-4f1d-b21c-451d3f46b1bf"},"vehicle_type_id":"4","last_reported":1761476851,"current_range_meters":8400,"station_id":"","pricing_plan_id":"cebpf4jnsgd1na2vs0mg"},{"bike_id":"b271dec7-e9c0-4031-a78b-d3a50b11d54a","system_id":"levelo_inurba_marseille","lat":43.28686,"lon":5.4126,"is_reserved":false,"is_disabled":false,"rental_uris":{"android":"levelo://app?vid=b271dec7-e9c0-4031-a78b-d3a50b11d54a","ios":"levelo://app?vid=b271dec7-e9c0-4031-a78b-d3a50b11d54a"},"vehicle_type_id":"4","last_reported":1761476851,"current_range_meters":8400,"station_id":"","pricing_plan_id":"cebpf4jnsgd1na2vs0mg"},{"bike_id":"dab36927-4328-48fa-bffb-145a737de07e","system_id":"levelo_inurba_marseille","lat":43.30798,"lon":5.43527,"is_reserved":false,"is_disabled":true,"rental_uris":{"android":"levelo://app?vid=dab36927-4328-48fa-bffb-145a737de07e","ios":"levelo://app?vid=dab36927-4328-48fa-bffb-145a737de07e"},"vehicle_type_id":"4","last_reported":1761476851,"current_range_meters":8800,"station_id":"ce4bhph2rcd13ifvqheg","pricing_plan_id":"cebpf4jnsgd1na2vs0mg"},{"bike_id":"00250570-c13f-4771-bf65-486a84d13214","system_id":"levelo_inurba_marseille","lat":43.275669,"lon":5.384194,"is_reserved":false,"is_disabled":false,"rental_uris":{"android":"levelo://app?vid=00250570-c13f-4771-bf65-486a84d13214","ios":"levelo://app?vid=00250570-c13f-4771-bf65-486a84d13214"},"vehicle_type_id":"4","last_reported":1761476851,"current_range_meters":8800,"station_id":"ce4bhh92rcd13ifvqfi0","pricing_plan_id":"cebpf4jnsgd1na2vs0mg"},{"bike_id":"2747bb1b-42c4-423b-b799-c69a95539a35","system_id":"levelo_inurba_marseille","lat":43.23201,"lon":5.40001,"is_reserved":false,"is_disabled":false,"rental_uris":{"android":"levelo://app?vid=2747bb1b-42c4-423b-b799-c69a95539a35","ios":"levelo://app?vid=2747bb1b-42c4-423b-b799-c69a95539a35"},"vehicle_type_id":"4","last_reported":1761476851,"current_range_meters":8800,"station_id":"ce4bhn12rcd13ifvqgqg","pricing_plan_id":"cebpf4jnsgd1na2vs0mg"},{"bike_id":"43117888-69d1-4bc6-a73a-697554e4a08e","system_id":"levelo_inurba_marseille","lat":43.252552,"lon":5.378074,"is_reserved":false,"is_disabled":false,"rental_uris":{"android":"levelo://app?vid=43117888-69d1-4bc6-a73a-697554e4a08e","ios":"levelo://app?vid=43117888-69d1-4bc6-a73a-697554e4a08e"},"vehicle_type_id":"4","last_reported":1761476851,"current_range_meters":9200,"station_id":"","pricing_plan_id":"cebpf4jnsgd1na2vs0mg"},{"bike_id":"90309e2f-4739-4002-bf98-4828c1a268b3","system_id":"levelo_inurba_marseille","lat":43.30949,"lon":5.39034,"is_reserved":false,"is_disabled":false,"rental_uris":{"android":"levelo://app?vid=90309e2f-4739-4002-bf98-4828c1a268b3","ios":"levelo://app?vid=90309e2f-4739-4002-bf98-4828c1a268b3"},"vehicle_type_id":"4","last_reported":1761476851,"current_range_meters":9200,"station_id":"ce4bgup2rcd13ifvqco0","pricing_plan_id":"cebpf4jnsgd1na2vs0mg"},{"bike_id":"55a3d7bc-f5bb-45e5-870d-34d2354f8948","system_id":"levelo_inurba_marseille","lat":43.27426,"lon":5.39402,"is_reserved":false,"is_disabled":false,"rental_uris":{"android":"levelo://app?vid=55a3d7bc-f5bb-45e5-870d-34d2354f8948","ios":"levelo://app?vid=55a3d7bc-f5bb-45e5-870d-34d2354f8948"},"vehicle_type_id":"4","last_reported":1761476851,"current_range_meters":9200,"station_id":"ce4bhdp2rcd13ifvqf20","pricing_plan_id":"cebpf4jnsgd1na2vs0mg"},{"bike_id":"00e6d2e6-8578-4f69-bc4e-51a76833fed7","system_id":"levelo_inurba_marseille","lat":43.29572,"lon":5.37522,"is_reserved":false,"is_disabled":false,"rental_uris":{"android":"levelo://app?vid=00e6d2e6-8578-4f69-bc4e-51a76833fed7","ios":"levelo://app?vid=00e6d2e6-8578-4f69-bc4e-51a76833fed7"},"vehicle_type_id":"4","last_reported":1761476851,"current_range_meters":9200,"station_id":"ce4bgh92rcd13ifvqb50","pricing_plan_id":"cebpf4jnsgd1na2vs0mg"},{"bike_id":"c46edca3-23c9-42d4-b657-af9b0128ee46","system_id":"levelo_inurba_marseille","lat":43.31169,"lon":5.38716,"is_reserved":false,"is_disabled":false,"rental_uris":{"android":"levelo://app?vid=c46edca3-23c9-42d4-b657-af9b0128ee46","ios":"levelo://app?vid=c46edca3-23c9-42d4-b657-af9b0128ee46"},"vehicle_type_id":"4","last_reported":1761476851,"current_range_meters":9200,"station_id":"ce4bgv12rcd13ifvqcp0","pricing_plan_id":"cebpf4jnsgd1na2vs0mg"},{"bike_id":"8ccfbb85-30a5-4745-96f0-a706b72218a1","system_id":"levelo_inurba_marseille","lat":43.31424,"lon":5.38882,"is_reserved":false,"is_disabled":false,"rental_uris":{"android":"levelo://app?vid=8ccfbb85-30a5-4745-96f0-a706b72218a1","ios":"levelo://app?vid=8ccfbb85-30a5-4745-96f0-a706b72218a1"},"vehicle_type_id":"4","last_reported":1761476851,"current_range_meters":9600,"station_id":"","pricing_plan_id":"cebpf4jnsgd1na2vs0mg"},{"bike_id":"f368b25a-4d02-443d-abea-6209d0c00b02","system_id":"levelo_inurba_marseille","lat":43.29653,"lon":5.3781,"is_reserved":false,"is_disabled":false,"rental_uris":{"android":"levelo://app?vid=f368b25a-4d02-443d-abea-6209d0c00b02","ios":"levelo://app?vid=f368b25a-4d02-443d-abea-6209d0c00b02"},"vehicle_type_id":"4","last_reported":1761476851,"current_range_meters":9600,"station_id":"","pricing_plan_id":"cebpf4jnsgd1na2vs0mg"},{"bike_id":"73254c08-27a7-4de5-9100-903e54aa8b18","system_id":"levelo_inurba_marseille","lat":43.28033,"lon":5.36941,"is_reserved":false,"is_disabled":false,"rental_uris":{"android":"levelo://app?vid=73254c08-27a7-4de5-9100-903e54aa8b18","ios":"levelo://app?vid=73254c08-27a7-4de5-9100-903e54aa8b18"},"vehicle_type_id":"4","last_reported":1761476851,"current_range_meters":9600,"station_id":"ce4bha12rcd13ifvqef0","pricing_plan_id":"cebpf4jnsgd1na2vs0mg"},{"bike_id":"b2207b4c-e03d-4fc5-af20-84e4c31f53bd","system_id":"levelo_inurba_marseille","lat":43.25585,"lon":5.38233,"is_reserved":false,"is_disabled":false,"rental_uris":{"android":"levelo://app?vid=b2207b4c-e03d-4fc5-af20-84e4c31f53bd","ios":"levelo://app?vid=b2207b4c-e03d-4fc5-af20-84e4c31f53bd"},"vehicle_type_id":"4","last_reported":1761476851,"current_range_meters":9600,"station_id":"ce4bhih2rcd13ifvqfs0","pricing_plan_id":"cebpf4jnsgd1na2vs0mg"},{"bike_id":"ada6bb43-c319-49f8-b5dc-a8c28c3f41bb","system_id":"levelo_inurba_marseille","lat":43.26566,"lon":5.39007,"is_reserved":false,"is_disabled":false,"rental_uris":{"android":"levelo://app?vid=ada6bb43-c319-49f8-b5dc-a8c28c3f41bb","ios":"levelo://app?vid=ada6bb43-c319-49f8-b5dc-a8c28c3f41bb"},"vehicle_type_id":"4","last_reported":1761476851,"current_range_meters":9600,"station_id":"ce4bhe12rcd13ifvqf30","pricing_plan_id":"cebpf4jnsgd1na2vs0mg"},{"bike_id":"64133b7a-c1ee-48c1-b1ae-79ea67109d26","system_id":"levelo_inurba_marseille","lat":43.290222,"lon":5.381273,"is_reserved":false,"is_disabled":false,"rental_uris":{"android":"levelo://app?vid=64133b7a-c1ee-48c1-b1ae-79ea67109d26","ios":"levelo://app?vid=64133b7a-c1ee-48c1-b1ae-79ea67109d26"},"vehicle_type_id":"4","last_reported":1761476851,"current_range_meters":10000,"station_id":"ce4bh4p2rcd13ifvqe1g","pricing_plan_id":"cebpf4jnsgd1na2vs0mg"},{"bike_id":"e8875dd7-113a-4656-954c-c70d846454f9","system_id":"levelo_inurba_marseille","lat":43.26805,"lon":5.40269,"is_reserved":false,"is_disabled":false,"rental_uris":{"android":"levelo://app?vid=e8875dd7-113a-4656-954c-c70d846454f9","ios":"levelo://app?vid=e8875dd7-113a-4656-954c-c70d846454f9"},"vehicle_type_id":"4","last_reported":1761476851,"current_range_meters":10000,"station_id":"ce501612rcd8frsf0b60","pricing_plan_id":"cebpf4jnsgd1na2vs0mg"},{"bike_id":"44584dca-964a-47ed-8e43-603d482f5e66","system_id":"levelo_inurba_marseille","lat":43.28366,"lon":5.38621,"is_reserved":false,"is_disabled":false,"rental_uris":{"android":"levelo://app?vid=44584dca-964a-47ed-8e43-603d482f5e66","ios":"levelo://app?vid=44584dca-964a-47ed-8e43-603d482f5e66"},"vehicle_type_id":"4","last_reported":1761476851,"current_range_meters":10000,"station_id":"ce4bh492rcd13ifvqdvg","pricing_plan_id":"cebpf4jnsgd1na2vs0mg"},{"bike_id":"d3145067-3ca0-4e72-b01a-ef78c0959aad","system_id":"levelo_inurba_marseille","lat":43.30239,"lon":5.40044,"is_reserved":false,"is_disabled":true,"rental_uris":{"android":"levelo://app?vid=d3145067-3ca0-4e72-b01a-ef78c0959aad","ios":"levelo://app?vid=d3145067-3ca0-4e72-b01a-ef78c0959aad"},"vehicle_type_id":"4","last_reported":1761476851,"current_range_meters":10000,"station_id":"ce4bgvh2rcd13ifvqcs0","pricing_plan_id":"cebpf4jnsgd1na2vs0mg"},{"bike_id":"769c397f-09ca-48fa-b2c0-d8e1c1b9ef08","system_id":"levelo_inurba_marseille","lat":43.28468,"lon":5.35882,"is_reserved":false,"is_disabled":false,"rental_uris":{"android":"levelo://app?vid=769c397f-09ca-48fa-b2c0-d8e1c1b9ef08","ios":"levelo://app?vid=769c397f-09ca-48fa-b2c0-d8e1c1b9ef08"},"vehicle_type_id":"4","last_reported":1761476851,"current_range_meters":10800,"station_id":"ce4bhah2rcd13ifvqei0","pricing_plan_id":"cebpf4jnsgd1na2vs0mg"},{"bike_id":"a959d8d8-3400-459b-981e-5531cddb9558","system_id":"levelo_inurba_marseille","lat":43.231836,"lon":5.399804,"is_reserved":false,"is_disabled":false,"rental_uris":{"android":"levelo://app?vid=a959d8d8-3400-459b-981e-5531cddb9558","ios":"levelo://app?vid=a959d8d8-3400-459b-981e-5531cddb9558"},"vehicle_type_id":"4","last_reported":1761476851,"current_range_meters":10800,"station_id":"ce4bhn12rcd13ifvqgqg","pricing_plan_id":"cebpf4jnsgd1na2vs0mg"},{"bike_id":"a28d8ce6-ce29-467b-922e-288e91a9ac97","system_id":"levelo_inurba_marseille","lat":43.30227,"lon":5.3947,"is_reserved":false,"is_disabled":false,"rental_uris":{"android":"levelo://app?vid=a28d8ce6-ce29-467b-922e-288e91a9ac97","ios":"levelo://app?vid=a28d8ce6-ce29-467b-922e-288e91a9ac97"},"vehicle_type_id":"4","last_reported":1761476851,"current_range_meters":10800,"station_id":"ce4bh0p2rcd13ifvqd70","pricing_plan_id":"cebpf4jnsgd1na2vs0mg"},{"bike_id":"5dd04910-101f-4654-853d-341f84b98945","system_id":"levelo_inurba_marseille","lat":43.28997,"lon":5.37196,"is_reserved":false,"is_disabled":false,"rental_uris":{"android":"levelo://app?vid=5dd04910-101f-4654-853d-341f84b98945","ios":"levelo://app?vid=5dd04910-101f-4654-853d-341f84b98945"},"vehicle_type_id":"4","last_reported":1761476851,"current_range_meters":10800,"station_id":"","pricing_plan_id":"cebpf4jnsgd1na2vs0mg"},{"bike_id":"6572f744-97d3-45c4-b2fd-95f9bacb0231","system_id":"levelo_inurba_marseille","lat":43.29277,"lon":5.36848,"is_reserved":false,"is_disabled":false,"rental_uris":{"android":"levelo://app?vid=6572f744-97d3-45c4-b2fd-95f9bacb0231","ios":"levelo://app?vid=6572f744-97d3-45c4-b2fd-95f9bacb0231"},"vehicle_type_id":"4","last_reported":1761476851,"current_range_meters":10800,"station_id":"ce4bhbp2rcd13ifvqesg","pricing_plan_id":"cebpf4jnsgd1na2vs0mg"},{"bike_id":"772bca1d-7bba-4902-9632-29688fa4757c","system_id":"levelo_inurba_marseille","lat":43.29867,"lon":5.36297,"is_reserved":false,"is_disabled":false,"rental_uris":{"android":"levelo://app?vid=772bca1d-7bba-4902-9632-29688fa4757c","ios":"levelo://app?vid=772bca1d-7bba-4902-9632-29688fa4757c"},"vehicle_type_id":"4","last_reported":1761476851,"current_range_meters":10800,"station_id":"ce4bgpp2rcd13ifvqc3g","pricing_plan_id":"cebpf4jnsgd1na2vs0mg"},{"bike_id":"2d2b3a0d-5fe0-4130-853e-b3238745f69f","system_id":"levelo_inurba_marseille","lat":43.26571,"lon":5.39012,"is_reserved":false,"is_disabled":false,"rental_uris":{"android":"levelo://app?vid=2d2b3a0d-5fe0-4130-853e-b3238745f69f","ios":"levelo://app?vid=2d2b3a0d-5fe0-4130-853e-b3238745f69f"},"vehicle_type_id":"4","last_reported":1761476851,"current_range_meters":11600,"station_id":"ce4bhe12rcd13ifvqf30","pricing_plan_id":"cebpf4jnsgd1na2vs0mg"},{"bike_id":"a7b24216-4bc4-4eec-9601-98ed556867f7","system_id":"levelo_inurba_marseille","lat":43.27416,"lon":5.39422,"is_reserved":false,"is_disabled":false,"rental_uris":{"android":"levelo://app?vid=a7b24216-4bc4-4eec-9601-98ed556867f7","ios":"levelo://app?vid=a7b24216-4bc4-4eec-9601-98ed556867f7"},"vehicle_type_id":"4","last_reported":1761476851,"current_range_meters":12000,"station_id":"ce4bhdp2rcd13ifvqf20","pricing_plan_id":"cebpf4jnsgd1na2vs0mg"},{"bike_id":"e3c37ef6-fc8d-40f6-aaa7-3e531d410441","system_id":"levelo_inurba_marseille","lat":43.33754,"lon":5.39182,"is_reserved":false,"is_disabled":false,"rental_uris":{"android":"levelo://app?vid=e3c37ef6-fc8d-40f6-aaa7-3e531d410441","ios":"levelo://app?vid=e3c37ef6-fc8d-40f6-aaa7-3e531d410441"},"vehicle_type_id":"4","last_reported":1761476851,"current_range_meters":12000,"station_id":"ce4bhr92rcd13ifvqhsg","pricing_plan_id":"cebpf4jnsgd1na2vs0mg"},{"bike_id":"277f0bc1-4cdb-4e48-966c-c6257b9aa300","system_id":"levelo_inurba_marseille","lat":43.22559,"lon":5.41623,"is_reserved":false,"is_disabled":false,"rental_uris":{"android":"levelo://app?vid=277f0bc1-4cdb-4e48-966c-c6257b9aa300","ios":"levelo://app?vid=277f0bc1-4cdb-4e48-966c-c6257b9aa300"},"vehicle_type_id":"4","last_reported":1761476851,"current_range_meters":12000,"station_id":"st_d2o4gvlbi1j2169b742g","pricing_plan_id":"cebpf4jnsgd1na2vs0mg"},{"bike_id":"e5bd73c9-d2fd-429b-a719-e50033314cf7","system_id":"levelo_inurba_marseille","lat":43.22548,"lon":5.41648,"is_reserved":false,"is_disabled":false,"rental_uris":{"android":"levelo://app?vid=e5bd73c9-d2fd-429b-a719-e50033314cf7","ios":"levelo://app?vid=e5bd73c9-d2fd-429b-a719-e50033314cf7"},"vehicle_type_id":"4","last_reported":1761476851,"current_range_meters":12000,"station_id":"st_d2o4gvlbi1j2169b742g","pricing_plan_id":"cebpf4jnsgd1na2vs0mg"},{"bike_id":"be4cd705-75e1-440a-9521-e84edba3bc9e","system_id":"levelo_inurba_marseille","lat":43.21196,"lon":5.35065,"is_reserved":false,"is_disabled":false,"rental_uris":{"android":"levelo://app?vid=be4cd705-75e1-440a-9521-e84edba3bc9e","ios":"levelo://app?vid=be4cd705-75e1-440a-9521-e84edba3bc9e"},"vehicle_type_id":"4","last_reported":1761476851,"current_range_meters":12000,"station_id":"st_cvj6sg6p6f1abm77japg","pricing_plan_id":"cebpf4jnsgd1na2vs0mg"},{"bike_id":"bf526c33-28dd-4a6a-a10d-b02e3c57c12e","system_id":"levelo_inurba_marseille","lat":43.23955,"lon":5.36633,"is_reserved":false,"is_disabled":false,"rental_uris":{"android":"levelo://app?vid=bf526c33-28dd-4a6a-a10d-b02e3c57c12e","ios":"levelo://app?vid=bf526c33-28dd-4a6a-a10d-b02e3c57c12e"},"vehicle_type_id":"4","last_reported":1761476851,"current_range_meters":12400,"station_id":"ce4bhi12rcd13ifvqfp0","pricing_plan_id":"cebpf4jnsgd1na2vs0mg"},{"bike_id":"468207fa-a1c9-4078-a525-6c7ed93caaed","system_id":"levelo_inurba_marseille","lat":43.23185,"lon":5.39987,"is_reserved":false,"is_disabled":false,"rental_uris":{"android":"levelo://app?vid=468207fa-a1c9-4078-a525-6c7ed93caaed","ios":"levelo://app?vid=468207fa-a1c9-4078-a525-6c7ed93caaed"},"vehicle_type_id":"4","last_reported":1761476851,"current_range_meters":12400,"station_id":"ce4bhn12rcd13ifvqgqg","pricing_plan_id":"cebpf4jnsgd1na2vs0mg"},{"bike_id":"a1718590-6759-4382-8f49-dd7c2e904bfd","system_id":"levelo_inurba_marseille","lat":43.21194,"lon":5.3507,"is_reserved":false,"is_disabled":false,"rental_uris":{"android":"levelo://app?vid=a1718590-6759-4382-8f49-dd7c2e904bfd","ios":"levelo://app?vid=a1718590-6759-4382-8f49-dd7c2e904bfd"},"vehicle_type_id":"4","last_reported":1761476851,"current_range_meters":12400,"station_id":"st_cvj6sg6p6f1abm77japg","pricing_plan_id":"cebpf4jnsgd1na2vs0mg"},{"bike_id":"86bb99a4-3bed-453c-bdfd-4fd969cec0ce","system_id":"levelo_inurba_marseille","lat":43.2606,"lon":5.39387,"is_reserved":false,"is_disabled":false,"rental_uris":{"android":"levelo://app?vid=86bb99a4-3bed-453c-bdfd-4fd969cec0ce","ios":"levelo://app?vid=86bb99a4-3bed-453c-bdfd-4fd969cec0ce"},"vehicle_type_id":"4","last_reported":1761476851,"current_range_meters":12800,"station_id":"ce4bhh92rcd13ifvqfj0","pricing_plan_id":"cebpf4jnsgd1na2vs0mg"},{"bike_id":"3fbd66b1-e2a9-4be3-b923-94252387751e","system_id":"levelo_inurba_marseille","lat":43.27911,"lon":5.39596,"is_reserved":false,"is_disabled":false,"rental_uris":{"android":"levelo://app?vid=3fbd66b1-e2a9-4be3-b923-94252387751e","ios":"levelo://app?vid=3fbd66b1-e2a9-4be3-b923-94252387751e"},"vehicle_type_id":"4","last_reported":1761476851,"current_range_meters":12800,"station_id":"ce4bhf92rcd13ifvqf40","pricing_plan_id":"cebpf4jnsgd1na2vs0mg"},{"bike_id":"0bbd8208-7c70-4c31-a04f-c459c140de17","system_id":"levelo_inurba_marseille","lat":43.290063,"lon":5.356143,"is_reserved":false,"is_disabled":false,"rental_uris":{"android":"levelo://app?vid=0bbd8208-7c70-4c31-a04f-c459c140de17","ios":"levelo://app?vid=0bbd8208-7c70-4c31-a04f-c459c140de17"},"vehicle_type_id":"4","last_reported":1761476851,"current_range_meters":12800,"station_id":"ce4bhb92rcd13ifvqen0","pricing_plan_id":"cebpf4jnsgd1na2vs0mg"},{"bike_id":"f72a00f1-1fed-4f6c-b4b5-8473dfdb4606","system_id":"levelo_inurba_marseille","lat":43.29673,"lon":5.40368,"is_reserved":false,"is_disabled":false,"rental_uris":{"android":"levelo://app?vid=f72a00f1-1fed-4f6c-b4b5-8473dfdb4606","ios":"levelo://app?vid=f72a00f1-1fed-4f6c-b4b5-8473dfdb4606"},"vehicle_type_id":"4","last_reported":1761476851,"current_range_meters":12800,"station_id":"","pricing_plan_id":"cebpf4jnsgd1na2vs0mg"},{"bike_id":"45590a6b-966e-4533-b809-efc51cc9687d","system_id":"levelo_inurba_marseille","lat":43.31086,"lon":5.42437,"is_reserved":false,"is_disabled":false,"rental_uris":{"android":"levelo://app?vid=45590a6b-966e-4533-b809-efc51cc9687d","ios":"levelo://app?vid=45590a6b-966e-4533-b809-efc51cc9687d"},"vehicle_type_id":"4","last_reported":1761476851,"current_range_meters":13600,"station_id":"ce4bhp92rcd13ifvqhag","pricing_plan_id":"cebpf4jnsgd1na2vs0mg"},{"bike_id":"ef8701f2-8b95-4d10-ada3-a8b00599d2dc","system_id":"levelo_inurba_marseille","lat":43.29731,"lon":5.37901,"is_reserved":false,"is_disabled":false,"rental_uris":{"android":"levelo://app?vid=ef8701f2-8b95-4d10-ada3-a8b00599d2dc","ios":"levelo://app?vid=ef8701f2-8b95-4d10-ada3-a8b00599d2dc"},"vehicle_type_id":"4","last_reported":1761476851,"current_range_meters":13600,"station_id":"","pricing_plan_id":"cebpf4jnsgd1na2vs0mg"},{"bike_id":"2337975c-fa29-4302-a7b4-fbc7aded199f","system_id":"levelo_inurba_marseille","lat":43.30607,"lon":5.372499,"is_reserved":false,"is_disabled":false,"rental_uris":{"android":"levelo://app?vid=2337975c-fa29-4302-a7b4-fbc7aded199f","ios":"levelo://app?vid=2337975c-fa29-4302-a7b4-fbc7aded199f"},"vehicle_type_id":"4","last_reported":1761476851,"current_range_meters":13600,"station_id":"ce4bgqh2rcd13ifvqc4g","pricing_plan_id":"cebpf4jnsgd1na2vs0mg"},{"bike_id":"41d45b45-3a52-4b5a-b2b3-1e62d5490ada","system_id":"levelo_inurba_marseille","lat":43.28543,"lon":5.44112,"is_reserved":false,"is_disabled":false,"rental_uris":{"android":"levelo://app?vid=41d45b45-3a52-4b5a-b2b3-1e62d5490ada","ios":"levelo://app?vid=41d45b45-3a52-4b5a-b2b3-1e62d5490ada"},"vehicle_type_id":"4","last_reported":1761476851,"current_range_meters":13600,"station_id":"st_d3j3df2ikq2c7380ej80","pricing_plan_id":"cebpf4jnsgd1na2vs0mg"},{"bike_id":"a19578d6-d951-4028-8fd3-5a6107e3816c","system_id":"levelo_inurba_marseille","lat":43.24802,"lon":5.37437,"is_reserved":false,"is_disabled":false,"rental_uris":{"android":"levelo://app?vid=a19578d6-d951-4028-8fd3-5a6107e3816c","ios":"levelo://app?vid=a19578d6-d951-4028-8fd3-5a6107e3816c"},"vehicle_type_id":"4","last_reported":1761476851,"current_range_meters":13600,"station_id":"ce4bhgh2rcd13ifvqfb0","pricing_plan_id":"cebpf4jnsgd1na2vs0mg"},{"bike_id":"c0b81f28-bbba-4247-a74b-c55a34b31846","system_id":"levelo_inurba_marseille","lat":43.33258,"lon":5.41086,"is_reserved":false,"is_disabled":false,"rental_uris":{"android":"levelo://app?vid=c0b81f28-bbba-4247-a74b-c55a34b31846","ios":"levelo://app?vid=c0b81f28-bbba-4247-a74b-c55a34b31846"},"vehicle_type_id":"4","last_reported":1761476851,"current_range_meters":14000,"station_id":"","pricing_plan_id":"cebpf4jnsgd1na2vs0mg"},{"bike_id":"efa2071f-223b-4ad5-9d51-d0d8cd8e3a75","system_id":"levelo_inurba_marseille","lat":43.281522,"lon":5.426431,"is_reserved":false,"is_disabled":false,"rental_uris":{"android":"levelo://app?vid=efa2071f-223b-4ad5-9d51-d0d8cd8e3a75","ios":"levelo://app?vid=efa2071f-223b-4ad5-9d51-d0d8cd8e3a75"},"vehicle_type_id":"4","last_reported":1761476851,"current_range_meters":14000,"station_id":"ce4bhnh2rcd13ifvqgug","pricing_plan_id":"cebpf4jnsgd1na2vs0mg"},{"bike_id":"36fc71c3-6688-4d40-b80e-b9d72f38c0a1","system_id":"levelo_inurba_marseille","lat":43.26567,"lon":5.39009,"is_reserved":false,"is_disabled":false,"rental_uris":{"android":"levelo://app?vid=36fc71c3-6688-4d40-b80e-b9d72f38c0a1","ios":"levelo://app?vid=36fc71c3-6688-4d40-b80e-b9d72f38c0a1"},"vehicle_type_id":"4","last_reported":1761476851,"current_range_meters":14000,"station_id":"ce4bhe12rcd13ifvqf30","pricing_plan_id":"cebpf4jnsgd1na2vs0mg"},{"bike_id":"3da36b46-32f0-4723-8f3b-8cba39a84287","system_id":"levelo_inurba_marseille","lat":43.243867,"lon":5.370472,"is_reserved":false,"is_disabled":false,"rental_uris":{"android":"levelo://app?vid=3da36b46-32f0-4723-8f3b-8cba39a84287","ios":"levelo://app?vid=3da36b46-32f0-4723-8f3b-8cba39a84287"},"vehicle_type_id":"4","last_reported":1761476851,"current_range_meters":14000,"station_id":"ce4bhhh2rcd13ifvqfk0","pricing_plan_id":"cebpf4jnsgd1na2vs0mg"},{"bike_id":"e4ccce50-4824-4895-aa8c-033835526f23","system_id":"levelo_inurba_marseille","lat":43.31877,"lon":5.39978,"is_reserved":false,"is_disabled":false,"rental_uris":{"android":"levelo://app?vid=e4ccce50-4824-4895-aa8c-033835526f23","ios":"levelo://app?vid=e4ccce50-4824-4895-aa8c-033835526f23"},"vehicle_type_id":"4","last_reported":1761476851,"current_range_meters":14000,"station_id":"","pricing_plan_id":"cebpf4jnsgd1na2vs0mg"},{"bike_id":"12cefd40-c26f-402c-b50f-33cfb17b8e9f","system_id":"levelo_inurba_marseille","lat":43.2596,"lon":5.37541,"is_reserved":false,"is_disabled":false,"rental_uris":{"android":"levelo://app?vid=12cefd40-c26f-402c-b50f-33cfb17b8e9f","ios":"levelo://app?vid=12cefd40-c26f-402c-b50f-33cfb17b8e9f"},"vehicle_type_id":"4","last_reported":1761476851,"current_range_meters":14400,"station_id":"","pricing_plan_id":"cebpf4jnsgd1na2vs0mg"},{"bike_id":"9e83dc36-0288-47ce-863a-762352d61e9d","system_id":"levelo_inurba_marseille","lat":43.269,"lon":5.40272,"is_reserved":false,"is_disabled":false,"rental_uris":{"android":"levelo://app?vid=9e83dc36-0288-47ce-863a-762352d61e9d","ios":"levelo://app?vid=9e83dc36-0288-47ce-863a-762352d61e9d"},"vehicle_type_id":"4","last_reported":1761476851,"current_range_meters":14400,"station_id":"","pricing_plan_id":"cebpf4jnsgd1na2vs0mg"},{"bike_id":"be312b0e-3d33-41b5-8614-3b75b5ee3f8f","system_id":"levelo_inurba_marseille","lat":43.31277,"lon":5.40172,"is_reserved":false,"is_disabled":false,"rental_uris":{"android":"levelo://app?vid=be312b0e-3d33-41b5-8614-3b75b5ee3f8f","ios":"levelo://app?vid=be312b0e-3d33-41b5-8614-3b75b5ee3f8f"},"vehicle_type_id":"4","last_reported":1761476851,"current_range_meters":14400,"station_id":"ce4bh092rcd13ifvqd30","pricing_plan_id":"cebpf4jnsgd1na2vs0mg"},{"bike_id":"de5cece4-6186-4ccb-b70e-a25e8bd3fc86","system_id":"levelo_inurba_marseille","lat":43.337444,"lon":5.374475,"is_reserved":false,"is_disabled":false,"rental_uris":{"android":"levelo://app?vid=de5cece4-6186-4ccb-b70e-a25e8bd3fc86","ios":"levelo://app?vid=de5cece4-6186-4ccb-b70e-a25e8bd3fc86"},"vehicle_type_id":"4","last_reported":1761476851,"current_range_meters":14400,"station_id":"","pricing_plan_id":"cebpf4jnsgd1na2vs0mg"},{"bike_id":"1b2ce017-b544-4f6b-9303-f4cb4bd3f362","system_id":"levelo_inurba_marseille","lat":43.29002,"lon":5.35608,"is_reserved":false,"is_disabled":false,"rental_uris":{"android":"levelo://app?vid=1b2ce017-b544-4f6b-9303-f4cb4bd3f362","ios":"levelo://app?vid=1b2ce017-b544-4f6b-9303-f4cb4bd3f362"},"vehicle_type_id":"4","last_reported":1761476851,"current_range_meters":14800,"station_id":"ce4bhb92rcd13ifvqen0","pricing_plan_id":"cebpf4jnsgd1na2vs0mg"},{"bike_id":"46b0db6c-35c8-470b-a45d-db7e7afa9bfd","system_id":"levelo_inurba_marseille","lat":43.28392,"lon":5.37499,"is_reserved":false,"is_disabled":true,"rental_uris":{"android":"levelo://app?vid=46b0db6c-35c8-470b-a45d-db7e7afa9bfd","ios":"levelo://app?vid=46b0db6c-35c8-470b-a45d-db7e7afa9bfd"},"vehicle_type_id":"4","last_reported":1761476851,"current_range_meters":14800,"station_id":"ce4bh412rcd13ifvqds0","pricing_plan_id":"cebpf4jnsgd1na2vs0mg"},{"bike_id":"67f8857f-0853-46d2-b9ef-96c5ce2639bc","system_id":"levelo_inurba_marseille","lat":43.23107,"lon":5.35413,"is_reserved":false,"is_disabled":false,"rental_uris":{"android":"levelo://app?vid=67f8857f-0853-46d2-b9ef-96c5ce2639bc","ios":"levelo://app?vid=67f8857f-0853-46d2-b9ef-96c5ce2639bc"},"vehicle_type_id":"4","last_reported":1761476851,"current_range_meters":14800,"station_id":"cpo3342slgdg3j2ifvpg","pricing_plan_id":"cebpf4jnsgd1na2vs0mg"},{"bike_id":"18807f26-dd1c-4b8c-b305-f66819bf3aa2","system_id":"levelo_inurba_marseille","lat":43.31009,"lon":5.39208,"is_reserved":false,"is_disabled":false,"rental_uris":{"android":"levelo://app?vid=18807f26-dd1c-4b8c-b305-f66819bf3aa2","ios":"levelo://app?vid=18807f26-dd1c-4b8c-b305-f66819bf3aa2"},"vehicle_type_id":"4","last_reported":1761476851,"current_range_meters":14800,"station_id":"","pricing_plan_id":"cebpf4jnsgd1na2vs0mg"},{"bike_id":"e5aafa61-e384-4c69-800b-fe726c41fdc6","system_id":"levelo_inurba_marseille","lat":43.29988,"lon":5.38488,"is_reserved":false,"is_disabled":true,"rental_uris":{"android":"levelo://app?vid=e5aafa61-e384-4c69-800b-fe726c41fdc6","ios":"levelo://app?vid=e5aafa61-e384-4c69-800b-fe726c41fdc6"},"vehicle_type_id":"4","last_reported":1761476851,"current_range_meters":14800,"station_id":"ce4bgj92rcd13ifvqbd0","pricing_plan_id":"cebpf4jnsgd1na2vs0mg"},{"bike_id":"ca772d75-34f2-4f9d-a5b0-630f8e1a3fbb","system_id":"levelo_inurba_marseille","lat":43.24166,"lon":5.36392,"is_reserved":false,"is_disabled":false,"rental_uris":{"android":"levelo://app?vid=ca772d75-34f2-4f9d-a5b0-630f8e1a3fbb","ios":"levelo://app?vid=ca772d75-34f2-4f9d-a5b0-630f8e1a3fbb"},"vehicle_type_id":"4","last_reported":1761476851,"current_range_meters":14800,"station_id":"cpo36qri1sfpv3e86is0","pricing_plan_id":"cebpf4jnsgd1na2vs0mg"},{"bike_id":"3eefa85b-6c0b-489e-96a3-2f8c2f129f30","system_id":"levelo_inurba_marseille","lat":43.286137,"lon":5.350964,"is_reserved":false,"is_disabled":false,"rental_uris":{"android":"levelo://app?vid=3eefa85b-6c0b-489e-96a3-2f8c2f129f30","ios":"levelo://app?vid=3eefa85b-6c0b-489e-96a3-2f8c2f129f30"},"vehicle_type_id":"4","last_reported":1761476851,"current_range_meters":14800,"station_id":"ce4bhch2rcd13ifvqeug","pricing_plan_id":"cebpf4jnsgd1na2vs0mg"},{"bike_id":"476ede32-cfdc-42f2-8cc1-233e266f9923","system_id":"levelo_inurba_marseille","lat":43.295699,"lon":5.37555,"is_reserved":false,"is_disabled":false,"rental_uris":{"android":"levelo://app?vid=476ede32-cfdc-42f2-8cc1-233e266f9923","ios":"levelo://app?vid=476ede32-cfdc-42f2-8cc1-233e266f9923"},"vehicle_type_id":"4","last_reported":1761476851,"current_range_meters":15200,"station_id":"","pricing_plan_id":"cebpf4jnsgd1na2vs0mg"},{"bike_id":"8847af5d-c1ad-4d8d-a5c1-273c3b41c105","system_id":"levelo_inurba_marseille","lat":43.32253,"lon":5.41955,"is_reserved":false,"is_disabled":false,"rental_uris":{"android":"levelo://app?vid=8847af5d-c1ad-4d8d-a5c1-273c3b41c105","ios":"levelo://app?vid=8847af5d-c1ad-4d8d-a5c1-273c3b41c105"},"vehicle_type_id":"4","last_reported":1761476851,"current_range_meters":15200,"station_id":"","pricing_plan_id":"cebpf4jnsgd1na2vs0mg"},{"bike_id":"80bbf991-6681-4970-b679-b420bff212f4","system_id":"levelo_inurba_marseille","lat":43.31123,"lon":5.37783,"is_reserved":false,"is_disabled":false,"rental_uris":{"android":"levelo://app?vid=80bbf991-6681-4970-b679-b420bff212f4","ios":"levelo://app?vid=80bbf991-6681-4970-b679-b420bff212f4"},"vehicle_type_id":"4","last_reported":1761476851,"current_range_meters":15200,"station_id":"ce4bgt92rcd13ifvqcg0","pricing_plan_id":"cebpf4jnsgd1na2vs0mg"},{"bike_id":"320847cf-7256-492f-846f-cdc62d31292f","system_id":"levelo_inurba_marseille","lat":43.28155,"lon":5.426412,"is_reserved":false,"is_disabled":false,"rental_uris":{"android":"levelo://app?vid=320847cf-7256-492f-846f-cdc62d31292f","ios":"levelo://app?vid=320847cf-7256-492f-846f-cdc62d31292f"},"vehicle_type_id":"4","last_reported":1761476851,"current_range_meters":15200,"station_id":"ce4bhnh2rcd13ifvqgug","pricing_plan_id":"cebpf4jnsgd1na2vs0mg"},{"bike_id":"c124d4a0-9e47-48ec-ad7a-ea36eb6e5d35","system_id":"levelo_inurba_marseille","lat":43.24392,"lon":5.37034,"is_reserved":false,"is_disabled":false,"rental_uris":{"android":"levelo://app?vid=c124d4a0-9e47-48ec-ad7a-ea36eb6e5d35","ios":"levelo://app?vid=c124d4a0-9e47-48ec-ad7a-ea36eb6e5d35"},"vehicle_type_id":"4","last_reported":1761476851,"current_range_meters":15200,"station_id":"ce4bhhh2rcd13ifvqfk0","pricing_plan_id":"cebpf4jnsgd1na2vs0mg"},{"bike_id":"1ffe1259-bda0-45d2-bfd5-822026a61c98","system_id":"levelo_inurba_marseille","lat":43.25088,"lon":5.39505,"is_reserved":false,"is_disabled":false,"rental_uris":{"android":"levelo://app?vid=1ffe1259-bda0-45d2-bfd5-822026a61c98","ios":"levelo://app?vid=1ffe1259-bda0-45d2-bfd5-822026a61c98"},"vehicle_type_id":"4","last_reported":1761476851,"current_range_meters":16000,"station_id":"ce4bhm12rcd13ifvqgkg","pricing_plan_id":"cebpf4jnsgd1na2vs0mg"},{"bike_id":"ee63d3c4-f9ad-48dd-a91b-8e565e473a00","system_id":"levelo_inurba_marseille","lat":43.30125,"lon":5.43117,"is_reserved":false,"is_disabled":false,"rental_uris":{"android":"levelo://app?vid=ee63d3c4-f9ad-48dd-a91b-8e565e473a00","ios":"levelo://app?vid=ee63d3c4-f9ad-48dd-a91b-8e565e473a00"},"vehicle_type_id":"4","last_reported":1761476851,"current_range_meters":16000,"station_id":"st_d3js3co5814s73ftftug","pricing_plan_id":"cebpf4jnsgd1na2vs0mg"},{"bike_id":"ffd13ce5-8f79-40f7-bfc8-0243e89f122b","system_id":"levelo_inurba_marseille","lat":43.24382,"lon":5.3706,"is_reserved":false,"is_disabled":false,"rental_uris":{"android":"levelo://app?vid=ffd13ce5-8f79-40f7-bfc8-0243e89f122b","ios":"levelo://app?vid=ffd13ce5-8f79-40f7-bfc8-0243e89f122b"},"vehicle_type_id":"4","last_reported":1761476851,"current_range_meters":16000,"station_id":"ce4bhhh2rcd13ifvqfk0","pricing_plan_id":"cebpf4jnsgd1na2vs0mg"},{"bike_id":"bf725e26-be18-4372-84c1-2e0a157f0fbb","system_id":"levelo_inurba_marseille","lat":43.26939,"lon":5.40253,"is_reserved":false,"is_disabled":false,"rental_uris":{"android":"levelo://app?vid=bf725e26-be18-4372-84c1-2e0a157f0fbb","ios":"levelo://app?vid=bf725e26-be18-4372-84c1-2e0a157f0fbb"},"vehicle_type_id":"4","last_reported":1761476851,"current_range_meters":16000,"station_id":"cjm6bp8fraef2m0cb0m0","pricing_plan_id":"cebpf4jnsgd1na2vs0mg"},{"bike_id":"64b75b4a-3497-4861-8cc2-90dd62cd9f5e","system_id":"levelo_inurba_marseille","lat":43.29489,"lon":5.43304,"is_reserved":false,"is_disabled":false,"rental_uris":{"android":"levelo://app?vid=64b75b4a-3497-4861-8cc2-90dd62cd9f5e","ios":"levelo://app?vid=64b75b4a-3497-4861-8cc2-90dd62cd9f5e"},"vehicle_type_id":"4","last_reported":1761476851,"current_range_meters":16000,"station_id":"st_d3j5ugp08ojc73fj9d10","pricing_plan_id":"cebpf4jnsgd1na2vs0mg"},{"bike_id":"8d922c2e-fd1c-4861-a7c8-82dfdd23c009","system_id":"levelo_inurba_marseille","lat":43.2415,"lon":5.36385,"is_reserved":false,"is_disabled":false,"rental_uris":{"android":"levelo://app?vid=8d922c2e-fd1c-4861-a7c8-82dfdd23c009","ios":"levelo://app?vid=8d922c2e-fd1c-4861-a7c8-82dfdd23c009"},"vehicle_type_id":"4","last_reported":1761476851,"current_range_meters":16000,"station_id":"cpo36qri1sfpv3e86is0","pricing_plan_id":"cebpf4jnsgd1na2vs0mg"},{"bike_id":"7972169b-80a8-473e-b4f4-65b804e4b17c","system_id":"levelo_inurba_marseille","lat":43.27215,"lon":5.39194,"is_reserved":false,"is_disabled":false,"rental_uris":{"android":"levelo://app?vid=7972169b-80a8-473e-b4f4-65b804e4b17c","ios":"levelo://app?vid=7972169b-80a8-473e-b4f4-65b804e4b17c"},"vehicle_type_id":"4","last_reported":1761476851,"current_range_meters":16400,"station_id":"ce4bhhp2rcd13ifvqfm0","pricing_plan_id":"cebpf4jnsgd1na2vs0mg"},{"bike_id":"6ee611b3-bf13-495e-a0dc-dfd1a8718271","system_id":"levelo_inurba_marseille","lat":43.298184,"lon":5.440571,"is_reserved":false,"is_disabled":false,"rental_uris":{"android":"levelo://app?vid=6ee611b3-bf13-495e-a0dc-dfd1a8718271","ios":"levelo://app?vid=6ee611b3-bf13-495e-a0dc-dfd1a8718271"},"vehicle_type_id":"4","last_reported":1761476851,"current_range_meters":16400,"station_id":"","pricing_plan_id":"cebpf4jnsgd1na2vs0mg"},{"bike_id":"8f1595ee-0c39-45ec-bd05-7feb852a34d8","system_id":"levelo_inurba_marseille","lat":43.2509,"lon":5.39537,"is_reserved":false,"is_disabled":false,"rental_uris":{"android":"levelo://app?vid=8f1595ee-0c39-45ec-bd05-7feb852a34d8","ios":"levelo://app?vid=8f1595ee-0c39-45ec-bd05-7feb852a34d8"},"vehicle_type_id":"4","last_reported":1761476851,"current_range_meters":16400,"station_id":"ce4bhm12rcd13ifvqgkg","pricing_plan_id":"cebpf4jnsgd1na2vs0mg"},{"bike_id":"af9e12e7-38b8-459b-8665-a09998ee41f3","system_id":"levelo_inurba_marseille","lat":43.24657,"lon":5.38909,"is_reserved":false,"is_disabled":false,"rental_uris":{"android":"levelo://app?vid=af9e12e7-38b8-459b-8665-a09998ee41f3","ios":"levelo://app?vid=af9e12e7-38b8-459b-8665-a09998ee41f3"},"vehicle_type_id":"4","last_reported":1761476851,"current_range_meters":16400,"station_id":"ce4bhg12rcd13ifvqf60","pricing_plan_id":"cebpf4jnsgd1na2vs0mg"},{"bike_id":"a70a5c56-54da-4a9c-92ae-4bd04c5f57d9","system_id":"levelo_inurba_marseille","lat":43.299,"lon":5.43659,"is_reserved":false,"is_disabled":false,"rental_uris":{"android":"levelo://app?vid=a70a5c56-54da-4a9c-92ae-4bd04c5f57d9","ios":"levelo://app?vid=a70a5c56-54da-4a9c-92ae-4bd04c5f57d9"},"vehicle_type_id":"4","last_reported":1761476851,"current_range_meters":16400,"station_id":"ce4bhpp2rcd13ifvqhfg","pricing_plan_id":"cebpf4jnsgd1na2vs0mg"},{"bike_id":"317107fa-306d-4b8d-9380-a16cd06486ce","system_id":"levelo_inurba_marseille","lat":43.284543,"lon":5.359009,"is_reserved":false,"is_disabled":true,"rental_uris":{"android":"levelo://app?vid=317107fa-306d-4b8d-9380-a16cd06486ce","ios":"levelo://app?vid=317107fa-306d-4b8d-9380-a16cd06486ce"},"vehicle_type_id":"4","last_reported":1761476851,"current_range_meters":16400,"station_id":"ce4bhah2rcd13ifvqei0","pricing_plan_id":"cebpf4jnsgd1na2vs0mg"},{"bike_id":"ca8c5fef-8841-4e27-bf56-b75f84bec5da","system_id":"levelo_inurba_marseille","lat":43.237841,"lon":5.366341,"is_reserved":false,"is_disabled":false,"rental_uris":{"android":"levelo://app?vid=ca8c5fef-8841-4e27-bf56-b75f84bec5da","ios":"levelo://app?vid=ca8c5fef-8841-4e27-bf56-b75f84bec5da"},"vehicle_type_id":"4","last_reported":1761476851,"current_range_meters":16400,"station_id":"st_d3nk18o9ro0c73en2l3g","pricing_plan_id":"cebpf4jnsgd1na2vs0mg"},{"bike_id":"7a1877e8-1310-4142-900d-3cea9a2ef65f","system_id":"levelo_inurba_marseille","lat":43.29489,"lon":5.43302,"is_reserved":false,"is_disabled":false,"rental_uris":{"android":"levelo://app?vid=7a1877e8-1310-4142-900d-3cea9a2ef65f","ios":"levelo://app?vid=7a1877e8-1310-4142-900d-3cea9a2ef65f"},"vehicle_type_id":"4","last_reported":1761476851,"current_range_meters":16400,"station_id":"st_d3j5ugp08ojc73fj9d10","pricing_plan_id":"cebpf4jnsgd1na2vs0mg"},{"bike_id":"ae77b6c5-04ff-4943-9bf1-dc172d042272","system_id":"levelo_inurba_marseille","lat":43.286926,"lon":5.363807,"is_reserved":false,"is_disabled":false,"rental_uris":{"android":"levelo://app?vid=ae77b6c5-04ff-4943-9bf1-dc172d042272","ios":"levelo://app?vid=ae77b6c5-04ff-4943-9bf1-dc172d042272"},"vehicle_type_id":"4","last_reported":1761476851,"current_range_meters":16400,"station_id":"ce4bhah2rcd13ifvqej0","pricing_plan_id":"cebpf4jnsgd1na2vs0mg"},{"bike_id":"526cddf7-e629-4e01-a3fa-d060ef7dfdd4","system_id":"levelo_inurba_marseille","lat":43.24645,"lon":5.38893,"is_reserved":false,"is_disabled":false,"rental_uris":{"android":"levelo://app?vid=526cddf7-e629-4e01-a3fa-d060ef7dfdd4","ios":"levelo://app?vid=526cddf7-e629-4e01-a3fa-d060ef7dfdd4"},"vehicle_type_id":"4","last_reported":1761476851,"current_range_meters":16400,"station_id":"ce4bhg12rcd13ifvqf60","pricing_plan_id":"cebpf4jnsgd1na2vs0mg"},{"bike_id":"f1bb6824-0b46-4e32-a3ef-c1b764bd053e","system_id":"levelo_inurba_marseille","lat":43.30112,"lon":5.40062,"is_reserved":false,"is_disabled":false,"rental_uris":{"android":"levelo://app?vid=f1bb6824-0b46-4e32-a3ef-c1b764bd053e","ios":"levelo://app?vid=f1bb6824-0b46-4e32-a3ef-c1b764bd053e"},"vehicle_type_id":"4","last_reported":1761476851,"current_range_meters":16400,"station_id":"","pricing_plan_id":"cebpf4jnsgd1na2vs0mg"},{"bike_id":"baa93571-061d-4d98-a7c4-ab842c53f2f8","system_id":"levelo_inurba_marseille","lat":43.301372,"lon":5.38504,"is_reserved":false,"is_disabled":false,"rental_uris":{"android":"levelo://app?vid=baa93571-061d-4d98-a7c4-ab842c53f2f8","ios":"levelo://app?vid=baa93571-061d-4d98-a7c4-ab842c53f2f8"},"vehicle_type_id":"4","last_reported":1761476851,"current_range_meters":16800,"station_id":"","pricing_plan_id":"cebpf4jnsgd1na2vs0mg"},{"bike_id":"d290b727-6836-4e17-bb70-fa6919fa7378","system_id":"levelo_inurba_marseille","lat":43.25484,"lon":5.37622,"is_reserved":false,"is_disabled":false,"rental_uris":{"android":"levelo://app?vid=d290b727-6836-4e17-bb70-fa6919fa7378","ios":"levelo://app?vid=d290b727-6836-4e17-bb70-fa6919fa7378"},"vehicle_type_id":"4","last_reported":1761476851,"current_range_meters":16800,"station_id":"ce4bhh12rcd13ifvqff0","pricing_plan_id":"cebpf4jnsgd1na2vs0mg"},{"bike_id":"ad166e8d-320f-47c2-bfd9-9e014a946d21","system_id":"levelo_inurba_marseille","lat":43.27815,"lon":5.40722,"is_reserved":false,"is_disabled":true,"rental_uris":{"android":"levelo://app?vid=ad166e8d-320f-47c2-bfd9-9e014a946d21","ios":"levelo://app?vid=ad166e8d-320f-47c2-bfd9-9e014a946d21"},"vehicle_type_id":"4","last_reported":1761476851,"current_range_meters":16800,"station_id":"ce4bhnh2rcd13ifvqgtg","pricing_plan_id":"cebpf4jnsgd1na2vs0mg"},{"bike_id":"033b941b-cb47-47cc-b508-0b778e9d7a81","system_id":"levelo_inurba_marseille","lat":43.28352,"lon":5.3809,"is_reserved":false,"is_disabled":false,"rental_uris":{"android":"levelo://app?vid=033b941b-cb47-47cc-b508-0b778e9d7a81","ios":"levelo://app?vid=033b941b-cb47-47cc-b508-0b778e9d7a81"},"vehicle_type_id":"4","last_reported":1761476851,"current_range_meters":17200,"station_id":"ce4bh412rcd13ifvqdr0","pricing_plan_id":"cebpf4jnsgd1na2vs0mg"},{"bike_id":"48693f00-cc8f-47eb-9799-d2e90d4a5069","system_id":"levelo_inurba_marseille","lat":43.29781,"lon":5.37109,"is_reserved":false,"is_disabled":false,"rental_uris":{"android":"levelo://app?vid=48693f00-cc8f-47eb-9799-d2e90d4a5069","ios":"levelo://app?vid=48693f00-cc8f-47eb-9799-d2e90d4a5069"},"vehicle_type_id":"4","last_reported":1761476851,"current_range_meters":17200,"station_id":"ce4bgop2rcd13ifvqc1g","pricing_plan_id":"cebpf4jnsgd1na2vs0mg"},{"bike_id":"de0ca7a8-116a-46c8-8c50-6b445a473423","system_id":"levelo_inurba_marseille","lat":43.2886,"lon":5.42488,"is_reserved":false,"is_disabled":false,"rental_uris":{"android":"levelo://app?vid=de0ca7a8-116a-46c8-8c50-6b445a473423","ios":"levelo://app?vid=de0ca7a8-116a-46c8-8c50-6b445a473423"},"vehicle_type_id":"4","last_reported":1761476851,"current_range_meters":17200,"station_id":"st_d3b462108ojc7389ooeg","pricing_plan_id":"cebpf4jnsgd1na2vs0mg"},{"bike_id":"cfd995e1-78b9-4456-adf4-c544f8660184","system_id":"levelo_inurba_marseille","lat":43.27214,"lon":5.39183,"is_reserved":false,"is_disabled":false,"rental_uris":{"android":"levelo://app?vid=cfd995e1-78b9-4456-adf4-c544f8660184","ios":"levelo://app?vid=cfd995e1-78b9-4456-adf4-c544f8660184"},"vehicle_type_id":"4","last_reported":1761476851,"current_range_meters":17200,"station_id":"ce4bhhp2rcd13ifvqfm0","pricing_plan_id":"cebpf4jnsgd1na2vs0mg"},{"bike_id":"73e3d00c-eed9-4474-8470-2701da8f5335","system_id":"levelo_inurba_marseille","lat":43.257354,"lon":5.410347,"is_reserved":false,"is_disabled":false,"rental_uris":{"android":"levelo://app?vid=73e3d00c-eed9-4474-8470-2701da8f5335","ios":"levelo://app?vid=73e3d00c-eed9-4474-8470-2701da8f5335"},"vehicle_type_id":"4","last_reported":1761476851,"current_range_meters":17200,"station_id":"","pricing_plan_id":"cebpf4jnsgd1na2vs0mg"},{"bike_id":"53619b52-f6a4-4a36-9715-aa47e9e64dbc","system_id":"levelo_inurba_marseille","lat":43.29261,"lon":5.38428,"is_reserved":false,"is_disabled":true,"rental_uris":{"android":"levelo://app?vid=53619b52-f6a4-4a36-9715-aa47e9e64dbc","ios":"levelo://app?vid=53619b52-f6a4-4a36-9715-aa47e9e64dbc"},"vehicle_type_id":"4","last_reported":1761476851,"current_range_meters":17200,"station_id":"ce4bh692rcd13ifvqea0","pricing_plan_id":"cebpf4jnsgd1na2vs0mg"},{"bike_id":"cbcdd39f-b16b-4830-bef7-1f20f112a7de","system_id":"levelo_inurba_marseille","lat":43.319954,"lon":5.381505,"is_reserved":false,"is_disabled":false,"rental_uris":{"android":"levelo://app?vid=cbcdd39f-b16b-4830-bef7-1f20f112a7de","ios":"levelo://app?vid=cbcdd39f-b16b-4830-bef7-1f20f112a7de"},"vehicle_type_id":"4","last_reported":1761476851,"current_range_meters":17200,"station_id":"ce4bhr12rcd13ifvqhpg","pricing_plan_id":"cebpf4jnsgd1na2vs0mg"},{"bike_id":"a100fbc0-a18b-4350-8b9b-67f14f56ea4c","system_id":"levelo_inurba_marseille","lat":43.22568,"lon":5.41629,"is_reserved":false,"is_disabled":false,"rental_uris":{"android":"levelo://app?vid=a100fbc0-a18b-4350-8b9b-67f14f56ea4c","ios":"levelo://app?vid=a100fbc0-a18b-4350-8b9b-67f14f56ea4c"},"vehicle_type_id":"4","last_reported":1761476851,"current_range_meters":17200,"station_id":"st_d2o4gvlbi1j2169b742g","pricing_plan_id":"cebpf4jnsgd1na2vs0mg"},{"bike_id":"0efd5152-a1ec-41c0-ab16-60a881e0d903","system_id":"levelo_inurba_marseille","lat":43.29603,"lon":5.38094,"is_reserved":false,"is_disabled":false,"rental_uris":{"android":"levelo://app?vid=0efd5152-a1ec-41c0-ab16-60a881e0d903","ios":"levelo://app?vid=0efd5152-a1ec-41c0-ab16-60a881e0d903"},"vehicle_type_id":"4","last_reported":1761476851,"current_range_meters":17200,"station_id":"ce4bgl12rcd13ifvqbo0","pricing_plan_id":"cebpf4jnsgd1na2vs0mg"},{"bike_id":"b35f3e1c-9c25-4f13-98b2-1c7e1858271c","system_id":"levelo_inurba_marseille","lat":43.2255,"lon":5.41626,"is_reserved":false,"is_disabled":false,"rental_uris":{"android":"levelo://app?vid=b35f3e1c-9c25-4f13-98b2-1c7e1858271c","ios":"levelo://app?vid=b35f3e1c-9c25-4f13-98b2-1c7e1858271c"},"vehicle_type_id":"4","last_reported":1761476851,"current_range_meters":17600,"station_id":"st_d2o4gvlbi1j2169b742g","pricing_plan_id":"cebpf4jnsgd1na2vs0mg"},{"bike_id":"4f3acd65-d961-42ac-aac9-bd4b1df84f8d","system_id":"levelo_inurba_marseille","lat":43.30948,"lon":5.39035,"is_reserved":false,"is_disabled":false,"rental_uris":{"android":"levelo://app?vid=4f3acd65-d961-42ac-aac9-bd4b1df84f8d","ios":"levelo://app?vid=4f3acd65-d961-42ac-aac9-bd4b1df84f8d"},"vehicle_type_id":"4","last_reported":1761476851,"current_range_meters":17600,"station_id":"ce4bgup2rcd13ifvqco0","pricing_plan_id":"cebpf4jnsgd1na2vs0mg"},{"bike_id":"918ab731-8e3f-436c-837a-4ff2667629fc","system_id":"levelo_inurba_marseille","lat":43.25589,"lon":5.38227,"is_reserved":false,"is_disabled":false,"rental_uris":{"android":"levelo://app?vid=918ab731-8e3f-436c-837a-4ff2667629fc","ios":"levelo://app?vid=918ab731-8e3f-436c-837a-4ff2667629fc"},"vehicle_type_id":"4","last_reported":1761476851,"current_range_meters":17600,"station_id":"ce4bhih2rcd13ifvqfs0","pricing_plan_id":"cebpf4jnsgd1na2vs0mg"},{"bike_id":"e9c59ef7-f889-42af-a387-98050af3bbe7","system_id":"levelo_inurba_marseille","lat":43.30896,"lon":5.39661,"is_reserved":false,"is_disabled":false,"rental_uris":{"android":"levelo://app?vid=e9c59ef7-f889-42af-a387-98050af3bbe7","ios":"levelo://app?vid=e9c59ef7-f889-42af-a387-98050af3bbe7"},"vehicle_type_id":"4","last_reported":1761476851,"current_range_meters":17600,"station_id":"ce4bh012rcd13ifvqcv0","pricing_plan_id":"cebpf4jnsgd1na2vs0mg"},{"bike_id":"ce15d64c-7bd4-4017-a01a-0dc353c2995b","system_id":"levelo_inurba_marseille","lat":43.281318,"lon":5.350286,"is_reserved":false,"is_disabled":false,"rental_uris":{"android":"levelo://app?vid=ce15d64c-7bd4-4017-a01a-0dc353c2995b","ios":"levelo://app?vid=ce15d64c-7bd4-4017-a01a-0dc353c2995b"},"vehicle_type_id":"4","last_reported":1761476851,"current_range_meters":17600,"station_id":"","pricing_plan_id":"cebpf4jnsgd1na2vs0mg"},{"bike_id":"676f8664-d227-4500-9fd5-444b3baa24fd","system_id":"levelo_inurba_marseille","lat":43.21751,"lon":5.34595,"is_reserved":false,"is_disabled":false,"rental_uris":{"android":"levelo://app?vid=676f8664-d227-4500-9fd5-444b3baa24fd","ios":"levelo://app?vid=676f8664-d227-4500-9fd5-444b3baa24fd"},"vehicle_type_id":"4","last_reported":1761476851,"current_range_meters":18000,"station_id":"","pricing_plan_id":"cebpf4jnsgd1na2vs0mg"},{"bike_id":"36d7fbc3-e4e1-4b61-8e94-e74b2c6446ca","system_id":"levelo_inurba_marseille","lat":43.2551,"lon":5.37659,"is_reserved":false,"is_disabled":true,"rental_uris":{"android":"levelo://app?vid=36d7fbc3-e4e1-4b61-8e94-e74b2c6446ca","ios":"levelo://app?vid=36d7fbc3-e4e1-4b61-8e94-e74b2c6446ca"},"vehicle_type_id":"4","last_reported":1761476851,"current_range_meters":18000,"station_id":"ce4bhh12rcd13ifvqff0","pricing_plan_id":"cebpf4jnsgd1na2vs0mg"},{"bike_id":"7165d414-e8a5-415f-8a72-9e3295be2a67","system_id":"levelo_inurba_marseille","lat":43.3104,"lon":5.37914,"is_reserved":false,"is_disabled":false,"rental_uris":{"android":"levelo://app?vid=7165d414-e8a5-415f-8a72-9e3295be2a67","ios":"levelo://app?vid=7165d414-e8a5-415f-8a72-9e3295be2a67"},"vehicle_type_id":"4","last_reported":1761476851,"current_range_meters":18000,"station_id":"","pricing_plan_id":"cebpf4jnsgd1na2vs0mg"},{"bike_id":"b9ae3ff8-1fd5-421b-a8a3-72ad80cdae9e","system_id":"levelo_inurba_marseille","lat":43.26573,"lon":5.39025,"is_reserved":false,"is_disabled":false,"rental_uris":{"android":"levelo://app?vid=b9ae3ff8-1fd5-421b-a8a3-72ad80cdae9e","ios":"levelo://app?vid=b9ae3ff8-1fd5-421b-a8a3-72ad80cdae9e"},"vehicle_type_id":"4","last_reported":1761476851,"current_range_meters":18000,"station_id":"ce4bhe12rcd13ifvqf30","pricing_plan_id":"cebpf4jnsgd1na2vs0mg"},{"bike_id":"f6f41915-49e3-4fb8-8c5c-96d42e084e15","system_id":"levelo_inurba_marseille","lat":43.32033,"lon":5.37088,"is_reserved":false,"is_disabled":false,"rental_uris":{"android":"levelo://app?vid=f6f41915-49e3-4fb8-8c5c-96d42e084e15","ios":"levelo://app?vid=f6f41915-49e3-4fb8-8c5c-96d42e084e15"},"vehicle_type_id":"4","last_reported":1761476851,"current_range_meters":18000,"station_id":"","pricing_plan_id":"cebpf4jnsgd1na2vs0mg"},{"bike_id":"1a17ca6c-2b9b-4e73-b76d-539b00005301","system_id":"levelo_inurba_marseille","lat":43.243908,"lon":5.370586,"is_reserved":false,"is_disabled":false,"rental_uris":{"android":"levelo://app?vid=1a17ca6c-2b9b-4e73-b76d-539b00005301","ios":"levelo://app?vid=1a17ca6c-2b9b-4e73-b76d-539b00005301"},"vehicle_type_id":"4","last_reported":1761476851,"current_range_meters":18000,"station_id":"ce4bhhh2rcd13ifvqfk0","pricing_plan_id":"cebpf4jnsgd1na2vs0mg"},{"bike_id":"18966c1b-b7be-4623-a377-256275982ac0","system_id":"levelo_inurba_marseille","lat":43.24802,"lon":5.37453,"is_reserved":false,"is_disabled":false,"rental_uris":{"android":"levelo://app?vid=18966c1b-b7be-4623-a377-256275982ac0","ios":"levelo://app?vid=18966c1b-b7be-4623-a377-256275982ac0"},"vehicle_type_id":"4","last_reported":1761476851,"current_range_meters":18000,"station_id":"ce4bhgh2rcd13ifvqfb0","pricing_plan_id":"cebpf4jnsgd1na2vs0mg"},{"bike_id":"7b1d6e28-9eb1-4bc7-a617-675ff8361012","system_id":"levelo_inurba_marseille","lat":43.24657,"lon":5.38157,"is_reserved":false,"is_disabled":false,"rental_uris":{"android":"levelo://app?vid=7b1d6e28-9eb1-4bc7-a617-675ff8361012","ios":"levelo://app?vid=7b1d6e28-9eb1-4bc7-a617-675ff8361012"},"vehicle_type_id":"4","last_reported":1761476851,"current_range_meters":18000,"station_id":"ce4bhih2rcd13ifvqfr0","pricing_plan_id":"cebpf4jnsgd1na2vs0mg"},{"bike_id":"b093f329-277a-43e7-9ff3-54a02ec2f529","system_id":"levelo_inurba_marseille","lat":43.31127,"lon":5.37764,"is_reserved":false,"is_disabled":false,"rental_uris":{"android":"levelo://app?vid=b093f329-277a-43e7-9ff3-54a02ec2f529","ios":"levelo://app?vid=b093f329-277a-43e7-9ff3-54a02ec2f529"},"vehicle_type_id":"4","last_reported":1761476851,"current_range_meters":18000,"station_id":"ce4bgt92rcd13ifvqcg0","pricing_plan_id":"cebpf4jnsgd1na2vs0mg"},{"bike_id":"d4a13e58-0308-404b-a811-63c18d1a3346","system_id":"levelo_inurba_marseille","lat":43.28109,"lon":5.37832,"is_reserved":false,"is_disabled":false,"rental_uris":{"android":"levelo://app?vid=d4a13e58-0308-404b-a811-63c18d1a3346","ios":"levelo://app?vid=d4a13e58-0308-404b-a811-63c18d1a3346"},"vehicle_type_id":"4","last_reported":1761476851,"current_range_meters":18800,"station_id":"ce4bha12rcd13ifvqee0","pricing_plan_id":"cebpf4jnsgd1na2vs0mg"},{"bike_id":"60fe6520-86d2-419c-ae24-b64e627f6ed3","system_id":"levelo_inurba_marseille","lat":43.2466,"lon":5.3816,"is_reserved":false,"is_disabled":false,"rental_uris":{"android":"levelo://app?vid=60fe6520-86d2-419c-ae24-b64e627f6ed3","ios":"levelo://app?vid=60fe6520-86d2-419c-ae24-b64e627f6ed3"},"vehicle_type_id":"4","last_reported":1761476851,"current_range_meters":18800,"station_id":"ce4bhih2rcd13ifvqfr0","pricing_plan_id":"cebpf4jnsgd1na2vs0mg"},{"bike_id":"67f27096-805a-4dd3-bcd0-5f63430caed3","system_id":"levelo_inurba_marseille","lat":43.23059,"lon":5.35496,"is_reserved":false,"is_disabled":false,"rental_uris":{"android":"levelo://app?vid=67f27096-805a-4dd3-bcd0-5f63430caed3","ios":"levelo://app?vid=67f27096-805a-4dd3-bcd0-5f63430caed3"},"vehicle_type_id":"4","last_reported":1761476851,"current_range_meters":18800,"station_id":"cpo3342slgdg3j2ifvpg","pricing_plan_id":"cebpf4jnsgd1na2vs0mg"},{"bike_id":"b79da681-8218-4df2-9ffe-668dcfa5a9f9","system_id":"levelo_inurba_marseille","lat":43.27194,"lon":5.39186,"is_reserved":false,"is_disabled":false,"rental_uris":{"android":"levelo://app?vid=b79da681-8218-4df2-9ffe-668dcfa5a9f9","ios":"levelo://app?vid=b79da681-8218-4df2-9ffe-668dcfa5a9f9"},"vehicle_type_id":"4","last_reported":1761476851,"current_range_meters":18800,"station_id":"ce4bhhp2rcd13ifvqfm0","pricing_plan_id":"cebpf4jnsgd1na2vs0mg"},{"bike_id":"0e3a1375-1454-4101-915f-2208001d5e2b","system_id":"levelo_inurba_marseille","lat":43.302522,"lon":5.400664,"is_reserved":false,"is_disabled":true,"rental_uris":{"android":"levelo://app?vid=0e3a1375-1454-4101-915f-2208001d5e2b","ios":"levelo://app?vid=0e3a1375-1454-4101-915f-2208001d5e2b"},"vehicle_type_id":"4","last_reported":1761476851,"current_range_meters":18800,"station_id":"ce4bgvh2rcd13ifvqcs0","pricing_plan_id":"cebpf4jnsgd1na2vs0mg"},{"bike_id":"5bc341ac-0911-4356-8f26-d97bf79e1968","system_id":"levelo_inurba_marseille","lat":43.24064,"lon":5.37748,"is_reserved":false,"is_disabled":false,"rental_uris":{"android":"levelo://app?vid=5bc341ac-0911-4356-8f26-d97bf79e1968","ios":"levelo://app?vid=5bc341ac-0911-4356-8f26-d97bf79e1968"},"vehicle_type_id":"4","last_reported":1761476851,"current_range_meters":18800,"station_id":"ce4bhnp2rcd13ifvqgvg","pricing_plan_id":"cebpf4jnsgd1na2vs0mg"},{"bike_id":"dea76e1b-a01d-415a-8864-695f90f26959","system_id":"levelo_inurba_marseille","lat":43.26368,"lon":5.39652,"is_reserved":false,"is_disabled":false,"rental_uris":{"android":"levelo://app?vid=dea76e1b-a01d-415a-8864-695f90f26959","ios":"levelo://app?vid=dea76e1b-a01d-415a-8864-695f90f26959"},"vehicle_type_id":"4","last_reported":1761476851,"current_range_meters":18800,"station_id":"","pricing_plan_id":"cebpf4jnsgd1na2vs0mg"},{"bike_id":"79f9cde6-2fc1-438e-a896-83f6555a03e6","system_id":"levelo_inurba_marseille","lat":43.32101,"lon":5.36772,"is_reserved":false,"is_disabled":false,"rental_uris":{"android":"levelo://app?vid=79f9cde6-2fc1-438e-a896-83f6555a03e6","ios":"levelo://app?vid=79f9cde6-2fc1-438e-a896-83f6555a03e6"},"vehicle_type_id":"4","last_reported":1761476851,"current_range_meters":19200,"station_id":"ce4bhrh2rcd13ifvqhug","pricing_plan_id":"cebpf4jnsgd1na2vs0mg"},{"bike_id":"94aaf935-55ff-4431-b612-265a39fb330c","system_id":"levelo_inurba_marseille","lat":43.29016,"lon":5.38643,"is_reserved":false,"is_disabled":true,"rental_uris":{"android":"levelo://app?vid=94aaf935-55ff-4431-b612-265a39fb330c","ios":"levelo://app?vid=94aaf935-55ff-4431-b612-265a39fb330c"},"vehicle_type_id":"4","last_reported":1761476851,"current_range_meters":19200,"station_id":"ce4bh4p2rcd13ifvqe0g","pricing_plan_id":"cebpf4jnsgd1na2vs0mg"},{"bike_id":"26c48375-1e6e-43b2-9750-bd0ef6e16469","system_id":"levelo_inurba_marseille","lat":43.22558,"lon":5.41622,"is_reserved":false,"is_disabled":false,"rental_uris":{"android":"levelo://app?vid=26c48375-1e6e-43b2-9750-bd0ef6e16469","ios":"levelo://app?vid=26c48375-1e6e-43b2-9750-bd0ef6e16469"},"vehicle_type_id":"4","last_reported":1761476851,"current_range_meters":19200,"station_id":"st_d2o4gvlbi1j2169b742g","pricing_plan_id":"cebpf4jnsgd1na2vs0mg"},{"bike_id":"c72fbfce-4f47-4c5c-a05f-100d6020a836","system_id":"levelo_inurba_marseille","lat":43.22935,"lon":5.3538,"is_reserved":false,"is_disabled":false,"rental_uris":{"android":"levelo://app?vid=c72fbfce-4f47-4c5c-a05f-100d6020a836","ios":"levelo://app?vid=c72fbfce-4f47-4c5c-a05f-100d6020a836"},"vehicle_type_id":"4","last_reported":1761476851,"current_range_meters":19200,"station_id":"cpo3532slgdg3j2ikp40","pricing_plan_id":"cebpf4jnsgd1na2vs0mg"},{"bike_id":"649c357c-0600-454e-ad46-07b8c7fa47fd","system_id":"levelo_inurba_marseille","lat":43.29937,"lon":5.36546,"is_reserved":false,"is_disabled":false,"rental_uris":{"android":"levelo://app?vid=649c357c-0600-454e-ad46-07b8c7fa47fd","ios":"levelo://app?vid=649c357c-0600-454e-ad46-07b8c7fa47fd"},"vehicle_type_id":"4","last_reported":1761476851,"current_range_meters":19200,"station_id":"ce4bgm92rcd13ifvqbr0","pricing_plan_id":"cebpf4jnsgd1na2vs0mg"},{"bike_id":"da945370-32c7-4765-8b8c-dadee680d38e","system_id":"levelo_inurba_marseille","lat":43.34058,"lon":5.40415,"is_reserved":false,"is_disabled":false,"rental_uris":{"android":"levelo://app?vid=da945370-32c7-4765-8b8c-dadee680d38e","ios":"levelo://app?vid=da945370-32c7-4765-8b8c-dadee680d38e"},"vehicle_type_id":"4","last_reported":1761476851,"current_range_meters":19200,"station_id":"","pricing_plan_id":"cebpf4jnsgd1na2vs0mg"},{"bike_id":"7cd06c8e-20e0-4a7b-bdd0-d1a902d0086a","system_id":"levelo_inurba_marseille","lat":43.26238,"lon":5.40453,"is_reserved":false,"is_disabled":false,"rental_uris":{"android":"levelo://app?vid=7cd06c8e-20e0-4a7b-bdd0-d1a902d0086a","ios":"levelo://app?vid=7cd06c8e-20e0-4a7b-bdd0-d1a902d0086a"},"vehicle_type_id":"4","last_reported":1761476851,"current_range_meters":19200,"station_id":"ce4bhmh2rcd13ifvqgmg","pricing_plan_id":"cebpf4jnsgd1na2vs0mg"},{"bike_id":"52362110-04ea-4f87-94ca-f66a7b528c2a","system_id":"levelo_inurba_marseille","lat":43.25089,"lon":5.39514,"is_reserved":false,"is_disabled":false,"rental_uris":{"android":"levelo://app?vid=52362110-04ea-4f87-94ca-f66a7b528c2a","ios":"levelo://app?vid=52362110-04ea-4f87-94ca-f66a7b528c2a"},"vehicle_type_id":"4","last_reported":1761476851,"current_range_meters":19200,"station_id":"ce4bhm12rcd13ifvqgkg","pricing_plan_id":"cebpf4jnsgd1na2vs0mg"},{"bike_id":"f378747e-d1c6-408a-b3ef-d694e27c4014","system_id":"levelo_inurba_marseille","lat":43.32109,"lon":5.36762,"is_reserved":false,"is_disabled":false,"rental_uris":{"android":"levelo://app?vid=f378747e-d1c6-408a-b3ef-d694e27c4014","ios":"levelo://app?vid=f378747e-d1c6-408a-b3ef-d694e27c4014"},"vehicle_type_id":"4","last_reported":1761476851,"current_range_meters":19200,"station_id":"ce4bhrh2rcd13ifvqhug","pricing_plan_id":"cebpf4jnsgd1na2vs0mg"},{"bike_id":"2dfd9b11-625b-4458-a8f4-6bd58937bfec","system_id":"levelo_inurba_marseille","lat":43.21747,"lon":5.34603,"is_reserved":false,"is_disabled":false,"rental_uris":{"android":"levelo://app?vid=2dfd9b11-625b-4458-a8f4-6bd58937bfec","ios":"levelo://app?vid=2dfd9b11-625b-4458-a8f4-6bd58937bfec"},"vehicle_type_id":"4","last_reported":1761476851,"current_range_meters":19200,"station_id":"","pricing_plan_id":"cebpf4jnsgd1na2vs0mg"},{"bike_id":"303bc768-d0f9-44e6-8009-cff3ec7da67d","system_id":"levelo_inurba_marseille","lat":43.27429,"lon":5.39395,"is_reserved":false,"is_disabled":false,"rental_uris":{"android":"levelo://app?vid=303bc768-d0f9-44e6-8009-cff3ec7da67d","ios":"levelo://app?vid=303bc768-d0f9-44e6-8009-cff3ec7da67d"},"vehicle_type_id":"4","last_reported":1761476851,"current_range_meters":19600,"station_id":"ce4bhdp2rcd13ifvqf20","pricing_plan_id":"cebpf4jnsgd1na2vs0mg"},{"bike_id":"93ef566c-0909-48d1-8deb-d11c9c5aea5b","system_id":"levelo_inurba_marseille","lat":43.32343,"lon":5.3672,"is_reserved":false,"is_disabled":false,"rental_uris":{"android":"levelo://app?vid=93ef566c-0909-48d1-8deb-d11c9c5aea5b","ios":"levelo://app?vid=93ef566c-0909-48d1-8deb-d11c9c5aea5b"},"vehicle_type_id":"4","last_reported":1761476851,"current_range_meters":19600,"station_id":"ce4bhsh2rcd13ifvqi2g","pricing_plan_id":"cebpf4jnsgd1na2vs0mg"},{"bike_id":"26a33dcf-50de-4561-a5e9-8254886f89ed","system_id":"levelo_inurba_marseille","lat":43.24324,"lon":5.39199,"is_reserved":false,"is_disabled":false,"rental_uris":{"android":"levelo://app?vid=26a33dcf-50de-4561-a5e9-8254886f89ed","ios":"levelo://app?vid=26a33dcf-50de-4561-a5e9-8254886f89ed"},"vehicle_type_id":"4","last_reported":1761476851,"current_range_meters":19600,"station_id":"","pricing_plan_id":"cebpf4jnsgd1na2vs0mg"},{"bike_id":"dd49c643-708e-4930-9902-c0a947f622bd","system_id":"levelo_inurba_marseille","lat":43.23062,"lon":5.35491,"is_reserved":false,"is_disabled":false,"rental_uris":{"android":"levelo://app?vid=dd49c643-708e-4930-9902-c0a947f622bd","ios":"levelo://app?vid=dd49c643-708e-4930-9902-c0a947f622bd"},"vehicle_type_id":"4","last_reported":1761476851,"current_range_meters":19600,"station_id":"cpo3342slgdg3j2ifvpg","pricing_plan_id":"cebpf4jnsgd1na2vs0mg"},{"bike_id":"83106217-f024-4381-9607-50194d3370ce","system_id":"levelo_inurba_marseille","lat":43.241602,"lon":5.36411,"is_reserved":false,"is_disabled":false,"rental_uris":{"android":"levelo://app?vid=83106217-f024-4381-9607-50194d3370ce","ios":"levelo://app?vid=83106217-f024-4381-9607-50194d3370ce"},"vehicle_type_id":"4","last_reported":1761476851,"current_range_meters":19600,"station_id":"cpo36qri1sfpv3e86is0","pricing_plan_id":"cebpf4jnsgd1na2vs0mg"},{"bike_id":"673c37ce-79a4-4b48-ba5a-89162299fd2a","system_id":"levelo_inurba_marseille","lat":43.28466,"lon":5.35888,"is_reserved":false,"is_disabled":false,"rental_uris":{"android":"levelo://app?vid=673c37ce-79a4-4b48-ba5a-89162299fd2a","ios":"levelo://app?vid=673c37ce-79a4-4b48-ba5a-89162299fd2a"},"vehicle_type_id":"4","last_reported":1761476851,"current_range_meters":19600,"station_id":"ce4bhah2rcd13ifvqei0","pricing_plan_id":"cebpf4jnsgd1na2vs0mg"},{"bike_id":"e92a5181-3093-4535-adde-2230374de0aa","system_id":"levelo_inurba_marseille","lat":43.31347,"lon":5.37685,"is_reserved":false,"is_disabled":false,"rental_uris":{"android":"levelo://app?vid=e92a5181-3093-4535-adde-2230374de0aa","ios":"levelo://app?vid=e92a5181-3093-4535-adde-2230374de0aa"},"vehicle_type_id":"4","last_reported":1761476851,"current_range_meters":19600,"station_id":"","pricing_plan_id":"cebpf4jnsgd1na2vs0mg"},{"bike_id":"74440bb7-72c3-4ad8-9dec-9a57ed6d17c9","system_id":"levelo_inurba_marseille","lat":43.32358,"lon":5.388923,"is_reserved":false,"is_disabled":false,"rental_uris":{"android":"levelo://app?vid=74440bb7-72c3-4ad8-9dec-9a57ed6d17c9","ios":"levelo://app?vid=74440bb7-72c3-4ad8-9dec-9a57ed6d17c9"},"vehicle_type_id":"4","last_reported":1761476851,"current_range_meters":19600,"station_id":"ce4bhqp2rcd13ifvqhog","pricing_plan_id":"cebpf4jnsgd1na2vs0mg"},{"bike_id":"582fe2d6-0ae9-4675-bd90-c18d8f24c8d4","system_id":"levelo_inurba_marseille","lat":43.27917,"lon":5.39592,"is_reserved":false,"is_disabled":false,"rental_uris":{"android":"levelo://app?vid=582fe2d6-0ae9-4675-bd90-c18d8f24c8d4","ios":"levelo://app?vid=582fe2d6-0ae9-4675-bd90-c18d8f24c8d4"},"vehicle_type_id":"4","last_reported":1761476851,"current_range_meters":19600,"station_id":"ce4bhf92rcd13ifvqf40","pricing_plan_id":"cebpf4jnsgd1na2vs0mg"},{"bike_id":"0643b154-91d0-4e15-9c38-880ea2d720ff","system_id":"levelo_inurba_marseille","lat":43.29843,"lon":5.36263,"is_reserved":false,"is_disabled":false,"rental_uris":{"android":"levelo://app?vid=0643b154-91d0-4e15-9c38-880ea2d720ff","ios":"levelo://app?vid=0643b154-91d0-4e15-9c38-880ea2d720ff"},"vehicle_type_id":"4","last_reported":1761476851,"current_range_meters":19600,"station_id":"ce4bgpp2rcd13ifvqc3g","pricing_plan_id":"cebpf4jnsgd1na2vs0mg"},{"bike_id":"b83891d3-7971-45ae-9af3-651a6e6209e2","system_id":"levelo_inurba_marseille","lat":43.231915,"lon":5.355754,"is_reserved":false,"is_disabled":false,"rental_uris":{"android":"levelo://app?vid=b83891d3-7971-45ae-9af3-651a6e6209e2","ios":"levelo://app?vid=b83891d3-7971-45ae-9af3-651a6e6209e2"},"vehicle_type_id":"4","last_reported":1761476851,"current_range_meters":20000,"station_id":"ce4bhu92rcd13ifvqi70","pricing_plan_id":"cebpf4jnsgd1na2vs0mg"},{"bike_id":"fc415666-0eee-42cf-ad7e-559eb9802048","system_id":"levelo_inurba_marseille","lat":43.31097,"lon":5.37487,"is_reserved":false,"is_disabled":false,"rental_uris":{"android":"levelo://app?vid=fc415666-0eee-42cf-ad7e-559eb9802048","ios":"levelo://app?vid=fc415666-0eee-42cf-ad7e-559eb9802048"},"vehicle_type_id":"4","last_reported":1761476851,"current_range_meters":20000,"station_id":"","pricing_plan_id":"cebpf4jnsgd1na2vs0mg"},{"bike_id":"05a3c345-5258-4c39-91af-41165982fc3a","system_id":"levelo_inurba_marseille","lat":43.29307,"lon":5.37172,"is_reserved":false,"is_disabled":false,"rental_uris":{"android":"levelo://app?vid=05a3c345-5258-4c39-91af-41165982fc3a","ios":"levelo://app?vid=05a3c345-5258-4c39-91af-41165982fc3a"},"vehicle_type_id":"4","last_reported":1761476851,"current_range_meters":20000,"station_id":"ce4bgh92rcd13ifvqb40","pricing_plan_id":"cebpf4jnsgd1na2vs0mg"},{"bike_id":"48f379fc-9021-4051-8306-9d9acbadecc0","system_id":"levelo_inurba_marseille","lat":43.303201,"lon":5.404435,"is_reserved":false,"is_disabled":false,"rental_uris":{"android":"levelo://app?vid=48f379fc-9021-4051-8306-9d9acbadecc0","ios":"levelo://app?vid=48f379fc-9021-4051-8306-9d9acbadecc0"},"vehicle_type_id":"4","last_reported":1761476851,"current_range_meters":20000,"station_id":"ce4bh012rcd13ifvqd10","pricing_plan_id":"cebpf4jnsgd1na2vs0mg"},{"bike_id":"4b219a79-a7cc-4cd2-a25e-838fe8d3bf04","system_id":"levelo_inurba_marseille","lat":43.30893,"lon":5.3963,"is_reserved":false,"is_disabled":false,"rental_uris":{"android":"levelo://app?vid=4b219a79-a7cc-4cd2-a25e-838fe8d3bf04","ios":"levelo://app?vid=4b219a79-a7cc-4cd2-a25e-838fe8d3bf04"},"vehicle_type_id":"4","last_reported":1761476851,"current_range_meters":20000,"station_id":"ce4bh012rcd13ifvqcv0","pricing_plan_id":"cebpf4jnsgd1na2vs0mg"},{"bike_id":"804dbda5-2784-4e57-879b-8ddc8a13c73c","system_id":"levelo_inurba_marseille","lat":43.29486,"lon":5.43303,"is_reserved":false,"is_disabled":false,"rental_uris":{"android":"levelo://app?vid=804dbda5-2784-4e57-879b-8ddc8a13c73c","ios":"levelo://app?vid=804dbda5-2784-4e57-879b-8ddc8a13c73c"},"vehicle_type_id":"4","last_reported":1761476851,"current_range_meters":20000,"station_id":"st_d3j5ugp08ojc73fj9d10","pricing_plan_id":"cebpf4jnsgd1na2vs0mg"},{"bike_id":"fdc43030-5704-454e-ad42-cd94061c06a1","system_id":"levelo_inurba_marseille","lat":43.321007,"lon":5.3677,"is_reserved":false,"is_disabled":false,"rental_uris":{"android":"levelo://app?vid=fdc43030-5704-454e-ad42-cd94061c06a1","ios":"levelo://app?vid=fdc43030-5704-454e-ad42-cd94061c06a1"},"vehicle_type_id":"4","last_reported":1761476851,"current_range_meters":20000,"station_id":"ce4bhrh2rcd13ifvqhug","pricing_plan_id":"cebpf4jnsgd1na2vs0mg"},{"bike_id":"9d8ebc8c-f00c-42c5-a2de-7f9b8c36d074","system_id":"levelo_inurba_marseille","lat":43.26675,"lon":5.38257,"is_reserved":false,"is_disabled":false,"rental_uris":{"android":"levelo://app?vid=9d8ebc8c-f00c-42c5-a2de-7f9b8c36d074","ios":"levelo://app?vid=9d8ebc8c-f00c-42c5-a2de-7f9b8c36d074"},"vehicle_type_id":"4","last_reported":1761476851,"current_range_meters":20400,"station_id":"ce4bhg92rcd13ifvqf90","pricing_plan_id":"cebpf4jnsgd1na2vs0mg"},{"bike_id":"3cf954f8-897c-4098-b7a1-1e4490c2b26a","system_id":"levelo_inurba_marseille","lat":43.258298,"lon":5.394251,"is_reserved":false,"is_disabled":false,"rental_uris":{"android":"levelo://app?vid=3cf954f8-897c-4098-b7a1-1e4490c2b26a","ios":"levelo://app?vid=3cf954f8-897c-4098-b7a1-1e4490c2b26a"},"vehicle_type_id":"4","last_reported":1761476851,"current_range_meters":20400,"station_id":"ce4bhip2rcd13ifvqft0","pricing_plan_id":"cebpf4jnsgd1na2vs0mg"},{"bike_id":"cbe955e4-9ef1-4369-a753-e429362872c6","system_id":"levelo_inurba_marseille","lat":43.229278,"lon":5.353744,"is_reserved":false,"is_disabled":false,"rental_uris":{"android":"levelo://app?vid=cbe955e4-9ef1-4369-a753-e429362872c6","ios":"levelo://app?vid=cbe955e4-9ef1-4369-a753-e429362872c6"},"vehicle_type_id":"4","last_reported":1761476851,"current_range_meters":20400,"station_id":"st_cvj6r9ubvosntc0bgbag","pricing_plan_id":"cebpf4jnsgd1na2vs0mg"},{"bike_id":"0d5a133e-0f8a-4d6a-a72d-60bae138750f","system_id":"levelo_inurba_marseille","lat":43.30416,"lon":5.41275,"is_reserved":false,"is_disabled":false,"rental_uris":{"android":"levelo://app?vid=0d5a133e-0f8a-4d6a-a72d-60bae138750f","ios":"levelo://app?vid=0d5a133e-0f8a-4d6a-a72d-60bae138750f"},"vehicle_type_id":"4","last_reported":1761476851,"current_range_meters":20400,"station_id":"ce4bhop2rcd13ifvqh8g","pricing_plan_id":"cebpf4jnsgd1na2vs0mg"},{"bike_id":"fc5be79c-297b-45fe-9785-19ab30088c94","system_id":"levelo_inurba_marseille","lat":43.29531,"lon":5.38535,"is_reserved":false,"is_disabled":false,"rental_uris":{"android":"levelo://app?vid=fc5be79c-297b-45fe-9785-19ab30088c94","ios":"levelo://app?vid=fc5be79c-297b-45fe-9785-19ab30088c94"},"vehicle_type_id":"4","last_reported":1761476851,"current_range_meters":20800,"station_id":"ce4bgih2rcd13ifvqba0","pricing_plan_id":"cebpf4jnsgd1na2vs0mg"},{"bike_id":"8991515f-566d-4fed-8c44-89ba6001664a","system_id":"levelo_inurba_marseille","lat":43.260692,"lon":5.393961,"is_reserved":false,"is_disabled":false,"rental_uris":{"android":"levelo://app?vid=8991515f-566d-4fed-8c44-89ba6001664a","ios":"levelo://app?vid=8991515f-566d-4fed-8c44-89ba6001664a"},"vehicle_type_id":"4","last_reported":1761476851,"current_range_meters":20800,"station_id":"ce4bhh92rcd13ifvqfj0","pricing_plan_id":"cebpf4jnsgd1na2vs0mg"},{"bike_id":"a3742816-3b43-434e-9db0-9ab9379fa4b3","system_id":"levelo_inurba_marseille","lat":43.27385,"lon":5.3626,"is_reserved":false,"is_disabled":true,"rental_uris":{"android":"levelo://app?vid=a3742816-3b43-434e-9db0-9ab9379fa4b3","ios":"levelo://app?vid=a3742816-3b43-434e-9db0-9ab9379fa4b3"},"vehicle_type_id":"4","last_reported":1761476851,"current_range_meters":20800,"station_id":"ce4bhbh2rcd13ifvqeo0","pricing_plan_id":"cebpf4jnsgd1na2vs0mg"},{"bike_id":"5837d1ef-6ff3-4b6b-9d0b-6fb51011d077","system_id":"levelo_inurba_marseille","lat":43.2743,"lon":5.39405,"is_reserved":false,"is_disabled":true,"rental_uris":{"android":"levelo://app?vid=5837d1ef-6ff3-4b6b-9d0b-6fb51011d077","ios":"levelo://app?vid=5837d1ef-6ff3-4b6b-9d0b-6fb51011d077"},"vehicle_type_id":"4","last_reported":1761476851,"current_range_meters":20800,"station_id":"ce4bhdp2rcd13ifvqf20","pricing_plan_id":"cebpf4jnsgd1na2vs0mg"},{"bike_id":"a3100ff0-76ab-498b-bebf-b9c52f3d2538","system_id":"levelo_inurba_marseille","lat":43.2849,"lon":5.48392,"is_reserved":false,"is_disabled":false,"rental_uris":{"android":"levelo://app?vid=a3100ff0-76ab-498b-bebf-b9c52f3d2538","ios":"levelo://app?vid=a3100ff0-76ab-498b-bebf-b9c52f3d2538"},"vehicle_type_id":"4","last_reported":1761476851,"current_range_meters":20800,"station_id":"","pricing_plan_id":"cebpf4jnsgd1na2vs0mg"},{"bike_id":"2508b611-ebc5-48d6-8412-ab3f25b207c7","system_id":"levelo_inurba_marseille","lat":43.2416,"lon":5.36403,"is_reserved":false,"is_disabled":false,"rental_uris":{"android":"levelo://app?vid=2508b611-ebc5-48d6-8412-ab3f25b207c7","ios":"levelo://app?vid=2508b611-ebc5-48d6-8412-ab3f25b207c7"},"vehicle_type_id":"4","last_reported":1761476851,"current_range_meters":20800,"station_id":"cpo36qri1sfpv3e86is0","pricing_plan_id":"cebpf4jnsgd1na2vs0mg"},{"bike_id":"924c497b-3d4b-407f-b960-f7336e7b46d0","system_id":"levelo_inurba_marseille","lat":43.22568,"lon":5.41607,"is_reserved":false,"is_disabled":false,"rental_uris":{"android":"levelo://app?vid=924c497b-3d4b-407f-b960-f7336e7b46d0","ios":"levelo://app?vid=924c497b-3d4b-407f-b960-f7336e7b46d0"},"vehicle_type_id":"4","last_reported":1761476851,"current_range_meters":20800,"station_id":"st_d2o4gvlbi1j2169b742g","pricing_plan_id":"cebpf4jnsgd1na2vs0mg"},{"bike_id":"21dbf7f2-eb19-4663-b1c0-879822879492","system_id":"levelo_inurba_marseille","lat":43.337619,"lon":5.374425,"is_reserved":false,"is_disabled":false,"rental_uris":{"android":"levelo://app?vid=21dbf7f2-eb19-4663-b1c0-879822879492","ios":"levelo://app?vid=21dbf7f2-eb19-4663-b1c0-879822879492"},"vehicle_type_id":"4","last_reported":1761476851,"current_range_meters":20800,"station_id":"","pricing_plan_id":"cebpf4jnsgd1na2vs0mg"},{"bike_id":"b689a5bf-875d-4ab1-9212-a71e85899faa","system_id":"levelo_inurba_marseille","lat":43.29758,"lon":5.42784,"is_reserved":false,"is_disabled":false,"rental_uris":{"android":"levelo://app?vid=b689a5bf-875d-4ab1-9212-a71e85899faa","ios":"levelo://app?vid=b689a5bf-875d-4ab1-9212-a71e85899faa"},"vehicle_type_id":"4","last_reported":1761476851,"current_range_meters":21600,"station_id":"st_d3md5207bmas73dh9klg","pricing_plan_id":"cebpf4jnsgd1na2vs0mg"},{"bike_id":"bb3d6f43-fe8d-4027-a7f4-02cf8b0450bf","system_id":"levelo_inurba_marseille","lat":43.28845,"lon":5.35858,"is_reserved":false,"is_disabled":true,"rental_uris":{"android":"levelo://app?vid=bb3d6f43-fe8d-4027-a7f4-02cf8b0450bf","ios":"levelo://app?vid=bb3d6f43-fe8d-4027-a7f4-02cf8b0450bf"},"vehicle_type_id":"4","last_reported":1761476851,"current_range_meters":21600,"station_id":"ce4bhb12rcd13ifvqem0","pricing_plan_id":"cebpf4jnsgd1na2vs0mg"},{"bike_id":"65c53ecd-3f41-46ea-9b4a-baa2d30cd45a","system_id":"levelo_inurba_marseille","lat":43.23153,"lon":5.43716,"is_reserved":false,"is_disabled":false,"rental_uris":{"android":"levelo://app?vid=65c53ecd-3f41-46ea-9b4a-baa2d30cd45a","ios":"levelo://app?vid=65c53ecd-3f41-46ea-9b4a-baa2d30cd45a"},"vehicle_type_id":"4","last_reported":1761476851,"current_range_meters":21600,"station_id":"ce4bhmp2rcd13ifvqgog","pricing_plan_id":"cebpf4jnsgd1na2vs0mg"},{"bike_id":"99f954c5-9fe4-44f0-9935-cc2acafeb896","system_id":"levelo_inurba_marseille","lat":43.237831,"lon":5.366289,"is_reserved":false,"is_disabled":false,"rental_uris":{"android":"levelo://app?vid=99f954c5-9fe4-44f0-9935-cc2acafeb896","ios":"levelo://app?vid=99f954c5-9fe4-44f0-9935-cc2acafeb896"},"vehicle_type_id":"4","last_reported":1761476851,"current_range_meters":21600,"station_id":"st_d3nk18o9ro0c73en2l3g","pricing_plan_id":"cebpf4jnsgd1na2vs0mg"},{"bike_id":"fc86137e-79c9-48b3-8878-1f176f4349a6","system_id":"levelo_inurba_marseille","lat":43.29532,"lon":5.38531,"is_reserved":false,"is_disabled":false,"rental_uris":{"android":"levelo://app?vid=fc86137e-79c9-48b3-8878-1f176f4349a6","ios":"levelo://app?vid=fc86137e-79c9-48b3-8878-1f176f4349a6"},"vehicle_type_id":"4","last_reported":1761476851,"current_range_meters":21600,"station_id":"ce4bgih2rcd13ifvqba0","pricing_plan_id":"cebpf4jnsgd1na2vs0mg"},{"bike_id":"f45e4e17-f038-4876-9a6b-9884fe76cb04","system_id":"levelo_inurba_marseille","lat":43.30314,"lon":5.36889,"is_reserved":false,"is_disabled":false,"rental_uris":{"android":"levelo://app?vid=f45e4e17-f038-4876-9a6b-9884fe76cb04","ios":"levelo://app?vid=f45e4e17-f038-4876-9a6b-9884fe76cb04"},"vehicle_type_id":"4","last_reported":1761476851,"current_range_meters":21600,"station_id":"ce4bgqh2rcd13ifvqc5g","pricing_plan_id":"cebpf4jnsgd1na2vs0mg"},{"bike_id":"596e07e5-ee28-4f19-90c1-99ddc246077a","system_id":"levelo_inurba_marseille","lat":43.297644,"lon":5.427862,"is_reserved":false,"is_disabled":false,"rental_uris":{"android":"levelo://app?vid=596e07e5-ee28-4f19-90c1-99ddc246077a","ios":"levelo://app?vid=596e07e5-ee28-4f19-90c1-99ddc246077a"},"vehicle_type_id":"4","last_reported":1761476851,"current_range_meters":21600,"station_id":"st_d3md5207bmas73dh9klg","pricing_plan_id":"cebpf4jnsgd1na2vs0mg"},{"bike_id":"4a003757-c8b1-4411-bc6b-5cac33b2bc07","system_id":"levelo_inurba_marseille","lat":43.31755,"lon":5.39021,"is_reserved":false,"is_disabled":false,"rental_uris":{"android":"levelo://app?vid=4a003757-c8b1-4411-bc6b-5cac33b2bc07","ios":"levelo://app?vid=4a003757-c8b1-4411-bc6b-5cac33b2bc07"},"vehicle_type_id":"4","last_reported":1761476851,"current_range_meters":21600,"station_id":"ce4bhqp2rcd13ifvqhng","pricing_plan_id":"cebpf4jnsgd1na2vs0mg"},{"bike_id":"e13dd4bb-585e-49d2-a310-3ca3d4f31b6a","system_id":"levelo_inurba_marseille","lat":43.3095,"lon":5.39034,"is_reserved":false,"is_disabled":false,"rental_uris":{"android":"levelo://app?vid=e13dd4bb-585e-49d2-a310-3ca3d4f31b6a","ios":"levelo://app?vid=e13dd4bb-585e-49d2-a310-3ca3d4f31b6a"},"vehicle_type_id":"4","last_reported":1761476851,"current_range_meters":21600,"station_id":"ce4bgup2rcd13ifvqco0","pricing_plan_id":"cebpf4jnsgd1na2vs0mg"},{"bike_id":"15b9f57f-b8c6-4d17-b81e-97183df186f3","system_id":"levelo_inurba_marseille","lat":43.30921,"lon":5.36845,"is_reserved":false,"is_disabled":false,"rental_uris":{"android":"levelo://app?vid=15b9f57f-b8c6-4d17-b81e-97183df186f3","ios":"levelo://app?vid=15b9f57f-b8c6-4d17-b81e-97183df186f3"},"vehicle_type_id":"4","last_reported":1761476851,"current_range_meters":21600,"station_id":"ce4bgn92rcd13ifvqbvg","pricing_plan_id":"cebpf4jnsgd1na2vs0mg"},{"bike_id":"8f4db126-6522-4e8e-aa27-fbcfd6a36bb1","system_id":"levelo_inurba_marseille","lat":43.22938,"lon":5.3536,"is_reserved":false,"is_disabled":false,"rental_uris":{"android":"levelo://app?vid=8f4db126-6522-4e8e-aa27-fbcfd6a36bb1","ios":"levelo://app?vid=8f4db126-6522-4e8e-aa27-fbcfd6a36bb1"},"vehicle_type_id":"4","last_reported":1761476851,"current_range_meters":22000,"station_id":"cpo3532slgdg3j2ikp40","pricing_plan_id":"cebpf4jnsgd1na2vs0mg"},{"bike_id":"5f91dbac-2984-4fd9-b237-15536042880c","system_id":"levelo_inurba_marseille","lat":43.27211,"lon":5.39178,"is_reserved":false,"is_disabled":false,"rental_uris":{"android":"levelo://app?vid=5f91dbac-2984-4fd9-b237-15536042880c","ios":"levelo://app?vid=5f91dbac-2984-4fd9-b237-15536042880c"},"vehicle_type_id":"4","last_reported":1761476851,"current_range_meters":22000,"station_id":"ce4bhhp2rcd13ifvqfm0","pricing_plan_id":"cebpf4jnsgd1na2vs0mg"},{"bike_id":"56bb2f0d-29e5-4a6e-9cfa-95728046f2a9","system_id":"levelo_inurba_marseille","lat":43.29849,"lon":5.362862,"is_reserved":false,"is_disabled":false,"rental_uris":{"android":"levelo://app?vid=56bb2f0d-29e5-4a6e-9cfa-95728046f2a9","ios":"levelo://app?vid=56bb2f0d-29e5-4a6e-9cfa-95728046f2a9"},"vehicle_type_id":"4","last_reported":1761476851,"current_range_meters":22000,"station_id":"ce4bgpp2rcd13ifvqc3g","pricing_plan_id":"cebpf4jnsgd1na2vs0mg"},{"bike_id":"4e72bc04-97d3-4b89-a5e1-8e868b917687","system_id":"levelo_inurba_marseille","lat":43.250048,"lon":5.389332,"is_reserved":false,"is_disabled":false,"rental_uris":{"android":"levelo://app?vid=4e72bc04-97d3-4b89-a5e1-8e868b917687","ios":"levelo://app?vid=4e72bc04-97d3-4b89-a5e1-8e868b917687"},"vehicle_type_id":"4","last_reported":1761476851,"current_range_meters":22000,"station_id":"ce4bhgp2rcd13ifvqfd0","pricing_plan_id":"cebpf4jnsgd1na2vs0mg"},{"bike_id":"b5776598-3fe1-4bb8-9115-dc33c053afbd","system_id":"levelo_inurba_marseille","lat":43.29197,"lon":5.35782,"is_reserved":false,"is_disabled":true,"rental_uris":{"android":"levelo://app?vid=b5776598-3fe1-4bb8-9115-dc33c053afbd","ios":"levelo://app?vid=b5776598-3fe1-4bb8-9115-dc33c053afbd"},"vehicle_type_id":"4","last_reported":1761476851,"current_range_meters":22000,"station_id":"ce4bhb12rcd13ifvqel0","pricing_plan_id":"cebpf4jnsgd1na2vs0mg"},{"bike_id":"b934001f-c922-472e-9b88-81fa6ba6a01a","system_id":"levelo_inurba_marseille","lat":43.21194,"lon":5.350742,"is_reserved":false,"is_disabled":false,"rental_uris":{"android":"levelo://app?vid=b934001f-c922-472e-9b88-81fa6ba6a01a","ios":"levelo://app?vid=b934001f-c922-472e-9b88-81fa6ba6a01a"},"vehicle_type_id":"4","last_reported":1761476851,"current_range_meters":22000,"station_id":"","pricing_plan_id":"cebpf4jnsgd1na2vs0mg"},{"bike_id":"3bf4bf69-e6ad-4b25-af40-141c302f6dc8","system_id":"levelo_inurba_marseille","lat":43.33355,"lon":5.4014,"is_reserved":false,"is_disabled":false,"rental_uris":{"android":"levelo://app?vid=3bf4bf69-e6ad-4b25-af40-141c302f6dc8","ios":"levelo://app?vid=3bf4bf69-e6ad-4b25-af40-141c302f6dc8"},"vehicle_type_id":"4","last_reported":1761476851,"current_range_meters":22000,"station_id":"","pricing_plan_id":"cebpf4jnsgd1na2vs0mg"},{"bike_id":"126b0e01-b41f-4c81-9a84-125a9f359f3f","system_id":"levelo_inurba_marseille","lat":43.28154,"lon":5.42641,"is_reserved":false,"is_disabled":false,"rental_uris":{"android":"levelo://app?vid=126b0e01-b41f-4c81-9a84-125a9f359f3f","ios":"levelo://app?vid=126b0e01-b41f-4c81-9a84-125a9f359f3f"},"vehicle_type_id":"4","last_reported":1761476851,"current_range_meters":22000,"station_id":"ce4bhnh2rcd13ifvqgug","pricing_plan_id":"cebpf4jnsgd1na2vs0mg"},{"bike_id":"8c71c05b-dd29-470b-8b05-4159f459865a","system_id":"levelo_inurba_marseille","lat":43.288461,"lon":5.382176,"is_reserved":false,"is_disabled":false,"rental_uris":{"android":"levelo://app?vid=8c71c05b-dd29-470b-8b05-4159f459865a","ios":"levelo://app?vid=8c71c05b-dd29-470b-8b05-4159f459865a"},"vehicle_type_id":"4","last_reported":1761476851,"current_range_meters":22400,"station_id":"","pricing_plan_id":"cebpf4jnsgd1na2vs0mg"},{"bike_id":"ba253a4b-18c5-49f5-9f28-ddbd4c8f6e4e","system_id":"levelo_inurba_marseille","lat":43.28617,"lon":5.35098,"is_reserved":false,"is_disabled":false,"rental_uris":{"android":"levelo://app?vid=ba253a4b-18c5-49f5-9f28-ddbd4c8f6e4e","ios":"levelo://app?vid=ba253a4b-18c5-49f5-9f28-ddbd4c8f6e4e"},"vehicle_type_id":"4","last_reported":1761476851,"current_range_meters":22400,"station_id":"ce4bhch2rcd13ifvqeug","pricing_plan_id":"cebpf4jnsgd1na2vs0mg"},{"bike_id":"22ec0dcd-dd63-460c-9113-13d7a6d67ea6","system_id":"levelo_inurba_marseille","lat":43.30595,"lon":5.39349,"is_reserved":false,"is_disabled":false,"rental_uris":{"android":"levelo://app?vid=22ec0dcd-dd63-460c-9113-13d7a6d67ea6","ios":"levelo://app?vid=22ec0dcd-dd63-460c-9113-13d7a6d67ea6"},"vehicle_type_id":"4","last_reported":1761476851,"current_range_meters":22800,"station_id":"ce4bh0p2rcd13ifvqd80","pricing_plan_id":"cebpf4jnsgd1na2vs0mg"},{"bike_id":"a0877e00-6755-4330-b433-ea8e0528aedd","system_id":"levelo_inurba_marseille","lat":43.23156,"lon":5.3546,"is_reserved":false,"is_disabled":false,"rental_uris":{"android":"levelo://app?vid=a0877e00-6755-4330-b433-ea8e0528aedd","ios":"levelo://app?vid=a0877e00-6755-4330-b433-ea8e0528aedd"},"vehicle_type_id":"4","last_reported":1761476851,"current_range_meters":22800,"station_id":"ce4bhu92rcd13ifvqi70","pricing_plan_id":"cebpf4jnsgd1na2vs0mg"},{"bike_id":"5e2f8a69-5cda-4038-a24c-f7cfc5d41728","system_id":"levelo_inurba_marseille","lat":43.28106,"lon":5.3784,"is_reserved":false,"is_disabled":false,"rental_uris":{"android":"levelo://app?vid=5e2f8a69-5cda-4038-a24c-f7cfc5d41728","ios":"levelo://app?vid=5e2f8a69-5cda-4038-a24c-f7cfc5d41728"},"vehicle_type_id":"4","last_reported":1761476851,"current_range_meters":22800,"station_id":"ce4bha12rcd13ifvqee0","pricing_plan_id":"cebpf4jnsgd1na2vs0mg"},{"bike_id":"0eb1ce95-bdf6-453d-a3eb-93a888889794","system_id":"levelo_inurba_marseille","lat":43.3088,"lon":5.39644,"is_reserved":false,"is_disabled":false,"rental_uris":{"android":"levelo://app?vid=0eb1ce95-bdf6-453d-a3eb-93a888889794","ios":"levelo://app?vid=0eb1ce95-bdf6-453d-a3eb-93a888889794"},"vehicle_type_id":"4","last_reported":1761476851,"current_range_meters":23200,"station_id":"ce4bh012rcd13ifvqcv0","pricing_plan_id":"cebpf4jnsgd1na2vs0mg"},{"bike_id":"2484d73d-0ed9-4aeb-b08e-8d8cbd56d7f7","system_id":"levelo_inurba_marseille","lat":43.312379,"lon":5.368484,"is_reserved":false,"is_disabled":false,"rental_uris":{"android":"levelo://app?vid=2484d73d-0ed9-4aeb-b08e-8d8cbd56d7f7","ios":"levelo://app?vid=2484d73d-0ed9-4aeb-b08e-8d8cbd56d7f7"},"vehicle_type_id":"4","last_reported":1761476851,"current_range_meters":23200,"station_id":"ce4bgr92rcd13ifvqc6g","pricing_plan_id":"cebpf4jnsgd1na2vs0mg"},{"bike_id":"a58a1e26-b890-4b57-af84-f1067999f24f","system_id":"levelo_inurba_marseille","lat":43.310769,"lon":5.383355,"is_reserved":false,"is_disabled":false,"rental_uris":{"android":"levelo://app?vid=a58a1e26-b890-4b57-af84-f1067999f24f","ios":"levelo://app?vid=a58a1e26-b890-4b57-af84-f1067999f24f"},"vehicle_type_id":"4","last_reported":1761476851,"current_range_meters":23200,"station_id":"ce4bgv92rcd13ifvqcr0","pricing_plan_id":"cebpf4jnsgd1na2vs0mg"},{"bike_id":"3b5b5269-231b-44f6-8dc6-cbcbf682b7c6","system_id":"levelo_inurba_marseille","lat":43.254991,"lon":5.376478,"is_reserved":false,"is_disabled":false,"rental_uris":{"android":"levelo://app?vid=3b5b5269-231b-44f6-8dc6-cbcbf682b7c6","ios":"levelo://app?vid=3b5b5269-231b-44f6-8dc6-cbcbf682b7c6"},"vehicle_type_id":"4","last_reported":1761476851,"current_range_meters":23200,"station_id":"ce4bhh12rcd13ifvqff0","pricing_plan_id":"cebpf4jnsgd1na2vs0mg"},{"bike_id":"1e7d9ba8-1cfd-4141-b365-54b7e09b0d56","system_id":"levelo_inurba_marseille","lat":43.28104,"lon":5.3784,"is_reserved":false,"is_disabled":false,"rental_uris":{"android":"levelo://app?vid=1e7d9ba8-1cfd-4141-b365-54b7e09b0d56","ios":"levelo://app?vid=1e7d9ba8-1cfd-4141-b365-54b7e09b0d56"},"vehicle_type_id":"4","last_reported":1761476851,"current_range_meters":23200,"station_id":"ce4bha12rcd13ifvqee0","pricing_plan_id":"cebpf4jnsgd1na2vs0mg"},{"bike_id":"4563ac2e-ffe0-4948-9062-f3c510362d10","system_id":"levelo_inurba_marseille","lat":43.27904,"lon":5.38009,"is_reserved":false,"is_disabled":false,"rental_uris":{"android":"levelo://app?vid=4563ac2e-ffe0-4948-9062-f3c510362d10","ios":"levelo://app?vid=4563ac2e-ffe0-4948-9062-f3c510362d10"},"vehicle_type_id":"4","last_reported":1761476851,"current_range_meters":24000,"station_id":"ce4bhf92rcd13ifvqf50","pricing_plan_id":"cebpf4jnsgd1na2vs0mg"},{"bike_id":"61a2bca9-b6d7-454e-95dd-2941d1adbee0","system_id":"levelo_inurba_marseille","lat":43.29304,"lon":5.3746,"is_reserved":false,"is_disabled":false,"rental_uris":{"android":"levelo://app?vid=61a2bca9-b6d7-454e-95dd-2941d1adbee0","ios":"levelo://app?vid=61a2bca9-b6d7-454e-95dd-2941d1adbee0"},"vehicle_type_id":"4","last_reported":1761476851,"current_range_meters":24000,"station_id":"ce4bgi12rcd13ifvqb70","pricing_plan_id":"cebpf4jnsgd1na2vs0mg"},{"bike_id":"3ff09079-10f2-4013-b21d-98ade7368ed7","system_id":"levelo_inurba_marseille","lat":43.32067,"lon":5.41551,"is_reserved":false,"is_disabled":false,"rental_uris":{"android":"levelo://app?vid=3ff09079-10f2-4013-b21d-98ade7368ed7","ios":"levelo://app?vid=3ff09079-10f2-4013-b21d-98ade7368ed7"},"vehicle_type_id":"4","last_reported":1761476851,"current_range_meters":24000,"station_id":"ce4bhq92rcd13ifvqhkg","pricing_plan_id":"cebpf4jnsgd1na2vs0mg"},{"bike_id":"86270dbc-8b1f-4722-b984-8b902bfa747d","system_id":"levelo_inurba_marseille","lat":43.28928,"lon":5.38391,"is_reserved":false,"is_disabled":false,"rental_uris":{"android":"levelo://app?vid=86270dbc-8b1f-4722-b984-8b902bfa747d","ios":"levelo://app?vid=86270dbc-8b1f-4722-b984-8b902bfa747d"},"vehicle_type_id":"4","last_reported":1761476851,"current_range_meters":24000,"station_id":"ce4bh612rcd13ifvqe6g","pricing_plan_id":"cebpf4jnsgd1na2vs0mg"},{"bike_id":"1ae8d947-7771-489a-90ab-f42233a25a56","system_id":"levelo_inurba_marseille","lat":43.27201,"lon":5.39188,"is_reserved":false,"is_disabled":false,"rental_uris":{"android":"levelo://app?vid=1ae8d947-7771-489a-90ab-f42233a25a56","ios":"levelo://app?vid=1ae8d947-7771-489a-90ab-f42233a25a56"},"vehicle_type_id":"4","last_reported":1761476851,"current_range_meters":24000,"station_id":"ce4bhhp2rcd13ifvqfm0","pricing_plan_id":"cebpf4jnsgd1na2vs0mg"},{"bike_id":"eea3c3c3-734f-4fd3-8061-ed84cfe47b38","system_id":"levelo_inurba_marseille","lat":43.32562,"lon":5.39162,"is_reserved":false,"is_disabled":false,"rental_uris":{"android":"levelo://app?vid=eea3c3c3-734f-4fd3-8061-ed84cfe47b38","ios":"levelo://app?vid=eea3c3c3-734f-4fd3-8061-ed84cfe47b38"},"vehicle_type_id":"4","last_reported":1761476851,"current_range_meters":24000,"station_id":"","pricing_plan_id":"cebpf4jnsgd1na2vs0mg"},