{"last_updated":1729519735,"ttl":60,"version":"2.2","data":{"bikes":[{"bike_id":"87c05401-8be0-47bc-975b-c4cc932e0584","system_id":"levelo_inurba_marseille","lat":43.24074,"lon":5.37753,"is_reserved":false,"is_disabled":false,"rental_uris":{"android":"levelo://app?vid=87c05401-8be0-47bc-975b-c4cc932e0584","ios":"levelo://app?vid=87c05401-8be0-47bc-975b-c4cc932e0584"},"vehicle_type_id":"4","last_reported":1729519735,"current_range_meters":32400,"station_id":"ce4bhnp2rcd13ifvqgvg","pricing_plan_id":"cebpf4jnsgd1na2vs0mg"},{"bike_id":"1e9ed0ec-5aa0-45e6-9929-4276c349e4b3","system_id":"levelo_inurba_marseille","lat":43.27616,"lon":5.36116,"is_reserved":false,"is_disabled":false,"rental_uris":{"android":"levelo://app?vid=1e9ed0ec-5aa0-45e6-9929-4276c349e4b3","ios":"levelo://app?vid=1e9ed0ec-5aa0-45e6-9929-4276c349e4b3"},"vehicle_type_id":"4","last_reported":1729519735,"current_range_meters":38000,"station_id":"ce4bgj92rcd13ifvqbe0","pricing_plan_id":"cebpf4jnsgd1na2vs0mg"},{"bike_id":"a057fcc1-7013-42ba-ac01-60ff0a17fd6d","system_id":"levelo_inurba_marseille","lat":43.27612,"lon":5.36108,"is_reserved":false,"is_disabled":false,"rental_uris":{"android":"levelo://app?vid=a057fcc1-7013-42ba-ac01-60ff0a17fd6d","ios":"levelo://app?vid=a057fcc1-7013-42ba-ac01-60ff0a17fd6d"},"vehicle_type_id":"4","last_reported":1729519735,"current_range_meters":22400,"station_id":"ce4bgj92rcd13ifvqbe0","pricing_plan_id":"cebpf4jnsgd1na2vs0mg"},{"bike_id":"007de1ee-123e-44fe-86f5-ad1850b0efc3","system_id":"levelo_inurba_marseille","lat":43.29227,"lon":5.36069,"is_reserved":false,"is_disabled":false,"rental_uris":{"android":"levelo://app?vid=007de1ee-123e-44fe-86f5-ad1850b0efc3","ios":"levelo://app?vid=007de1ee-123e-44fe-86f5-ad1850b0efc3"},"vehicle_type_id":"4","last_reported":1729519735,"current_range_meters":35200,"station_id":"ce4bhbh2rcd13ifvqeqg","pricing_plan_id":"cebpf4jnsgd1na2vs0mg"},{"bike_id":"ae14f584-304c-4be1-8675-75b6c36aa1a1","system_id":"levelo_inurba_marseille","lat":43.23149,"lon":5.43726,"is_reserved":false,"is_disabled":false,"rental_uris":{"android":"levelo://app?vid=ae14f584-304c-4be1-8675-75b6c36aa1a1","ios":"levelo://app?vid=ae14f584-304c-4be1-8675-75b6c36aa1a1"},"vehicle_type_id":"4","last_reported":1729519735,"current_range_meters":18800,"station_id":"ce4bhmp2rcd13ifvqgog","pricing_plan_id":"cebpf4jnsgd1na2vs0mg"},{"bike_id":"c4edc239-88bb-4227-93e5-75ede50a7249","system_id":"levelo_inurba_marseille","lat":43.2315,"lon":5.4371,"is_reserved":false,"is_disabled":false,"rental_uris":{"android":"levelo://app?vid=c4edc239-88bb-4227-93e5-75ede50a7249","ios":"levelo://app?vid=c4edc239-88bb-4227-93e5-75ede50a7249"},"vehicle_type_id":"4","last_reported":1729519735,"current_range_meters":10800,"station_id":"ce4bhmp2rcd13ifvqgog","pricing_plan_id":"cebpf4jnsgd1na2vs0mg"},{"bike_id":"53b5cfa9-cea2-44a2-a93f-ffe40df82b23","system_id":"levelo_inurba_marseille","lat":43.28422,"lon":5.3499,"is_reserved":false,"is_disabled":false,"rental_uris":{"android":"levelo://app?vid=53b5cfa9-cea2-44a2-a93f-ffe40df82b23","ios":"levelo://app?vid=53b5cfa9-cea2-44a2-a93f-ffe40df82b23"},"vehicle_type_id":"4","last_reported":1729519735,"current_range_meters":39200,"station_id":"ce4bhbh2rcd13ifvqepg","pricing_plan_id":"cebpf4jnsgd1na2vs0mg"},{"bike_id":"58ec3b20-09b7-41dc-be51-8256958f9b6f","system_id":"levelo_inurba_marseille","lat":43.290833,"lon":5.38153,"is_reserved":false,"is_disabled":false,"rental_uris":{"android":"levelo://app?vid=58ec3b20-09b7-41dc-be51-8256958f9b6f","ios":"levelo://app?vid=58ec3b20-09b7-41dc-be51-8256958f9b6f"},"vehicle_type_id":"4","last_reported":1729519735,"current_range_meters":9200,"station_id":"ce4bh512rcd13ifvqe2g","pricing_plan_id":"cebpf4jnsgd1na2vs0mg"},{"bike_id":"236a8e87-1161-49c9-bc06-b5cc479f282d","system_id":"levelo_inurba_marseille","lat":43.30539,"lon":5.36539,"is_reserved":false,"is_disabled":false,"rental_uris":{"android":"levelo://app?vid=236a8e87-1161-49c9-bc06-b5cc479f282d","ios":"levelo://app?vid=236a8e87-1161-49c9-bc06-b5cc479f282d"},"vehicle_type_id":"4","last_reported":1729519735,"current_range_meters":25600,"station_id":"ce4bgs12rcd13ifvqcag","pricing_plan_id":"cebpf4jnsgd1na2vs0mg"},{"bike_id":"ed3f3e48-45c5-4774-8fb9-582014c9b4a2","system_id":"levelo_inurba_marseille","lat":43.28414,"lon":5.3498,"is_reserved":false,"is_disabled":false,"rental_uris":{"android":"levelo://app?vid=ed3f3e48-45c5-4774-8fb9-582014c9b4a2","ios":"levelo://app?vid=ed3f3e48-45c5-4774-8fb9-582014c9b4a2"},"vehicle_type_id":"4","last_reported":1729519735,"current_range_meters":3200,"station_id":"ce4bhbh2rcd13ifvqepg","pricing_plan_id":"cebpf4jnsgd1na2vs0mg"},{"bike_id":"4c25ce32-bc8a-47b7-9ce6-4193854f5843","system_id":"levelo_inurba_marseille","lat":43.23193,"lon":5.35556,"is_reserved":false,"is_disabled":false,"rental_uris":{"android":"levelo://app?vid=4c25ce32-bc8a-47b7-9ce6-4193854f5843","ios":"levelo://app?vid=4c25ce32-bc8a-47b7-9ce6-4193854f5843"},"vehicle_type_id":"4","last_reported":1729519735,"current_range_meters":16000,"station_id":"ce4bhu92rcd13ifvqi70","pricing_plan_id":"cebpf4jnsgd1na2vs0mg"},{"bike_id":"12bea866-6436-4c57-9993-4f602ccc7b3c","system_id":"levelo_inurba_marseille","lat":43.22928,"lon":5.35377,"is_reserved":false,"is_disabled":false,"rental_uris":{"android":"levelo://app?vid=12bea866-6436-4c57-9993-4f602ccc7b3c","ios":"levelo://app?vid=12bea866-6436-4c57-9993-4f602ccc7b3c"},"vehicle_type_id":"4","last_reported":1729519735,"current_range_meters":38000,"station_id":"cpo3532slgdg3j2ikp40","pricing_plan_id":"cebpf4jnsgd1na2vs0mg"},{"bike_id":"5f60fe8d-cfd8-4760-b25b-b49123a5c77c","system_id":"levelo_inurba_marseille","lat":43.28458,"lon":5.3589,"is_reserved":false,"is_disabled":false,"rental_uris":{"android":"levelo://app?vid=5f60fe8d-cfd8-4760-b25b-b49123a5c77c","ios":"levelo://app?vid=5f60fe8d-cfd8-4760-b25b-b49123a5c77c"},"vehicle_type_id":"4","last_reported":1729519735,"current_range_meters":38000,"station_id":"ce4bhah2rcd13ifvqei0","pricing_plan_id":"cebpf4jnsgd1na2vs0mg"},{"bike_id":"f4d776ae-8291-4b24-a39f-2938bc3ccb48","system_id":"levelo_inurba_marseille","lat":43.24082,"lon":5.37753,"is_reserved":false,"is_disabled":false,"rental_uris":{"android":"levelo://app?vid=f4d776ae-8291-4b24-a39f-2938bc3ccb48","ios":"levelo://app?vid=f4d776ae-8291-4b24-a39f-2938bc3ccb48"},"vehicle_type_id":"4","last_reported":1729519735,"current_range_meters":24400,"station_id":"ce4bhnp2rcd13ifvqgvg","pricing_plan_id":"cebpf4jnsgd1na2vs0mg"},{"bike_id":"b932e369-5ccc-4ee7-969d-804cf6010408","system_id":"levelo_inurba_marseille","lat":43.27986,"lon":5.38388,"is_reserved":false,"is_disabled":false,"rental_uris":{"android":"levelo://app?vid=b932e369-5ccc-4ee7-969d-804cf6010408","ios":"levelo://app?vid=b932e369-5ccc-4ee7-969d-804cf6010408"},"vehicle_type_id":"4","last_reported":1729519735,"current_range_meters":27200,"station_id":"","pricing_plan_id":"cebpf4jnsgd1na2vs0mg"},{"bike_id":"885ac4a7-7dad-4016-a286-f6c226180f64","system_id":"levelo_inurba_marseille","lat":43.23191,"lon":5.35547,"is_reserved":false,"is_disabled":false,"rental_uris":{"android":"levelo://app?vid=885ac4a7-7dad-4016-a286-f6c226180f64","ios":"levelo://app?vid=885ac4a7-7dad-4016-a286-f6c226180f64"},"vehicle_type_id":"4","last_reported":1729519735,"current_range_meters":34800,"station_id":"ce4bhu92rcd13ifvqi70","pricing_plan_id":"cebpf4jnsgd1na2vs0mg"},{"bike_id":"7d859b09-2d2f-45b8-8325-82efe897d20b","system_id":"levelo_inurba_marseille","lat":43.29002,"lon":5.35623,"is_reserved":false,"is_disabled":false,"rental_uris":{"android":"levelo://app?vid=7d859b09-2d2f-45b8-8325-82efe897d20b","ios":"levelo://app?vid=7d859b09-2d2f-45b8-8325-82efe897d20b"},"vehicle_type_id":"4","last_reported":1729519735,"current_range_meters":28400,"station_id":"ce4bhb92rcd13ifvqen0","pricing_plan_id":"cebpf4jnsgd1na2vs0mg"},{"bike_id":"a1489b30-e2cd-465d-a3b1-63964b256b98","system_id":"levelo_inurba_marseille","lat":43.28418,"lon":5.34985,"is_reserved":false,"is_disabled":false,"rental_uris":{"android":"levelo://app?vid=a1489b30-e2cd-465d-a3b1-63964b256b98","ios":"levelo://app?vid=a1489b30-e2cd-465d-a3b1-63964b256b98"},"vehicle_type_id":"4","last_reported":1729519735,"current_range_meters":19200,"station_id":"ce4bhbh2rcd13ifvqepg","pricing_plan_id":"cebpf4jnsgd1na2vs0mg"},{"bike_id":"38618ba4-c3f2-4dde-9e38-44a2fc7cc4e1","system_id":"levelo_inurba_marseille","lat":43.29157,"lon":5.38595,"is_reserved":false,"is_disabled":false,"rental_uris":{"android":"levelo://app?vid=38618ba4-c3f2-4dde-9e38-44a2fc7cc4e1","ios":"levelo://app?vid=38618ba4-c3f2-4dde-9e38-44a2fc7cc4e1"},"vehicle_type_id":"4","last_reported":1729519735,"current_range_meters":24800,"station_id":"","pricing_plan_id":"cebpf4jnsgd1na2vs0mg"},{"bike_id":"85bc5aea-df0f-4bae-9033-16ea6747d3a4","system_id":"levelo_inurba_marseille","lat":43.27375,"lon":5.36255,"is_reserved":false,"is_disabled":false,"rental_uris":{"android":"levelo://app?vid=85bc5aea-df0f-4bae-9033-16ea6747d3a4","ios":"levelo://app?vid=85bc5aea-df0f-4bae-9033-16ea6747d3a4"},"vehicle_type_id":"4","last_reported":1729519735,"current_range_meters":6400,"station_id":"ce4bhbh2rcd13ifvqeo0","pricing_plan_id":"cebpf4jnsgd1na2vs0mg"},{"bike_id":"ebe0d8fd-eef6-4ce0-ad32-5ae954643223","system_id":"levelo_inurba_marseille","lat":43.30526,"lon":5.36711,"is_reserved":false,"is_disabled":false,"rental_uris":{"android":"levelo://app?vid=ebe0d8fd-eef6-4ce0-ad32-5ae954643223","ios":"levelo://app?vid=ebe0d8fd-eef6-4ce0-ad32-5ae954643223"},"vehicle_type_id":"4","last_reported":1729519735,"current_range_meters":27200,"station_id":"ce4bgrp2rcd13ifvqc9g","pricing_plan_id":"cebpf4jnsgd1na2vs0mg"},{"bike_id":"3de55bfa-c0ca-4740-a1f4-4e698e71da4e","system_id":"levelo_inurba_marseille","lat":43.29085,"lon":5.380931,"is_reserved":false,"is_disabled":false,"rental_uris":{"android":"levelo://app?vid=3de55bfa-c0ca-4740-a1f4-4e698e71da4e","ios":"levelo://app?vid=3de55bfa-c0ca-4740-a1f4-4e698e71da4e"},"vehicle_type_id":"4","last_reported":1729519735,"current_range_meters":25200,"station_id":"ce4bhn92rcd13ifvqgrg","pricing_plan_id":"cebpf4jnsgd1na2vs0mg"},{"bike_id":"17a9ea24-a710-45a4-9bf0-91a75aca0687","system_id":"levelo_inurba_marseille","lat":43.28423,"lon":5.34983,"is_reserved":false,"is_disabled":false,"rental_uris":{"android":"levelo://app?vid=17a9ea24-a710-45a4-9bf0-91a75aca0687","ios":"levelo://app?vid=17a9ea24-a710-45a4-9bf0-91a75aca0687"},"vehicle_type_id":"4","last_reported":1729519735,"current_range_meters":28400,"station_id":"ce4bhbh2rcd13ifvqepg","pricing_plan_id":"cebpf4jnsgd1na2vs0mg"},{"bike_id":"37701034-63fe-442e-a54e-90f4318ecbf5","system_id":"levelo_inurba_marseille","lat":43.26937,"lon":5.39301,"is_reserved":false,"is_disabled":false,"rental_uris":{"android":"levelo://app?vid=37701034-63fe-442e-a54e-90f4318ecbf5","ios":"levelo://app?vid=37701034-63fe-442e-a54e-90f4318ecbf5"},"vehicle_type_id":"4","last_reported":1729519735,"current_range_meters":25200,"station_id":"ce4bhi12rcd13ifvqfq0","pricing_plan_id":"cebpf4jnsgd1na2vs0mg"},{"bike_id":"c3030144-5291-46a7-b2f2-f120cef8991a","system_id":"levelo_inurba_marseille","lat":43.29782,"lon":5.39335,"is_reserved":false,"is_disabled":false,"rental_uris":{"android":"levelo://app?vid=c3030144-5291-46a7-b2f2-f120cef8991a","ios":"levelo://app?vid=c3030144-5291-46a7-b2f2-f120cef8991a"},"vehicle_type_id":"4","last_reported":1729519735,"current_range_meters":17200,"station_id":"chh1huq6cuj3fo74tm60","pricing_plan_id":"cebpf4jnsgd1na2vs0mg"},{"bike_id":"c1b3d98e-d3cf-4c4f-b399-442fcd2a8da6","system_id":"levelo_inurba_marseille","lat":43.246765,"lon":5.381776,"is_reserved":false,"is_disabled":false,"rental_uris":{"android":"levelo://app?vid=c1b3d98e-d3cf-4c4f-b399-442fcd2a8da6","ios":"levelo://app?vid=c1b3d98e-d3cf-4c4f-b399-442fcd2a8da6"},"vehicle_type_id":"4","last_reported":1729519735,"current_range_meters":16800,"station_id":"ce4bhih2rcd13ifvqfr0","pricing_plan_id":"cebpf4jnsgd1na2vs0mg"},{"bike_id":"9d05ce13-3e31-4961-a55a-44885eab00f5","system_id":"levelo_inurba_marseille","lat":43.28848,"lon":5.39308,"is_reserved":false,"is_disabled":false,"rental_uris":{"android":"levelo://app?vid=9d05ce13-3e31-4961-a55a-44885eab00f5","ios":"levelo://app?vid=9d05ce13-3e31-4961-a55a-44885eab00f5"},"vehicle_type_id":"4","last_reported":1729519735,"current_range_meters":8400,"station_id":"ce4bh2p2rcd13ifvqdi0","pricing_plan_id":"cebpf4jnsgd1na2vs0mg"},{"bike_id":"35bf409d-13e3-4c38-ab0b-90ae4d4e6ffe","system_id":"levelo_inurba_marseille","lat":43.2315,"lon":5.43719,"is_reserved":false,"is_disabled":false,"rental_uris":{"android":"levelo://app?vid=35bf409d-13e3-4c38-ab0b-90ae4d4e6ffe","ios":"levelo://app?vid=35bf409d-13e3-4c38-ab0b-90ae4d4e6ffe"},"vehicle_type_id":"4","last_reported":1729519735,"current_range_meters":8400,"station_id":"ce4bhmp2rcd13ifvqgog","pricing_plan_id":"cebpf4jnsgd1na2vs0mg"},{"bike_id":"3c2e9290-6792-4e2d-b00d-712b965be0bd","system_id":"levelo_inurba_marseille","lat":43.26421,"lon":5.38679,"is_reserved":false,"is_disabled":false,"rental_uris":{"android":"levelo://app?vid=3c2e9290-6792-4e2d-b00d-712b965be0bd","ios":"levelo://app?vid=3c2e9290-6792-4e2d-b00d-712b965be0bd"},"vehicle_type_id":"4","last_reported":1729519735,"current_range_meters":13600,"station_id":"","pricing_plan_id":"cebpf4jnsgd1na2vs0mg"},{"bike_id":"462788be-48e7-4379-bc0e-0312feb0f5ad","system_id":"levelo_inurba_marseille","lat":43.33754,"lon":5.37441,"is_reserved":false,"is_disabled":false,"rental_uris":{"android":"levelo://app?vid=462788be-48e7-4379-bc0e-0312feb0f5ad","ios":"levelo://app?vid=462788be-48e7-4379-bc0e-0312feb0f5ad"},"vehicle_type_id":"4","last_reported":1729519735,"current_range_meters":3600,"station_id":"","pricing_plan_id":"cebpf4jnsgd1na2vs0mg"},{"bike_id":"e12bbc98-41e1-495c-801c-81cc6b903a0c","system_id":"levelo_inurba_marseille","lat":43.27946,"lon":5.4105,"is_reserved":false,"is_disabled":false,"rental_uris":{"android":"levelo://app?vid=e12bbc98-41e1-495c-801c-81cc6b903a0c","ios":"levelo://app?vid=e12bbc98-41e1-495c-801c-81cc6b903a0c"},"vehicle_type_id":"4","last_reported":1729519735,"current_range_meters":20400,"station_id":"ce4bhnp2rcd13ifvqh0g","pricing_plan_id":"cebpf4jnsgd1na2vs0mg"},{"bike_id":"2e15cb2b-24ef-4007-bc3e-3f1a3a6c9748","system_id":"levelo_inurba_marseille","lat":43.25002,"lon":5.38923,"is_reserved":false,"is_disabled":false,"rental_uris":{"android":"levelo://app?vid=2e15cb2b-24ef-4007-bc3e-3f1a3a6c9748","ios":"levelo://app?vid=2e15cb2b-24ef-4007-bc3e-3f1a3a6c9748"},"vehicle_type_id":"4","last_reported":1729519735,"current_range_meters":9600,"station_id":"ce4bhgp2rcd13ifvqfd0","pricing_plan_id":"cebpf4jnsgd1na2vs0mg"},{"bike_id":"5a7dc7e8-db82-4474-914c-fb03212b369c","system_id":"levelo_inurba_marseille","lat":43.32367,"lon":5.38877,"is_reserved":false,"is_disabled":false,"rental_uris":{"android":"levelo://app?vid=5a7dc7e8-db82-4474-914c-fb03212b369c","ios":"levelo://app?vid=5a7dc7e8-db82-4474-914c-fb03212b369c"},"vehicle_type_id":"4","last_reported":1729519735,"current_range_meters":8000,"station_id":"ce4bhqp2rcd13ifvqhog","pricing_plan_id":"cebpf4jnsgd1na2vs0mg"},{"bike_id":"ba3898f4-3501-4781-a570-60992e86193e","system_id":"levelo_inurba_marseille","lat":43.28406,"lon":5.34994,"is_reserved":false,"is_disabled":false,"rental_uris":{"android":"levelo://app?vid=ba3898f4-3501-4781-a570-60992e86193e","ios":"levelo://app?vid=ba3898f4-3501-4781-a570-60992e86193e"},"vehicle_type_id":"4","last_reported":1729519735,"current_range_meters":12800,"station_id":"ce4bhbh2rcd13ifvqepg","pricing_plan_id":"cebpf4jnsgd1na2vs0mg"},{"bike_id":"ab1295d8-40ea-43fa-92fa-abdc33824b2f","system_id":"levelo_inurba_marseille","lat":43.26066,"lon":5.38552,"is_reserved":false,"is_disabled":false,"rental_uris":{"android":"levelo://app?vid=ab1295d8-40ea-43fa-92fa-abdc33824b2f","ios":"levelo://app?vid=ab1295d8-40ea-43fa-92fa-abdc33824b2f"},"vehicle_type_id":"4","last_reported":1729519735,"current_range_meters":14000,"station_id":"","pricing_plan_id":"cebpf4jnsgd1na2vs0mg"},{"bike_id":"4867a399-fe80-4301-8e59-94c8757c3bb8","system_id":"levelo_inurba_marseille","lat":43.23182,"lon":5.3998,"is_reserved":false,"is_disabled":false,"rental_uris":{"android":"levelo://app?vid=4867a399-fe80-4301-8e59-94c8757c3bb8","ios":"levelo://app?vid=4867a399-fe80-4301-8e59-94c8757c3bb8"},"vehicle_type_id":"4","last_reported":1729519735,"current_range_meters":24800,"station_id":"ce4bhn12rcd13ifvqgqg","pricing_plan_id":"cebpf4jnsgd1na2vs0mg"},{"bike_id":"dfd214e0-4dbf-4c03-93e9-204daa78defe","system_id":"levelo_inurba_marseille","lat":43.22933,"lon":5.35379,"is_reserved":false,"is_disabled":false,"rental_uris":{"android":"levelo://app?vid=dfd214e0-4dbf-4c03-93e9-204daa78defe","ios":"levelo://app?vid=dfd214e0-4dbf-4c03-93e9-204daa78defe"},"vehicle_type_id":"4","last_reported":1729519735,"current_range_meters":38400,"station_id":"cpo3532slgdg3j2ikp40","pricing_plan_id":"cebpf4jnsgd1na2vs0mg"},{"bike_id":"dc31c75e-ea46-4931-8fed-ddd458af11c7","system_id":"levelo_inurba_marseille","lat":43.27787,"lon":5.38327,"is_reserved":false,"is_disabled":false,"rental_uris":{"android":"levelo://app?vid=dc31c75e-ea46-4931-8fed-ddd458af11c7","ios":"levelo://app?vid=dc31c75e-ea46-4931-8fed-ddd458af11c7"},"vehicle_type_id":"4","last_reported":1729519735,"current_range_meters":26000,"station_id":"ce4bgk12rcd13ifvqbj0","pricing_plan_id":"cebpf4jnsgd1na2vs0mg"},{"bike_id":"d57b0c15-4a9f-4fdd-882e-d8c8399a9714","system_id":"levelo_inurba_marseille","lat":43.24172,"lon":5.39733,"is_reserved":false,"is_disabled":false,"rental_uris":{"android":"levelo://app?vid=d57b0c15-4a9f-4fdd-882e-d8c8399a9714","ios":"levelo://app?vid=d57b0c15-4a9f-4fdd-882e-d8c8399a9714"},"vehicle_type_id":"4","last_reported":1729519735,"current_range_meters":19200,"station_id":"ce4bhn12rcd13ifvqgpg","pricing_plan_id":"cebpf4jnsgd1na2vs0mg"},{"bike_id":"1357eecb-a751-40e2-8cf2-050344320bd7","system_id":"levelo_inurba_marseille","lat":43.32483,"lon":5.36561,"is_reserved":false,"is_disabled":false,"rental_uris":{"android":"levelo://app?vid=1357eecb-a751-40e2-8cf2-050344320bd7","ios":"levelo://app?vid=1357eecb-a751-40e2-8cf2-050344320bd7"},"vehicle_type_id":"4","last_reported":1729519735,"current_range_meters":35600,"station_id":"ce4bhs12rcd13ifvqhvg","pricing_plan_id":"cebpf4jnsgd1na2vs0mg"},{"bike_id":"679358a8-aacb-464d-91bc-62fab1e21601","system_id":"levelo_inurba_marseille","lat":43.28657,"lon":5.36359,"is_reserved":false,"is_disabled":false,"rental_uris":{"android":"levelo://app?vid=679358a8-aacb-464d-91bc-62fab1e21601","ios":"levelo://app?vid=679358a8-aacb-464d-91bc-62fab1e21601"},"vehicle_type_id":"4","last_reported":1729519735,"current_range_meters":36800,"station_id":"ce4bhah2rcd13ifvqej0","pricing_plan_id":"cebpf4jnsgd1na2vs0mg"},{"bike_id":"00f511cb-f6c6-460e-8664-f6d44124ce0d","system_id":"levelo_inurba_marseille","lat":43.24807,"lon":5.37458,"is_reserved":false,"is_disabled":false,"rental_uris":{"android":"levelo://app?vid=00f511cb-f6c6-460e-8664-f6d44124ce0d","ios":"levelo://app?vid=00f511cb-f6c6-460e-8664-f6d44124ce0d"},"vehicle_type_id":"4","last_reported":1729519735,"current_range_meters":19200,"station_id":"ce4bhgh2rcd13ifvqfb0","pricing_plan_id":"cebpf4jnsgd1na2vs0mg"},{"bike_id":"21d8593c-0c43-4320-8567-ea8edf4c7d5d","system_id":"levelo_inurba_marseille","lat":43.23153,"lon":5.43705,"is_reserved":false,"is_disabled":false,"rental_uris":{"android":"levelo://app?vid=21d8593c-0c43-4320-8567-ea8edf4c7d5d","ios":"levelo://app?vid=21d8593c-0c43-4320-8567-ea8edf4c7d5d"},"vehicle_type_id":"4","last_reported":1729519735,"current_range_meters":12000,"station_id":"ce4bhmp2rcd13ifvqgog","pricing_plan_id":"cebpf4jnsgd1na2vs0mg"},{"bike_id":"3635f8c5-1d04-4904-826b-3b5c2ba304f2","system_id":"levelo_inurba_marseille","lat":43.28425,"lon":5.34993,"is_reserved":false,"is_disabled":false,"rental_uris":{"android":"levelo://app?vid=3635f8c5-1d04-4904-826b-3b5c2ba304f2","ios":"levelo://app?vid=3635f8c5-1d04-4904-826b-3b5c2ba304f2"},"vehicle_type_id":"4","last_reported":1729519735,"current_range_meters":37600,"station_id":"ce4bhbh2rcd13ifvqepg","pricing_plan_id":"cebpf4jnsgd1na2vs0mg"},{"bike_id":"4b05c99a-57a4-4ae3-930d-538f0f2fedb9","system_id":"levelo_inurba_marseille","lat":43.30461,"lon":5.37918,"is_reserved":false,"is_disabled":false,"rental_uris":{"android":"levelo://app?vid=4b05c99a-57a4-4ae3-930d-538f0f2fedb9","ios":"levelo://app?vid=4b05c99a-57a4-4ae3-930d-538f0f2fedb9"},"vehicle_type_id":"4","last_reported":1729519735,"current_range_meters":38800,"station_id":"ce4bgup2rcd13ifvqcn0","pricing_plan_id":"cebpf4jnsgd1na2vs0mg"},{"bike_id":"a2d8b914-f008-4b92-8b29-d61b153d30b4","system_id":"levelo_inurba_marseille","lat":43.27619,"lon":5.36105,"is_reserved":false,"is_disabled":false,"rental_uris":{"android":"levelo://app?vid=a2d8b914-f008-4b92-8b29-d61b153d30b4","ios":"levelo://app?vid=a2d8b914-f008-4b92-8b29-d61b153d30b4"},"vehicle_type_id":"4","last_reported":1729519735,"current_range_meters":12400,"station_id":"ce4bgj92rcd13ifvqbe0","pricing_plan_id":"cebpf4jnsgd1na2vs0mg"},{"bike_id":"311cb3b2-2a0e-46dc-ab94-c796a4e42e1c","system_id":"levelo_inurba_marseille","lat":43.28457,"lon":5.359,"is_reserved":false,"is_disabled":false,"rental_uris":{"android":"levelo://app?vid=311cb3b2-2a0e-46dc-ab94-c796a4e42e1c","ios":"levelo://app?vid=311cb3b2-2a0e-46dc-ab94-c796a4e42e1c"},"vehicle_type_id":"4","last_reported":1729519735,"current_range_meters":36400,"station_id":"ce4bhah2rcd13ifvqei0","pricing_plan_id":"cebpf4jnsgd1na2vs0mg"},{"bike_id":"ab24f162-dce6-4890-a274-4e09811e3a33","system_id":"levelo_inurba_marseille","lat":43.29195,"lon":5.35802,"is_reserved":false,"is_disabled":false,"rental_uris":{"android":"levelo://app?vid=ab24f162-dce6-4890-a274-4e09811e3a33","ios":"levelo://app?vid=ab24f162-dce6-4890-a274-4e09811e3a33"},"vehicle_type_id":"4","last_reported":1729519735,"current_range_meters":24000,"station_id":"ce4bhb12rcd13ifvqel0","pricing_plan_id":"cebpf4jnsgd1na2vs0mg"},{"bike_id":"901ca2b4-db0d-41b3-a628-e8ff123ccccc","system_id":"levelo_inurba_marseille","lat":43.31223,"lon":5.36846,"is_reserved":false,"is_disabled":false,"rental_uris":{"android":"levelo://app?vid=901ca2b4-db0d-41b3-a628-e8ff123ccccc","ios":"levelo://app?vid=901ca2b4-db0d-41b3-a628-e8ff123ccccc"},"vehicle_type_id":"4","last_reported":1729519735,"current_range_meters":34800,"station_id":"ce4bgl92rcd13ifvqbq0","pricing_plan_id":"cebpf4jnsgd1na2vs0mg"},{"bike_id":"6b9282ef-8890-46df-a23a-3b4af486d470","system_id":"levelo_inurba_marseille","lat":43.23959,"lon":5.36637,"is_reserved":false,"is_disabled":false,"rental_uris":{"android":"levelo://app?vid=6b9282ef-8890-46df-a23a-3b4af486d470","ios":"levelo://app?vid=6b9282ef-8890-46df-a23a-3b4af486d470"},"vehicle_type_id":"4","last_reported":1729519735,"current_range_meters":12400,"station_id":"ce4bhi12rcd13ifvqfp0","pricing_plan_id":"cebpf4jnsgd1na2vs0mg"},{"bike_id":"b029640a-1e24-4384-a21c-55c58b2c42c5","system_id":"levelo_inurba_marseille","lat":43.24072,"lon":5.37756,"is_reserved":false,"is_disabled":false,"rental_uris":{"android":"levelo://app?vid=b029640a-1e24-4384-a21c-55c58b2c42c5","ios":"levelo://app?vid=b029640a-1e24-4384-a21c-55c58b2c42c5"},"vehicle_type_id":"4","last_reported":1729519735,"current_range_meters":4000,"station_id":"ce4bhnp2rcd13ifvqgvg","pricing_plan_id":"cebpf4jnsgd1na2vs0mg"},{"bike_id":"e6558dc4-b439-4982-a365-caed061d67e1","system_id":"levelo_inurba_marseille","lat":43.32473,"lon":5.36573,"is_reserved":false,"is_disabled":false,"rental_uris":{"android":"levelo://app?vid=e6558dc4-b439-4982-a365-caed061d67e1","ios":"levelo://app?vid=e6558dc4-b439-4982-a365-caed061d67e1"},"vehicle_type_id":"4","last_reported":1729519735,"current_range_meters":17200,"station_id":"ce4bhs12rcd13ifvqhvg","pricing_plan_id":"cebpf4jnsgd1na2vs0mg"},{"bike_id":"76888ed7-7d46-4ff1-ba65-4f65160c08cc","system_id":"levelo_inurba_marseille","lat":43.31354,"lon":5.36715,"is_reserved":false,"is_disabled":false,"rental_uris":{"android":"levelo://app?vid=76888ed7-7d46-4ff1-ba65-4f65160c08cc","ios":"levelo://app?vid=76888ed7-7d46-4ff1-ba65-4f65160c08cc"},"vehicle_type_id":"4","last_reported":1729519735,"current_range_meters":30000,"station_id":"ce4bgr92rcd13ifvqc6g","pricing_plan_id":"cebpf4jnsgd1na2vs0mg"},{"bike_id":"b1b943e1-49ae-4c4c-92c4-7839c5799daa","system_id":"levelo_inurba_marseille","lat":43.25721,"lon":5.41108,"is_reserved":false,"is_disabled":false,"rental_uris":{"android":"levelo://app?vid=b1b943e1-49ae-4c4c-92c4-7839c5799daa","ios":"levelo://app?vid=b1b943e1-49ae-4c4c-92c4-7839c5799daa"},"vehicle_type_id":"4","last_reported":1729519735,"current_range_meters":24000,"station_id":"ce4bhkp2rcd13ifvqgd0","pricing_plan_id":"cebpf4jnsgd1na2vs0mg"},{"bike_id":"b440fe97-5383-4b18-9148-98b169fd1843","system_id":"levelo_inurba_marseille","lat":43.24168,"lon":5.36401,"is_reserved":false,"is_disabled":false,"rental_uris":{"android":"levelo://app?vid=b440fe97-5383-4b18-9148-98b169fd1843","ios":"levelo://app?vid=b440fe97-5383-4b18-9148-98b169fd1843"},"vehicle_type_id":"4","last_reported":1729519735,"current_range_meters":32000,"station_id":"cpo36qri1sfpv3e86is0","pricing_plan_id":"cebpf4jnsgd1na2vs0mg"},{"bike_id":"bfd66244-d9df-403a-ad42-0b09e20bfa0a","system_id":"levelo_inurba_marseille","lat":43.34143,"lon":5.40904,"is_reserved":false,"is_disabled":false,"rental_uris":{"android":"levelo://app?vid=bfd66244-d9df-403a-ad42-0b09e20bfa0a","ios":"levelo://app?vid=bfd66244-d9df-403a-ad42-0b09e20bfa0a"},"vehicle_type_id":"4","last_reported":1729519735,"current_range_meters":23200,"station_id":"ce4bhqh2rcd13ifvqhlg","pricing_plan_id":"cebpf4jnsgd1na2vs0mg"},{"bike_id":"fc4e3539-f7c8-4eff-af35-e2af68de3765","system_id":"levelo_inurba_marseille","lat":43.28599,"lon":5.41275,"is_reserved":false,"is_disabled":false,"rental_uris":{"android":"levelo://app?vid=fc4e3539-f7c8-4eff-af35-e2af68de3765","ios":"levelo://app?vid=fc4e3539-f7c8-4eff-af35-e2af68de3765"},"vehicle_type_id":"4","last_reported":1729519735,"current_range_meters":28800,"station_id":"ce4bhnh2rcd13ifvqgug","pricing_plan_id":"cebpf4jnsgd1na2vs0mg"},{"bike_id":"137daa07-dfbc-40c9-a9b2-92b256dbec5b","system_id":"levelo_inurba_marseille","lat":43.29683,"lon":5.37299,"is_reserved":false,"is_disabled":false,"rental_uris":{"android":"levelo://app?vid=137daa07-dfbc-40c9-a9b2-92b256dbec5b","ios":"levelo://app?vid=137daa07-dfbc-40c9-a9b2-92b256dbec5b"},"vehicle_type_id":"4","last_reported":1729519735,"current_range_meters":5600,"station_id":"ce4bgk12rcd13ifvqbj0","pricing_plan_id":"cebpf4jnsgd1na2vs0mg"},{"bike_id":"7b9f80d7-3e6d-4a0c-84d8-44579ef63b83","system_id":"levelo_inurba_marseille","lat":43.25928,"lon":5.40908,"is_reserved":false,"is_disabled":false,"rental_uris":{"android":"levelo://app?vid=7b9f80d7-3e6d-4a0c-84d8-44579ef63b83","ios":"levelo://app?vid=7b9f80d7-3e6d-4a0c-84d8-44579ef63b83"},"vehicle_type_id":"4","last_reported":1729519735,"current_range_meters":11200,"station_id":"ce4bhm92rcd13ifvqglg","pricing_plan_id":"cebpf4jnsgd1na2vs0mg"},{"bike_id":"cbf13f40-bd8a-401a-bda5-2deefcace7b1","system_id":"levelo_inurba_marseille","lat":43.27177,"lon":5.40993,"is_reserved":false,"is_disabled":false,"rental_uris":{"android":"levelo://app?vid=cbf13f40-bd8a-401a-bda5-2deefcace7b1","ios":"levelo://app?vid=cbf13f40-bd8a-401a-bda5-2deefcace7b1"},"vehicle_type_id":"4","last_reported":1729519735,"current_range_meters":34800,"station_id":"ce4bhl12rcd13ifvqgf0","pricing_plan_id":"cebpf4jnsgd1na2vs0mg"},{"bike_id":"c3360ea9-13b7-484a-870e-aed305e178f0","system_id":"levelo_inurba_marseille","lat":43.30465,"lon":5.37911,"is_reserved":false,"is_disabled":false,"rental_uris":{"android":"levelo://app?vid=c3360ea9-13b7-484a-870e-aed305e178f0","ios":"levelo://app?vid=c3360ea9-13b7-484a-870e-aed305e178f0"},"vehicle_type_id":"4","last_reported":1729519735,"current_range_meters":38800,"station_id":"ce4bgup2rcd13ifvqcn0","pricing_plan_id":"cebpf4jnsgd1na2vs0mg"},{"bike_id":"0728974d-1ad5-4181-91f2-6035aab7157d","system_id":"levelo_inurba_marseille","lat":43.23196,"lon":5.35546,"is_reserved":false,"is_disabled":false,"rental_uris":{"android":"levelo://app?vid=0728974d-1ad5-4181-91f2-6035aab7157d","ios":"levelo://app?vid=0728974d-1ad5-4181-91f2-6035aab7157d"},"vehicle_type_id":"4","last_reported":1729519735,"current_range_meters":38800,"station_id":"ce4bhu92rcd13ifvqi70","pricing_plan_id":"cebpf4jnsgd1na2vs0mg"},{"bike_id":"2c449226-1762-4458-8f5a-24750c4e302d","system_id":"levelo_inurba_marseille","lat":43.30464,"lon":5.37908,"is_reserved":false,"is_disabled":false,"rental_uris":{"android":"levelo://app?vid=2c449226-1762-4458-8f5a-24750c4e302d","ios":"levelo://app?vid=2c449226-1762-4458-8f5a-24750c4e302d"},"vehicle_type_id":"4","last_reported":1729519735,"current_range_meters":38800,"station_id":"ce4bgup2rcd13ifvqcn0","pricing_plan_id":"cebpf4jnsgd1na2vs0mg"},{"bike_id":"957a0e0a-78da-4d14-aaa1-4f4b0b21d8ef","system_id":"levelo_inurba_marseille","lat":43.26688,"lon":5.3827,"is_reserved":false,"is_disabled":false,"rental_uris":{"android":"levelo://app?vid=957a0e0a-78da-4d14-aaa1-4f4b0b21d8ef","ios":"levelo://app?vid=957a0e0a-78da-4d14-aaa1-4f4b0b21d8ef"},"vehicle_type_id":"4","last_reported":1729519735,"current_range_meters":38800,"station_id":"ce4bhg92rcd13ifvqf90","pricing_plan_id":"cebpf4jnsgd1na2vs0mg"},{"bike_id":"e3227fe8-85ba-4eb5-98d7-418c667c1cf1","system_id":"levelo_inurba_marseille","lat":43.31678,"lon":5.37544,"is_reserved":false,"is_disabled":false,"rental_uris":{"android":"levelo://app?vid=e3227fe8-85ba-4eb5-98d7-418c667c1cf1","ios":"levelo://app?vid=e3227fe8-85ba-4eb5-98d7-418c667c1cf1"},"vehicle_type_id":"4","last_reported":1729519735,"current_range_meters":16400,"station_id":"","pricing_plan_id":"cebpf4jnsgd1na2vs0mg"},{"bike_id":"581c408e-0ea5-4fb1-8842-f1d09a193a19","system_id":"levelo_inurba_marseille","lat":43.23191,"lon":5.3555,"is_reserved":false,"is_disabled":false,"rental_uris":{"android":"levelo://app?vid=581c408e-0ea5-4fb1-8842-f1d09a193a19","ios":"levelo://app?vid=581c408e-0ea5-4fb1-8842-f1d09a193a19"},"vehicle_type_id":"4","last_reported":1729519735,"current_range_meters":37600,"station_id":"ce4bhu92rcd13ifvqi70","pricing_plan_id":"cebpf4jnsgd1na2vs0mg"},{"bike_id":"6e78947f-9bf7-4371-9bf9-b53e52915d8f","system_id":"levelo_inurba_marseille","lat":43.28716,"lon":5.3609,"is_reserved":false,"is_disabled":false,"rental_uris":{"android":"levelo://app?vid=6e78947f-9bf7-4371-9bf9-b53e52915d8f","ios":"levelo://app?vid=6e78947f-9bf7-4371-9bf9-b53e52915d8f"},"vehicle_type_id":"4","last_reported":1729519735,"current_range_meters":8400,"station_id":"cki0cbj6b192h4jlfktg","pricing_plan_id":"cebpf4jnsgd1na2vs0mg"},{"bike_id":"59e6dbe3-787b-47ac-905e-d02089889c4b","system_id":"levelo_inurba_marseille","lat":43.32479,"lon":5.36557,"is_reserved":false,"is_disabled":false,"rental_uris":{"android":"levelo://app?vid=59e6dbe3-787b-47ac-905e-d02089889c4b","ios":"levelo://app?vid=59e6dbe3-787b-47ac-905e-d02089889c4b"},"vehicle_type_id":"4","last_reported":1729519735,"current_range_meters":34000,"station_id":"ce4bhs12rcd13ifvqhvg","pricing_plan_id":"cebpf4jnsgd1na2vs0mg"},{"bike_id":"959e6a9c-7541-4eba-8b38-6000ab32a660","system_id":"levelo_inurba_marseille","lat":43.24167,"lon":5.36395,"is_reserved":false,"is_disabled":false,"rental_uris":{"android":"levelo://app?vid=959e6a9c-7541-4eba-8b38-6000ab32a660","ios":"levelo://app?vid=959e6a9c-7541-4eba-8b38-6000ab32a660"},"vehicle_type_id":"4","last_reported":1729519735,"current_range_meters":38800,"station_id":"cpo36qri1sfpv3e86is0","pricing_plan_id":"cebpf4jnsgd1na2vs0mg"},{"bike_id":"cfe9c4c1-1c8c-47cb-86ea-73745f9167bf","system_id":"levelo_inurba_marseille","lat":43.28359,"lon":5.38638,"is_reserved":false,"is_disabled":false,"rental_uris":{"android":"levelo://app?vid=cfe9c4c1-1c8c-47cb-86ea-73745f9167bf","ios":"levelo://app?vid=cfe9c4c1-1c8c-47cb-86ea-73745f9167bf"},"vehicle_type_id":"4","last_reported":1729519735,"current_range_meters":2800,"station_id":"ce4bh492rcd13ifvqdvg","pricing_plan_id":"cebpf4jnsgd1na2vs0mg"},{"bike_id":"79a1e020-318b-42a1-a8c0-a424b1daf69e","system_id":"levelo_inurba_marseille","lat":43.296,"lon":5.36142,"is_reserved":false,"is_disabled":false,"rental_uris":{"android":"levelo://app?vid=79a1e020-318b-42a1-a8c0-a424b1daf69e","ios":"levelo://app?vid=79a1e020-318b-42a1-a8c0-a424b1daf69e"},"vehicle_type_id":"4","last_reported":1729519735,"current_range_meters":10000,"station_id":"","pricing_plan_id":"cebpf4jnsgd1na2vs0mg"},{"bike_id":"6c3f7868-81b6-476d-8904-ac277c724fc3","system_id":"levelo_inurba_marseille","lat":43.30254,"lon":5.40068,"is_reserved":false,"is_disabled":false,"rental_uris":{"android":"levelo://app?vid=6c3f7868-81b6-476d-8904-ac277c724fc3","ios":"levelo://app?vid=6c3f7868-81b6-476d-8904-ac277c724fc3"},"vehicle_type_id":"4","last_reported":1729519735,"current_range_meters":19600,"station_id":"ce4bgvh2rcd13ifvqcs0","pricing_plan_id":"cebpf4jnsgd1na2vs0mg"},{"bike_id":"8d2e5d61-b6f7-4155-b55b-e35c9e0b370e","system_id":"levelo_inurba_marseille","lat":43.23152,"lon":5.43721,"is_reserved":false,"is_disabled":false,"rental_uris":{"android":"levelo://app?vid=8d2e5d61-b6f7-4155-b55b-e35c9e0b370e","ios":"levelo://app?vid=8d2e5d61-b6f7-4155-b55b-e35c9e0b370e"},"vehicle_type_id":"4","last_reported":1729519735,"current_range_meters":10800,"station_id":"ce4bhmp2rcd13ifvqgog","pricing_plan_id":"cebpf4jnsgd1na2vs0mg"},{"bike_id":"916089e6-7c68-4026-9185-b7c8222214d3","system_id":"levelo_inurba_marseille","lat":43.28418,"lon":5.34991,"is_reserved":false,"is_disabled":false,"rental_uris":{"android":"levelo://app?vid=916089e6-7c68-4026-9185-b7c8222214d3","ios":"levelo://app?vid=916089e6-7c68-4026-9185-b7c8222214d3"},"vehicle_type_id":"4","last_reported":1729519735,"current_range_meters":18000,"station_id":"ce4bhbh2rcd13ifvqepg","pricing_plan_id":"cebpf4jnsgd1na2vs0mg"},{"bike_id":"76b616ae-0faf-42cf-b5dd-5c98fd3462ba","system_id":"levelo_inurba_marseille","lat":43.31358,"lon":5.36711,"is_reserved":false,"is_disabled":false,"rental_uris":{"android":"levelo://app?vid=76b616ae-0faf-42cf-b5dd-5c98fd3462ba","ios":"levelo://app?vid=76b616ae-0faf-42cf-b5dd-5c98fd3462ba"},"vehicle_type_id":"4","last_reported":1729519735,"current_range_meters":39200,"station_id":"ce4bgr92rcd13ifvqc6g","pricing_plan_id":"cebpf4jnsgd1na2vs0mg"},{"bike_id":"2be68d19-aa1e-4886-93cd-137e126c55c8","system_id":"levelo_inurba_marseille","lat":43.28452,"lon":5.3589,"is_reserved":false,"is_disabled":false,"rental_uris":{"android":"levelo://app?vid=2be68d19-aa1e-4886-93cd-137e126c55c8","ios":"levelo://app?vid=2be68d19-aa1e-4886-93cd-137e126c55c8"},"vehicle_type_id":"4","last_reported":1729519735,"current_range_meters":36800,"station_id":"ce4bhah2rcd13ifvqei0","pricing_plan_id":"cebpf4jnsgd1na2vs0mg"},{"bike_id":"7adf842b-4b8c-4356-a23f-1be0cbaf4d21","system_id":"levelo_inurba_marseille","lat":43.2319,"lon":5.35547,"is_reserved":false,"is_disabled":false,"rental_uris":{"android":"levelo://app?vid=7adf842b-4b8c-4356-a23f-1be0cbaf4d21","ios":"levelo://app?vid=7adf842b-4b8c-4356-a23f-1be0cbaf4d21"},"vehicle_type_id":"4","last_reported":1729519735,"current_range_meters":16000,"station_id":"ce4bhu92rcd13ifvqi70","pricing_plan_id":"cebpf4jnsgd1na2vs0mg"},{"bike_id":"734c5671-1853-46cb-bf81-e22868069f1d","system_id":"levelo_inurba_marseille","lat":43.28937,"lon":5.364,"is_reserved":false,"is_disabled":false,"rental_uris":{"android":"levelo://app?vid=734c5671-1853-46cb-bf81-e22868069f1d","ios":"levelo://app?vid=734c5671-1853-46cb-bf81-e22868069f1d"},"vehicle_type_id":"4","last_reported":1729519735,"current_range_meters":36400,"station_id":"ce4bhc92rcd13ifvqetg","pricing_plan_id":"cebpf4jnsgd1na2vs0mg"},{"bike_id":"73dcb4a8-be98-443d-add4-8cbaf55620c4","system_id":"levelo_inurba_marseille","lat":43.2919,"lon":5.35806,"is_reserved":false,"is_disabled":false,"rental_uris":{"android":"levelo://app?vid=73dcb4a8-be98-443d-add4-8cbaf55620c4","ios":"levelo://app?vid=73dcb4a8-be98-443d-add4-8cbaf55620c4"},"vehicle_type_id":"4","last_reported":1729519735,"current_range_meters":9200,"station_id":"ce4bhb12rcd13ifvqel0","pricing_plan_id":"cebpf4jnsgd1na2vs0mg"},{"bike_id":"5878ac2d-e259-4e32-a9e6-e16ca4ac7334","system_id":"levelo_inurba_marseille","lat":43.28156,"lon":5.42648,"is_reserved":false,"is_disabled":false,"rental_uris":{"android":"levelo://app?vid=5878ac2d-e259-4e32-a9e6-e16ca4ac7334","ios":"levelo://app?vid=5878ac2d-e259-4e32-a9e6-e16ca4ac7334"},"vehicle_type_id":"4","last_reported":1729519735,"current_range_meters":20800,"station_id":"ce4bhnh2rcd13ifvqgug","pricing_plan_id":"cebpf4jnsgd1na2vs0mg"},{"bike_id":"fbffec83-e8ac-4ab8-bc6b-019a9a045066","system_id":"levelo_inurba_marseille","lat":43.27377,"lon":5.36253,"is_reserved":false,"is_disabled":false,"rental_uris":{"android":"levelo://app?vid=fbffec83-e8ac-4ab8-bc6b-019a9a045066","ios":"levelo://app?vid=fbffec83-e8ac-4ab8-bc6b-019a9a045066"},"vehicle_type_id":"4","last_reported":1729519735,"current_range_meters":28400,"station_id":"ce4bhbh2rcd13ifvqeo0","pricing_plan_id":"cebpf4jnsgd1na2vs0mg"},{"bike_id":"6ecef7bf-359d-4121-b827-07ab5edc783f","system_id":"levelo_inurba_marseille","lat":43.27324,"lon":5.39095,"is_reserved":false,"is_disabled":false,"rental_uris":{"android":"levelo://app?vid=6ecef7bf-359d-4121-b827-07ab5edc783f","ios":"levelo://app?vid=6ecef7bf-359d-4121-b827-07ab5edc783f"},"vehicle_type_id":"4","last_reported":1729519735,"current_range_meters":8400,"station_id":"ce4bhgp2rcd13ifvqfe0","pricing_plan_id":"cebpf4jnsgd1na2vs0mg"},{"bike_id":"1a31bb26-e2b1-4960-ad64-d89d649508a0","system_id":"levelo_inurba_marseille","lat":43.27993,"lon":5.39999,"is_reserved":false,"is_disabled":false,"rental_uris":{"android":"levelo://app?vid=1a31bb26-e2b1-4960-ad64-d89d649508a0","ios":"levelo://app?vid=1a31bb26-e2b1-4960-ad64-d89d649508a0"},"vehicle_type_id":"4","last_reported":1729519735,"current_range_meters":36800,"station_id":"ce4bho92rcd13ifvqh4g","pricing_plan_id":"cebpf4jnsgd1na2vs0mg"},{"bike_id":"51a92f32-00a0-44ce-9acf-41a7e89c1eb6","system_id":"levelo_inurba_marseille","lat":43.29001,"lon":5.35616,"is_reserved":false,"is_disabled":false,"rental_uris":{"android":"levelo://app?vid=51a92f32-00a0-44ce-9acf-41a7e89c1eb6","ios":"levelo://app?vid=51a92f32-00a0-44ce-9acf-41a7e89c1eb6"},"vehicle_type_id":"4","last_reported":1729519735,"current_range_meters":20400,"station_id":"ce4bhb92rcd13ifvqen0","pricing_plan_id":"cebpf4jnsgd1na2vs0mg"},{"bike_id":"aef4da28-0d94-416c-aa76-b2bb23aa0555","system_id":"levelo_inurba_marseille","lat":43.28151,"lon":5.42646,"is_reserved":false,"is_disabled":false,"rental_uris":{"android":"levelo://app?vid=aef4da28-0d94-416c-aa76-b2bb23aa0555","ios":"levelo://app?vid=aef4da28-0d94-416c-aa76-b2bb23aa0555"},"vehicle_type_id":"4","last_reported":1729519735,"current_range_meters":24400,"station_id":"ce4bhnh2rcd13ifvqgug","pricing_plan_id":"cebpf4jnsgd1na2vs0mg"},{"bike_id":"51d72f9b-0604-4abb-8290-73d3156d5781","system_id":"levelo_inurba_marseille","lat":43.26939,"lon":5.40261,"is_reserved":false,"is_disabled":false,"rental_uris":{"android":"levelo://app?vid=51d72f9b-0604-4abb-8290-73d3156d5781","ios":"levelo://app?vid=51d72f9b-0604-4abb-8290-73d3156d5781"},"vehicle_type_id":"4","last_reported":1729519735,"current_range_meters":37600,"station_id":"cjm6bp8fraef2m0cb0m0","pricing_plan_id":"cebpf4jnsgd1na2vs0mg"},{"bike_id":"84d8192a-c13e-4d4c-97a3-1dfabc8ab697","system_id":"levelo_inurba_marseille","lat":43.27382,"lon":5.36251,"is_reserved":false,"is_disabled":false,"rental_uris":{"android":"levelo://app?vid=84d8192a-c13e-4d4c-97a3-1dfabc8ab697","ios":"levelo://app?vid=84d8192a-c13e-4d4c-97a3-1dfabc8ab697"},"vehicle_type_id":"4","last_reported":1729519735,"current_range_meters":2000,"station_id":"ce4bhbh2rcd13ifvqeo0","pricing_plan_id":"cebpf4jnsgd1na2vs0mg"},{"bike_id":"1098a3c6-88ae-48ac-ade0-49c4ae558815","system_id":"levelo_inurba_marseille","lat":43.2827,"lon":5.35082,"is_reserved":false,"is_disabled":false,"rental_uris":{"android":"levelo://app?vid=1098a3c6-88ae-48ac-ade0-49c4ae558815","ios":"levelo://app?vid=1098a3c6-88ae-48ac-ade0-49c4ae558815"},"vehicle_type_id":"4","last_reported":1729519735,"current_range_meters":30800,"station_id":"ce4bhbp2rcd13ifvqerg","pricing_plan_id":"cebpf4jnsgd1na2vs0mg"},{"bike_id":"e33141b3-47d6-4a81-a5a0-683981f32e56","system_id":"levelo_inurba_marseille","lat":43.25723,"lon":5.41113,"is_reserved":false,"is_disabled":false,"rental_uris":{"android":"levelo://app?vid=e33141b3-47d6-4a81-a5a0-683981f32e56","ios":"levelo://app?vid=e33141b3-47d6-4a81-a5a0-683981f32e56"},"vehicle_type_id":"4","last_reported":1729519735,"current_range_meters":14400,"station_id":"ce4bhkp2rcd13ifvqgd0","pricing_plan_id":"cebpf4jnsgd1na2vs0mg"},{"bike_id":"acc16664-0dd5-4988-814a-3b25431bee65","system_id":"levelo_inurba_marseille","lat":43.31357,"lon":5.367,"is_reserved":false,"is_disabled":false,"rental_uris":{"android":"levelo://app?vid=acc16664-0dd5-4988-814a-3b25431bee65","ios":"levelo://app?vid=acc16664-0dd5-4988-814a-3b25431bee65"},"vehicle_type_id":"4","last_reported":1729519735,"current_range_meters":28400,"station_id":"ce4bgr92rcd13ifvqc6g","pricing_plan_id":"cebpf4jnsgd1na2vs0mg"},{"bike_id":"e9d976dd-fa11-4f4d-903f-efd42a1e95bd","system_id":"levelo_inurba_marseille","lat":43.29631,"lon":5.40597,"is_reserved":false,"is_disabled":false,"rental_uris":{"android":"levelo://app?vid=e9d976dd-fa11-4f4d-903f-efd42a1e95bd","ios":"levelo://app?vid=e9d976dd-fa11-4f4d-903f-efd42a1e95bd"},"vehicle_type_id":"4","last_reported":1729519735,"current_range_meters":12800,"station_id":"ce4bh0h2rcd13ifvqd60","pricing_plan_id":"cebpf4jnsgd1na2vs0mg"},{"bike_id":"500cb39a-08fd-4bad-bf3b-4d2b098fccfe","system_id":"levelo_inurba_marseille","lat":43.24651,"lon":5.389,"is_reserved":false,"is_disabled":false,"rental_uris":{"android":"levelo://app?vid=500cb39a-08fd-4bad-bf3b-4d2b098fccfe","ios":"levelo://app?vid=500cb39a-08fd-4bad-bf3b-4d2b098fccfe"},"vehicle_type_id":"4","last_reported":1729519735,"current_range_meters":18800,"station_id":"ce4bhg12rcd13ifvqf60","pricing_plan_id":"cebpf4jnsgd1na2vs0mg"},{"bike_id":"50074756-6914-42f5-b273-3bca4e58c36c","system_id":"levelo_inurba_marseille","lat":43.31996,"lon":5.3817,"is_reserved":false,"is_disabled":false,"rental_uris":{"android":"levelo://app?vid=50074756-6914-42f5-b273-3bca4e58c36c","ios":"levelo://app?vid=50074756-6914-42f5-b273-3bca4e58c36c"},"vehicle_type_id":"4","last_reported":1729519735,"current_range_meters":8000,"station_id":"ce4bhr12rcd13ifvqhpg","pricing_plan_id":"cebpf4jnsgd1na2vs0mg"},{"bike_id":"8c6777bf-8407-4855-be22-51c2d7aabe5f","system_id":"levelo_inurba_marseille","lat":43.250914,"lon":5.395339,"is_reserved":false,"is_disabled":false,"rental_uris":{"android":"levelo://app?vid=8c6777bf-8407-4855-be22-51c2d7aabe5f","ios":"levelo://app?vid=8c6777bf-8407-4855-be22-51c2d7aabe5f"},"vehicle_type_id":"4","last_reported":1729519735,"current_range_meters":8400,"station_id":"ce4bhm12rcd13ifvqgkg","pricing_plan_id":"cebpf4jnsgd1na2vs0mg"},{"bike_id":"4426a32a-f0b0-4dad-8be6-a143f76d5fb4","system_id":"levelo_inurba_marseille","lat":43.26684,"lon":5.38264,"is_reserved":false,"is_disabled":false,"rental_uris":{"android":"levelo://app?vid=4426a32a-f0b0-4dad-8be6-a143f76d5fb4","ios":"levelo://app?vid=4426a32a-f0b0-4dad-8be6-a143f76d5fb4"},"vehicle_type_id":"4","last_reported":1729519735,"current_range_meters":38800,"station_id":"ce4bhg92rcd13ifvqf90","pricing_plan_id":"cebpf4jnsgd1na2vs0mg"},{"bike_id":"06694cf0-6070-4015-bae2-40f80ff5d498","system_id":"levelo_inurba_marseille","lat":43.30132,"lon":5.38777,"is_reserved":false,"is_disabled":false,"rental_uris":{"android":"levelo://app?vid=06694cf0-6070-4015-bae2-40f80ff5d498","ios":"levelo://app?vid=06694cf0-6070-4015-bae2-40f80ff5d498"},"vehicle_type_id":"4","last_reported":1729519735,"current_range_meters":36800,"station_id":"ce4bghh2rcd13ifvqb60","pricing_plan_id":"cebpf4jnsgd1na2vs0mg"},{"bike_id":"c3945b60-e38d-4106-8f18-92c7f436cc4f","system_id":"levelo_inurba_marseille","lat":43.33757,"lon":5.37448,"is_reserved":false,"is_disabled":false,"rental_uris":{"android":"levelo://app?vid=c3945b60-e38d-4106-8f18-92c7f436cc4f","ios":"levelo://app?vid=c3945b60-e38d-4106-8f18-92c7f436cc4f"},"vehicle_type_id":"4","last_reported":1729519735,"current_range_meters":36000,"station_id":"","pricing_plan_id":"cebpf4jnsgd1na2vs0mg"},{"bike_id":"7c3f64a4-2f42-4c11-aa0d-ca0a35c3002b","system_id":"levelo_inurba_marseille","lat":43.30463,"lon":5.37914,"is_reserved":false,"is_disabled":false,"rental_uris":{"android":"levelo://app?vid=7c3f64a4-2f42-4c11-aa0d-ca0a35c3002b","ios":"levelo://app?vid=7c3f64a4-2f42-4c11-aa0d-ca0a35c3002b"},"vehicle_type_id":"4","last_reported":1729519735,"current_range_meters":38400,"station_id":"ce4bgup2rcd13ifvqcn0","pricing_plan_id":"cebpf4jnsgd1na2vs0mg"},{"bike_id":"50c14c21-7cf6-4089-93b1-294a75a4fc18","system_id":"levelo_inurba_marseille","lat":43.26783,"lon":5.39418,"is_reserved":false,"is_disabled":false,"rental_uris":{"android":"levelo://app?vid=50c14c21-7cf6-4089-93b1-294a75a4fc18","ios":"levelo://app?vid=50c14c21-7cf6-4089-93b1-294a75a4fc18"},"vehicle_type_id":"4","last_reported":1729519735,"current_range_meters":18800,"station_id":"ce4bhh12rcd13ifvqfg0","pricing_plan_id":"cebpf4jnsgd1na2vs0mg"},{"bike_id":"5af17308-741b-4e27-9594-c80b565ef901","system_id":"levelo_inurba_marseille","lat":43.30546,"lon":5.36556,"is_reserved":false,"is_disabled":false,"rental_uris":{"android":"levelo://app?vid=5af17308-741b-4e27-9594-c80b565ef901","ios":"levelo://app?vid=5af17308-741b-4e27-9594-c80b565ef901"},"vehicle_type_id":"4","last_reported":1729519735,"current_range_meters":28800,"station_id":"ce4bgs12rcd13ifvqcag","pricing_plan_id":"cebpf4jnsgd1na2vs0mg"},{"bike_id":"9c2b8cfa-4e89-4777-8fd2-3eb897171bb8","system_id":"levelo_inurba_marseille","lat":43.32368,"lon":5.38879,"is_reserved":false,"is_disabled":false,"rental_uris":{"android":"levelo://app?vid=9c2b8cfa-4e89-4777-8fd2-3eb897171bb8","ios":"levelo://app?vid=9c2b8cfa-4e89-4777-8fd2-3eb897171bb8"},"vehicle_type_id":"4","last_reported":1729519735,"current_range_meters":4400,"station_id":"ce4bhqp2rcd13ifvqhog","pricing_plan_id":"cebpf4jnsgd1na2vs0mg"},{"bike_id":"1ce26204-202b-4d4e-84b1-3c251b72a681","system_id":"levelo_inurba_marseille","lat":43.26679,"lon":5.38261,"is_reserved":false,"is_disabled":false,"rental_uris":{"android":"levelo://app?vid=1ce26204-202b-4d4e-84b1-3c251b72a681","ios":"levelo://app?vid=1ce26204-202b-4d4e-84b1-3c251b72a681"},"vehicle_type_id":"4","last_reported":1729519735,"current_range_meters":38800,"station_id":"ce4bhg92rcd13ifvqf90","pricing_plan_id":"cebpf4jnsgd1na2vs0mg"},{"bike_id":"f7721e71-3e18-42b7-966c-28d6eb4f7a40","system_id":"levelo_inurba_marseille","lat":43.30156,"lon":5.38088,"is_reserved":false,"is_disabled":false,"rental_uris":{"android":"levelo://app?vid=f7721e71-3e18-42b7-966c-28d6eb4f7a40","ios":"levelo://app?vid=f7721e71-3e18-42b7-966c-28d6eb4f7a40"},"vehicle_type_id":"4","last_reported":1729519735,"current_range_meters":24800,"station_id":"ce4bgjp2rcd13ifvqbh0","pricing_plan_id":"cebpf4jnsgd1na2vs0mg"},{"bike_id":"f310c7fe-0766-4414-9e60-fd1ce83f3918","system_id":"levelo_inurba_marseille","lat":43.29901,"lon":5.43656,"is_reserved":false,"is_disabled":false,"rental_uris":{"android":"levelo://app?vid=f310c7fe-0766-4414-9e60-fd1ce83f3918","ios":"levelo://app?vid=f310c7fe-0766-4414-9e60-fd1ce83f3918"},"vehicle_type_id":"4","last_reported":1729519735,"current_range_meters":30400,"station_id":"ce4bhpp2rcd13ifvqhfg","pricing_plan_id":"cebpf4jnsgd1na2vs0mg"},{"bike_id":"7e021621-87c5-4b96-b4e0-e924a504b2de","system_id":"levelo_inurba_marseille","lat":43.25501,"lon":5.37649,"is_reserved":false,"is_disabled":false,"rental_uris":{"android":"levelo://app?vid=7e021621-87c5-4b96-b4e0-e924a504b2de","ios":"levelo://app?vid=7e021621-87c5-4b96-b4e0-e924a504b2de"},"vehicle_type_id":"4","last_reported":1729519735,"current_range_meters":28000,"station_id":"ce4bhh12rcd13ifvqff0","pricing_plan_id":"cebpf4jnsgd1na2vs0mg"},{"bike_id":"a42ec5a3-b29b-4a0b-a41c-c5ab7f0bdd31","system_id":"levelo_inurba_marseille","lat":43.25938,"lon":5.40895,"is_reserved":false,"is_disabled":false,"rental_uris":{"android":"levelo://app?vid=a42ec5a3-b29b-4a0b-a41c-c5ab7f0bdd31","ios":"levelo://app?vid=a42ec5a3-b29b-4a0b-a41c-c5ab7f0bdd31"},"vehicle_type_id":"4","last_reported":1729519735,"current_range_meters":32000,"station_id":"ce4bhm92rcd13ifvqglg","pricing_plan_id":"cebpf4jnsgd1na2vs0mg"},{"bike_id":"7159e765-885a-4e7c-a729-745506f12438","system_id":"levelo_inurba_marseille","lat":43.27199,"lon":5.3931,"is_reserved":false,"is_disabled":false,"rental_uris":{"android":"levelo://app?vid=7159e765-885a-4e7c-a729-745506f12438","ios":"levelo://app?vid=7159e765-885a-4e7c-a729-745506f12438"},"vehicle_type_id":"4","last_reported":1729519735,"current_range_meters":24000,"station_id":"","pricing_plan_id":"cebpf4jnsgd1na2vs0mg"},{"bike_id":"33e723de-9da5-48ce-baae-1fff56e1ed05","system_id":"levelo_inurba_marseille","lat":43.30907,"lon":5.3685,"is_reserved":false,"is_disabled":false,"rental_uris":{"android":"levelo://app?vid=33e723de-9da5-48ce-baae-1fff56e1ed05","ios":"levelo://app?vid=33e723de-9da5-48ce-baae-1fff56e1ed05"},"vehicle_type_id":"4","last_reported":1729519735,"current_range_meters":32800,"station_id":"ce4bgn92rcd13ifvqbvg","pricing_plan_id":"cebpf4jnsgd1na2vs0mg"},{"bike_id":"de5511c8-8e63-4f93-89fc-d93b562ca605","system_id":"levelo_inurba_marseille","lat":43.27612,"lon":5.36114,"is_reserved":false,"is_disabled":false,"rental_uris":{"android":"levelo://app?vid=de5511c8-8e63-4f93-89fc-d93b562ca605","ios":"levelo://app?vid=de5511c8-8e63-4f93-89fc-d93b562ca605"},"vehicle_type_id":"4","last_reported":1729519735,"current_range_meters":37600,"station_id":"ce4bgj92rcd13ifvqbe0","pricing_plan_id":"cebpf4jnsgd1na2vs0mg"},{"bike_id":"8ff5c174-e5be-4439-9cb8-fc5831fafdc3","system_id":"levelo_inurba_marseille","lat":43.28261,"lon":5.35077,"is_reserved":false,"is_disabled":false,"rental_uris":{"android":"levelo://app?vid=8ff5c174-e5be-4439-9cb8-fc5831fafdc3","ios":"levelo://app?vid=8ff5c174-e5be-4439-9cb8-fc5831fafdc3"},"vehicle_type_id":"4","last_reported":1729519735,"current_range_meters":30000,"station_id":"ce4bhbp2rcd13ifvqerg","pricing_plan_id":"cebpf4jnsgd1na2vs0mg"},{"bike_id":"8e6e2140-9018-4bfb-9d04-7fbfa5dde3a5","system_id":"levelo_inurba_marseille","lat":43.32106,"lon":5.36772,"is_reserved":false,"is_disabled":false,"rental_uris":{"android":"levelo://app?vid=8e6e2140-9018-4bfb-9d04-7fbfa5dde3a5","ios":"levelo://app?vid=8e6e2140-9018-4bfb-9d04-7fbfa5dde3a5"},"vehicle_type_id":"4","last_reported":1729519735,"current_range_meters":36800,"station_id":"ce4bhrh2rcd13ifvqhug","pricing_plan_id":"cebpf4jnsgd1na2vs0mg"},{"bike_id":"235b4b4c-5985-4c80-8b5b-e18a4f3b32d1","system_id":"levelo_inurba_marseille","lat":43.23154,"lon":5.43699,"is_reserved":false,"is_disabled":false,"rental_uris":{"android":"levelo://app?vid=235b4b4c-5985-4c80-8b5b-e18a4f3b32d1","ios":"levelo://app?vid=235b4b4c-5985-4c80-8b5b-e18a4f3b32d1"},"vehicle_type_id":"4","last_reported":1729519735,"current_range_meters":38800,"station_id":"ce4bhmp2rcd13ifvqgog","pricing_plan_id":"cebpf4jnsgd1na2vs0mg"},{"bike_id":"6fe969d3-9ceb-48ba-947c-61366ca4145d","system_id":"levelo_inurba_marseille","lat":43.31329,"lon":5.36754,"is_reserved":false,"is_disabled":false,"rental_uris":{"android":"levelo://app?vid=6fe969d3-9ceb-48ba-947c-61366ca4145d","ios":"levelo://app?vid=6fe969d3-9ceb-48ba-947c-61366ca4145d"},"vehicle_type_id":"4","last_reported":1729519735,"current_range_meters":38800,"station_id":"ce4bgr92rcd13ifvqc6g","pricing_plan_id":"cebpf4jnsgd1na2vs0mg"},{"bike_id":"7f8408b7-3649-494f-aae8-09a28063d31d","system_id":"levelo_inurba_marseille","lat":43.27372,"lon":5.36257,"is_reserved":false,"is_disabled":false,"rental_uris":{"android":"levelo://app?vid=7f8408b7-3649-494f-aae8-09a28063d31d","ios":"levelo://app?vid=7f8408b7-3649-494f-aae8-09a28063d31d"},"vehicle_type_id":"4","last_reported":1729519735,"current_range_meters":36400,"station_id":"ce4bhbh2rcd13ifvqeo0","pricing_plan_id":"cebpf4jnsgd1na2vs0mg"},{"bike_id":"dd94e547-0cd3-4668-915f-319234c7871a","system_id":"levelo_inurba_marseille","lat":43.26682,"lon":5.38273,"is_reserved":false,"is_disabled":false,"rental_uris":{"android":"levelo://app?vid=dd94e547-0cd3-4668-915f-319234c7871a","ios":"levelo://app?vid=dd94e547-0cd3-4668-915f-319234c7871a"},"vehicle_type_id":"4","last_reported":1729519735,"current_range_meters":19200,"station_id":"ce4bhg92rcd13ifvqf90","pricing_plan_id":"cebpf4jnsgd1na2vs0mg"},{"bike_id":"60f79e6b-f1f1-4aa8-8216-035a4fdd92a1","system_id":"levelo_inurba_marseille","lat":43.27619,"lon":5.36113,"is_reserved":false,"is_disabled":false,"rental_uris":{"android":"levelo://app?vid=60f79e6b-f1f1-4aa8-8216-035a4fdd92a1","ios":"levelo://app?vid=60f79e6b-f1f1-4aa8-8216-035a4fdd92a1"},"vehicle_type_id":"4","last_reported":1729519735,"current_range_meters":30000,"station_id":"ce4bgj92rcd13ifvqbe0","pricing_plan_id":"cebpf4jnsgd1na2vs0mg"},{"bike_id":"87df11f1-8fea-486b-bc99-ef16ae26b680","system_id":"levelo_inurba_marseille","lat":43.26676,"lon":5.382654,"is_reserved":false,"is_disabled":false,"rental_uris":{"android":"levelo://app?vid=87df11f1-8fea-486b-bc99-ef16ae26b680","ios":"levelo://app?vid=87df11f1-8fea-486b-bc99-ef16ae26b680"},"vehicle_type_id":"4","last_reported":1729519735,"current_range_meters":33600,"station_id":"ce4bhg92rcd13ifvqf90","pricing_plan_id":"cebpf4jnsgd1na2vs0mg"},{"bike_id":"82944a7d-5caa-4af6-a9e7-6a5a9e81c946","system_id":"levelo_inurba_marseille","lat":43.284119,"lon":5.349824,"is_reserved":false,"is_disabled":false,"rental_uris":{"android":"levelo://app?vid=82944a7d-5caa-4af6-a9e7-6a5a9e81c946","ios":"levelo://app?vid=82944a7d-5caa-4af6-a9e7-6a5a9e81c946"},"vehicle_type_id":"4","last_reported":1729519735,"current_range_meters":30800,"station_id":"ce4bhbh2rcd13ifvqepg","pricing_plan_id":"cebpf4jnsgd1na2vs0mg"},{"bike_id":"8886a725-081c-400f-9851-7a0be13cdcc3","system_id":"levelo_inurba_marseille","lat":43.30464,"lon":5.37923,"is_reserved":false,"is_disabled":false,"rental_uris":{"android":"levelo://app?vid=8886a725-081c-400f-9851-7a0be13cdcc3","ios":"levelo://app?vid=8886a725-081c-400f-9851-7a0be13cdcc3"},"vehicle_type_id":"4","last_reported":1729519735,"current_range_meters":9200,"station_id":"ce4bgup2rcd13ifvqcn0","pricing_plan_id":"cebpf4jnsgd1na2vs0mg"},{"bike_id":"93b134c1-f5b4-467b-829d-db83d1ce0ea5","system_id":"levelo_inurba_marseille","lat":43.23198,"lon":5.35551,"is_reserved":false,"is_disabled":false,"rental_uris":{"android":"levelo://app?vid=93b134c1-f5b4-467b-829d-db83d1ce0ea5","ios":"levelo://app?vid=93b134c1-f5b4-467b-829d-db83d1ce0ea5"},"vehicle_type_id":"4","last_reported":1729519735,"current_range_meters":37600,"station_id":"ce4bhu92rcd13ifvqi70","pricing_plan_id":"cebpf4jnsgd1na2vs0mg"},{"bike_id":"1c049e8b-4152-4b8c-8410-330fd33f2a96","system_id":"levelo_inurba_marseille","lat":43.31223,"lon":5.36861,"is_reserved":false,"is_disabled":false,"rental_uris":{"android":"levelo://app?vid=1c049e8b-4152-4b8c-8410-330fd33f2a96","ios":"levelo://app?vid=1c049e8b-4152-4b8c-8410-330fd33f2a96"},"vehicle_type_id":"4","last_reported":1729519735,"current_range_meters":38000,"station_id":"ce4bgl92rcd13ifvqbq0","pricing_plan_id":"cebpf4jnsgd1na2vs0mg"},{"bike_id":"8e44e9f9-9037-4578-b2df-0731c0c64497","system_id":"levelo_inurba_marseille","lat":43.31358,"lon":5.36716,"is_reserved":false,"is_disabled":false,"rental_uris":{"android":"levelo://app?vid=8e44e9f9-9037-4578-b2df-0731c0c64497","ios":"levelo://app?vid=8e44e9f9-9037-4578-b2df-0731c0c64497"},"vehicle_type_id":"4","last_reported":1729519735,"current_range_meters":39200,"station_id":"ce4bgr92rcd13ifvqc6g","pricing_plan_id":"cebpf4jnsgd1na2vs0mg"},{"bike_id":"c5ef9b29-7b88-440f-a1d8-2182221c5822","system_id":"levelo_inurba_marseille","lat":43.30537,"lon":5.36698,"is_reserved":false,"is_disabled":false,"rental_uris":{"android":"levelo://app?vid=c5ef9b29-7b88-440f-a1d8-2182221c5822","ios":"levelo://app?vid=c5ef9b29-7b88-440f-a1d8-2182221c5822"},"vehicle_type_id":"4","last_reported":1729519735,"current_range_meters":27200,"station_id":"ce4bgrp2rcd13ifvqc9g","pricing_plan_id":"cebpf4jnsgd1na2vs0mg"},{"bike_id":"1913d927-aa43-4697-9751-76d6b74079c0","system_id":"levelo_inurba_marseille","lat":43.26944,"lon":5.38645,"is_reserved":false,"is_disabled":false,"rental_uris":{"android":"levelo://app?vid=1913d927-aa43-4697-9751-76d6b74079c0","ios":"levelo://app?vid=1913d927-aa43-4697-9751-76d6b74079c0"},"vehicle_type_id":"4","last_reported":1729519735,"current_range_meters":38800,"station_id":"ce4bhh92rcd13ifvqfh0","pricing_plan_id":"cebpf4jnsgd1na2vs0mg"},{"bike_id":"4977fb00-699d-4794-9bbf-1604c864200e","system_id":"levelo_inurba_marseille","lat":43.26954,"lon":5.38638,"is_reserved":false,"is_disabled":false,"rental_uris":{"android":"levelo://app?vid=4977fb00-699d-4794-9bbf-1604c864200e","ios":"levelo://app?vid=4977fb00-699d-4794-9bbf-1604c864200e"},"vehicle_type_id":"4","last_reported":1729519735,"current_range_meters":27200,"station_id":"ce4bhh92rcd13ifvqfh0","pricing_plan_id":"cebpf4jnsgd1na2vs0mg"},{"bike_id":"052cf3f4-1f43-4250-bc67-2372def116a5","system_id":"levelo_inurba_marseille","lat":43.28426,"lon":5.34985,"is_reserved":false,"is_disabled":false,"rental_uris":{"android":"levelo://app?vid=052cf3f4-1f43-4250-bc67-2372def116a5","ios":"levelo://app?vid=052cf3f4-1f43-4250-bc67-2372def116a5"},"vehicle_type_id":"4","last_reported":1729519735,"current_range_meters":38800,"station_id":"ce4bhbh2rcd13ifvqepg","pricing_plan_id":"cebpf4jnsgd1na2vs0mg"},{"bike_id":"95e0fefa-9f69-4f15-b193-dfdfde1e2279","system_id":"levelo_inurba_marseille","lat":43.28422,"lon":5.37499,"is_reserved":false,"is_disabled":false,"rental_uris":{"android":"levelo://app?vid=95e0fefa-9f69-4f15-b193-dfdfde1e2279","ios":"levelo://app?vid=95e0fefa-9f69-4f15-b193-dfdfde1e2279"},"vehicle_type_id":"4","last_reported":1729519735,"current_range_meters":14000,"station_id":"ce4bh412rcd13ifvqds0","pricing_plan_id":"cebpf4jnsgd1na2vs0mg"},{"bike_id":"b225f7d3-3dda-4e9f-a6a2-887fdd3406ed","system_id":"levelo_inurba_marseille","lat":43.33748,"lon":5.37459,"is_reserved":false,"is_disabled":false,"rental_uris":{"android":"levelo://app?vid=b225f7d3-3dda-4e9f-a6a2-887fdd3406ed","ios":"levelo://app?vid=b225f7d3-3dda-4e9f-a6a2-887fdd3406ed"},"vehicle_type_id":"4","last_reported":1729519735,"current_range_meters":37600,"station_id":"","pricing_plan_id":"cebpf4jnsgd1na2vs0mg"},{"bike_id":"b6bf1a02-1777-4cb1-95b3-bcf334646fe2","system_id":"levelo_inurba_marseille","lat":43.29279,"lon":5.3684,"is_reserved":false,"is_disabled":false,"rental_uris":{"android":"levelo://app?vid=b6bf1a02-1777-4cb1-95b3-bcf334646fe2","ios":"levelo://app?vid=b6bf1a02-1777-4cb1-95b3-bcf334646fe2"},"vehicle_type_id":"4","last_reported":1729519735,"current_range_meters":26000,"station_id":"ce4bhbp2rcd13ifvqesg","pricing_plan_id":"cebpf4jnsgd1na2vs0mg"},{"bike_id":"aed33a5f-ccde-4711-89d5-f3554b45ecd7","system_id":"levelo_inurba_marseille","lat":43.23202,"lon":5.3555,"is_reserved":false,"is_disabled":false,"rental_uris":{"android":"levelo://app?vid=aed33a5f-ccde-4711-89d5-f3554b45ecd7","ios":"levelo://app?vid=aed33a5f-ccde-4711-89d5-f3554b45ecd7"},"vehicle_type_id":"4","last_reported":1729519735,"current_range_meters":16400,"station_id":"ce4bhu92rcd13ifvqi70","pricing_plan_id":"cebpf4jnsgd1na2vs0mg"},{"bike_id":"06aa81a6-daf1-4c90-9135-41dcbca1b64d","system_id":"levelo_inurba_marseille","lat":43.31326,"lon":5.39689,"is_reserved":false,"is_disabled":false,"rental_uris":{"android":"levelo://app?vid=06aa81a6-daf1-4c90-9135-41dcbca1b64d","ios":"levelo://app?vid=06aa81a6-daf1-4c90-9135-41dcbca1b64d"},"vehicle_type_id":"4","last_reported":1729519735,"current_range_meters":36000,"station_id":"ce4bgvp2rcd13ifvqcu0","pricing_plan_id":"cebpf4jnsgd1na2vs0mg"},{"bike_id":"33bbe4ad-0cf9-4c7e-b4a0-f13c698223b5","system_id":"levelo_inurba_marseille","lat":43.22935,"lon":5.35378,"is_reserved":false,"is_disabled":false,"rental_uris":{"android":"levelo://app?vid=33bbe4ad-0cf9-4c7e-b4a0-f13c698223b5","ios":"levelo://app?vid=33bbe4ad-0cf9-4c7e-b4a0-f13c698223b5"},"vehicle_type_id":"4","last_reported":1729519735,"current_range_meters":38800,"station_id":"cpo3532slgdg3j2ikp40","pricing_plan_id":"cebpf4jnsgd1na2vs0mg"},{"bike_id":"87d554c7-ed99-42ca-9407-35cffef5fdaf","system_id":"levelo_inurba_marseille","lat":43.25003,"lon":5.38926,"is_reserved":false,"is_disabled":false,"rental_uris":{"android":"levelo://app?vid=87d554c7-ed99-42ca-9407-35cffef5fdaf","ios":"levelo://app?vid=87d554c7-ed99-42ca-9407-35cffef5fdaf"},"vehicle_type_id":"4","last_reported":1729519735,"current_range_meters":5600,"station_id":"ce4bhgp2rcd13ifvqfd0","pricing_plan_id":"cebpf4jnsgd1na2vs0mg"},{"bike_id":"7afe71a3-201a-49fc-a5f2-136629564808","system_id":"levelo_inurba_marseille","lat":43.28424,"lon":5.3498,"is_reserved":false,"is_disabled":false,"rental_uris":{"android":"levelo://app?vid=7afe71a3-201a-49fc-a5f2-136629564808","ios":"levelo://app?vid=7afe71a3-201a-49fc-a5f2-136629564808"},"vehicle_type_id":"4","last_reported":1729519735,"current_range_meters":32800,"station_id":"ce4bhbh2rcd13ifvqepg","pricing_plan_id":"cebpf4jnsgd1na2vs0mg"},{"bike_id":"5d82eb44-49d0-477f-8167-d5700ec00be5","system_id":"levelo_inurba_marseille","lat":43.27376,"lon":5.36264,"is_reserved":false,"is_disabled":false,"rental_uris":{"android":"levelo://app?vid=5d82eb44-49d0-477f-8167-d5700ec00be5","ios":"levelo://app?vid=5d82eb44-49d0-477f-8167-d5700ec00be5"},"vehicle_type_id":"4","last_reported":1729519735,"current_range_meters":16800,"station_id":"ce4bhbh2rcd13ifvqeo0","pricing_plan_id":"cebpf4jnsgd1na2vs0mg"},{"bike_id":"09cb8207-c804-47c7-9699-59cc1a14b677","system_id":"levelo_inurba_marseille","lat":43.23061,"lon":5.3549,"is_reserved":false,"is_disabled":false,"rental_uris":{"android":"levelo://app?vid=09cb8207-c804-47c7-9699-59cc1a14b677","ios":"levelo://app?vid=09cb8207-c804-47c7-9699-59cc1a14b677"},"vehicle_type_id":"4","last_reported":1729519735,"current_range_meters":36800,"station_id":"cpo3342slgdg3j2ifvpg","pricing_plan_id":"cebpf4jnsgd1na2vs0mg"},{"bike_id":"407773a7-bafd-4994-a1fd-8a73c9328a48","system_id":"levelo_inurba_marseille","lat":43.28424,"lon":5.34994,"is_reserved":false,"is_disabled":false,"rental_uris":{"android":"levelo://app?vid=407773a7-bafd-4994-a1fd-8a73c9328a48","ios":"levelo://app?vid=407773a7-bafd-4994-a1fd-8a73c9328a48"},"vehicle_type_id":"4","last_reported":1729519735,"current_range_meters":20800,"station_id":"ce4bhbh2rcd13ifvqepg","pricing_plan_id":"cebpf4jnsgd1na2vs0mg"},{"bike_id":"4472db64-6f05-4fc3-a9cf-c159e228ba34","system_id":"levelo_inurba_marseille","lat":43.30798,"lon":5.38157,"is_reserved":false,"is_disabled":false,"rental_uris":{"android":"levelo://app?vid=4472db64-6f05-4fc3-a9cf-c159e228ba34","ios":"levelo://app?vid=4472db64-6f05-4fc3-a9cf-c159e228ba34"},"vehicle_type_id":"4","last_reported":1729519735,"current_range_meters":38800,"station_id":"ce4bgt12rcd13ifvqce0","pricing_plan_id":"cebpf4jnsgd1na2vs0mg"},{"bike_id":"89b70a6d-f123-43c3-83f6-27c6c5c6c1ba","system_id":"levelo_inurba_marseille","lat":43.27454,"lon":5.36071,"is_reserved":false,"is_disabled":false,"rental_uris":{"android":"levelo://app?vid=89b70a6d-f123-43c3-83f6-27c6c5c6c1ba","ios":"levelo://app?vid=89b70a6d-f123-43c3-83f6-27c6c5c6c1ba"},"vehicle_type_id":"4","last_reported":1729519735,"current_range_meters":26800,"station_id":"ce4bhbh2rcd13ifvqeo0","pricing_plan_id":"cebpf4jnsgd1na2vs0mg"},{"bike_id":"d6056c03-fd9a-4318-ab01-54fcb42b30ff","system_id":"levelo_inurba_marseille","lat":43.27611,"lon":5.3611,"is_reserved":false,"is_disabled":false,"rental_uris":{"android":"levelo://app?vid=d6056c03-fd9a-4318-ab01-54fcb42b30ff","ios":"levelo://app?vid=d6056c03-fd9a-4318-ab01-54fcb42b30ff"},"vehicle_type_id":"4","last_reported":1729519735,"current_range_meters":24400,"station_id":"ce4bgj92rcd13ifvqbe0","pricing_plan_id":"cebpf4jnsgd1na2vs0mg"},{"bike_id":"e0fe7786-944b-452c-b86c-70fd5b71a4aa","system_id":"levelo_inurba_marseille","lat":43.2315,"lon":5.43717,"is_reserved":false,"is_disabled":false,"rental_uris":{"android":"levelo://app?vid=e0fe7786-944b-452c-b86c-70fd5b71a4aa","ios":"levelo://app?vid=e0fe7786-944b-452c-b86c-70fd5b71a4aa"},"vehicle_type_id":"4","last_reported":1729519735,"current_range_meters":38400,"station_id":"ce4bhmp2rcd13ifvqgog","pricing_plan_id":"cebpf4jnsgd1na2vs0mg"},{"bike_id":"2d2c8b8e-c933-432f-9f07-1b231ee8765f","system_id":"levelo_inurba_marseille","lat":43.30797,"lon":5.38167,"is_reserved":false,"is_disabled":false,"rental_uris":{"android":"levelo://app?vid=2d2c8b8e-c933-432f-9f07-1b231ee8765f","ios":"levelo://app?vid=2d2c8b8e-c933-432f-9f07-1b231ee8765f"},"vehicle_type_id":"4","last_reported":1729519735,"current_range_meters":32000,"station_id":"","pricing_plan_id":"cebpf4jnsgd1na2vs0mg"},{"bike_id":"e01af3fb-a46a-472a-a9ce-4d0d6e75d0db","system_id":"levelo_inurba_marseille","lat":43.28455,"lon":5.35894,"is_reserved":false,"is_disabled":false,"rental_uris":{"android":"levelo://app?vid=e01af3fb-a46a-472a-a9ce-4d0d6e75d0db","ios":"levelo://app?vid=e01af3fb-a46a-472a-a9ce-4d0d6e75d0db"},"vehicle_type_id":"4","last_reported":1729519735,"current_range_meters":38000,"station_id":"ce4bhah2rcd13ifvqei0","pricing_plan_id":"cebpf4jnsgd1na2vs0mg"},{"bike_id":"7640f2f4-2af5-4f2c-a62e-29def0ddc99c","system_id":"levelo_inurba_marseille","lat":43.27998,"lon":5.41663,"is_reserved":false,"is_disabled":false,"rental_uris":{"android":"levelo://app?vid=7640f2f4-2af5-4f2c-a62e-29def0ddc99c","ios":"levelo://app?vid=7640f2f4-2af5-4f2c-a62e-29def0ddc99c"},"vehicle_type_id":"4","last_reported":1729519735,"current_range_meters":34000,"station_id":"ce4bho12rcd13ifvqh1g","pricing_plan_id":"cebpf4jnsgd1na2vs0mg"},{"bike_id":"43bc3d0b-18e5-41c6-8512-26e24d35eaf0","system_id":"levelo_inurba_marseille","lat":43.27377,"lon":5.36241,"is_reserved":false,"is_disabled":false,"rental_uris":{"android":"levelo://app?vid=43bc3d0b-18e5-41c6-8512-26e24d35eaf0","ios":"levelo://app?vid=43bc3d0b-18e5-41c6-8512-26e24d35eaf0"},"vehicle_type_id":"4","last_reported":1729519735,"current_range_meters":38800,"station_id":"ce4bhbh2rcd13ifvqeo0","pricing_plan_id":"cebpf4jnsgd1na2vs0mg"},{"bike_id":"cdd03d3a-91af-4f00-a9bb-239f005fcf37","system_id":"levelo_inurba_marseille","lat":43.31359,"lon":5.36704,"is_reserved":false,"is_disabled":false,"rental_uris":{"android":"levelo://app?vid=cdd03d3a-91af-4f00-a9bb-239f005fcf37","ios":"levelo://app?vid=cdd03d3a-91af-4f00-a9bb-239f005fcf37"},"vehicle_type_id":"4","last_reported":1729519735,"current_range_meters":9200,"station_id":"ce4bgr92rcd13ifvqc6g","pricing_plan_id":"cebpf4jnsgd1na2vs0mg"},{"bike_id":"85353b83-1502-4f48-8702-10d30507bb1e","system_id":"levelo_inurba_marseille","lat":43.2841,"lon":5.34983,"is_reserved":false,"is_disabled":false,"rental_uris":{"android":"levelo://app?vid=85353b83-1502-4f48-8702-10d30507bb1e","ios":"levelo://app?vid=85353b83-1502-4f48-8702-10d30507bb1e"},"vehicle_type_id":"4","last_reported":1729519735,"current_range_meters":35200,"station_id":"ce4bhbh2rcd13ifvqepg","pricing_plan_id":"cebpf4jnsgd1na2vs0mg"},{"bike_id":"ff7da21b-c813-4300-bf01-3a0bd282c985","system_id":"levelo_inurba_marseille","lat":43.31356,"lon":5.36721,"is_reserved":false,"is_disabled":false,"rental_uris":{"android":"levelo://app?vid=ff7da21b-c813-4300-bf01-3a0bd282c985","ios":"levelo://app?vid=ff7da21b-c813-4300-bf01-3a0bd282c985"},"vehicle_type_id":"4","last_reported":1729519735,"current_range_meters":25200,"station_id":"ce4bgr92rcd13ifvqc6g","pricing_plan_id":"cebpf4jnsgd1na2vs0mg"},{"bike_id":"725c330a-6658-436e-be21-26b47949d16d","system_id":"levelo_inurba_marseille","lat":43.2737,"lon":5.36262,"is_reserved":false,"is_disabled":false,"rental_uris":{"android":"levelo://app?vid=725c330a-6658-436e-be21-26b47949d16d","ios":"levelo://app?vid=725c330a-6658-436e-be21-26b47949d16d"},"vehicle_type_id":"4","last_reported":1729519735,"current_range_meters":39200,"station_id":"ce4bhbh2rcd13ifvqeo0","pricing_plan_id":"cebpf4jnsgd1na2vs0mg"},{"bike_id":"c425d2b0-d9e8-4010-8389-9b6a1568b320","system_id":"levelo_inurba_marseille","lat":43.28417,"lon":5.34991,"is_reserved":false,"is_disabled":false,"rental_uris":{"android":"levelo://app?vid=c425d2b0-d9e8-4010-8389-9b6a1568b320","ios":"levelo://app?vid=c425d2b0-d9e8-4010-8389-9b6a1568b320"},"vehicle_type_id":"4","last_reported":1729519735,"current_range_meters":37600,"station_id":"ce4bhbh2rcd13ifvqepg","pricing_plan_id":"cebpf4jnsgd1na2vs0mg"},{"bike_id":"2de1491f-56f3-4817-9830-b0d59d8ec6de","system_id":"levelo_inurba_marseille","lat":43.28268,"lon":5.35059,"is_reserved":false,"is_disabled":false,"rental_uris":{"android":"levelo://app?vid=2de1491f-56f3-4817-9830-b0d59d8ec6de","ios":"levelo://app?vid=2de1491f-56f3-4817-9830-b0d59d8ec6de"},"vehicle_type_id":"4","last_reported":1729519735,"current_range_meters":26800,"station_id":"ce4bhbp2rcd13ifvqerg","pricing_plan_id":"cebpf4jnsgd1na2vs0mg"},{"bike_id":"a2bd6110-32fe-4bb3-9c8c-e3d75b9eec3d","system_id":"levelo_inurba_marseille","lat":43.24546,"lon":5.39523,"is_reserved":false,"is_disabled":false,"rental_uris":{"android":"levelo://app?vid=a2bd6110-32fe-4bb3-9c8c-e3d75b9eec3d","ios":"levelo://app?vid=a2bd6110-32fe-4bb3-9c8c-e3d75b9eec3d"},"vehicle_type_id":"4","last_reported":1729519735,"current_range_meters":22800,"station_id":"ce4bhlp2rcd13ifvqgjg","pricing_plan_id":"cebpf4jnsgd1na2vs0mg"},{"bike_id":"ed0ea4f0-eca1-4271-8849-528752f9e878","system_id":"levelo_inurba_marseille","lat":43.29298,"lon":5.37463,"is_reserved":false,"is_disabled":false,"rental_uris":{"android":"levelo://app?vid=ed0ea4f0-eca1-4271-8849-528752f9e878","ios":"levelo://app?vid=ed0ea4f0-eca1-4271-8849-528752f9e878"},"vehicle_type_id":"4","last_reported":1729519735,"current_range_meters":38800,"station_id":"ce4bgi12rcd13ifvqb70","pricing_plan_id":"cebpf4jnsgd1na2vs0mg"},{"bike_id":"a2cf698b-c730-4c70-b548-a446840f46a9","system_id":"levelo_inurba_marseille","lat":43.33763,"lon":5.37451,"is_reserved":false,"is_disabled":false,"rental_uris":{"android":"levelo://app?vid=a2cf698b-c730-4c70-b548-a446840f46a9","ios":"levelo://app?vid=a2cf698b-c730-4c70-b548-a446840f46a9"},"vehicle_type_id":"4","last_reported":1729519735,"current_range_meters":2000,"station_id":"","pricing_plan_id":"cebpf4jnsgd1na2vs0mg"},{"bike_id":"0a7bfe43-d642-4cd8-a1ff-64241f2d24fd","system_id":"levelo_inurba_marseille","lat":43.30544,"lon":5.36536,"is_reserved":false,"is_disabled":false,"rental_uris":{"android":"levelo://app?vid=0a7bfe43-d642-4cd8-a1ff-64241f2d24fd","ios":"levelo://app?vid=0a7bfe43-d642-4cd8-a1ff-64241f2d24fd"},"vehicle_type_id":"4","last_reported":1729519735,"current_range_meters":36400,"station_id":"ce4bgs12rcd13ifvqcag","pricing_plan_id":"cebpf4jnsgd1na2vs0mg"},{"bike_id":"303decf6-ee10-455e-af28-2b6dbe01f914","system_id":"levelo_inurba_marseille","lat":43.337444,"lon":5.374475,"is_reserved":false,"is_disabled":false,"rental_uris":{"android":"levelo://app?vid=303decf6-ee10-455e-af28-2b6dbe01f914","ios":"levelo://app?vid=303decf6-ee10-455e-af28-2b6dbe01f914"},"vehicle_type_id":"4","last_reported":1729519735,"current_range_meters":25200,"station_id":"","pricing_plan_id":"cebpf4jnsgd1na2vs0mg"},{"bike_id":"dc1bee65-e82b-420b-9f1c-3b158095b308","system_id":"levelo_inurba_marseille","lat":43.24167,"lon":5.36392,"is_reserved":false,"is_disabled":false,"rental_uris":{"android":"levelo://app?vid=dc1bee65-e82b-420b-9f1c-3b158095b308","ios":"levelo://app?vid=dc1bee65-e82b-420b-9f1c-3b158095b308"},"vehicle_type_id":"4","last_reported":1729519735,"current_range_meters":19600,"station_id":"cpo36qri1sfpv3e86is0","pricing_plan_id":"cebpf4jnsgd1na2vs0mg"},{"bike_id":"82b90abb-3a14-426d-9ccd-ef7fc704c889","system_id":"levelo_inurba_marseille","lat":43.30458,"lon":5.37907,"is_reserved":false,"is_disabled":false,"rental_uris":{"android":"levelo://app?vid=82b90abb-3a14-426d-9ccd-ef7fc704c889","ios":"levelo://app?vid=82b90abb-3a14-426d-9ccd-ef7fc704c889"},"vehicle_type_id":"4","last_reported":1729519735,"current_range_meters":30800,"station_id":"ce4bgup2rcd13ifvqcn0","pricing_plan_id":"cebpf4jnsgd1na2vs0mg"},{"bike_id":"9b64aa22-780a-4668-bae2-c2724bf15dec","system_id":"levelo_inurba_marseille","lat":43.27379,"lon":5.36259,"is_reserved":false,"is_disabled":false,"rental_uris":{"android":"levelo://app?vid=9b64aa22-780a-4668-bae2-c2724bf15dec","ios":"levelo://app?vid=9b64aa22-780a-4668-bae2-c2724bf15dec"},"vehicle_type_id":"4","last_reported":1729519735,"current_range_meters":28000,"station_id":"ce4bhbh2rcd13ifvqeo0","pricing_plan_id":"cebpf4jnsgd1na2vs0mg"},{"bike_id":"0f1339ce-89e6-4e1a-a4a8-fbc27d13cb55","system_id":"levelo_inurba_marseille","lat":43.29553,"lon":5.4229,"is_reserved":false,"is_disabled":false,"rental_uris":{"android":"levelo://app?vid=0f1339ce-89e6-4e1a-a4a8-fbc27d13cb55","ios":"levelo://app?vid=0f1339ce-89e6-4e1a-a4a8-fbc27d13cb55"},"vehicle_type_id":"4","last_reported":1729519735,"current_range_meters":28800,"station_id":"ce4bhph2rcd13ifvqhdg","pricing_plan_id":"cebpf4jnsgd1na2vs0mg"},{"bike_id":"71a3575e-567a-433e-92c7-0d79be4b6502","system_id":"levelo_inurba_marseille","lat":43.28272,"lon":5.35069,"is_reserved":false,"is_disabled":false,"rental_uris":{"android":"levelo://app?vid=71a3575e-567a-433e-92c7-0d79be4b6502","ios":"levelo://app?vid=71a3575e-567a-433e-92c7-0d79be4b6502"},"vehicle_type_id":"4","last_reported":1729519735,"current_range_meters":30800,"station_id":"ce4bhbp2rcd13ifvqerg","pricing_plan_id":"cebpf4jnsgd1na2vs0mg"},{"bike_id":"ba066af5-0eb8-4ddd-9e50-4f7905623028","system_id":"levelo_inurba_marseille","lat":43.28566,"lon":5.39502,"is_reserved":false,"is_disabled":false,"rental_uris":{"android":"levelo://app?vid=ba066af5-0eb8-4ddd-9e50-4f7905623028","ios":"levelo://app?vid=ba066af5-0eb8-4ddd-9e50-4f7905623028"},"vehicle_type_id":"4","last_reported":1729519735,"current_range_meters":8800,"station_id":"ce4bh292rcd13ifvqdg0","pricing_plan_id":"cebpf4jnsgd1na2vs0mg"},{"bike_id":"1e2270ef-237b-42e2-a98d-0bcaf3c6fdac","system_id":"levelo_inurba_marseille","lat":43.30552,"lon":5.36534,"is_reserved":false,"is_disabled":false,"rental_uris":{"android":"levelo://app?vid=1e2270ef-237b-42e2-a98d-0bcaf3c6fdac","ios":"levelo://app?vid=1e2270ef-237b-42e2-a98d-0bcaf3c6fdac"},"vehicle_type_id":"4","last_reported":1729519735,"current_range_meters":37600,"station_id":"ce4bgs12rcd13ifvqcag","pricing_plan_id":"cebpf4jnsgd1na2vs0mg"},{"bike_id":"7537f658-d4bb-4cf0-bab8-08b35e63e21a","system_id":"levelo_inurba_marseille","lat":43.27084,"lon":5.42272,"is_reserved":false,"is_disabled":false,"rental_uris":{"android":"levelo://app?vid=7537f658-d4bb-4cf0-bab8-08b35e63e21a","ios":"levelo://app?vid=7537f658-d4bb-4cf0-bab8-08b35e63e21a"},"vehicle_type_id":"4","last_reported":1729519735,"current_range_meters":2800,"station_id":"ce4bhk92rcd13ifvqgb0","pricing_plan_id":"cebpf4jnsgd1na2vs0mg"},{"bike_id":"d0a7956a-d7bd-49a8-8af8-9172eb5dc7db","system_id":"levelo_inurba_marseille","lat":43.28613,"lon":5.35096,"is_reserved":false,"is_disabled":false,"rental_uris":{"android":"levelo://app?vid=d0a7956a-d7bd-49a8-8af8-9172eb5dc7db","ios":"levelo://app?vid=d0a7956a-d7bd-49a8-8af8-9172eb5dc7db"},"vehicle_type_id":"4","last_reported":1729519735,"current_range_meters":32000,"station_id":"ce4bhch2rcd13ifvqeug","pricing_plan_id":"cebpf4jnsgd1na2vs0mg"},{"bike_id":"35f09153-cef3-4e41-bcef-5598e9fc1f48","system_id":"levelo_inurba_marseille","lat":43.24074,"lon":5.37758,"is_reserved":false,"is_disabled":false,"rental_uris":{"android":"levelo://app?vid=35f09153-cef3-4e41-bcef-5598e9fc1f48","ios":"levelo://app?vid=35f09153-cef3-4e41-bcef-5598e9fc1f48"},"vehicle_type_id":"4","last_reported":1729519735,"current_range_meters":14000,"station_id":"ce4bhnp2rcd13ifvqgvg","pricing_plan_id":"cebpf4jnsgd1na2vs0mg"},{"bike_id":"d695833b-9218-40a4-b87c-6783a7ef9ce4","system_id":"levelo_inurba_marseille","lat":43.24172,"lon":5.39734,"is_reserved":false,"is_disabled":false,"rental_uris":{"android":"levelo://app?vid=d695833b-9218-40a4-b87c-6783a7ef9ce4","ios":"levelo://app?vid=d695833b-9218-40a4-b87c-6783a7ef9ce4"},"vehicle_type_id":"4","last_reported":1729519735,"current_range_meters":16000,"station_id":"ce4bhn12rcd13ifvqgpg","pricing_plan_id":"cebpf4jnsgd1na2vs0mg"},{"bike_id":"da454c13-28ac-40cf-8408-08fcc103a22b","system_id":"levelo_inurba_marseille","lat":43.26194,"lon":5.37451,"is_reserved":false,"is_disabled":false,"rental_uris":{"android":"levelo://app?vid=da454c13-28ac-40cf-8408-08fcc103a22b","ios":"levelo://app?vid=da454c13-28ac-40cf-8408-08fcc103a22b"},"vehicle_type_id":"4","last_reported":1729519735,"current_range_meters":20400,"station_id":"ce4bhgp2rcd13ifvqfc0","pricing_plan_id":"cebpf4jnsgd1na2vs0mg"},{"bike_id":"292bc44f-4ac4-440c-a778-61839fe9455d","system_id":"levelo_inurba_marseille","lat":43.28935,"lon":5.36641,"is_reserved":false,"is_disabled":false,"rental_uris":{"android":"levelo://app?vid=292bc44f-4ac4-440c-a778-61839fe9455d","ios":"levelo://app?vid=292bc44f-4ac4-440c-a778-61839fe9455d"},"vehicle_type_id":"4","last_reported":1729519735,"current_range_meters":14800,"station_id":"ce4bhap2rcd13ifvqek0","pricing_plan_id":"cebpf4jnsgd1na2vs0mg"},{"bike_id":"349c5ecc-921b-4951-a801-437e6f0acec9","system_id":"levelo_inurba_marseille","lat":43.27566,"lon":5.38417,"is_reserved":false,"is_disabled":false,"rental_uris":{"android":"levelo://app?vid=349c5ecc-921b-4951-a801-437e6f0acec9","ios":"levelo://app?vid=349c5ecc-921b-4951-a801-437e6f0acec9"},"vehicle_type_id":"4","last_reported":1729519735,"current_range_meters":26000,"station_id":"ce4bhh92rcd13ifvqfi0","pricing_plan_id":"cebpf4jnsgd1na2vs0mg"},{"bike_id":"191e8c1b-8eb2-4dd5-9af3-ecc0a669c64d","system_id":"levelo_inurba_marseille","lat":43.27611,"lon":5.36109,"is_reserved":false,"is_disabled":false,"rental_uris":{"android":"levelo://app?vid=191e8c1b-8eb2-4dd5-9af3-ecc0a669c64d","ios":"levelo://app?vid=191e8c1b-8eb2-4dd5-9af3-ecc0a669c64d"},"vehicle_type_id":"4","last_reported":1729519735,"current_range_meters":38800,"station_id":"ce4bgj92rcd13ifvqbe0","pricing_plan_id":"cebpf4jnsgd1na2vs0mg"},{"bike_id":"885770ae-b853-4394-a684-176e815c24eb","system_id":"levelo_inurba_marseille","lat":43.31354,"lon":5.36718,"is_reserved":false,"is_disabled":false,"rental_uris":{"android":"levelo://app?vid=885770ae-b853-4394-a684-176e815c24eb","ios":"levelo://app?vid=885770ae-b853-4394-a684-176e815c24eb"},"vehicle_type_id":"4","last_reported":1729519735,"current_range_meters":17600,"station_id":"ce4bgr92rcd13ifvqc6g","pricing_plan_id":"cebpf4jnsgd1na2vs0mg"},{"bike_id":"ea4fc42c-f649-48b6-9895-3b26e16b9d90","system_id":"levelo_inurba_marseille","lat":43.28419,"lon":5.34998,"is_reserved":false,"is_disabled":false,"rental_uris":{"android":"levelo://app?vid=ea4fc42c-f649-48b6-9895-3b26e16b9d90","ios":"levelo://app?vid=ea4fc42c-f649-48b6-9895-3b26e16b9d90"},"vehicle_type_id":"4","last_reported":1729519735,"current_range_meters":26800,"station_id":"ce4bhbh2rcd13ifvqepg","pricing_plan_id":"cebpf4jnsgd1na2vs0mg"},{"bike_id":"c74392b4-5684-4add-9921-69201bef5dee","system_id":"levelo_inurba_marseille","lat":43.28425,"lon":5.34986,"is_reserved":false,"is_disabled":false,"rental_uris":{"android":"levelo://app?vid=c74392b4-5684-4add-9921-69201bef5dee","ios":"levelo://app?vid=c74392b4-5684-4add-9921-69201bef5dee"},"vehicle_type_id":"4","last_reported":1729519735,"current_range_meters":24000,"station_id":"ce4bhbh2rcd13ifvqepg","pricing_plan_id":"cebpf4jnsgd1na2vs0mg"},{"bike_id":"434d7f14-3dbb-41ee-bea3-4f1a7bf4fcb9","system_id":"levelo_inurba_marseille","lat":43.23149,"lon":5.43726,"is_reserved":false,"is_disabled":false,"rental_uris":{"android":"levelo://app?vid=434d7f14-3dbb-41ee-bea3-4f1a7bf4fcb9","ios":"levelo://app?vid=434d7f14-3dbb-41ee-bea3-4f1a7bf4fcb9"},"vehicle_type_id":"4","last_reported":1729519735,"current_range_meters":7200,"station_id":"ce4bhmp2rcd13ifvqgog","pricing_plan_id":"cebpf4jnsgd1na2vs0mg"},{"bike_id":"b98f85e5-78bd-4583-9201-5d84a6037942","system_id":"levelo_inurba_marseille","lat":43.24177,"lon":5.39733,"is_reserved":false,"is_disabled":false,"rental_uris":{"android":"levelo://app?vid=b98f85e5-78bd-4583-9201-5d84a6037942","ios":"levelo://app?vid=b98f85e5-78bd-4583-9201-5d84a6037942"},"vehicle_type_id":"4","last_reported":1729519735,"current_range_meters":16000,"station_id":"ce4bhn12rcd13ifvqgpg","pricing_plan_id":"cebpf4jnsgd1na2vs0mg"},{"bike_id":"ad380d01-3cb7-4db4-a153-5c707eb35acf","system_id":"levelo_inurba_marseille","lat":43.28274,"lon":5.35075,"is_reserved":false,"is_disabled":false,"rental_uris":{"android":"levelo://app?vid=ad380d01-3cb7-4db4-a153-5c707eb35acf","ios":"levelo://app?vid=ad380d01-3cb7-4db4-a153-5c707eb35acf"},"vehicle_type_id":"4","last_reported":1729519735,"current_range_meters":34000,"station_id":"ce4bhbp2rcd13ifvqerg","pricing_plan_id":"cebpf4jnsgd1na2vs0mg"},{"bike_id":"be841669-b191-4b64-9291-7b9e306b14f7","system_id":"levelo_inurba_marseille","lat":43.28452,"lon":5.35896,"is_reserved":false,"is_disabled":false,"rental_uris":{"android":"levelo://app?vid=be841669-b191-4b64-9291-7b9e306b14f7","ios":"levelo://app?vid=be841669-b191-4b64-9291-7b9e306b14f7"},"vehicle_type_id":"4","last_reported":1729519735,"current_range_meters":38000,"station_id":"ce4bhah2rcd13ifvqei0","pricing_plan_id":"cebpf4jnsgd1na2vs0mg"},{"bike_id":"ca0cea8e-b189-468a-9db1-188e42d6b033","system_id":"levelo_inurba_marseille","lat":43.26196,"lon":5.37449,"is_reserved":false,"is_disabled":false,"rental_uris":{"android":"levelo://app?vid=ca0cea8e-b189-468a-9db1-188e42d6b033","ios":"levelo://app?vid=ca0cea8e-b189-468a-9db1-188e42d6b033"},"vehicle_type_id":"4","last_reported":1729519735,"current_range_meters":22400,"station_id":"ce4bhgp2rcd13ifvqfc0","pricing_plan_id":"cebpf4jnsgd1na2vs0mg"},{"bike_id":"91675f0c-087b-4c33-9702-3d28326f14c2","system_id":"levelo_inurba_marseille","lat":43.26683,"lon":5.38272,"is_reserved":false,"is_disabled":false,"rental_uris":{"android":"levelo://app?vid=91675f0c-087b-4c33-9702-3d28326f14c2","ios":"levelo://app?vid=91675f0c-087b-4c33-9702-3d28326f14c2"},"vehicle_type_id":"4","last_reported":1729519735,"current_range_meters":36800,"station_id":"ce4bhg92rcd13ifvqf90","pricing_plan_id":"cebpf4jnsgd1na2vs0mg"},{"bike_id":"46e06c76-e16d-43b7-9714-f07be7c59c45","system_id":"levelo_inurba_marseille","lat":43.28268,"lon":5.35059,"is_reserved":false,"is_disabled":false,"rental_uris":{"android":"levelo://app?vid=46e06c76-e16d-43b7-9714-f07be7c59c45","ios":"levelo://app?vid=46e06c76-e16d-43b7-9714-f07be7c59c45"},"vehicle_type_id":"4","last_reported":1729519735,"current_range_meters":27600,"station_id":"ce4bhbp2rcd13ifvqerg","pricing_plan_id":"cebpf4jnsgd1na2vs0mg"},{"bike_id":"c29c256b-6759-471d-92bf-8689375b9fd5","system_id":"levelo_inurba_marseille","lat":43.30464,"lon":5.37902,"is_reserved":false,"is_disabled":false,"rental_uris":{"android":"levelo://app?vid=c29c256b-6759-471d-92bf-8689375b9fd5","ios":"levelo://app?vid=c29c256b-6759-471d-92bf-8689375b9fd5"},"vehicle_type_id":"4","last_reported":1729519735,"current_range_meters":23200,"station_id":"ce4bgup2rcd13ifvqcn0","pricing_plan_id":"cebpf4jnsgd1na2vs0mg"},{"bike_id":"80f46cd6-4267-4e9b-9b10-492b997f7652","system_id":"levelo_inurba_marseille","lat":43.28272,"lon":5.35071,"is_reserved":false,"is_disabled":false,"rental_uris":{"android":"levelo://app?vid=80f46cd6-4267-4e9b-9b10-492b997f7652","ios":"levelo://app?vid=80f46cd6-4267-4e9b-9b10-492b997f7652"},"vehicle_type_id":"4","last_reported":1729519735,"current_range_meters":24400,"station_id":"ce4bhbp2rcd13ifvqerg","pricing_plan_id":"cebpf4jnsgd1na2vs0mg"},{"bike_id":"71cf2155-ddf7-40ca-b88a-82b000d0d9be","system_id":"levelo_inurba_marseille","lat":43.30593,"lon":5.37228,"is_reserved":false,"is_disabled":false,"rental_uris":{"android":"levelo://app?vid=71cf2155-ddf7-40ca-b88a-82b000d0d9be","ios":"levelo://app?vid=71cf2155-ddf7-40ca-b88a-82b000d0d9be"},"vehicle_type_id":"4","last_reported":1729519735,"current_range_meters":39200,"station_id":"ce4bgqh2rcd13ifvqc4g","pricing_plan_id":"cebpf4jnsgd1na2vs0mg"},{"bike_id":"31f53761-22ae-42c1-8d64-bfc8688381ae","system_id":"levelo_inurba_marseille","lat":43.30608,"lon":5.3935,"is_reserved":false,"is_disabled":false,"rental_uris":{"android":"levelo://app?vid=31f53761-22ae-42c1-8d64-bfc8688381ae","ios":"levelo://app?vid=31f53761-22ae-42c1-8d64-bfc8688381ae"},"vehicle_type_id":"4","last_reported":1729519735,"current_range_meters":22800,"station_id":"ce4bh0p2rcd13ifvqd80","pricing_plan_id":"cebpf4jnsgd1na2vs0mg"},{"bike_id":"d550a8b1-91ee-4ca3-80b3-bfa83d423489","system_id":"levelo_inurba_marseille","lat":43.3132,"lon":5.39693,"is_reserved":false,"is_disabled":false,"rental_uris":{"android":"levelo://app?vid=d550a8b1-91ee-4ca3-80b3-bfa83d423489","ios":"levelo://app?vid=d550a8b1-91ee-4ca3-80b3-bfa83d423489"},"vehicle_type_id":"4","last_reported":1729519735,"current_range_meters":16000,"station_id":"ce4bgvp2rcd13ifvqcu0","pricing_plan_id":"cebpf4jnsgd1na2vs0mg"},{"bike_id":"3d3515c6-3841-438b-b85e-d20bfa5d7c7d","system_id":"levelo_inurba_marseille","lat":43.297096,"lon":5.366092,"is_reserved":false,"is_disabled":false,"rental_uris":{"android":"levelo://app?vid=3d3515c6-3841-438b-b85e-d20bfa5d7c7d","ios":"levelo://app?vid=3d3515c6-3841-438b-b85e-d20bfa5d7c7d"},"vehicle_type_id":"4","last_reported":1729519735,"current_range_meters":17200,"station_id":"ce4bh012rcd13ifvqcv0","pricing_plan_id":"cebpf4jnsgd1na2vs0mg"},{"bike_id":"91384f84-5f21-4522-b600-042a7c716b0d","system_id":"levelo_inurba_marseille","lat":43.30547,"lon":5.3844,"is_reserved":false,"is_disabled":false,"rental_uris":{"android":"levelo://app?vid=91384f84-5f21-4522-b600-042a7c716b0d","ios":"levelo://app?vid=91384f84-5f21-4522-b600-042a7c716b0d"},"vehicle_type_id":"4","last_reported":1729519735,"current_range_meters":14800,"station_id":"ce4bgg92rcd13ifvqb30","pricing_plan_id":"cebpf4jnsgd1na2vs0mg"},{"bike_id":"9aa7860b-05b5-4a1c-b981-577e8c779bb6","system_id":"levelo_inurba_marseille","lat":43.30465,"lon":5.37909,"is_reserved":false,"is_disabled":false,"rental_uris":{"android":"levelo://app?vid=9aa7860b-05b5-4a1c-b981-577e8c779bb6","ios":"levelo://app?vid=9aa7860b-05b5-4a1c-b981-577e8c779bb6"},"vehicle_type_id":"4","last_reported":1729519735,"current_range_meters":32400,"station_id":"ce4bgup2rcd13ifvqcn0","pricing_plan_id":"cebpf4jnsgd1na2vs0mg"},{"bike_id":"351f9467-ddaa-45d9-ae1e-a92ccc6417d0","system_id":"levelo_inurba_marseille","lat":43.24812,"lon":5.37456,"is_reserved":false,"is_disabled":false,"rental_uris":{"android":"levelo://app?vid=351f9467-ddaa-45d9-ae1e-a92ccc6417d0","ios":"levelo://app?vid=351f9467-ddaa-45d9-ae1e-a92ccc6417d0"},"vehicle_type_id":"4","last_reported":1729519735,"current_range_meters":30400,"station_id":"ce4bhgh2rcd13ifvqfb0","pricing_plan_id":"cebpf4jnsgd1na2vs0mg"},{"bike_id":"12423a06-cc58-4063-95aa-4c1d515d3a3b","system_id":"levelo_inurba_marseille","lat":43.26809,"lon":5.4027,"is_reserved":false,"is_disabled":false,"rental_uris":{"android":"levelo://app?vid=12423a06-cc58-4063-95aa-4c1d515d3a3b","ios":"levelo://app?vid=12423a06-cc58-4063-95aa-4c1d515d3a3b"},"vehicle_type_id":"4","last_reported":1729519735,"current_range_meters":30400,"station_id":"ce501612rcd8frsf0b60","pricing_plan_id":"cebpf4jnsgd1na2vs0mg"},{"bike_id":"f6f55f72-1de4-43fe-9616-166aa83f3c58","system_id":"levelo_inurba_marseille","lat":43.28153,"lon":5.42642,"is_reserved":false,"is_disabled":false,"rental_uris":{"android":"levelo://app?vid=f6f55f72-1de4-43fe-9616-166aa83f3c58","ios":"levelo://app?vid=f6f55f72-1de4-43fe-9616-166aa83f3c58"},"vehicle_type_id":"4","last_reported":1729519735,"current_range_meters":6400,"station_id":"ce4bhnh2rcd13ifvqgug","pricing_plan_id":"cebpf4jnsgd1na2vs0mg"},{"bike_id":"3dfa4c7b-c5a2-45dd-82f7-30493b21c412","system_id":"levelo_inurba_marseille","lat":43.29798,"lon":5.40397,"is_reserved":false,"is_disabled":false,"rental_uris":{"android":"levelo://app?vid=3dfa4c7b-c5a2-45dd-82f7-30493b21c412","ios":"levelo://app?vid=3dfa4c7b-c5a2-45dd-82f7-30493b21c412"},"vehicle_type_id":"4","last_reported":1729519735,"current_range_meters":26800,"station_id":"ce4bh112rcd13ifvqd90","pricing_plan_id":"cebpf4jnsgd1na2vs0mg"},{"bike_id":"078166a6-9998-4425-952b-93c3a6600758","system_id":"levelo_inurba_marseille","lat":43.25868,"lon":5.39895,"is_reserved":false,"is_disabled":false,"rental_uris":{"android":"levelo://app?vid=078166a6-9998-4425-952b-93c3a6600758","ios":"levelo://app?vid=078166a6-9998-4425-952b-93c3a6600758"},"vehicle_type_id":"4","last_reported":1729519735,"current_range_meters":30000,"station_id":"ce4bhl92rcd13ifvqghg","pricing_plan_id":"cebpf4jnsgd1na2vs0mg"},{"bike_id":"f507cd56-95de-4112-bac0-3688235425a1","system_id":"levelo_inurba_marseille","lat":43.2408,"lon":5.3775,"is_reserved":false,"is_disabled":false,"rental_uris":{"android":"levelo://app?vid=f507cd56-95de-4112-bac0-3688235425a1","ios":"levelo://app?vid=f507cd56-95de-4112-bac0-3688235425a1"},"vehicle_type_id":"4","last_reported":1729519735,"current_range_meters":4400,"station_id":"ce4bhnp2rcd13ifvqgvg","pricing_plan_id":"cebpf4jnsgd1na2vs0mg"},{"bike_id":"279b59b9-41ca-48a4-ad84-a4c4e4a6b455","system_id":"levelo_inurba_marseille","lat":43.28406,"lon":5.34992,"is_reserved":false,"is_disabled":false,"rental_uris":{"android":"levelo://app?vid=279b59b9-41ca-48a4-ad84-a4c4e4a6b455","ios":"levelo://app?vid=279b59b9-41ca-48a4-ad84-a4c4e4a6b455"},"vehicle_type_id":"4","last_reported":1729519735,"current_range_meters":22400,"station_id":"ce4bhbh2rcd13ifvqepg","pricing_plan_id":"cebpf4jnsgd1na2vs0mg"},{"bike_id":"80949a95-ee7a-4d69-92e6-293afad67cb0","system_id":"levelo_inurba_marseille","lat":43.26901,"lon":5.42505,"is_reserved":false,"is_disabled":false,"rental_uris":{"android":"levelo://app?vid=80949a95-ee7a-4d69-92e6-293afad67cb0","ios":"levelo://app?vid=80949a95-ee7a-4d69-92e6-293afad67cb0"},"vehicle_type_id":"4","last_reported":1729519735,"current_range_meters":30400,"station_id":"","pricing_plan_id":"cebpf4jnsgd1na2vs0mg"},{"bike_id":"500ad0d4-3f89-40f2-adab-1e6110ec377c","system_id":"levelo_inurba_marseille","lat":43.32483,"lon":5.36564,"is_reserved":false,"is_disabled":false,"rental_uris":{"android":"levelo://app?vid=500ad0d4-3f89-40f2-adab-1e6110ec377c","ios":"levelo://app?vid=500ad0d4-3f89-40f2-adab-1e6110ec377c"},"vehicle_type_id":"4","last_reported":1729519735,"current_range_meters":40000,"station_id":"ce4bhs12rcd13ifvqhvg","pricing_plan_id":"cebpf4jnsgd1na2vs0mg"},{"bike_id":"c33d29c7-6761-4ecf-a256-1786246c91b3","system_id":"levelo_inurba_marseille","lat":43.23153,"lon":5.43707,"is_reserved":false,"is_disabled":false,"rental_uris":{"android":"levelo://app?vid=c33d29c7-6761-4ecf-a256-1786246c91b3","ios":"levelo://app?vid=c33d29c7-6761-4ecf-a256-1786246c91b3"},"vehicle_type_id":"4","last_reported":1729519735,"current_range_meters":38800,"station_id":"ce4bhmp2rcd13ifvqgog","pricing_plan_id":"cebpf4jnsgd1na2vs0mg"},{"bike_id":"586c981b-51f6-4859-a43e-098987459617","system_id":"levelo_inurba_marseille","lat":43.23194,"lon":5.3556,"is_reserved":false,"is_disabled":false,"rental_uris":{"android":"levelo://app?vid=586c981b-51f6-4859-a43e-098987459617","ios":"levelo://app?vid=586c981b-51f6-4859-a43e-098987459617"},"vehicle_type_id":"4","last_reported":1729519735,"current_range_meters":38800,"station_id":"ce4bhu92rcd13ifvqi70","pricing_plan_id":"cebpf4jnsgd1na2vs0mg"},{"bike_id":"e868d24d-a495-4582-a68d-fd804fa4e77b","system_id":"levelo_inurba_marseille","lat":43.22927,"lon":5.35376,"is_reserved":false,"is_disabled":false,"rental_uris":{"android":"levelo://app?vid=e868d24d-a495-4582-a68d-fd804fa4e77b","ios":"levelo://app?vid=e868d24d-a495-4582-a68d-fd804fa4e77b"},"vehicle_type_id":"4","last_reported":1729519735,"current_range_meters":36400,"station_id":"cpo3532slgdg3j2ikp40","pricing_plan_id":"cebpf4jnsgd1na2vs0mg"},{"bike_id":"a528fb35-2b84-40e9-b18f-b7a0ca40d586","system_id":"levelo_inurba_marseille","lat":43.30548,"lon":5.36561,"is_reserved":false,"is_disabled":false,"rental_uris":{"android":"levelo://app?vid=a528fb35-2b84-40e9-b18f-b7a0ca40d586","ios":"levelo://app?vid=a528fb35-2b84-40e9-b18f-b7a0ca40d586"},"vehicle_type_id":"4","last_reported":1729519735,"current_range_meters":14800,"station_id":"ce4bgs12rcd13ifvqcag","pricing_plan_id":"cebpf4jnsgd1na2vs0mg"},{"bike_id":"c690be2a-4e2d-493c-b04b-bc28e20a31d9","system_id":"levelo_inurba_marseille","lat":43.24386,"lon":5.37054,"is_reserved":false,"is_disabled":false,"rental_uris":{"android":"levelo://app?vid=c690be2a-4e2d-493c-b04b-bc28e20a31d9","ios":"levelo://app?vid=c690be2a-4e2d-493c-b04b-bc28e20a31d9"},"vehicle_type_id":"4","last_reported":1729519735,"current_range_meters":30800,"station_id":"ce4bhhh2rcd13ifvqfk0","pricing_plan_id":"cebpf4jnsgd1na2vs0mg"},{"bike_id":"cab317a4-cbf0-4a5b-82d5-42d3930f1c61","system_id":"levelo_inurba_marseille","lat":43.29227,"lon":5.36052,"is_reserved":false,"is_disabled":false,"rental_uris":{"android":"levelo://app?vid=cab317a4-cbf0-4a5b-82d5-42d3930f1c61","ios":"levelo://app?vid=cab317a4-cbf0-4a5b-82d5-42d3930f1c61"},"vehicle_type_id":"4","last_reported":1729519735,"current_range_meters":27600,"station_id":"ce4bhbh2rcd13ifvqeqg","pricing_plan_id":"cebpf4jnsgd1na2vs0mg"},{"bike_id":"3c2865d8-a8e2-4975-96ba-988855dd188f","system_id":"levelo_inurba_marseille","lat":43.26803,"lon":5.40276,"is_reserved":false,"is_disabled":false,"rental_uris":{"android":"levelo://app?vid=3c2865d8-a8e2-4975-96ba-988855dd188f","ios":"levelo://app?vid=3c2865d8-a8e2-4975-96ba-988855dd188f"},"vehicle_type_id":"4","last_reported":1729519735,"current_range_meters":14000,"station_id":"ce501612rcd8frsf0b60","pricing_plan_id":"cebpf4jnsgd1na2vs0mg"},{"bike_id":"a65bd1da-3721-4f1e-ba04-b2194587e72c","system_id":"levelo_inurba_marseille","lat":43.28152,"lon":5.42647,"is_reserved":false,"is_disabled":false,"rental_uris":{"android":"levelo://app?vid=a65bd1da-3721-4f1e-ba04-b2194587e72c","ios":"levelo://app?vid=a65bd1da-3721-4f1e-ba04-b2194587e72c"},"vehicle_type_id":"4","last_reported":1729519735,"current_range_meters":8800,"station_id":"ce4bhnh2rcd13ifvqgug","pricing_plan_id":"cebpf4jnsgd1na2vs0mg"},{"bike_id":"550a7b11-639f-4c0e-9f32-664ca893be7e","system_id":"levelo_inurba_marseille","lat":43.296748,"lon":5.372942,"is_reserved":false,"is_disabled":false,"rental_uris":{"android":"levelo://app?vid=550a7b11-639f-4c0e-9f32-664ca893be7e","ios":"levelo://app?vid=550a7b11-639f-4c0e-9f32-664ca893be7e"},"vehicle_type_id":"4","last_reported":1729519735,"current_range_meters":36800,"station_id":"ce4bgk12rcd13ifvqbj0","pricing_plan_id":"cebpf4jnsgd1na2vs0mg"},{"bike_id":"5e31f06f-412c-494e-abfc-5a309102e740","system_id":"levelo_inurba_marseille","lat":43.28408,"lon":5.37507,"is_reserved":false,"is_disabled":false,"rental_uris":{"android":"levelo://app?vid=5e31f06f-412c-494e-abfc-5a309102e740","ios":"levelo://app?vid=5e31f06f-412c-494e-abfc-5a309102e740"},"vehicle_type_id":"4","last_reported":1729519735,"current_range_meters":22400,"station_id":"ce4bh412rcd13ifvqds0","pricing_plan_id":"cebpf4jnsgd1na2vs0mg"},{"bike_id":"07132f27-7008-4a45-a543-b330019e78b0","system_id":"levelo_inurba_marseille","lat":43.29064,"lon":5.37175,"is_reserved":false,"is_disabled":false,"rental_uris":{"android":"levelo://app?vid=07132f27-7008-4a45-a543-b330019e78b0","ios":"levelo://app?vid=07132f27-7008-4a45-a543-b330019e78b0"},"vehicle_type_id":"4","last_reported":1729519735,"current_range_meters":38000,"station_id":"ce4bh5p2rcd13ifvqe4g","pricing_plan_id":"cebpf4jnsgd1na2vs0mg"},{"bike_id":"3676a773-026d-4bc0-8509-953965fa407c","system_id":"levelo_inurba_marseille","lat":43.3248,"lon":5.36561,"is_reserved":false,"is_disabled":false,"rental_uris":{"android":"levelo://app?vid=3676a773-026d-4bc0-8509-953965fa407c","ios":"levelo://app?vid=3676a773-026d-4bc0-8509-953965fa407c"},"vehicle_type_id":"4","last_reported":1729519735,"current_range_meters":38800,"station_id":"ce4bhs12rcd13ifvqhvg","pricing_plan_id":"cebpf4jnsgd1na2vs0mg"},{"bike_id":"05853def-8ea4-472c-85c9-5b0bef7ab75c","system_id":"levelo_inurba_marseille","lat":43.26802,"lon":5.40271,"is_reserved":false,"is_disabled":false,"rental_uris":{"android":"levelo://app?vid=05853def-8ea4-472c-85c9-5b0bef7ab75c","ios":"levelo://app?vid=05853def-8ea4-472c-85c9-5b0bef7ab75c"},"vehicle_type_id":"4","last_reported":1729519735,"current_range_meters":33600,"station_id":"ce501612rcd8frsf0b60","pricing_plan_id":"cebpf4jnsgd1na2vs0mg"},{"bike_id":"e0125e46-c0db-47bb-95d3-8e763eb64402","system_id":"levelo_inurba_marseille","lat":43.29552,"lon":5.42289,"is_reserved":false,"is_disabled":false,"rental_uris":{"android":"levelo://app?vid=e0125e46-c0db-47bb-95d3-8e763eb64402","ios":"levelo://app?vid=e0125e46-c0db-47bb-95d3-8e763eb64402"},"vehicle_type_id":"4","last_reported":1729519735,"current_range_meters":32400,"station_id":"ce4bhph2rcd13ifvqhdg","pricing_plan_id":"cebpf4jnsgd1na2vs0mg"},{"bike_id":"5990ff67-62ff-4463-9c0f-7b06088c5929","system_id":"levelo_inurba_marseille","lat":43.25932,"lon":5.40914,"is_reserved":false,"is_disabled":false,"rental_uris":{"android":"levelo://app?vid=5990ff67-62ff-4463-9c0f-7b06088c5929","ios":"levelo://app?vid=5990ff67-62ff-4463-9c0f-7b06088c5929"},"vehicle_type_id":"4","last_reported":1729519735,"current_range_meters":32000,"station_id":"ce4bhm92rcd13ifvqglg","pricing_plan_id":"cebpf4jnsgd1na2vs0mg"},{"bike_id":"0c721b5b-eccf-4425-b3f0-12b04d9408ed","system_id":"levelo_inurba_marseille","lat":43.23194,"lon":5.35551,"is_reserved":false,"is_disabled":false,"rental_uris":{"android":"levelo://app?vid=0c721b5b-eccf-4425-b3f0-12b04d9408ed","ios":"levelo://app?vid=0c721b5b-eccf-4425-b3f0-12b04d9408ed"},"vehicle_type_id":"4","last_reported":1729519735,"current_range_meters":9200,"station_id":"ce4bhu92rcd13ifvqi70","pricing_plan_id":"cebpf4jnsgd1na2vs0mg"},{"bike_id":"315b01df-cfb9-4ce0-9c7e-9e27b53002e3","system_id":"levelo_inurba_marseille","lat":43.27206,"lon":5.39185,"is_reserved":false,"is_disabled":false,"rental_uris":{"android":"levelo://app?vid=315b01df-cfb9-4ce0-9c7e-9e27b53002e3","ios":"levelo://app?vid=315b01df-cfb9-4ce0-9c7e-9e27b53002e3"},"vehicle_type_id":"4","last_reported":1729519735,"current_range_meters":20000,"station_id":"ce4bhhp2rcd13ifvqfm0","pricing_plan_id":"cebpf4jnsgd1na2vs0mg"},{"bike_id":"493c4881-335c-4cff-adc1-1256a4e491e1","system_id":"levelo_inurba_marseille","lat":43.28834,"lon":5.39323,"is_reserved":false,"is_disabled":false,"rental_uris":{"android":"levelo://app?vid=493c4881-335c-4cff-adc1-1256a4e491e1","ios":"levelo://app?vid=493c4881-335c-4cff-adc1-1256a4e491e1"},"vehicle_type_id":"4","last_reported":1729519735,"current_range_meters":38800,"station_id":"ce4bh2p2rcd13ifvqdi0","pricing_plan_id":"cebpf4jnsgd1na2vs0mg"},{"bike_id":"449d3e57-9e36-4791-8120-754a2b6cceb1","system_id":"levelo_inurba_marseille","lat":43.30547,"lon":5.36723,"is_reserved":false,"is_disabled":false,"rental_uris":{"android":"levelo://app?vid=449d3e57-9e36-4791-8120-754a2b6cceb1","ios":"levelo://app?vid=449d3e57-9e36-4791-8120-754a2b6cceb1"},"vehicle_type_id":"4","last_reported":1729519735,"current_range_meters":38800,"station_id":"ce4bgrp2rcd13ifvqc9g","pricing_plan_id":"cebpf4jnsgd1na2vs0mg"},{"bike_id":"59c76784-74a8-4046-bed5-3096ac87c4a1","system_id":"levelo_inurba_marseille","lat":43.24074,"lon":5.37765,"is_reserved":false,"is_disabled":false,"rental_uris":{"android":"levelo://app?vid=59c76784-74a8-4046-bed5-3096ac87c4a1","ios":"levelo://app?vid=59c76784-74a8-4046-bed5-3096ac87c4a1"},"vehicle_type_id":"4","last_reported":1729519735,"current_range_meters":37600,"station_id":"ce4bhnp2rcd13ifvqgvg","pricing_plan_id":"cebpf4jnsgd1na2vs0mg"},{"bike_id":"dd9b1644-b4de-4779-acd4-c609f3675d47","system_id":"levelo_inurba_marseille","lat":43.31353,"lon":5.36716,"is_reserved":false,"is_disabled":false,"rental_uris":{"android":"levelo://app?vid=dd9b1644-b4de-4779-acd4-c609f3675d47","ios":"levelo://app?vid=dd9b1644-b4de-4779-acd4-c609f3675d47"},"vehicle_type_id":"4","last_reported":1729519735,"current_range_meters":36400,"station_id":"ce4bgr92rcd13ifvqc6g","pricing_plan_id":"cebpf4jnsgd1na2vs0mg"},