{"last_updated":1761905499,"ttl":60,"version":"2.2","data":{"bikes":[{"bike_id":"38ebd87b-3e30-49cc-9057-2db2d1f9303f","system_id":"levelo_inurba_marseille","lat":43.28485,"lon":5.38419,"is_reserved":false,"is_disabled":false,"rental_uris":{"android":"levelo://app?vid=38ebd87b-3e30-49cc-9057-2db2d1f9303f","ios":"levelo://app?vid=38ebd87b-3e30-49cc-9057-2db2d1f9303f"},"vehicle_type_id":"4","last_reported":1761905499,"current_range_meters":2800,"station_id":"ce4bh512rcd13ifvqe3g","pricing_plan_id":"cebpf4jnsgd1na2vs0mg"},{"bike_id":"c9bbbe66-5295-42b8-9eb7-b5d1aef64711","system_id":"levelo_inurba_marseille","lat":43.29066,"lon":5.3716,"is_reserved":false,"is_disabled":false,"rental_uris":{"android":"levelo://app?vid=c9bbbe66-5295-42b8-9eb7-b5d1aef64711","ios":"levelo://app?vid=c9bbbe66-5295-42b8-9eb7-b5d1aef64711"},"vehicle_type_id":"4","last_reported":1761905499,"current_range_meters":2800,"station_id":"ce4bh5p2rcd13ifvqe4g","pricing_plan_id":"cebpf4jnsgd1na2vs0mg"},{"bike_id":"78ab7296-4ddd-487b-a763-2f66486f26d1","system_id":"levelo_inurba_marseille","lat":43.27207,"lon":5.39185,"is_reserved":false,"is_disabled":false,"rental_uris":{"android":"levelo://app?vid=78ab7296-4ddd-487b-a763-2f66486f26d1","ios":"levelo://app?vid=78ab7296-4ddd-487b-a763-2f66486f26d1"},"vehicle_type_id":"4","last_reported":1761905499,"current_range_meters":2800,"station_id":"ce4bhhp2rcd13ifvqfm0","pricing_plan_id":"cebpf4jnsgd1na2vs0mg"},{"bike_id":"43c05fb9-ce0e-4519-8489-5694fad4eaa2","system_id":"levelo_inurba_marseille","lat":43.33019,"lon":5.39029,"is_reserved":false,"is_disabled":false,"rental_uris":{"android":"levelo://app?vid=43c05fb9-ce0e-4519-8489-5694fad4eaa2","ios":"levelo://app?vid=43c05fb9-ce0e-4519-8489-5694fad4eaa2"},"vehicle_type_id":"4","last_reported":1761905499,"current_range_meters":2800,"station_id":"ce4bhr92rcd13ifvqhrg","pricing_plan_id":"cebpf4jnsgd1na2vs0mg"},{"bike_id":"c6698ab8-b9c1-4ef6-8d1d-6b190a79e8e9","system_id":"levelo_inurba_marseille","lat":43.30943,"lon":5.37282,"is_reserved":false,"is_disabled":false,"rental_uris":{"android":"levelo://app?vid=c6698ab8-b9c1-4ef6-8d1d-6b190a79e8e9","ios":"levelo://app?vid=c6698ab8-b9c1-4ef6-8d1d-6b190a79e8e9"},"vehicle_type_id":"4","last_reported":1761905499,"current_range_meters":3200,"station_id":"","pricing_plan_id":"cebpf4jnsgd1na2vs0mg"},{"bike_id":"e85dc3bf-df6a-446b-914b-75189d622bbb","system_id":"levelo_inurba_marseille","lat":43.30173,"lon":5.38587,"is_reserved":false,"is_disabled":false,"rental_uris":{"android":"levelo://app?vid=e85dc3bf-df6a-446b-914b-75189d622bbb","ios":"levelo://app?vid=e85dc3bf-df6a-446b-914b-75189d622bbb"},"vehicle_type_id":"4","last_reported":1761905499,"current_range_meters":3200,"station_id":"","pricing_plan_id":"cebpf4jnsgd1na2vs0mg"},{"bike_id":"8f6fad79-7b94-4c8b-bd01-e2d9c2f95872","system_id":"levelo_inurba_marseille","lat":43.27615,"lon":5.36114,"is_reserved":false,"is_disabled":false,"rental_uris":{"android":"levelo://app?vid=8f6fad79-7b94-4c8b-bd01-e2d9c2f95872","ios":"levelo://app?vid=8f6fad79-7b94-4c8b-bd01-e2d9c2f95872"},"vehicle_type_id":"4","last_reported":1761905499,"current_range_meters":3200,"station_id":"ce4bgj92rcd13ifvqbe0","pricing_plan_id":"cebpf4jnsgd1na2vs0mg"},{"bike_id":"4bb95b71-180d-4ac1-b801-803ba277d642","system_id":"levelo_inurba_marseille","lat":43.30952,"lon":5.39037,"is_reserved":false,"is_disabled":false,"rental_uris":{"android":"levelo://app?vid=4bb95b71-180d-4ac1-b801-803ba277d642","ios":"levelo://app?vid=4bb95b71-180d-4ac1-b801-803ba277d642"},"vehicle_type_id":"4","last_reported":1761905499,"current_range_meters":3600,"station_id":"ce4bgup2rcd13ifvqco0","pricing_plan_id":"cebpf4jnsgd1na2vs0mg"},{"bike_id":"229fd478-eadd-44ab-88f2-e1b988282303","system_id":"levelo_inurba_marseille","lat":43.28666,"lon":5.36347,"is_reserved":false,"is_disabled":false,"rental_uris":{"android":"levelo://app?vid=229fd478-eadd-44ab-88f2-e1b988282303","ios":"levelo://app?vid=229fd478-eadd-44ab-88f2-e1b988282303"},"vehicle_type_id":"4","last_reported":1761905499,"current_range_meters":4400,"station_id":"ce4bhah2rcd13ifvqej0","pricing_plan_id":"cebpf4jnsgd1na2vs0mg"},{"bike_id":"1db84d95-0f1c-4827-8f9a-4e1a2f5a09b5","system_id":"levelo_inurba_marseille","lat":43.27566,"lon":5.38418,"is_reserved":false,"is_disabled":false,"rental_uris":{"android":"levelo://app?vid=1db84d95-0f1c-4827-8f9a-4e1a2f5a09b5","ios":"levelo://app?vid=1db84d95-0f1c-4827-8f9a-4e1a2f5a09b5"},"vehicle_type_id":"4","last_reported":1761905499,"current_range_meters":4400,"station_id":"ce4bhh92rcd13ifvqfi0","pricing_plan_id":"cebpf4jnsgd1na2vs0mg"},{"bike_id":"b194e015-2b99-4311-80aa-3902c944846e","system_id":"levelo_inurba_marseille","lat":43.289668,"lon":5.378281,"is_reserved":false,"is_disabled":true,"rental_uris":{"android":"levelo://app?vid=b194e015-2b99-4311-80aa-3902c944846e","ios":"levelo://app?vid=b194e015-2b99-4311-80aa-3902c944846e"},"vehicle_type_id":"4","last_reported":1761905499,"current_range_meters":4800,"station_id":"","pricing_plan_id":"cebpf4jnsgd1na2vs0mg"},{"bike_id":"7e7dd49a-41a0-44b0-a24d-4ff534903d53","system_id":"levelo_inurba_marseille","lat":43.30089,"lon":5.39078,"is_reserved":false,"is_disabled":false,"rental_uris":{"android":"levelo://app?vid=7e7dd49a-41a0-44b0-a24d-4ff534903d53","ios":"levelo://app?vid=7e7dd49a-41a0-44b0-a24d-4ff534903d53"},"vehicle_type_id":"4","last_reported":1761905499,"current_range_meters":5600,"station_id":"ce4bh192rcd13ifvqdb0","pricing_plan_id":"cebpf4jnsgd1na2vs0mg"},{"bike_id":"c54f064c-51c8-4575-bcd7-0daf257ae073","system_id":"levelo_inurba_marseille","lat":43.265601,"lon":5.403202,"is_reserved":false,"is_disabled":false,"rental_uris":{"android":"levelo://app?vid=c54f064c-51c8-4575-bcd7-0daf257ae073","ios":"levelo://app?vid=c54f064c-51c8-4575-bcd7-0daf257ae073"},"vehicle_type_id":"4","last_reported":1761905499,"current_range_meters":6000,"station_id":"ce4bhmp2rcd13ifvqgng","pricing_plan_id":"cebpf4jnsgd1na2vs0mg"},{"bike_id":"faee4aed-34d1-4e59-9f3e-bc2337688920","system_id":"levelo_inurba_marseille","lat":43.317065,"lon":5.436966,"is_reserved":false,"is_disabled":true,"rental_uris":{"android":"levelo://app?vid=faee4aed-34d1-4e59-9f3e-bc2337688920","ios":"levelo://app?vid=faee4aed-34d1-4e59-9f3e-bc2337688920"},"vehicle_type_id":"4","last_reported":1761905499,"current_range_meters":6000,"station_id":"ce4bhp92rcd13ifvqhcg","pricing_plan_id":"cebpf4jnsgd1na2vs0mg"},{"bike_id":"e2ce2f98-2506-47a8-be9c-841cd1dcd8cb","system_id":"levelo_inurba_marseille","lat":43.2175,"lon":5.34608,"is_reserved":false,"is_disabled":true,"rental_uris":{"android":"levelo://app?vid=e2ce2f98-2506-47a8-be9c-841cd1dcd8cb","ios":"levelo://app?vid=e2ce2f98-2506-47a8-be9c-841cd1dcd8cb"},"vehicle_type_id":"4","last_reported":1761905499,"current_range_meters":6400,"station_id":"","pricing_plan_id":"cebpf4jnsgd1na2vs0mg"},{"bike_id":"80cde17b-197a-4666-8e1e-92c981f7a2d9","system_id":"levelo_inurba_marseille","lat":43.295511,"lon":5.423054,"is_reserved":false,"is_disabled":false,"rental_uris":{"android":"levelo://app?vid=80cde17b-197a-4666-8e1e-92c981f7a2d9","ios":"levelo://app?vid=80cde17b-197a-4666-8e1e-92c981f7a2d9"},"vehicle_type_id":"4","last_reported":1761905499,"current_range_meters":6400,"station_id":"ce4bhph2rcd13ifvqhdg","pricing_plan_id":"cebpf4jnsgd1na2vs0mg"},{"bike_id":"3e7fe5f5-b8e6-49ad-8f96-0a50f1444222","system_id":"levelo_inurba_marseille","lat":43.27309,"lon":5.39063,"is_reserved":false,"is_disabled":false,"rental_uris":{"android":"levelo://app?vid=3e7fe5f5-b8e6-49ad-8f96-0a50f1444222","ios":"levelo://app?vid=3e7fe5f5-b8e6-49ad-8f96-0a50f1444222"},"vehicle_type_id":"4","last_reported":1761905499,"current_range_meters":6800,"station_id":"ce4bhgp2rcd13ifvqfe0","pricing_plan_id":"cebpf4jnsgd1na2vs0mg"},{"bike_id":"46f3e991-c55b-4d9d-9a37-f9e3e15f4f3f","system_id":"levelo_inurba_marseille","lat":43.21201,"lon":5.35067,"is_reserved":false,"is_disabled":false,"rental_uris":{"android":"levelo://app?vid=46f3e991-c55b-4d9d-9a37-f9e3e15f4f3f","ios":"levelo://app?vid=46f3e991-c55b-4d9d-9a37-f9e3e15f4f3f"},"vehicle_type_id":"4","last_reported":1761905499,"current_range_meters":6800,"station_id":"st_cvj6sg6p6f1abm77japg","pricing_plan_id":"cebpf4jnsgd1na2vs0mg"},{"bike_id":"68544b32-289e-4ac6-b3c2-d1a7ccedd12e","system_id":"levelo_inurba_marseille","lat":43.2919,"lon":5.35815,"is_reserved":false,"is_disabled":false,"rental_uris":{"android":"levelo://app?vid=68544b32-289e-4ac6-b3c2-d1a7ccedd12e","ios":"levelo://app?vid=68544b32-289e-4ac6-b3c2-d1a7ccedd12e"},"vehicle_type_id":"4","last_reported":1761905499,"current_range_meters":6800,"station_id":"ce4bhb12rcd13ifvqel0","pricing_plan_id":"cebpf4jnsgd1na2vs0mg"},{"bike_id":"1bdb0524-fd2f-434a-9e83-4b7a1a09b5bb","system_id":"levelo_inurba_marseille","lat":43.33402,"lon":5.41116,"is_reserved":false,"is_disabled":false,"rental_uris":{"android":"levelo://app?vid=1bdb0524-fd2f-434a-9e83-4b7a1a09b5bb","ios":"levelo://app?vid=1bdb0524-fd2f-434a-9e83-4b7a1a09b5bb"},"vehicle_type_id":"4","last_reported":1761905499,"current_range_meters":6800,"station_id":"","pricing_plan_id":"cebpf4jnsgd1na2vs0mg"},{"bike_id":"04fe2dca-f400-44e4-a4be-a6f20a0268a6","system_id":"levelo_inurba_marseille","lat":43.32486,"lon":5.36584,"is_reserved":false,"is_disabled":false,"rental_uris":{"android":"levelo://app?vid=04fe2dca-f400-44e4-a4be-a6f20a0268a6","ios":"levelo://app?vid=04fe2dca-f400-44e4-a4be-a6f20a0268a6"},"vehicle_type_id":"4","last_reported":1761905499,"current_range_meters":6800,"station_id":"ce4bhs12rcd13ifvqhvg","pricing_plan_id":"cebpf4jnsgd1na2vs0mg"},{"bike_id":"4042a8e6-9f9d-4750-97a0-8691b363476d","system_id":"levelo_inurba_marseille","lat":43.28853,"lon":5.39648,"is_reserved":false,"is_disabled":false,"rental_uris":{"android":"levelo://app?vid=4042a8e6-9f9d-4750-97a0-8691b363476d","ios":"levelo://app?vid=4042a8e6-9f9d-4750-97a0-8691b363476d"},"vehicle_type_id":"4","last_reported":1761905499,"current_range_meters":7200,"station_id":"","pricing_plan_id":"cebpf4jnsgd1na2vs0mg"},{"bike_id":"fcab4ddf-7c9a-4832-a957-af763c1f4abb","system_id":"levelo_inurba_marseille","lat":43.303754,"lon":5.424958,"is_reserved":false,"is_disabled":true,"rental_uris":{"android":"levelo://app?vid=fcab4ddf-7c9a-4832-a957-af763c1f4abb","ios":"levelo://app?vid=fcab4ddf-7c9a-4832-a957-af763c1f4abb"},"vehicle_type_id":"4","last_reported":1761905499,"current_range_meters":7200,"station_id":"","pricing_plan_id":"cebpf4jnsgd1na2vs0mg"},{"bike_id":"51024fd0-c347-48fc-aeb0-c183df2ce438","system_id":"levelo_inurba_marseille","lat":43.27822,"lon":5.40735,"is_reserved":false,"is_disabled":false,"rental_uris":{"android":"levelo://app?vid=51024fd0-c347-48fc-aeb0-c183df2ce438","ios":"levelo://app?vid=51024fd0-c347-48fc-aeb0-c183df2ce438"},"vehicle_type_id":"4","last_reported":1761905499,"current_range_meters":7200,"station_id":"ce4bhnh2rcd13ifvqgtg","pricing_plan_id":"cebpf4jnsgd1na2vs0mg"},{"bike_id":"3a217d2d-0c7e-4d79-a702-b9135e90946e","system_id":"levelo_inurba_marseille","lat":43.28147,"lon":5.42622,"is_reserved":false,"is_disabled":true,"rental_uris":{"android":"levelo://app?vid=3a217d2d-0c7e-4d79-a702-b9135e90946e","ios":"levelo://app?vid=3a217d2d-0c7e-4d79-a702-b9135e90946e"},"vehicle_type_id":"4","last_reported":1761905499,"current_range_meters":7200,"station_id":"ce4bhnh2rcd13ifvqgug","pricing_plan_id":"cebpf4jnsgd1na2vs0mg"},{"bike_id":"d544a5bf-8e56-4dcc-8e04-c6d8b3b06186","system_id":"levelo_inurba_marseille","lat":43.29833,"lon":5.36265,"is_reserved":false,"is_disabled":false,"rental_uris":{"android":"levelo://app?vid=d544a5bf-8e56-4dcc-8e04-c6d8b3b06186","ios":"levelo://app?vid=d544a5bf-8e56-4dcc-8e04-c6d8b3b06186"},"vehicle_type_id":"4","last_reported":1761905499,"current_range_meters":7200,"station_id":"ce4bgpp2rcd13ifvqc3g","pricing_plan_id":"cebpf4jnsgd1na2vs0mg"},{"bike_id":"6fff56e2-dc33-4322-9554-e738206d1bc0","system_id":"levelo_inurba_marseille","lat":43.21212,"lon":5.35066,"is_reserved":false,"is_disabled":false,"rental_uris":{"android":"levelo://app?vid=6fff56e2-dc33-4322-9554-e738206d1bc0","ios":"levelo://app?vid=6fff56e2-dc33-4322-9554-e738206d1bc0"},"vehicle_type_id":"4","last_reported":1761905499,"current_range_meters":8400,"station_id":"st_cvj6sg6p6f1abm77japg","pricing_plan_id":"cebpf4jnsgd1na2vs0mg"},{"bike_id":"299b6d25-0432-40b3-b88d-599bdb7cfc7b","system_id":"levelo_inurba_marseille","lat":43.29525,"lon":5.39036,"is_reserved":false,"is_disabled":true,"rental_uris":{"android":"levelo://app?vid=299b6d25-0432-40b3-b88d-599bdb7cfc7b","ios":"levelo://app?vid=299b6d25-0432-40b3-b88d-599bdb7cfc7b"},"vehicle_type_id":"4","last_reported":1761905499,"current_range_meters":8400,"station_id":"ce4bh3p2rcd13ifvqdp0","pricing_plan_id":"cebpf4jnsgd1na2vs0mg"},{"bike_id":"688e0991-23bb-4f67-a97d-b9bb7704a66a","system_id":"levelo_inurba_marseille","lat":43.29255,"lon":5.39101,"is_reserved":false,"is_disabled":false,"rental_uris":{"android":"levelo://app?vid=688e0991-23bb-4f67-a97d-b9bb7704a66a","ios":"levelo://app?vid=688e0991-23bb-4f67-a97d-b9bb7704a66a"},"vehicle_type_id":"4","last_reported":1761905499,"current_range_meters":8800,"station_id":"","pricing_plan_id":"cebpf4jnsgd1na2vs0mg"},{"bike_id":"3126ce35-4101-4b06-a7b2-19548fb25089","system_id":"levelo_inurba_marseille","lat":43.21191,"lon":5.35066,"is_reserved":false,"is_disabled":false,"rental_uris":{"android":"levelo://app?vid=3126ce35-4101-4b06-a7b2-19548fb25089","ios":"levelo://app?vid=3126ce35-4101-4b06-a7b2-19548fb25089"},"vehicle_type_id":"4","last_reported":1761905499,"current_range_meters":8800,"station_id":"st_cvj6sg6p6f1abm77japg","pricing_plan_id":"cebpf4jnsgd1na2vs0mg"},{"bike_id":"6c3f8b32-c115-4971-ab70-7ce53698f0ed","system_id":"levelo_inurba_marseille","lat":43.28148,"lon":5.4264,"is_reserved":false,"is_disabled":true,"rental_uris":{"android":"levelo://app?vid=6c3f8b32-c115-4971-ab70-7ce53698f0ed","ios":"levelo://app?vid=6c3f8b32-c115-4971-ab70-7ce53698f0ed"},"vehicle_type_id":"4","last_reported":1761905499,"current_range_meters":8800,"station_id":"ce4bhnh2rcd13ifvqgug","pricing_plan_id":"cebpf4jnsgd1na2vs0mg"},{"bike_id":"ef077506-ad53-48c6-96ed-57184394616c","system_id":"levelo_inurba_marseille","lat":43.30884,"lon":5.37197,"is_reserved":false,"is_disabled":false,"rental_uris":{"android":"levelo://app?vid=ef077506-ad53-48c6-96ed-57184394616c","ios":"levelo://app?vid=ef077506-ad53-48c6-96ed-57184394616c"},"vehicle_type_id":"4","last_reported":1761905499,"current_range_meters":9200,"station_id":"ce4bguh2rcd13ifvqckg","pricing_plan_id":"cebpf4jnsgd1na2vs0mg"},{"bike_id":"4c1b2049-b590-4ae2-a090-9d731b00e193","system_id":"levelo_inurba_marseille","lat":43.27075,"lon":5.42273,"is_reserved":false,"is_disabled":false,"rental_uris":{"android":"levelo://app?vid=4c1b2049-b590-4ae2-a090-9d731b00e193","ios":"levelo://app?vid=4c1b2049-b590-4ae2-a090-9d731b00e193"},"vehicle_type_id":"4","last_reported":1761905499,"current_range_meters":9200,"station_id":"ce4bhk92rcd13ifvqgb0","pricing_plan_id":"cebpf4jnsgd1na2vs0mg"},{"bike_id":"8b661003-3310-4431-84ab-0506e6378314","system_id":"levelo_inurba_marseille","lat":43.33014,"lon":5.39037,"is_reserved":false,"is_disabled":false,"rental_uris":{"android":"levelo://app?vid=8b661003-3310-4431-84ab-0506e6378314","ios":"levelo://app?vid=8b661003-3310-4431-84ab-0506e6378314"},"vehicle_type_id":"4","last_reported":1761905499,"current_range_meters":9200,"station_id":"ce4bhr92rcd13ifvqhrg","pricing_plan_id":"cebpf4jnsgd1na2vs0mg"},{"bike_id":"d079233d-9111-46d4-ab35-b97e651a23e2","system_id":"levelo_inurba_marseille","lat":43.32357,"lon":5.36754,"is_reserved":false,"is_disabled":false,"rental_uris":{"android":"levelo://app?vid=d079233d-9111-46d4-ab35-b97e651a23e2","ios":"levelo://app?vid=d079233d-9111-46d4-ab35-b97e651a23e2"},"vehicle_type_id":"4","last_reported":1761905499,"current_range_meters":9200,"station_id":"ce4bhsh2rcd13ifvqi2g","pricing_plan_id":"cebpf4jnsgd1na2vs0mg"},{"bike_id":"73905a82-c9c2-4ee2-8e94-756ec10078fa","system_id":"levelo_inurba_marseille","lat":43.26564,"lon":5.37277,"is_reserved":false,"is_disabled":false,"rental_uris":{"android":"levelo://app?vid=73905a82-c9c2-4ee2-8e94-756ec10078fa","ios":"levelo://app?vid=73905a82-c9c2-4ee2-8e94-756ec10078fa"},"vehicle_type_id":"4","last_reported":1761905499,"current_range_meters":9200,"station_id":"ce4bhg12rcd13ifvqf70","pricing_plan_id":"cebpf4jnsgd1na2vs0mg"},{"bike_id":"0a61ea45-240b-42a2-9d81-dade841237f8","system_id":"levelo_inurba_marseille","lat":43.25331,"lon":5.4216,"is_reserved":false,"is_disabled":true,"rental_uris":{"android":"levelo://app?vid=0a61ea45-240b-42a2-9d81-dade841237f8","ios":"levelo://app?vid=0a61ea45-240b-42a2-9d81-dade841237f8"},"vehicle_type_id":"4","last_reported":1761905499,"current_range_meters":9200,"station_id":"st_d2m65c5bi1j21697t3ng","pricing_plan_id":"cebpf4jnsgd1na2vs0mg"},{"bike_id":"8a621196-6f7c-405c-9950-4f99cdabf6a1","system_id":"levelo_inurba_marseille","lat":43.27056,"lon":5.38303,"is_reserved":false,"is_disabled":false,"rental_uris":{"android":"levelo://app?vid=8a621196-6f7c-405c-9950-4f99cdabf6a1","ios":"levelo://app?vid=8a621196-6f7c-405c-9950-4f99cdabf6a1"},"vehicle_type_id":"4","last_reported":1761905499,"current_range_meters":9200,"station_id":"st_d3n2fo6cfp8s73cte1j0","pricing_plan_id":"cebpf4jnsgd1na2vs0mg"},{"bike_id":"f6946de9-6fd5-486c-846e-6aac0ac8e59f","system_id":"levelo_inurba_marseille","lat":43.211973,"lon":5.350704,"is_reserved":false,"is_disabled":false,"rental_uris":{"android":"levelo://app?vid=f6946de9-6fd5-486c-846e-6aac0ac8e59f","ios":"levelo://app?vid=f6946de9-6fd5-486c-846e-6aac0ac8e59f"},"vehicle_type_id":"4","last_reported":1761905499,"current_range_meters":9600,"station_id":"st_cvj6sg6p6f1abm77japg","pricing_plan_id":"cebpf4jnsgd1na2vs0mg"},{"bike_id":"d99505fe-d7a7-4e44-b7f5-f0065cd01a03","system_id":"levelo_inurba_marseille","lat":43.33373,"lon":5.42907,"is_reserved":false,"is_disabled":false,"rental_uris":{"android":"levelo://app?vid=d99505fe-d7a7-4e44-b7f5-f0065cd01a03","ios":"levelo://app?vid=d99505fe-d7a7-4e44-b7f5-f0065cd01a03"},"vehicle_type_id":"4","last_reported":1761905499,"current_range_meters":10800,"station_id":"","pricing_plan_id":"cebpf4jnsgd1na2vs0mg"},{"bike_id":"1bddb506-8a01-4956-9c56-d0725d432868","system_id":"levelo_inurba_marseille","lat":43.23152,"lon":5.43721,"is_reserved":false,"is_disabled":false,"rental_uris":{"android":"levelo://app?vid=1bddb506-8a01-4956-9c56-d0725d432868","ios":"levelo://app?vid=1bddb506-8a01-4956-9c56-d0725d432868"},"vehicle_type_id":"4","last_reported":1761905499,"current_range_meters":10800,"station_id":"ce4bhmp2rcd13ifvqgog","pricing_plan_id":"cebpf4jnsgd1na2vs0mg"},{"bike_id":"36dd507c-f64b-47d1-8692-a45e27a07ca3","system_id":"levelo_inurba_marseille","lat":43.25937,"lon":5.40888,"is_reserved":false,"is_disabled":false,"rental_uris":{"android":"levelo://app?vid=36dd507c-f64b-47d1-8692-a45e27a07ca3","ios":"levelo://app?vid=36dd507c-f64b-47d1-8692-a45e27a07ca3"},"vehicle_type_id":"4","last_reported":1761905499,"current_range_meters":10800,"station_id":"ce4bhm92rcd13ifvqglg","pricing_plan_id":"cebpf4jnsgd1na2vs0mg"},{"bike_id":"69daedd1-e532-426c-b096-24cfed29fb24","system_id":"levelo_inurba_marseille","lat":43.27944,"lon":5.41044,"is_reserved":false,"is_disabled":false,"rental_uris":{"android":"levelo://app?vid=69daedd1-e532-426c-b096-24cfed29fb24","ios":"levelo://app?vid=69daedd1-e532-426c-b096-24cfed29fb24"},"vehicle_type_id":"4","last_reported":1761905499,"current_range_meters":10800,"station_id":"ce4bhnp2rcd13ifvqh0g","pricing_plan_id":"cebpf4jnsgd1na2vs0mg"},{"bike_id":"49273a0d-b962-4c90-bec3-3a4d908a123c","system_id":"levelo_inurba_marseille","lat":43.23964,"lon":5.36626,"is_reserved":false,"is_disabled":false,"rental_uris":{"android":"levelo://app?vid=49273a0d-b962-4c90-bec3-3a4d908a123c","ios":"levelo://app?vid=49273a0d-b962-4c90-bec3-3a4d908a123c"},"vehicle_type_id":"4","last_reported":1761905499,"current_range_meters":10800,"station_id":"ce4bhi12rcd13ifvqfp0","pricing_plan_id":"cebpf4jnsgd1na2vs0mg"},{"bike_id":"9b93b5e1-c939-4745-bf85-2d21945442dc","system_id":"levelo_inurba_marseille","lat":43.30003,"lon":5.36385,"is_reserved":false,"is_disabled":false,"rental_uris":{"android":"levelo://app?vid=9b93b5e1-c939-4745-bf85-2d21945442dc","ios":"levelo://app?vid=9b93b5e1-c939-4745-bf85-2d21945442dc"},"vehicle_type_id":"4","last_reported":1761905499,"current_range_meters":11200,"station_id":"","pricing_plan_id":"cebpf4jnsgd1na2vs0mg"},{"bike_id":"6031e130-bc2f-4945-be2d-739bc30e9d8e","system_id":"levelo_inurba_marseille","lat":43.28537,"lon":5.44104,"is_reserved":false,"is_disabled":false,"rental_uris":{"android":"levelo://app?vid=6031e130-bc2f-4945-be2d-739bc30e9d8e","ios":"levelo://app?vid=6031e130-bc2f-4945-be2d-739bc30e9d8e"},"vehicle_type_id":"4","last_reported":1761905499,"current_range_meters":11200,"station_id":"st_d3j3df2ikq2c7380ej80","pricing_plan_id":"cebpf4jnsgd1na2vs0mg"},{"bike_id":"a18dbf48-2c4d-4fa4-a4c5-c9871d73c9a0","system_id":"levelo_inurba_marseille","lat":43.301994,"lon":5.383462,"is_reserved":false,"is_disabled":false,"rental_uris":{"android":"levelo://app?vid=a18dbf48-2c4d-4fa4-a4c5-c9871d73c9a0","ios":"levelo://app?vid=a18dbf48-2c4d-4fa4-a4c5-c9871d73c9a0"},"vehicle_type_id":"4","last_reported":1761905499,"current_range_meters":11200,"station_id":"ce4bgup2rcd13ifvqcn0","pricing_plan_id":"cebpf4jnsgd1na2vs0mg"},{"bike_id":"75b2ab03-b6f9-4537-834b-b438df40fe86","system_id":"levelo_inurba_marseille","lat":43.28987,"lon":5.37838,"is_reserved":false,"is_disabled":false,"rental_uris":{"android":"levelo://app?vid=75b2ab03-b6f9-4537-834b-b438df40fe86","ios":"levelo://app?vid=75b2ab03-b6f9-4537-834b-b438df40fe86"},"vehicle_type_id":"4","last_reported":1761905499,"current_range_meters":11200,"station_id":"ce4bh9p2rcd13ifvqed0","pricing_plan_id":"cebpf4jnsgd1na2vs0mg"},{"bike_id":"917c7cf8-f6a9-404f-b9c2-35276abaea43","system_id":"levelo_inurba_marseille","lat":43.32362,"lon":5.38879,"is_reserved":false,"is_disabled":false,"rental_uris":{"android":"levelo://app?vid=917c7cf8-f6a9-404f-b9c2-35276abaea43","ios":"levelo://app?vid=917c7cf8-f6a9-404f-b9c2-35276abaea43"},"vehicle_type_id":"4","last_reported":1761905499,"current_range_meters":11200,"station_id":"ce4bhqp2rcd13ifvqhog","pricing_plan_id":"cebpf4jnsgd1na2vs0mg"},{"bike_id":"b61e1e59-261f-4781-9885-10fc3dd1eaf7","system_id":"levelo_inurba_marseille","lat":43.30474,"lon":5.36881,"is_reserved":false,"is_disabled":false,"rental_uris":{"android":"levelo://app?vid=b61e1e59-261f-4781-9885-10fc3dd1eaf7","ios":"levelo://app?vid=b61e1e59-261f-4781-9885-10fc3dd1eaf7"},"vehicle_type_id":"4","last_reported":1761905499,"current_range_meters":11200,"station_id":"","pricing_plan_id":"cebpf4jnsgd1na2vs0mg"},{"bike_id":"c2b29e2a-9ddf-4599-9569-ebeda3771708","system_id":"levelo_inurba_marseille","lat":43.211981,"lon":5.35084,"is_reserved":false,"is_disabled":false,"rental_uris":{"android":"levelo://app?vid=c2b29e2a-9ddf-4599-9569-ebeda3771708","ios":"levelo://app?vid=c2b29e2a-9ddf-4599-9569-ebeda3771708"},"vehicle_type_id":"4","last_reported":1761905499,"current_range_meters":11600,"station_id":"st_cvj6sg6p6f1abm77japg","pricing_plan_id":"cebpf4jnsgd1na2vs0mg"},{"bike_id":"13b5bebc-2277-4643-9efc-b419c3a09bbd","system_id":"levelo_inurba_marseille","lat":43.22936,"lon":5.35371,"is_reserved":false,"is_disabled":false,"rental_uris":{"android":"levelo://app?vid=13b5bebc-2277-4643-9efc-b419c3a09bbd","ios":"levelo://app?vid=13b5bebc-2277-4643-9efc-b419c3a09bbd"},"vehicle_type_id":"4","last_reported":1761905499,"current_range_meters":12000,"station_id":"cpo3532slgdg3j2ikp40","pricing_plan_id":"cebpf4jnsgd1na2vs0mg"},{"bike_id":"79506546-db75-49a0-90c1-324c23972b1f","system_id":"levelo_inurba_marseille","lat":43.31988,"lon":5.38139,"is_reserved":false,"is_disabled":false,"rental_uris":{"android":"levelo://app?vid=79506546-db75-49a0-90c1-324c23972b1f","ios":"levelo://app?vid=79506546-db75-49a0-90c1-324c23972b1f"},"vehicle_type_id":"4","last_reported":1761905499,"current_range_meters":12000,"station_id":"ce4bhr12rcd13ifvqhpg","pricing_plan_id":"cebpf4jnsgd1na2vs0mg"},{"bike_id":"d3e4191f-8708-4957-a7db-efe93d73dc66","system_id":"levelo_inurba_marseille","lat":43.28535,"lon":5.44109,"is_reserved":false,"is_disabled":false,"rental_uris":{"android":"levelo://app?vid=d3e4191f-8708-4957-a7db-efe93d73dc66","ios":"levelo://app?vid=d3e4191f-8708-4957-a7db-efe93d73dc66"},"vehicle_type_id":"4","last_reported":1761905499,"current_range_meters":12000,"station_id":"st_d3j3df2ikq2c7380ej80","pricing_plan_id":"cebpf4jnsgd1na2vs0mg"},{"bike_id":"60ef5c64-5d03-41c7-afc2-aafc3eb32b64","system_id":"levelo_inurba_marseille","lat":43.26219,"lon":5.40447,"is_reserved":false,"is_disabled":false,"rental_uris":{"android":"levelo://app?vid=60ef5c64-5d03-41c7-afc2-aafc3eb32b64","ios":"levelo://app?vid=60ef5c64-5d03-41c7-afc2-aafc3eb32b64"},"vehicle_type_id":"4","last_reported":1761905499,"current_range_meters":12000,"station_id":"ce4bhmh2rcd13ifvqgmg","pricing_plan_id":"cebpf4jnsgd1na2vs0mg"},{"bike_id":"2662fe9b-aa47-4e6a-8505-64d896678582","system_id":"levelo_inurba_marseille","lat":43.22572,"lon":5.41643,"is_reserved":false,"is_disabled":false,"rental_uris":{"android":"levelo://app?vid=2662fe9b-aa47-4e6a-8505-64d896678582","ios":"levelo://app?vid=2662fe9b-aa47-4e6a-8505-64d896678582"},"vehicle_type_id":"4","last_reported":1761905499,"current_range_meters":12000,"station_id":"st_d2o4gvlbi1j2169b742g","pricing_plan_id":"cebpf4jnsgd1na2vs0mg"},{"bike_id":"b20a92fa-e4a4-43a4-93f5-20738be7e96c","system_id":"levelo_inurba_marseille","lat":43.29713,"lon":5.37703,"is_reserved":false,"is_disabled":false,"rental_uris":{"android":"levelo://app?vid=b20a92fa-e4a4-43a4-93f5-20738be7e96c","ios":"levelo://app?vid=b20a92fa-e4a4-43a4-93f5-20738be7e96c"},"vehicle_type_id":"4","last_reported":1761905499,"current_range_meters":12400,"station_id":"ce4bgkh2rcd13ifvqbl0","pricing_plan_id":"cebpf4jnsgd1na2vs0mg"},{"bike_id":"0e6faac9-80f4-460a-af94-817a57397bdb","system_id":"levelo_inurba_marseille","lat":43.29202,"lon":5.3932,"is_reserved":false,"is_disabled":false,"rental_uris":{"android":"levelo://app?vid=0e6faac9-80f4-460a-af94-817a57397bdb","ios":"levelo://app?vid=0e6faac9-80f4-460a-af94-817a57397bdb"},"vehicle_type_id":"4","last_reported":1761905499,"current_range_meters":12400,"station_id":"ce4bh192rcd13ifvqdd0","pricing_plan_id":"cebpf4jnsgd1na2vs0mg"},{"bike_id":"88327406-ba65-4ce0-831c-3da476dbb691","system_id":"levelo_inurba_marseille","lat":43.23768,"lon":5.36621,"is_reserved":false,"is_disabled":false,"rental_uris":{"android":"levelo://app?vid=88327406-ba65-4ce0-831c-3da476dbb691","ios":"levelo://app?vid=88327406-ba65-4ce0-831c-3da476dbb691"},"vehicle_type_id":"4","last_reported":1761905499,"current_range_meters":12400,"station_id":"st_d3nk18o9ro0c73en2l3g","pricing_plan_id":"cebpf4jnsgd1na2vs0mg"},{"bike_id":"dd718b40-ac09-4712-a92c-cb36d641da7f","system_id":"levelo_inurba_marseille","lat":43.30526,"lon":5.3669,"is_reserved":false,"is_disabled":false,"rental_uris":{"android":"levelo://app?vid=dd718b40-ac09-4712-a92c-cb36d641da7f","ios":"levelo://app?vid=dd718b40-ac09-4712-a92c-cb36d641da7f"},"vehicle_type_id":"4","last_reported":1761905499,"current_range_meters":12400,"station_id":"ce4bgrp2rcd13ifvqc9g","pricing_plan_id":"cebpf4jnsgd1na2vs0mg"},{"bike_id":"8a0ff850-cf9f-4e75-bc3f-994489f28f31","system_id":"levelo_inurba_marseille","lat":43.22566,"lon":5.41625,"is_reserved":false,"is_disabled":false,"rental_uris":{"android":"levelo://app?vid=8a0ff850-cf9f-4e75-bc3f-994489f28f31","ios":"levelo://app?vid=8a0ff850-cf9f-4e75-bc3f-994489f28f31"},"vehicle_type_id":"4","last_reported":1761905499,"current_range_meters":12400,"station_id":"st_d2o4gvlbi1j2169b742g","pricing_plan_id":"cebpf4jnsgd1na2vs0mg"},{"bike_id":"b8f404d3-62c4-4489-a471-d37212346558","system_id":"levelo_inurba_marseille","lat":43.310687,"lon":5.37861,"is_reserved":false,"is_disabled":false,"rental_uris":{"android":"levelo://app?vid=b8f404d3-62c4-4489-a471-d37212346558","ios":"levelo://app?vid=b8f404d3-62c4-4489-a471-d37212346558"},"vehicle_type_id":"4","last_reported":1761905499,"current_range_meters":12400,"station_id":"","pricing_plan_id":"cebpf4jnsgd1na2vs0mg"},{"bike_id":"80c53fab-d9fd-4b9a-94e7-e3f3183e35da","system_id":"levelo_inurba_marseille","lat":43.33027,"lon":5.39034,"is_reserved":false,"is_disabled":false,"rental_uris":{"android":"levelo://app?vid=80c53fab-d9fd-4b9a-94e7-e3f3183e35da","ios":"levelo://app?vid=80c53fab-d9fd-4b9a-94e7-e3f3183e35da"},"vehicle_type_id":"4","last_reported":1761905499,"current_range_meters":12800,"station_id":"ce4bhr92rcd13ifvqhrg","pricing_plan_id":"cebpf4jnsgd1na2vs0mg"},{"bike_id":"7afafebc-9388-4b96-826a-eb1746b15f9a","system_id":"levelo_inurba_marseille","lat":43.27074,"lon":5.4228,"is_reserved":false,"is_disabled":false,"rental_uris":{"android":"levelo://app?vid=7afafebc-9388-4b96-826a-eb1746b15f9a","ios":"levelo://app?vid=7afafebc-9388-4b96-826a-eb1746b15f9a"},"vehicle_type_id":"4","last_reported":1761905499,"current_range_meters":12800,"station_id":"ce4bhk92rcd13ifvqgb0","pricing_plan_id":"cebpf4jnsgd1na2vs0mg"},{"bike_id":"2f477f8f-972b-406c-841a-14096d9c76ee","system_id":"levelo_inurba_marseille","lat":43.29764,"lon":5.42763,"is_reserved":false,"is_disabled":false,"rental_uris":{"android":"levelo://app?vid=2f477f8f-972b-406c-841a-14096d9c76ee","ios":"levelo://app?vid=2f477f8f-972b-406c-841a-14096d9c76ee"},"vehicle_type_id":"4","last_reported":1761905499,"current_range_meters":13600,"station_id":"st_d3md5207bmas73dh9klg","pricing_plan_id":"cebpf4jnsgd1na2vs0mg"},{"bike_id":"1213ff01-604d-4b83-b3a2-60440c4b245e","system_id":"levelo_inurba_marseille","lat":43.23785,"lon":5.366205,"is_reserved":false,"is_disabled":false,"rental_uris":{"android":"levelo://app?vid=1213ff01-604d-4b83-b3a2-60440c4b245e","ios":"levelo://app?vid=1213ff01-604d-4b83-b3a2-60440c4b245e"},"vehicle_type_id":"4","last_reported":1761905499,"current_range_meters":13600,"station_id":"st_d3nk18o9ro0c73en2l3g","pricing_plan_id":"cebpf4jnsgd1na2vs0mg"},{"bike_id":"96ad2f8e-1ff0-415a-a84a-9186f2a5baf6","system_id":"levelo_inurba_marseille","lat":43.29606,"lon":5.37672,"is_reserved":false,"is_disabled":false,"rental_uris":{"android":"levelo://app?vid=96ad2f8e-1ff0-415a-a84a-9186f2a5baf6","ios":"levelo://app?vid=96ad2f8e-1ff0-415a-a84a-9186f2a5baf6"},"vehicle_type_id":"4","last_reported":1761905499,"current_range_meters":13600,"station_id":"ce4bgi12rcd13ifvqb80","pricing_plan_id":"cebpf4jnsgd1na2vs0mg"},{"bike_id":"70b7527d-67eb-4818-84c6-51aae343ca97","system_id":"levelo_inurba_marseille","lat":43.28477,"lon":5.48398,"is_reserved":false,"is_disabled":false,"rental_uris":{"android":"levelo://app?vid=70b7527d-67eb-4818-84c6-51aae343ca97","ios":"levelo://app?vid=70b7527d-67eb-4818-84c6-51aae343ca97"},"vehicle_type_id":"4","last_reported":1761905499,"current_range_meters":14000,"station_id":"st_d3svhcjqgbts73a3dn0g","pricing_plan_id":"cebpf4jnsgd1na2vs0mg"},{"bike_id":"46835159-5dd5-4fc9-a732-591f6a5307e4","system_id":"levelo_inurba_marseille","lat":43.31351,"lon":5.37912,"is_reserved":false,"is_disabled":false,"rental_uris":{"android":"levelo://app?vid=46835159-5dd5-4fc9-a732-591f6a5307e4","ios":"levelo://app?vid=46835159-5dd5-4fc9-a732-591f6a5307e4"},"vehicle_type_id":"4","last_reported":1761905499,"current_range_meters":14000,"station_id":"","pricing_plan_id":"cebpf4jnsgd1na2vs0mg"},{"bike_id":"a4dac4fa-66e6-48be-a654-6e17cdc7ca0b","system_id":"levelo_inurba_marseille","lat":43.337571,"lon":5.374323,"is_reserved":false,"is_disabled":false,"rental_uris":{"android":"levelo://app?vid=a4dac4fa-66e6-48be-a654-6e17cdc7ca0b","ios":"levelo://app?vid=a4dac4fa-66e6-48be-a654-6e17cdc7ca0b"},"vehicle_type_id":"4","last_reported":1761905499,"current_range_meters":14400,"station_id":"","pricing_plan_id":"cebpf4jnsgd1na2vs0mg"},{"bike_id":"b28f6b70-919f-4157-848e-cb90ffec061d","system_id":"levelo_inurba_marseille","lat":43.30518,"lon":5.36709,"is_reserved":false,"is_disabled":false,"rental_uris":{"android":"levelo://app?vid=b28f6b70-919f-4157-848e-cb90ffec061d","ios":"levelo://app?vid=b28f6b70-919f-4157-848e-cb90ffec061d"},"vehicle_type_id":"4","last_reported":1761905499,"current_range_meters":14400,"station_id":"ce4bgrp2rcd13ifvqc9g","pricing_plan_id":"cebpf4jnsgd1na2vs0mg"},{"bike_id":"7e2cd24e-9bbb-43f7-a796-98c4fcc49ba1","system_id":"levelo_inurba_marseille","lat":43.286202,"lon":5.351147,"is_reserved":false,"is_disabled":false,"rental_uris":{"android":"levelo://app?vid=7e2cd24e-9bbb-43f7-a796-98c4fcc49ba1","ios":"levelo://app?vid=7e2cd24e-9bbb-43f7-a796-98c4fcc49ba1"},"vehicle_type_id":"4","last_reported":1761905499,"current_range_meters":14400,"station_id":"ce4bhch2rcd13ifvqeug","pricing_plan_id":"cebpf4jnsgd1na2vs0mg"},{"bike_id":"7e4087f9-5f3a-45e2-aa48-d6d3f5a44700","system_id":"levelo_inurba_marseille","lat":43.25124,"lon":5.40321,"is_reserved":false,"is_disabled":false,"rental_uris":{"android":"levelo://app?vid=7e4087f9-5f3a-45e2-aa48-d6d3f5a44700","ios":"levelo://app?vid=7e4087f9-5f3a-45e2-aa48-d6d3f5a44700"},"vehicle_type_id":"4","last_reported":1761905499,"current_range_meters":14400,"station_id":"ce4bhlh2rcd13ifvqgig","pricing_plan_id":"cebpf4jnsgd1na2vs0mg"},{"bike_id":"ee261a32-9de1-4b9e-a923-6c91e1e26176","system_id":"levelo_inurba_marseille","lat":43.2848,"lon":5.48387,"is_reserved":false,"is_disabled":false,"rental_uris":{"android":"levelo://app?vid=ee261a32-9de1-4b9e-a923-6c91e1e26176","ios":"levelo://app?vid=ee261a32-9de1-4b9e-a923-6c91e1e26176"},"vehicle_type_id":"4","last_reported":1761905499,"current_range_meters":14400,"station_id":"st_d3svhcjqgbts73a3dn0g","pricing_plan_id":"cebpf4jnsgd1na2vs0mg"},{"bike_id":"da4320ad-f916-4bd4-99f8-5adbc386f400","system_id":"levelo_inurba_marseille","lat":43.31363,"lon":5.38498,"is_reserved":false,"is_disabled":false,"rental_uris":{"android":"levelo://app?vid=da4320ad-f916-4bd4-99f8-5adbc386f400","ios":"levelo://app?vid=da4320ad-f916-4bd4-99f8-5adbc386f400"},"vehicle_type_id":"4","last_reported":1761905499,"current_range_meters":14400,"station_id":"ce4bgt92rcd13ifvqcf0","pricing_plan_id":"cebpf4jnsgd1na2vs0mg"},{"bike_id":"1282d74a-548d-440e-84c8-e15be2e1b590","system_id":"levelo_inurba_marseille","lat":43.26194,"lon":5.37909,"is_reserved":false,"is_disabled":false,"rental_uris":{"android":"levelo://app?vid=1282d74a-548d-440e-84c8-e15be2e1b590","ios":"levelo://app?vid=1282d74a-548d-440e-84c8-e15be2e1b590"},"vehicle_type_id":"4","last_reported":1761905499,"current_range_meters":14800,"station_id":"ce4bhjp2rcd13ifvqg90","pricing_plan_id":"cebpf4jnsgd1na2vs0mg"},{"bike_id":"beb5aeba-4e4d-4667-9243-ae63f411ac6a","system_id":"levelo_inurba_marseille","lat":43.305566,"lon":5.36565,"is_reserved":false,"is_disabled":false,"rental_uris":{"android":"levelo://app?vid=beb5aeba-4e4d-4667-9243-ae63f411ac6a","ios":"levelo://app?vid=beb5aeba-4e4d-4667-9243-ae63f411ac6a"},"vehicle_type_id":"4","last_reported":1761905499,"current_range_meters":14800,"station_id":"ce4bgs12rcd13ifvqcag","pricing_plan_id":"cebpf4jnsgd1na2vs0mg"},{"bike_id":"f45972e9-fcd4-4530-be29-10f95eb977d2","system_id":"levelo_inurba_marseille","lat":43.296342,"lon":5.377069,"is_reserved":false,"is_disabled":false,"rental_uris":{"android":"levelo://app?vid=f45972e9-fcd4-4530-be29-10f95eb977d2","ios":"levelo://app?vid=f45972e9-fcd4-4530-be29-10f95eb977d2"},"vehicle_type_id":"4","last_reported":1761905499,"current_range_meters":15200,"station_id":"ce4bgi92rcd13ifvqb90","pricing_plan_id":"cebpf4jnsgd1na2vs0mg"},{"bike_id":"3081e296-0ed2-41d1-b768-d0f6ecc4cb64","system_id":"levelo_inurba_marseille","lat":43.24644,"lon":5.38889,"is_reserved":false,"is_disabled":false,"rental_uris":{"android":"levelo://app?vid=3081e296-0ed2-41d1-b768-d0f6ecc4cb64","ios":"levelo://app?vid=3081e296-0ed2-41d1-b768-d0f6ecc4cb64"},"vehicle_type_id":"4","last_reported":1761905499,"current_range_meters":15200,"station_id":"ce4bhg12rcd13ifvqf60","pricing_plan_id":"cebpf4jnsgd1na2vs0mg"},{"bike_id":"aad6a064-c048-4ba9-a156-1745b89548aa","system_id":"levelo_inurba_marseille","lat":43.28318,"lon":5.41112,"is_reserved":false,"is_disabled":false,"rental_uris":{"android":"levelo://app?vid=aad6a064-c048-4ba9-a156-1745b89548aa","ios":"levelo://app?vid=aad6a064-c048-4ba9-a156-1745b89548aa"},"vehicle_type_id":"4","last_reported":1761905499,"current_range_meters":15200,"station_id":"","pricing_plan_id":"cebpf4jnsgd1na2vs0mg"},{"bike_id":"926593f6-579b-4bc9-b774-62aba5138a9f","system_id":"levelo_inurba_marseille","lat":43.31383,"lon":5.38489,"is_reserved":false,"is_disabled":false,"rental_uris":{"android":"levelo://app?vid=926593f6-579b-4bc9-b774-62aba5138a9f","ios":"levelo://app?vid=926593f6-579b-4bc9-b774-62aba5138a9f"},"vehicle_type_id":"4","last_reported":1761905499,"current_range_meters":16000,"station_id":"ce4bgt92rcd13ifvqcf0","pricing_plan_id":"cebpf4jnsgd1na2vs0mg"},{"bike_id":"5545e539-e193-47b6-94f6-dda1ea8e7d4d","system_id":"levelo_inurba_marseille","lat":43.31352,"lon":5.3674,"is_reserved":false,"is_disabled":false,"rental_uris":{"android":"levelo://app?vid=5545e539-e193-47b6-94f6-dda1ea8e7d4d","ios":"levelo://app?vid=5545e539-e193-47b6-94f6-dda1ea8e7d4d"},"vehicle_type_id":"4","last_reported":1761905499,"current_range_meters":16000,"station_id":"ce4bgr92rcd13ifvqc6g","pricing_plan_id":"cebpf4jnsgd1na2vs0mg"},{"bike_id":"8165f6ad-0457-4c12-8182-2c24600da263","system_id":"levelo_inurba_marseille","lat":43.26675,"lon":5.38261,"is_reserved":false,"is_disabled":false,"rental_uris":{"android":"levelo://app?vid=8165f6ad-0457-4c12-8182-2c24600da263","ios":"levelo://app?vid=8165f6ad-0457-4c12-8182-2c24600da263"},"vehicle_type_id":"4","last_reported":1761905499,"current_range_meters":16000,"station_id":"ce4bhg92rcd13ifvqf90","pricing_plan_id":"cebpf4jnsgd1na2vs0mg"},{"bike_id":"c6cc2ad5-87f3-46b4-954a-6b3fc4efe701","system_id":"levelo_inurba_marseille","lat":43.29857,"lon":5.36295,"is_reserved":false,"is_disabled":false,"rental_uris":{"android":"levelo://app?vid=c6cc2ad5-87f3-46b4-954a-6b3fc4efe701","ios":"levelo://app?vid=c6cc2ad5-87f3-46b4-954a-6b3fc4efe701"},"vehicle_type_id":"4","last_reported":1761905499,"current_range_meters":16000,"station_id":"ce4bgpp2rcd13ifvqc3g","pricing_plan_id":"cebpf4jnsgd1na2vs0mg"},{"bike_id":"3b8d8128-20c3-4189-8013-ffc8bbfec252","system_id":"levelo_inurba_marseille","lat":43.28618,"lon":5.351,"is_reserved":false,"is_disabled":false,"rental_uris":{"android":"levelo://app?vid=3b8d8128-20c3-4189-8013-ffc8bbfec252","ios":"levelo://app?vid=3b8d8128-20c3-4189-8013-ffc8bbfec252"},"vehicle_type_id":"4","last_reported":1761905499,"current_range_meters":16000,"station_id":"ce4bhch2rcd13ifvqeug","pricing_plan_id":"cebpf4jnsgd1na2vs0mg"},{"bike_id":"ec8e4f97-d500-4b79-b9f1-140344d7f670","system_id":"levelo_inurba_marseille","lat":43.23147,"lon":5.43708,"is_reserved":false,"is_disabled":false,"rental_uris":{"android":"levelo://app?vid=ec8e4f97-d500-4b79-b9f1-140344d7f670","ios":"levelo://app?vid=ec8e4f97-d500-4b79-b9f1-140344d7f670"},"vehicle_type_id":"4","last_reported":1761905499,"current_range_meters":16000,"station_id":"ce4bhmp2rcd13ifvqgog","pricing_plan_id":"cebpf4jnsgd1na2vs0mg"},{"bike_id":"90cc4e35-1e9a-4d48-878d-a3997094c0ce","system_id":"levelo_inurba_marseille","lat":43.24645,"lon":5.43135,"is_reserved":false,"is_disabled":false,"rental_uris":{"android":"levelo://app?vid=90cc4e35-1e9a-4d48-878d-a3997094c0ce","ios":"levelo://app?vid=90cc4e35-1e9a-4d48-878d-a3997094c0ce"},"vehicle_type_id":"4","last_reported":1761905499,"current_range_meters":16000,"station_id":"st_d2m6c4gdas8pm72e190g","pricing_plan_id":"cebpf4jnsgd1na2vs0mg"},{"bike_id":"7f71708b-0ea1-4389-ad9e-9eb55c6a6cb9","system_id":"levelo_inurba_marseille","lat":43.288587,"lon":5.425236,"is_reserved":false,"is_disabled":false,"rental_uris":{"android":"levelo://app?vid=7f71708b-0ea1-4389-ad9e-9eb55c6a6cb9","ios":"levelo://app?vid=7f71708b-0ea1-4389-ad9e-9eb55c6a6cb9"},"vehicle_type_id":"4","last_reported":1761905499,"current_range_meters":16000,"station_id":"st_d3b462108ojc7389ooeg","pricing_plan_id":"cebpf4jnsgd1na2vs0mg"},{"bike_id":"319b8584-93f2-449c-b056-ea3f20ebc971","system_id":"levelo_inurba_marseille","lat":43.2852,"lon":5.43029,"is_reserved":false,"is_disabled":false,"rental_uris":{"android":"levelo://app?vid=319b8584-93f2-449c-b056-ea3f20ebc971","ios":"levelo://app?vid=319b8584-93f2-449c-b056-ea3f20ebc971"},"vehicle_type_id":"4","last_reported":1761905499,"current_range_meters":16000,"station_id":"","pricing_plan_id":"cebpf4jnsgd1na2vs0mg"},{"bike_id":"0dc930ae-88e6-493c-ab95-8df0b3ac1f8b","system_id":"levelo_inurba_marseille","lat":43.299003,"lon":5.436512,"is_reserved":false,"is_disabled":false,"rental_uris":{"android":"levelo://app?vid=0dc930ae-88e6-493c-ab95-8df0b3ac1f8b","ios":"levelo://app?vid=0dc930ae-88e6-493c-ab95-8df0b3ac1f8b"},"vehicle_type_id":"4","last_reported":1761905499,"current_range_meters":16400,"station_id":"ce4bhpp2rcd13ifvqhfg","pricing_plan_id":"cebpf4jnsgd1na2vs0mg"},{"bike_id":"12c24c1a-5f34-4e4f-b6c0-f07cd6755b8d","system_id":"levelo_inurba_marseille","lat":43.24942,"lon":5.40498,"is_reserved":false,"is_disabled":false,"rental_uris":{"android":"levelo://app?vid=12c24c1a-5f34-4e4f-b6c0-f07cd6755b8d","ios":"levelo://app?vid=12c24c1a-5f34-4e4f-b6c0-f07cd6755b8d"},"vehicle_type_id":"4","last_reported":1761905499,"current_range_meters":16400,"station_id":"st_d2ngiaodas8pm72gd1h0","pricing_plan_id":"cebpf4jnsgd1na2vs0mg"},{"bike_id":"78061b63-33d7-4f67-89ba-c9ae0a197203","system_id":"levelo_inurba_marseille","lat":43.293,"lon":5.37465,"is_reserved":false,"is_disabled":false,"rental_uris":{"android":"levelo://app?vid=78061b63-33d7-4f67-89ba-c9ae0a197203","ios":"levelo://app?vid=78061b63-33d7-4f67-89ba-c9ae0a197203"},"vehicle_type_id":"4","last_reported":1761905499,"current_range_meters":16400,"station_id":"ce4bgi12rcd13ifvqb70","pricing_plan_id":"cebpf4jnsgd1na2vs0mg"},{"bike_id":"6cd59db7-cb12-4301-8385-22b87d7a5cfd","system_id":"levelo_inurba_marseille","lat":43.28525,"lon":5.44069,"is_reserved":false,"is_disabled":false,"rental_uris":{"android":"levelo://app?vid=6cd59db7-cb12-4301-8385-22b87d7a5cfd","ios":"levelo://app?vid=6cd59db7-cb12-4301-8385-22b87d7a5cfd"},"vehicle_type_id":"4","last_reported":1761905499,"current_range_meters":16400,"station_id":"st_d3j3df2ikq2c7380ej80","pricing_plan_id":"cebpf4jnsgd1na2vs0mg"},{"bike_id":"a74ca4e6-9019-4ce4-a364-7a22bd8e206a","system_id":"levelo_inurba_marseille","lat":43.26493,"lon":5.38518,"is_reserved":false,"is_disabled":false,"rental_uris":{"android":"levelo://app?vid=a74ca4e6-9019-4ce4-a364-7a22bd8e206a","ios":"levelo://app?vid=a74ca4e6-9019-4ce4-a364-7a22bd8e206a"},"vehicle_type_id":"4","last_reported":1761905499,"current_range_meters":16400,"station_id":"","pricing_plan_id":"cebpf4jnsgd1na2vs0mg"},{"bike_id":"ef49569e-2b44-4848-8acf-f1489a42848c","system_id":"levelo_inurba_marseille","lat":43.301536,"lon":5.374418,"is_reserved":false,"is_disabled":false,"rental_uris":{"android":"levelo://app?vid=ef49569e-2b44-4848-8acf-f1489a42848c","ios":"levelo://app?vid=ef49569e-2b44-4848-8acf-f1489a42848c"},"vehicle_type_id":"4","last_reported":1761905499,"current_range_meters":16400,"station_id":"ce4bgs92rcd13ifvqcc0","pricing_plan_id":"cebpf4jnsgd1na2vs0mg"},{"bike_id":"65f21baa-74e9-41fb-bd8d-b51991bbff21","system_id":"levelo_inurba_marseille","lat":43.27812,"lon":5.40711,"is_reserved":false,"is_disabled":false,"rental_uris":{"android":"levelo://app?vid=65f21baa-74e9-41fb-bd8d-b51991bbff21","ios":"levelo://app?vid=65f21baa-74e9-41fb-bd8d-b51991bbff21"},"vehicle_type_id":"4","last_reported":1761905499,"current_range_meters":16400,"station_id":"ce4bhnh2rcd13ifvqgtg","pricing_plan_id":"cebpf4jnsgd1na2vs0mg"},{"bike_id":"a9cdbb07-222c-4ae2-b8a0-add1896b5ebf","system_id":"levelo_inurba_marseille","lat":43.26064,"lon":5.39382,"is_reserved":false,"is_disabled":false,"rental_uris":{"android":"levelo://app?vid=a9cdbb07-222c-4ae2-b8a0-add1896b5ebf","ios":"levelo://app?vid=a9cdbb07-222c-4ae2-b8a0-add1896b5ebf"},"vehicle_type_id":"4","last_reported":1761905499,"current_range_meters":16800,"station_id":"ce4bhh92rcd13ifvqfj0","pricing_plan_id":"cebpf4jnsgd1na2vs0mg"},{"bike_id":"b2ce8e73-e59b-4d30-b8e2-e59e2e1e3b22","system_id":"levelo_inurba_marseille","lat":43.33775,"lon":5.37482,"is_reserved":false,"is_disabled":false,"rental_uris":{"android":"levelo://app?vid=b2ce8e73-e59b-4d30-b8e2-e59e2e1e3b22","ios":"levelo://app?vid=b2ce8e73-e59b-4d30-b8e2-e59e2e1e3b22"},"vehicle_type_id":"4","last_reported":1761905499,"current_range_meters":16800,"station_id":"","pricing_plan_id":"cebpf4jnsgd1na2vs0mg"},{"bike_id":"e7ead618-cc2b-4c53-bc61-330caff21889","system_id":"levelo_inurba_marseille","lat":43.25336,"lon":5.42169,"is_reserved":false,"is_disabled":false,"rental_uris":{"android":"levelo://app?vid=e7ead618-cc2b-4c53-bc61-330caff21889","ios":"levelo://app?vid=e7ead618-cc2b-4c53-bc61-330caff21889"},"vehicle_type_id":"4","last_reported":1761905499,"current_range_meters":16800,"station_id":"st_d2m65c5bi1j21697t3ng","pricing_plan_id":"cebpf4jnsgd1na2vs0mg"},{"bike_id":"efab51bb-2873-49b5-8a21-1850eb33cbaf","system_id":"levelo_inurba_marseille","lat":43.2407,"lon":5.37746,"is_reserved":false,"is_disabled":false,"rental_uris":{"android":"levelo://app?vid=efab51bb-2873-49b5-8a21-1850eb33cbaf","ios":"levelo://app?vid=efab51bb-2873-49b5-8a21-1850eb33cbaf"},"vehicle_type_id":"4","last_reported":1761905499,"current_range_meters":16800,"station_id":"ce4bhnp2rcd13ifvqgvg","pricing_plan_id":"cebpf4jnsgd1na2vs0mg"},{"bike_id":"c15015df-b33b-4891-92e2-82a20ac43ba9","system_id":"levelo_inurba_marseille","lat":43.28574,"lon":5.39486,"is_reserved":false,"is_disabled":false,"rental_uris":{"android":"levelo://app?vid=c15015df-b33b-4891-92e2-82a20ac43ba9","ios":"levelo://app?vid=c15015df-b33b-4891-92e2-82a20ac43ba9"},"vehicle_type_id":"4","last_reported":1761905499,"current_range_meters":16800,"station_id":"ce4bh292rcd13ifvqdg0","pricing_plan_id":"cebpf4jnsgd1na2vs0mg"},{"bike_id":"9426e984-d66a-46ec-83f8-e2f4059a3e57","system_id":"levelo_inurba_marseille","lat":43.298481,"lon":5.362874,"is_reserved":false,"is_disabled":false,"rental_uris":{"android":"levelo://app?vid=9426e984-d66a-46ec-83f8-e2f4059a3e57","ios":"levelo://app?vid=9426e984-d66a-46ec-83f8-e2f4059a3e57"},"vehicle_type_id":"4","last_reported":1761905499,"current_range_meters":16800,"station_id":"","pricing_plan_id":"cebpf4jnsgd1na2vs0mg"},{"bike_id":"6dbbb1d7-e649-42e5-aa55-890e8d6481b6","system_id":"levelo_inurba_marseille","lat":43.29032,"lon":5.39951,"is_reserved":false,"is_disabled":false,"rental_uris":{"android":"levelo://app?vid=6dbbb1d7-e649-42e5-aa55-890e8d6481b6","ios":"levelo://app?vid=6dbbb1d7-e649-42e5-aa55-890e8d6481b6"},"vehicle_type_id":"4","last_reported":1761905499,"current_range_meters":16800,"station_id":"ce4bh392rcd13ifvqdm0","pricing_plan_id":"cebpf4jnsgd1na2vs0mg"},{"bike_id":"e0334697-4704-4d5d-a5c7-664f37de8c5e","system_id":"levelo_inurba_marseille","lat":43.2781,"lon":5.40708,"is_reserved":false,"is_disabled":false,"rental_uris":{"android":"levelo://app?vid=e0334697-4704-4d5d-a5c7-664f37de8c5e","ios":"levelo://app?vid=e0334697-4704-4d5d-a5c7-664f37de8c5e"},"vehicle_type_id":"4","last_reported":1761905499,"current_range_meters":16800,"station_id":"ce4bhnh2rcd13ifvqgtg","pricing_plan_id":"cebpf4jnsgd1na2vs0mg"},{"bike_id":"c015c7a2-82a9-4665-ab56-4c69e7c6c92c","system_id":"levelo_inurba_marseille","lat":43.279103,"lon":5.395862,"is_reserved":false,"is_disabled":false,"rental_uris":{"android":"levelo://app?vid=c015c7a2-82a9-4665-ab56-4c69e7c6c92c","ios":"levelo://app?vid=c015c7a2-82a9-4665-ab56-4c69e7c6c92c"},"vehicle_type_id":"4","last_reported":1761905499,"current_range_meters":16800,"station_id":"ce4bhf92rcd13ifvqf40","pricing_plan_id":"cebpf4jnsgd1na2vs0mg"},{"bike_id":"a8fb7f3b-b49c-406d-99e1-cfbe96598c71","system_id":"levelo_inurba_marseille","lat":43.26796,"lon":5.39401,"is_reserved":false,"is_disabled":false,"rental_uris":{"android":"levelo://app?vid=a8fb7f3b-b49c-406d-99e1-cfbe96598c71","ios":"levelo://app?vid=a8fb7f3b-b49c-406d-99e1-cfbe96598c71"},"vehicle_type_id":"4","last_reported":1761905499,"current_range_meters":16800,"station_id":"ce4bhh12rcd13ifvqfg0","pricing_plan_id":"cebpf4jnsgd1na2vs0mg"},{"bike_id":"c1c07d4e-a43f-47cd-b4b4-67847955f9f2","system_id":"levelo_inurba_marseille","lat":43.24994,"lon":5.38929,"is_reserved":false,"is_disabled":false,"rental_uris":{"android":"levelo://app?vid=c1c07d4e-a43f-47cd-b4b4-67847955f9f2","ios":"levelo://app?vid=c1c07d4e-a43f-47cd-b4b4-67847955f9f2"},"vehicle_type_id":"4","last_reported":1761905499,"current_range_meters":16800,"station_id":"ce4bhgp2rcd13ifvqfd0","pricing_plan_id":"cebpf4jnsgd1na2vs0mg"},{"bike_id":"4419364e-7081-420e-bc7a-995a1e367772","system_id":"levelo_inurba_marseille","lat":43.25115,"lon":5.40326,"is_reserved":false,"is_disabled":false,"rental_uris":{"android":"levelo://app?vid=4419364e-7081-420e-bc7a-995a1e367772","ios":"levelo://app?vid=4419364e-7081-420e-bc7a-995a1e367772"},"vehicle_type_id":"4","last_reported":1761905499,"current_range_meters":17200,"station_id":"ce4bhlh2rcd13ifvqgig","pricing_plan_id":"cebpf4jnsgd1na2vs0mg"},{"bike_id":"b9d2a6bf-bf3c-4f93-9477-0a76cf804f60","system_id":"levelo_inurba_marseille","lat":43.27917,"lon":5.39572,"is_reserved":false,"is_disabled":false,"rental_uris":{"android":"levelo://app?vid=b9d2a6bf-bf3c-4f93-9477-0a76cf804f60","ios":"levelo://app?vid=b9d2a6bf-bf3c-4f93-9477-0a76cf804f60"},"vehicle_type_id":"4","last_reported":1761905499,"current_range_meters":17200,"station_id":"ce4bhf92rcd13ifvqf40","pricing_plan_id":"cebpf4jnsgd1na2vs0mg"},{"bike_id":"5228f74b-a580-49fc-a703-94df1abde25d","system_id":"levelo_inurba_marseille","lat":43.30309,"lon":5.36893,"is_reserved":false,"is_disabled":false,"rental_uris":{"android":"levelo://app?vid=5228f74b-a580-49fc-a703-94df1abde25d","ios":"levelo://app?vid=5228f74b-a580-49fc-a703-94df1abde25d"},"vehicle_type_id":"4","last_reported":1761905499,"current_range_meters":17200,"station_id":"ce4bgqh2rcd13ifvqc5g","pricing_plan_id":"cebpf4jnsgd1na2vs0mg"},{"bike_id":"b1e81361-2b17-4ef1-8a58-6def5753471b","system_id":"levelo_inurba_marseille","lat":43.33753,"lon":5.37484,"is_reserved":false,"is_disabled":false,"rental_uris":{"android":"levelo://app?vid=b1e81361-2b17-4ef1-8a58-6def5753471b","ios":"levelo://app?vid=b1e81361-2b17-4ef1-8a58-6def5753471b"},"vehicle_type_id":"4","last_reported":1761905499,"current_range_meters":17200,"station_id":"","pricing_plan_id":"cebpf4jnsgd1na2vs0mg"},{"bike_id":"0c26569c-8a94-48ad-927a-5b1d1661752f","system_id":"levelo_inurba_marseille","lat":43.25939,"lon":5.40899,"is_reserved":false,"is_disabled":false,"rental_uris":{"android":"levelo://app?vid=0c26569c-8a94-48ad-927a-5b1d1661752f","ios":"levelo://app?vid=0c26569c-8a94-48ad-927a-5b1d1661752f"},"vehicle_type_id":"4","last_reported":1761905499,"current_range_meters":17200,"station_id":"ce4bhm92rcd13ifvqglg","pricing_plan_id":"cebpf4jnsgd1na2vs0mg"},{"bike_id":"52b117f2-4c01-4f66-887d-006722496528","system_id":"levelo_inurba_marseille","lat":43.30858,"lon":5.37155,"is_reserved":false,"is_disabled":false,"rental_uris":{"android":"levelo://app?vid=52b117f2-4c01-4f66-887d-006722496528","ios":"levelo://app?vid=52b117f2-4c01-4f66-887d-006722496528"},"vehicle_type_id":"4","last_reported":1761905499,"current_range_meters":17200,"station_id":"","pricing_plan_id":"cebpf4jnsgd1na2vs0mg"},{"bike_id":"933ed787-74a5-45ae-8d47-34a1b88d6813","system_id":"levelo_inurba_marseille","lat":43.23142,"lon":5.43708,"is_reserved":false,"is_disabled":false,"rental_uris":{"android":"levelo://app?vid=933ed787-74a5-45ae-8d47-34a1b88d6813","ios":"levelo://app?vid=933ed787-74a5-45ae-8d47-34a1b88d6813"},"vehicle_type_id":"4","last_reported":1761905499,"current_range_meters":17200,"station_id":"ce4bhmp2rcd13ifvqgog","pricing_plan_id":"cebpf4jnsgd1na2vs0mg"},{"bike_id":"b1529460-35c1-49c7-a059-1efcb986b42d","system_id":"levelo_inurba_marseille","lat":43.287655,"lon":5.38433,"is_reserved":false,"is_disabled":false,"rental_uris":{"android":"levelo://app?vid=b1529460-35c1-49c7-a059-1efcb986b42d","ios":"levelo://app?vid=b1529460-35c1-49c7-a059-1efcb986b42d"},"vehicle_type_id":"4","last_reported":1761905499,"current_range_meters":17600,"station_id":"","pricing_plan_id":"cebpf4jnsgd1na2vs0mg"},{"bike_id":"31afb3bf-459c-440c-95c0-c3438278d4d5","system_id":"levelo_inurba_marseille","lat":43.25113,"lon":5.40319,"is_reserved":false,"is_disabled":false,"rental_uris":{"android":"levelo://app?vid=31afb3bf-459c-440c-95c0-c3438278d4d5","ios":"levelo://app?vid=31afb3bf-459c-440c-95c0-c3438278d4d5"},"vehicle_type_id":"4","last_reported":1761905499,"current_range_meters":17600,"station_id":"ce4bhlh2rcd13ifvqgig","pricing_plan_id":"cebpf4jnsgd1na2vs0mg"},{"bike_id":"81ddfa84-8a38-4992-b757-66a5e1097b2f","system_id":"levelo_inurba_marseille","lat":43.29902,"lon":5.43665,"is_reserved":false,"is_disabled":false,"rental_uris":{"android":"levelo://app?vid=81ddfa84-8a38-4992-b757-66a5e1097b2f","ios":"levelo://app?vid=81ddfa84-8a38-4992-b757-66a5e1097b2f"},"vehicle_type_id":"4","last_reported":1761905499,"current_range_meters":17600,"station_id":"ce4bhpp2rcd13ifvqhfg","pricing_plan_id":"cebpf4jnsgd1na2vs0mg"},{"bike_id":"3fdd4075-2d2f-41f7-b068-ea13f83763a0","system_id":"levelo_inurba_marseille","lat":43.32972,"lon":5.39009,"is_reserved":false,"is_disabled":false,"rental_uris":{"android":"levelo://app?vid=3fdd4075-2d2f-41f7-b068-ea13f83763a0","ios":"levelo://app?vid=3fdd4075-2d2f-41f7-b068-ea13f83763a0"},"vehicle_type_id":"4","last_reported":1761905499,"current_range_meters":17600,"station_id":"","pricing_plan_id":"cebpf4jnsgd1na2vs0mg"},{"bike_id":"0240f7a8-dbeb-407b-8c5a-9ebc31caa8f3","system_id":"levelo_inurba_marseille","lat":43.29563,"lon":5.3751,"is_reserved":false,"is_disabled":false,"rental_uris":{"android":"levelo://app?vid=0240f7a8-dbeb-407b-8c5a-9ebc31caa8f3","ios":"levelo://app?vid=0240f7a8-dbeb-407b-8c5a-9ebc31caa8f3"},"vehicle_type_id":"4","last_reported":1761905499,"current_range_meters":17600,"station_id":"ce4bgh92rcd13ifvqb50","pricing_plan_id":"cebpf4jnsgd1na2vs0mg"},{"bike_id":"a9bd6156-5973-4728-a560-5afb8e593a6c","system_id":"levelo_inurba_marseille","lat":43.30494,"lon":5.37908,"is_reserved":false,"is_disabled":false,"rental_uris":{"android":"levelo://app?vid=a9bd6156-5973-4728-a560-5afb8e593a6c","ios":"levelo://app?vid=a9bd6156-5973-4728-a560-5afb8e593a6c"},"vehicle_type_id":"4","last_reported":1761905499,"current_range_meters":17600,"station_id":"ce4bgup2rcd13ifvqcn0","pricing_plan_id":"cebpf4jnsgd1na2vs0mg"},{"bike_id":"a0fbeb00-c29e-42c3-8914-dc6c4bbbfd9f","system_id":"levelo_inurba_marseille","lat":43.29847,"lon":5.36274,"is_reserved":false,"is_disabled":false,"rental_uris":{"android":"levelo://app?vid=a0fbeb00-c29e-42c3-8914-dc6c4bbbfd9f","ios":"levelo://app?vid=a0fbeb00-c29e-42c3-8914-dc6c4bbbfd9f"},"vehicle_type_id":"4","last_reported":1761905499,"current_range_meters":17600,"station_id":"ce4bgpp2rcd13ifvqc3g","pricing_plan_id":"cebpf4jnsgd1na2vs0mg"},{"bike_id":"02d869e4-5856-4b89-b4f7-83a21afde51d","system_id":"levelo_inurba_marseille","lat":43.21219,"lon":5.35078,"is_reserved":false,"is_disabled":false,"rental_uris":{"android":"levelo://app?vid=02d869e4-5856-4b89-b4f7-83a21afde51d","ios":"levelo://app?vid=02d869e4-5856-4b89-b4f7-83a21afde51d"},"vehicle_type_id":"4","last_reported":1761905499,"current_range_meters":17600,"station_id":"st_cvj6sg6p6f1abm77japg","pricing_plan_id":"cebpf4jnsgd1na2vs0mg"},{"bike_id":"86f79429-0301-49ed-a161-08d0403b7392","system_id":"levelo_inurba_marseille","lat":43.288043,"lon":5.352421,"is_reserved":false,"is_disabled":true,"rental_uris":{"android":"levelo://app?vid=86f79429-0301-49ed-a161-08d0403b7392","ios":"levelo://app?vid=86f79429-0301-49ed-a161-08d0403b7392"},"vehicle_type_id":"4","last_reported":1761905499,"current_range_meters":18000,"station_id":"","pricing_plan_id":"cebpf4jnsgd1na2vs0mg"},{"bike_id":"9cb08936-82d3-468d-bc9f-2ddd857856aa","system_id":"levelo_inurba_marseille","lat":43.31229,"lon":5.36857,"is_reserved":false,"is_disabled":false,"rental_uris":{"android":"levelo://app?vid=9cb08936-82d3-468d-bc9f-2ddd857856aa","ios":"levelo://app?vid=9cb08936-82d3-468d-bc9f-2ddd857856aa"},"vehicle_type_id":"4","last_reported":1761905499,"current_range_meters":18000,"station_id":"ce4bgl92rcd13ifvqbq0","pricing_plan_id":"cebpf4jnsgd1na2vs0mg"},{"bike_id":"f1bfa7ee-e707-4bf3-b3ac-efd4e54c16f5","system_id":"levelo_inurba_marseille","lat":43.24946,"lon":5.40485,"is_reserved":false,"is_disabled":false,"rental_uris":{"android":"levelo://app?vid=f1bfa7ee-e707-4bf3-b3ac-efd4e54c16f5","ios":"levelo://app?vid=f1bfa7ee-e707-4bf3-b3ac-efd4e54c16f5"},"vehicle_type_id":"4","last_reported":1761905499,"current_range_meters":18000,"station_id":"st_d2ngiaodas8pm72gd1h0","pricing_plan_id":"cebpf4jnsgd1na2vs0mg"},{"bike_id":"f3be1fcb-f594-4572-b199-284acc9ab2d1","system_id":"levelo_inurba_marseille","lat":43.22557,"lon":5.41643,"is_reserved":false,"is_disabled":false,"rental_uris":{"android":"levelo://app?vid=f3be1fcb-f594-4572-b199-284acc9ab2d1","ios":"levelo://app?vid=f3be1fcb-f594-4572-b199-284acc9ab2d1"},"vehicle_type_id":"4","last_reported":1761905499,"current_range_meters":18800,"station_id":"st_d2o4gvlbi1j2169b742g","pricing_plan_id":"cebpf4jnsgd1na2vs0mg"},{"bike_id":"e04f332d-b41c-47fd-b12f-6fdc7d63f429","system_id":"levelo_inurba_marseille","lat":43.30843,"lon":5.38291,"is_reserved":false,"is_disabled":false,"rental_uris":{"android":"levelo://app?vid=e04f332d-b41c-47fd-b12f-6fdc7d63f429","ios":"levelo://app?vid=e04f332d-b41c-47fd-b12f-6fdc7d63f429"},"vehicle_type_id":"4","last_reported":1761905499,"current_range_meters":18800,"station_id":"","pricing_plan_id":"cebpf4jnsgd1na2vs0mg"},{"bike_id":"2a0dedfa-9a22-45d7-8d6c-6fde963b0a49","system_id":"levelo_inurba_marseille","lat":43.337444,"lon":5.374475,"is_reserved":false,"is_disabled":false,"rental_uris":{"android":"levelo://app?vid=2a0dedfa-9a22-45d7-8d6c-6fde963b0a49","ios":"levelo://app?vid=2a0dedfa-9a22-45d7-8d6c-6fde963b0a49"},"vehicle_type_id":"4","last_reported":1761905499,"current_range_meters":18800,"station_id":"","pricing_plan_id":"cebpf4jnsgd1na2vs0mg"},{"bike_id":"5329277d-b696-4f32-9412-95d13ccb7cbb","system_id":"levelo_inurba_marseille","lat":43.29806,"lon":5.44068,"is_reserved":false,"is_disabled":false,"rental_uris":{"android":"levelo://app?vid=5329277d-b696-4f32-9412-95d13ccb7cbb","ios":"levelo://app?vid=5329277d-b696-4f32-9412-95d13ccb7cbb"},"vehicle_type_id":"4","last_reported":1761905499,"current_range_meters":18800,"station_id":"st_d3jp68qikq2c7381ktn0","pricing_plan_id":"cebpf4jnsgd1na2vs0mg"},{"bike_id":"856797ce-229e-4cfe-be8b-1d125da1c74b","system_id":"levelo_inurba_marseille","lat":43.2496,"lon":5.40479,"is_reserved":false,"is_disabled":false,"rental_uris":{"android":"levelo://app?vid=856797ce-229e-4cfe-be8b-1d125da1c74b","ios":"levelo://app?vid=856797ce-229e-4cfe-be8b-1d125da1c74b"},"vehicle_type_id":"4","last_reported":1761905499,"current_range_meters":19200,"station_id":"st_d2ngiaodas8pm72gd1h0","pricing_plan_id":"cebpf4jnsgd1na2vs0mg"},{"bike_id":"f2942712-3404-47e6-8e4f-4b56a1fa9762","system_id":"levelo_inurba_marseille","lat":43.27347,"lon":5.3909,"is_reserved":false,"is_disabled":false,"rental_uris":{"android":"levelo://app?vid=f2942712-3404-47e6-8e4f-4b56a1fa9762","ios":"levelo://app?vid=f2942712-3404-47e6-8e4f-4b56a1fa9762"},"vehicle_type_id":"4","last_reported":1761905499,"current_range_meters":19200,"station_id":"ce4bhgp2rcd13ifvqfe0","pricing_plan_id":"cebpf4jnsgd1na2vs0mg"},{"bike_id":"4476fb93-b41b-429c-b66e-779ffc5aabd1","system_id":"levelo_inurba_marseille","lat":43.25334,"lon":5.42178,"is_reserved":false,"is_disabled":false,"rental_uris":{"android":"levelo://app?vid=4476fb93-b41b-429c-b66e-779ffc5aabd1","ios":"levelo://app?vid=4476fb93-b41b-429c-b66e-779ffc5aabd1"},"vehicle_type_id":"4","last_reported":1761905499,"current_range_meters":19200,"station_id":"st_d2m65c5bi1j21697t3ng","pricing_plan_id":"cebpf4jnsgd1na2vs0mg"},{"bike_id":"91cce8f0-3aac-4e6a-8ab6-76a6ac01a205","system_id":"levelo_inurba_marseille","lat":43.29298,"lon":5.37452,"is_reserved":false,"is_disabled":false,"rental_uris":{"android":"levelo://app?vid=91cce8f0-3aac-4e6a-8ab6-76a6ac01a205","ios":"levelo://app?vid=91cce8f0-3aac-4e6a-8ab6-76a6ac01a205"},"vehicle_type_id":"4","last_reported":1761905499,"current_range_meters":19200,"station_id":"ce4bgi12rcd13ifvqb70","pricing_plan_id":"cebpf4jnsgd1na2vs0mg"},{"bike_id":"fb5bbde1-17ca-45a2-871a-75bfcf71f4c3","system_id":"levelo_inurba_marseille","lat":43.285327,"lon":5.440966,"is_reserved":false,"is_disabled":false,"rental_uris":{"android":"levelo://app?vid=fb5bbde1-17ca-45a2-871a-75bfcf71f4c3","ios":"levelo://app?vid=fb5bbde1-17ca-45a2-871a-75bfcf71f4c3"},"vehicle_type_id":"4","last_reported":1761905499,"current_range_meters":19200,"station_id":"st_d3j3df2ikq2c7380ej80","pricing_plan_id":"cebpf4jnsgd1na2vs0mg"},{"bike_id":"c04ea6ec-c85d-4b9a-aa74-f0de2415a6d2","system_id":"levelo_inurba_marseille","lat":43.31503,"lon":5.38208,"is_reserved":false,"is_disabled":false,"rental_uris":{"android":"levelo://app?vid=c04ea6ec-c85d-4b9a-aa74-f0de2415a6d2","ios":"levelo://app?vid=c04ea6ec-c85d-4b9a-aa74-f0de2415a6d2"},"vehicle_type_id":"4","last_reported":1761905499,"current_range_meters":19200,"station_id":"","pricing_plan_id":"cebpf4jnsgd1na2vs0mg"},{"bike_id":"fbcc5886-69e3-488f-96fd-e45314a075e6","system_id":"levelo_inurba_marseille","lat":43.28868,"lon":5.42513,"is_reserved":false,"is_disabled":false,"rental_uris":{"android":"levelo://app?vid=fbcc5886-69e3-488f-96fd-e45314a075e6","ios":"levelo://app?vid=fbcc5886-69e3-488f-96fd-e45314a075e6"},"vehicle_type_id":"4","last_reported":1761905499,"current_range_meters":19200,"station_id":"st_d3b462108ojc7389ooeg","pricing_plan_id":"cebpf4jnsgd1na2vs0mg"},{"bike_id":"d0ff1350-62ed-4b69-b9ea-ce5f64738b3d","system_id":"levelo_inurba_marseille","lat":43.30462,"lon":5.37903,"is_reserved":false,"is_disabled":false,"rental_uris":{"android":"levelo://app?vid=d0ff1350-62ed-4b69-b9ea-ce5f64738b3d","ios":"levelo://app?vid=d0ff1350-62ed-4b69-b9ea-ce5f64738b3d"},"vehicle_type_id":"4","last_reported":1761905499,"current_range_meters":19200,"station_id":"ce4bgup2rcd13ifvqcn0","pricing_plan_id":"cebpf4jnsgd1na2vs0mg"},{"bike_id":"a5d08a2b-3be6-4c97-bceb-9f8beea509b3","system_id":"levelo_inurba_marseille","lat":43.289904,"lon":5.378306,"is_reserved":false,"is_disabled":false,"rental_uris":{"android":"levelo://app?vid=a5d08a2b-3be6-4c97-bceb-9f8beea509b3","ios":"levelo://app?vid=a5d08a2b-3be6-4c97-bceb-9f8beea509b3"},"vehicle_type_id":"4","last_reported":1761905499,"current_range_meters":19600,"station_id":"","pricing_plan_id":"cebpf4jnsgd1na2vs0mg"},{"bike_id":"4b5e491d-2d61-4b93-8681-f276a0f34905","system_id":"levelo_inurba_marseille","lat":43.254784,"lon":5.376585,"is_reserved":false,"is_disabled":false,"rental_uris":{"android":"levelo://app?vid=4b5e491d-2d61-4b93-8681-f276a0f34905","ios":"levelo://app?vid=4b5e491d-2d61-4b93-8681-f276a0f34905"},"vehicle_type_id":"4","last_reported":1761905499,"current_range_meters":19600,"station_id":"ce4bhgh2rcd13ifvqfb0","pricing_plan_id":"cebpf4jnsgd1na2vs0mg"},{"bike_id":"0179aad9-8cf1-4065-b886-e1fdc3f62a49","system_id":"levelo_inurba_marseille","lat":43.24957,"lon":5.40509,"is_reserved":false,"is_disabled":false,"rental_uris":{"android":"levelo://app?vid=0179aad9-8cf1-4065-b886-e1fdc3f62a49","ios":"levelo://app?vid=0179aad9-8cf1-4065-b886-e1fdc3f62a49"},"vehicle_type_id":"4","last_reported":1761905499,"current_range_meters":19600,"station_id":"st_d2ngiaodas8pm72gd1h0","pricing_plan_id":"cebpf4jnsgd1na2vs0mg"},{"bike_id":"fcf02128-fc5d-4aa3-93e0-9295f4e1f565","system_id":"levelo_inurba_marseille","lat":43.30309,"lon":5.36896,"is_reserved":false,"is_disabled":false,"rental_uris":{"android":"levelo://app?vid=fcf02128-fc5d-4aa3-93e0-9295f4e1f565","ios":"levelo://app?vid=fcf02128-fc5d-4aa3-93e0-9295f4e1f565"},"vehicle_type_id":"4","last_reported":1761905499,"current_range_meters":19600,"station_id":"ce4bgqh2rcd13ifvqc5g","pricing_plan_id":"cebpf4jnsgd1na2vs0mg"},{"bike_id":"3965660d-d019-448d-9ea6-ad76591ec156","system_id":"levelo_inurba_marseille","lat":43.32109,"lon":5.368,"is_reserved":false,"is_disabled":false,"rental_uris":{"android":"levelo://app?vid=3965660d-d019-448d-9ea6-ad76591ec156","ios":"levelo://app?vid=3965660d-d019-448d-9ea6-ad76591ec156"},"vehicle_type_id":"4","last_reported":1761905499,"current_range_meters":19600,"station_id":"ce4bhrh2rcd13ifvqhug","pricing_plan_id":"cebpf4jnsgd1na2vs0mg"},{"bike_id":"4637449d-daaf-4e87-b7f5-54ac3f0d3bc0","system_id":"levelo_inurba_marseille","lat":43.24177,"lon":5.39719,"is_reserved":false,"is_disabled":false,"rental_uris":{"android":"levelo://app?vid=4637449d-daaf-4e87-b7f5-54ac3f0d3bc0","ios":"levelo://app?vid=4637449d-daaf-4e87-b7f5-54ac3f0d3bc0"},"vehicle_type_id":"4","last_reported":1761905499,"current_range_meters":19600,"station_id":"ce4bhn12rcd13ifvqgpg","pricing_plan_id":"cebpf4jnsgd1na2vs0mg"},{"bike_id":"42f4cfe4-5be1-4dba-8715-6a3f516018da","system_id":"levelo_inurba_marseille","lat":43.29005,"lon":5.35607,"is_reserved":false,"is_disabled":false,"rental_uris":{"android":"levelo://app?vid=42f4cfe4-5be1-4dba-8715-6a3f516018da","ios":"levelo://app?vid=42f4cfe4-5be1-4dba-8715-6a3f516018da"},"vehicle_type_id":"4","last_reported":1761905499,"current_range_meters":19600,"station_id":"ce4bhb92rcd13ifvqen0","pricing_plan_id":"cebpf4jnsgd1na2vs0mg"},{"bike_id":"f60df845-6c73-4124-9336-03eb366a6af8","system_id":"levelo_inurba_marseille","lat":43.2957,"lon":5.37504,"is_reserved":false,"is_disabled":false,"rental_uris":{"android":"levelo://app?vid=f60df845-6c73-4124-9336-03eb366a6af8","ios":"levelo://app?vid=f60df845-6c73-4124-9336-03eb366a6af8"},"vehicle_type_id":"4","last_reported":1761905499,"current_range_meters":19600,"station_id":"ce4bgh92rcd13ifvqb50","pricing_plan_id":"cebpf4jnsgd1na2vs0mg"},{"bike_id":"2819da96-e74b-4499-817d-c62867e34f4e","system_id":"levelo_inurba_marseille","lat":43.29846,"lon":5.36268,"is_reserved":false,"is_disabled":false,"rental_uris":{"android":"levelo://app?vid=2819da96-e74b-4499-817d-c62867e34f4e","ios":"levelo://app?vid=2819da96-e74b-4499-817d-c62867e34f4e"},"vehicle_type_id":"4","last_reported":1761905499,"current_range_meters":20000,"station_id":"ce4bgpp2rcd13ifvqc3g","pricing_plan_id":"cebpf4jnsgd1na2vs0mg"},{"bike_id":"6000a690-d94a-4c7f-8fe7-44bb05707884","system_id":"levelo_inurba_marseille","lat":43.312058,"lon":5.368171,"is_reserved":false,"is_disabled":false,"rental_uris":{"android":"levelo://app?vid=6000a690-d94a-4c7f-8fe7-44bb05707884","ios":"levelo://app?vid=6000a690-d94a-4c7f-8fe7-44bb05707884"},"vehicle_type_id":"4","last_reported":1761905499,"current_range_meters":20000,"station_id":"ce4bgl92rcd13ifvqbq0","pricing_plan_id":"cebpf4jnsgd1na2vs0mg"},{"bike_id":"6a390678-a799-420e-8b61-cd4a653cce87","system_id":"levelo_inurba_marseille","lat":43.32107,"lon":5.3675,"is_reserved":false,"is_disabled":false,"rental_uris":{"android":"levelo://app?vid=6a390678-a799-420e-8b61-cd4a653cce87","ios":"levelo://app?vid=6a390678-a799-420e-8b61-cd4a653cce87"},"vehicle_type_id":"4","last_reported":1761905499,"current_range_meters":20000,"station_id":"ce4bhrh2rcd13ifvqhug","pricing_plan_id":"cebpf4jnsgd1na2vs0mg"},{"bike_id":"ff50002c-4520-4545-a663-079038ba1614","system_id":"levelo_inurba_marseille","lat":43.305856,"lon":5.372243,"is_reserved":false,"is_disabled":false,"rental_uris":{"android":"levelo://app?vid=ff50002c-4520-4545-a663-079038ba1614","ios":"levelo://app?vid=ff50002c-4520-4545-a663-079038ba1614"},"vehicle_type_id":"4","last_reported":1761905499,"current_range_meters":20000,"station_id":"ce4bgqh2rcd13ifvqc4g","pricing_plan_id":"cebpf4jnsgd1na2vs0mg"},{"bike_id":"17ba5ddb-f5c9-4b5d-a0b3-f825096490c7","system_id":"levelo_inurba_marseille","lat":43.31081,"lon":5.38338,"is_reserved":false,"is_disabled":true,"rental_uris":{"android":"levelo://app?vid=17ba5ddb-f5c9-4b5d-a0b3-f825096490c7","ios":"levelo://app?vid=17ba5ddb-f5c9-4b5d-a0b3-f825096490c7"},"vehicle_type_id":"4","last_reported":1761905499,"current_range_meters":20400,"station_id":"ce4bgv92rcd13ifvqcr0","pricing_plan_id":"cebpf4jnsgd1na2vs0mg"},{"bike_id":"ced05c9b-8b86-4a12-9d87-e8975de0bd78","system_id":"levelo_inurba_marseille","lat":43.2782,"lon":5.3921,"is_reserved":false,"is_disabled":false,"rental_uris":{"android":"levelo://app?vid=ced05c9b-8b86-4a12-9d87-e8975de0bd78","ios":"levelo://app?vid=ced05c9b-8b86-4a12-9d87-e8975de0bd78"},"vehicle_type_id":"4","last_reported":1761905499,"current_range_meters":20400,"station_id":"ce4bhjp2rcd13ifvqga0","pricing_plan_id":"cebpf4jnsgd1na2vs0mg"},{"bike_id":"3b592273-5838-4e8d-a1ac-57b93f81c09c","system_id":"levelo_inurba_marseille","lat":43.31079,"lon":5.38352,"is_reserved":false,"is_disabled":false,"rental_uris":{"android":"levelo://app?vid=3b592273-5838-4e8d-a1ac-57b93f81c09c","ios":"levelo://app?vid=3b592273-5838-4e8d-a1ac-57b93f81c09c"},"vehicle_type_id":"4","last_reported":1761905499,"current_range_meters":20400,"station_id":"ce4bgv92rcd13ifvqcr0","pricing_plan_id":"cebpf4jnsgd1na2vs0mg"},{"bike_id":"c4859f56-3b31-419f-9307-9daa941e9cf3","system_id":"levelo_inurba_marseille","lat":43.29841,"lon":5.36264,"is_reserved":false,"is_disabled":false,"rental_uris":{"android":"levelo://app?vid=c4859f56-3b31-419f-9307-9daa941e9cf3","ios":"levelo://app?vid=c4859f56-3b31-419f-9307-9daa941e9cf3"},"vehicle_type_id":"4","last_reported":1761905499,"current_range_meters":20400,"station_id":"ce4bgpp2rcd13ifvqc3g","pricing_plan_id":"cebpf4jnsgd1na2vs0mg"},{"bike_id":"a3628b0d-5b8c-4625-b008-7e6b2068b25c","system_id":"levelo_inurba_marseille","lat":43.28666,"lon":5.38656,"is_reserved":false,"is_disabled":false,"rental_uris":{"android":"levelo://app?vid=a3628b0d-5b8c-4625-b008-7e6b2068b25c","ios":"levelo://app?vid=a3628b0d-5b8c-4625-b008-7e6b2068b25c"},"vehicle_type_id":"4","last_reported":1761905499,"current_range_meters":20400,"station_id":"ce4bh492rcd13ifvqdug","pricing_plan_id":"cebpf4jnsgd1na2vs0mg"},{"bike_id":"836c69a0-a300-4b08-8ee5-70064309329e","system_id":"levelo_inurba_marseille","lat":43.27201,"lon":5.391673,"is_reserved":false,"is_disabled":false,"rental_uris":{"android":"levelo://app?vid=836c69a0-a300-4b08-8ee5-70064309329e","ios":"levelo://app?vid=836c69a0-a300-4b08-8ee5-70064309329e"},"vehicle_type_id":"4","last_reported":1761905499,"current_range_meters":20400,"station_id":"ce4bhh12rcd13ifvqfg0","pricing_plan_id":"cebpf4jnsgd1na2vs0mg"},{"bike_id":"f742a6c4-d65c-4ddd-8bd5-7bb2ba3deaae","system_id":"levelo_inurba_marseille","lat":43.24621,"lon":5.43123,"is_reserved":false,"is_disabled":false,"rental_uris":{"android":"levelo://app?vid=f742a6c4-d65c-4ddd-8bd5-7bb2ba3deaae","ios":"levelo://app?vid=f742a6c4-d65c-4ddd-8bd5-7bb2ba3deaae"},"vehicle_type_id":"4","last_reported":1761905499,"current_range_meters":20400,"station_id":"st_d2m6c4gdas8pm72e190g","pricing_plan_id":"cebpf4jnsgd1na2vs0mg"},{"bike_id":"2b2a3460-2f99-4505-b72c-be9dc428cd71","system_id":"levelo_inurba_marseille","lat":43.304596,"lon":5.379132,"is_reserved":false,"is_disabled":false,"rental_uris":{"android":"levelo://app?vid=2b2a3460-2f99-4505-b72c-be9dc428cd71","ios":"levelo://app?vid=2b2a3460-2f99-4505-b72c-be9dc428cd71"},"vehicle_type_id":"4","last_reported":1761905499,"current_range_meters":20400,"station_id":"ce4bgup2rcd13ifvqcn0","pricing_plan_id":"cebpf4jnsgd1na2vs0mg"},{"bike_id":"92530d7c-f0bc-4dcf-8a29-1f89e2c361e7","system_id":"levelo_inurba_marseille","lat":43.3089,"lon":5.37188,"is_reserved":false,"is_disabled":false,"rental_uris":{"android":"levelo://app?vid=92530d7c-f0bc-4dcf-8a29-1f89e2c361e7","ios":"levelo://app?vid=92530d7c-f0bc-4dcf-8a29-1f89e2c361e7"},"vehicle_type_id":"4","last_reported":1761905499,"current_range_meters":20800,"station_id":"ce4bguh2rcd13ifvqckg","pricing_plan_id":"cebpf4jnsgd1na2vs0mg"},{"bike_id":"39c59166-27ec-4d6c-b95f-35422a29556c","system_id":"levelo_inurba_marseille","lat":43.26786,"lon":5.39411,"is_reserved":false,"is_disabled":false,"rental_uris":{"android":"levelo://app?vid=39c59166-27ec-4d6c-b95f-35422a29556c","ios":"levelo://app?vid=39c59166-27ec-4d6c-b95f-35422a29556c"},"vehicle_type_id":"4","last_reported":1761905499,"current_range_meters":20800,"station_id":"ce4bhh12rcd13ifvqfg0","pricing_plan_id":"cebpf4jnsgd1na2vs0mg"},{"bike_id":"5bec0f2b-db2f-42b1-9a22-d227ac5efecd","system_id":"levelo_inurba_marseille","lat":43.31301,"lon":5.38176,"is_reserved":false,"is_disabled":false,"rental_uris":{"android":"levelo://app?vid=5bec0f2b-db2f-42b1-9a22-d227ac5efecd","ios":"levelo://app?vid=5bec0f2b-db2f-42b1-9a22-d227ac5efecd"},"vehicle_type_id":"4","last_reported":1761905499,"current_range_meters":20800,"station_id":"","pricing_plan_id":"cebpf4jnsgd1na2vs0mg"},{"bike_id":"3ae33a65-f6ef-4e0e-af59-d42800e6202b","system_id":"levelo_inurba_marseille","lat":43.25107,"lon":5.40355,"is_reserved":false,"is_disabled":false,"rental_uris":{"android":"levelo://app?vid=3ae33a65-f6ef-4e0e-af59-d42800e6202b","ios":"levelo://app?vid=3ae33a65-f6ef-4e0e-af59-d42800e6202b"},"vehicle_type_id":"4","last_reported":1761905499,"current_range_meters":20800,"station_id":"ce4bhlh2rcd13ifvqgig","pricing_plan_id":"cebpf4jnsgd1na2vs0mg"},{"bike_id":"c530f552-5342-447f-af96-85b70bdee582","system_id":"levelo_inurba_marseille","lat":43.284308,"lon":5.391846,"is_reserved":false,"is_disabled":false,"rental_uris":{"android":"levelo://app?vid=c530f552-5342-447f-af96-85b70bdee582","ios":"levelo://app?vid=c530f552-5342-447f-af96-85b70bdee582"},"vehicle_type_id":"4","last_reported":1761905499,"current_range_meters":20800,"station_id":"ce4bhoh2rcd13ifvqh5g","pricing_plan_id":"cebpf4jnsgd1na2vs0mg"},{"bike_id":"1df5acf8-2868-442d-ac6b-a716815719c4","system_id":"levelo_inurba_marseille","lat":43.24177,"lon":5.39724,"is_reserved":false,"is_disabled":false,"rental_uris":{"android":"levelo://app?vid=1df5acf8-2868-442d-ac6b-a716815719c4","ios":"levelo://app?vid=1df5acf8-2868-442d-ac6b-a716815719c4"},"vehicle_type_id":"4","last_reported":1761905499,"current_range_meters":20800,"station_id":"ce4bhn12rcd13ifvqgpg","pricing_plan_id":"cebpf4jnsgd1na2vs0mg"},{"bike_id":"32632625-b281-4348-990f-071d78c42b84","system_id":"levelo_inurba_marseille","lat":43.26569,"lon":5.39014,"is_reserved":false,"is_disabled":false,"rental_uris":{"android":"levelo://app?vid=32632625-b281-4348-990f-071d78c42b84","ios":"levelo://app?vid=32632625-b281-4348-990f-071d78c42b84"},"vehicle_type_id":"4","last_reported":1761905499,"current_range_meters":20800,"station_id":"","pricing_plan_id":"cebpf4jnsgd1na2vs0mg"},{"bike_id":"3150b169-6d8b-4786-81cd-4b890da98702","system_id":"levelo_inurba_marseille","lat":43.237851,"lon":5.36624,"is_reserved":false,"is_disabled":false,"rental_uris":{"android":"levelo://app?vid=3150b169-6d8b-4786-81cd-4b890da98702","ios":"levelo://app?vid=3150b169-6d8b-4786-81cd-4b890da98702"},"vehicle_type_id":"4","last_reported":1761905499,"current_range_meters":20800,"station_id":"st_d3nk18o9ro0c73en2l3g","pricing_plan_id":"cebpf4jnsgd1na2vs0mg"},{"bike_id":"a5f9d115-2eb0-463d-bf65-9070eaddf3fb","system_id":"levelo_inurba_marseille","lat":43.23977,"lon":5.366,"is_reserved":false,"is_disabled":false,"rental_uris":{"android":"levelo://app?vid=a5f9d115-2eb0-463d-bf65-9070eaddf3fb","ios":"levelo://app?vid=a5f9d115-2eb0-463d-bf65-9070eaddf3fb"},"vehicle_type_id":"4","last_reported":1761905499,"current_range_meters":20800,"station_id":"ce4bhi12rcd13ifvqfp0","pricing_plan_id":"cebpf4jnsgd1na2vs0mg"},{"bike_id":"41598790-345d-414f-9e87-720cb432f278","system_id":"levelo_inurba_marseille","lat":43.29477,"lon":5.36227,"is_reserved":false,"is_disabled":false,"rental_uris":{"android":"levelo://app?vid=41598790-345d-414f-9e87-720cb432f278","ios":"levelo://app?vid=41598790-345d-414f-9e87-720cb432f278"},"vehicle_type_id":"4","last_reported":1761905499,"current_range_meters":20800,"station_id":"","pricing_plan_id":"cebpf4jnsgd1na2vs0mg"},{"bike_id":"28aa1f4a-e5ba-46af-be1c-d9836d8fe705","system_id":"levelo_inurba_marseille","lat":43.309143,"lon":5.368469,"is_reserved":false,"is_disabled":false,"rental_uris":{"android":"levelo://app?vid=28aa1f4a-e5ba-46af-be1c-d9836d8fe705","ios":"levelo://app?vid=28aa1f4a-e5ba-46af-be1c-d9836d8fe705"},"vehicle_type_id":"4","last_reported":1761905499,"current_range_meters":20800,"station_id":"ce4bgn92rcd13ifvqbvg","pricing_plan_id":"cebpf4jnsgd1na2vs0mg"},{"bike_id":"ba957394-61ca-4ca8-935f-d29c10c2c718","system_id":"levelo_inurba_marseille","lat":43.275654,"lon":5.384223,"is_reserved":false,"is_disabled":false,"rental_uris":{"android":"levelo://app?vid=ba957394-61ca-4ca8-935f-d29c10c2c718","ios":"levelo://app?vid=ba957394-61ca-4ca8-935f-d29c10c2c718"},"vehicle_type_id":"4","last_reported":1761905499,"current_range_meters":20800,"station_id":"ce4bhh92rcd13ifvqfi0","pricing_plan_id":"cebpf4jnsgd1na2vs0mg"},{"bike_id":"50c2c89c-4a9b-41f6-af05-b4e430e07029","system_id":"levelo_inurba_marseille","lat":43.246278,"lon":5.431473,"is_reserved":false,"is_disabled":false,"rental_uris":{"android":"levelo://app?vid=50c2c89c-4a9b-41f6-af05-b4e430e07029","ios":"levelo://app?vid=50c2c89c-4a9b-41f6-af05-b4e430e07029"},"vehicle_type_id":"4","last_reported":1761905499,"current_range_meters":20800,"station_id":"st_d2m6c4gdas8pm72e190g","pricing_plan_id":"cebpf4jnsgd1na2vs0mg"},{"bike_id":"89b9efbd-0824-4de5-842c-d4a58289667b","system_id":"levelo_inurba_marseille","lat":43.29581,"lon":5.36743,"is_reserved":false,"is_disabled":false,"rental_uris":{"android":"levelo://app?vid=89b9efbd-0824-4de5-842c-d4a58289667b","ios":"levelo://app?vid=89b9efbd-0824-4de5-842c-d4a58289667b"},"vehicle_type_id":"4","last_reported":1761905499,"current_range_meters":20800,"station_id":"ce4bgph2rcd13ifvqc2g","pricing_plan_id":"cebpf4jnsgd1na2vs0mg"},{"bike_id":"94084d75-b1ec-4cf5-8736-b1d0c7eed7ce","system_id":"levelo_inurba_marseille","lat":43.33023,"lon":5.39037,"is_reserved":false,"is_disabled":false,"rental_uris":{"android":"levelo://app?vid=94084d75-b1ec-4cf5-8736-b1d0c7eed7ce","ios":"levelo://app?vid=94084d75-b1ec-4cf5-8736-b1d0c7eed7ce"},"vehicle_type_id":"4","last_reported":1761905499,"current_range_meters":21600,"station_id":"ce4bhr92rcd13ifvqhrg","pricing_plan_id":"cebpf4jnsgd1na2vs0mg"},{"bike_id":"2f49b0d6-abb8-411f-969a-a9c6e1696b5f","system_id":"levelo_inurba_marseille","lat":43.30169,"lon":5.38071,"is_reserved":false,"is_disabled":false,"rental_uris":{"android":"levelo://app?vid=2f49b0d6-abb8-411f-969a-a9c6e1696b5f","ios":"levelo://app?vid=2f49b0d6-abb8-411f-969a-a9c6e1696b5f"},"vehicle_type_id":"4","last_reported":1761905499,"current_range_meters":21600,"station_id":"ce4bgjp2rcd13ifvqbh0","pricing_plan_id":"cebpf4jnsgd1na2vs0mg"},{"bike_id":"eaef80a6-8562-4379-8226-7d7a9ee5a612","system_id":"levelo_inurba_marseille","lat":43.30921,"lon":5.3685,"is_reserved":false,"is_disabled":false,"rental_uris":{"android":"levelo://app?vid=eaef80a6-8562-4379-8226-7d7a9ee5a612","ios":"levelo://app?vid=eaef80a6-8562-4379-8226-7d7a9ee5a612"},"vehicle_type_id":"4","last_reported":1761905499,"current_range_meters":21600,"station_id":"ce4bgn92rcd13ifvqbvg","pricing_plan_id":"cebpf4jnsgd1na2vs0mg"},{"bike_id":"3ffbae57-8ecd-4e3d-96ad-932247e3fe54","system_id":"levelo_inurba_marseille","lat":43.318989,"lon":5.372978,"is_reserved":false,"is_disabled":false,"rental_uris":{"android":"levelo://app?vid=3ffbae57-8ecd-4e3d-96ad-932247e3fe54","ios":"levelo://app?vid=3ffbae57-8ecd-4e3d-96ad-932247e3fe54"},"vehicle_type_id":"4","last_reported":1761905499,"current_range_meters":21600,"station_id":"","pricing_plan_id":"cebpf4jnsgd1na2vs0mg"},{"bike_id":"9f4dc427-2c29-4e41-82a8-c6cc9e0f5f4d","system_id":"levelo_inurba_marseille","lat":43.25937,"lon":5.40898,"is_reserved":false,"is_disabled":false,"rental_uris":{"android":"levelo://app?vid=9f4dc427-2c29-4e41-82a8-c6cc9e0f5f4d","ios":"levelo://app?vid=9f4dc427-2c29-4e41-82a8-c6cc9e0f5f4d"},"vehicle_type_id":"4","last_reported":1761905499,"current_range_meters":21600,"station_id":"ce4bhm92rcd13ifvqglg","pricing_plan_id":"cebpf4jnsgd1na2vs0mg"},{"bike_id":"df98e48b-b44c-41f2-ac3a-faf2e2b25f14","system_id":"levelo_inurba_marseille","lat":43.30137,"lon":5.38777,"is_reserved":false,"is_disabled":false,"rental_uris":{"android":"levelo://app?vid=df98e48b-b44c-41f2-ac3a-faf2e2b25f14","ios":"levelo://app?vid=df98e48b-b44c-41f2-ac3a-faf2e2b25f14"},"vehicle_type_id":"4","last_reported":1761905499,"current_range_meters":21600,"station_id":"ce4bghh2rcd13ifvqb60","pricing_plan_id":"cebpf4jnsgd1na2vs0mg"},{"bike_id":"cc0d6697-bf7c-4001-828f-c5cf42c80c59","system_id":"levelo_inurba_marseille","lat":43.211849,"lon":5.350799,"is_reserved":false,"is_disabled":false,"rental_uris":{"android":"levelo://app?vid=cc0d6697-bf7c-4001-828f-c5cf42c80c59","ios":"levelo://app?vid=cc0d6697-bf7c-4001-828f-c5cf42c80c59"},"vehicle_type_id":"4","last_reported":1761905499,"current_range_meters":21600,"station_id":"","pricing_plan_id":"cebpf4jnsgd1na2vs0mg"},{"bike_id":"a73a24c3-2218-4652-a302-2ad81b7034ad","system_id":"levelo_inurba_marseille","lat":43.318129,"lon":5.387645,"is_reserved":false,"is_disabled":false,"rental_uris":{"android":"levelo://app?vid=a73a24c3-2218-4652-a302-2ad81b7034ad","ios":"levelo://app?vid=a73a24c3-2218-4652-a302-2ad81b7034ad"},"vehicle_type_id":"4","last_reported":1761905499,"current_range_meters":21600,"station_id":"","pricing_plan_id":"cebpf4jnsgd1na2vs0mg"},{"bike_id":"27f5fb6c-225a-4037-bb83-dfdc2276e1c9","system_id":"levelo_inurba_marseille","lat":43.253436,"lon":5.402032,"is_reserved":false,"is_disabled":false,"rental_uris":{"android":"levelo://app?vid=27f5fb6c-225a-4037-bb83-dfdc2276e1c9","ios":"levelo://app?vid=27f5fb6c-225a-4037-bb83-dfdc2276e1c9"},"vehicle_type_id":"4","last_reported":1761905499,"current_range_meters":21600,"station_id":"ce4bhlh2rcd13ifvqgig","pricing_plan_id":"cebpf4jnsgd1na2vs0mg"},{"bike_id":"8063f013-c481-466d-866a-7e548c0ef3bb","system_id":"levelo_inurba_marseille","lat":43.29914,"lon":5.37459,"is_reserved":false,"is_disabled":false,"rental_uris":{"android":"levelo://app?vid=8063f013-c481-466d-866a-7e548c0ef3bb","ios":"levelo://app?vid=8063f013-c481-466d-866a-7e548c0ef3bb"},"vehicle_type_id":"4","last_reported":1761905499,"current_range_meters":21600,"station_id":"ce4bgjh2rcd13ifvqbg0","pricing_plan_id":"cebpf4jnsgd1na2vs0mg"},{"bike_id":"42ee845a-4e54-4f5b-8729-bb3ec7276302","system_id":"levelo_inurba_marseille","lat":43.29444,"lon":5.40129,"is_reserved":false,"is_disabled":false,"rental_uris":{"android":"levelo://app?vid=42ee845a-4e54-4f5b-8729-bb3ec7276302","ios":"levelo://app?vid=42ee845a-4e54-4f5b-8729-bb3ec7276302"},"vehicle_type_id":"4","last_reported":1761905499,"current_range_meters":22000,"station_id":"","pricing_plan_id":"cebpf4jnsgd1na2vs0mg"},{"bike_id":"7538157b-be93-4753-8e27-a16e6ace021c","system_id":"levelo_inurba_marseille","lat":43.28532,"lon":5.44092,"is_reserved":false,"is_disabled":false,"rental_uris":{"android":"levelo://app?vid=7538157b-be93-4753-8e27-a16e6ace021c","ios":"levelo://app?vid=7538157b-be93-4753-8e27-a16e6ace021c"},"vehicle_type_id":"4","last_reported":1761905499,"current_range_meters":22000,"station_id":"st_d3j3df2ikq2c7380ej80","pricing_plan_id":"cebpf4jnsgd1na2vs0mg"},{"bike_id":"c311dcd7-8990-4d0c-b893-da6fc911ae2a","system_id":"levelo_inurba_marseille","lat":43.23186,"lon":5.39982,"is_reserved":false,"is_disabled":false,"rental_uris":{"android":"levelo://app?vid=c311dcd7-8990-4d0c-b893-da6fc911ae2a","ios":"levelo://app?vid=c311dcd7-8990-4d0c-b893-da6fc911ae2a"},"vehicle_type_id":"4","last_reported":1761905499,"current_range_meters":22000,"station_id":"ce4bhn12rcd13ifvqgqg","pricing_plan_id":"cebpf4jnsgd1na2vs0mg"},{"bike_id":"01ae345a-1ff9-420b-bcb1-37ca0cb2474a","system_id":"levelo_inurba_marseille","lat":43.29225,"lon":5.36057,"is_reserved":false,"is_disabled":false,"rental_uris":{"android":"levelo://app?vid=01ae345a-1ff9-420b-bcb1-37ca0cb2474a","ios":"levelo://app?vid=01ae345a-1ff9-420b-bcb1-37ca0cb2474a"},"vehicle_type_id":"4","last_reported":1761905499,"current_range_meters":22000,"station_id":"ce4bhbh2rcd13ifvqeqg","pricing_plan_id":"cebpf4jnsgd1na2vs0mg"},{"bike_id":"ec6886bc-b88a-4e3a-92df-2fc40a0089d0","system_id":"levelo_inurba_marseille","lat":43.2408,"lon":5.37765,"is_reserved":false,"is_disabled":false,"rental_uris":{"android":"levelo://app?vid=ec6886bc-b88a-4e3a-92df-2fc40a0089d0","ios":"levelo://app?vid=ec6886bc-b88a-4e3a-92df-2fc40a0089d0"},"vehicle_type_id":"4","last_reported":1761905499,"current_range_meters":22000,"station_id":"ce4bhnp2rcd13ifvqgvg","pricing_plan_id":"cebpf4jnsgd1na2vs0mg"},{"bike_id":"3240f861-c3c6-464f-bed6-40993445f8ca","system_id":"levelo_inurba_marseille","lat":43.28469,"lon":5.38418,"is_reserved":false,"is_disabled":false,"rental_uris":{"android":"levelo://app?vid=3240f861-c3c6-464f-bed6-40993445f8ca","ios":"levelo://app?vid=3240f861-c3c6-464f-bed6-40993445f8ca"},"vehicle_type_id":"4","last_reported":1761905499,"current_range_meters":22000,"station_id":"ce4bh512rcd13ifvqe3g","pricing_plan_id":"cebpf4jnsgd1na2vs0mg"},{"bike_id":"fd56ea3d-f6ba-418e-9775-b6b49b7806ef","system_id":"levelo_inurba_marseille","lat":43.3041,"lon":5.41287,"is_reserved":false,"is_disabled":false,"rental_uris":{"android":"levelo://app?vid=fd56ea3d-f6ba-418e-9775-b6b49b7806ef","ios":"levelo://app?vid=fd56ea3d-f6ba-418e-9775-b6b49b7806ef"},"vehicle_type_id":"4","last_reported":1761905499,"current_range_meters":22000,"station_id":"ce4bhop2rcd13ifvqh8g","pricing_plan_id":"cebpf4jnsgd1na2vs0mg"},{"bike_id":"98d35a2c-6fc3-4028-8d21-97d565f362c3","system_id":"levelo_inurba_marseille","lat":43.240763,"lon":5.3776,"is_reserved":false,"is_disabled":false,"rental_uris":{"android":"levelo://app?vid=98d35a2c-6fc3-4028-8d21-97d565f362c3","ios":"levelo://app?vid=98d35a2c-6fc3-4028-8d21-97d565f362c3"},"vehicle_type_id":"4","last_reported":1761905499,"current_range_meters":22000,"station_id":"ce4bhnp2rcd13ifvqgvg","pricing_plan_id":"cebpf4jnsgd1na2vs0mg"},{"bike_id":"88dd81e2-ba33-4269-982e-e42f8916ec71","system_id":"levelo_inurba_marseille","lat":43.245422,"lon":5.395193,"is_reserved":false,"is_disabled":false,"rental_uris":{"android":"levelo://app?vid=88dd81e2-ba33-4269-982e-e42f8916ec71","ios":"levelo://app?vid=88dd81e2-ba33-4269-982e-e42f8916ec71"},"vehicle_type_id":"4","last_reported":1761905499,"current_range_meters":22000,"station_id":"","pricing_plan_id":"cebpf4jnsgd1na2vs0mg"},{"bike_id":"aca8a8af-ca4b-46df-86a1-ec41d5844162","system_id":"levelo_inurba_marseille","lat":43.24165,"lon":5.36401,"is_reserved":false,"is_disabled":false,"rental_uris":{"android":"levelo://app?vid=aca8a8af-ca4b-46df-86a1-ec41d5844162","ios":"levelo://app?vid=aca8a8af-ca4b-46df-86a1-ec41d5844162"},"vehicle_type_id":"4","last_reported":1761905499,"current_range_meters":22000,"station_id":"cpo36qri1sfpv3e86is0","pricing_plan_id":"cebpf4jnsgd1na2vs0mg"},{"bike_id":"299437b7-9388-4b32-abad-6d65c0d126b9","system_id":"levelo_inurba_marseille","lat":43.31236,"lon":5.3685,"is_reserved":false,"is_disabled":false,"rental_uris":{"android":"levelo://app?vid=299437b7-9388-4b32-abad-6d65c0d126b9","ios":"levelo://app?vid=299437b7-9388-4b32-abad-6d65c0d126b9"},"vehicle_type_id":"4","last_reported":1761905499,"current_range_meters":22000,"station_id":"ce4bgl92rcd13ifvqbq0","pricing_plan_id":"cebpf4jnsgd1na2vs0mg"},{"bike_id":"06fc4c44-20ba-493c-8944-d78c73d93c94","system_id":"levelo_inurba_marseille","lat":43.31197,"lon":5.39343,"is_reserved":false,"is_disabled":false,"rental_uris":{"android":"levelo://app?vid=06fc4c44-20ba-493c-8944-d78c73d93c94","ios":"levelo://app?vid=06fc4c44-20ba-493c-8944-d78c73d93c94"},"vehicle_type_id":"4","last_reported":1761905499,"current_range_meters":22000,"station_id":"","pricing_plan_id":"cebpf4jnsgd1na2vs0mg"},{"bike_id":"7c19b7e9-393b-4fa2-b057-4dd7dff08f6d","system_id":"levelo_inurba_marseille","lat":43.21212,"lon":5.35056,"is_reserved":false,"is_disabled":false,"rental_uris":{"android":"levelo://app?vid=7c19b7e9-393b-4fa2-b057-4dd7dff08f6d","ios":"levelo://app?vid=7c19b7e9-393b-4fa2-b057-4dd7dff08f6d"},"vehicle_type_id":"4","last_reported":1761905499,"current_range_meters":22000,"station_id":"st_cvj6sg6p6f1abm77japg","pricing_plan_id":"cebpf4jnsgd1na2vs0mg"},{"bike_id":"762b8850-decf-4679-abbc-c2f891be85d1","system_id":"levelo_inurba_marseille","lat":43.30376,"lon":5.42489,"is_reserved":false,"is_disabled":false,"rental_uris":{"android":"levelo://app?vid=762b8850-decf-4679-abbc-c2f891be85d1","ios":"levelo://app?vid=762b8850-decf-4679-abbc-c2f891be85d1"},"vehicle_type_id":"4","last_reported":1761905499,"current_range_meters":22400,"station_id":"ce4bhoh2rcd13ifvqh6g","pricing_plan_id":"cebpf4jnsgd1na2vs0mg"},{"bike_id":"7776d34e-6db1-4a95-b64a-dfa1faf6c280","system_id":"levelo_inurba_marseille","lat":43.30187,"lon":5.3699,"is_reserved":false,"is_disabled":false,"rental_uris":{"android":"levelo://app?vid=7776d34e-6db1-4a95-b64a-dfa1faf6c280","ios":"levelo://app?vid=7776d34e-6db1-4a95-b64a-dfa1faf6c280"},"vehicle_type_id":"4","last_reported":1761905499,"current_range_meters":22400,"station_id":"","pricing_plan_id":"cebpf4jnsgd1na2vs0mg"},{"bike_id":"c672ecda-1b5f-4811-9cd8-c8b1b3384f28","system_id":"levelo_inurba_marseille","lat":43.31909,"lon":5.4016,"is_reserved":false,"is_disabled":false,"rental_uris":{"android":"levelo://app?vid=c672ecda-1b5f-4811-9cd8-c8b1b3384f28","ios":"levelo://app?vid=c672ecda-1b5f-4811-9cd8-c8b1b3384f28"},"vehicle_type_id":"4","last_reported":1761905499,"current_range_meters":22400,"station_id":"","pricing_plan_id":"cebpf4jnsgd1na2vs0mg"},{"bike_id":"79c3e17b-6b52-40f3-829f-6b443681b1d3","system_id":"levelo_inurba_marseille","lat":43.28089,"lon":5.39659,"is_reserved":false,"is_disabled":false,"rental_uris":{"android":"levelo://app?vid=79c3e17b-6b52-40f3-829f-6b443681b1d3","ios":"levelo://app?vid=79c3e17b-6b52-40f3-829f-6b443681b1d3"},"vehicle_type_id":"4","last_reported":1761905499,"current_range_meters":22800,"station_id":"ce4bho12rcd13ifvqh2g","pricing_plan_id":"cebpf4jnsgd1na2vs0mg"},{"bike_id":"cf7a8ce5-6096-4f39-86c5-cb2e7875b3f2","system_id":"levelo_inurba_marseille","lat":43.24556,"lon":5.3951,"is_reserved":false,"is_disabled":false,"rental_uris":{"android":"levelo://app?vid=cf7a8ce5-6096-4f39-86c5-cb2e7875b3f2","ios":"levelo://app?vid=cf7a8ce5-6096-4f39-86c5-cb2e7875b3f2"},"vehicle_type_id":"4","last_reported":1761905499,"current_range_meters":22800,"station_id":"ce4bhlp2rcd13ifvqgjg","pricing_plan_id":"cebpf4jnsgd1na2vs0mg"},{"bike_id":"f4c38a56-4a35-49a9-bdea-5d14ae1ba768","system_id":"levelo_inurba_marseille","lat":43.29764,"lon":5.42771,"is_reserved":false,"is_disabled":false,"rental_uris":{"android":"levelo://app?vid=f4c38a56-4a35-49a9-bdea-5d14ae1ba768","ios":"levelo://app?vid=f4c38a56-4a35-49a9-bdea-5d14ae1ba768"},"vehicle_type_id":"4","last_reported":1761905499,"current_range_meters":22800,"station_id":"st_d3md5207bmas73dh9klg","pricing_plan_id":"cebpf4jnsgd1na2vs0mg"},{"bike_id":"08be9180-bf38-4cf8-82e7-b730b3dc8a1e","system_id":"levelo_inurba_marseille","lat":43.292619,"lon":5.38436,"is_reserved":false,"is_disabled":true,"rental_uris":{"android":"levelo://app?vid=08be9180-bf38-4cf8-82e7-b730b3dc8a1e","ios":"levelo://app?vid=08be9180-bf38-4cf8-82e7-b730b3dc8a1e"},"vehicle_type_id":"4","last_reported":1761905499,"current_range_meters":22800,"station_id":"ce4bh692rcd13ifvqea0","pricing_plan_id":"cebpf4jnsgd1na2vs0mg"},{"bike_id":"dca819aa-7242-4395-a30e-75e143f05e33","system_id":"levelo_inurba_marseille","lat":43.30564,"lon":5.36531,"is_reserved":false,"is_disabled":false,"rental_uris":{"android":"levelo://app?vid=dca819aa-7242-4395-a30e-75e143f05e33","ios":"levelo://app?vid=dca819aa-7242-4395-a30e-75e143f05e33"},"vehicle_type_id":"4","last_reported":1761905499,"current_range_meters":22800,"station_id":"ce4bgs12rcd13ifvqcag","pricing_plan_id":"cebpf4jnsgd1na2vs0mg"},{"bike_id":"aea69efe-0503-4b60-bce9-564bde7f7791","system_id":"levelo_inurba_marseille","lat":43.32095,"lon":5.36788,"is_reserved":false,"is_disabled":false,"rental_uris":{"android":"levelo://app?vid=aea69efe-0503-4b60-bce9-564bde7f7791","ios":"levelo://app?vid=aea69efe-0503-4b60-bce9-564bde7f7791"},"vehicle_type_id":"4","last_reported":1761905499,"current_range_meters":22800,"station_id":"ce4bhrh2rcd13ifvqhug","pricing_plan_id":"cebpf4jnsgd1na2vs0mg"},{"bike_id":"e0d54695-e2e6-4a7d-b4ff-43fb26bfe078","system_id":"levelo_inurba_marseille","lat":43.30592,"lon":5.36498,"is_reserved":false,"is_disabled":false,"rental_uris":{"android":"levelo://app?vid=e0d54695-e2e6-4a7d-b4ff-43fb26bfe078","ios":"levelo://app?vid=e0d54695-e2e6-4a7d-b4ff-43fb26bfe078"},"vehicle_type_id":"4","last_reported":1761905499,"current_range_meters":22800,"station_id":"ce4bgs12rcd13ifvqcag","pricing_plan_id":"cebpf4jnsgd1na2vs0mg"},{"bike_id":"e234df06-1f05-4887-b706-85c5b9955892","system_id":"levelo_inurba_marseille","lat":43.29858,"lon":5.36269,"is_reserved":false,"is_disabled":false,"rental_uris":{"android":"levelo://app?vid=e234df06-1f05-4887-b706-85c5b9955892","ios":"levelo://app?vid=e234df06-1f05-4887-b706-85c5b9955892"},"vehicle_type_id":"4","last_reported":1761905499,"current_range_meters":22800,"station_id":"ce4bgpp2rcd13ifvqc3g","pricing_plan_id":"cebpf4jnsgd1na2vs0mg"},{"bike_id":"ba541a52-7e4e-4241-9791-ae6f1fb03dcd","system_id":"levelo_inurba_marseille","lat":43.319937,"lon":5.415989,"is_reserved":false,"is_disabled":false,"rental_uris":{"android":"levelo://app?vid=ba541a52-7e4e-4241-9791-ae6f1fb03dcd","ios":"levelo://app?vid=ba541a52-7e4e-4241-9791-ae6f1fb03dcd"},"vehicle_type_id":"4","last_reported":1761905499,"current_range_meters":22800,"station_id":"","pricing_plan_id":"cebpf4jnsgd1na2vs0mg"},{"bike_id":"62de671e-7a32-4ba9-9083-1401010c4da7","system_id":"levelo_inurba_marseille","lat":43.23153,"lon":5.43693,"is_reserved":false,"is_disabled":false,"rental_uris":{"android":"levelo://app?vid=62de671e-7a32-4ba9-9083-1401010c4da7","ios":"levelo://app?vid=62de671e-7a32-4ba9-9083-1401010c4da7"},"vehicle_type_id":"4","last_reported":1761905499,"current_range_meters":23200,"station_id":"ce4bhmp2rcd13ifvqgog","pricing_plan_id":"cebpf4jnsgd1na2vs0mg"},{"bike_id":"5cdb7eb8-17cf-4f50-990f-ccbc27626c3b","system_id":"levelo_inurba_marseille","lat":43.28662,"lon":5.36349,"is_reserved":false,"is_disabled":false,"rental_uris":{"android":"levelo://app?vid=5cdb7eb8-17cf-4f50-990f-ccbc27626c3b","ios":"levelo://app?vid=5cdb7eb8-17cf-4f50-990f-ccbc27626c3b"},"vehicle_type_id":"4","last_reported":1761905499,"current_range_meters":23200,"station_id":"ce4bhah2rcd13ifvqej0","pricing_plan_id":"cebpf4jnsgd1na2vs0mg"},{"bike_id":"4e391c44-1911-4be7-a906-0c62db9e237c","system_id":"levelo_inurba_marseille","lat":43.24654,"lon":5.38894,"is_reserved":false,"is_disabled":false,"rental_uris":{"android":"levelo://app?vid=4e391c44-1911-4be7-a906-0c62db9e237c","ios":"levelo://app?vid=4e391c44-1911-4be7-a906-0c62db9e237c"},"vehicle_type_id":"4","last_reported":1761905499,"current_range_meters":23200,"station_id":"ce4bhg12rcd13ifvqf60","pricing_plan_id":"cebpf4jnsgd1na2vs0mg"},{"bike_id":"15eabd95-4639-4bd2-ac27-e38df8c429e0","system_id":"levelo_inurba_marseille","lat":43.24094,"lon":5.37757,"is_reserved":false,"is_disabled":false,"rental_uris":{"android":"levelo://app?vid=15eabd95-4639-4bd2-ac27-e38df8c429e0","ios":"levelo://app?vid=15eabd95-4639-4bd2-ac27-e38df8c429e0"},"vehicle_type_id":"4","last_reported":1761905499,"current_range_meters":23200,"station_id":"ce4bhnp2rcd13ifvqgvg","pricing_plan_id":"cebpf4jnsgd1na2vs0mg"},{"bike_id":"f05aa961-774c-4cf4-a16a-500c422d2b75","system_id":"levelo_inurba_marseille","lat":43.31167,"lon":5.38713,"is_reserved":false,"is_disabled":false,"rental_uris":{"android":"levelo://app?vid=f05aa961-774c-4cf4-a16a-500c422d2b75","ios":"levelo://app?vid=f05aa961-774c-4cf4-a16a-500c422d2b75"},"vehicle_type_id":"4","last_reported":1761905499,"current_range_meters":23200,"station_id":"ce4bgv12rcd13ifvqcp0","pricing_plan_id":"cebpf4jnsgd1na2vs0mg"},{"bike_id":"674e7722-4335-460d-85a2-fad0e1d32052","system_id":"levelo_inurba_marseille","lat":43.2917,"lon":5.37143,"is_reserved":false,"is_disabled":false,"rental_uris":{"android":"levelo://app?vid=674e7722-4335-460d-85a2-fad0e1d32052","ios":"levelo://app?vid=674e7722-4335-460d-85a2-fad0e1d32052"},"vehicle_type_id":"4","last_reported":1761905499,"current_range_meters":24000,"station_id":"ce4bha92rcd13ifvqeh0","pricing_plan_id":"cebpf4jnsgd1na2vs0mg"},{"bike_id":"fd491628-87df-4048-bf7c-d3e1be7e47dd","system_id":"levelo_inurba_marseille","lat":43.2407,"lon":5.37754,"is_reserved":false,"is_disabled":false,"rental_uris":{"android":"levelo://app?vid=fd491628-87df-4048-bf7c-d3e1be7e47dd","ios":"levelo://app?vid=fd491628-87df-4048-bf7c-d3e1be7e47dd"},"vehicle_type_id":"4","last_reported":1761905499,"current_range_meters":24000,"station_id":"ce4bhnp2rcd13ifvqgvg","pricing_plan_id":"cebpf4jnsgd1na2vs0mg"},{"bike_id":"326c55d0-a146-413a-84a5-ddb4750bd402","system_id":"levelo_inurba_marseille","lat":43.21757,"lon":5.34588,"is_reserved":false,"is_disabled":false,"rental_uris":{"android":"levelo://app?vid=326c55d0-a146-413a-84a5-ddb4750bd402","ios":"levelo://app?vid=326c55d0-a146-413a-84a5-ddb4750bd402"},"vehicle_type_id":"4","last_reported":1761905499,"current_range_meters":24400,"station_id":"st_cvj6r9ubvosntc0bgbag","pricing_plan_id":"cebpf4jnsgd1na2vs0mg"},{"bike_id":"da4e28c6-ecdc-4a9f-8c2f-921433e6e34c","system_id":"levelo_inurba_marseille","lat":43.30535,"lon":5.36522,"is_reserved":false,"is_disabled":false,"rental_uris":{"android":"levelo://app?vid=da4e28c6-ecdc-4a9f-8c2f-921433e6e34c","ios":"levelo://app?vid=da4e28c6-ecdc-4a9f-8c2f-921433e6e34c"},"vehicle_type_id":"4","last_reported":1761905499,"current_range_meters":24400,"station_id":"ce4bgs12rcd13ifvqcag","pricing_plan_id":"cebpf4jnsgd1na2vs0mg"},{"bike_id":"03545501-ce2a-4fa3-9618-ff7f83bc695b","system_id":"levelo_inurba_marseille","lat":43.25939,"lon":5.40889,"is_reserved":false,"is_disabled":false,"rental_uris":{"android":"levelo://app?vid=03545501-ce2a-4fa3-9618-ff7f83bc695b","ios":"levelo://app?vid=03545501-ce2a-4fa3-9618-ff7f83bc695b"},"vehicle_type_id":"4","last_reported":1761905499,"current_range_meters":24400,"station_id":"ce4bhm92rcd13ifvqglg","pricing_plan_id":"cebpf4jnsgd1na2vs0mg"},{"bike_id":"5ab30e8b-8a5f-4f0f-8bc9-ca8f7777757c","system_id":"levelo_inurba_marseille","lat":43.31704,"lon":5.37744,"is_reserved":false,"is_disabled":false,"rental_uris":{"android":"levelo://app?vid=5ab30e8b-8a5f-4f0f-8bc9-ca8f7777757c","ios":"levelo://app?vid=5ab30e8b-8a5f-4f0f-8bc9-ca8f7777757c"},"vehicle_type_id":"4","last_reported":1761905499,"current_range_meters":24400,"station_id":"ce4bgth2rcd13ifvqch0","pricing_plan_id":"cebpf4jnsgd1na2vs0mg"},{"bike_id":"293e2325-9e08-4b16-a1d9-8fd757c5664f","system_id":"levelo_inurba_marseille","lat":43.26765,"lon":5.39429,"is_reserved":false,"is_disabled":false,"rental_uris":{"android":"levelo://app?vid=293e2325-9e08-4b16-a1d9-8fd757c5664f","ios":"levelo://app?vid=293e2325-9e08-4b16-a1d9-8fd757c5664f"},"vehicle_type_id":"4","last_reported":1761905499,"current_range_meters":24400,"station_id":"ce4bhh12rcd13ifvqfg0","pricing_plan_id":"cebpf4jnsgd1na2vs0mg"},{"bike_id":"fbb7164e-1ac1-47ac-b48a-41c28aa88278","system_id":"levelo_inurba_marseille","lat":43.24173,"lon":5.36388,"is_reserved":false,"is_disabled":false,"rental_uris":{"android":"levelo://app?vid=fbb7164e-1ac1-47ac-b48a-41c28aa88278","ios":"levelo://app?vid=fbb7164e-1ac1-47ac-b48a-41c28aa88278"},"vehicle_type_id":"4","last_reported":1761905499,"current_range_meters":24800,"station_id":"cpo36qri1sfpv3e86is0","pricing_plan_id":"cebpf4jnsgd1na2vs0mg"},{"bike_id":"f77a28de-ba16-41bc-a3a4-ba36b0519b67","system_id":"levelo_inurba_marseille","lat":43.29632,"lon":5.37319,"is_reserved":false,"is_disabled":false,"rental_uris":{"android":"levelo://app?vid=f77a28de-ba16-41bc-a3a4-ba36b0519b67","ios":"levelo://app?vid=f77a28de-ba16-41bc-a3a4-ba36b0519b67"},"vehicle_type_id":"4","last_reported":1761905499,"current_range_meters":24800,"station_id":"","pricing_plan_id":"cebpf4jnsgd1na2vs0mg"},