{"last_updated":1757920246,"ttl":60,"version":"2.2","data":{"bikes":[{"bike_id":"60f08872-6208-4a8f-bd26-e6eed3741ca8","system_id":"levelo_inurba_marseille","lat":43.25003,"lon":5.38982,"is_reserved":false,"is_disabled":false,"rental_uris":{"android":"levelo://app?vid=60f08872-6208-4a8f-bd26-e6eed3741ca8","ios":"levelo://app?vid=60f08872-6208-4a8f-bd26-e6eed3741ca8"},"vehicle_type_id":"4","last_reported":1757920246,"current_range_meters":2800,"station_id":"ce4bhgp2rcd13ifvqfd0","pricing_plan_id":"cebpf4jnsgd1na2vs0mg"},{"bike_id":"775af279-8ac9-4585-9121-809be9b13265","system_id":"levelo_inurba_marseille","lat":43.337775,"lon":5.374412,"is_reserved":false,"is_disabled":false,"rental_uris":{"android":"levelo://app?vid=775af279-8ac9-4585-9121-809be9b13265","ios":"levelo://app?vid=775af279-8ac9-4585-9121-809be9b13265"},"vehicle_type_id":"4","last_reported":1757920246,"current_range_meters":2800,"station_id":"","pricing_plan_id":"cebpf4jnsgd1na2vs0mg"},{"bike_id":"46970621-fdf8-4859-bd00-03cd464ae6fd","system_id":"levelo_inurba_marseille","lat":43.25934,"lon":5.40911,"is_reserved":false,"is_disabled":false,"rental_uris":{"android":"levelo://app?vid=46970621-fdf8-4859-bd00-03cd464ae6fd","ios":"levelo://app?vid=46970621-fdf8-4859-bd00-03cd464ae6fd"},"vehicle_type_id":"4","last_reported":1757920246,"current_range_meters":3200,"station_id":"ce4bhm92rcd13ifvqglg","pricing_plan_id":"cebpf4jnsgd1na2vs0mg"},{"bike_id":"4c903c5d-e4d4-4924-9752-c2fcc2028986","system_id":"levelo_inurba_marseille","lat":43.2594,"lon":5.40907,"is_reserved":false,"is_disabled":false,"rental_uris":{"android":"levelo://app?vid=4c903c5d-e4d4-4924-9752-c2fcc2028986","ios":"levelo://app?vid=4c903c5d-e4d4-4924-9752-c2fcc2028986"},"vehicle_type_id":"4","last_reported":1757920246,"current_range_meters":3200,"station_id":"ce4bhm92rcd13ifvqglg","pricing_plan_id":"cebpf4jnsgd1na2vs0mg"},{"bike_id":"ec82f626-48be-438f-8902-e7a7118452b7","system_id":"levelo_inurba_marseille","lat":43.28422,"lon":5.3752,"is_reserved":false,"is_disabled":false,"rental_uris":{"android":"levelo://app?vid=ec82f626-48be-438f-8902-e7a7118452b7","ios":"levelo://app?vid=ec82f626-48be-438f-8902-e7a7118452b7"},"vehicle_type_id":"4","last_reported":1757920246,"current_range_meters":3200,"station_id":"ce4bh412rcd13ifvqds0","pricing_plan_id":"cebpf4jnsgd1na2vs0mg"},{"bike_id":"6a864e92-691d-4c06-b050-3ed414d2d81b","system_id":"levelo_inurba_marseille","lat":43.286481,"lon":5.384548,"is_reserved":false,"is_disabled":false,"rental_uris":{"android":"levelo://app?vid=6a864e92-691d-4c06-b050-3ed414d2d81b","ios":"levelo://app?vid=6a864e92-691d-4c06-b050-3ed414d2d81b"},"vehicle_type_id":"4","last_reported":1757920246,"current_range_meters":3200,"station_id":"ce4bh512rcd13ifvqe2g","pricing_plan_id":"cebpf4jnsgd1na2vs0mg"},{"bike_id":"e01cbd87-fd1a-4f32-8e24-60a5b9f42ce3","system_id":"levelo_inurba_marseille","lat":43.30954,"lon":5.39041,"is_reserved":false,"is_disabled":false,"rental_uris":{"android":"levelo://app?vid=e01cbd87-fd1a-4f32-8e24-60a5b9f42ce3","ios":"levelo://app?vid=e01cbd87-fd1a-4f32-8e24-60a5b9f42ce3"},"vehicle_type_id":"4","last_reported":1757920246,"current_range_meters":3200,"station_id":"ce4bgup2rcd13ifvqco0","pricing_plan_id":"cebpf4jnsgd1na2vs0mg"},{"bike_id":"a22a2ad5-a3fa-4d21-afc1-6d0e503c7c8e","system_id":"levelo_inurba_marseille","lat":43.25011,"lon":5.38934,"is_reserved":false,"is_disabled":false,"rental_uris":{"android":"levelo://app?vid=a22a2ad5-a3fa-4d21-afc1-6d0e503c7c8e","ios":"levelo://app?vid=a22a2ad5-a3fa-4d21-afc1-6d0e503c7c8e"},"vehicle_type_id":"4","last_reported":1757920246,"current_range_meters":3200,"station_id":"ce4bhgp2rcd13ifvqfd0","pricing_plan_id":"cebpf4jnsgd1na2vs0mg"},{"bike_id":"929cd849-1a61-4a20-8a15-bf83aed4405f","system_id":"levelo_inurba_marseille","lat":43.29045,"lon":5.39975,"is_reserved":false,"is_disabled":false,"rental_uris":{"android":"levelo://app?vid=929cd849-1a61-4a20-8a15-bf83aed4405f","ios":"levelo://app?vid=929cd849-1a61-4a20-8a15-bf83aed4405f"},"vehicle_type_id":"4","last_reported":1757920246,"current_range_meters":3600,"station_id":"ce4bh392rcd13ifvqdm0","pricing_plan_id":"cebpf4jnsgd1na2vs0mg"},{"bike_id":"f1314796-667f-4987-9f42-b703379d7208","system_id":"levelo_inurba_marseille","lat":43.30321,"lon":5.36907,"is_reserved":false,"is_disabled":false,"rental_uris":{"android":"levelo://app?vid=f1314796-667f-4987-9f42-b703379d7208","ios":"levelo://app?vid=f1314796-667f-4987-9f42-b703379d7208"},"vehicle_type_id":"4","last_reported":1757920246,"current_range_meters":3600,"station_id":"ce4bgqh2rcd13ifvqc5g","pricing_plan_id":"cebpf4jnsgd1na2vs0mg"},{"bike_id":"90709169-fc08-4f66-8c58-b973e35c0ba1","system_id":"levelo_inurba_marseille","lat":43.26693,"lon":5.38275,"is_reserved":false,"is_disabled":false,"rental_uris":{"android":"levelo://app?vid=90709169-fc08-4f66-8c58-b973e35c0ba1","ios":"levelo://app?vid=90709169-fc08-4f66-8c58-b973e35c0ba1"},"vehicle_type_id":"4","last_reported":1757920246,"current_range_meters":3600,"station_id":"ce4bhg92rcd13ifvqf90","pricing_plan_id":"cebpf4jnsgd1na2vs0mg"},{"bike_id":"a24c4696-920b-4645-847f-87e0b46915a6","system_id":"levelo_inurba_marseille","lat":43.3245,"lon":5.42514,"is_reserved":false,"is_disabled":false,"rental_uris":{"android":"levelo://app?vid=a24c4696-920b-4645-847f-87e0b46915a6","ios":"levelo://app?vid=a24c4696-920b-4645-847f-87e0b46915a6"},"vehicle_type_id":"4","last_reported":1757920246,"current_range_meters":3600,"station_id":"","pricing_plan_id":"cebpf4jnsgd1na2vs0mg"},{"bike_id":"fc5173d7-de69-4c7e-888a-0a9efb136566","system_id":"levelo_inurba_marseille","lat":43.31251,"lon":5.36899,"is_reserved":false,"is_disabled":false,"rental_uris":{"android":"levelo://app?vid=fc5173d7-de69-4c7e-888a-0a9efb136566","ios":"levelo://app?vid=fc5173d7-de69-4c7e-888a-0a9efb136566"},"vehicle_type_id":"4","last_reported":1757920246,"current_range_meters":3600,"station_id":"ce4bgl92rcd13ifvqbq0","pricing_plan_id":"cebpf4jnsgd1na2vs0mg"},{"bike_id":"9ba21b01-d9b7-44ac-b028-6cb6680091fb","system_id":"levelo_inurba_marseille","lat":43.29808,"lon":5.38117,"is_reserved":false,"is_disabled":false,"rental_uris":{"android":"levelo://app?vid=9ba21b01-d9b7-44ac-b028-6cb6680091fb","ios":"levelo://app?vid=9ba21b01-d9b7-44ac-b028-6cb6680091fb"},"vehicle_type_id":"4","last_reported":1757920246,"current_range_meters":3600,"station_id":"ce4bgip2rcd13ifvqbb0","pricing_plan_id":"cebpf4jnsgd1na2vs0mg"},{"bike_id":"c8138e28-9b2c-4ee8-a403-968aecc6782a","system_id":"levelo_inurba_marseille","lat":43.25094,"lon":5.39523,"is_reserved":false,"is_disabled":false,"rental_uris":{"android":"levelo://app?vid=c8138e28-9b2c-4ee8-a403-968aecc6782a","ios":"levelo://app?vid=c8138e28-9b2c-4ee8-a403-968aecc6782a"},"vehicle_type_id":"4","last_reported":1757920246,"current_range_meters":3600,"station_id":"ce4bhm12rcd13ifvqgkg","pricing_plan_id":"cebpf4jnsgd1na2vs0mg"},{"bike_id":"0eac0c05-dbf1-4c0b-af6d-53c5df91e290","system_id":"levelo_inurba_marseille","lat":43.29853,"lon":5.362796,"is_reserved":false,"is_disabled":false,"rental_uris":{"android":"levelo://app?vid=0eac0c05-dbf1-4c0b-af6d-53c5df91e290","ios":"levelo://app?vid=0eac0c05-dbf1-4c0b-af6d-53c5df91e290"},"vehicle_type_id":"4","last_reported":1757920246,"current_range_meters":4000,"station_id":"ce4bgpp2rcd13ifvqc3g","pricing_plan_id":"cebpf4jnsgd1na2vs0mg"},{"bike_id":"61676338-075f-47e1-927d-7003cce313da","system_id":"levelo_inurba_marseille","lat":43.28852,"lon":5.39334,"is_reserved":false,"is_disabled":false,"rental_uris":{"android":"levelo://app?vid=61676338-075f-47e1-927d-7003cce313da","ios":"levelo://app?vid=61676338-075f-47e1-927d-7003cce313da"},"vehicle_type_id":"4","last_reported":1757920246,"current_range_meters":6000,"station_id":"ce4bh2p2rcd13ifvqdi0","pricing_plan_id":"cebpf4jnsgd1na2vs0mg"},{"bike_id":"ae2200e0-55fa-4d16-87bf-72ca65d67371","system_id":"levelo_inurba_marseille","lat":43.28381,"lon":5.38466,"is_reserved":false,"is_disabled":false,"rental_uris":{"android":"levelo://app?vid=ae2200e0-55fa-4d16-87bf-72ca65d67371","ios":"levelo://app?vid=ae2200e0-55fa-4d16-87bf-72ca65d67371"},"vehicle_type_id":"4","last_reported":1757920246,"current_range_meters":4000,"station_id":"","pricing_plan_id":"cebpf4jnsgd1na2vs0mg"},{"bike_id":"8a1c985d-8abf-4ba0-95d4-d11dd91d05c0","system_id":"levelo_inurba_marseille","lat":43.29578,"lon":5.375254,"is_reserved":false,"is_disabled":false,"rental_uris":{"android":"levelo://app?vid=8a1c985d-8abf-4ba0-95d4-d11dd91d05c0","ios":"levelo://app?vid=8a1c985d-8abf-4ba0-95d4-d11dd91d05c0"},"vehicle_type_id":"4","last_reported":1757920246,"current_range_meters":4000,"station_id":"","pricing_plan_id":"cebpf4jnsgd1na2vs0mg"},{"bike_id":"1199f5eb-7ee2-4c49-9121-59b914d16bbd","system_id":"levelo_inurba_marseille","lat":43.29038,"lon":5.3758,"is_reserved":false,"is_disabled":false,"rental_uris":{"android":"levelo://app?vid=1199f5eb-7ee2-4c49-9121-59b914d16bbd","ios":"levelo://app?vid=1199f5eb-7ee2-4c49-9121-59b914d16bbd"},"vehicle_type_id":"4","last_reported":1757920246,"current_range_meters":4000,"station_id":"ce4bh692rcd13ifvqe90","pricing_plan_id":"cebpf4jnsgd1na2vs0mg"},{"bike_id":"f540596a-2c7d-4d8c-a1a0-706184e3dd0d","system_id":"levelo_inurba_marseille","lat":43.316116,"lon":5.435459,"is_reserved":false,"is_disabled":false,"rental_uris":{"android":"levelo://app?vid=f540596a-2c7d-4d8c-a1a0-706184e3dd0d","ios":"levelo://app?vid=f540596a-2c7d-4d8c-a1a0-706184e3dd0d"},"vehicle_type_id":"4","last_reported":1757920246,"current_range_meters":4000,"station_id":"ce4bhp92rcd13ifvqhcg","pricing_plan_id":"cebpf4jnsgd1na2vs0mg"},{"bike_id":"0f510828-bd21-49c7-bd0c-1fff6089cf32","system_id":"levelo_inurba_marseille","lat":43.323364,"lon":5.406214,"is_reserved":false,"is_disabled":false,"rental_uris":{"android":"levelo://app?vid=0f510828-bd21-49c7-bd0c-1fff6089cf32","ios":"levelo://app?vid=0f510828-bd21-49c7-bd0c-1fff6089cf32"},"vehicle_type_id":"4","last_reported":1757920246,"current_range_meters":4000,"station_id":"ce4bhq92rcd13ifvqhjg","pricing_plan_id":"cebpf4jnsgd1na2vs0mg"},{"bike_id":"90b6c2c8-4803-4cbe-ac55-7b11770052b2","system_id":"levelo_inurba_marseille","lat":43.302619,"lon":5.377184,"is_reserved":false,"is_disabled":false,"rental_uris":{"android":"levelo://app?vid=90b6c2c8-4803-4cbe-ac55-7b11770052b2","ios":"levelo://app?vid=90b6c2c8-4803-4cbe-ac55-7b11770052b2"},"vehicle_type_id":"4","last_reported":1757920246,"current_range_meters":4400,"station_id":"ce4bguh2rcd13ifvqcj0","pricing_plan_id":"cebpf4jnsgd1na2vs0mg"},{"bike_id":"e03bd15c-c472-4f08-bc2f-c1b8a57b70fb","system_id":"levelo_inurba_marseille","lat":43.31085,"lon":5.40105,"is_reserved":false,"is_disabled":true,"rental_uris":{"android":"levelo://app?vid=e03bd15c-c472-4f08-bc2f-c1b8a57b70fb","ios":"levelo://app?vid=e03bd15c-c472-4f08-bc2f-c1b8a57b70fb"},"vehicle_type_id":"4","last_reported":1757920246,"current_range_meters":4400,"station_id":"","pricing_plan_id":"cebpf4jnsgd1na2vs0mg"},{"bike_id":"463345a6-2d4f-4448-8488-9cab1efda713","system_id":"levelo_inurba_marseille","lat":43.2544,"lon":5.40146,"is_reserved":false,"is_disabled":false,"rental_uris":{"android":"levelo://app?vid=463345a6-2d4f-4448-8488-9cab1efda713","ios":"levelo://app?vid=463345a6-2d4f-4448-8488-9cab1efda713"},"vehicle_type_id":"4","last_reported":1757920246,"current_range_meters":4400,"station_id":"","pricing_plan_id":"cebpf4jnsgd1na2vs0mg"},{"bike_id":"4139ccef-c91b-4cf8-9bc3-346a6d084323","system_id":"levelo_inurba_marseille","lat":43.30467,"lon":5.37895,"is_reserved":false,"is_disabled":false,"rental_uris":{"android":"levelo://app?vid=4139ccef-c91b-4cf8-9bc3-346a6d084323","ios":"levelo://app?vid=4139ccef-c91b-4cf8-9bc3-346a6d084323"},"vehicle_type_id":"4","last_reported":1757920246,"current_range_meters":4800,"station_id":"ce4bgup2rcd13ifvqcn0","pricing_plan_id":"cebpf4jnsgd1na2vs0mg"},{"bike_id":"aca9b9e3-016a-4c37-a698-1c6b37dcff82","system_id":"levelo_inurba_marseille","lat":43.29915,"lon":5.38152,"is_reserved":false,"is_disabled":false,"rental_uris":{"android":"levelo://app?vid=aca9b9e3-016a-4c37-a698-1c6b37dcff82","ios":"levelo://app?vid=aca9b9e3-016a-4c37-a698-1c6b37dcff82"},"vehicle_type_id":"4","last_reported":1757920246,"current_range_meters":4800,"station_id":"ce4bgj12rcd13ifvqbc0","pricing_plan_id":"cebpf4jnsgd1na2vs0mg"},{"bike_id":"04c9f750-1a11-44f9-b529-42af68f66332","system_id":"levelo_inurba_marseille","lat":43.24181,"lon":5.39734,"is_reserved":false,"is_disabled":false,"rental_uris":{"android":"levelo://app?vid=04c9f750-1a11-44f9-b529-42af68f66332","ios":"levelo://app?vid=04c9f750-1a11-44f9-b529-42af68f66332"},"vehicle_type_id":"4","last_reported":1757920246,"current_range_meters":4800,"station_id":"ce4bhn12rcd13ifvqgpg","pricing_plan_id":"cebpf4jnsgd1na2vs0mg"},{"bike_id":"076a0f9e-6b97-4a0b-bc00-8db1a72b4b9a","system_id":"levelo_inurba_marseille","lat":43.24078,"lon":5.3776,"is_reserved":false,"is_disabled":false,"rental_uris":{"android":"levelo://app?vid=076a0f9e-6b97-4a0b-bc00-8db1a72b4b9a","ios":"levelo://app?vid=076a0f9e-6b97-4a0b-bc00-8db1a72b4b9a"},"vehicle_type_id":"4","last_reported":1757920246,"current_range_meters":5600,"station_id":"ce4bhnp2rcd13ifvqgvg","pricing_plan_id":"cebpf4jnsgd1na2vs0mg"},{"bike_id":"4891d751-b66c-4a3d-89d5-78926b795844","system_id":"levelo_inurba_marseille","lat":43.337444,"lon":5.374475,"is_reserved":false,"is_disabled":false,"rental_uris":{"android":"levelo://app?vid=4891d751-b66c-4a3d-89d5-78926b795844","ios":"levelo://app?vid=4891d751-b66c-4a3d-89d5-78926b795844"},"vehicle_type_id":"4","last_reported":1757920246,"current_range_meters":5600,"station_id":"","pricing_plan_id":"cebpf4jnsgd1na2vs0mg"},{"bike_id":"9a45254c-c77a-469d-8fa3-a3fa05a580ba","system_id":"levelo_inurba_marseille","lat":43.27167,"lon":5.38686,"is_reserved":false,"is_disabled":false,"rental_uris":{"android":"levelo://app?vid=9a45254c-c77a-469d-8fa3-a3fa05a580ba","ios":"levelo://app?vid=9a45254c-c77a-469d-8fa3-a3fa05a580ba"},"vehicle_type_id":"4","last_reported":1757920246,"current_range_meters":5600,"station_id":"","pricing_plan_id":"cebpf4jnsgd1na2vs0mg"},{"bike_id":"84be000e-b186-4e60-8aaa-b7a0f42a7175","system_id":"levelo_inurba_marseille","lat":43.337616,"lon":5.374353,"is_reserved":false,"is_disabled":false,"rental_uris":{"android":"levelo://app?vid=84be000e-b186-4e60-8aaa-b7a0f42a7175","ios":"levelo://app?vid=84be000e-b186-4e60-8aaa-b7a0f42a7175"},"vehicle_type_id":"4","last_reported":1757920246,"current_range_meters":5600,"station_id":"","pricing_plan_id":"cebpf4jnsgd1na2vs0mg"},{"bike_id":"0b5e7908-675a-4dd8-8db0-2307e1b5163d","system_id":"levelo_inurba_marseille","lat":43.32547,"lon":5.41428,"is_reserved":false,"is_disabled":false,"rental_uris":{"android":"levelo://app?vid=0b5e7908-675a-4dd8-8db0-2307e1b5163d","ios":"levelo://app?vid=0b5e7908-675a-4dd8-8db0-2307e1b5163d"},"vehicle_type_id":"4","last_reported":1757920246,"current_range_meters":5600,"station_id":"ce4bhq12rcd13ifvqhhg","pricing_plan_id":"cebpf4jnsgd1na2vs0mg"},{"bike_id":"d34f70a2-ea17-4f2a-b528-0bf9102603d8","system_id":"levelo_inurba_marseille","lat":43.297961,"lon":5.38111,"is_reserved":false,"is_disabled":false,"rental_uris":{"android":"levelo://app?vid=d34f70a2-ea17-4f2a-b528-0bf9102603d8","ios":"levelo://app?vid=d34f70a2-ea17-4f2a-b528-0bf9102603d8"},"vehicle_type_id":"4","last_reported":1757920246,"current_range_meters":5600,"station_id":"","pricing_plan_id":"cebpf4jnsgd1na2vs0mg"},{"bike_id":"d801a284-344d-4479-bb65-7d035c82beb0","system_id":"levelo_inurba_marseille","lat":43.30915,"lon":5.37201,"is_reserved":false,"is_disabled":false,"rental_uris":{"android":"levelo://app?vid=d801a284-344d-4479-bb65-7d035c82beb0","ios":"levelo://app?vid=d801a284-344d-4479-bb65-7d035c82beb0"},"vehicle_type_id":"4","last_reported":1757920246,"current_range_meters":5600,"station_id":"ce4bguh2rcd13ifvqckg","pricing_plan_id":"cebpf4jnsgd1na2vs0mg"},{"bike_id":"cfaff2f9-a390-44a4-acd8-cbfc3e76f3c2","system_id":"levelo_inurba_marseille","lat":43.306,"lon":5.39365,"is_reserved":false,"is_disabled":false,"rental_uris":{"android":"levelo://app?vid=cfaff2f9-a390-44a4-acd8-cbfc3e76f3c2","ios":"levelo://app?vid=cfaff2f9-a390-44a4-acd8-cbfc3e76f3c2"},"vehicle_type_id":"4","last_reported":1757920246,"current_range_meters":5600,"station_id":"ce4bh0p2rcd13ifvqd80","pricing_plan_id":"cebpf4jnsgd1na2vs0mg"},{"bike_id":"ed2a0f5c-60fd-4cb6-a505-022e5862195c","system_id":"levelo_inurba_marseille","lat":43.28274,"lon":5.35058,"is_reserved":false,"is_disabled":false,"rental_uris":{"android":"levelo://app?vid=ed2a0f5c-60fd-4cb6-a505-022e5862195c","ios":"levelo://app?vid=ed2a0f5c-60fd-4cb6-a505-022e5862195c"},"vehicle_type_id":"4","last_reported":1757920246,"current_range_meters":5600,"station_id":"ce4bhbp2rcd13ifvqerg","pricing_plan_id":"cebpf4jnsgd1na2vs0mg"},{"bike_id":"46abccb2-8643-462f-83c6-11d19b9f7030","system_id":"levelo_inurba_marseille","lat":43.28102,"lon":5.38897,"is_reserved":false,"is_disabled":true,"rental_uris":{"android":"levelo://app?vid=46abccb2-8643-462f-83c6-11d19b9f7030","ios":"levelo://app?vid=46abccb2-8643-462f-83c6-11d19b9f7030"},"vehicle_type_id":"4","last_reported":1757920246,"current_range_meters":5600,"station_id":"","pricing_plan_id":"cebpf4jnsgd1na2vs0mg"},{"bike_id":"955dcce1-ca4a-441e-87c1-4668435ea4d7","system_id":"levelo_inurba_marseille","lat":43.33607,"lon":5.41045,"is_reserved":false,"is_disabled":false,"rental_uris":{"android":"levelo://app?vid=955dcce1-ca4a-441e-87c1-4668435ea4d7","ios":"levelo://app?vid=955dcce1-ca4a-441e-87c1-4668435ea4d7"},"vehicle_type_id":"4","last_reported":1757920246,"current_range_meters":6000,"station_id":"ce4bhqh2rcd13ifvqhmg","pricing_plan_id":"cebpf4jnsgd1na2vs0mg"},{"bike_id":"a5b7a19e-eea7-47ab-8da1-78044a7af1bd","system_id":"levelo_inurba_marseille","lat":43.31236,"lon":5.36869,"is_reserved":false,"is_disabled":false,"rental_uris":{"android":"levelo://app?vid=a5b7a19e-eea7-47ab-8da1-78044a7af1bd","ios":"levelo://app?vid=a5b7a19e-eea7-47ab-8da1-78044a7af1bd"},"vehicle_type_id":"4","last_reported":1757920246,"current_range_meters":6000,"station_id":"ce4bgl92rcd13ifvqbq0","pricing_plan_id":"cebpf4jnsgd1na2vs0mg"},{"bike_id":"cf9c3265-0b1b-4fa6-8ce0-225f514cedc0","system_id":"levelo_inurba_marseille","lat":43.25578,"lon":5.38238,"is_reserved":false,"is_disabled":false,"rental_uris":{"android":"levelo://app?vid=cf9c3265-0b1b-4fa6-8ce0-225f514cedc0","ios":"levelo://app?vid=cf9c3265-0b1b-4fa6-8ce0-225f514cedc0"},"vehicle_type_id":"4","last_reported":1757920246,"current_range_meters":6000,"station_id":"ce4bhih2rcd13ifvqfs0","pricing_plan_id":"cebpf4jnsgd1na2vs0mg"},{"bike_id":"02dbb44c-70e3-4a7a-b86e-6159cc35ba47","system_id":"levelo_inurba_marseille","lat":43.29587,"lon":5.38689,"is_reserved":false,"is_disabled":false,"rental_uris":{"android":"levelo://app?vid=02dbb44c-70e3-4a7a-b86e-6159cc35ba47","ios":"levelo://app?vid=02dbb44c-70e3-4a7a-b86e-6159cc35ba47"},"vehicle_type_id":"4","last_reported":1757920246,"current_range_meters":6000,"station_id":"ce4bgih2rcd13ifvqba0","pricing_plan_id":"cebpf4jnsgd1na2vs0mg"},{"bike_id":"b911eba7-032b-4013-9757-8e6dc6a12986","system_id":"levelo_inurba_marseille","lat":43.31344,"lon":5.36723,"is_reserved":false,"is_disabled":false,"rental_uris":{"android":"levelo://app?vid=b911eba7-032b-4013-9757-8e6dc6a12986","ios":"levelo://app?vid=b911eba7-032b-4013-9757-8e6dc6a12986"},"vehicle_type_id":"4","last_reported":1757920246,"current_range_meters":6400,"station_id":"ce4bgr92rcd13ifvqc6g","pricing_plan_id":"cebpf4jnsgd1na2vs0mg"},{"bike_id":"55d59e02-f5a5-4e1a-9360-556e842fa2a4","system_id":"levelo_inurba_marseille","lat":43.33764,"lon":5.37496,"is_reserved":false,"is_disabled":false,"rental_uris":{"android":"levelo://app?vid=55d59e02-f5a5-4e1a-9360-556e842fa2a4","ios":"levelo://app?vid=55d59e02-f5a5-4e1a-9360-556e842fa2a4"},"vehicle_type_id":"4","last_reported":1757920246,"current_range_meters":6400,"station_id":"","pricing_plan_id":"cebpf4jnsgd1na2vs0mg"},{"bike_id":"78f84639-56f9-4c15-8768-49ed5cee722d","system_id":"levelo_inurba_marseille","lat":43.260248,"lon":5.37554,"is_reserved":false,"is_disabled":true,"rental_uris":{"android":"levelo://app?vid=78f84639-56f9-4c15-8768-49ed5cee722d","ios":"levelo://app?vid=78f84639-56f9-4c15-8768-49ed5cee722d"},"vehicle_type_id":"4","last_reported":1757920246,"current_range_meters":6400,"station_id":"ce4bhgh2rcd13ifvqfa0","pricing_plan_id":"cebpf4jnsgd1na2vs0mg"},{"bike_id":"d5c98035-fc72-4062-a3ec-13203f68e8ed","system_id":"levelo_inurba_marseille","lat":43.288564,"lon":5.425121,"is_reserved":false,"is_disabled":false,"rental_uris":{"android":"levelo://app?vid=d5c98035-fc72-4062-a3ec-13203f68e8ed","ios":"levelo://app?vid=d5c98035-fc72-4062-a3ec-13203f68e8ed"},"vehicle_type_id":"4","last_reported":1757920246,"current_range_meters":6400,"station_id":"","pricing_plan_id":"cebpf4jnsgd1na2vs0mg"},{"bike_id":"d7929516-f0f3-4678-9593-1fcde1b25feb","system_id":"levelo_inurba_marseille","lat":43.3095,"lon":5.39028,"is_reserved":false,"is_disabled":false,"rental_uris":{"android":"levelo://app?vid=d7929516-f0f3-4678-9593-1fcde1b25feb","ios":"levelo://app?vid=d7929516-f0f3-4678-9593-1fcde1b25feb"},"vehicle_type_id":"4","last_reported":1757920246,"current_range_meters":6400,"station_id":"ce4bgup2rcd13ifvqco0","pricing_plan_id":"cebpf4jnsgd1na2vs0mg"},{"bike_id":"d1ef1d18-ca3f-445d-a9d9-261dc371d56c","system_id":"levelo_inurba_marseille","lat":43.23154,"lon":5.43726,"is_reserved":false,"is_disabled":false,"rental_uris":{"android":"levelo://app?vid=d1ef1d18-ca3f-445d-a9d9-261dc371d56c","ios":"levelo://app?vid=d1ef1d18-ca3f-445d-a9d9-261dc371d56c"},"vehicle_type_id":"4","last_reported":1757920246,"current_range_meters":6400,"station_id":"ce4bhmp2rcd13ifvqgog","pricing_plan_id":"cebpf4jnsgd1na2vs0mg"},{"bike_id":"e67de0ab-d9c3-485f-9d12-111730dc6918","system_id":"levelo_inurba_marseille","lat":43.27215,"lon":5.39188,"is_reserved":false,"is_disabled":false,"rental_uris":{"android":"levelo://app?vid=e67de0ab-d9c3-485f-9d12-111730dc6918","ios":"levelo://app?vid=e67de0ab-d9c3-485f-9d12-111730dc6918"},"vehicle_type_id":"4","last_reported":1757920246,"current_range_meters":6400,"station_id":"ce4bhhp2rcd13ifvqfm0","pricing_plan_id":"cebpf4jnsgd1na2vs0mg"},{"bike_id":"345d33d4-7cd9-47bd-a050-6e71aa2ba439","system_id":"levelo_inurba_marseille","lat":43.3017,"lon":5.37398,"is_reserved":false,"is_disabled":false,"rental_uris":{"android":"levelo://app?vid=345d33d4-7cd9-47bd-a050-6e71aa2ba439","ios":"levelo://app?vid=345d33d4-7cd9-47bd-a050-6e71aa2ba439"},"vehicle_type_id":"4","last_reported":1757920246,"current_range_meters":6400,"station_id":"ce4bgs92rcd13ifvqcc0","pricing_plan_id":"cebpf4jnsgd1na2vs0mg"},{"bike_id":"af284e3e-0c11-4fa8-be01-5a4602fe8ee5","system_id":"levelo_inurba_marseille","lat":43.29047,"lon":5.40024,"is_reserved":false,"is_disabled":false,"rental_uris":{"android":"levelo://app?vid=af284e3e-0c11-4fa8-be01-5a4602fe8ee5","ios":"levelo://app?vid=af284e3e-0c11-4fa8-be01-5a4602fe8ee5"},"vehicle_type_id":"4","last_reported":1757920246,"current_range_meters":6800,"station_id":"ce4bh392rcd13ifvqdm0","pricing_plan_id":"cebpf4jnsgd1na2vs0mg"},{"bike_id":"61b11629-c25e-4aee-a3fd-1596375c20bf","system_id":"levelo_inurba_marseille","lat":43.31353,"lon":5.36734,"is_reserved":false,"is_disabled":false,"rental_uris":{"android":"levelo://app?vid=61b11629-c25e-4aee-a3fd-1596375c20bf","ios":"levelo://app?vid=61b11629-c25e-4aee-a3fd-1596375c20bf"},"vehicle_type_id":"4","last_reported":1757920246,"current_range_meters":6800,"station_id":"ce4bgr92rcd13ifvqc6g","pricing_plan_id":"cebpf4jnsgd1na2vs0mg"},{"bike_id":"bd8d3b73-0477-4240-9a57-88519b536022","system_id":"levelo_inurba_marseille","lat":43.29879,"lon":5.36314,"is_reserved":false,"is_disabled":true,"rental_uris":{"android":"levelo://app?vid=bd8d3b73-0477-4240-9a57-88519b536022","ios":"levelo://app?vid=bd8d3b73-0477-4240-9a57-88519b536022"},"vehicle_type_id":"4","last_reported":1757920246,"current_range_meters":6800,"station_id":"ce4bgpp2rcd13ifvqc3g","pricing_plan_id":"cebpf4jnsgd1na2vs0mg"},{"bike_id":"182289c1-d8ed-492c-a287-70c8f4e5e1b2","system_id":"levelo_inurba_marseille","lat":43.32402,"lon":5.38931,"is_reserved":false,"is_disabled":false,"rental_uris":{"android":"levelo://app?vid=182289c1-d8ed-492c-a287-70c8f4e5e1b2","ios":"levelo://app?vid=182289c1-d8ed-492c-a287-70c8f4e5e1b2"},"vehicle_type_id":"4","last_reported":1757920246,"current_range_meters":6800,"station_id":"","pricing_plan_id":"cebpf4jnsgd1na2vs0mg"},{"bike_id":"64fd3338-9664-4eab-9d69-526a809f8c3c","system_id":"levelo_inurba_marseille","lat":43.33812,"lon":5.36682,"is_reserved":false,"is_disabled":false,"rental_uris":{"android":"levelo://app?vid=64fd3338-9664-4eab-9d69-526a809f8c3c","ios":"levelo://app?vid=64fd3338-9664-4eab-9d69-526a809f8c3c"},"vehicle_type_id":"4","last_reported":1757920246,"current_range_meters":6800,"station_id":"","pricing_plan_id":"cebpf4jnsgd1na2vs0mg"},{"bike_id":"73ad577f-5aff-4980-b750-2f3b60a05578","system_id":"levelo_inurba_marseille","lat":43.27202,"lon":5.39196,"is_reserved":false,"is_disabled":false,"rental_uris":{"android":"levelo://app?vid=73ad577f-5aff-4980-b750-2f3b60a05578","ios":"levelo://app?vid=73ad577f-5aff-4980-b750-2f3b60a05578"},"vehicle_type_id":"4","last_reported":1757920246,"current_range_meters":7200,"station_id":"ce4bhhp2rcd13ifvqfm0","pricing_plan_id":"cebpf4jnsgd1na2vs0mg"},{"bike_id":"af855c88-100f-429f-ba0c-3dad51b30928","system_id":"levelo_inurba_marseille","lat":43.211921,"lon":5.350677,"is_reserved":false,"is_disabled":true,"rental_uris":{"android":"levelo://app?vid=af855c88-100f-429f-ba0c-3dad51b30928","ios":"levelo://app?vid=af855c88-100f-429f-ba0c-3dad51b30928"},"vehicle_type_id":"4","last_reported":1757920246,"current_range_meters":7200,"station_id":"st_cvj6sg6p6f1abm77japg","pricing_plan_id":"cebpf4jnsgd1na2vs0mg"},{"bike_id":"14c30bc2-b96f-4150-a178-4021e05ede8d","system_id":"levelo_inurba_marseille","lat":43.24106,"lon":5.37778,"is_reserved":false,"is_disabled":false,"rental_uris":{"android":"levelo://app?vid=14c30bc2-b96f-4150-a178-4021e05ede8d","ios":"levelo://app?vid=14c30bc2-b96f-4150-a178-4021e05ede8d"},"vehicle_type_id":"4","last_reported":1757920246,"current_range_meters":7200,"station_id":"ce4bhnp2rcd13ifvqgvg","pricing_plan_id":"cebpf4jnsgd1na2vs0mg"},{"bike_id":"c5cba6d7-e282-4417-a818-5fc0802dcb08","system_id":"levelo_inurba_marseille","lat":43.33761,"lon":5.3745,"is_reserved":false,"is_disabled":false,"rental_uris":{"android":"levelo://app?vid=c5cba6d7-e282-4417-a818-5fc0802dcb08","ios":"levelo://app?vid=c5cba6d7-e282-4417-a818-5fc0802dcb08"},"vehicle_type_id":"4","last_reported":1757920246,"current_range_meters":7200,"station_id":"","pricing_plan_id":"cebpf4jnsgd1na2vs0mg"},{"bike_id":"17bdf7ac-2491-4ca7-9428-eb982051904d","system_id":"levelo_inurba_marseille","lat":43.24083,"lon":5.37769,"is_reserved":false,"is_disabled":false,"rental_uris":{"android":"levelo://app?vid=17bdf7ac-2491-4ca7-9428-eb982051904d","ios":"levelo://app?vid=17bdf7ac-2491-4ca7-9428-eb982051904d"},"vehicle_type_id":"4","last_reported":1757920246,"current_range_meters":7200,"station_id":"ce4bhnp2rcd13ifvqgvg","pricing_plan_id":"cebpf4jnsgd1na2vs0mg"},{"bike_id":"e515b042-3af7-4631-b1da-2835b79442bb","system_id":"levelo_inurba_marseille","lat":43.34144,"lon":5.40906,"is_reserved":false,"is_disabled":false,"rental_uris":{"android":"levelo://app?vid=e515b042-3af7-4631-b1da-2835b79442bb","ios":"levelo://app?vid=e515b042-3af7-4631-b1da-2835b79442bb"},"vehicle_type_id":"4","last_reported":1757920246,"current_range_meters":7200,"station_id":"ce4bhqh2rcd13ifvqhlg","pricing_plan_id":"cebpf4jnsgd1na2vs0mg"},{"bike_id":"406f6607-363d-4cf0-95ae-26829ed0307c","system_id":"levelo_inurba_marseille","lat":43.262169,"lon":5.404402,"is_reserved":false,"is_disabled":true,"rental_uris":{"android":"levelo://app?vid=406f6607-363d-4cf0-95ae-26829ed0307c","ios":"levelo://app?vid=406f6607-363d-4cf0-95ae-26829ed0307c"},"vehicle_type_id":"4","last_reported":1757920246,"current_range_meters":7200,"station_id":"ce4bhmh2rcd13ifvqgmg","pricing_plan_id":"cebpf4jnsgd1na2vs0mg"},{"bike_id":"d9c11a94-d122-4240-b95b-24fdee8810ac","system_id":"levelo_inurba_marseille","lat":43.282716,"lon":5.399029,"is_reserved":false,"is_disabled":false,"rental_uris":{"android":"levelo://app?vid=d9c11a94-d122-4240-b95b-24fdee8810ac","ios":"levelo://app?vid=d9c11a94-d122-4240-b95b-24fdee8810ac"},"vehicle_type_id":"4","last_reported":1757920246,"current_range_meters":8000,"station_id":"","pricing_plan_id":"cebpf4jnsgd1na2vs0mg"},{"bike_id":"30e85da9-4a4e-420a-bc64-cfe1eeea89eb","system_id":"levelo_inurba_marseille","lat":43.283493,"lon":5.376339,"is_reserved":false,"is_disabled":false,"rental_uris":{"android":"levelo://app?vid=30e85da9-4a4e-420a-bc64-cfe1eeea89eb","ios":"levelo://app?vid=30e85da9-4a4e-420a-bc64-cfe1eeea89eb"},"vehicle_type_id":"4","last_reported":1757920246,"current_range_meters":8000,"station_id":"","pricing_plan_id":"cebpf4jnsgd1na2vs0mg"},{"bike_id":"31f4578e-18c6-48fb-9fec-123fce0578f9","system_id":"levelo_inurba_marseille","lat":43.33759,"lon":5.37431,"is_reserved":false,"is_disabled":false,"rental_uris":{"android":"levelo://app?vid=31f4578e-18c6-48fb-9fec-123fce0578f9","ios":"levelo://app?vid=31f4578e-18c6-48fb-9fec-123fce0578f9"},"vehicle_type_id":"4","last_reported":1757920246,"current_range_meters":8000,"station_id":"","pricing_plan_id":"cebpf4jnsgd1na2vs0mg"},{"bike_id":"1c92be56-f519-48de-af5f-3a2d662d6802","system_id":"levelo_inurba_marseille","lat":43.25941,"lon":5.40914,"is_reserved":false,"is_disabled":false,"rental_uris":{"android":"levelo://app?vid=1c92be56-f519-48de-af5f-3a2d662d6802","ios":"levelo://app?vid=1c92be56-f519-48de-af5f-3a2d662d6802"},"vehicle_type_id":"4","last_reported":1757920246,"current_range_meters":8000,"station_id":"ce4bhm92rcd13ifvqglg","pricing_plan_id":"cebpf4jnsgd1na2vs0mg"},{"bike_id":"49e31764-c086-4cb4-a02f-d4100031dd42","system_id":"levelo_inurba_marseille","lat":43.25,"lon":5.38944,"is_reserved":false,"is_disabled":false,"rental_uris":{"android":"levelo://app?vid=49e31764-c086-4cb4-a02f-d4100031dd42","ios":"levelo://app?vid=49e31764-c086-4cb4-a02f-d4100031dd42"},"vehicle_type_id":"4","last_reported":1757920246,"current_range_meters":8000,"station_id":"ce4bhgp2rcd13ifvqfd0","pricing_plan_id":"cebpf4jnsgd1na2vs0mg"},{"bike_id":"c0fd6161-b3f7-4e73-995c-77da109fa69e","system_id":"levelo_inurba_marseille","lat":43.30616,"lon":5.39367,"is_reserved":false,"is_disabled":false,"rental_uris":{"android":"levelo://app?vid=c0fd6161-b3f7-4e73-995c-77da109fa69e","ios":"levelo://app?vid=c0fd6161-b3f7-4e73-995c-77da109fa69e"},"vehicle_type_id":"4","last_reported":1757920246,"current_range_meters":8400,"station_id":"ce4bh0p2rcd13ifvqd80","pricing_plan_id":"cebpf4jnsgd1na2vs0mg"},{"bike_id":"cf96284f-1c81-407a-8aaa-28ce36d0b1e3","system_id":"levelo_inurba_marseille","lat":43.28428,"lon":5.34981,"is_reserved":false,"is_disabled":false,"rental_uris":{"android":"levelo://app?vid=cf96284f-1c81-407a-8aaa-28ce36d0b1e3","ios":"levelo://app?vid=cf96284f-1c81-407a-8aaa-28ce36d0b1e3"},"vehicle_type_id":"4","last_reported":1757920246,"current_range_meters":8400,"station_id":"ce4bhbh2rcd13ifvqepg","pricing_plan_id":"cebpf4jnsgd1na2vs0mg"},{"bike_id":"cd104b68-7370-4e88-ba9c-1edeee0f6c77","system_id":"levelo_inurba_marseille","lat":43.25204,"lon":5.42527,"is_reserved":false,"is_disabled":true,"rental_uris":{"android":"levelo://app?vid=cd104b68-7370-4e88-ba9c-1edeee0f6c77","ios":"levelo://app?vid=cd104b68-7370-4e88-ba9c-1edeee0f6c77"},"vehicle_type_id":"4","last_reported":1757920246,"current_range_meters":8400,"station_id":"","pricing_plan_id":"cebpf4jnsgd1na2vs0mg"},{"bike_id":"5c1e55d9-decd-426f-89d8-b98a558f3809","system_id":"levelo_inurba_marseille","lat":43.31722,"lon":5.40479,"is_reserved":false,"is_disabled":true,"rental_uris":{"android":"levelo://app?vid=5c1e55d9-decd-426f-89d8-b98a558f3809","ios":"levelo://app?vid=5c1e55d9-decd-426f-89d8-b98a558f3809"},"vehicle_type_id":"4","last_reported":1757920246,"current_range_meters":8400,"station_id":"ce4bh012rcd13ifvqd00","pricing_plan_id":"cebpf4jnsgd1na2vs0mg"},{"bike_id":"2df529da-7671-4f3b-a99d-bc83748ce199","system_id":"levelo_inurba_marseille","lat":43.29035,"lon":5.39967,"is_reserved":false,"is_disabled":false,"rental_uris":{"android":"levelo://app?vid=2df529da-7671-4f3b-a99d-bc83748ce199","ios":"levelo://app?vid=2df529da-7671-4f3b-a99d-bc83748ce199"},"vehicle_type_id":"4","last_reported":1757920246,"current_range_meters":8400,"station_id":"ce4bh392rcd13ifvqdm0","pricing_plan_id":"cebpf4jnsgd1na2vs0mg"},{"bike_id":"108c7d1c-75e1-4e94-ae3b-651030447a52","system_id":"levelo_inurba_marseille","lat":43.24088,"lon":5.37768,"is_reserved":false,"is_disabled":false,"rental_uris":{"android":"levelo://app?vid=108c7d1c-75e1-4e94-ae3b-651030447a52","ios":"levelo://app?vid=108c7d1c-75e1-4e94-ae3b-651030447a52"},"vehicle_type_id":"4","last_reported":1757920246,"current_range_meters":8400,"station_id":"ce4bhnp2rcd13ifvqgvg","pricing_plan_id":"cebpf4jnsgd1na2vs0mg"},{"bike_id":"8e7e0e5a-130c-414d-af81-801b0b3cc369","system_id":"levelo_inurba_marseille","lat":43.28945,"lon":5.36398,"is_reserved":false,"is_disabled":true,"rental_uris":{"android":"levelo://app?vid=8e7e0e5a-130c-414d-af81-801b0b3cc369","ios":"levelo://app?vid=8e7e0e5a-130c-414d-af81-801b0b3cc369"},"vehicle_type_id":"4","last_reported":1757920246,"current_range_meters":8400,"station_id":"","pricing_plan_id":"cebpf4jnsgd1na2vs0mg"},{"bike_id":"4a3e734e-2ab4-4fa7-926d-6e1d244154fa","system_id":"levelo_inurba_marseille","lat":43.30155,"lon":5.38093,"is_reserved":false,"is_disabled":false,"rental_uris":{"android":"levelo://app?vid=4a3e734e-2ab4-4fa7-926d-6e1d244154fa","ios":"levelo://app?vid=4a3e734e-2ab4-4fa7-926d-6e1d244154fa"},"vehicle_type_id":"4","last_reported":1757920246,"current_range_meters":8400,"station_id":"ce4bgjp2rcd13ifvqbh0","pricing_plan_id":"cebpf4jnsgd1na2vs0mg"},{"bike_id":"89e0f09e-0eb2-4e86-aea1-0742f93f3324","system_id":"levelo_inurba_marseille","lat":43.25933,"lon":5.40915,"is_reserved":false,"is_disabled":false,"rental_uris":{"android":"levelo://app?vid=89e0f09e-0eb2-4e86-aea1-0742f93f3324","ios":"levelo://app?vid=89e0f09e-0eb2-4e86-aea1-0742f93f3324"},"vehicle_type_id":"4","last_reported":1757920246,"current_range_meters":8400,"station_id":"ce4bhm92rcd13ifvqglg","pricing_plan_id":"cebpf4jnsgd1na2vs0mg"},{"bike_id":"be8c65aa-ae91-4e61-8c3b-325d8769c946","system_id":"levelo_inurba_marseille","lat":43.240072,"lon":5.366434,"is_reserved":false,"is_disabled":false,"rental_uris":{"android":"levelo://app?vid=be8c65aa-ae91-4e61-8c3b-325d8769c946","ios":"levelo://app?vid=be8c65aa-ae91-4e61-8c3b-325d8769c946"},"vehicle_type_id":"4","last_reported":1757920246,"current_range_meters":8400,"station_id":"ce4bhi12rcd13ifvqfp0","pricing_plan_id":"cebpf4jnsgd1na2vs0mg"},{"bike_id":"2c38eb47-32da-43b9-b657-738345f650b7","system_id":"levelo_inurba_marseille","lat":43.31355,"lon":5.36705,"is_reserved":false,"is_disabled":false,"rental_uris":{"android":"levelo://app?vid=2c38eb47-32da-43b9-b657-738345f650b7","ios":"levelo://app?vid=2c38eb47-32da-43b9-b657-738345f650b7"},"vehicle_type_id":"4","last_reported":1757920246,"current_range_meters":8400,"station_id":"ce4bgr92rcd13ifvqc6g","pricing_plan_id":"cebpf4jnsgd1na2vs0mg"},{"bike_id":"92328f20-9c61-4621-aefd-c280af7d31a0","system_id":"levelo_inurba_marseille","lat":43.28841,"lon":5.42537,"is_reserved":false,"is_disabled":false,"rental_uris":{"android":"levelo://app?vid=92328f20-9c61-4621-aefd-c280af7d31a0","ios":"levelo://app?vid=92328f20-9c61-4621-aefd-c280af7d31a0"},"vehicle_type_id":"4","last_reported":1757920246,"current_range_meters":8400,"station_id":"","pricing_plan_id":"cebpf4jnsgd1na2vs0mg"},{"bike_id":"6d86dd07-3dd9-4e0b-8a39-4bd38741c422","system_id":"levelo_inurba_marseille","lat":43.32491,"lon":5.36587,"is_reserved":false,"is_disabled":false,"rental_uris":{"android":"levelo://app?vid=6d86dd07-3dd9-4e0b-8a39-4bd38741c422","ios":"levelo://app?vid=6d86dd07-3dd9-4e0b-8a39-4bd38741c422"},"vehicle_type_id":"4","last_reported":1757920246,"current_range_meters":8400,"station_id":"ce4bhs12rcd13ifvqhvg","pricing_plan_id":"cebpf4jnsgd1na2vs0mg"},{"bike_id":"974e0192-4f9e-4803-b6bc-e5f6e12940e1","system_id":"levelo_inurba_marseille","lat":43.31068,"lon":5.40093,"is_reserved":false,"is_disabled":false,"rental_uris":{"android":"levelo://app?vid=974e0192-4f9e-4803-b6bc-e5f6e12940e1","ios":"levelo://app?vid=974e0192-4f9e-4803-b6bc-e5f6e12940e1"},"vehicle_type_id":"4","last_reported":1757920246,"current_range_meters":8800,"station_id":"","pricing_plan_id":"cebpf4jnsgd1na2vs0mg"},{"bike_id":"ca0901f1-1b37-4a72-a69e-49f1521f44f3","system_id":"levelo_inurba_marseille","lat":43.30142,"lon":5.37423,"is_reserved":false,"is_disabled":false,"rental_uris":{"android":"levelo://app?vid=ca0901f1-1b37-4a72-a69e-49f1521f44f3","ios":"levelo://app?vid=ca0901f1-1b37-4a72-a69e-49f1521f44f3"},"vehicle_type_id":"4","last_reported":1757920246,"current_range_meters":8800,"station_id":"ce4bgs92rcd13ifvqcc0","pricing_plan_id":"cebpf4jnsgd1na2vs0mg"},{"bike_id":"06394239-b0fd-4fa8-bd52-111935c377d6","system_id":"levelo_inurba_marseille","lat":43.27219,"lon":5.39182,"is_reserved":false,"is_disabled":false,"rental_uris":{"android":"levelo://app?vid=06394239-b0fd-4fa8-bd52-111935c377d6","ios":"levelo://app?vid=06394239-b0fd-4fa8-bd52-111935c377d6"},"vehicle_type_id":"4","last_reported":1757920246,"current_range_meters":8800,"station_id":"ce4bhhp2rcd13ifvqfm0","pricing_plan_id":"cebpf4jnsgd1na2vs0mg"},{"bike_id":"0bdee19f-7ec9-4fbd-8c67-e5fc302dc054","system_id":"levelo_inurba_marseille","lat":43.26953,"lon":5.3863,"is_reserved":false,"is_disabled":false,"rental_uris":{"android":"levelo://app?vid=0bdee19f-7ec9-4fbd-8c67-e5fc302dc054","ios":"levelo://app?vid=0bdee19f-7ec9-4fbd-8c67-e5fc302dc054"},"vehicle_type_id":"4","last_reported":1757920246,"current_range_meters":8800,"station_id":"ce4bhh92rcd13ifvqfh0","pricing_plan_id":"cebpf4jnsgd1na2vs0mg"},{"bike_id":"046ba709-b940-4fa3-9690-1d81db536e4b","system_id":"levelo_inurba_marseille","lat":43.2257,"lon":5.4163,"is_reserved":false,"is_disabled":false,"rental_uris":{"android":"levelo://app?vid=046ba709-b940-4fa3-9690-1d81db536e4b","ios":"levelo://app?vid=046ba709-b940-4fa3-9690-1d81db536e4b"},"vehicle_type_id":"4","last_reported":1757920246,"current_range_meters":8800,"station_id":"st_d2o4gvlbi1j2169b742g","pricing_plan_id":"cebpf4jnsgd1na2vs0mg"},{"bike_id":"90b99ccf-2b3c-4d75-9e45-7dd3a550aac1","system_id":"levelo_inurba_marseille","lat":43.23569,"lon":5.39891,"is_reserved":false,"is_disabled":false,"rental_uris":{"android":"levelo://app?vid=90b99ccf-2b3c-4d75-9e45-7dd3a550aac1","ios":"levelo://app?vid=90b99ccf-2b3c-4d75-9e45-7dd3a550aac1"},"vehicle_type_id":"4","last_reported":1757920246,"current_range_meters":8800,"station_id":"","pricing_plan_id":"cebpf4jnsgd1na2vs0mg"},{"bike_id":"09729800-2110-4f39-ac55-560eabc7b4e7","system_id":"levelo_inurba_marseille","lat":43.28934,"lon":5.36641,"is_reserved":false,"is_disabled":false,"rental_uris":{"android":"levelo://app?vid=09729800-2110-4f39-ac55-560eabc7b4e7","ios":"levelo://app?vid=09729800-2110-4f39-ac55-560eabc7b4e7"},"vehicle_type_id":"4","last_reported":1757920246,"current_range_meters":13600,"station_id":"ce4bhap2rcd13ifvqek0","pricing_plan_id":"cebpf4jnsgd1na2vs0mg"},{"bike_id":"a0d705d0-6074-481d-9ac9-1991d7f24d8d","system_id":"levelo_inurba_marseille","lat":43.31497,"lon":5.37306,"is_reserved":false,"is_disabled":true,"rental_uris":{"android":"levelo://app?vid=a0d705d0-6074-481d-9ac9-1991d7f24d8d","ios":"levelo://app?vid=a0d705d0-6074-481d-9ac9-1991d7f24d8d"},"vehicle_type_id":"4","last_reported":1757920246,"current_range_meters":9200,"station_id":"","pricing_plan_id":"cebpf4jnsgd1na2vs0mg"},{"bike_id":"b52bcabe-3076-4e36-839e-3d3e80847cd0","system_id":"levelo_inurba_marseille","lat":43.2409,"lon":5.37756,"is_reserved":false,"is_disabled":false,"rental_uris":{"android":"levelo://app?vid=b52bcabe-3076-4e36-839e-3d3e80847cd0","ios":"levelo://app?vid=b52bcabe-3076-4e36-839e-3d3e80847cd0"},"vehicle_type_id":"4","last_reported":1757920246,"current_range_meters":9200,"station_id":"ce4bhnp2rcd13ifvqgvg","pricing_plan_id":"cebpf4jnsgd1na2vs0mg"},{"bike_id":"b4501b2a-3152-49e5-8048-70aa07da6783","system_id":"levelo_inurba_marseille","lat":43.31484,"lon":5.37319,"is_reserved":false,"is_disabled":false,"rental_uris":{"android":"levelo://app?vid=b4501b2a-3152-49e5-8048-70aa07da6783","ios":"levelo://app?vid=b4501b2a-3152-49e5-8048-70aa07da6783"},"vehicle_type_id":"4","last_reported":1757920246,"current_range_meters":9200,"station_id":"ce4bgt12rcd13ifvqcd0","pricing_plan_id":"cebpf4jnsgd1na2vs0mg"},{"bike_id":"3a43ec72-459b-48b3-a579-3458804f0f59","system_id":"levelo_inurba_marseille","lat":43.33606,"lon":5.41037,"is_reserved":false,"is_disabled":false,"rental_uris":{"android":"levelo://app?vid=3a43ec72-459b-48b3-a579-3458804f0f59","ios":"levelo://app?vid=3a43ec72-459b-48b3-a579-3458804f0f59"},"vehicle_type_id":"4","last_reported":1757920246,"current_range_meters":9200,"station_id":"ce4bhqh2rcd13ifvqhmg","pricing_plan_id":"cebpf4jnsgd1na2vs0mg"},{"bike_id":"17f4729a-1a2e-4eed-beb3-67308cd0331d","system_id":"levelo_inurba_marseille","lat":43.29914,"lon":5.37489,"is_reserved":false,"is_disabled":false,"rental_uris":{"android":"levelo://app?vid=17f4729a-1a2e-4eed-beb3-67308cd0331d","ios":"levelo://app?vid=17f4729a-1a2e-4eed-beb3-67308cd0331d"},"vehicle_type_id":"4","last_reported":1757920246,"current_range_meters":9200,"station_id":"ce4bgjh2rcd13ifvqbg0","pricing_plan_id":"cebpf4jnsgd1na2vs0mg"},{"bike_id":"de24ce5e-c9de-4cfc-a66a-83ecb9cfee6c","system_id":"levelo_inurba_marseille","lat":43.259394,"lon":5.409257,"is_reserved":false,"is_disabled":false,"rental_uris":{"android":"levelo://app?vid=de24ce5e-c9de-4cfc-a66a-83ecb9cfee6c","ios":"levelo://app?vid=de24ce5e-c9de-4cfc-a66a-83ecb9cfee6c"},"vehicle_type_id":"4","last_reported":1757920246,"current_range_meters":9200,"station_id":"ce4bhm92rcd13ifvqglg","pricing_plan_id":"cebpf4jnsgd1na2vs0mg"},{"bike_id":"a7534d5d-6817-4ac8-94e0-ddeeaf54f20b","system_id":"levelo_inurba_marseille","lat":43.25327,"lon":5.4215,"is_reserved":false,"is_disabled":true,"rental_uris":{"android":"levelo://app?vid=a7534d5d-6817-4ac8-94e0-ddeeaf54f20b","ios":"levelo://app?vid=a7534d5d-6817-4ac8-94e0-ddeeaf54f20b"},"vehicle_type_id":"4","last_reported":1757920246,"current_range_meters":9200,"station_id":"st_d2m65c5bi1j21697t3ng","pricing_plan_id":"cebpf4jnsgd1na2vs0mg"},{"bike_id":"a1036324-bea1-4eed-9138-670e506b2a9e","system_id":"levelo_inurba_marseille","lat":43.30505,"lon":5.37893,"is_reserved":false,"is_disabled":false,"rental_uris":{"android":"levelo://app?vid=a1036324-bea1-4eed-9138-670e506b2a9e","ios":"levelo://app?vid=a1036324-bea1-4eed-9138-670e506b2a9e"},"vehicle_type_id":"4","last_reported":1757920246,"current_range_meters":9600,"station_id":"ce4bgup2rcd13ifvqcn0","pricing_plan_id":"cebpf4jnsgd1na2vs0mg"},{"bike_id":"b74f4ff0-028d-4ad4-aaf7-cb4fcabc81ac","system_id":"levelo_inurba_marseille","lat":43.26691,"lon":5.38281,"is_reserved":false,"is_disabled":false,"rental_uris":{"android":"levelo://app?vid=b74f4ff0-028d-4ad4-aaf7-cb4fcabc81ac","ios":"levelo://app?vid=b74f4ff0-028d-4ad4-aaf7-cb4fcabc81ac"},"vehicle_type_id":"4","last_reported":1757920246,"current_range_meters":9600,"station_id":"ce4bhg92rcd13ifvqf90","pricing_plan_id":"cebpf4jnsgd1na2vs0mg"},{"bike_id":"8e3a9e83-812e-4b5d-8c7b-5119699e81be","system_id":"levelo_inurba_marseille","lat":43.3158,"lon":5.40575,"is_reserved":false,"is_disabled":false,"rental_uris":{"android":"levelo://app?vid=8e3a9e83-812e-4b5d-8c7b-5119699e81be","ios":"levelo://app?vid=8e3a9e83-812e-4b5d-8c7b-5119699e81be"},"vehicle_type_id":"4","last_reported":1757920246,"current_range_meters":9600,"station_id":"","pricing_plan_id":"cebpf4jnsgd1na2vs0mg"},{"bike_id":"ee42c31a-b74b-4b2d-917a-cd50dc10c6ce","system_id":"levelo_inurba_marseille","lat":43.310611,"lon":5.400964,"is_reserved":false,"is_disabled":false,"rental_uris":{"android":"levelo://app?vid=ee42c31a-b74b-4b2d-917a-cd50dc10c6ce","ios":"levelo://app?vid=ee42c31a-b74b-4b2d-917a-cd50dc10c6ce"},"vehicle_type_id":"4","last_reported":1757920246,"current_range_meters":9600,"station_id":"","pricing_plan_id":"cebpf4jnsgd1na2vs0mg"},{"bike_id":"fbd0328c-4ce4-4080-b126-d2d47d815fa6","system_id":"levelo_inurba_marseille","lat":43.2176,"lon":5.34622,"is_reserved":false,"is_disabled":true,"rental_uris":{"android":"levelo://app?vid=fbd0328c-4ce4-4080-b126-d2d47d815fa6","ios":"levelo://app?vid=fbd0328c-4ce4-4080-b126-d2d47d815fa6"},"vehicle_type_id":"4","last_reported":1757920246,"current_range_meters":9600,"station_id":"st_cvj6r9ubvosntc0bgbag","pricing_plan_id":"cebpf4jnsgd1na2vs0mg"},{"bike_id":"0b0013b2-4152-4788-9b4c-67e44d501f08","system_id":"levelo_inurba_marseille","lat":43.33028,"lon":5.39044,"is_reserved":false,"is_disabled":false,"rental_uris":{"android":"levelo://app?vid=0b0013b2-4152-4788-9b4c-67e44d501f08","ios":"levelo://app?vid=0b0013b2-4152-4788-9b4c-67e44d501f08"},"vehicle_type_id":"4","last_reported":1757920246,"current_range_meters":9600,"station_id":"ce4bhr92rcd13ifvqhrg","pricing_plan_id":"cebpf4jnsgd1na2vs0mg"},{"bike_id":"f3fc7dfe-ccca-4610-8b76-9723f276db63","system_id":"levelo_inurba_marseille","lat":43.25727,"lon":5.41108,"is_reserved":false,"is_disabled":false,"rental_uris":{"android":"levelo://app?vid=f3fc7dfe-ccca-4610-8b76-9723f276db63","ios":"levelo://app?vid=f3fc7dfe-ccca-4610-8b76-9723f276db63"},"vehicle_type_id":"4","last_reported":1757920246,"current_range_meters":9600,"station_id":"ce4bhkp2rcd13ifvqgd0","pricing_plan_id":"cebpf4jnsgd1na2vs0mg"},{"bike_id":"99a205b3-3fdf-41a9-915c-e6863a0d0347","system_id":"levelo_inurba_marseille","lat":43.241878,"lon":5.397271,"is_reserved":false,"is_disabled":false,"rental_uris":{"android":"levelo://app?vid=99a205b3-3fdf-41a9-915c-e6863a0d0347","ios":"levelo://app?vid=99a205b3-3fdf-41a9-915c-e6863a0d0347"},"vehicle_type_id":"4","last_reported":1757920246,"current_range_meters":9600,"station_id":"ce4bhn12rcd13ifvqgpg","pricing_plan_id":"cebpf4jnsgd1na2vs0mg"},{"bike_id":"e19b9af5-dc8c-47cf-ad17-940da85a9ba6","system_id":"levelo_inurba_marseille","lat":43.23157,"lon":5.43707,"is_reserved":false,"is_disabled":false,"rental_uris":{"android":"levelo://app?vid=e19b9af5-dc8c-47cf-ad17-940da85a9ba6","ios":"levelo://app?vid=e19b9af5-dc8c-47cf-ad17-940da85a9ba6"},"vehicle_type_id":"4","last_reported":1757920246,"current_range_meters":9600,"station_id":"ce4bhmp2rcd13ifvqgog","pricing_plan_id":"cebpf4jnsgd1na2vs0mg"},{"bike_id":"a33cf220-cfdd-4805-8e63-750c4bb9f2e3","system_id":"levelo_inurba_marseille","lat":43.23157,"lon":5.43712,"is_reserved":false,"is_disabled":false,"rental_uris":{"android":"levelo://app?vid=a33cf220-cfdd-4805-8e63-750c4bb9f2e3","ios":"levelo://app?vid=a33cf220-cfdd-4805-8e63-750c4bb9f2e3"},"vehicle_type_id":"4","last_reported":1757920246,"current_range_meters":9600,"station_id":"ce4bhmp2rcd13ifvqgog","pricing_plan_id":"cebpf4jnsgd1na2vs0mg"},{"bike_id":"5f54ea7a-58eb-48db-9b14-e60a0d1d3487","system_id":"levelo_inurba_marseille","lat":43.25916,"lon":5.40882,"is_reserved":false,"is_disabled":false,"rental_uris":{"android":"levelo://app?vid=5f54ea7a-58eb-48db-9b14-e60a0d1d3487","ios":"levelo://app?vid=5f54ea7a-58eb-48db-9b14-e60a0d1d3487"},"vehicle_type_id":"4","last_reported":1757920246,"current_range_meters":10000,"station_id":"ce4bhm92rcd13ifvqglg","pricing_plan_id":"cebpf4jnsgd1na2vs0mg"},{"bike_id":"71425ccc-ca7c-4de1-a90c-ea1441bd7c89","system_id":"levelo_inurba_marseille","lat":43.2396,"lon":5.36632,"is_reserved":false,"is_disabled":false,"rental_uris":{"android":"levelo://app?vid=71425ccc-ca7c-4de1-a90c-ea1441bd7c89","ios":"levelo://app?vid=71425ccc-ca7c-4de1-a90c-ea1441bd7c89"},"vehicle_type_id":"4","last_reported":1757920246,"current_range_meters":10000,"station_id":"ce4bhi12rcd13ifvqfp0","pricing_plan_id":"cebpf4jnsgd1na2vs0mg"},{"bike_id":"85db8ab9-6b24-4c23-8762-109e948df9cd","system_id":"levelo_inurba_marseille","lat":43.30574,"lon":5.40472,"is_reserved":false,"is_disabled":false,"rental_uris":{"android":"levelo://app?vid=85db8ab9-6b24-4c23-8762-109e948df9cd","ios":"levelo://app?vid=85db8ab9-6b24-4c23-8762-109e948df9cd"},"vehicle_type_id":"4","last_reported":1757920246,"current_range_meters":10000,"station_id":"","pricing_plan_id":"cebpf4jnsgd1na2vs0mg"},{"bike_id":"53c0ca27-e73d-4412-a1ac-98d7ae4659e2","system_id":"levelo_inurba_marseille","lat":43.28616,"lon":5.35105,"is_reserved":false,"is_disabled":false,"rental_uris":{"android":"levelo://app?vid=53c0ca27-e73d-4412-a1ac-98d7ae4659e2","ios":"levelo://app?vid=53c0ca27-e73d-4412-a1ac-98d7ae4659e2"},"vehicle_type_id":"4","last_reported":1757920246,"current_range_meters":10000,"station_id":"ce4bhch2rcd13ifvqeug","pricing_plan_id":"cebpf4jnsgd1na2vs0mg"},{"bike_id":"c13dc3ee-ef87-40fd-b575-4d86195e2d74","system_id":"levelo_inurba_marseille","lat":43.286735,"lon":5.386801,"is_reserved":false,"is_disabled":false,"rental_uris":{"android":"levelo://app?vid=c13dc3ee-ef87-40fd-b575-4d86195e2d74","ios":"levelo://app?vid=c13dc3ee-ef87-40fd-b575-4d86195e2d74"},"vehicle_type_id":"4","last_reported":1757920246,"current_range_meters":10000,"station_id":"","pricing_plan_id":"cebpf4jnsgd1na2vs0mg"},{"bike_id":"05e3320f-36a7-4f88-8346-2754b84ec6da","system_id":"levelo_inurba_marseille","lat":43.24075,"lon":5.3776,"is_reserved":false,"is_disabled":false,"rental_uris":{"android":"levelo://app?vid=05e3320f-36a7-4f88-8346-2754b84ec6da","ios":"levelo://app?vid=05e3320f-36a7-4f88-8346-2754b84ec6da"},"vehicle_type_id":"4","last_reported":1757920246,"current_range_meters":10000,"station_id":"ce4bhnp2rcd13ifvqgvg","pricing_plan_id":"cebpf4jnsgd1na2vs0mg"},{"bike_id":"37f4245d-1fa6-4f76-a08c-5c0b76188375","system_id":"levelo_inurba_marseille","lat":43.32052,"lon":5.41542,"is_reserved":false,"is_disabled":false,"rental_uris":{"android":"levelo://app?vid=37f4245d-1fa6-4f76-a08c-5c0b76188375","ios":"levelo://app?vid=37f4245d-1fa6-4f76-a08c-5c0b76188375"},"vehicle_type_id":"4","last_reported":1757920246,"current_range_meters":10800,"station_id":"ce4bhq92rcd13ifvqhkg","pricing_plan_id":"cebpf4jnsgd1na2vs0mg"},{"bike_id":"36a32490-bc6d-44b0-945c-cc9b454a1b54","system_id":"levelo_inurba_marseille","lat":43.30311,"lon":5.36911,"is_reserved":false,"is_disabled":false,"rental_uris":{"android":"levelo://app?vid=36a32490-bc6d-44b0-945c-cc9b454a1b54","ios":"levelo://app?vid=36a32490-bc6d-44b0-945c-cc9b454a1b54"},"vehicle_type_id":"4","last_reported":1757920246,"current_range_meters":10800,"station_id":"ce4bgqh2rcd13ifvqc5g","pricing_plan_id":"cebpf4jnsgd1na2vs0mg"},{"bike_id":"58e4d2c3-ca5a-414f-acc3-c631f749869c","system_id":"levelo_inurba_marseille","lat":43.31356,"lon":5.38499,"is_reserved":false,"is_disabled":true,"rental_uris":{"android":"levelo://app?vid=58e4d2c3-ca5a-414f-acc3-c631f749869c","ios":"levelo://app?vid=58e4d2c3-ca5a-414f-acc3-c631f749869c"},"vehicle_type_id":"4","last_reported":1757920246,"current_range_meters":10800,"station_id":"ce4bgt92rcd13ifvqcf0","pricing_plan_id":"cebpf4jnsgd1na2vs0mg"},{"bike_id":"315adf92-db84-414d-a78c-990d0a9a7d7b","system_id":"levelo_inurba_marseille","lat":43.28381,"lon":5.38646,"is_reserved":false,"is_disabled":false,"rental_uris":{"android":"levelo://app?vid=315adf92-db84-414d-a78c-990d0a9a7d7b","ios":"levelo://app?vid=315adf92-db84-414d-a78c-990d0a9a7d7b"},"vehicle_type_id":"4","last_reported":1757920246,"current_range_meters":10800,"station_id":"ce4bh492rcd13ifvqdvg","pricing_plan_id":"cebpf4jnsgd1na2vs0mg"},{"bike_id":"f75319f4-d3a6-440f-9c89-5af7f4acd041","system_id":"levelo_inurba_marseille","lat":43.22564,"lon":5.41648,"is_reserved":false,"is_disabled":false,"rental_uris":{"android":"levelo://app?vid=f75319f4-d3a6-440f-9c89-5af7f4acd041","ios":"levelo://app?vid=f75319f4-d3a6-440f-9c89-5af7f4acd041"},"vehicle_type_id":"4","last_reported":1757920246,"current_range_meters":10800,"station_id":"st_d2o4gvlbi1j2169b742g","pricing_plan_id":"cebpf4jnsgd1na2vs0mg"},{"bike_id":"460950e7-4882-4108-bd1f-4d12c674cb64","system_id":"levelo_inurba_marseille","lat":43.30553,"lon":5.36703,"is_reserved":false,"is_disabled":false,"rental_uris":{"android":"levelo://app?vid=460950e7-4882-4108-bd1f-4d12c674cb64","ios":"levelo://app?vid=460950e7-4882-4108-bd1f-4d12c674cb64"},"vehicle_type_id":"4","last_reported":1757920246,"current_range_meters":10800,"station_id":"ce4bgrp2rcd13ifvqc9g","pricing_plan_id":"cebpf4jnsgd1na2vs0mg"},{"bike_id":"e8930cfa-2c36-4dbf-ab3e-6afdedf38824","system_id":"levelo_inurba_marseille","lat":43.22565,"lon":5.41615,"is_reserved":false,"is_disabled":false,"rental_uris":{"android":"levelo://app?vid=e8930cfa-2c36-4dbf-ab3e-6afdedf38824","ios":"levelo://app?vid=e8930cfa-2c36-4dbf-ab3e-6afdedf38824"},"vehicle_type_id":"4","last_reported":1757920246,"current_range_meters":10800,"station_id":"st_d2o4gvlbi1j2169b742g","pricing_plan_id":"cebpf4jnsgd1na2vs0mg"},{"bike_id":"4b7b9aa4-661b-4e78-8e48-1102a5b333b8","system_id":"levelo_inurba_marseille","lat":43.25834,"lon":5.39439,"is_reserved":false,"is_disabled":false,"rental_uris":{"android":"levelo://app?vid=4b7b9aa4-661b-4e78-8e48-1102a5b333b8","ios":"levelo://app?vid=4b7b9aa4-661b-4e78-8e48-1102a5b333b8"},"vehicle_type_id":"4","last_reported":1757920246,"current_range_meters":10800,"station_id":"ce4bhip2rcd13ifvqft0","pricing_plan_id":"cebpf4jnsgd1na2vs0mg"},{"bike_id":"b25577c9-149e-41e6-bc18-bbc851fb4408","system_id":"levelo_inurba_marseille","lat":43.30612,"lon":5.37238,"is_reserved":false,"is_disabled":false,"rental_uris":{"android":"levelo://app?vid=b25577c9-149e-41e6-bc18-bbc851fb4408","ios":"levelo://app?vid=b25577c9-149e-41e6-bc18-bbc851fb4408"},"vehicle_type_id":"4","last_reported":1757920246,"current_range_meters":10800,"station_id":"ce4bgqh2rcd13ifvqc4g","pricing_plan_id":"cebpf4jnsgd1na2vs0mg"},{"bike_id":"4963cfce-a868-4267-932a-9f9286935fc6","system_id":"levelo_inurba_marseille","lat":43.24553,"lon":5.39532,"is_reserved":false,"is_disabled":true,"rental_uris":{"android":"levelo://app?vid=4963cfce-a868-4267-932a-9f9286935fc6","ios":"levelo://app?vid=4963cfce-a868-4267-932a-9f9286935fc6"},"vehicle_type_id":"4","last_reported":1757920246,"current_range_meters":10800,"station_id":"ce4bhlp2rcd13ifvqgjg","pricing_plan_id":"cebpf4jnsgd1na2vs0mg"},{"bike_id":"fe63ced0-b8b9-493b-bb4b-a61b0cf84f6f","system_id":"levelo_inurba_marseille","lat":43.23152,"lon":5.43722,"is_reserved":false,"is_disabled":false,"rental_uris":{"android":"levelo://app?vid=fe63ced0-b8b9-493b-bb4b-a61b0cf84f6f","ios":"levelo://app?vid=fe63ced0-b8b9-493b-bb4b-a61b0cf84f6f"},"vehicle_type_id":"4","last_reported":1757920246,"current_range_meters":10800,"station_id":"ce4bhmp2rcd13ifvqgog","pricing_plan_id":"cebpf4jnsgd1na2vs0mg"},{"bike_id":"67d84140-1d9e-4a4c-a131-5ede4430f2b8","system_id":"levelo_inurba_marseille","lat":43.25959,"lon":5.40957,"is_reserved":false,"is_disabled":false,"rental_uris":{"android":"levelo://app?vid=67d84140-1d9e-4a4c-a131-5ede4430f2b8","ios":"levelo://app?vid=67d84140-1d9e-4a4c-a131-5ede4430f2b8"},"vehicle_type_id":"4","last_reported":1757920246,"current_range_meters":10800,"station_id":"ce4bhm92rcd13ifvqglg","pricing_plan_id":"cebpf4jnsgd1na2vs0mg"},{"bike_id":"23c59a7c-da25-4b20-a4c0-1ad1a0fce4af","system_id":"levelo_inurba_marseille","lat":43.28499,"lon":5.38425,"is_reserved":false,"is_disabled":false,"rental_uris":{"android":"levelo://app?vid=23c59a7c-da25-4b20-a4c0-1ad1a0fce4af","ios":"levelo://app?vid=23c59a7c-da25-4b20-a4c0-1ad1a0fce4af"},"vehicle_type_id":"4","last_reported":1757920246,"current_range_meters":10800,"station_id":"ce4bh512rcd13ifvqe3g","pricing_plan_id":"cebpf4jnsgd1na2vs0mg"},{"bike_id":"d9c4202c-de13-4428-8c40-40d90faf1618","system_id":"levelo_inurba_marseille","lat":43.31356,"lon":5.3707,"is_reserved":false,"is_disabled":false,"rental_uris":{"android":"levelo://app?vid=d9c4202c-de13-4428-8c40-40d90faf1618","ios":"levelo://app?vid=d9c4202c-de13-4428-8c40-40d90faf1618"},"vehicle_type_id":"4","last_reported":1757920246,"current_range_meters":11200,"station_id":"","pricing_plan_id":"cebpf4jnsgd1na2vs0mg"},{"bike_id":"2fa0852a-2c93-444f-a38b-f27307ccccc9","system_id":"levelo_inurba_marseille","lat":43.24665,"lon":5.38163,"is_reserved":false,"is_disabled":false,"rental_uris":{"android":"levelo://app?vid=2fa0852a-2c93-444f-a38b-f27307ccccc9","ios":"levelo://app?vid=2fa0852a-2c93-444f-a38b-f27307ccccc9"},"vehicle_type_id":"4","last_reported":1757920246,"current_range_meters":11200,"station_id":"ce4bhih2rcd13ifvqfr0","pricing_plan_id":"cebpf4jnsgd1na2vs0mg"},{"bike_id":"4d6e6605-7f16-44fa-a19a-c138ee7cb360","system_id":"levelo_inurba_marseille","lat":43.33799,"lon":5.37446,"is_reserved":false,"is_disabled":false,"rental_uris":{"android":"levelo://app?vid=4d6e6605-7f16-44fa-a19a-c138ee7cb360","ios":"levelo://app?vid=4d6e6605-7f16-44fa-a19a-c138ee7cb360"},"vehicle_type_id":"4","last_reported":1757920246,"current_range_meters":11200,"station_id":"","pricing_plan_id":"cebpf4jnsgd1na2vs0mg"},{"bike_id":"4b89ad18-a85a-4cf5-a107-a46d8823374f","system_id":"levelo_inurba_marseille","lat":43.22562,"lon":5.41639,"is_reserved":false,"is_disabled":false,"rental_uris":{"android":"levelo://app?vid=4b89ad18-a85a-4cf5-a107-a46d8823374f","ios":"levelo://app?vid=4b89ad18-a85a-4cf5-a107-a46d8823374f"},"vehicle_type_id":"4","last_reported":1757920246,"current_range_meters":11200,"station_id":"st_d2o4gvlbi1j2169b742g","pricing_plan_id":"cebpf4jnsgd1na2vs0mg"},{"bike_id":"4092c4e7-212f-4c92-a8b0-353bae25351c","system_id":"levelo_inurba_marseille","lat":43.29626,"lon":5.37164,"is_reserved":false,"is_disabled":false,"rental_uris":{"android":"levelo://app?vid=4092c4e7-212f-4c92-a8b0-353bae25351c","ios":"levelo://app?vid=4092c4e7-212f-4c92-a8b0-353bae25351c"},"vehicle_type_id":"4","last_reported":1757920246,"current_range_meters":11200,"station_id":"ce4bgnh2rcd13ifvqc0g","pricing_plan_id":"cebpf4jnsgd1na2vs0mg"},{"bike_id":"4b9c958a-8ae5-4328-ad46-9ca62e1e3e36","system_id":"levelo_inurba_marseille","lat":43.24557,"lon":5.39546,"is_reserved":false,"is_disabled":false,"rental_uris":{"android":"levelo://app?vid=4b9c958a-8ae5-4328-ad46-9ca62e1e3e36","ios":"levelo://app?vid=4b9c958a-8ae5-4328-ad46-9ca62e1e3e36"},"vehicle_type_id":"4","last_reported":1757920246,"current_range_meters":11200,"station_id":"ce4bhlp2rcd13ifvqgjg","pricing_plan_id":"cebpf4jnsgd1na2vs0mg"},{"bike_id":"eaf6847e-5690-4791-af34-bfb52e6086ed","system_id":"levelo_inurba_marseille","lat":43.32107,"lon":5.36785,"is_reserved":false,"is_disabled":false,"rental_uris":{"android":"levelo://app?vid=eaf6847e-5690-4791-af34-bfb52e6086ed","ios":"levelo://app?vid=eaf6847e-5690-4791-af34-bfb52e6086ed"},"vehicle_type_id":"4","last_reported":1757920246,"current_range_meters":11600,"station_id":"ce4bhrh2rcd13ifvqhug","pricing_plan_id":"cebpf4jnsgd1na2vs0mg"},{"bike_id":"355b8e10-b237-41ad-b7fa-fb12a92a0eda","system_id":"levelo_inurba_marseille","lat":43.296,"lon":5.38105,"is_reserved":false,"is_disabled":false,"rental_uris":{"android":"levelo://app?vid=355b8e10-b237-41ad-b7fa-fb12a92a0eda","ios":"levelo://app?vid=355b8e10-b237-41ad-b7fa-fb12a92a0eda"},"vehicle_type_id":"4","last_reported":1757920246,"current_range_meters":11600,"station_id":"ce4bgl12rcd13ifvqbo0","pricing_plan_id":"cebpf4jnsgd1na2vs0mg"},{"bike_id":"c7e69e6e-0354-4112-92a1-54bab28c7542","system_id":"levelo_inurba_marseille","lat":43.267787,"lon":5.394177,"is_reserved":false,"is_disabled":false,"rental_uris":{"android":"levelo://app?vid=c7e69e6e-0354-4112-92a1-54bab28c7542","ios":"levelo://app?vid=c7e69e6e-0354-4112-92a1-54bab28c7542"},"vehicle_type_id":"4","last_reported":1757920246,"current_range_meters":13600,"station_id":"ce4bhh12rcd13ifvqfg0","pricing_plan_id":"cebpf4jnsgd1na2vs0mg"},{"bike_id":"b002a392-08fa-4b2e-b212-3e002cd96c5d","system_id":"levelo_inurba_marseille","lat":43.239606,"lon":5.366259,"is_reserved":false,"is_disabled":false,"rental_uris":{"android":"levelo://app?vid=b002a392-08fa-4b2e-b212-3e002cd96c5d","ios":"levelo://app?vid=b002a392-08fa-4b2e-b212-3e002cd96c5d"},"vehicle_type_id":"4","last_reported":1757920246,"current_range_meters":11600,"station_id":"ce4bhi12rcd13ifvqfp0","pricing_plan_id":"cebpf4jnsgd1na2vs0mg"},{"bike_id":"16c0895a-a0ff-4784-bfff-44b44cb9ce92","system_id":"levelo_inurba_marseille","lat":43.266875,"lon":5.382764,"is_reserved":false,"is_disabled":false,"rental_uris":{"android":"levelo://app?vid=16c0895a-a0ff-4784-bfff-44b44cb9ce92","ios":"levelo://app?vid=16c0895a-a0ff-4784-bfff-44b44cb9ce92"},"vehicle_type_id":"4","last_reported":1757920246,"current_range_meters":11600,"station_id":"ce4bhg92rcd13ifvqf90","pricing_plan_id":"cebpf4jnsgd1na2vs0mg"},{"bike_id":"98660331-b155-49f4-bd69-c6925cae419e","system_id":"levelo_inurba_marseille","lat":43.25726,"lon":5.41109,"is_reserved":false,"is_disabled":false,"rental_uris":{"android":"levelo://app?vid=98660331-b155-49f4-bd69-c6925cae419e","ios":"levelo://app?vid=98660331-b155-49f4-bd69-c6925cae419e"},"vehicle_type_id":"4","last_reported":1757920246,"current_range_meters":11600,"station_id":"ce4bhkp2rcd13ifvqgd0","pricing_plan_id":"cebpf4jnsgd1na2vs0mg"},{"bike_id":"43991924-cd46-4c21-a0d7-9a6e34e08e72","system_id":"levelo_inurba_marseille","lat":43.29016,"lon":5.36634,"is_reserved":false,"is_disabled":false,"rental_uris":{"android":"levelo://app?vid=43991924-cd46-4c21-a0d7-9a6e34e08e72","ios":"levelo://app?vid=43991924-cd46-4c21-a0d7-9a6e34e08e72"},"vehicle_type_id":"4","last_reported":1757920246,"current_range_meters":12000,"station_id":"","pricing_plan_id":"cebpf4jnsgd1na2vs0mg"},{"bike_id":"b292c67a-aaaa-4e31-af86-af4cb55936b8","system_id":"levelo_inurba_marseille","lat":43.30559,"lon":5.36704,"is_reserved":false,"is_disabled":false,"rental_uris":{"android":"levelo://app?vid=b292c67a-aaaa-4e31-af86-af4cb55936b8","ios":"levelo://app?vid=b292c67a-aaaa-4e31-af86-af4cb55936b8"},"vehicle_type_id":"4","last_reported":1757920246,"current_range_meters":12000,"station_id":"ce4bgrp2rcd13ifvqc9g","pricing_plan_id":"cebpf4jnsgd1na2vs0mg"},{"bike_id":"97706d3f-f9d6-47c3-953b-bd71c07a3fc3","system_id":"levelo_inurba_marseille","lat":43.25909,"lon":5.40854,"is_reserved":false,"is_disabled":false,"rental_uris":{"android":"levelo://app?vid=97706d3f-f9d6-47c3-953b-bd71c07a3fc3","ios":"levelo://app?vid=97706d3f-f9d6-47c3-953b-bd71c07a3fc3"},"vehicle_type_id":"4","last_reported":1757920246,"current_range_meters":12000,"station_id":"ce4bhm92rcd13ifvqglg","pricing_plan_id":"cebpf4jnsgd1na2vs0mg"},{"bike_id":"746f8f66-7f46-4e2a-8f64-942936320bf9","system_id":"levelo_inurba_marseille","lat":43.239608,"lon":5.366214,"is_reserved":false,"is_disabled":true,"rental_uris":{"android":"levelo://app?vid=746f8f66-7f46-4e2a-8f64-942936320bf9","ios":"levelo://app?vid=746f8f66-7f46-4e2a-8f64-942936320bf9"},"vehicle_type_id":"4","last_reported":1757920246,"current_range_meters":12000,"station_id":"ce4bhi12rcd13ifvqfp0","pricing_plan_id":"cebpf4jnsgd1na2vs0mg"},{"bike_id":"e455e8a4-7696-453c-96ed-f600bf8f1a54","system_id":"levelo_inurba_marseille","lat":43.33605,"lon":5.41032,"is_reserved":false,"is_disabled":false,"rental_uris":{"android":"levelo://app?vid=e455e8a4-7696-453c-96ed-f600bf8f1a54","ios":"levelo://app?vid=e455e8a4-7696-453c-96ed-f600bf8f1a54"},"vehicle_type_id":"4","last_reported":1757920246,"current_range_meters":12400,"station_id":"ce4bhqh2rcd13ifvqhmg","pricing_plan_id":"cebpf4jnsgd1na2vs0mg"},{"bike_id":"4fa32fc6-4b31-40eb-a03f-aff5cbd63440","system_id":"levelo_inurba_marseille","lat":43.304619,"lon":5.379029,"is_reserved":false,"is_disabled":true,"rental_uris":{"android":"levelo://app?vid=4fa32fc6-4b31-40eb-a03f-aff5cbd63440","ios":"levelo://app?vid=4fa32fc6-4b31-40eb-a03f-aff5cbd63440"},"vehicle_type_id":"4","last_reported":1757920246,"current_range_meters":12400,"station_id":"ce4bgup2rcd13ifvqcn0","pricing_plan_id":"cebpf4jnsgd1na2vs0mg"},{"bike_id":"950a5f0c-6122-4d8d-a42b-4763023d14f2","system_id":"levelo_inurba_marseille","lat":43.25491,"lon":5.37642,"is_reserved":false,"is_disabled":true,"rental_uris":{"android":"levelo://app?vid=950a5f0c-6122-4d8d-a42b-4763023d14f2","ios":"levelo://app?vid=950a5f0c-6122-4d8d-a42b-4763023d14f2"},"vehicle_type_id":"4","last_reported":1757920246,"current_range_meters":12400,"station_id":"ce4bhh12rcd13ifvqff0","pricing_plan_id":"cebpf4jnsgd1na2vs0mg"},{"bike_id":"e05eea5e-3ede-4b75-8a49-e9854c3d159d","system_id":"levelo_inurba_marseille","lat":43.28627,"lon":5.35124,"is_reserved":false,"is_disabled":true,"rental_uris":{"android":"levelo://app?vid=e05eea5e-3ede-4b75-8a49-e9854c3d159d","ios":"levelo://app?vid=e05eea5e-3ede-4b75-8a49-e9854c3d159d"},"vehicle_type_id":"4","last_reported":1757920246,"current_range_meters":12400,"station_id":"ce4bhch2rcd13ifvqeug","pricing_plan_id":"cebpf4jnsgd1na2vs0mg"},{"bike_id":"15c12f1b-150c-43be-9134-ac05fb9a1bef","system_id":"levelo_inurba_marseille","lat":43.29057,"lon":5.37159,"is_reserved":false,"is_disabled":true,"rental_uris":{"android":"levelo://app?vid=15c12f1b-150c-43be-9134-ac05fb9a1bef","ios":"levelo://app?vid=15c12f1b-150c-43be-9134-ac05fb9a1bef"},"vehicle_type_id":"4","last_reported":1757920246,"current_range_meters":12400,"station_id":"ce4bh5p2rcd13ifvqe4g","pricing_plan_id":"cebpf4jnsgd1na2vs0mg"},{"bike_id":"b2fba456-5a3b-40c6-8765-ad84661db187","system_id":"levelo_inurba_marseille","lat":43.257205,"lon":5.411136,"is_reserved":false,"is_disabled":false,"rental_uris":{"android":"levelo://app?vid=b2fba456-5a3b-40c6-8765-ad84661db187","ios":"levelo://app?vid=b2fba456-5a3b-40c6-8765-ad84661db187"},"vehicle_type_id":"4","last_reported":1757920246,"current_range_meters":12400,"station_id":"ce4bhkp2rcd13ifvqgd0","pricing_plan_id":"cebpf4jnsgd1na2vs0mg"},{"bike_id":"b6d6f1e2-48c4-4558-b02a-207c838be43f","system_id":"levelo_inurba_marseille","lat":43.2861,"lon":5.37084,"is_reserved":false,"is_disabled":false,"rental_uris":{"android":"levelo://app?vid=b6d6f1e2-48c4-4558-b02a-207c838be43f","ios":"levelo://app?vid=b6d6f1e2-48c4-4558-b02a-207c838be43f"},"vehicle_type_id":"4","last_reported":1757920246,"current_range_meters":12400,"station_id":"ce4bht12rcd13ifvqi60","pricing_plan_id":"cebpf4jnsgd1na2vs0mg"},{"bike_id":"57127154-7e15-4346-89ed-ab9d76ef9c2c","system_id":"levelo_inurba_marseille","lat":43.28838,"lon":5.36326,"is_reserved":false,"is_disabled":false,"rental_uris":{"android":"levelo://app?vid=57127154-7e15-4346-89ed-ab9d76ef9c2c","ios":"levelo://app?vid=57127154-7e15-4346-89ed-ab9d76ef9c2c"},"vehicle_type_id":"4","last_reported":1757920246,"current_range_meters":12400,"station_id":"","pricing_plan_id":"cebpf4jnsgd1na2vs0mg"},{"bike_id":"146d9d13-cf6d-4c32-9f07-05f123908819","system_id":"levelo_inurba_marseille","lat":43.2905,"lon":5.39987,"is_reserved":false,"is_disabled":false,"rental_uris":{"android":"levelo://app?vid=146d9d13-cf6d-4c32-9f07-05f123908819","ios":"levelo://app?vid=146d9d13-cf6d-4c32-9f07-05f123908819"},"vehicle_type_id":"4","last_reported":1757920246,"current_range_meters":12800,"station_id":"ce4bh392rcd13ifvqdm0","pricing_plan_id":"cebpf4jnsgd1na2vs0mg"},{"bike_id":"795543a3-4d40-47a2-ba91-0c0d7988d4cf","system_id":"levelo_inurba_marseille","lat":43.273802,"lon":5.362669,"is_reserved":false,"is_disabled":true,"rental_uris":{"android":"levelo://app?vid=795543a3-4d40-47a2-ba91-0c0d7988d4cf","ios":"levelo://app?vid=795543a3-4d40-47a2-ba91-0c0d7988d4cf"},"vehicle_type_id":"4","last_reported":1757920246,"current_range_meters":12800,"station_id":"ce4bhbh2rcd13ifvqeo0","pricing_plan_id":"cebpf4jnsgd1na2vs0mg"},{"bike_id":"c0f32586-9d54-43f2-a7a5-dcfdc97599ee","system_id":"levelo_inurba_marseille","lat":43.299745,"lon":5.371875,"is_reserved":false,"is_disabled":false,"rental_uris":{"android":"levelo://app?vid=c0f32586-9d54-43f2-a7a5-dcfdc97599ee","ios":"levelo://app?vid=c0f32586-9d54-43f2-a7a5-dcfdc97599ee"},"vehicle_type_id":"4","last_reported":1757920246,"current_range_meters":12800,"station_id":"ce4bgr92rcd13ifvqc7g","pricing_plan_id":"cebpf4jnsgd1na2vs0mg"},{"bike_id":"e7a329bd-ed66-4ac7-aaba-63f2810ddd86","system_id":"levelo_inurba_marseille","lat":43.31859,"lon":5.37206,"is_reserved":false,"is_disabled":false,"rental_uris":{"android":"levelo://app?vid=e7a329bd-ed66-4ac7-aaba-63f2810ddd86","ios":"levelo://app?vid=e7a329bd-ed66-4ac7-aaba-63f2810ddd86"},"vehicle_type_id":"4","last_reported":1757920246,"current_range_meters":12800,"station_id":"","pricing_plan_id":"cebpf4jnsgd1na2vs0mg"},{"bike_id":"03a632f1-6cf9-48d9-8d0d-cdc6b623de20","system_id":"levelo_inurba_marseille","lat":43.25944,"lon":5.40901,"is_reserved":false,"is_disabled":false,"rental_uris":{"android":"levelo://app?vid=03a632f1-6cf9-48d9-8d0d-cdc6b623de20","ios":"levelo://app?vid=03a632f1-6cf9-48d9-8d0d-cdc6b623de20"},"vehicle_type_id":"4","last_reported":1757920246,"current_range_meters":12800,"station_id":"ce4bhm92rcd13ifvqglg","pricing_plan_id":"cebpf4jnsgd1na2vs0mg"},{"bike_id":"73a663d3-b16d-4de3-b2a5-ef65e30c0533","system_id":"levelo_inurba_marseille","lat":43.311499,"lon":5.379766,"is_reserved":false,"is_disabled":false,"rental_uris":{"android":"levelo://app?vid=73a663d3-b16d-4de3-b2a5-ef65e30c0533","ios":"levelo://app?vid=73a663d3-b16d-4de3-b2a5-ef65e30c0533"},"vehicle_type_id":"4","last_reported":1757920246,"current_range_meters":13600,"station_id":"","pricing_plan_id":"cebpf4jnsgd1na2vs0mg"},{"bike_id":"f28bb3f4-fe3c-49f5-80c6-af8aeffe47b3","system_id":"levelo_inurba_marseille","lat":43.28419,"lon":5.3498,"is_reserved":false,"is_disabled":false,"rental_uris":{"android":"levelo://app?vid=f28bb3f4-fe3c-49f5-80c6-af8aeffe47b3","ios":"levelo://app?vid=f28bb3f4-fe3c-49f5-80c6-af8aeffe47b3"},"vehicle_type_id":"4","last_reported":1757920246,"current_range_meters":13600,"station_id":"ce4bhbh2rcd13ifvqepg","pricing_plan_id":"cebpf4jnsgd1na2vs0mg"},{"bike_id":"fd08cc05-8551-4b30-9875-2b93993aa21e","system_id":"levelo_inurba_marseille","lat":43.24087,"lon":5.37753,"is_reserved":false,"is_disabled":false,"rental_uris":{"android":"levelo://app?vid=fd08cc05-8551-4b30-9875-2b93993aa21e","ios":"levelo://app?vid=fd08cc05-8551-4b30-9875-2b93993aa21e"},"vehicle_type_id":"4","last_reported":1757920246,"current_range_meters":13600,"station_id":"ce4bhnp2rcd13ifvqgvg","pricing_plan_id":"cebpf4jnsgd1na2vs0mg"},{"bike_id":"ba5ec91e-17a3-49a5-b2ec-7f19e0ddb3fd","system_id":"levelo_inurba_marseille","lat":43.31498,"lon":5.3732,"is_reserved":false,"is_disabled":false,"rental_uris":{"android":"levelo://app?vid=ba5ec91e-17a3-49a5-b2ec-7f19e0ddb3fd","ios":"levelo://app?vid=ba5ec91e-17a3-49a5-b2ec-7f19e0ddb3fd"},"vehicle_type_id":"4","last_reported":1757920246,"current_range_meters":13600,"station_id":"ce4bgt12rcd13ifvqcd0","pricing_plan_id":"cebpf4jnsgd1na2vs0mg"},{"bike_id":"cf1b37c7-40bd-477f-bfcf-78a982823fd3","system_id":"levelo_inurba_marseille","lat":43.29398,"lon":5.38325,"is_reserved":false,"is_disabled":false,"rental_uris":{"android":"levelo://app?vid=cf1b37c7-40bd-477f-bfcf-78a982823fd3","ios":"levelo://app?vid=cf1b37c7-40bd-477f-bfcf-78a982823fd3"},"vehicle_type_id":"4","last_reported":1757920246,"current_range_meters":13600,"station_id":"","pricing_plan_id":"cebpf4jnsgd1na2vs0mg"},{"bike_id":"11588ff8-6fbe-4ba4-b634-5d56ffaea691","system_id":"levelo_inurba_marseille","lat":43.30492,"lon":5.37917,"is_reserved":false,"is_disabled":false,"rental_uris":{"android":"levelo://app?vid=11588ff8-6fbe-4ba4-b634-5d56ffaea691","ios":"levelo://app?vid=11588ff8-6fbe-4ba4-b634-5d56ffaea691"},"vehicle_type_id":"4","last_reported":1757920246,"current_range_meters":14000,"station_id":"","pricing_plan_id":"cebpf4jnsgd1na2vs0mg"},{"bike_id":"0c6fe877-1024-4901-84e8-0fbaefe45584","system_id":"levelo_inurba_marseille","lat":43.334246,"lon":5.400474,"is_reserved":false,"is_disabled":false,"rental_uris":{"android":"levelo://app?vid=0c6fe877-1024-4901-84e8-0fbaefe45584","ios":"levelo://app?vid=0c6fe877-1024-4901-84e8-0fbaefe45584"},"vehicle_type_id":"4","last_reported":1757920246,"current_range_meters":14000,"station_id":"","pricing_plan_id":"cebpf4jnsgd1na2vs0mg"},{"bike_id":"0a4a2685-acee-4ab8-a88c-fa4e12170bbb","system_id":"levelo_inurba_marseille","lat":43.30915,"lon":5.36841,"is_reserved":false,"is_disabled":false,"rental_uris":{"android":"levelo://app?vid=0a4a2685-acee-4ab8-a88c-fa4e12170bbb","ios":"levelo://app?vid=0a4a2685-acee-4ab8-a88c-fa4e12170bbb"},"vehicle_type_id":"4","last_reported":1757920246,"current_range_meters":14000,"station_id":"ce4bgn92rcd13ifvqbvg","pricing_plan_id":"cebpf4jnsgd1na2vs0mg"},{"bike_id":"47b44433-3b2b-4dbe-8a3d-feaef0634409","system_id":"levelo_inurba_marseille","lat":43.28043,"lon":5.36938,"is_reserved":false,"is_disabled":false,"rental_uris":{"android":"levelo://app?vid=47b44433-3b2b-4dbe-8a3d-feaef0634409","ios":"levelo://app?vid=47b44433-3b2b-4dbe-8a3d-feaef0634409"},"vehicle_type_id":"4","last_reported":1757920246,"current_range_meters":14000,"station_id":"ce4bha12rcd13ifvqef0","pricing_plan_id":"cebpf4jnsgd1na2vs0mg"},{"bike_id":"60df5be0-868d-496d-a7cc-2e097de1a47a","system_id":"levelo_inurba_marseille","lat":43.22549,"lon":5.41623,"is_reserved":false,"is_disabled":false,"rental_uris":{"android":"levelo://app?vid=60df5be0-868d-496d-a7cc-2e097de1a47a","ios":"levelo://app?vid=60df5be0-868d-496d-a7cc-2e097de1a47a"},"vehicle_type_id":"4","last_reported":1757920246,"current_range_meters":14000,"station_id":"st_d2o4gvlbi1j2169b742g","pricing_plan_id":"cebpf4jnsgd1na2vs0mg"},{"bike_id":"8f04fe6a-b496-4a33-88d0-7a57c81f211d","system_id":"levelo_inurba_marseille","lat":43.24382,"lon":5.3707,"is_reserved":false,"is_disabled":true,"rental_uris":{"android":"levelo://app?vid=8f04fe6a-b496-4a33-88d0-7a57c81f211d","ios":"levelo://app?vid=8f04fe6a-b496-4a33-88d0-7a57c81f211d"},"vehicle_type_id":"4","last_reported":1757920246,"current_range_meters":14000,"station_id":"ce4bhhh2rcd13ifvqfk0","pricing_plan_id":"cebpf4jnsgd1na2vs0mg"},{"bike_id":"d4e8defb-05a7-4574-b0f2-e583573a7250","system_id":"levelo_inurba_marseille","lat":43.31482,"lon":5.3731,"is_reserved":false,"is_disabled":false,"rental_uris":{"android":"levelo://app?vid=d4e8defb-05a7-4574-b0f2-e583573a7250","ios":"levelo://app?vid=d4e8defb-05a7-4574-b0f2-e583573a7250"},"vehicle_type_id":"4","last_reported":1757920246,"current_range_meters":14000,"station_id":"ce4bgt12rcd13ifvqcd0","pricing_plan_id":"cebpf4jnsgd1na2vs0mg"},{"bike_id":"6871f804-9f2f-4d2b-934d-d2852eee418a","system_id":"levelo_inurba_marseille","lat":43.266938,"lon":5.402797,"is_reserved":false,"is_disabled":false,"rental_uris":{"android":"levelo://app?vid=6871f804-9f2f-4d2b-934d-d2852eee418a","ios":"levelo://app?vid=6871f804-9f2f-4d2b-934d-d2852eee418a"},"vehicle_type_id":"4","last_reported":1757920246,"current_range_meters":14400,"station_id":"ce501612rcd8frsf0b60","pricing_plan_id":"cebpf4jnsgd1na2vs0mg"},{"bike_id":"2c5ee020-2461-471c-8a4c-6cab1ddb486f","system_id":"levelo_inurba_marseille","lat":43.25575,"lon":5.38251,"is_reserved":false,"is_disabled":false,"rental_uris":{"android":"levelo://app?vid=2c5ee020-2461-471c-8a4c-6cab1ddb486f","ios":"levelo://app?vid=2c5ee020-2461-471c-8a4c-6cab1ddb486f"},"vehicle_type_id":"4","last_reported":1757920246,"current_range_meters":14400,"station_id":"ce4bhih2rcd13ifvqfs0","pricing_plan_id":"cebpf4jnsgd1na2vs0mg"},{"bike_id":"ebc28d3f-48e0-4c19-84dd-0c3a04a1ca62","system_id":"levelo_inurba_marseille","lat":43.25866,"lon":5.39927,"is_reserved":false,"is_disabled":true,"rental_uris":{"android":"levelo://app?vid=ebc28d3f-48e0-4c19-84dd-0c3a04a1ca62","ios":"levelo://app?vid=ebc28d3f-48e0-4c19-84dd-0c3a04a1ca62"},"vehicle_type_id":"4","last_reported":1757920246,"current_range_meters":14400,"station_id":"ce4bhl92rcd13ifvqghg","pricing_plan_id":"cebpf4jnsgd1na2vs0mg"},{"bike_id":"322c1f5a-85db-4ef6-bcd4-1b5c417c8ee0","system_id":"levelo_inurba_marseille","lat":43.3377,"lon":5.37488,"is_reserved":false,"is_disabled":false,"rental_uris":{"android":"levelo://app?vid=322c1f5a-85db-4ef6-bcd4-1b5c417c8ee0","ios":"levelo://app?vid=322c1f5a-85db-4ef6-bcd4-1b5c417c8ee0"},"vehicle_type_id":"4","last_reported":1757920246,"current_range_meters":14400,"station_id":"","pricing_plan_id":"cebpf4jnsgd1na2vs0mg"},{"bike_id":"95251c11-6699-4aa0-8909-a444151e2dc9","system_id":"levelo_inurba_marseille","lat":43.24087,"lon":5.37742,"is_reserved":false,"is_disabled":false,"rental_uris":{"android":"levelo://app?vid=95251c11-6699-4aa0-8909-a444151e2dc9","ios":"levelo://app?vid=95251c11-6699-4aa0-8909-a444151e2dc9"},"vehicle_type_id":"4","last_reported":1757920246,"current_range_meters":14400,"station_id":"ce4bhnp2rcd13ifvqgvg","pricing_plan_id":"cebpf4jnsgd1na2vs0mg"},{"bike_id":"ea435ab9-fded-4f41-b18c-d27e26d01cfa","system_id":"levelo_inurba_marseille","lat":43.27503,"lon":5.42456,"is_reserved":false,"is_disabled":false,"rental_uris":{"android":"levelo://app?vid=ea435ab9-fded-4f41-b18c-d27e26d01cfa","ios":"levelo://app?vid=ea435ab9-fded-4f41-b18c-d27e26d01cfa"},"vehicle_type_id":"4","last_reported":1757920246,"current_range_meters":14400,"station_id":"ce4bhn92rcd13ifvqgrg","pricing_plan_id":"cebpf4jnsgd1na2vs0mg"},{"bike_id":"9b9a6aca-d8ba-4892-a70c-a46cb142c2a2","system_id":"levelo_inurba_marseille","lat":43.31423,"lon":5.36671,"is_reserved":false,"is_disabled":false,"rental_uris":{"android":"levelo://app?vid=9b9a6aca-d8ba-4892-a70c-a46cb142c2a2","ios":"levelo://app?vid=9b9a6aca-d8ba-4892-a70c-a46cb142c2a2"},"vehicle_type_id":"4","last_reported":1757920246,"current_range_meters":14400,"station_id":"","pricing_plan_id":"cebpf4jnsgd1na2vs0mg"},{"bike_id":"85b65d61-b12c-41a6-bc60-d66abae1207c","system_id":"levelo_inurba_marseille","lat":43.30488,"lon":5.37921,"is_reserved":false,"is_disabled":false,"rental_uris":{"android":"levelo://app?vid=85b65d61-b12c-41a6-bc60-d66abae1207c","ios":"levelo://app?vid=85b65d61-b12c-41a6-bc60-d66abae1207c"},"vehicle_type_id":"4","last_reported":1757920246,"current_range_meters":14400,"station_id":"","pricing_plan_id":"cebpf4jnsgd1na2vs0mg"},{"bike_id":"28994847-96e1-4a62-86bf-4f046a61efc6","system_id":"levelo_inurba_marseille","lat":43.28849,"lon":5.39328,"is_reserved":false,"is_disabled":false,"rental_uris":{"android":"levelo://app?vid=28994847-96e1-4a62-86bf-4f046a61efc6","ios":"levelo://app?vid=28994847-96e1-4a62-86bf-4f046a61efc6"},"vehicle_type_id":"4","last_reported":1757920246,"current_range_meters":14400,"station_id":"ce4bh2p2rcd13ifvqdi0","pricing_plan_id":"cebpf4jnsgd1na2vs0mg"},{"bike_id":"61242a27-0db1-42cc-9fb5-dd86bf5c6a93","system_id":"levelo_inurba_marseille","lat":43.24662,"lon":5.38887,"is_reserved":false,"is_disabled":false,"rental_uris":{"android":"levelo://app?vid=61242a27-0db1-42cc-9fb5-dd86bf5c6a93","ios":"levelo://app?vid=61242a27-0db1-42cc-9fb5-dd86bf5c6a93"},"vehicle_type_id":"4","last_reported":1757920246,"current_range_meters":14400,"station_id":"ce4bhg12rcd13ifvqf60","pricing_plan_id":"cebpf4jnsgd1na2vs0mg"},{"bike_id":"944ea2a6-5bea-4d9a-970b-669091a09825","system_id":"levelo_inurba_marseille","lat":43.30539,"lon":5.36542,"is_reserved":false,"is_disabled":false,"rental_uris":{"android":"levelo://app?vid=944ea2a6-5bea-4d9a-970b-669091a09825","ios":"levelo://app?vid=944ea2a6-5bea-4d9a-970b-669091a09825"},"vehicle_type_id":"4","last_reported":1757920246,"current_range_meters":14400,"station_id":"ce4bgs12rcd13ifvqcag","pricing_plan_id":"cebpf4jnsgd1na2vs0mg"},{"bike_id":"9f2a46f0-1c52-4277-978f-c70949f50ff9","system_id":"levelo_inurba_marseille","lat":43.24075,"lon":5.37764,"is_reserved":false,"is_disabled":false,"rental_uris":{"android":"levelo://app?vid=9f2a46f0-1c52-4277-978f-c70949f50ff9","ios":"levelo://app?vid=9f2a46f0-1c52-4277-978f-c70949f50ff9"},"vehicle_type_id":"4","last_reported":1757920246,"current_range_meters":14800,"station_id":"ce4bhnp2rcd13ifvqgvg","pricing_plan_id":"cebpf4jnsgd1na2vs0mg"},{"bike_id":"34e28511-daa3-4532-b356-9c589f08e632","system_id":"levelo_inurba_marseille","lat":43.26958,"lon":5.38636,"is_reserved":false,"is_disabled":false,"rental_uris":{"android":"levelo://app?vid=34e28511-daa3-4532-b356-9c589f08e632","ios":"levelo://app?vid=34e28511-daa3-4532-b356-9c589f08e632"},"vehicle_type_id":"4","last_reported":1757920246,"current_range_meters":14800,"station_id":"ce4bhh92rcd13ifvqfh0","pricing_plan_id":"cebpf4jnsgd1na2vs0mg"},{"bike_id":"0440c922-c8a2-4d9a-af58-690ea12ed379","system_id":"levelo_inurba_marseille","lat":43.24661,"lon":5.3817,"is_reserved":false,"is_disabled":false,"rental_uris":{"android":"levelo://app?vid=0440c922-c8a2-4d9a-af58-690ea12ed379","ios":"levelo://app?vid=0440c922-c8a2-4d9a-af58-690ea12ed379"},"vehicle_type_id":"4","last_reported":1757920246,"current_range_meters":14800,"station_id":"ce4bhih2rcd13ifvqfr0","pricing_plan_id":"cebpf4jnsgd1na2vs0mg"},{"bike_id":"02361653-3a8d-497f-92cd-cc6a5e34673f","system_id":"levelo_inurba_marseille","lat":43.31374,"lon":5.38497,"is_reserved":false,"is_disabled":false,"rental_uris":{"android":"levelo://app?vid=02361653-3a8d-497f-92cd-cc6a5e34673f","ios":"levelo://app?vid=02361653-3a8d-497f-92cd-cc6a5e34673f"},"vehicle_type_id":"4","last_reported":1757920246,"current_range_meters":14800,"station_id":"ce4bgt92rcd13ifvqcf0","pricing_plan_id":"cebpf4jnsgd1na2vs0mg"},{"bike_id":"b8649ca9-bfb5-4973-9040-4e9ea8db1393","system_id":"levelo_inurba_marseille","lat":43.25936,"lon":5.40897,"is_reserved":false,"is_disabled":false,"rental_uris":{"android":"levelo://app?vid=b8649ca9-bfb5-4973-9040-4e9ea8db1393","ios":"levelo://app?vid=b8649ca9-bfb5-4973-9040-4e9ea8db1393"},"vehicle_type_id":"4","last_reported":1757920246,"current_range_meters":14800,"station_id":"ce4bhm92rcd13ifvqglg","pricing_plan_id":"cebpf4jnsgd1na2vs0mg"},{"bike_id":"d27a3574-c668-415b-ad3b-c0a1e10e6cf4","system_id":"levelo_inurba_marseille","lat":43.337444,"lon":5.374475,"is_reserved":false,"is_disabled":false,"rental_uris":{"android":"levelo://app?vid=d27a3574-c668-415b-ad3b-c0a1e10e6cf4","ios":"levelo://app?vid=d27a3574-c668-415b-ad3b-c0a1e10e6cf4"},"vehicle_type_id":"4","last_reported":1757920246,"current_range_meters":14800,"station_id":"","pricing_plan_id":"cebpf4jnsgd1na2vs0mg"},{"bike_id":"1ebb1ad1-55dd-457f-8c00-d14b6509395a","system_id":"levelo_inurba_marseille","lat":43.217567,"lon":5.346067,"is_reserved":false,"is_disabled":false,"rental_uris":{"android":"levelo://app?vid=1ebb1ad1-55dd-457f-8c00-d14b6509395a","ios":"levelo://app?vid=1ebb1ad1-55dd-457f-8c00-d14b6509395a"},"vehicle_type_id":"4","last_reported":1757920246,"current_range_meters":15200,"station_id":"","pricing_plan_id":"cebpf4jnsgd1na2vs0mg"},{"bike_id":"a155e67d-bec0-4326-ae57-c035ef5e1c81","system_id":"levelo_inurba_marseille","lat":43.29881,"lon":5.43665,"is_reserved":false,"is_disabled":false,"rental_uris":{"android":"levelo://app?vid=a155e67d-bec0-4326-ae57-c035ef5e1c81","ios":"levelo://app?vid=a155e67d-bec0-4326-ae57-c035ef5e1c81"},"vehicle_type_id":"4","last_reported":1757920246,"current_range_meters":15200,"station_id":"ce4bhpp2rcd13ifvqhfg","pricing_plan_id":"cebpf4jnsgd1na2vs0mg"},{"bike_id":"a7bb3bdc-51df-45e1-9119-78e21ba670b2","system_id":"levelo_inurba_marseille","lat":43.30592,"lon":5.39356,"is_reserved":false,"is_disabled":false,"rental_uris":{"android":"levelo://app?vid=a7bb3bdc-51df-45e1-9119-78e21ba670b2","ios":"levelo://app?vid=a7bb3bdc-51df-45e1-9119-78e21ba670b2"},"vehicle_type_id":"4","last_reported":1757920246,"current_range_meters":15200,"station_id":"ce4bh0p2rcd13ifvqd80","pricing_plan_id":"cebpf4jnsgd1na2vs0mg"},{"bike_id":"41de12a2-5382-4da2-9751-1300a8df4dc1","system_id":"levelo_inurba_marseille","lat":43.22575,"lon":5.41696,"is_reserved":false,"is_disabled":false,"rental_uris":{"android":"levelo://app?vid=41de12a2-5382-4da2-9751-1300a8df4dc1","ios":"levelo://app?vid=41de12a2-5382-4da2-9751-1300a8df4dc1"},"vehicle_type_id":"4","last_reported":1757920246,"current_range_meters":15200,"station_id":"st_d2o4gvlbi1j2169b742g","pricing_plan_id":"cebpf4jnsgd1na2vs0mg"},{"bike_id":"9f03ecca-31f7-4479-af01-adbb1998d3e9","system_id":"levelo_inurba_marseille","lat":43.23151,"lon":5.43715,"is_reserved":false,"is_disabled":false,"rental_uris":{"android":"levelo://app?vid=9f03ecca-31f7-4479-af01-adbb1998d3e9","ios":"levelo://app?vid=9f03ecca-31f7-4479-af01-adbb1998d3e9"},"vehicle_type_id":"4","last_reported":1757920246,"current_range_meters":16000,"station_id":"ce4bhmp2rcd13ifvqgog","pricing_plan_id":"cebpf4jnsgd1na2vs0mg"},{"bike_id":"f7c56a48-db06-4ee3-9b90-45854a625eac","system_id":"levelo_inurba_marseille","lat":43.25939,"lon":5.40905,"is_reserved":false,"is_disabled":false,"rental_uris":{"android":"levelo://app?vid=f7c56a48-db06-4ee3-9b90-45854a625eac","ios":"levelo://app?vid=f7c56a48-db06-4ee3-9b90-45854a625eac"},"vehicle_type_id":"4","last_reported":1757920246,"current_range_meters":16000,"station_id":"ce4bhm92rcd13ifvqglg","pricing_plan_id":"cebpf4jnsgd1na2vs0mg"},{"bike_id":"f349a26b-1b9e-47af-a73e-c05f32ec3a06","system_id":"levelo_inurba_marseille","lat":43.31307,"lon":5.36892,"is_reserved":false,"is_disabled":false,"rental_uris":{"android":"levelo://app?vid=f349a26b-1b9e-47af-a73e-c05f32ec3a06","ios":"levelo://app?vid=f349a26b-1b9e-47af-a73e-c05f32ec3a06"},"vehicle_type_id":"4","last_reported":1757920246,"current_range_meters":16000,"station_id":"","pricing_plan_id":"cebpf4jnsgd1na2vs0mg"},{"bike_id":"36010e39-bf73-4523-876f-8443c255c356","system_id":"levelo_inurba_marseille","lat":43.24171,"lon":5.36395,"is_reserved":false,"is_disabled":false,"rental_uris":{"android":"levelo://app?vid=36010e39-bf73-4523-876f-8443c255c356","ios":"levelo://app?vid=36010e39-bf73-4523-876f-8443c255c356"},"vehicle_type_id":"4","last_reported":1757920246,"current_range_meters":16000,"station_id":"cpo36qri1sfpv3e86is0","pricing_plan_id":"cebpf4jnsgd1na2vs0mg"},{"bike_id":"0f164135-28bf-4311-b653-1c6ae5f28cd0","system_id":"levelo_inurba_marseille","lat":43.24066,"lon":5.37768,"is_reserved":false,"is_disabled":false,"rental_uris":{"android":"levelo://app?vid=0f164135-28bf-4311-b653-1c6ae5f28cd0","ios":"levelo://app?vid=0f164135-28bf-4311-b653-1c6ae5f28cd0"},"vehicle_type_id":"4","last_reported":1757920246,"current_range_meters":16000,"station_id":"ce4bhnp2rcd13ifvqgvg","pricing_plan_id":"cebpf4jnsgd1na2vs0mg"},{"bike_id":"d73ebff0-d957-41dc-a638-29b88edc4926","system_id":"levelo_inurba_marseille","lat":43.22571,"lon":5.41629,"is_reserved":false,"is_disabled":false,"rental_uris":{"android":"levelo://app?vid=d73ebff0-d957-41dc-a638-29b88edc4926","ios":"levelo://app?vid=d73ebff0-d957-41dc-a638-29b88edc4926"},"vehicle_type_id":"4","last_reported":1757920246,"current_range_meters":16400,"station_id":"st_d2o4gvlbi1j2169b742g","pricing_plan_id":"cebpf4jnsgd1na2vs0mg"},{"bike_id":"275e5d13-f4af-4f30-8808-ede751af1e87","system_id":"levelo_inurba_marseille","lat":43.23156,"lon":5.43723,"is_reserved":false,"is_disabled":false,"rental_uris":{"android":"levelo://app?vid=275e5d13-f4af-4f30-8808-ede751af1e87","ios":"levelo://app?vid=275e5d13-f4af-4f30-8808-ede751af1e87"},"vehicle_type_id":"4","last_reported":1757920246,"current_range_meters":16400,"station_id":"ce4bhmp2rcd13ifvqgog","pricing_plan_id":"cebpf4jnsgd1na2vs0mg"},{"bike_id":"e9431fb2-5daa-44df-84d9-baeb096cc3c1","system_id":"levelo_inurba_marseille","lat":43.31716,"lon":5.40459,"is_reserved":false,"is_disabled":false,"rental_uris":{"android":"levelo://app?vid=e9431fb2-5daa-44df-84d9-baeb096cc3c1","ios":"levelo://app?vid=e9431fb2-5daa-44df-84d9-baeb096cc3c1"},"vehicle_type_id":"4","last_reported":1757920246,"current_range_meters":16400,"station_id":"ce4bh012rcd13ifvqd00","pricing_plan_id":"cebpf4jnsgd1na2vs0mg"},{"bike_id":"d433f65c-48c2-4aa1-b7a0-61a992e3054a","system_id":"levelo_inurba_marseille","lat":43.291949,"lon":5.393196,"is_reserved":false,"is_disabled":true,"rental_uris":{"android":"levelo://app?vid=d433f65c-48c2-4aa1-b7a0-61a992e3054a","ios":"levelo://app?vid=d433f65c-48c2-4aa1-b7a0-61a992e3054a"},"vehicle_type_id":"4","last_reported":1757920246,"current_range_meters":16400,"station_id":"ce4bh192rcd13ifvqdd0","pricing_plan_id":"cebpf4jnsgd1na2vs0mg"},{"bike_id":"5df88de7-44cc-4955-8aa2-972d1933cbac","system_id":"levelo_inurba_marseille","lat":43.279846,"lon":5.416813,"is_reserved":false,"is_disabled":false,"rental_uris":{"android":"levelo://app?vid=5df88de7-44cc-4955-8aa2-972d1933cbac","ios":"levelo://app?vid=5df88de7-44cc-4955-8aa2-972d1933cbac"},"vehicle_type_id":"4","last_reported":1757920246,"current_range_meters":16400,"station_id":"ce4bho12rcd13ifvqh1g","pricing_plan_id":"cebpf4jnsgd1na2vs0mg"},{"bike_id":"305bbadb-a1d1-49b5-948f-a424b2834264","system_id":"levelo_inurba_marseille","lat":43.23966,"lon":5.36637,"is_reserved":false,"is_disabled":false,"rental_uris":{"android":"levelo://app?vid=305bbadb-a1d1-49b5-948f-a424b2834264","ios":"levelo://app?vid=305bbadb-a1d1-49b5-948f-a424b2834264"},"vehicle_type_id":"4","last_reported":1757920246,"current_range_meters":16800,"station_id":"ce4bhi12rcd13ifvqfp0","pricing_plan_id":"cebpf4jnsgd1na2vs0mg"},{"bike_id":"cd619329-841d-41e3-a043-a239388f23b4","system_id":"levelo_inurba_marseille","lat":43.30463,"lon":5.37909,"is_reserved":false,"is_disabled":false,"rental_uris":{"android":"levelo://app?vid=cd619329-841d-41e3-a043-a239388f23b4","ios":"levelo://app?vid=cd619329-841d-41e3-a043-a239388f23b4"},"vehicle_type_id":"4","last_reported":1757920246,"current_range_meters":16800,"station_id":"","pricing_plan_id":"cebpf4jnsgd1na2vs0mg"},{"bike_id":"8ef8bf7d-8a91-4724-8c2e-ddeef723e28a","system_id":"levelo_inurba_marseille","lat":43.27027,"lon":5.37928,"is_reserved":false,"is_disabled":false,"rental_uris":{"android":"levelo://app?vid=8ef8bf7d-8a91-4724-8c2e-ddeef723e28a","ios":"levelo://app?vid=8ef8bf7d-8a91-4724-8c2e-ddeef723e28a"},"vehicle_type_id":"4","last_reported":1757920246,"current_range_meters":16800,"station_id":"","pricing_plan_id":"cebpf4jnsgd1na2vs0mg"},{"bike_id":"ea4693de-86b3-41b2-926a-c1ac20480be1","system_id":"levelo_inurba_marseille","lat":43.31369,"lon":5.36719,"is_reserved":false,"is_disabled":false,"rental_uris":{"android":"levelo://app?vid=ea4693de-86b3-41b2-926a-c1ac20480be1","ios":"levelo://app?vid=ea4693de-86b3-41b2-926a-c1ac20480be1"},"vehicle_type_id":"4","last_reported":1757920246,"current_range_meters":16800,"station_id":"ce4bgr92rcd13ifvqc6g","pricing_plan_id":"cebpf4jnsgd1na2vs0mg"},{"bike_id":"b4714de6-5121-4f11-950a-3ec23d39b959","system_id":"levelo_inurba_marseille","lat":43.24082,"lon":5.37753,"is_reserved":false,"is_disabled":false,"rental_uris":{"android":"levelo://app?vid=b4714de6-5121-4f11-950a-3ec23d39b959","ios":"levelo://app?vid=b4714de6-5121-4f11-950a-3ec23d39b959"},"vehicle_type_id":"4","last_reported":1757920246,"current_range_meters":16800,"station_id":"ce4bhnp2rcd13ifvqgvg","pricing_plan_id":"cebpf4jnsgd1na2vs0mg"},{"bike_id":"088693c6-0a9a-45c3-b85d-0b3971b1e68f","system_id":"levelo_inurba_marseille","lat":43.3054,"lon":5.36536,"is_reserved":false,"is_disabled":false,"rental_uris":{"android":"levelo://app?vid=088693c6-0a9a-45c3-b85d-0b3971b1e68f","ios":"levelo://app?vid=088693c6-0a9a-45c3-b85d-0b3971b1e68f"},"vehicle_type_id":"4","last_reported":1757920246,"current_range_meters":16800,"station_id":"ce4bgs12rcd13ifvqcag","pricing_plan_id":"cebpf4jnsgd1na2vs0mg"},{"bike_id":"4d0da910-152b-448e-9786-b400d7fabfca","system_id":"levelo_inurba_marseille","lat":43.292291,"lon":5.360836,"is_reserved":false,"is_disabled":false,"rental_uris":{"android":"levelo://app?vid=4d0da910-152b-448e-9786-b400d7fabfca","ios":"levelo://app?vid=4d0da910-152b-448e-9786-b400d7fabfca"},"vehicle_type_id":"4","last_reported":1757920246,"current_range_meters":16800,"station_id":"ce4bhbh2rcd13ifvqeqg","pricing_plan_id":"cebpf4jnsgd1na2vs0mg"},{"bike_id":"f2fa18e7-cea6-416b-a447-0338af61bb4d","system_id":"levelo_inurba_marseille","lat":43.30469,"lon":5.37918,"is_reserved":false,"is_disabled":false,"rental_uris":{"android":"levelo://app?vid=f2fa18e7-cea6-416b-a447-0338af61bb4d","ios":"levelo://app?vid=f2fa18e7-cea6-416b-a447-0338af61bb4d"},"vehicle_type_id":"4","last_reported":1757920246,"current_range_meters":16800,"station_id":"","pricing_plan_id":"cebpf4jnsgd1na2vs0mg"},{"bike_id":"a333d9ec-a9a7-4617-ac2f-4224c0d88af6","system_id":"levelo_inurba_marseille","lat":43.27501,"lon":5.42437,"is_reserved":false,"is_disabled":false,"rental_uris":{"android":"levelo://app?vid=a333d9ec-a9a7-4617-ac2f-4224c0d88af6","ios":"levelo://app?vid=a333d9ec-a9a7-4617-ac2f-4224c0d88af6"},"vehicle_type_id":"4","last_reported":1757920246,"current_range_meters":16800,"station_id":"ce4bhn92rcd13ifvqgrg","pricing_plan_id":"cebpf4jnsgd1na2vs0mg"},{"bike_id":"c8cf71ab-2cba-487d-b0aa-fba68c18bfaa","system_id":"levelo_inurba_marseille","lat":43.27502,"lon":5.4247,"is_reserved":false,"is_disabled":false,"rental_uris":{"android":"levelo://app?vid=c8cf71ab-2cba-487d-b0aa-fba68c18bfaa","ios":"levelo://app?vid=c8cf71ab-2cba-487d-b0aa-fba68c18bfaa"},"vehicle_type_id":"4","last_reported":1757920246,"current_range_meters":17200,"station_id":"ce4bhn92rcd13ifvqgrg","pricing_plan_id":"cebpf4jnsgd1na2vs0mg"},{"bike_id":"39b5ad1c-ff07-4e68-bf87-9b4216ebf90d","system_id":"levelo_inurba_marseille","lat":43.28883,"lon":5.42518,"is_reserved":false,"is_disabled":false,"rental_uris":{"android":"levelo://app?vid=39b5ad1c-ff07-4e68-bf87-9b4216ebf90d","ios":"levelo://app?vid=39b5ad1c-ff07-4e68-bf87-9b4216ebf90d"},"vehicle_type_id":"4","last_reported":1757920246,"current_range_meters":17200,"station_id":"","pricing_plan_id":"cebpf4jnsgd1na2vs0mg"},{"bike_id":"26040cf4-db99-40c7-8ef4-d12596dc20aa","system_id":"levelo_inurba_marseille","lat":43.276711,"lon":5.389141,"is_reserved":false,"is_disabled":true,"rental_uris":{"android":"levelo://app?vid=26040cf4-db99-40c7-8ef4-d12596dc20aa","ios":"levelo://app?vid=26040cf4-db99-40c7-8ef4-d12596dc20aa"},"vehicle_type_id":"4","last_reported":1757920246,"current_range_meters":17200,"station_id":"ce4bhi12rcd13ifvqfo0","pricing_plan_id":"cebpf4jnsgd1na2vs0mg"},{"bike_id":"5973e844-e506-46e1-893e-880465cd0b6e","system_id":"levelo_inurba_marseille","lat":43.30557,"lon":5.36539,"is_reserved":false,"is_disabled":false,"rental_uris":{"android":"levelo://app?vid=5973e844-e506-46e1-893e-880465cd0b6e","ios":"levelo://app?vid=5973e844-e506-46e1-893e-880465cd0b6e"},"vehicle_type_id":"4","last_reported":1757920246,"current_range_meters":17200,"station_id":"ce4bgs12rcd13ifvqcag","pricing_plan_id":"cebpf4jnsgd1na2vs0mg"},{"bike_id":"20357a8f-0af2-4381-a232-bd819ed1879d","system_id":"levelo_inurba_marseille","lat":43.32054,"lon":5.41551,"is_reserved":false,"is_disabled":false,"rental_uris":{"android":"levelo://app?vid=20357a8f-0af2-4381-a232-bd819ed1879d","ios":"levelo://app?vid=20357a8f-0af2-4381-a232-bd819ed1879d"},"vehicle_type_id":"4","last_reported":1757920246,"current_range_meters":17200,"station_id":"ce4bhq92rcd13ifvqhkg","pricing_plan_id":"cebpf4jnsgd1na2vs0mg"},{"bike_id":"63584e28-b3a5-4c16-b833-94772c5e6d88","system_id":"levelo_inurba_marseille","lat":43.24073,"lon":5.37748,"is_reserved":false,"is_disabled":false,"rental_uris":{"android":"levelo://app?vid=63584e28-b3a5-4c16-b833-94772c5e6d88","ios":"levelo://app?vid=63584e28-b3a5-4c16-b833-94772c5e6d88"},"vehicle_type_id":"4","last_reported":1757920246,"current_range_meters":17600,"station_id":"ce4bhnp2rcd13ifvqgvg","pricing_plan_id":"cebpf4jnsgd1na2vs0mg"},{"bike_id":"526baf53-3841-4d73-88e9-086586535063","system_id":"levelo_inurba_marseille","lat":43.24076,"lon":5.3776,"is_reserved":false,"is_disabled":false,"rental_uris":{"android":"levelo://app?vid=526baf53-3841-4d73-88e9-086586535063","ios":"levelo://app?vid=526baf53-3841-4d73-88e9-086586535063"},"vehicle_type_id":"4","last_reported":1757920246,"current_range_meters":17600,"station_id":"ce4bhnp2rcd13ifvqgvg","pricing_plan_id":"cebpf4jnsgd1na2vs0mg"},{"bike_id":"b575a595-f932-4230-9ca7-6937f4a43d90","system_id":"levelo_inurba_marseille","lat":43.21765,"lon":5.34636,"is_reserved":false,"is_disabled":false,"rental_uris":{"android":"levelo://app?vid=b575a595-f932-4230-9ca7-6937f4a43d90","ios":"levelo://app?vid=b575a595-f932-4230-9ca7-6937f4a43d90"},"vehicle_type_id":"4","last_reported":1757920246,"current_range_meters":17600,"station_id":"st_cvj6r9ubvosntc0bgbag","pricing_plan_id":"cebpf4jnsgd1na2vs0mg"},{"bike_id":"78c4d63e-ddd9-4dbd-9a54-6d3e729398f2","system_id":"levelo_inurba_marseille","lat":43.31357,"lon":5.36727,"is_reserved":false,"is_disabled":false,"rental_uris":{"android":"levelo://app?vid=78c4d63e-ddd9-4dbd-9a54-6d3e729398f2","ios":"levelo://app?vid=78c4d63e-ddd9-4dbd-9a54-6d3e729398f2"},"vehicle_type_id":"4","last_reported":1757920246,"current_range_meters":17600,"station_id":"ce4bgr92rcd13ifvqc6g","pricing_plan_id":"cebpf4jnsgd1na2vs0mg"},{"bike_id":"8df3c2b0-5059-483d-81de-e48ff85284a5","system_id":"levelo_inurba_marseille","lat":43.30465,"lon":5.37906,"is_reserved":false,"is_disabled":false,"rental_uris":{"android":"levelo://app?vid=8df3c2b0-5059-483d-81de-e48ff85284a5","ios":"levelo://app?vid=8df3c2b0-5059-483d-81de-e48ff85284a5"},"vehicle_type_id":"4","last_reported":1757920246,"current_range_meters":17600,"station_id":"","pricing_plan_id":"cebpf4jnsgd1na2vs0mg"},{"bike_id":"6bfeb075-f535-4f2b-b4f5-3cb01d3c137a","system_id":"levelo_inurba_marseille","lat":43.26685,"lon":5.38271,"is_reserved":false,"is_disabled":false,"rental_uris":{"android":"levelo://app?vid=6bfeb075-f535-4f2b-b4f5-3cb01d3c137a","ios":"levelo://app?vid=6bfeb075-f535-4f2b-b4f5-3cb01d3c137a"},"vehicle_type_id":"4","last_reported":1757920246,"current_range_meters":17600,"station_id":"ce4bhg92rcd13ifvqf90","pricing_plan_id":"cebpf4jnsgd1na2vs0mg"},{"bike_id":"908d4a1e-8ec5-4f79-a487-484937b2c68f","system_id":"levelo_inurba_marseille","lat":43.301475,"lon":5.38078,"is_reserved":false,"is_disabled":false,"rental_uris":{"android":"levelo://app?vid=908d4a1e-8ec5-4f79-a487-484937b2c68f","ios":"levelo://app?vid=908d4a1e-8ec5-4f79-a487-484937b2c68f"},"vehicle_type_id":"4","last_reported":1757920246,"current_range_meters":17600,"station_id":"ce4bgjp2rcd13ifvqbh0","pricing_plan_id":"cebpf4jnsgd1na2vs0mg"},{"bike_id":"eb7cc917-6832-4011-8ed0-0ea12e66e244","system_id":"levelo_inurba_marseille","lat":43.32491,"lon":5.36577,"is_reserved":false,"is_disabled":false,"rental_uris":{"android":"levelo://app?vid=eb7cc917-6832-4011-8ed0-0ea12e66e244","ios":"levelo://app?vid=eb7cc917-6832-4011-8ed0-0ea12e66e244"},"vehicle_type_id":"4","last_reported":1757920246,"current_range_meters":18000,"station_id":"ce4bhs12rcd13ifvqhvg","pricing_plan_id":"cebpf4jnsgd1na2vs0mg"},{"bike_id":"5d5b51f8-15be-4825-804c-c2485c6a00ac","system_id":"levelo_inurba_marseille","lat":43.25925,"lon":5.40888,"is_reserved":false,"is_disabled":false,"rental_uris":{"android":"levelo://app?vid=5d5b51f8-15be-4825-804c-c2485c6a00ac","ios":"levelo://app?vid=5d5b51f8-15be-4825-804c-c2485c6a00ac"},"vehicle_type_id":"4","last_reported":1757920246,"current_range_meters":18000,"station_id":"ce4bhm92rcd13ifvqglg","pricing_plan_id":"cebpf4jnsgd1na2vs0mg"},{"bike_id":"a33cf4c6-054f-4a1b-8f82-8fc5a7d7e84b","system_id":"levelo_inurba_marseille","lat":43.290449,"lon":5.399915,"is_reserved":false,"is_disabled":false,"rental_uris":{"android":"levelo://app?vid=a33cf4c6-054f-4a1b-8f82-8fc5a7d7e84b","ios":"levelo://app?vid=a33cf4c6-054f-4a1b-8f82-8fc5a7d7e84b"},"vehicle_type_id":"4","last_reported":1757920246,"current_range_meters":18000,"station_id":"ce4bh392rcd13ifvqdm0","pricing_plan_id":"cebpf4jnsgd1na2vs0mg"},{"bike_id":"5aca074f-2e5b-40e8-a6ad-d2d31ffd9126","system_id":"levelo_inurba_marseille","lat":43.2494,"lon":5.40489,"is_reserved":false,"is_disabled":false,"rental_uris":{"android":"levelo://app?vid=5aca074f-2e5b-40e8-a6ad-d2d31ffd9126","ios":"levelo://app?vid=5aca074f-2e5b-40e8-a6ad-d2d31ffd9126"},"vehicle_type_id":"4","last_reported":1757920246,"current_range_meters":18000,"station_id":"st_d2ngiaodas8pm72gd1h0","pricing_plan_id":"cebpf4jnsgd1na2vs0mg"},{"bike_id":"a02e580d-3093-4e34-a053-4227fdd65225","system_id":"levelo_inurba_marseille","lat":43.25886,"lon":5.39922,"is_reserved":false,"is_disabled":false,"rental_uris":{"android":"levelo://app?vid=a02e580d-3093-4e34-a053-4227fdd65225","ios":"levelo://app?vid=a02e580d-3093-4e34-a053-4227fdd65225"},