{"last_updated":1769659147,"ttl":60,"version":"2.2","data":{"bikes":[{"bike_id":"f93c2177-0ae6-41b9-ab84-e32d02d79277","system_id":"levelo_inurba_marseille","lat":43.31334,"lon":5.39692,"is_reserved":false,"is_disabled":false,"rental_uris":{"android":"levelo://app?vid=f93c2177-0ae6-41b9-ab84-e32d02d79277","ios":"levelo://app?vid=f93c2177-0ae6-41b9-ab84-e32d02d79277"},"vehicle_type_id":"4","last_reported":1769659147,"current_range_meters":2800,"station_id":"ce4bgvp2rcd13ifvqcu0","pricing_plan_id":"cebpf4jnsgd1na2vs0mg"},{"bike_id":"82a6b099-0577-4798-9a60-21fb38c2bbb7","system_id":"levelo_inurba_marseille","lat":43.29816,"lon":5.44068,"is_reserved":false,"is_disabled":false,"rental_uris":{"android":"levelo://app?vid=82a6b099-0577-4798-9a60-21fb38c2bbb7","ios":"levelo://app?vid=82a6b099-0577-4798-9a60-21fb38c2bbb7"},"vehicle_type_id":"4","last_reported":1769659147,"current_range_meters":2800,"station_id":"st_d3jp68qikq2c7381ktn0","pricing_plan_id":"cebpf4jnsgd1na2vs0mg"},{"bike_id":"85165d95-55d2-4d6a-ba10-247f7996ac24","system_id":"levelo_inurba_marseille","lat":43.25338,"lon":5.42176,"is_reserved":false,"is_disabled":true,"rental_uris":{"android":"levelo://app?vid=85165d95-55d2-4d6a-ba10-247f7996ac24","ios":"levelo://app?vid=85165d95-55d2-4d6a-ba10-247f7996ac24"},"vehicle_type_id":"4","last_reported":1769659147,"current_range_meters":2800,"station_id":"st_d2m65c5bi1j21697t3ng","pricing_plan_id":"cebpf4jnsgd1na2vs0mg"},{"bike_id":"0994699c-2493-4cc2-b13f-c5567f29cfd1","system_id":"levelo_inurba_marseille","lat":43.25107,"lon":5.40328,"is_reserved":false,"is_disabled":false,"rental_uris":{"android":"levelo://app?vid=0994699c-2493-4cc2-b13f-c5567f29cfd1","ios":"levelo://app?vid=0994699c-2493-4cc2-b13f-c5567f29cfd1"},"vehicle_type_id":"4","last_reported":1769659147,"current_range_meters":2800,"station_id":"ce4bhlh2rcd13ifvqgig","pricing_plan_id":"cebpf4jnsgd1na2vs0mg"},{"bike_id":"7040bdbc-5052-46fd-9d78-6fb9765e379a","system_id":"levelo_inurba_marseille","lat":43.23973,"lon":5.36626,"is_reserved":false,"is_disabled":false,"rental_uris":{"android":"levelo://app?vid=7040bdbc-5052-46fd-9d78-6fb9765e379a","ios":"levelo://app?vid=7040bdbc-5052-46fd-9d78-6fb9765e379a"},"vehicle_type_id":"4","last_reported":1769659147,"current_range_meters":2800,"station_id":"ce4bhi12rcd13ifvqfp0","pricing_plan_id":"cebpf4jnsgd1na2vs0mg"},{"bike_id":"d2c4eb74-42b0-4647-9a1a-00c8b86dfe4c","system_id":"levelo_inurba_marseille","lat":43.25833,"lon":5.39433,"is_reserved":false,"is_disabled":false,"rental_uris":{"android":"levelo://app?vid=d2c4eb74-42b0-4647-9a1a-00c8b86dfe4c","ios":"levelo://app?vid=d2c4eb74-42b0-4647-9a1a-00c8b86dfe4c"},"vehicle_type_id":"4","last_reported":1769659147,"current_range_meters":2800,"station_id":"ce4bhip2rcd13ifvqft0","pricing_plan_id":"cebpf4jnsgd1na2vs0mg"},{"bike_id":"83c308e8-371e-412c-909c-4dbb993926ac","system_id":"levelo_inurba_marseille","lat":43.270268,"lon":5.400801,"is_reserved":false,"is_disabled":false,"rental_uris":{"android":"levelo://app?vid=83c308e8-371e-412c-909c-4dbb993926ac","ios":"levelo://app?vid=83c308e8-371e-412c-909c-4dbb993926ac"},"vehicle_type_id":"4","last_reported":1769659147,"current_range_meters":2800,"station_id":"","pricing_plan_id":"cebpf4jnsgd1na2vs0mg"},{"bike_id":"56e01f36-328e-43f0-84f6-e09a0e326ea2","system_id":"levelo_inurba_marseille","lat":43.29788,"lon":5.39359,"is_reserved":false,"is_disabled":false,"rental_uris":{"android":"levelo://app?vid=56e01f36-328e-43f0-84f6-e09a0e326ea2","ios":"levelo://app?vid=56e01f36-328e-43f0-84f6-e09a0e326ea2"},"vehicle_type_id":"4","last_reported":1769659147,"current_range_meters":2800,"station_id":"chh1huq6cuj3fo74tm60","pricing_plan_id":"cebpf4jnsgd1na2vs0mg"},{"bike_id":"2e77998e-c517-4f35-8821-169fc0fea54e","system_id":"levelo_inurba_marseille","lat":43.232,"lon":5.35538,"is_reserved":false,"is_disabled":false,"rental_uris":{"android":"levelo://app?vid=2e77998e-c517-4f35-8821-169fc0fea54e","ios":"levelo://app?vid=2e77998e-c517-4f35-8821-169fc0fea54e"},"vehicle_type_id":"4","last_reported":1769659147,"current_range_meters":2800,"station_id":"ce4bhu92rcd13ifvqi70","pricing_plan_id":"cebpf4jnsgd1na2vs0mg"},{"bike_id":"ff6b7c54-9109-40bd-a633-45f090808baa","system_id":"levelo_inurba_marseille","lat":43.22527,"lon":5.34835,"is_reserved":false,"is_disabled":false,"rental_uris":{"android":"levelo://app?vid=ff6b7c54-9109-40bd-a633-45f090808baa","ios":"levelo://app?vid=ff6b7c54-9109-40bd-a633-45f090808baa"},"vehicle_type_id":"4","last_reported":1769659147,"current_range_meters":3200,"station_id":"","pricing_plan_id":"cebpf4jnsgd1na2vs0mg"},{"bike_id":"1c28b0bd-3eca-46f6-a58a-d76a26f70029","system_id":"levelo_inurba_marseille","lat":43.27324,"lon":5.39064,"is_reserved":false,"is_disabled":false,"rental_uris":{"android":"levelo://app?vid=1c28b0bd-3eca-46f6-a58a-d76a26f70029","ios":"levelo://app?vid=1c28b0bd-3eca-46f6-a58a-d76a26f70029"},"vehicle_type_id":"4","last_reported":1769659147,"current_range_meters":3200,"station_id":"ce4bhgp2rcd13ifvqfe0","pricing_plan_id":"cebpf4jnsgd1na2vs0mg"},{"bike_id":"83fc51a6-33d8-4514-8bb6-691df6dd60b4","system_id":"levelo_inurba_marseille","lat":43.30145,"lon":5.43113,"is_reserved":false,"is_disabled":false,"rental_uris":{"android":"levelo://app?vid=83fc51a6-33d8-4514-8bb6-691df6dd60b4","ios":"levelo://app?vid=83fc51a6-33d8-4514-8bb6-691df6dd60b4"},"vehicle_type_id":"4","last_reported":1769659147,"current_range_meters":3200,"station_id":"st_d3js3co5814s73ftftug","pricing_plan_id":"cebpf4jnsgd1na2vs0mg"},{"bike_id":"02524dd6-e067-4657-9853-010b28f6bb5b","system_id":"levelo_inurba_marseille","lat":43.24666,"lon":5.38145,"is_reserved":false,"is_disabled":false,"rental_uris":{"android":"levelo://app?vid=02524dd6-e067-4657-9853-010b28f6bb5b","ios":"levelo://app?vid=02524dd6-e067-4657-9853-010b28f6bb5b"},"vehicle_type_id":"4","last_reported":1769659147,"current_range_meters":3200,"station_id":"ce4bhih2rcd13ifvqfr0","pricing_plan_id":"cebpf4jnsgd1na2vs0mg"},{"bike_id":"04d17902-8acd-4d6b-8c23-cfdab01b25c9","system_id":"levelo_inurba_marseille","lat":43.27958,"lon":5.38725,"is_reserved":false,"is_disabled":false,"rental_uris":{"android":"levelo://app?vid=04d17902-8acd-4d6b-8c23-cfdab01b25c9","ios":"levelo://app?vid=04d17902-8acd-4d6b-8c23-cfdab01b25c9"},"vehicle_type_id":"4","last_reported":1769659147,"current_range_meters":3200,"station_id":"ce4bhg12rcd13ifvqf80","pricing_plan_id":"cebpf4jnsgd1na2vs0mg"},{"bike_id":"4eeb9bb9-4a67-4331-8baf-cb05efb9e52c","system_id":"levelo_inurba_marseille","lat":43.26934,"lon":5.40247,"is_reserved":false,"is_disabled":false,"rental_uris":{"android":"levelo://app?vid=4eeb9bb9-4a67-4331-8baf-cb05efb9e52c","ios":"levelo://app?vid=4eeb9bb9-4a67-4331-8baf-cb05efb9e52c"},"vehicle_type_id":"4","last_reported":1769659147,"current_range_meters":3200,"station_id":"cjm6bp8fraef2m0cb0m0","pricing_plan_id":"cebpf4jnsgd1na2vs0mg"},{"bike_id":"413006d6-f7e9-4cb1-b9cb-22a751913fbd","system_id":"levelo_inurba_marseille","lat":43.24813,"lon":5.37435,"is_reserved":false,"is_disabled":false,"rental_uris":{"android":"levelo://app?vid=413006d6-f7e9-4cb1-b9cb-22a751913fbd","ios":"levelo://app?vid=413006d6-f7e9-4cb1-b9cb-22a751913fbd"},"vehicle_type_id":"4","last_reported":1769659147,"current_range_meters":3200,"station_id":"ce4bhgh2rcd13ifvqfb0","pricing_plan_id":"cebpf4jnsgd1na2vs0mg"},{"bike_id":"5432d7a0-1700-4fbb-98da-e9587b56686e","system_id":"levelo_inurba_marseille","lat":43.27611,"lon":5.36117,"is_reserved":false,"is_disabled":false,"rental_uris":{"android":"levelo://app?vid=5432d7a0-1700-4fbb-98da-e9587b56686e","ios":"levelo://app?vid=5432d7a0-1700-4fbb-98da-e9587b56686e"},"vehicle_type_id":"4","last_reported":1769659147,"current_range_meters":3600,"station_id":"ce4bgj92rcd13ifvqbe0","pricing_plan_id":"cebpf4jnsgd1na2vs0mg"},{"bike_id":"bd51588e-3b1b-43cc-abd8-ac28ecf3a1d5","system_id":"levelo_inurba_marseille","lat":43.24178,"lon":5.39731,"is_reserved":false,"is_disabled":false,"rental_uris":{"android":"levelo://app?vid=bd51588e-3b1b-43cc-abd8-ac28ecf3a1d5","ios":"levelo://app?vid=bd51588e-3b1b-43cc-abd8-ac28ecf3a1d5"},"vehicle_type_id":"4","last_reported":1769659147,"current_range_meters":3600,"station_id":"ce4bhn12rcd13ifvqgpg","pricing_plan_id":"cebpf4jnsgd1na2vs0mg"},{"bike_id":"72089be9-38d6-423c-b54b-444cdb64406b","system_id":"levelo_inurba_marseille","lat":43.28425,"lon":5.34995,"is_reserved":false,"is_disabled":false,"rental_uris":{"android":"levelo://app?vid=72089be9-38d6-423c-b54b-444cdb64406b","ios":"levelo://app?vid=72089be9-38d6-423c-b54b-444cdb64406b"},"vehicle_type_id":"4","last_reported":1769659147,"current_range_meters":3600,"station_id":"ce4bhbh2rcd13ifvqepg","pricing_plan_id":"cebpf4jnsgd1na2vs0mg"},{"bike_id":"dd89bf3d-45fd-460e-b92d-743d68f5711f","system_id":"levelo_inurba_marseille","lat":43.26808,"lon":5.40269,"is_reserved":false,"is_disabled":false,"rental_uris":{"android":"levelo://app?vid=dd89bf3d-45fd-460e-b92d-743d68f5711f","ios":"levelo://app?vid=dd89bf3d-45fd-460e-b92d-743d68f5711f"},"vehicle_type_id":"4","last_reported":1769659147,"current_range_meters":3600,"station_id":"ce501612rcd8frsf0b60","pricing_plan_id":"cebpf4jnsgd1na2vs0mg"},{"bike_id":"2a1432a9-bab1-488f-8751-340c55f34c5f","system_id":"levelo_inurba_marseille","lat":43.2656,"lon":5.40319,"is_reserved":false,"is_disabled":false,"rental_uris":{"android":"levelo://app?vid=2a1432a9-bab1-488f-8751-340c55f34c5f","ios":"levelo://app?vid=2a1432a9-bab1-488f-8751-340c55f34c5f"},"vehicle_type_id":"4","last_reported":1769659147,"current_range_meters":3600,"station_id":"ce4bhmp2rcd13ifvqgng","pricing_plan_id":"cebpf4jnsgd1na2vs0mg"},{"bike_id":"575ef269-368a-43ce-ae39-c066413ba15d","system_id":"levelo_inurba_marseille","lat":43.28034,"lon":5.3693,"is_reserved":false,"is_disabled":false,"rental_uris":{"android":"levelo://app?vid=575ef269-368a-43ce-ae39-c066413ba15d","ios":"levelo://app?vid=575ef269-368a-43ce-ae39-c066413ba15d"},"vehicle_type_id":"4","last_reported":1769659147,"current_range_meters":3600,"station_id":"ce4bha12rcd13ifvqef0","pricing_plan_id":"cebpf4jnsgd1na2vs0mg"},{"bike_id":"717913c1-fbe0-4a5b-b989-b2a093bba0e0","system_id":"levelo_inurba_marseille","lat":43.23148,"lon":5.43703,"is_reserved":false,"is_disabled":false,"rental_uris":{"android":"levelo://app?vid=717913c1-fbe0-4a5b-b989-b2a093bba0e0","ios":"levelo://app?vid=717913c1-fbe0-4a5b-b989-b2a093bba0e0"},"vehicle_type_id":"4","last_reported":1769659147,"current_range_meters":3600,"station_id":"ce4bhmp2rcd13ifvqgog","pricing_plan_id":"cebpf4jnsgd1na2vs0mg"},{"bike_id":"f3e9f9a1-18e7-4a48-a464-0191ac1803bc","system_id":"levelo_inurba_marseille","lat":43.27389,"lon":5.39298,"is_reserved":false,"is_disabled":false,"rental_uris":{"android":"levelo://app?vid=f3e9f9a1-18e7-4a48-a464-0191ac1803bc","ios":"levelo://app?vid=f3e9f9a1-18e7-4a48-a464-0191ac1803bc"},"vehicle_type_id":"4","last_reported":1769659147,"current_range_meters":3600,"station_id":"","pricing_plan_id":"cebpf4jnsgd1na2vs0mg"},{"bike_id":"69015cf3-bc6b-446f-9be5-f6f422a1478d","system_id":"levelo_inurba_marseille","lat":43.28877,"lon":5.4254,"is_reserved":false,"is_disabled":false,"rental_uris":{"android":"levelo://app?vid=69015cf3-bc6b-446f-9be5-f6f422a1478d","ios":"levelo://app?vid=69015cf3-bc6b-446f-9be5-f6f422a1478d"},"vehicle_type_id":"4","last_reported":1769659147,"current_range_meters":3600,"station_id":"st_d3b462108ojc7389ooeg","pricing_plan_id":"cebpf4jnsgd1na2vs0mg"},{"bike_id":"dd025a3b-8d88-4cc7-98ea-d46d5c91c806","system_id":"levelo_inurba_marseille","lat":43.27198,"lon":5.40995,"is_reserved":false,"is_disabled":false,"rental_uris":{"android":"levelo://app?vid=dd025a3b-8d88-4cc7-98ea-d46d5c91c806","ios":"levelo://app?vid=dd025a3b-8d88-4cc7-98ea-d46d5c91c806"},"vehicle_type_id":"4","last_reported":1769659147,"current_range_meters":3600,"station_id":"ce4bhl12rcd13ifvqgf0","pricing_plan_id":"cebpf4jnsgd1na2vs0mg"},{"bike_id":"b4cc194d-64fb-48ee-9836-91684353904f","system_id":"levelo_inurba_marseille","lat":43.29537,"lon":5.39044,"is_reserved":false,"is_disabled":false,"rental_uris":{"android":"levelo://app?vid=b4cc194d-64fb-48ee-9836-91684353904f","ios":"levelo://app?vid=b4cc194d-64fb-48ee-9836-91684353904f"},"vehicle_type_id":"4","last_reported":1769659147,"current_range_meters":3600,"station_id":"ce4bh3p2rcd13ifvqdp0","pricing_plan_id":"cebpf4jnsgd1na2vs0mg"},{"bike_id":"8d798e6d-f25a-4bb0-a8e7-6f01b0dea7db","system_id":"levelo_inurba_marseille","lat":43.29601,"lon":5.37726,"is_reserved":false,"is_disabled":true,"rental_uris":{"android":"levelo://app?vid=8d798e6d-f25a-4bb0-a8e7-6f01b0dea7db","ios":"levelo://app?vid=8d798e6d-f25a-4bb0-a8e7-6f01b0dea7db"},"vehicle_type_id":"4","last_reported":1769659147,"current_range_meters":4000,"station_id":"ce4bgi92rcd13ifvqb90","pricing_plan_id":"cebpf4jnsgd1na2vs0mg"},{"bike_id":"9183a072-7ef7-40b6-9d57-92fed5e7631a","system_id":"levelo_inurba_marseille","lat":43.301262,"lon":5.431227,"is_reserved":false,"is_disabled":false,"rental_uris":{"android":"levelo://app?vid=9183a072-7ef7-40b6-9d57-92fed5e7631a","ios":"levelo://app?vid=9183a072-7ef7-40b6-9d57-92fed5e7631a"},"vehicle_type_id":"4","last_reported":1769659147,"current_range_meters":4000,"station_id":"st_d3js3co5814s73ftftug","pricing_plan_id":"cebpf4jnsgd1na2vs0mg"},{"bike_id":"3b349a26-b9cd-4889-8572-98eda2b02afd","system_id":"levelo_inurba_marseille","lat":43.29006,"lon":5.3562,"is_reserved":false,"is_disabled":false,"rental_uris":{"android":"levelo://app?vid=3b349a26-b9cd-4889-8572-98eda2b02afd","ios":"levelo://app?vid=3b349a26-b9cd-4889-8572-98eda2b02afd"},"vehicle_type_id":"4","last_reported":1769659147,"current_range_meters":4000,"station_id":"ce4bhb92rcd13ifvqen0","pricing_plan_id":"cebpf4jnsgd1na2vs0mg"},{"bike_id":"71474573-e139-42f3-bf94-d0fc6a99c0c9","system_id":"levelo_inurba_marseille","lat":43.28115,"lon":5.42641,"is_reserved":false,"is_disabled":false,"rental_uris":{"android":"levelo://app?vid=71474573-e139-42f3-bf94-d0fc6a99c0c9","ios":"levelo://app?vid=71474573-e139-42f3-bf94-d0fc6a99c0c9"},"vehicle_type_id":"4","last_reported":1769659147,"current_range_meters":4000,"station_id":"ce4bhnh2rcd13ifvqgug","pricing_plan_id":"cebpf4jnsgd1na2vs0mg"},{"bike_id":"b2d1a884-1541-45ce-ba1a-d04506708ff2","system_id":"levelo_inurba_marseille","lat":43.26549,"lon":5.37317,"is_reserved":false,"is_disabled":false,"rental_uris":{"android":"levelo://app?vid=b2d1a884-1541-45ce-ba1a-d04506708ff2","ios":"levelo://app?vid=b2d1a884-1541-45ce-ba1a-d04506708ff2"},"vehicle_type_id":"4","last_reported":1769659147,"current_range_meters":4000,"station_id":"ce4bhg12rcd13ifvqf70","pricing_plan_id":"cebpf4jnsgd1na2vs0mg"},{"bike_id":"995807e5-7034-4f3b-b57e-5671f32aaba5","system_id":"levelo_inurba_marseille","lat":43.26589,"lon":5.39001,"is_reserved":false,"is_disabled":false,"rental_uris":{"android":"levelo://app?vid=995807e5-7034-4f3b-b57e-5671f32aaba5","ios":"levelo://app?vid=995807e5-7034-4f3b-b57e-5671f32aaba5"},"vehicle_type_id":"4","last_reported":1769659147,"current_range_meters":4000,"station_id":"ce4bhe12rcd13ifvqf30","pricing_plan_id":"cebpf4jnsgd1na2vs0mg"},{"bike_id":"cd737560-f7db-4070-9139-519c55f31a04","system_id":"levelo_inurba_marseille","lat":43.231904,"lon":5.399868,"is_reserved":false,"is_disabled":false,"rental_uris":{"android":"levelo://app?vid=cd737560-f7db-4070-9139-519c55f31a04","ios":"levelo://app?vid=cd737560-f7db-4070-9139-519c55f31a04"},"vehicle_type_id":"4","last_reported":1769659147,"current_range_meters":4000,"station_id":"ce4bhn12rcd13ifvqgqg","pricing_plan_id":"cebpf4jnsgd1na2vs0mg"},{"bike_id":"f48c1f6e-0473-4847-8c29-30c8ea2f18f5","system_id":"levelo_inurba_marseille","lat":43.29491,"lon":5.43309,"is_reserved":false,"is_disabled":false,"rental_uris":{"android":"levelo://app?vid=f48c1f6e-0473-4847-8c29-30c8ea2f18f5","ios":"levelo://app?vid=f48c1f6e-0473-4847-8c29-30c8ea2f18f5"},"vehicle_type_id":"4","last_reported":1769659147,"current_range_meters":4000,"station_id":"st_d3j5ugp08ojc73fj9d10","pricing_plan_id":"cebpf4jnsgd1na2vs0mg"},{"bike_id":"3aaa97e8-6cbb-46f2-8298-95220655c5c8","system_id":"levelo_inurba_marseille","lat":43.28447,"lon":5.48402,"is_reserved":false,"is_disabled":false,"rental_uris":{"android":"levelo://app?vid=3aaa97e8-6cbb-46f2-8298-95220655c5c8","ios":"levelo://app?vid=3aaa97e8-6cbb-46f2-8298-95220655c5c8"},"vehicle_type_id":"4","last_reported":1769659147,"current_range_meters":4000,"station_id":"st_d3svhcjqgbts73a3dn0g","pricing_plan_id":"cebpf4jnsgd1na2vs0mg"},{"bike_id":"a96596de-dfad-4601-8f17-e228e00b2cc8","system_id":"levelo_inurba_marseille","lat":43.26578,"lon":5.39055,"is_reserved":false,"is_disabled":false,"rental_uris":{"android":"levelo://app?vid=a96596de-dfad-4601-8f17-e228e00b2cc8","ios":"levelo://app?vid=a96596de-dfad-4601-8f17-e228e00b2cc8"},"vehicle_type_id":"4","last_reported":1769659147,"current_range_meters":4000,"station_id":"ce4bhe12rcd13ifvqf30","pricing_plan_id":"cebpf4jnsgd1na2vs0mg"},{"bike_id":"c9f3a220-219b-4c2b-8c1e-c880db7831c0","system_id":"levelo_inurba_marseille","lat":43.23153,"lon":5.43714,"is_reserved":false,"is_disabled":false,"rental_uris":{"android":"levelo://app?vid=c9f3a220-219b-4c2b-8c1e-c880db7831c0","ios":"levelo://app?vid=c9f3a220-219b-4c2b-8c1e-c880db7831c0"},"vehicle_type_id":"4","last_reported":1769659147,"current_range_meters":4000,"station_id":"ce4bhmp2rcd13ifvqgog","pricing_plan_id":"cebpf4jnsgd1na2vs0mg"},{"bike_id":"2b025830-a75f-4dd0-9345-1f4a2853b8f8","system_id":"levelo_inurba_marseille","lat":43.32345,"lon":5.3671,"is_reserved":false,"is_disabled":false,"rental_uris":{"android":"levelo://app?vid=2b025830-a75f-4dd0-9345-1f4a2853b8f8","ios":"levelo://app?vid=2b025830-a75f-4dd0-9345-1f4a2853b8f8"},"vehicle_type_id":"4","last_reported":1769659147,"current_range_meters":4400,"station_id":"ce4bhsh2rcd13ifvqi2g","pricing_plan_id":"cebpf4jnsgd1na2vs0mg"},{"bike_id":"dc8b1866-1c7d-4f5d-b308-b24c23c7f916","system_id":"levelo_inurba_marseille","lat":43.303053,"lon":5.39199,"is_reserved":false,"is_disabled":false,"rental_uris":{"android":"levelo://app?vid=dc8b1866-1c7d-4f5d-b308-b24c23c7f916","ios":"levelo://app?vid=dc8b1866-1c7d-4f5d-b308-b24c23c7f916"},"vehicle_type_id":"4","last_reported":1769659147,"current_range_meters":4400,"station_id":"ce4bgkh2rcd13ifvqbk0","pricing_plan_id":"cebpf4jnsgd1na2vs0mg"},{"bike_id":"8d6c3c35-9339-47a7-89ed-64308b957c9d","system_id":"levelo_inurba_marseille","lat":43.30652,"lon":5.40071,"is_reserved":false,"is_disabled":false,"rental_uris":{"android":"levelo://app?vid=8d6c3c35-9339-47a7-89ed-64308b957c9d","ios":"levelo://app?vid=8d6c3c35-9339-47a7-89ed-64308b957c9d"},"vehicle_type_id":"4","last_reported":1769659147,"current_range_meters":4400,"station_id":"ce4bh112rcd13ifvqda0","pricing_plan_id":"cebpf4jnsgd1na2vs0mg"},{"bike_id":"a3e363b9-7b2f-4016-998e-5be4b71e30f7","system_id":"levelo_inurba_marseille","lat":43.31321,"lon":5.39701,"is_reserved":false,"is_disabled":false,"rental_uris":{"android":"levelo://app?vid=a3e363b9-7b2f-4016-998e-5be4b71e30f7","ios":"levelo://app?vid=a3e363b9-7b2f-4016-998e-5be4b71e30f7"},"vehicle_type_id":"4","last_reported":1769659147,"current_range_meters":4400,"station_id":"ce4bgvp2rcd13ifvqcu0","pricing_plan_id":"cebpf4jnsgd1na2vs0mg"},{"bike_id":"72e1ff24-6af7-4c0e-a0b5-18d5a81f63fe","system_id":"levelo_inurba_marseille","lat":43.27953,"lon":5.41039,"is_reserved":false,"is_disabled":false,"rental_uris":{"android":"levelo://app?vid=72e1ff24-6af7-4c0e-a0b5-18d5a81f63fe","ios":"levelo://app?vid=72e1ff24-6af7-4c0e-a0b5-18d5a81f63fe"},"vehicle_type_id":"4","last_reported":1769659147,"current_range_meters":4400,"station_id":"ce4bhnp2rcd13ifvqh0g","pricing_plan_id":"cebpf4jnsgd1na2vs0mg"},{"bike_id":"fa4f137b-a5cd-4c21-a300-5864eb1e4bc1","system_id":"levelo_inurba_marseille","lat":43.279725,"lon":5.387404,"is_reserved":false,"is_disabled":true,"rental_uris":{"android":"levelo://app?vid=fa4f137b-a5cd-4c21-a300-5864eb1e4bc1","ios":"levelo://app?vid=fa4f137b-a5cd-4c21-a300-5864eb1e4bc1"},"vehicle_type_id":"4","last_reported":1769659147,"current_range_meters":4400,"station_id":"ce4bhg12rcd13ifvqf80","pricing_plan_id":"cebpf4jnsgd1na2vs0mg"},{"bike_id":"7685a49c-8aa3-4105-b6c4-9b0fdec5d0f8","system_id":"levelo_inurba_marseille","lat":43.31493,"lon":5.372382,"is_reserved":false,"is_disabled":false,"rental_uris":{"android":"levelo://app?vid=7685a49c-8aa3-4105-b6c4-9b0fdec5d0f8","ios":"levelo://app?vid=7685a49c-8aa3-4105-b6c4-9b0fdec5d0f8"},"vehicle_type_id":"4","last_reported":1769659147,"current_range_meters":4400,"station_id":"","pricing_plan_id":"cebpf4jnsgd1na2vs0mg"},{"bike_id":"550a10a6-25fd-44c4-b243-af48ee3c8b4a","system_id":"levelo_inurba_marseille","lat":43.3127,"lon":5.40186,"is_reserved":false,"is_disabled":false,"rental_uris":{"android":"levelo://app?vid=550a10a6-25fd-44c4-b243-af48ee3c8b4a","ios":"levelo://app?vid=550a10a6-25fd-44c4-b243-af48ee3c8b4a"},"vehicle_type_id":"4","last_reported":1769659147,"current_range_meters":4400,"station_id":"ce4bh092rcd13ifvqd30","pricing_plan_id":"cebpf4jnsgd1na2vs0mg"},{"bike_id":"14cbafe9-f424-4014-be87-4eca1fce0192","system_id":"levelo_inurba_marseille","lat":43.25333,"lon":5.42162,"is_reserved":false,"is_disabled":false,"rental_uris":{"android":"levelo://app?vid=14cbafe9-f424-4014-be87-4eca1fce0192","ios":"levelo://app?vid=14cbafe9-f424-4014-be87-4eca1fce0192"},"vehicle_type_id":"4","last_reported":1769659147,"current_range_meters":4400,"station_id":"st_d2m65c5bi1j21697t3ng","pricing_plan_id":"cebpf4jnsgd1na2vs0mg"},{"bike_id":"54e3cc28-a140-4775-befe-e3dc2ae200d2","system_id":"levelo_inurba_marseille","lat":43.284819,"lon":5.38555,"is_reserved":false,"is_disabled":false,"rental_uris":{"android":"levelo://app?vid=54e3cc28-a140-4775-befe-e3dc2ae200d2","ios":"levelo://app?vid=54e3cc28-a140-4775-befe-e3dc2ae200d2"},"vehicle_type_id":"4","last_reported":1769659147,"current_range_meters":4800,"station_id":"ce4bh8p2rcd13ifvqeb0","pricing_plan_id":"cebpf4jnsgd1na2vs0mg"},{"bike_id":"91a684bf-aaa1-4f4c-aff7-c10249f555a8","system_id":"levelo_inurba_marseille","lat":43.300948,"lon":5.390857,"is_reserved":false,"is_disabled":true,"rental_uris":{"android":"levelo://app?vid=91a684bf-aaa1-4f4c-aff7-c10249f555a8","ios":"levelo://app?vid=91a684bf-aaa1-4f4c-aff7-c10249f555a8"},"vehicle_type_id":"4","last_reported":1769659147,"current_range_meters":4800,"station_id":"ce4bh192rcd13ifvqdb0","pricing_plan_id":"cebpf4jnsgd1na2vs0mg"},{"bike_id":"eabc1a0b-29e5-4a39-9680-b7193c71163a","system_id":"levelo_inurba_marseille","lat":43.31089,"lon":5.38366,"is_reserved":false,"is_disabled":false,"rental_uris":{"android":"levelo://app?vid=eabc1a0b-29e5-4a39-9680-b7193c71163a","ios":"levelo://app?vid=eabc1a0b-29e5-4a39-9680-b7193c71163a"},"vehicle_type_id":"4","last_reported":1769659147,"current_range_meters":4800,"station_id":"ce4bgv92rcd13ifvqcr0","pricing_plan_id":"cebpf4jnsgd1na2vs0mg"},{"bike_id":"127506ad-716b-45f9-be38-46d06665f504","system_id":"levelo_inurba_marseille","lat":43.303234,"lon":5.40442,"is_reserved":false,"is_disabled":false,"rental_uris":{"android":"levelo://app?vid=127506ad-716b-45f9-be38-46d06665f504","ios":"levelo://app?vid=127506ad-716b-45f9-be38-46d06665f504"},"vehicle_type_id":"4","last_reported":1769659147,"current_range_meters":4800,"station_id":"ce4bh012rcd13ifvqd10","pricing_plan_id":"cebpf4jnsgd1na2vs0mg"},{"bike_id":"3ac5ebe5-0653-413b-95dd-c53fcaae71d6","system_id":"levelo_inurba_marseille","lat":43.29898,"lon":5.37483,"is_reserved":false,"is_disabled":false,"rental_uris":{"android":"levelo://app?vid=3ac5ebe5-0653-413b-95dd-c53fcaae71d6","ios":"levelo://app?vid=3ac5ebe5-0653-413b-95dd-c53fcaae71d6"},"vehicle_type_id":"4","last_reported":1769659147,"current_range_meters":4800,"station_id":"ce4bgjh2rcd13ifvqbg0","pricing_plan_id":"cebpf4jnsgd1na2vs0mg"},{"bike_id":"215d9242-cc67-4957-98e5-94a2159c71f8","system_id":"levelo_inurba_marseille","lat":43.32349,"lon":5.36723,"is_reserved":false,"is_disabled":false,"rental_uris":{"android":"levelo://app?vid=215d9242-cc67-4957-98e5-94a2159c71f8","ios":"levelo://app?vid=215d9242-cc67-4957-98e5-94a2159c71f8"},"vehicle_type_id":"4","last_reported":1769659147,"current_range_meters":4800,"station_id":"ce4bhsh2rcd13ifvqi2g","pricing_plan_id":"cebpf4jnsgd1na2vs0mg"},{"bike_id":"4ae21097-68ff-4a44-bcb7-3e142e11d517","system_id":"levelo_inurba_marseille","lat":43.24179,"lon":5.36393,"is_reserved":false,"is_disabled":false,"rental_uris":{"android":"levelo://app?vid=4ae21097-68ff-4a44-bcb7-3e142e11d517","ios":"levelo://app?vid=4ae21097-68ff-4a44-bcb7-3e142e11d517"},"vehicle_type_id":"4","last_reported":1769659147,"current_range_meters":4800,"station_id":"cpo36qri1sfpv3e86is0","pricing_plan_id":"cebpf4jnsgd1na2vs0mg"},{"bike_id":"0e67fe98-9108-433b-9434-394fc2106387","system_id":"levelo_inurba_marseille","lat":43.24658,"lon":5.43134,"is_reserved":false,"is_disabled":false,"rental_uris":{"android":"levelo://app?vid=0e67fe98-9108-433b-9434-394fc2106387","ios":"levelo://app?vid=0e67fe98-9108-433b-9434-394fc2106387"},"vehicle_type_id":"4","last_reported":1769659147,"current_range_meters":4800,"station_id":"st_d2m6c4gdas8pm72e190g","pricing_plan_id":"cebpf4jnsgd1na2vs0mg"},{"bike_id":"c963a432-d073-4341-aaf7-d232d2335ab5","system_id":"levelo_inurba_marseille","lat":43.26811,"lon":5.40256,"is_reserved":false,"is_disabled":false,"rental_uris":{"android":"levelo://app?vid=c963a432-d073-4341-aaf7-d232d2335ab5","ios":"levelo://app?vid=c963a432-d073-4341-aaf7-d232d2335ab5"},"vehicle_type_id":"4","last_reported":1769659147,"current_range_meters":4800,"station_id":"ce501612rcd8frsf0b60","pricing_plan_id":"cebpf4jnsgd1na2vs0mg"},{"bike_id":"9c7ec51d-860f-48f1-819f-2ce47c19a6ec","system_id":"levelo_inurba_marseille","lat":43.2998,"lon":5.38486,"is_reserved":false,"is_disabled":true,"rental_uris":{"android":"levelo://app?vid=9c7ec51d-860f-48f1-819f-2ce47c19a6ec","ios":"levelo://app?vid=9c7ec51d-860f-48f1-819f-2ce47c19a6ec"},"vehicle_type_id":"4","last_reported":1769659147,"current_range_meters":4800,"station_id":"ce4bgj92rcd13ifvqbd0","pricing_plan_id":"cebpf4jnsgd1na2vs0mg"},{"bike_id":"5d05d531-ebc5-422e-a94d-fab2e789248e","system_id":"levelo_inurba_marseille","lat":43.25089,"lon":5.39517,"is_reserved":false,"is_disabled":false,"rental_uris":{"android":"levelo://app?vid=5d05d531-ebc5-422e-a94d-fab2e789248e","ios":"levelo://app?vid=5d05d531-ebc5-422e-a94d-fab2e789248e"},"vehicle_type_id":"4","last_reported":1769659147,"current_range_meters":5600,"station_id":"ce4bhm12rcd13ifvqgkg","pricing_plan_id":"cebpf4jnsgd1na2vs0mg"},{"bike_id":"18975a44-e499-49a1-a68c-bdc7f9cfefe3","system_id":"levelo_inurba_marseille","lat":43.2406,"lon":5.37768,"is_reserved":false,"is_disabled":false,"rental_uris":{"android":"levelo://app?vid=18975a44-e499-49a1-a68c-bdc7f9cfefe3","ios":"levelo://app?vid=18975a44-e499-49a1-a68c-bdc7f9cfefe3"},"vehicle_type_id":"4","last_reported":1769659147,"current_range_meters":5600,"station_id":"ce4bhnp2rcd13ifvqgvg","pricing_plan_id":"cebpf4jnsgd1na2vs0mg"},{"bike_id":"a4e7d057-e9fa-48ce-abfc-2a2c6294c8fc","system_id":"levelo_inurba_marseille","lat":43.24068,"lon":5.37744,"is_reserved":false,"is_disabled":false,"rental_uris":{"android":"levelo://app?vid=a4e7d057-e9fa-48ce-abfc-2a2c6294c8fc","ios":"levelo://app?vid=a4e7d057-e9fa-48ce-abfc-2a2c6294c8fc"},"vehicle_type_id":"4","last_reported":1769659147,"current_range_meters":5600,"station_id":"ce4bhnp2rcd13ifvqgvg","pricing_plan_id":"cebpf4jnsgd1na2vs0mg"},{"bike_id":"c05dd82c-c313-4155-97d6-b2845c2b674b","system_id":"levelo_inurba_marseille","lat":43.30654,"lon":5.400877,"is_reserved":false,"is_disabled":false,"rental_uris":{"android":"levelo://app?vid=c05dd82c-c313-4155-97d6-b2845c2b674b","ios":"levelo://app?vid=c05dd82c-c313-4155-97d6-b2845c2b674b"},"vehicle_type_id":"4","last_reported":1769659147,"current_range_meters":5600,"station_id":"ce4bh112rcd13ifvqda0","pricing_plan_id":"cebpf4jnsgd1na2vs0mg"},{"bike_id":"3588b3bf-8bee-479b-a8f5-c4cf558e1f42","system_id":"levelo_inurba_marseille","lat":43.25126,"lon":5.40321,"is_reserved":false,"is_disabled":false,"rental_uris":{"android":"levelo://app?vid=3588b3bf-8bee-479b-a8f5-c4cf558e1f42","ios":"levelo://app?vid=3588b3bf-8bee-479b-a8f5-c4cf558e1f42"},"vehicle_type_id":"4","last_reported":1769659147,"current_range_meters":5600,"station_id":"ce4bhlh2rcd13ifvqgig","pricing_plan_id":"cebpf4jnsgd1na2vs0mg"},{"bike_id":"c00d1abe-f6f3-4677-9b5b-65f2d4348ca7","system_id":"levelo_inurba_marseille","lat":43.231929,"lon":5.355611,"is_reserved":false,"is_disabled":false,"rental_uris":{"android":"levelo://app?vid=c00d1abe-f6f3-4677-9b5b-65f2d4348ca7","ios":"levelo://app?vid=c00d1abe-f6f3-4677-9b5b-65f2d4348ca7"},"vehicle_type_id":"4","last_reported":1769659147,"current_range_meters":5600,"station_id":"ce4bhu92rcd13ifvqi70","pricing_plan_id":"cebpf4jnsgd1na2vs0mg"},{"bike_id":"41c91ad2-73b9-4699-b23d-1b5a65edd284","system_id":"levelo_inurba_marseille","lat":43.33539,"lon":5.37461,"is_reserved":false,"is_disabled":false,"rental_uris":{"android":"levelo://app?vid=41c91ad2-73b9-4699-b23d-1b5a65edd284","ios":"levelo://app?vid=41c91ad2-73b9-4699-b23d-1b5a65edd284"},"vehicle_type_id":"4","last_reported":1769659147,"current_range_meters":5600,"station_id":"","pricing_plan_id":"cebpf4jnsgd1na2vs0mg"},{"bike_id":"da2028bb-a098-41ca-b1f0-e5d6f17b7120","system_id":"levelo_inurba_marseille","lat":43.28864,"lon":5.42531,"is_reserved":false,"is_disabled":false,"rental_uris":{"android":"levelo://app?vid=da2028bb-a098-41ca-b1f0-e5d6f17b7120","ios":"levelo://app?vid=da2028bb-a098-41ca-b1f0-e5d6f17b7120"},"vehicle_type_id":"4","last_reported":1769659147,"current_range_meters":5600,"station_id":"st_d3b462108ojc7389ooeg","pricing_plan_id":"cebpf4jnsgd1na2vs0mg"},{"bike_id":"f1456dcf-2e61-431a-b78d-ce4624a9cf9a","system_id":"levelo_inurba_marseille","lat":43.27067,"lon":5.4228,"is_reserved":false,"is_disabled":false,"rental_uris":{"android":"levelo://app?vid=f1456dcf-2e61-431a-b78d-ce4624a9cf9a","ios":"levelo://app?vid=f1456dcf-2e61-431a-b78d-ce4624a9cf9a"},"vehicle_type_id":"4","last_reported":1769659147,"current_range_meters":5600,"station_id":"ce4bhk92rcd13ifvqgb0","pricing_plan_id":"cebpf4jnsgd1na2vs0mg"},{"bike_id":"a3120952-f4de-483f-ac39-1358612b53f0","system_id":"levelo_inurba_marseille","lat":43.29277,"lon":5.36844,"is_reserved":false,"is_disabled":false,"rental_uris":{"android":"levelo://app?vid=a3120952-f4de-483f-ac39-1358612b53f0","ios":"levelo://app?vid=a3120952-f4de-483f-ac39-1358612b53f0"},"vehicle_type_id":"4","last_reported":1769659147,"current_range_meters":5600,"station_id":"ce4bhbp2rcd13ifvqesg","pricing_plan_id":"cebpf4jnsgd1na2vs0mg"},{"bike_id":"b0d0ca1c-3ec0-4474-8c0d-81ed475fe700","system_id":"levelo_inurba_marseille","lat":43.27076,"lon":5.40256,"is_reserved":false,"is_disabled":false,"rental_uris":{"android":"levelo://app?vid=b0d0ca1c-3ec0-4474-8c0d-81ed475fe700","ios":"levelo://app?vid=b0d0ca1c-3ec0-4474-8c0d-81ed475fe700"},"vehicle_type_id":"4","last_reported":1769659147,"current_range_meters":6000,"station_id":"ce4bhk92rcd13ifvqgc0","pricing_plan_id":"cebpf4jnsgd1na2vs0mg"},{"bike_id":"df52980a-93f4-4285-ad17-40525d77857a","system_id":"levelo_inurba_marseille","lat":43.305287,"lon":5.365468,"is_reserved":false,"is_disabled":false,"rental_uris":{"android":"levelo://app?vid=df52980a-93f4-4285-ad17-40525d77857a","ios":"levelo://app?vid=df52980a-93f4-4285-ad17-40525d77857a"},"vehicle_type_id":"4","last_reported":1769659147,"current_range_meters":6000,"station_id":"ce4bgs12rcd13ifvqcag","pricing_plan_id":"cebpf4jnsgd1na2vs0mg"},{"bike_id":"69a8705c-622c-4687-befc-0e95f406c55e","system_id":"levelo_inurba_marseille","lat":43.2258,"lon":5.41622,"is_reserved":false,"is_disabled":false,"rental_uris":{"android":"levelo://app?vid=69a8705c-622c-4687-befc-0e95f406c55e","ios":"levelo://app?vid=69a8705c-622c-4687-befc-0e95f406c55e"},"vehicle_type_id":"4","last_reported":1769659147,"current_range_meters":6000,"station_id":"st_d2o4gvlbi1j2169b742g","pricing_plan_id":"cebpf4jnsgd1na2vs0mg"},{"bike_id":"b32156a5-0f42-4031-8c85-8ff425eea62c","system_id":"levelo_inurba_marseille","lat":43.30894,"lon":5.39652,"is_reserved":false,"is_disabled":false,"rental_uris":{"android":"levelo://app?vid=b32156a5-0f42-4031-8c85-8ff425eea62c","ios":"levelo://app?vid=b32156a5-0f42-4031-8c85-8ff425eea62c"},"vehicle_type_id":"4","last_reported":1769659147,"current_range_meters":6000,"station_id":"ce4bh012rcd13ifvqcv0","pricing_plan_id":"cebpf4jnsgd1na2vs0mg"},{"bike_id":"c7e4813a-c248-4d27-817f-f64ef50a11f2","system_id":"levelo_inurba_marseille","lat":43.2594,"lon":5.409,"is_reserved":false,"is_disabled":false,"rental_uris":{"android":"levelo://app?vid=c7e4813a-c248-4d27-817f-f64ef50a11f2","ios":"levelo://app?vid=c7e4813a-c248-4d27-817f-f64ef50a11f2"},"vehicle_type_id":"4","last_reported":1769659147,"current_range_meters":6000,"station_id":"ce4bhm92rcd13ifvqglg","pricing_plan_id":"cebpf4jnsgd1na2vs0mg"},{"bike_id":"266b0834-654b-47d2-95f5-e9ad274f17f8","system_id":"levelo_inurba_marseille","lat":43.23783,"lon":5.36633,"is_reserved":false,"is_disabled":false,"rental_uris":{"android":"levelo://app?vid=266b0834-654b-47d2-95f5-e9ad274f17f8","ios":"levelo://app?vid=266b0834-654b-47d2-95f5-e9ad274f17f8"},"vehicle_type_id":"4","last_reported":1769659147,"current_range_meters":6000,"station_id":"st_d3nk18o9ro0c73en2l3g","pricing_plan_id":"cebpf4jnsgd1na2vs0mg"},{"bike_id":"d3b9e203-2e90-4049-8bfd-60acf2034724","system_id":"levelo_inurba_marseille","lat":43.293138,"lon":5.371759,"is_reserved":false,"is_disabled":false,"rental_uris":{"android":"levelo://app?vid=d3b9e203-2e90-4049-8bfd-60acf2034724","ios":"levelo://app?vid=d3b9e203-2e90-4049-8bfd-60acf2034724"},"vehicle_type_id":"4","last_reported":1769659147,"current_range_meters":6000,"station_id":"ce4bgh92rcd13ifvqb40","pricing_plan_id":"cebpf4jnsgd1na2vs0mg"},{"bike_id":"dcc20a74-9ba4-4119-a5f5-ce0a76ef7ac9","system_id":"levelo_inurba_marseille","lat":43.22562,"lon":5.41649,"is_reserved":false,"is_disabled":false,"rental_uris":{"android":"levelo://app?vid=dcc20a74-9ba4-4119-a5f5-ce0a76ef7ac9","ios":"levelo://app?vid=dcc20a74-9ba4-4119-a5f5-ce0a76ef7ac9"},"vehicle_type_id":"4","last_reported":1769659147,"current_range_meters":6000,"station_id":"st_d2o4gvlbi1j2169b742g","pricing_plan_id":"cebpf4jnsgd1na2vs0mg"},{"bike_id":"3a560c1d-76d6-45a6-9554-036aa12f4461","system_id":"levelo_inurba_marseille","lat":43.23201,"lon":5.35555,"is_reserved":false,"is_disabled":false,"rental_uris":{"android":"levelo://app?vid=3a560c1d-76d6-45a6-9554-036aa12f4461","ios":"levelo://app?vid=3a560c1d-76d6-45a6-9554-036aa12f4461"},"vehicle_type_id":"4","last_reported":1769659147,"current_range_meters":6000,"station_id":"ce4bhu92rcd13ifvqi70","pricing_plan_id":"cebpf4jnsgd1na2vs0mg"},{"bike_id":"c3ce32c3-77f1-44a0-a14c-e64ffd33f7f6","system_id":"levelo_inurba_marseille","lat":43.313174,"lon":5.396821,"is_reserved":false,"is_disabled":false,"rental_uris":{"android":"levelo://app?vid=c3ce32c3-77f1-44a0-a14c-e64ffd33f7f6","ios":"levelo://app?vid=c3ce32c3-77f1-44a0-a14c-e64ffd33f7f6"},"vehicle_type_id":"4","last_reported":1769659147,"current_range_meters":6000,"station_id":"ce4bgvp2rcd13ifvqcu0","pricing_plan_id":"cebpf4jnsgd1na2vs0mg"},{"bike_id":"9328d8d0-a319-4fb2-9d4a-db2606a87040","system_id":"levelo_inurba_marseille","lat":43.24157,"lon":5.36417,"is_reserved":false,"is_disabled":false,"rental_uris":{"android":"levelo://app?vid=9328d8d0-a319-4fb2-9d4a-db2606a87040","ios":"levelo://app?vid=9328d8d0-a319-4fb2-9d4a-db2606a87040"},"vehicle_type_id":"4","last_reported":1769659147,"current_range_meters":6000,"station_id":"cpo36qri1sfpv3e86is0","pricing_plan_id":"cebpf4jnsgd1na2vs0mg"},{"bike_id":"db91af1c-8610-46d2-8811-cba210a8ff4f","system_id":"levelo_inurba_marseille","lat":43.33284,"lon":5.37962,"is_reserved":false,"is_disabled":false,"rental_uris":{"android":"levelo://app?vid=db91af1c-8610-46d2-8811-cba210a8ff4f","ios":"levelo://app?vid=db91af1c-8610-46d2-8811-cba210a8ff4f"},"vehicle_type_id":"4","last_reported":1769659147,"current_range_meters":6000,"station_id":"","pricing_plan_id":"cebpf4jnsgd1na2vs0mg"},{"bike_id":"261cd935-7883-4391-ba05-0e490ab8522f","system_id":"levelo_inurba_marseille","lat":43.3034,"lon":5.40451,"is_reserved":false,"is_disabled":false,"rental_uris":{"android":"levelo://app?vid=261cd935-7883-4391-ba05-0e490ab8522f","ios":"levelo://app?vid=261cd935-7883-4391-ba05-0e490ab8522f"},"vehicle_type_id":"4","last_reported":1769659147,"current_range_meters":6000,"station_id":"ce4bh012rcd13ifvqd10","pricing_plan_id":"cebpf4jnsgd1na2vs0mg"},{"bike_id":"e70fb837-14f8-41fe-a4eb-bfb7957e35bf","system_id":"levelo_inurba_marseille","lat":43.30074,"lon":5.38833,"is_reserved":false,"is_disabled":false,"rental_uris":{"android":"levelo://app?vid=e70fb837-14f8-41fe-a4eb-bfb7957e35bf","ios":"levelo://app?vid=e70fb837-14f8-41fe-a4eb-bfb7957e35bf"},"vehicle_type_id":"4","last_reported":1769659147,"current_range_meters":6000,"station_id":"","pricing_plan_id":"cebpf4jnsgd1na2vs0mg"},{"bike_id":"ca12b7cc-8815-40ae-be57-f808e99266b1","system_id":"levelo_inurba_marseille","lat":43.29036,"lon":5.38149,"is_reserved":false,"is_disabled":false,"rental_uris":{"android":"levelo://app?vid=ca12b7cc-8815-40ae-be57-f808e99266b1","ios":"levelo://app?vid=ca12b7cc-8815-40ae-be57-f808e99266b1"},"vehicle_type_id":"4","last_reported":1769659147,"current_range_meters":6000,"station_id":"ce4bh4p2rcd13ifvqe1g","pricing_plan_id":"cebpf4jnsgd1na2vs0mg"},{"bike_id":"8819f7ff-b9cf-4178-9761-9dd00f9b3f70","system_id":"levelo_inurba_marseille","lat":43.288503,"lon":5.358372,"is_reserved":false,"is_disabled":false,"rental_uris":{"android":"levelo://app?vid=8819f7ff-b9cf-4178-9761-9dd00f9b3f70","ios":"levelo://app?vid=8819f7ff-b9cf-4178-9761-9dd00f9b3f70"},"vehicle_type_id":"4","last_reported":1769659147,"current_range_meters":6000,"station_id":"ce4bhb12rcd13ifvqem0","pricing_plan_id":"cebpf4jnsgd1na2vs0mg"},{"bike_id":"ad760db1-c08e-4218-880f-506e66682432","system_id":"levelo_inurba_marseille","lat":43.29251,"lon":5.37931,"is_reserved":false,"is_disabled":false,"rental_uris":{"android":"levelo://app?vid=ad760db1-c08e-4218-880f-506e66682432","ios":"levelo://app?vid=ad760db1-c08e-4218-880f-506e66682432"},"vehicle_type_id":"4","last_reported":1769659147,"current_range_meters":6400,"station_id":"","pricing_plan_id":"cebpf4jnsgd1na2vs0mg"},{"bike_id":"80b39af1-2c58-45ab-b4de-d5db4025af96","system_id":"levelo_inurba_marseille","lat":43.24811,"lon":5.37459,"is_reserved":false,"is_disabled":false,"rental_uris":{"android":"levelo://app?vid=80b39af1-2c58-45ab-b4de-d5db4025af96","ios":"levelo://app?vid=80b39af1-2c58-45ab-b4de-d5db4025af96"},"vehicle_type_id":"4","last_reported":1769659147,"current_range_meters":6400,"station_id":"ce4bhgh2rcd13ifvqfb0","pricing_plan_id":"cebpf4jnsgd1na2vs0mg"},{"bike_id":"b45c8d2c-8d88-4cef-8b61-a19c2da1c61e","system_id":"levelo_inurba_marseille","lat":43.33546,"lon":5.37467,"is_reserved":false,"is_disabled":false,"rental_uris":{"android":"levelo://app?vid=b45c8d2c-8d88-4cef-8b61-a19c2da1c61e","ios":"levelo://app?vid=b45c8d2c-8d88-4cef-8b61-a19c2da1c61e"},"vehicle_type_id":"4","last_reported":1769659147,"current_range_meters":6400,"station_id":"st_d46tts09ee8s73dlu43g","pricing_plan_id":"cebpf4jnsgd1na2vs0mg"},{"bike_id":"0393f1bf-344f-45c8-9042-27b39d04c542","system_id":"levelo_inurba_marseille","lat":43.290146,"lon":5.378132,"is_reserved":false,"is_disabled":false,"rental_uris":{"android":"levelo://app?vid=0393f1bf-344f-45c8-9042-27b39d04c542","ios":"levelo://app?vid=0393f1bf-344f-45c8-9042-27b39d04c542"},"vehicle_type_id":"4","last_reported":1769659147,"current_range_meters":6400,"station_id":"","pricing_plan_id":"cebpf4jnsgd1na2vs0mg"},{"bike_id":"bc471501-f49a-48c2-b3bb-154aadc19503","system_id":"levelo_inurba_marseille","lat":43.26553,"lon":5.37293,"is_reserved":false,"is_disabled":false,"rental_uris":{"android":"levelo://app?vid=bc471501-f49a-48c2-b3bb-154aadc19503","ios":"levelo://app?vid=bc471501-f49a-48c2-b3bb-154aadc19503"},"vehicle_type_id":"4","last_reported":1769659147,"current_range_meters":6400,"station_id":"ce4bhg12rcd13ifvqf70","pricing_plan_id":"cebpf4jnsgd1na2vs0mg"},{"bike_id":"8d5ad576-7df0-4e21-9440-3fe6a62ee683","system_id":"levelo_inurba_marseille","lat":43.2953,"lon":5.39061,"is_reserved":false,"is_disabled":false,"rental_uris":{"android":"levelo://app?vid=8d5ad576-7df0-4e21-9440-3fe6a62ee683","ios":"levelo://app?vid=8d5ad576-7df0-4e21-9440-3fe6a62ee683"},"vehicle_type_id":"4","last_reported":1769659147,"current_range_meters":6400,"station_id":"ce4bh3p2rcd13ifvqdp0","pricing_plan_id":"cebpf4jnsgd1na2vs0mg"},{"bike_id":"78ca3fa5-5325-4fd9-b6b5-1bb6bd866233","system_id":"levelo_inurba_marseille","lat":43.262176,"lon":5.404525,"is_reserved":false,"is_disabled":false,"rental_uris":{"android":"levelo://app?vid=78ca3fa5-5325-4fd9-b6b5-1bb6bd866233","ios":"levelo://app?vid=78ca3fa5-5325-4fd9-b6b5-1bb6bd866233"},"vehicle_type_id":"4","last_reported":1769659147,"current_range_meters":6400,"station_id":"ce4bhmh2rcd13ifvqgmg","pricing_plan_id":"cebpf4jnsgd1na2vs0mg"},{"bike_id":"675daf87-628e-4a32-aeac-1e56646fd222","system_id":"levelo_inurba_marseille","lat":43.31263,"lon":5.40173,"is_reserved":false,"is_disabled":false,"rental_uris":{"android":"levelo://app?vid=675daf87-628e-4a32-aeac-1e56646fd222","ios":"levelo://app?vid=675daf87-628e-4a32-aeac-1e56646fd222"},"vehicle_type_id":"4","last_reported":1769659147,"current_range_meters":6400,"station_id":"ce4bh092rcd13ifvqd30","pricing_plan_id":"cebpf4jnsgd1na2vs0mg"},{"bike_id":"a8f63d2c-39d2-449c-95a5-17db81c8856e","system_id":"levelo_inurba_marseille","lat":43.29747,"lon":5.37673,"is_reserved":false,"is_disabled":true,"rental_uris":{"android":"levelo://app?vid=a8f63d2c-39d2-449c-95a5-17db81c8856e","ios":"levelo://app?vid=a8f63d2c-39d2-449c-95a5-17db81c8856e"},"vehicle_type_id":"4","last_reported":1769659147,"current_range_meters":6400,"station_id":"ce4bgkh2rcd13ifvqbl0","pricing_plan_id":"cebpf4jnsgd1na2vs0mg"},{"bike_id":"9a68662f-fa29-4f6b-aa5e-58c12eef156a","system_id":"levelo_inurba_marseille","lat":43.28453,"lon":5.35895,"is_reserved":false,"is_disabled":false,"rental_uris":{"android":"levelo://app?vid=9a68662f-fa29-4f6b-aa5e-58c12eef156a","ios":"levelo://app?vid=9a68662f-fa29-4f6b-aa5e-58c12eef156a"},"vehicle_type_id":"4","last_reported":1769659147,"current_range_meters":6400,"station_id":"ce4bhah2rcd13ifvqei0","pricing_plan_id":"cebpf4jnsgd1na2vs0mg"},{"bike_id":"6bbb38e7-c4e8-49cf-ba7e-cf3a3d368f0b","system_id":"levelo_inurba_marseille","lat":43.30296,"lon":5.39215,"is_reserved":false,"is_disabled":false,"rental_uris":{"android":"levelo://app?vid=6bbb38e7-c4e8-49cf-ba7e-cf3a3d368f0b","ios":"levelo://app?vid=6bbb38e7-c4e8-49cf-ba7e-cf3a3d368f0b"},"vehicle_type_id":"4","last_reported":1769659147,"current_range_meters":6400,"station_id":"ce4bgkh2rcd13ifvqbk0","pricing_plan_id":"cebpf4jnsgd1na2vs0mg"},{"bike_id":"3eec611c-d8cb-4b54-9748-ae62ab9ddb70","system_id":"levelo_inurba_marseille","lat":43.22932,"lon":5.35376,"is_reserved":false,"is_disabled":false,"rental_uris":{"android":"levelo://app?vid=3eec611c-d8cb-4b54-9748-ae62ab9ddb70","ios":"levelo://app?vid=3eec611c-d8cb-4b54-9748-ae62ab9ddb70"},"vehicle_type_id":"4","last_reported":1769659147,"current_range_meters":6400,"station_id":"cpo3532slgdg3j2ikp40","pricing_plan_id":"cebpf4jnsgd1na2vs0mg"},{"bike_id":"eae72288-1b63-4615-90d3-036b0e9fe89c","system_id":"levelo_inurba_marseille","lat":43.24563,"lon":5.3954,"is_reserved":false,"is_disabled":false,"rental_uris":{"android":"levelo://app?vid=eae72288-1b63-4615-90d3-036b0e9fe89c","ios":"levelo://app?vid=eae72288-1b63-4615-90d3-036b0e9fe89c"},"vehicle_type_id":"4","last_reported":1769659147,"current_range_meters":6400,"station_id":"ce4bhlp2rcd13ifvqgjg","pricing_plan_id":"cebpf4jnsgd1na2vs0mg"},{"bike_id":"adcf69d8-1927-438e-b914-5f915ba575b2","system_id":"levelo_inurba_marseille","lat":43.25577,"lon":5.38233,"is_reserved":false,"is_disabled":false,"rental_uris":{"android":"levelo://app?vid=adcf69d8-1927-438e-b914-5f915ba575b2","ios":"levelo://app?vid=adcf69d8-1927-438e-b914-5f915ba575b2"},"vehicle_type_id":"4","last_reported":1769659147,"current_range_meters":6400,"station_id":"ce4bhih2rcd13ifvqfs0","pricing_plan_id":"cebpf4jnsgd1na2vs0mg"},{"bike_id":"79009d73-0523-4c6d-91de-5993a965a866","system_id":"levelo_inurba_marseille","lat":43.25955,"lon":5.40891,"is_reserved":false,"is_disabled":false,"rental_uris":{"android":"levelo://app?vid=79009d73-0523-4c6d-91de-5993a965a866","ios":"levelo://app?vid=79009d73-0523-4c6d-91de-5993a965a866"},"vehicle_type_id":"4","last_reported":1769659147,"current_range_meters":6400,"station_id":"ce4bhm92rcd13ifvqglg","pricing_plan_id":"cebpf4jnsgd1na2vs0mg"},{"bike_id":"a8f638c1-c685-4e3a-adf7-3d7a1bc3acf7","system_id":"levelo_inurba_marseille","lat":43.23163,"lon":5.43732,"is_reserved":false,"is_disabled":false,"rental_uris":{"android":"levelo://app?vid=a8f638c1-c685-4e3a-adf7-3d7a1bc3acf7","ios":"levelo://app?vid=a8f638c1-c685-4e3a-adf7-3d7a1bc3acf7"},"vehicle_type_id":"4","last_reported":1769659147,"current_range_meters":6400,"station_id":"ce4bhmp2rcd13ifvqgog","pricing_plan_id":"cebpf4jnsgd1na2vs0mg"},{"bike_id":"cf516726-854c-444b-bc22-fe0deab1cd04","system_id":"levelo_inurba_marseille","lat":43.288431,"lon":5.358419,"is_reserved":false,"is_disabled":false,"rental_uris":{"android":"levelo://app?vid=cf516726-854c-444b-bc22-fe0deab1cd04","ios":"levelo://app?vid=cf516726-854c-444b-bc22-fe0deab1cd04"},"vehicle_type_id":"4","last_reported":1769659147,"current_range_meters":6800,"station_id":"ce4bhb12rcd13ifvqem0","pricing_plan_id":"cebpf4jnsgd1na2vs0mg"},{"bike_id":"3e6599b3-80f5-4cb4-a947-9865a5671465","system_id":"levelo_inurba_marseille","lat":43.27619,"lon":5.3612,"is_reserved":false,"is_disabled":false,"rental_uris":{"android":"levelo://app?vid=3e6599b3-80f5-4cb4-a947-9865a5671465","ios":"levelo://app?vid=3e6599b3-80f5-4cb4-a947-9865a5671465"},"vehicle_type_id":"4","last_reported":1769659147,"current_range_meters":6800,"station_id":"ce4bgj92rcd13ifvqbe0","pricing_plan_id":"cebpf4jnsgd1na2vs0mg"},{"bike_id":"04587faf-3a45-4e27-9a85-d9ce8e08d8c6","system_id":"levelo_inurba_marseille","lat":43.26364,"lon":5.40125,"is_reserved":false,"is_disabled":false,"rental_uris":{"android":"levelo://app?vid=04587faf-3a45-4e27-9a85-d9ce8e08d8c6","ios":"levelo://app?vid=04587faf-3a45-4e27-9a85-d9ce8e08d8c6"},"vehicle_type_id":"4","last_reported":1769659147,"current_range_meters":6800,"station_id":"ce4bgvp2rcd13ifvqcu0","pricing_plan_id":"cebpf4jnsgd1na2vs0mg"},{"bike_id":"882d39e7-961c-4939-b7ad-7e3e84bd14cd","system_id":"levelo_inurba_marseille","lat":43.288376,"lon":5.358461,"is_reserved":false,"is_disabled":false,"rental_uris":{"android":"levelo://app?vid=882d39e7-961c-4939-b7ad-7e3e84bd14cd","ios":"levelo://app?vid=882d39e7-961c-4939-b7ad-7e3e84bd14cd"},"vehicle_type_id":"4","last_reported":1769659147,"current_range_meters":6800,"station_id":"ce4bhb12rcd13ifvqem0","pricing_plan_id":"cebpf4jnsgd1na2vs0mg"},{"bike_id":"96ddcdc4-3d11-47dc-91b3-e1897ae67898","system_id":"levelo_inurba_marseille","lat":43.29541,"lon":5.42268,"is_reserved":false,"is_disabled":false,"rental_uris":{"android":"levelo://app?vid=96ddcdc4-3d11-47dc-91b3-e1897ae67898","ios":"levelo://app?vid=96ddcdc4-3d11-47dc-91b3-e1897ae67898"},"vehicle_type_id":"4","last_reported":1769659147,"current_range_meters":6800,"station_id":"ce4bhph2rcd13ifvqhdg","pricing_plan_id":"cebpf4jnsgd1na2vs0mg"},{"bike_id":"a7475751-9adc-4169-a3c7-0b8ce5894805","system_id":"levelo_inurba_marseille","lat":43.29779,"lon":5.39337,"is_reserved":false,"is_disabled":false,"rental_uris":{"android":"levelo://app?vid=a7475751-9adc-4169-a3c7-0b8ce5894805","ios":"levelo://app?vid=a7475751-9adc-4169-a3c7-0b8ce5894805"},"vehicle_type_id":"4","last_reported":1769659147,"current_range_meters":6800,"station_id":"chh1huq6cuj3fo74tm60","pricing_plan_id":"cebpf4jnsgd1na2vs0mg"},{"bike_id":"53ac99a0-cae8-4b26-b5b6-c54aa9e62072","system_id":"levelo_inurba_marseille","lat":43.290275,"lon":5.386413,"is_reserved":false,"is_disabled":false,"rental_uris":{"android":"levelo://app?vid=53ac99a0-cae8-4b26-b5b6-c54aa9e62072","ios":"levelo://app?vid=53ac99a0-cae8-4b26-b5b6-c54aa9e62072"},"vehicle_type_id":"4","last_reported":1769659147,"current_range_meters":6800,"station_id":"ce4bh4p2rcd13ifvqe0g","pricing_plan_id":"cebpf4jnsgd1na2vs0mg"},{"bike_id":"1ffbda22-e3ce-449b-8cf2-1a8499f4ffd7","system_id":"levelo_inurba_marseille","lat":43.26951,"lon":5.38648,"is_reserved":false,"is_disabled":true,"rental_uris":{"android":"levelo://app?vid=1ffbda22-e3ce-449b-8cf2-1a8499f4ffd7","ios":"levelo://app?vid=1ffbda22-e3ce-449b-8cf2-1a8499f4ffd7"},"vehicle_type_id":"4","last_reported":1769659147,"current_range_meters":6800,"station_id":"ce4bhh92rcd13ifvqfh0","pricing_plan_id":"cebpf4jnsgd1na2vs0mg"},{"bike_id":"b3351065-51d3-40dc-84af-241e19b1a40e","system_id":"levelo_inurba_marseille","lat":43.23179,"lon":5.3999,"is_reserved":false,"is_disabled":false,"rental_uris":{"android":"levelo://app?vid=b3351065-51d3-40dc-84af-241e19b1a40e","ios":"levelo://app?vid=b3351065-51d3-40dc-84af-241e19b1a40e"},"vehicle_type_id":"4","last_reported":1769659147,"current_range_meters":6800,"station_id":"ce4bhn12rcd13ifvqgqg","pricing_plan_id":"cebpf4jnsgd1na2vs0mg"},{"bike_id":"ec92a3d7-0aaf-40cf-9513-2fb7d35cc0c4","system_id":"levelo_inurba_marseille","lat":43.23055,"lon":5.35486,"is_reserved":false,"is_disabled":false,"rental_uris":{"android":"levelo://app?vid=ec92a3d7-0aaf-40cf-9513-2fb7d35cc0c4","ios":"levelo://app?vid=ec92a3d7-0aaf-40cf-9513-2fb7d35cc0c4"},"vehicle_type_id":"4","last_reported":1769659147,"current_range_meters":6800,"station_id":"cpo3342slgdg3j2ifvpg","pricing_plan_id":"cebpf4jnsgd1na2vs0mg"},{"bike_id":"465c0a07-9b2c-463d-a28f-fb29e821c731","system_id":"levelo_inurba_marseille","lat":43.302901,"lon":5.386465,"is_reserved":false,"is_disabled":false,"rental_uris":{"android":"levelo://app?vid=465c0a07-9b2c-463d-a28f-fb29e821c731","ios":"levelo://app?vid=465c0a07-9b2c-463d-a28f-fb29e821c731"},"vehicle_type_id":"4","last_reported":1769659147,"current_range_meters":6800,"station_id":"","pricing_plan_id":"cebpf4jnsgd1na2vs0mg"},{"bike_id":"40ba71d9-8bf7-4ba4-bd45-44f5a2866a53","system_id":"levelo_inurba_marseille","lat":43.24551,"lon":5.39529,"is_reserved":false,"is_disabled":false,"rental_uris":{"android":"levelo://app?vid=40ba71d9-8bf7-4ba4-bd45-44f5a2866a53","ios":"levelo://app?vid=40ba71d9-8bf7-4ba4-bd45-44f5a2866a53"},"vehicle_type_id":"4","last_reported":1769659147,"current_range_meters":6800,"station_id":"ce4bhlp2rcd13ifvqgjg","pricing_plan_id":"cebpf4jnsgd1na2vs0mg"},{"bike_id":"9e85f69d-091f-4b29-86a6-ef3b54792a1f","system_id":"levelo_inurba_marseille","lat":43.24074,"lon":5.3775,"is_reserved":false,"is_disabled":false,"rental_uris":{"android":"levelo://app?vid=9e85f69d-091f-4b29-86a6-ef3b54792a1f","ios":"levelo://app?vid=9e85f69d-091f-4b29-86a6-ef3b54792a1f"},"vehicle_type_id":"4","last_reported":1769659147,"current_range_meters":6800,"station_id":"ce4bhnp2rcd13ifvqgvg","pricing_plan_id":"cebpf4jnsgd1na2vs0mg"},{"bike_id":"c98b11d0-0520-418d-bfc6-d6149e6ffac9","system_id":"levelo_inurba_marseille","lat":43.284856,"lon":5.483907,"is_reserved":false,"is_disabled":false,"rental_uris":{"android":"levelo://app?vid=c98b11d0-0520-418d-bfc6-d6149e6ffac9","ios":"levelo://app?vid=c98b11d0-0520-418d-bfc6-d6149e6ffac9"},"vehicle_type_id":"4","last_reported":1769659147,"current_range_meters":6800,"station_id":"st_d3svhcjqgbts73a3dn0g","pricing_plan_id":"cebpf4jnsgd1na2vs0mg"},{"bike_id":"99bdf38b-a1d9-4a24-ada4-9cb96b99c699","system_id":"levelo_inurba_marseille","lat":43.24177,"lon":5.39728,"is_reserved":false,"is_disabled":false,"rental_uris":{"android":"levelo://app?vid=99bdf38b-a1d9-4a24-ada4-9cb96b99c699","ios":"levelo://app?vid=99bdf38b-a1d9-4a24-ada4-9cb96b99c699"},"vehicle_type_id":"4","last_reported":1769659147,"current_range_meters":7200,"station_id":"ce4bhn12rcd13ifvqgpg","pricing_plan_id":"cebpf4jnsgd1na2vs0mg"},{"bike_id":"bc230eaa-6d54-4e2d-8428-bb3463d83558","system_id":"levelo_inurba_marseille","lat":43.27295,"lon":5.39099,"is_reserved":false,"is_disabled":true,"rental_uris":{"android":"levelo://app?vid=bc230eaa-6d54-4e2d-8428-bb3463d83558","ios":"levelo://app?vid=bc230eaa-6d54-4e2d-8428-bb3463d83558"},"vehicle_type_id":"4","last_reported":1769659147,"current_range_meters":7200,"station_id":"ce4bhgp2rcd13ifvqfe0","pricing_plan_id":"cebpf4jnsgd1na2vs0mg"},{"bike_id":"9806da0f-d7e9-4daf-99fc-e3fd22a4da76","system_id":"levelo_inurba_marseille","lat":43.25923,"lon":5.409,"is_reserved":false,"is_disabled":false,"rental_uris":{"android":"levelo://app?vid=9806da0f-d7e9-4daf-99fc-e3fd22a4da76","ios":"levelo://app?vid=9806da0f-d7e9-4daf-99fc-e3fd22a4da76"},"vehicle_type_id":"4","last_reported":1769659147,"current_range_meters":7200,"station_id":"ce4bhm92rcd13ifvqglg","pricing_plan_id":"cebpf4jnsgd1na2vs0mg"},{"bike_id":"5a172b4b-1731-4933-ac19-8e3191cde5f6","system_id":"levelo_inurba_marseille","lat":43.3092,"lon":5.40146,"is_reserved":false,"is_disabled":false,"rental_uris":{"android":"levelo://app?vid=5a172b4b-1731-4933-ac19-8e3191cde5f6","ios":"levelo://app?vid=5a172b4b-1731-4933-ac19-8e3191cde5f6"},"vehicle_type_id":"4","last_reported":1769659147,"current_range_meters":7200,"station_id":"ce4bgvp2rcd13ifvqct0","pricing_plan_id":"cebpf4jnsgd1na2vs0mg"},{"bike_id":"493b0019-fa38-4cb9-ae4e-0650edf0c22d","system_id":"levelo_inurba_marseille","lat":43.24176,"lon":5.39715,"is_reserved":false,"is_disabled":false,"rental_uris":{"android":"levelo://app?vid=493b0019-fa38-4cb9-ae4e-0650edf0c22d","ios":"levelo://app?vid=493b0019-fa38-4cb9-ae4e-0650edf0c22d"},"vehicle_type_id":"4","last_reported":1769659147,"current_range_meters":7200,"station_id":"ce4bhn12rcd13ifvqgpg","pricing_plan_id":"cebpf4jnsgd1na2vs0mg"},{"bike_id":"d2095437-da58-45f2-998e-55810533e192","system_id":"levelo_inurba_marseille","lat":43.31043,"lon":5.3835,"is_reserved":false,"is_disabled":false,"rental_uris":{"android":"levelo://app?vid=d2095437-da58-45f2-998e-55810533e192","ios":"levelo://app?vid=d2095437-da58-45f2-998e-55810533e192"},"vehicle_type_id":"4","last_reported":1769659147,"current_range_meters":7200,"station_id":"ce4bgv92rcd13ifvqcr0","pricing_plan_id":"cebpf4jnsgd1na2vs0mg"},{"bike_id":"da00b0f2-4739-42d5-b407-19023959a455","system_id":"levelo_inurba_marseille","lat":43.282297,"lon":5.390284,"is_reserved":false,"is_disabled":false,"rental_uris":{"android":"levelo://app?vid=da00b0f2-4739-42d5-b407-19023959a455","ios":"levelo://app?vid=da00b0f2-4739-42d5-b407-19023959a455"},"vehicle_type_id":"4","last_reported":1769659147,"current_range_meters":7200,"station_id":"ce4bhn92rcd13ifvqgsg","pricing_plan_id":"cebpf4jnsgd1na2vs0mg"},{"bike_id":"2091fd8b-82ef-4338-9ed3-42b40b6b35f0","system_id":"levelo_inurba_marseille","lat":43.30343,"lon":5.38043,"is_reserved":false,"is_disabled":false,"rental_uris":{"android":"levelo://app?vid=2091fd8b-82ef-4338-9ed3-42b40b6b35f0","ios":"levelo://app?vid=2091fd8b-82ef-4338-9ed3-42b40b6b35f0"},"vehicle_type_id":"4","last_reported":1769659147,"current_range_meters":7200,"station_id":"","pricing_plan_id":"cebpf4jnsgd1na2vs0mg"},{"bike_id":"c0696abc-372a-454c-bbf6-807b3165d2b0","system_id":"levelo_inurba_marseille","lat":43.23967,"lon":5.36644,"is_reserved":false,"is_disabled":false,"rental_uris":{"android":"levelo://app?vid=c0696abc-372a-454c-bbf6-807b3165d2b0","ios":"levelo://app?vid=c0696abc-372a-454c-bbf6-807b3165d2b0"},"vehicle_type_id":"4","last_reported":1769659147,"current_range_meters":7200,"station_id":"ce4bhi12rcd13ifvqfp0","pricing_plan_id":"cebpf4jnsgd1na2vs0mg"},{"bike_id":"d0566ce1-bf37-46db-acde-21118494aee2","system_id":"levelo_inurba_marseille","lat":43.26563,"lon":5.40326,"is_reserved":false,"is_disabled":false,"rental_uris":{"android":"levelo://app?vid=d0566ce1-bf37-46db-acde-21118494aee2","ios":"levelo://app?vid=d0566ce1-bf37-46db-acde-21118494aee2"},"vehicle_type_id":"4","last_reported":1769659147,"current_range_meters":7200,"station_id":"ce4bhmp2rcd13ifvqgng","pricing_plan_id":"cebpf4jnsgd1na2vs0mg"},{"bike_id":"30c87174-a4e4-4243-8066-dafa4125a71d","system_id":"levelo_inurba_marseille","lat":43.27915,"lon":5.39582,"is_reserved":false,"is_disabled":false,"rental_uris":{"android":"levelo://app?vid=30c87174-a4e4-4243-8066-dafa4125a71d","ios":"levelo://app?vid=30c87174-a4e4-4243-8066-dafa4125a71d"},"vehicle_type_id":"4","last_reported":1769659147,"current_range_meters":7200,"station_id":"ce4bhf92rcd13ifvqf40","pricing_plan_id":"cebpf4jnsgd1na2vs0mg"},{"bike_id":"ba94ad88-2d86-4f15-a70c-04c6ad4ea30f","system_id":"levelo_inurba_marseille","lat":43.33155,"lon":5.37694,"is_reserved":false,"is_disabled":false,"rental_uris":{"android":"levelo://app?vid=ba94ad88-2d86-4f15-a70c-04c6ad4ea30f","ios":"levelo://app?vid=ba94ad88-2d86-4f15-a70c-04c6ad4ea30f"},"vehicle_type_id":"4","last_reported":1769659147,"current_range_meters":7200,"station_id":"st_d46cu089ee8s73dldbu0","pricing_plan_id":"cebpf4jnsgd1na2vs0mg"},{"bike_id":"60bbf095-a9c8-479d-920c-33f12cef97b2","system_id":"levelo_inurba_marseille","lat":43.29719,"lon":5.36621,"is_reserved":false,"is_disabled":false,"rental_uris":{"android":"levelo://app?vid=60bbf095-a9c8-479d-920c-33f12cef97b2","ios":"levelo://app?vid=60bbf095-a9c8-479d-920c-33f12cef97b2"},"vehicle_type_id":"4","last_reported":1769659147,"current_range_meters":7200,"station_id":"ce4bgn12rcd13ifvqbt0","pricing_plan_id":"cebpf4jnsgd1na2vs0mg"},{"bike_id":"a5d018de-88a9-4b03-93dc-34e45fc2bd5a","system_id":"levelo_inurba_marseille","lat":43.30122,"lon":5.39869,"is_reserved":false,"is_disabled":false,"rental_uris":{"android":"levelo://app?vid=a5d018de-88a9-4b03-93dc-34e45fc2bd5a","ios":"levelo://app?vid=a5d018de-88a9-4b03-93dc-34e45fc2bd5a"},"vehicle_type_id":"4","last_reported":1769659147,"current_range_meters":7200,"station_id":"ce4bh0h2rcd13ifvqd40","pricing_plan_id":"cebpf4jnsgd1na2vs0mg"},{"bike_id":"089e0117-bbe4-4560-b442-8e833d01b9e4","system_id":"levelo_inurba_marseille","lat":43.30223,"lon":5.3949,"is_reserved":false,"is_disabled":false,"rental_uris":{"android":"levelo://app?vid=089e0117-bbe4-4560-b442-8e833d01b9e4","ios":"levelo://app?vid=089e0117-bbe4-4560-b442-8e833d01b9e4"},"vehicle_type_id":"4","last_reported":1769659147,"current_range_meters":8000,"station_id":"ce4bh0p2rcd13ifvqd70","pricing_plan_id":"cebpf4jnsgd1na2vs0mg"},{"bike_id":"bbf12486-e043-443d-8c79-9a273772c204","system_id":"levelo_inurba_marseille","lat":43.23196,"lon":5.39981,"is_reserved":false,"is_disabled":false,"rental_uris":{"android":"levelo://app?vid=bbf12486-e043-443d-8c79-9a273772c204","ios":"levelo://app?vid=bbf12486-e043-443d-8c79-9a273772c204"},"vehicle_type_id":"4","last_reported":1769659147,"current_range_meters":8000,"station_id":"ce4bhn12rcd13ifvqgqg","pricing_plan_id":"cebpf4jnsgd1na2vs0mg"},{"bike_id":"29e658f4-2359-46f1-90c1-df0499696a70","system_id":"levelo_inurba_marseille","lat":43.30122,"lon":5.43109,"is_reserved":false,"is_disabled":false,"rental_uris":{"android":"levelo://app?vid=29e658f4-2359-46f1-90c1-df0499696a70","ios":"levelo://app?vid=29e658f4-2359-46f1-90c1-df0499696a70"},"vehicle_type_id":"4","last_reported":1769659147,"current_range_meters":8000,"station_id":"st_d3js3co5814s73ftftug","pricing_plan_id":"cebpf4jnsgd1na2vs0mg"},{"bike_id":"e2723203-29e5-4f94-8c86-ff4e63054a3f","system_id":"levelo_inurba_marseille","lat":43.295272,"lon":5.390504,"is_reserved":false,"is_disabled":false,"rental_uris":{"android":"levelo://app?vid=e2723203-29e5-4f94-8c86-ff4e63054a3f","ios":"levelo://app?vid=e2723203-29e5-4f94-8c86-ff4e63054a3f"},"vehicle_type_id":"4","last_reported":1769659147,"current_range_meters":8000,"station_id":"ce4bh3p2rcd13ifvqdp0","pricing_plan_id":"cebpf4jnsgd1na2vs0mg"},{"bike_id":"f9f433f8-c18c-4a42-bb0c-796736b3decc","system_id":"levelo_inurba_marseille","lat":43.23786,"lon":5.36635,"is_reserved":false,"is_disabled":false,"rental_uris":{"android":"levelo://app?vid=f9f433f8-c18c-4a42-bb0c-796736b3decc","ios":"levelo://app?vid=f9f433f8-c18c-4a42-bb0c-796736b3decc"},"vehicle_type_id":"4","last_reported":1769659147,"current_range_meters":8000,"station_id":"st_d3nk18o9ro0c73en2l3g","pricing_plan_id":"cebpf4jnsgd1na2vs0mg"},{"bike_id":"60ebce89-9b49-41d8-b1d5-1fdb022bac99","system_id":"levelo_inurba_marseille","lat":43.33659,"lon":5.37363,"is_reserved":false,"is_disabled":false,"rental_uris":{"android":"levelo://app?vid=60ebce89-9b49-41d8-b1d5-1fdb022bac99","ios":"levelo://app?vid=60ebce89-9b49-41d8-b1d5-1fdb022bac99"},"vehicle_type_id":"4","last_reported":1769659147,"current_range_meters":8000,"station_id":"","pricing_plan_id":"cebpf4jnsgd1na2vs0mg"},{"bike_id":"9e576907-c144-459e-9c20-f94541e395d1","system_id":"levelo_inurba_marseille","lat":43.31072,"lon":5.38342,"is_reserved":false,"is_disabled":false,"rental_uris":{"android":"levelo://app?vid=9e576907-c144-459e-9c20-f94541e395d1","ios":"levelo://app?vid=9e576907-c144-459e-9c20-f94541e395d1"},"vehicle_type_id":"4","last_reported":1769659147,"current_range_meters":8000,"station_id":"ce4bgv92rcd13ifvqcr0","pricing_plan_id":"cebpf4jnsgd1na2vs0mg"},{"bike_id":"0f0e3ad5-adf0-49dd-bac7-a2c7ac77eeaf","system_id":"levelo_inurba_marseille","lat":43.26225,"lon":5.40457,"is_reserved":false,"is_disabled":false,"rental_uris":{"android":"levelo://app?vid=0f0e3ad5-adf0-49dd-bac7-a2c7ac77eeaf","ios":"levelo://app?vid=0f0e3ad5-adf0-49dd-bac7-a2c7ac77eeaf"},"vehicle_type_id":"4","last_reported":1769659147,"current_range_meters":8000,"station_id":"ce4bhmh2rcd13ifvqgmg","pricing_plan_id":"cebpf4jnsgd1na2vs0mg"},{"bike_id":"fcf2b631-4307-4403-bc88-44f754049ef7","system_id":"levelo_inurba_marseille","lat":43.27904,"lon":5.39569,"is_reserved":false,"is_disabled":false,"rental_uris":{"android":"levelo://app?vid=fcf2b631-4307-4403-bc88-44f754049ef7","ios":"levelo://app?vid=fcf2b631-4307-4403-bc88-44f754049ef7"},"vehicle_type_id":"4","last_reported":1769659147,"current_range_meters":8000,"station_id":"ce4bhf92rcd13ifvqf40","pricing_plan_id":"cebpf4jnsgd1na2vs0mg"},{"bike_id":"be7a4d7e-1984-4b23-8b92-0f9bbe591f55","system_id":"levelo_inurba_marseille","lat":43.28864,"lon":5.42525,"is_reserved":false,"is_disabled":false,"rental_uris":{"android":"levelo://app?vid=be7a4d7e-1984-4b23-8b92-0f9bbe591f55","ios":"levelo://app?vid=be7a4d7e-1984-4b23-8b92-0f9bbe591f55"},"vehicle_type_id":"4","last_reported":1769659147,"current_range_meters":8000,"station_id":"st_d3b462108ojc7389ooeg","pricing_plan_id":"cebpf4jnsgd1na2vs0mg"},{"bike_id":"5c31f70a-538b-4bfb-b3f0-285f96f224bb","system_id":"levelo_inurba_marseille","lat":43.29025,"lon":5.38648,"is_reserved":false,"is_disabled":false,"rental_uris":{"android":"levelo://app?vid=5c31f70a-538b-4bfb-b3f0-285f96f224bb","ios":"levelo://app?vid=5c31f70a-538b-4bfb-b3f0-285f96f224bb"},"vehicle_type_id":"4","last_reported":1769659147,"current_range_meters":8000,"station_id":"ce4bh4p2rcd13ifvqe0g","pricing_plan_id":"cebpf4jnsgd1na2vs0mg"},{"bike_id":"0491bed2-eff8-42d6-9460-8bfe4a2ab6cf","system_id":"levelo_inurba_marseille","lat":43.27934,"lon":5.39598,"is_reserved":false,"is_disabled":false,"rental_uris":{"android":"levelo://app?vid=0491bed2-eff8-42d6-9460-8bfe4a2ab6cf","ios":"levelo://app?vid=0491bed2-eff8-42d6-9460-8bfe4a2ab6cf"},"vehicle_type_id":"4","last_reported":1769659147,"current_range_meters":8000,"station_id":"ce4bhf92rcd13ifvqf40","pricing_plan_id":"cebpf4jnsgd1na2vs0mg"},{"bike_id":"eda9c3ae-7ccd-46bc-ad2e-bc5c85d71baa","system_id":"levelo_inurba_marseille","lat":43.27509,"lon":5.42471,"is_reserved":false,"is_disabled":false,"rental_uris":{"android":"levelo://app?vid=eda9c3ae-7ccd-46bc-ad2e-bc5c85d71baa","ios":"levelo://app?vid=eda9c3ae-7ccd-46bc-ad2e-bc5c85d71baa"},"vehicle_type_id":"4","last_reported":1769659147,"current_range_meters":8000,"station_id":"ce4bhn92rcd13ifvqgrg","pricing_plan_id":"cebpf4jnsgd1na2vs0mg"},{"bike_id":"85b1b1e1-c458-4711-86a6-2ddb2584b733","system_id":"levelo_inurba_marseille","lat":43.335429,"lon":5.374641,"is_reserved":false,"is_disabled":false,"rental_uris":{"android":"levelo://app?vid=85b1b1e1-c458-4711-86a6-2ddb2584b733","ios":"levelo://app?vid=85b1b1e1-c458-4711-86a6-2ddb2584b733"},"vehicle_type_id":"4","last_reported":1769659147,"current_range_meters":8000,"station_id":"st_d46tts09ee8s73dlu43g","pricing_plan_id":"cebpf4jnsgd1na2vs0mg"},{"bike_id":"a1b9123c-988e-41cc-a919-83715ef62f9a","system_id":"levelo_inurba_marseille","lat":43.29531,"lon":5.39049,"is_reserved":false,"is_disabled":false,"rental_uris":{"android":"levelo://app?vid=a1b9123c-988e-41cc-a919-83715ef62f9a","ios":"levelo://app?vid=a1b9123c-988e-41cc-a919-83715ef62f9a"},"vehicle_type_id":"4","last_reported":1769659147,"current_range_meters":8000,"station_id":"ce4bh3p2rcd13ifvqdp0","pricing_plan_id":"cebpf4jnsgd1na2vs0mg"},{"bike_id":"3d405854-a3e9-4cc4-bcac-5ce2eff49e57","system_id":"levelo_inurba_marseille","lat":43.23197,"lon":5.39969,"is_reserved":false,"is_disabled":false,"rental_uris":{"android":"levelo://app?vid=3d405854-a3e9-4cc4-bcac-5ce2eff49e57","ios":"levelo://app?vid=3d405854-a3e9-4cc4-bcac-5ce2eff49e57"},"vehicle_type_id":"4","last_reported":1769659147,"current_range_meters":8000,"station_id":"ce4bhn12rcd13ifvqgqg","pricing_plan_id":"cebpf4jnsgd1na2vs0mg"},{"bike_id":"802f6e05-7249-407a-aac4-32d2041628b8","system_id":"levelo_inurba_marseille","lat":43.23055,"lon":5.354924,"is_reserved":false,"is_disabled":false,"rental_uris":{"android":"levelo://app?vid=802f6e05-7249-407a-aac4-32d2041628b8","ios":"levelo://app?vid=802f6e05-7249-407a-aac4-32d2041628b8"},"vehicle_type_id":"4","last_reported":1769659147,"current_range_meters":8000,"station_id":"cpo3342slgdg3j2ifvpg","pricing_plan_id":"cebpf4jnsgd1na2vs0mg"},{"bike_id":"d6347785-7f4b-4520-b64a-bf5bb0e98944","system_id":"levelo_inurba_marseille","lat":43.25,"lon":5.38962,"is_reserved":false,"is_disabled":false,"rental_uris":{"android":"levelo://app?vid=d6347785-7f4b-4520-b64a-bf5bb0e98944","ios":"levelo://app?vid=d6347785-7f4b-4520-b64a-bf5bb0e98944"},"vehicle_type_id":"4","last_reported":1769659147,"current_range_meters":8000,"station_id":"ce4bhgp2rcd13ifvqfd0","pricing_plan_id":"cebpf4jnsgd1na2vs0mg"},{"bike_id":"dfaab8b0-1895-43ce-ae77-7df80e8c4e09","system_id":"levelo_inurba_marseille","lat":43.28412,"lon":5.37505,"is_reserved":false,"is_disabled":false,"rental_uris":{"android":"levelo://app?vid=dfaab8b0-1895-43ce-ae77-7df80e8c4e09","ios":"levelo://app?vid=dfaab8b0-1895-43ce-ae77-7df80e8c4e09"},"vehicle_type_id":"4","last_reported":1769659147,"current_range_meters":8000,"station_id":"ce4bh412rcd13ifvqds0","pricing_plan_id":"cebpf4jnsgd1na2vs0mg"},{"bike_id":"b96775b7-8954-4f94-990f-968813344c58","system_id":"levelo_inurba_marseille","lat":43.312893,"lon":5.377831,"is_reserved":false,"is_disabled":false,"rental_uris":{"android":"levelo://app?vid=b96775b7-8954-4f94-990f-968813344c58","ios":"levelo://app?vid=b96775b7-8954-4f94-990f-968813344c58"},"vehicle_type_id":"4","last_reported":1769659147,"current_range_meters":8000,"station_id":"","pricing_plan_id":"cebpf4jnsgd1na2vs0mg"},{"bike_id":"8c50cc1b-6957-4db2-9b96-76d9d37bac03","system_id":"levelo_inurba_marseille","lat":43.22575,"lon":5.41622,"is_reserved":false,"is_disabled":false,"rental_uris":{"android":"levelo://app?vid=8c50cc1b-6957-4db2-9b96-76d9d37bac03","ios":"levelo://app?vid=8c50cc1b-6957-4db2-9b96-76d9d37bac03"},"vehicle_type_id":"4","last_reported":1769659147,"current_range_meters":8000,"station_id":"st_d2o4gvlbi1j2169b742g","pricing_plan_id":"cebpf4jnsgd1na2vs0mg"},{"bike_id":"ac605ac9-20fd-41ab-b16b-356ba124b9b7","system_id":"levelo_inurba_marseille","lat":43.27327,"lon":5.42793,"is_reserved":false,"is_disabled":false,"rental_uris":{"android":"levelo://app?vid=ac605ac9-20fd-41ab-b16b-356ba124b9b7","ios":"levelo://app?vid=ac605ac9-20fd-41ab-b16b-356ba124b9b7"},"vehicle_type_id":"4","last_reported":1769659147,"current_range_meters":8000,"station_id":"","pricing_plan_id":"cebpf4jnsgd1na2vs0mg"},{"bike_id":"6f47bd03-9742-4faa-9557-1c831ad7eb77","system_id":"levelo_inurba_marseille","lat":43.28466,"lon":5.35881,"is_reserved":false,"is_disabled":false,"rental_uris":{"android":"levelo://app?vid=6f47bd03-9742-4faa-9557-1c831ad7eb77","ios":"levelo://app?vid=6f47bd03-9742-4faa-9557-1c831ad7eb77"},"vehicle_type_id":"4","last_reported":1769659147,"current_range_meters":8000,"station_id":"ce4bhah2rcd13ifvqei0","pricing_plan_id":"cebpf4jnsgd1na2vs0mg"},{"bike_id":"628d09aa-2048-47ee-b844-ddc89ee210bb","system_id":"levelo_inurba_marseille","lat":43.2971,"lon":5.36615,"is_reserved":false,"is_disabled":false,"rental_uris":{"android":"levelo://app?vid=628d09aa-2048-47ee-b844-ddc89ee210bb","ios":"levelo://app?vid=628d09aa-2048-47ee-b844-ddc89ee210bb"},"vehicle_type_id":"4","last_reported":1769659147,"current_range_meters":8000,"station_id":"ce4bgn12rcd13ifvqbt0","pricing_plan_id":"cebpf4jnsgd1na2vs0mg"},{"bike_id":"e322fbc1-ba7d-4452-9d08-bc1a4a79174e","system_id":"levelo_inurba_marseille","lat":43.23151,"lon":5.43722,"is_reserved":false,"is_disabled":false,"rental_uris":{"android":"levelo://app?vid=e322fbc1-ba7d-4452-9d08-bc1a4a79174e","ios":"levelo://app?vid=e322fbc1-ba7d-4452-9d08-bc1a4a79174e"},"vehicle_type_id":"4","last_reported":1769659147,"current_range_meters":8000,"station_id":"ce4bhmp2rcd13ifvqgog","pricing_plan_id":"cebpf4jnsgd1na2vs0mg"},{"bike_id":"cef89498-fbf9-4ad5-afa6-46a5eea10249","system_id":"levelo_inurba_marseille","lat":43.27325,"lon":5.40964,"is_reserved":false,"is_disabled":false,"rental_uris":{"android":"levelo://app?vid=cef89498-fbf9-4ad5-afa6-46a5eea10249","ios":"levelo://app?vid=cef89498-fbf9-4ad5-afa6-46a5eea10249"},"vehicle_type_id":"4","last_reported":1769659147,"current_range_meters":8000,"station_id":"","pricing_plan_id":"cebpf4jnsgd1na2vs0mg"},{"bike_id":"eb005a7f-028e-4a53-9903-3973986a905e","system_id":"levelo_inurba_marseille","lat":43.31711,"lon":5.37761,"is_reserved":false,"is_disabled":false,"rental_uris":{"android":"levelo://app?vid=eb005a7f-028e-4a53-9903-3973986a905e","ios":"levelo://app?vid=eb005a7f-028e-4a53-9903-3973986a905e"},"vehicle_type_id":"4","last_reported":1769659147,"current_range_meters":8400,"station_id":"ce4bgth2rcd13ifvqch0","pricing_plan_id":"cebpf4jnsgd1na2vs0mg"},{"bike_id":"49240dba-9adf-49d7-95a1-45579491cf97","system_id":"levelo_inurba_marseille","lat":43.28428,"lon":5.39178,"is_reserved":false,"is_disabled":true,"rental_uris":{"android":"levelo://app?vid=49240dba-9adf-49d7-95a1-45579491cf97","ios":"levelo://app?vid=49240dba-9adf-49d7-95a1-45579491cf97"},"vehicle_type_id":"4","last_reported":1769659147,"current_range_meters":8400,"station_id":"ce4bhoh2rcd13ifvqh5g","pricing_plan_id":"cebpf4jnsgd1na2vs0mg"},{"bike_id":"bb6db0b0-a7e3-42a8-992e-e2e55dc89d52","system_id":"levelo_inurba_marseille","lat":43.33162,"lon":5.37686,"is_reserved":false,"is_disabled":false,"rental_uris":{"android":"levelo://app?vid=bb6db0b0-a7e3-42a8-992e-e2e55dc89d52","ios":"levelo://app?vid=bb6db0b0-a7e3-42a8-992e-e2e55dc89d52"},"vehicle_type_id":"4","last_reported":1769659147,"current_range_meters":8400,"station_id":"st_d46cu089ee8s73dldbu0","pricing_plan_id":"cebpf4jnsgd1na2vs0mg"},{"bike_id":"0ab428d5-08c6-4da8-bd8c-fa040c9f831c","system_id":"levelo_inurba_marseille","lat":43.290267,"lon":5.381463,"is_reserved":false,"is_disabled":false,"rental_uris":{"android":"levelo://app?vid=0ab428d5-08c6-4da8-bd8c-fa040c9f831c","ios":"levelo://app?vid=0ab428d5-08c6-4da8-bd8c-fa040c9f831c"},"vehicle_type_id":"4","last_reported":1769659147,"current_range_meters":8400,"station_id":"ce4bh4p2rcd13ifvqe1g","pricing_plan_id":"cebpf4jnsgd1na2vs0mg"},{"bike_id":"cfe3a6dd-a211-4abb-80dc-8311ecf0e5e7","system_id":"levelo_inurba_marseille","lat":43.23147,"lon":5.43716,"is_reserved":false,"is_disabled":false,"rental_uris":{"android":"levelo://app?vid=cfe3a6dd-a211-4abb-80dc-8311ecf0e5e7","ios":"levelo://app?vid=cfe3a6dd-a211-4abb-80dc-8311ecf0e5e7"},"vehicle_type_id":"4","last_reported":1769659147,"current_range_meters":8400,"station_id":"ce4bhmp2rcd13ifvqgog","pricing_plan_id":"cebpf4jnsgd1na2vs0mg"},{"bike_id":"65eb5cb0-a6f7-4de3-a9be-a5e0a4386045","system_id":"levelo_inurba_marseille","lat":43.33164,"lon":5.37688,"is_reserved":false,"is_disabled":false,"rental_uris":{"android":"levelo://app?vid=65eb5cb0-a6f7-4de3-a9be-a5e0a4386045","ios":"levelo://app?vid=65eb5cb0-a6f7-4de3-a9be-a5e0a4386045"},"vehicle_type_id":"4","last_reported":1769659147,"current_range_meters":8400,"station_id":"st_d46cu089ee8s73dldbu0","pricing_plan_id":"cebpf4jnsgd1na2vs0mg"},{"bike_id":"a1adbbcc-56be-41a6-a560-f4a5e4282b51","system_id":"levelo_inurba_marseille","lat":43.28421,"lon":5.34996,"is_reserved":false,"is_disabled":false,"rental_uris":{"android":"levelo://app?vid=a1adbbcc-56be-41a6-a560-f4a5e4282b51","ios":"levelo://app?vid=a1adbbcc-56be-41a6-a560-f4a5e4282b51"},"vehicle_type_id":"4","last_reported":1769659147,"current_range_meters":8400,"station_id":"ce4bhbh2rcd13ifvqepg","pricing_plan_id":"cebpf4jnsgd1na2vs0mg"},{"bike_id":"e236f0a6-2e87-48ed-94ce-e49f696f4842","system_id":"levelo_inurba_marseille","lat":43.26597,"lon":5.3751,"is_reserved":false,"is_disabled":false,"rental_uris":{"android":"levelo://app?vid=e236f0a6-2e87-48ed-94ce-e49f696f4842","ios":"levelo://app?vid=e236f0a6-2e87-48ed-94ce-e49f696f4842"},"vehicle_type_id":"4","last_reported":1769659147,"current_range_meters":8400,"station_id":"","pricing_plan_id":"cebpf4jnsgd1na2vs0mg"},{"bike_id":"b160d3e8-6013-4e1d-a5e2-a6cbcdd77ebd","system_id":"levelo_inurba_marseille","lat":43.30121,"lon":5.37398,"is_reserved":false,"is_disabled":false,"rental_uris":{"android":"levelo://app?vid=b160d3e8-6013-4e1d-a5e2-a6cbcdd77ebd","ios":"levelo://app?vid=b160d3e8-6013-4e1d-a5e2-a6cbcdd77ebd"},"vehicle_type_id":"4","last_reported":1769659147,"current_range_meters":8400,"station_id":"ce4bgs92rcd13ifvqcc0","pricing_plan_id":"cebpf4jnsgd1na2vs0mg"},{"bike_id":"6af9cd74-ddd7-47d6-bf29-44fef51dc5ba","system_id":"levelo_inurba_marseille","lat":43.24655,"lon":5.38152,"is_reserved":false,"is_disabled":false,"rental_uris":{"android":"levelo://app?vid=6af9cd74-ddd7-47d6-bf29-44fef51dc5ba","ios":"levelo://app?vid=6af9cd74-ddd7-47d6-bf29-44fef51dc5ba"},"vehicle_type_id":"4","last_reported":1769659147,"current_range_meters":8400,"station_id":"ce4bhih2rcd13ifvqfr0","pricing_plan_id":"cebpf4jnsgd1na2vs0mg"},{"bike_id":"78232e9c-1717-4c45-a9f5-b384ba925e93","system_id":"levelo_inurba_marseille","lat":43.25336,"lon":5.42176,"is_reserved":false,"is_disabled":false,"rental_uris":{"android":"levelo://app?vid=78232e9c-1717-4c45-a9f5-b384ba925e93","ios":"levelo://app?vid=78232e9c-1717-4c45-a9f5-b384ba925e93"},"vehicle_type_id":"4","last_reported":1769659147,"current_range_meters":8400,"station_id":"st_d2m65c5bi1j21697t3ng","pricing_plan_id":"cebpf4jnsgd1na2vs0mg"},{"bike_id":"e2e2f78e-6957-4421-a1e4-54c092604843","system_id":"levelo_inurba_marseille","lat":43.26212,"lon":5.40444,"is_reserved":false,"is_disabled":false,"rental_uris":{"android":"levelo://app?vid=e2e2f78e-6957-4421-a1e4-54c092604843","ios":"levelo://app?vid=e2e2f78e-6957-4421-a1e4-54c092604843"},"vehicle_type_id":"4","last_reported":1769659147,"current_range_meters":8400,"station_id":"ce4bhmh2rcd13ifvqgmg","pricing_plan_id":"cebpf4jnsgd1na2vs0mg"},{"bike_id":"fe08ad7c-4620-4baf-b865-8059739ef555","system_id":"levelo_inurba_marseille","lat":43.28459,"lon":5.35884,"is_reserved":false,"is_disabled":false,"rental_uris":{"android":"levelo://app?vid=fe08ad7c-4620-4baf-b865-8059739ef555","ios":"levelo://app?vid=fe08ad7c-4620-4baf-b865-8059739ef555"},"vehicle_type_id":"4","last_reported":1769659147,"current_range_meters":8400,"station_id":"ce4bhah2rcd13ifvqei0","pricing_plan_id":"cebpf4jnsgd1na2vs0mg"},{"bike_id":"c336219b-0783-4962-9516-65bf9cde20a8","system_id":"levelo_inurba_marseille","lat":43.28173,"lon":5.42638,"is_reserved":false,"is_disabled":false,"rental_uris":{"android":"levelo://app?vid=c336219b-0783-4962-9516-65bf9cde20a8","ios":"levelo://app?vid=c336219b-0783-4962-9516-65bf9cde20a8"},"vehicle_type_id":"4","last_reported":1769659147,"current_range_meters":8400,"station_id":"ce4bhnh2rcd13ifvqgug","pricing_plan_id":"cebpf4jnsgd1na2vs0mg"},{"bike_id":"43a9bbb1-d2dc-4b9a-8676-6d6d0c3f465e","system_id":"levelo_inurba_marseille","lat":43.24188,"lon":5.39724,"is_reserved":false,"is_disabled":false,"rental_uris":{"android":"levelo://app?vid=43a9bbb1-d2dc-4b9a-8676-6d6d0c3f465e","ios":"levelo://app?vid=43a9bbb1-d2dc-4b9a-8676-6d6d0c3f465e"},"vehicle_type_id":"4","last_reported":1769659147,"current_range_meters":8400,"station_id":"ce4bhn12rcd13ifvqgpg","pricing_plan_id":"cebpf4jnsgd1na2vs0mg"},{"bike_id":"65acf627-cf1b-4d50-950d-139ba4fe7e7b","system_id":"levelo_inurba_marseille","lat":43.28158,"lon":5.42637,"is_reserved":false,"is_disabled":false,"rental_uris":{"android":"levelo://app?vid=65acf627-cf1b-4d50-950d-139ba4fe7e7b","ios":"levelo://app?vid=65acf627-cf1b-4d50-950d-139ba4fe7e7b"},"vehicle_type_id":"4","last_reported":1769659147,"current_range_meters":8400,"station_id":"ce4bhnh2rcd13ifvqgug","pricing_plan_id":"cebpf4jnsgd1na2vs0mg"},{"bike_id":"0d283245-8d0d-43c2-b55f-0d7e9546e41a","system_id":"levelo_inurba_marseille","lat":43.29168,"lon":5.35815,"is_reserved":false,"is_disabled":false,"rental_uris":{"android":"levelo://app?vid=0d283245-8d0d-43c2-b55f-0d7e9546e41a","ios":"levelo://app?vid=0d283245-8d0d-43c2-b55f-0d7e9546e41a"},"vehicle_type_id":"4","last_reported":1769659147,"current_range_meters":8400,"station_id":"ce4bhb12rcd13ifvqel0","pricing_plan_id":"cebpf4jnsgd1na2vs0mg"},{"bike_id":"51e33b43-0b63-43c6-8dbf-365699605da8","system_id":"levelo_inurba_marseille","lat":43.27056,"lon":5.39759,"is_reserved":false,"is_disabled":false,"rental_uris":{"android":"levelo://app?vid=51e33b43-0b63-43c6-8dbf-365699605da8","ios":"levelo://app?vid=51e33b43-0b63-43c6-8dbf-365699605da8"},"vehicle_type_id":"4","last_reported":1769659147,"current_range_meters":8400,"station_id":"","pricing_plan_id":"cebpf4jnsgd1na2vs0mg"},{"bike_id":"ae2bd00b-86f2-42b9-8e4e-3fa74e019d82","system_id":"levelo_inurba_marseille","lat":43.23182,"lon":5.39992,"is_reserved":false,"is_disabled":false,"rental_uris":{"android":"levelo://app?vid=ae2bd00b-86f2-42b9-8e4e-3fa74e019d82","ios":"levelo://app?vid=ae2bd00b-86f2-42b9-8e4e-3fa74e019d82"},"vehicle_type_id":"4","last_reported":1769659147,"current_range_meters":8400,"station_id":"ce4bhn12rcd13ifvqgqg","pricing_plan_id":"cebpf4jnsgd1na2vs0mg"},{"bike_id":"f3a64c65-4a5a-4fd3-971b-1b35de978008","system_id":"levelo_inurba_marseille","lat":43.27553,"lon":5.38434,"is_reserved":false,"is_disabled":true,"rental_uris":{"android":"levelo://app?vid=f3a64c65-4a5a-4fd3-971b-1b35de978008","ios":"levelo://app?vid=f3a64c65-4a5a-4fd3-971b-1b35de978008"},"vehicle_type_id":"4","last_reported":1769659147,"current_range_meters":8400,"station_id":"ce4bhh92rcd13ifvqfi0","pricing_plan_id":"cebpf4jnsgd1na2vs0mg"},{"bike_id":"1bfe2930-bdb0-4422-9fe9-421cffed6f81","system_id":"levelo_inurba_marseille","lat":43.25945,"lon":5.40912,"is_reserved":false,"is_disabled":false,"rental_uris":{"android":"levelo://app?vid=1bfe2930-bdb0-4422-9fe9-421cffed6f81","ios":"levelo://app?vid=1bfe2930-bdb0-4422-9fe9-421cffed6f81"},"vehicle_type_id":"4","last_reported":1769659147,"current_range_meters":8400,"station_id":"ce4bhm92rcd13ifvqglg","pricing_plan_id":"cebpf4jnsgd1na2vs0mg"},{"bike_id":"626f2e49-da66-4aca-b419-36ccc5e515c3","system_id":"levelo_inurba_marseille","lat":43.246347,"lon":5.43148,"is_reserved":false,"is_disabled":false,"rental_uris":{"android":"levelo://app?vid=626f2e49-da66-4aca-b419-36ccc5e515c3","ios":"levelo://app?vid=626f2e49-da66-4aca-b419-36ccc5e515c3"},"vehicle_type_id":"4","last_reported":1769659147,"current_range_meters":8400,"station_id":"st_d2m6c4gdas8pm72e190g","pricing_plan_id":"cebpf4jnsgd1na2vs0mg"},{"bike_id":"00e5f91e-28e3-4d18-9405-1b18fbd1b1a5","system_id":"levelo_inurba_marseille","lat":43.24813,"lon":5.37467,"is_reserved":false,"is_disabled":false,"rental_uris":{"android":"levelo://app?vid=00e5f91e-28e3-4d18-9405-1b18fbd1b1a5","ios":"levelo://app?vid=00e5f91e-28e3-4d18-9405-1b18fbd1b1a5"},"vehicle_type_id":"4","last_reported":1769659147,"current_range_meters":8400,"station_id":"ce4bhgh2rcd13ifvqfb0","pricing_plan_id":"cebpf4jnsgd1na2vs0mg"},{"bike_id":"3bcd7724-590b-48ab-b804-cd81322c2117","system_id":"levelo_inurba_marseille","lat":43.28843,"lon":5.35847,"is_reserved":false,"is_disabled":false,"rental_uris":{"android":"levelo://app?vid=3bcd7724-590b-48ab-b804-cd81322c2117","ios":"levelo://app?vid=3bcd7724-590b-48ab-b804-cd81322c2117"},"vehicle_type_id":"4","last_reported":1769659147,"current_range_meters":8400,"station_id":"ce4bhb12rcd13ifvqem0","pricing_plan_id":"cebpf4jnsgd1na2vs0mg"},{"bike_id":"2ca3f582-eeaf-4cb8-acab-d157676d2c6d","system_id":"levelo_inurba_marseille","lat":43.30411,"lon":5.41194,"is_reserved":false,"is_disabled":false,"rental_uris":{"android":"levelo://app?vid=2ca3f582-eeaf-4cb8-acab-d157676d2c6d","ios":"levelo://app?vid=2ca3f582-eeaf-4cb8-acab-d157676d2c6d"},"vehicle_type_id":"4","last_reported":1769659147,"current_range_meters":8400,"station_id":"","pricing_plan_id":"cebpf4jnsgd1na2vs0mg"},{"bike_id":"de9f3d40-ab0b-4815-9ff8-6a221add92bf","system_id":"levelo_inurba_marseille","lat":43.33159,"lon":5.37699,"is_reserved":false,"is_disabled":false,"rental_uris":{"android":"levelo://app?vid=de9f3d40-ab0b-4815-9ff8-6a221add92bf","ios":"levelo://app?vid=de9f3d40-ab0b-4815-9ff8-6a221add92bf"},"vehicle_type_id":"4","last_reported":1769659147,"current_range_meters":8400,"station_id":"st_d46cu089ee8s73dldbu0","pricing_plan_id":"cebpf4jnsgd1na2vs0mg"},{"bike_id":"ae271546-2414-45b9-8ca1-cf52daa669c2","system_id":"levelo_inurba_marseille","lat":43.25337,"lon":5.42163,"is_reserved":false,"is_disabled":false,"rental_uris":{"android":"levelo://app?vid=ae271546-2414-45b9-8ca1-cf52daa669c2","ios":"levelo://app?vid=ae271546-2414-45b9-8ca1-cf52daa669c2"},"vehicle_type_id":"4","last_reported":1769659147,"current_range_meters":8400,"station_id":"st_d2m65c5bi1j21697t3ng","pricing_plan_id":"cebpf4jnsgd1na2vs0mg"},{"bike_id":"4bd6cb39-f26e-431f-9c48-bc9838a79167","system_id":"levelo_inurba_marseille","lat":43.29793,"lon":5.44101,"is_reserved":false,"is_disabled":false,"rental_uris":{"android":"levelo://app?vid=4bd6cb39-f26e-431f-9c48-bc9838a79167","ios":"levelo://app?vid=4bd6cb39-f26e-431f-9c48-bc9838a79167"},"vehicle_type_id":"4","last_reported":1769659147,"current_range_meters":8400,"station_id":"st_d3jp68qikq2c7381ktn0","pricing_plan_id":"cebpf4jnsgd1na2vs0mg"},{"bike_id":"15698324-3145-4547-849e-2fd8a77ba3ab","system_id":"levelo_inurba_marseille","lat":43.27379,"lon":5.36248,"is_reserved":false,"is_disabled":false,"rental_uris":{"android":"levelo://app?vid=15698324-3145-4547-849e-2fd8a77ba3ab","ios":"levelo://app?vid=15698324-3145-4547-849e-2fd8a77ba3ab"},"vehicle_type_id":"4","last_reported":1769659147,"current_range_meters":8800,"station_id":"ce4bhbh2rcd13ifvqeo0","pricing_plan_id":"cebpf4jnsgd1na2vs0mg"},{"bike_id":"e7410e5c-9fbf-41d5-9100-eab4895f853b","system_id":"levelo_inurba_marseille","lat":43.29436,"lon":5.39751,"is_reserved":false,"is_disabled":false,"rental_uris":{"android":"levelo://app?vid=e7410e5c-9fbf-41d5-9100-eab4895f853b","ios":"levelo://app?vid=e7410e5c-9fbf-41d5-9100-eab4895f853b"},"vehicle_type_id":"4","last_reported":1769659147,"current_range_meters":8800,"station_id":"ce4bh3h2rcd13ifvqdo0","pricing_plan_id":"cebpf4jnsgd1na2vs0mg"},{"bike_id":"051fd87e-98e3-4ca8-88a3-227b4d202bfb","system_id":"levelo_inurba_marseille","lat":43.29648,"lon":5.37174,"is_reserved":false,"is_disabled":false,"rental_uris":{"android":"levelo://app?vid=051fd87e-98e3-4ca8-88a3-227b4d202bfb","ios":"levelo://app?vid=051fd87e-98e3-4ca8-88a3-227b4d202bfb"},"vehicle_type_id":"4","last_reported":1769659147,"current_range_meters":8800,"station_id":"ce4bgnh2rcd13ifvqc0g","pricing_plan_id":"cebpf4jnsgd1na2vs0mg"},{"bike_id":"163be110-90f6-4ea9-9e0a-c8260a42fd9b","system_id":"levelo_inurba_marseille","lat":43.28135,"lon":5.37845,"is_reserved":false,"is_disabled":false,"rental_uris":{"android":"levelo://app?vid=163be110-90f6-4ea9-9e0a-c8260a42fd9b","ios":"levelo://app?vid=163be110-90f6-4ea9-9e0a-c8260a42fd9b"},"vehicle_type_id":"4","last_reported":1769659147,"current_range_meters":8800,"station_id":"ce4bha12rcd13ifvqee0","pricing_plan_id":"cebpf4jnsgd1na2vs0mg"},{"bike_id":"e44421fa-83e8-471c-99c3-00ee87f503e6","system_id":"levelo_inurba_marseille","lat":43.232,"lon":5.35566,"is_reserved":false,"is_disabled":false,"rental_uris":{"android":"levelo://app?vid=e44421fa-83e8-471c-99c3-00ee87f503e6","ios":"levelo://app?vid=e44421fa-83e8-471c-99c3-00ee87f503e6"},"vehicle_type_id":"4","last_reported":1769659147,"current_range_meters":8800,"station_id":"ce4bhu92rcd13ifvqi70","pricing_plan_id":"cebpf4jnsgd1na2vs0mg"},{"bike_id":"e44d6c0d-4cdc-487c-87b1-e5cf7cd1bdd8","system_id":"levelo_inurba_marseille","lat":43.27693,"lon":5.38868,"is_reserved":false,"is_disabled":false,"rental_uris":{"android":"levelo://app?vid=e44d6c0d-4cdc-487c-87b1-e5cf7cd1bdd8","ios":"levelo://app?vid=e44d6c0d-4cdc-487c-87b1-e5cf7cd1bdd8"},"vehicle_type_id":"4","last_reported":1769659147,"current_range_meters":8800,"station_id":"ce4bhi12rcd13ifvqfo0","pricing_plan_id":"cebpf4jnsgd1na2vs0mg"},{"bike_id":"7b6d8a8b-d351-4282-bf84-c6e7865bd8af","system_id":"levelo_inurba_marseille","lat":43.24644,"lon":5.38897,"is_reserved":false,"is_disabled":false,"rental_uris":{"android":"levelo://app?vid=7b6d8a8b-d351-4282-bf84-c6e7865bd8af","ios":"levelo://app?vid=7b6d8a8b-d351-4282-bf84-c6e7865bd8af"},"vehicle_type_id":"4","last_reported":1769659147,"current_range_meters":8800,"station_id":"ce4bhg12rcd13ifvqf60","pricing_plan_id":"cebpf4jnsgd1na2vs0mg"},{"bike_id":"eafc1917-e27c-4890-b389-207df6b3c08d","system_id":"levelo_inurba_marseille","lat":43.28929,"lon":5.38378,"is_reserved":false,"is_disabled":false,"rental_uris":{"android":"levelo://app?vid=eafc1917-e27c-4890-b389-207df6b3c08d","ios":"levelo://app?vid=eafc1917-e27c-4890-b389-207df6b3c08d"},"vehicle_type_id":"4","last_reported":1769659147,"current_range_meters":8800,"station_id":"ce4bh612rcd13ifvqe6g","pricing_plan_id":"cebpf4jnsgd1na2vs0mg"},{"bike_id":"8de5f716-900c-4d99-9559-2c9a76a29460","system_id":"levelo_inurba_marseille","lat":43.279035,"lon":5.380022,"is_reserved":false,"is_disabled":false,"rental_uris":{"android":"levelo://app?vid=8de5f716-900c-4d99-9559-2c9a76a29460","ios":"levelo://app?vid=8de5f716-900c-4d99-9559-2c9a76a29460"},"vehicle_type_id":"4","last_reported":1769659147,"current_range_meters":8800,"station_id":"ce4bhf92rcd13ifvqf50","pricing_plan_id":"cebpf4jnsgd1na2vs0mg"},{"bike_id":"9ea90a82-cdc0-4280-ac91-6a175db2bdbf","system_id":"levelo_inurba_marseille","lat":43.337753,"lon":5.374772,"is_reserved":false,"is_disabled":false,"rental_uris":{"android":"levelo://app?vid=9ea90a82-cdc0-4280-ac91-6a175db2bdbf","ios":"levelo://app?vid=9ea90a82-cdc0-4280-ac91-6a175db2bdbf"},"vehicle_type_id":"4","last_reported":1769659147,"current_range_meters":8800,"station_id":"","pricing_plan_id":"cebpf4jnsgd1na2vs0mg"},{"bike_id":"6e60ec05-7f00-427b-8397-ebbe38438c4f","system_id":"levelo_inurba_marseille","lat":43.31902,"lon":5.40749,"is_reserved":false,"is_disabled":false,"rental_uris":{"android":"levelo://app?vid=6e60ec05-7f00-427b-8397-ebbe38438c4f","ios":"levelo://app?vid=6e60ec05-7f00-427b-8397-ebbe38438c4f"},"vehicle_type_id":"4","last_reported":1769659147,"current_range_meters":8800,"station_id":"ce4bhq12rcd13ifvqhig","pricing_plan_id":"cebpf4jnsgd1na2vs0mg"},{"bike_id":"92ac9ca0-f0b4-4afa-9cdd-b121e9de80a9","system_id":"levelo_inurba_marseille","lat":43.26207,"lon":5.37451,"is_reserved":false,"is_disabled":false,"rental_uris":{"android":"levelo://app?vid=92ac9ca0-f0b4-4afa-9cdd-b121e9de80a9","ios":"levelo://app?vid=92ac9ca0-f0b4-4afa-9cdd-b121e9de80a9"},"vehicle_type_id":"4","last_reported":1769659147,"current_range_meters":8800,"station_id":"ce4bhgp2rcd13ifvqfc0","pricing_plan_id":"cebpf4jnsgd1na2vs0mg"},{"bike_id":"8252e483-8cd2-4e1f-8159-245c555c915e","system_id":"levelo_inurba_marseille","lat":43.229329,"lon":5.353785,"is_reserved":false,"is_disabled":false,"rental_uris":{"android":"levelo://app?vid=8252e483-8cd2-4e1f-8159-245c555c915e","ios":"levelo://app?vid=8252e483-8cd2-4e1f-8159-245c555c915e"},"vehicle_type_id":"4","last_reported":1769659147,"current_range_meters":8800,"station_id":"cpo3532slgdg3j2ikp40","pricing_plan_id":"cebpf4jnsgd1na2vs0mg"},{"bike_id":"541aab47-c46a-45ce-9946-ea87420fea14","system_id":"levelo_inurba_marseille","lat":43.23205,"lon":5.40001,"is_reserved":false,"is_disabled":false,"rental_uris":{"android":"levelo://app?vid=541aab47-c46a-45ce-9946-ea87420fea14","ios":"levelo://app?vid=541aab47-c46a-45ce-9946-ea87420fea14"},"vehicle_type_id":"4","last_reported":1769659147,"current_range_meters":8800,"station_id":"ce4bhn12rcd13ifvqgqg","pricing_plan_id":"cebpf4jnsgd1na2vs0mg"},{"bike_id":"b0237b40-2383-4de9-b3a6-084c719b41da","system_id":"levelo_inurba_marseille","lat":43.25077,"lon":5.4034,"is_reserved":false,"is_disabled":false,"rental_uris":{"android":"levelo://app?vid=b0237b40-2383-4de9-b3a6-084c719b41da","ios":"levelo://app?vid=b0237b40-2383-4de9-b3a6-084c719b41da"},"vehicle_type_id":"4","last_reported":1769659147,"current_range_meters":8800,"station_id":"ce4bhlh2rcd13ifvqgig","pricing_plan_id":"cebpf4jnsgd1na2vs0mg"},{"bike_id":"3d61244e-0dde-42a1-8efa-05e556593c38","system_id":"levelo_inurba_marseille","lat":43.22564,"lon":5.41639,"is_reserved":false,"is_disabled":false,"rental_uris":{"android":"levelo://app?vid=3d61244e-0dde-42a1-8efa-05e556593c38","ios":"levelo://app?vid=3d61244e-0dde-42a1-8efa-05e556593c38"},"vehicle_type_id":"4","last_reported":1769659147,"current_range_meters":8800,"station_id":"st_d2o4gvlbi1j2169b742g","pricing_plan_id":"cebpf4jnsgd1na2vs0mg"},{"bike_id":"1bdafe20-3d8b-4957-ba81-7108a4fa7364","system_id":"levelo_inurba_marseille","lat":43.25069,"lon":5.39467,"is_reserved":false,"is_disabled":false,"rental_uris":{"android":"levelo://app?vid=1bdafe20-3d8b-4957-ba81-7108a4fa7364","ios":"levelo://app?vid=1bdafe20-3d8b-4957-ba81-7108a4fa7364"},"vehicle_type_id":"4","last_reported":1769659147,"current_range_meters":8800,"station_id":"ce4bhm12rcd13ifvqgkg","pricing_plan_id":"cebpf4jnsgd1na2vs0mg"},{"bike_id":"39ce936d-a259-48fc-ad2d-5b0d2f2834c1","system_id":"levelo_inurba_marseille","lat":43.21747,"lon":5.34615,"is_reserved":false,"is_disabled":false,"rental_uris":{"android":"levelo://app?vid=39ce936d-a259-48fc-ad2d-5b0d2f2834c1","ios":"levelo://app?vid=39ce936d-a259-48fc-ad2d-5b0d2f2834c1"},"vehicle_type_id":"4","last_reported":1769659147,"current_range_meters":8800,"station_id":"","pricing_plan_id":"cebpf4jnsgd1na2vs0mg"},{"bike_id":"c2dbc2d9-f503-42b9-8a28-5a086e3533c8","system_id":"levelo_inurba_marseille","lat":43.28424,"lon":5.34986,"is_reserved":false,"is_disabled":false,"rental_uris":{"android":"levelo://app?vid=c2dbc2d9-f503-42b9-8a28-5a086e3533c8","ios":"levelo://app?vid=c2dbc2d9-f503-42b9-8a28-5a086e3533c8"},"vehicle_type_id":"4","last_reported":1769659147,"current_range_meters":8800,"station_id":"ce4bhbh2rcd13ifvqepg","pricing_plan_id":"cebpf4jnsgd1na2vs0mg"},{"bike_id":"5c34e8e7-9825-4c8c-9cb9-2761be684f0f","system_id":"levelo_inurba_marseille","lat":43.28461,"lon":5.38545,"is_reserved":false,"is_disabled":false,"rental_uris":{"android":"levelo://app?vid=5c34e8e7-9825-4c8c-9cb9-2761be684f0f","ios":"levelo://app?vid=5c34e8e7-9825-4c8c-9cb9-2761be684f0f"},"vehicle_type_id":"4","last_reported":1769659147,"current_range_meters":8800,"station_id":"ce4bh8p2rcd13ifvqeb0","pricing_plan_id":"cebpf4jnsgd1na2vs0mg"},{"bike_id":"2d655a97-bd06-49e9-b2b4-efa072ca5fda","system_id":"levelo_inurba_marseille","lat":43.32125,"lon":5.36804,"is_reserved":false,"is_disabled":false,"rental_uris":{"android":"levelo://app?vid=2d655a97-bd06-49e9-b2b4-efa072ca5fda","ios":"levelo://app?vid=2d655a97-bd06-49e9-b2b4-efa072ca5fda"},"vehicle_type_id":"4","last_reported":1769659147,"current_range_meters":8800,"station_id":"ce4bhrh2rcd13ifvqhug","pricing_plan_id":"cebpf4jnsgd1na2vs0mg"},{"bike_id":"9b87a7c0-d21e-4c7f-be9f-555ccd2d3a4f","system_id":"levelo_inurba_marseille","lat":43.3211,"lon":5.36786,"is_reserved":false,"is_disabled":false,"rental_uris":{"android":"levelo://app?vid=9b87a7c0-d21e-4c7f-be9f-555ccd2d3a4f","ios":"levelo://app?vid=9b87a7c0-d21e-4c7f-be9f-555ccd2d3a4f"},"vehicle_type_id":"4","last_reported":1769659147,"current_range_meters":8800,"station_id":"ce4bhrh2rcd13ifvqhug","pricing_plan_id":"cebpf4jnsgd1na2vs0mg"},{"bike_id":"cf58a321-ce6e-4a9b-9c6a-cdcaa547e895","system_id":"levelo_inurba_marseille","lat":43.27617,"lon":5.36115,"is_reserved":false,"is_disabled":false,"rental_uris":{"android":"levelo://app?vid=cf58a321-ce6e-4a9b-9c6a-cdcaa547e895","ios":"levelo://app?vid=cf58a321-ce6e-4a9b-9c6a-cdcaa547e895"},"vehicle_type_id":"4","last_reported":1769659147,"current_range_meters":8800,"station_id":"ce4bgj92rcd13ifvqbe0","pricing_plan_id":"cebpf4jnsgd1na2vs0mg"},{"bike_id":"39753960-3c7e-4e4a-acb2-25c74c17dd07","system_id":"levelo_inurba_marseille","lat":43.22936,"lon":5.35381,"is_reserved":false,"is_disabled":false,"rental_uris":{"android":"levelo://app?vid=39753960-3c7e-4e4a-acb2-25c74c17dd07","ios":"levelo://app?vid=39753960-3c7e-4e4a-acb2-25c74c17dd07"},"vehicle_type_id":"4","last_reported":1769659147,"current_range_meters":8800,"station_id":"cpo3532slgdg3j2ikp40","pricing_plan_id":"cebpf4jnsgd1na2vs0mg"},{"bike_id":"48eed894-3514-4a07-905a-f0aee1e9e8fa","system_id":"levelo_inurba_marseille","lat":43.28106,"lon":5.378441,"is_reserved":false,"is_disabled":false,"rental_uris":{"android":"levelo://app?vid=48eed894-3514-4a07-905a-f0aee1e9e8fa","ios":"levelo://app?vid=48eed894-3514-4a07-905a-f0aee1e9e8fa"},"vehicle_type_id":"4","last_reported":1769659147,"current_range_meters":8800,"station_id":"ce4bha12rcd13ifvqee0","pricing_plan_id":"cebpf4jnsgd1na2vs0mg"},{"bike_id":"02230a46-7071-45a4-a394-21ae4807fff8","system_id":"levelo_inurba_marseille","lat":43.25828,"lon":5.39438,"is_reserved":false,"is_disabled":false,"rental_uris":{"android":"levelo://app?vid=02230a46-7071-45a4-a394-21ae4807fff8","ios":"levelo://app?vid=02230a46-7071-45a4-a394-21ae4807fff8"},"vehicle_type_id":"4","last_reported":1769659147,"current_range_meters":8800,"station_id":"ce4bhip2rcd13ifvqft0","pricing_plan_id":"cebpf4jnsgd1na2vs0mg"},{"bike_id":"b82a65e3-fe0e-48a2-9c0a-09a165a0d83e","system_id":"levelo_inurba_marseille","lat":43.31269,"lon":5.40183,"is_reserved":false,"is_disabled":false,"rental_uris":{"android":"levelo://app?vid=b82a65e3-fe0e-48a2-9c0a-09a165a0d83e","ios":"levelo://app?vid=b82a65e3-fe0e-48a2-9c0a-09a165a0d83e"},"vehicle_type_id":"4","last_reported":1769659147,"current_range_meters":8800,"station_id":"ce4bh092rcd13ifvqd30","pricing_plan_id":"cebpf4jnsgd1na2vs0mg"},{"bike_id":"49e5dda7-807d-44de-8659-31a84ca3edb2","system_id":"levelo_inurba_marseille","lat":43.32116,"lon":5.36772,"is_reserved":false,"is_disabled":false,"rental_uris":{"android":"levelo://app?vid=49e5dda7-807d-44de-8659-31a84ca3edb2","ios":"levelo://app?vid=49e5dda7-807d-44de-8659-31a84ca3edb2"},"vehicle_type_id":"4","last_reported":1769659147,"current_range_meters":9200,"station_id":"ce4bhrh2rcd13ifvqhug","pricing_plan_id":"cebpf4jnsgd1na2vs0mg"},{"bike_id":"4b70e8cd-0aa1-41e5-8686-715edc919307","system_id":"levelo_inurba_marseille","lat":43.29003,"lon":5.35617,"is_reserved":false,"is_disabled":false,"rental_uris":{"android":"levelo://app?vid=4b70e8cd-0aa1-41e5-8686-715edc919307","ios":"levelo://app?vid=4b70e8cd-0aa1-41e5-8686-715edc919307"},"vehicle_type_id":"4","last_reported":1769659147,"current_range_meters":9200,"station_id":"ce4bhb92rcd13ifvqen0","pricing_plan_id":"cebpf4jnsgd1na2vs0mg"},{"bike_id":"9c143376-0522-4d00-a116-66d871cdb46d","system_id":"levelo_inurba_marseille","lat":43.25583,"lon":5.38233,"is_reserved":false,"is_disabled":false,"rental_uris":{"android":"levelo://app?vid=9c143376-0522-4d00-a116-66d871cdb46d","ios":"levelo://app?vid=9c143376-0522-4d00-a116-66d871cdb46d"},"vehicle_type_id":"4","last_reported":1769659147,"current_range_meters":9200,"station_id":"ce4bhih2rcd13ifvqfs0","pricing_plan_id":"cebpf4jnsgd1na2vs0mg"},{"bike_id":"59d7c568-6724-480d-b1e6-ba1e4cc63559","system_id":"levelo_inurba_marseille","lat":43.29276,"lon":5.37161,"is_reserved":false,"is_disabled":false,"rental_uris":{"android":"levelo://app?vid=59d7c568-6724-480d-b1e6-ba1e4cc63559","ios":"levelo://app?vid=59d7c568-6724-480d-b1e6-ba1e4cc63559"},"vehicle_type_id":"4","last_reported":1769659147,"current_range_meters":9200,"station_id":"ce4bgh92rcd13ifvqb40","pricing_plan_id":"cebpf4jnsgd1na2vs0mg"},{"bike_id":"0edb73c2-0d71-41ef-92a0-39c6197600e4","system_id":"levelo_inurba_marseille","lat":43.27054,"lon":5.38294,"is_reserved":false,"is_disabled":false,"rental_uris":{"android":"levelo://app?vid=0edb73c2-0d71-41ef-92a0-39c6197600e4","ios":"levelo://app?vid=0edb73c2-0d71-41ef-92a0-39c6197600e4"},"vehicle_type_id":"4","last_reported":1769659147,"current_range_meters":9200,"station_id":"st_d3n2fo6cfp8s73cte1j0","pricing_plan_id":"cebpf4jnsgd1na2vs0mg"},{"bike_id":"a34a47a9-686e-413b-873d-d836cefb8d4d","system_id":"levelo_inurba_marseille","lat":43.28839,"lon":5.35848,"is_reserved":false,"is_disabled":false,"rental_uris":{"android":"levelo://app?vid=a34a47a9-686e-413b-873d-d836cefb8d4d","ios":"levelo://app?vid=a34a47a9-686e-413b-873d-d836cefb8d4d"},"vehicle_type_id":"4","last_reported":1769659147,"current_range_meters":9200,"station_id":"ce4bhb12rcd13ifvqem0","pricing_plan_id":"cebpf4jnsgd1na2vs0mg"},{"bike_id":"25cb32b1-e128-4153-b1fc-d3e9ea105f47","system_id":"levelo_inurba_marseille","lat":43.26215,"lon":5.37924,"is_reserved":false,"is_disabled":false,"rental_uris":{"android":"levelo://app?vid=25cb32b1-e128-4153-b1fc-d3e9ea105f47","ios":"levelo://app?vid=25cb32b1-e128-4153-b1fc-d3e9ea105f47"},"vehicle_type_id":"4","last_reported":1769659147,"current_range_meters":9200,"station_id":"ce4bhjp2rcd13ifvqg90","pricing_plan_id":"cebpf4jnsgd1na2vs0mg"},{"bike_id":"bd551aec-24c2-4aba-b573-e89c13f76575","system_id":"levelo_inurba_marseille","lat":43.25591,"lon":5.38224,"is_reserved":false,"is_disabled":false,"rental_uris":{"android":"levelo://app?vid=bd551aec-24c2-4aba-b573-e89c13f76575","ios":"levelo://app?vid=bd551aec-24c2-4aba-b573-e89c13f76575"},"vehicle_type_id":"4","last_reported":1769659147,"current_range_meters":9200,"station_id":"ce4bhih2rcd13ifvqfs0","pricing_plan_id":"cebpf4jnsgd1na2vs0mg"},{"bike_id":"8105c3bf-c953-47dc-a669-68ce6c5070bb","system_id":"levelo_inurba_marseille","lat":43.31688,"lon":5.37519,"is_reserved":false,"is_disabled":true,"rental_uris":{"android":"levelo://app?vid=8105c3bf-c953-47dc-a669-68ce6c5070bb","ios":"levelo://app?vid=8105c3bf-c953-47dc-a669-68ce6c5070bb"},"vehicle_type_id":"4","last_reported":1769659147,"current_range_meters":9200,"station_id":"","pricing_plan_id":"cebpf4jnsgd1na2vs0mg"},{"bike_id":"a80adacf-4e30-49cb-bf43-c9d8faca59a3","system_id":"levelo_inurba_marseille","lat":43.29026,"lon":5.38624,"is_reserved":false,"is_disabled":false,"rental_uris":{"android":"levelo://app?vid=a80adacf-4e30-49cb-bf43-c9d8faca59a3","ios":"levelo://app?vid=a80adacf-4e30-49cb-bf43-c9d8faca59a3"},"vehicle_type_id":"4","last_reported":1769659147,"current_range_meters":9200,"station_id":"ce4bh4p2rcd13ifvqe0g","pricing_plan_id":"cebpf4jnsgd1na2vs0mg"},{"bike_id":"af654c71-a67d-46af-bf40-a020e2f3bf53","system_id":"levelo_inurba_marseille","lat":43.25036,"lon":5.38929,"is_reserved":false,"is_disabled":false,"rental_uris":{"android":"levelo://app?vid=af654c71-a67d-46af-bf40-a020e2f3bf53","ios":"levelo://app?vid=af654c71-a67d-46af-bf40-a020e2f3bf53"},"vehicle_type_id":"4","last_reported":1769659147,"current_range_meters":9200,"station_id":"ce4bhgp2rcd13ifvqfd0","pricing_plan_id":"cebpf4jnsgd1na2vs0mg"},{"bike_id":"4f687732-724d-4138-b2c0-eee9aa061ab0","system_id":"levelo_inurba_marseille","lat":43.290071,"lon":5.356059,"is_reserved":false,"is_disabled":false,"rental_uris":{"android":"levelo://app?vid=4f687732-724d-4138-b2c0-eee9aa061ab0","ios":"levelo://app?vid=4f687732-724d-4138-b2c0-eee9aa061ab0"},