{"last_updated":1700921134,"ttl":30,"version":"2.2","data":{"bikes":[{"bike_id":"ff17466d-b9fb-41f8-9a5c-5b2446f5e426","system_id":"levelo_inurba_marseille","lat":43.309076,"lon":5.368465,"is_reserved":false,"is_disabled":false,"rental_uris":{"android":"levelo://app?vid=ff17466d-b9fb-41f8-9a5c-5b2446f5e426","ios":"levelo://app?vid=ff17466d-b9fb-41f8-9a5c-5b2446f5e426"},"vehicle_type_id":"4","last_reported":1700921134,"current_range_meters":22000,"station_id":"ce4bgn92rcd13ifvqbvg","pricing_plan_id":"free"},{"bike_id":"856bff1a-cecf-4e4d-ba16-f8a4e2c39854","system_id":"levelo_inurba_marseille","lat":43.314811,"lon":5.373103,"is_reserved":false,"is_disabled":false,"rental_uris":{"android":"levelo://app?vid=856bff1a-cecf-4e4d-ba16-f8a4e2c39854","ios":"levelo://app?vid=856bff1a-cecf-4e4d-ba16-f8a4e2c39854"},"vehicle_type_id":"4","last_reported":1700921134,"current_range_meters":6000,"station_id":"ce4bgt12rcd13ifvqcd0","pricing_plan_id":"free"},{"bike_id":"b9f610d1-c092-4d27-8224-fc15f28bf0f3","system_id":"levelo_inurba_marseille","lat":43.314811,"lon":5.373103,"is_reserved":false,"is_disabled":false,"rental_uris":{"android":"levelo://app?vid=b9f610d1-c092-4d27-8224-fc15f28bf0f3","ios":"levelo://app?vid=b9f610d1-c092-4d27-8224-fc15f28bf0f3"},"vehicle_type_id":"4","last_reported":1700921134,"current_range_meters":26800,"station_id":"ce4bgt12rcd13ifvqcd0","pricing_plan_id":"free"},{"bike_id":"405c6529-c673-4ba7-a704-813fe6ad07fa","system_id":"levelo_inurba_marseille","lat":43.30904,"lon":5.37198,"is_reserved":false,"is_disabled":false,"rental_uris":{"android":"levelo://app?vid=405c6529-c673-4ba7-a704-813fe6ad07fa","ios":"levelo://app?vid=405c6529-c673-4ba7-a704-813fe6ad07fa"},"vehicle_type_id":"4","last_reported":1700921134,"current_range_meters":25200,"station_id":"ce4bguh2rcd13ifvqckg","pricing_plan_id":"free"},{"bike_id":"c28cfb57-bc9a-4d06-bcd4-1da03ab86f76","system_id":"levelo_inurba_marseille","lat":43.309039,"lon":5.371797,"is_reserved":false,"is_disabled":false,"rental_uris":{"android":"levelo://app?vid=c28cfb57-bc9a-4d06-bcd4-1da03ab86f76","ios":"levelo://app?vid=c28cfb57-bc9a-4d06-bcd4-1da03ab86f76"},"vehicle_type_id":"4","last_reported":1700921134,"current_range_meters":29200,"station_id":"ce4bguh2rcd13ifvqckg","pricing_plan_id":"free"},{"bike_id":"2c4e2ab4-2bc9-4e71-8e28-b7f9c78b7444","system_id":"levelo_inurba_marseille","lat":43.305714,"lon":5.365633,"is_reserved":false,"is_disabled":false,"rental_uris":{"android":"levelo://app?vid=2c4e2ab4-2bc9-4e71-8e28-b7f9c78b7444","ios":"levelo://app?vid=2c4e2ab4-2bc9-4e71-8e28-b7f9c78b7444"},"vehicle_type_id":"4","last_reported":1700921134,"current_range_meters":3600,"station_id":"ce4bgs12rcd13ifvqcag","pricing_plan_id":"free"},{"bike_id":"cf7abdcf-11fd-4516-87fc-d3ad50fdfe45","system_id":"levelo_inurba_marseille","lat":43.305383,"lon":5.366945,"is_reserved":false,"is_disabled":false,"rental_uris":{"android":"levelo://app?vid=cf7abdcf-11fd-4516-87fc-d3ad50fdfe45","ios":"levelo://app?vid=cf7abdcf-11fd-4516-87fc-d3ad50fdfe45"},"vehicle_type_id":"4","last_reported":1700921134,"current_range_meters":14800,"station_id":"ce4bgrp2rcd13ifvqc9g","pricing_plan_id":"free"},{"bike_id":"3bd5a734-90d3-4fdd-9712-3a23072aaee8","system_id":"levelo_inurba_marseille","lat":43.305706,"lon":5.365654,"is_reserved":false,"is_disabled":false,"rental_uris":{"android":"levelo://app?vid=3bd5a734-90d3-4fdd-9712-3a23072aaee8","ios":"levelo://app?vid=3bd5a734-90d3-4fdd-9712-3a23072aaee8"},"vehicle_type_id":"4","last_reported":1700921134,"current_range_meters":18800,"station_id":"ce4bgs12rcd13ifvqcag","pricing_plan_id":"free"},{"bike_id":"9af61f35-ce01-41ac-87e6-a65afbc050c3","system_id":"levelo_inurba_marseille","lat":43.305706,"lon":5.365654,"is_reserved":false,"is_disabled":false,"rental_uris":{"android":"levelo://app?vid=9af61f35-ce01-41ac-87e6-a65afbc050c3","ios":"levelo://app?vid=9af61f35-ce01-41ac-87e6-a65afbc050c3"},"vehicle_type_id":"4","last_reported":1700921134,"current_range_meters":8000,"station_id":"ce4bgs12rcd13ifvqcag","pricing_plan_id":"free"},{"bike_id":"5be35e1e-e16f-4ff3-a2d9-d1aa65d51b9e","system_id":"levelo_inurba_marseille","lat":43.305706,"lon":5.365654,"is_reserved":false,"is_disabled":false,"rental_uris":{"android":"levelo://app?vid=5be35e1e-e16f-4ff3-a2d9-d1aa65d51b9e","ios":"levelo://app?vid=5be35e1e-e16f-4ff3-a2d9-d1aa65d51b9e"},"vehicle_type_id":"4","last_reported":1700921134,"current_range_meters":21600,"station_id":"ce4bgs12rcd13ifvqcag","pricing_plan_id":"free"},{"bike_id":"573a870a-b6c4-429d-8587-8103772b84bc","system_id":"levelo_inurba_marseille","lat":43.308169,"lon":5.376561,"is_reserved":false,"is_disabled":false,"rental_uris":{"android":"levelo://app?vid=573a870a-b6c4-429d-8587-8103772b84bc","ios":"levelo://app?vid=573a870a-b6c4-429d-8587-8103772b84bc"},"vehicle_type_id":"4","last_reported":1700921134,"current_range_meters":4800,"station_id":"ce4bgv92rcd13ifvqcq0","pricing_plan_id":"free"},{"bike_id":"f427a2c3-6e4a-446b-ae2f-9be8aa7f4122","system_id":"levelo_inurba_marseille","lat":43.31719,"lon":5.376813,"is_reserved":false,"is_disabled":false,"rental_uris":{"android":"levelo://app?vid=f427a2c3-6e4a-446b-ae2f-9be8aa7f4122","ios":"levelo://app?vid=f427a2c3-6e4a-446b-ae2f-9be8aa7f4122"},"vehicle_type_id":"4","last_reported":1700921134,"current_range_meters":24800,"station_id":"ce4bgth2rcd13ifvqch0","pricing_plan_id":"free"},{"bike_id":"b898b018-f57d-4901-bab2-fdd15d391de9","system_id":"levelo_inurba_marseille","lat":43.317168,"lon":5.376883,"is_reserved":false,"is_disabled":false,"rental_uris":{"android":"levelo://app?vid=b898b018-f57d-4901-bab2-fdd15d391de9","ios":"levelo://app?vid=b898b018-f57d-4901-bab2-fdd15d391de9"},"vehicle_type_id":"4","last_reported":1700921134,"current_range_meters":27200,"station_id":"ce4bgth2rcd13ifvqch0","pricing_plan_id":"free"},{"bike_id":"e15e1b5a-a7e6-4af4-bfe1-4ed1fa5ace45","system_id":"levelo_inurba_marseille","lat":43.317075,"lon":5.377367,"is_reserved":false,"is_disabled":false,"rental_uris":{"android":"levelo://app?vid=e15e1b5a-a7e6-4af4-bfe1-4ed1fa5ace45","ios":"levelo://app?vid=e15e1b5a-a7e6-4af4-bfe1-4ed1fa5ace45"},"vehicle_type_id":"4","last_reported":1700921134,"current_range_meters":24400,"station_id":"ce4bgth2rcd13ifvqch0","pricing_plan_id":"free"},{"bike_id":"d69025b0-8b89-4c4d-be9b-24cc15a18fef","system_id":"levelo_inurba_marseille","lat":43.30272,"lon":5.36906,"is_reserved":false,"is_disabled":false,"rental_uris":{"android":"levelo://app?vid=d69025b0-8b89-4c4d-be9b-24cc15a18fef","ios":"levelo://app?vid=d69025b0-8b89-4c4d-be9b-24cc15a18fef"},"vehicle_type_id":"4","last_reported":1700921134,"current_range_meters":16800,"station_id":"","pricing_plan_id":"free"},{"bike_id":"b4158953-7053-4690-a1d5-9972bb08c7b1","system_id":"levelo_inurba_marseille","lat":43.302784,"lon":5.377158,"is_reserved":false,"is_disabled":false,"rental_uris":{"android":"levelo://app?vid=b4158953-7053-4690-a1d5-9972bb08c7b1","ios":"levelo://app?vid=b4158953-7053-4690-a1d5-9972bb08c7b1"},"vehicle_type_id":"4","last_reported":1700921134,"current_range_meters":20000,"station_id":"ce4bguh2rcd13ifvqcj0","pricing_plan_id":"free"},{"bike_id":"537c7734-29f9-4a7f-948d-445e2fddf357","system_id":"levelo_inurba_marseille","lat":43.302784,"lon":5.377158,"is_reserved":false,"is_disabled":false,"rental_uris":{"android":"levelo://app?vid=537c7734-29f9-4a7f-948d-445e2fddf357","ios":"levelo://app?vid=537c7734-29f9-4a7f-948d-445e2fddf357"},"vehicle_type_id":"4","last_reported":1700921134,"current_range_meters":30000,"station_id":"ce4bguh2rcd13ifvqcj0","pricing_plan_id":"free"},{"bike_id":"545afb38-e9b7-4416-9dc4-eda0fa166554","system_id":"levelo_inurba_marseille","lat":43.305364,"lon":5.384119,"is_reserved":false,"is_disabled":false,"rental_uris":{"android":"levelo://app?vid=545afb38-e9b7-4416-9dc4-eda0fa166554","ios":"levelo://app?vid=545afb38-e9b7-4416-9dc4-eda0fa166554"},"vehicle_type_id":"4","last_reported":1700921134,"current_range_meters":15600,"station_id":"ce4bgg92rcd13ifvqb30","pricing_plan_id":"free"},{"bike_id":"c7f7f22e-0de5-47f5-932d-2ede3570d65a","system_id":"levelo_inurba_marseille","lat":43.298433,"lon":5.362774,"is_reserved":false,"is_disabled":false,"rental_uris":{"android":"levelo://app?vid=c7f7f22e-0de5-47f5-932d-2ede3570d65a","ios":"levelo://app?vid=c7f7f22e-0de5-47f5-932d-2ede3570d65a"},"vehicle_type_id":"4","last_reported":1700921134,"current_range_meters":24000,"station_id":"ce4bgpp2rcd13ifvqc3g","pricing_plan_id":"free"},{"bike_id":"e600db65-5d34-4b07-9abb-c66f82524b10","system_id":"levelo_inurba_marseille","lat":43.298433,"lon":5.362774,"is_reserved":false,"is_disabled":false,"rental_uris":{"android":"levelo://app?vid=e600db65-5d34-4b07-9abb-c66f82524b10","ios":"levelo://app?vid=e600db65-5d34-4b07-9abb-c66f82524b10"},"vehicle_type_id":"4","last_reported":1700921134,"current_range_meters":25200,"station_id":"ce4bgpp2rcd13ifvqc3g","pricing_plan_id":"free"},{"bike_id":"3214173a-bf48-4c49-aca0-08d636007a40","system_id":"levelo_inurba_marseille","lat":43.305364,"lon":5.384119,"is_reserved":false,"is_disabled":false,"rental_uris":{"android":"levelo://app?vid=3214173a-bf48-4c49-aca0-08d636007a40","ios":"levelo://app?vid=3214173a-bf48-4c49-aca0-08d636007a40"},"vehicle_type_id":"4","last_reported":1700921134,"current_range_meters":27200,"station_id":"ce4bgg92rcd13ifvqb30","pricing_plan_id":"free"},{"bike_id":"09eebb08-1c76-4705-ad5d-21f288103669","system_id":"levelo_inurba_marseille","lat":43.298433,"lon":5.362774,"is_reserved":false,"is_disabled":false,"rental_uris":{"android":"levelo://app?vid=09eebb08-1c76-4705-ad5d-21f288103669","ios":"levelo://app?vid=09eebb08-1c76-4705-ad5d-21f288103669"},"vehicle_type_id":"4","last_reported":1700921134,"current_range_meters":31200,"station_id":"ce4bgpp2rcd13ifvqc3g","pricing_plan_id":"free"},{"bike_id":"ac33c663-bada-4969-b0dd-5de29c260695","system_id":"levelo_inurba_marseille","lat":43.298433,"lon":5.362774,"is_reserved":false,"is_disabled":false,"rental_uris":{"android":"levelo://app?vid=ac33c663-bada-4969-b0dd-5de29c260695","ios":"levelo://app?vid=ac33c663-bada-4969-b0dd-5de29c260695"},"vehicle_type_id":"4","last_reported":1700921134,"current_range_meters":29600,"station_id":"ce4bgpp2rcd13ifvqc3g","pricing_plan_id":"free"},{"bike_id":"58750c6e-31bc-4d73-8b5a-b02157bb783e","system_id":"levelo_inurba_marseille","lat":43.298433,"lon":5.362774,"is_reserved":false,"is_disabled":false,"rental_uris":{"android":"levelo://app?vid=58750c6e-31bc-4d73-8b5a-b02157bb783e","ios":"levelo://app?vid=58750c6e-31bc-4d73-8b5a-b02157bb783e"},"vehicle_type_id":"4","last_reported":1700921134,"current_range_meters":18800,"station_id":"ce4bgpp2rcd13ifvqc3g","pricing_plan_id":"free"},{"bike_id":"79db08d7-c27f-497f-9bae-099123fafc3e","system_id":"levelo_inurba_marseille","lat":43.298433,"lon":5.362774,"is_reserved":false,"is_disabled":false,"rental_uris":{"android":"levelo://app?vid=79db08d7-c27f-497f-9bae-099123fafc3e","ios":"levelo://app?vid=79db08d7-c27f-497f-9bae-099123fafc3e"},"vehicle_type_id":"4","last_reported":1700921134,"current_range_meters":26800,"station_id":"ce4bgpp2rcd13ifvqc3g","pricing_plan_id":"free"},{"bike_id":"fa68b9e1-26d3-4e2e-9962-0a50f28e00b0","system_id":"levelo_inurba_marseille","lat":43.311722,"lon":5.387247,"is_reserved":false,"is_disabled":false,"rental_uris":{"android":"levelo://app?vid=fa68b9e1-26d3-4e2e-9962-0a50f28e00b0","ios":"levelo://app?vid=fa68b9e1-26d3-4e2e-9962-0a50f28e00b0"},"vehicle_type_id":"4","last_reported":1700921134,"current_range_meters":22000,"station_id":"ce4bgv12rcd13ifvqcp0","pricing_plan_id":"free"},{"bike_id":"7b6887a7-db65-40f0-a279-e51c56eeea0f","system_id":"levelo_inurba_marseille","lat":43.299243,"lon":5.37481,"is_reserved":false,"is_disabled":false,"rental_uris":{"android":"levelo://app?vid=7b6887a7-db65-40f0-a279-e51c56eeea0f","ios":"levelo://app?vid=7b6887a7-db65-40f0-a279-e51c56eeea0f"},"vehicle_type_id":"4","last_reported":1700921134,"current_range_meters":4400,"station_id":"ce4bgjh2rcd13ifvqbg0","pricing_plan_id":"free"},{"bike_id":"efa42045-f55a-42f1-bd2c-e31506c5b59b","system_id":"levelo_inurba_marseille","lat":43.311722,"lon":5.387247,"is_reserved":false,"is_disabled":false,"rental_uris":{"android":"levelo://app?vid=efa42045-f55a-42f1-bd2c-e31506c5b59b","ios":"levelo://app?vid=efa42045-f55a-42f1-bd2c-e31506c5b59b"},"vehicle_type_id":"4","last_reported":1700921134,"current_range_meters":26000,"station_id":"ce4bgv12rcd13ifvqcp0","pricing_plan_id":"free"},{"bike_id":"86b7f83f-3d15-489b-aaba-547fdf5b588a","system_id":"levelo_inurba_marseille","lat":43.297794,"lon":5.370888,"is_reserved":false,"is_disabled":false,"rental_uris":{"android":"levelo://app?vid=86b7f83f-3d15-489b-aaba-547fdf5b588a","ios":"levelo://app?vid=86b7f83f-3d15-489b-aaba-547fdf5b588a"},"vehicle_type_id":"4","last_reported":1700921134,"current_range_meters":8400,"station_id":"ce4bgop2rcd13ifvqc1g","pricing_plan_id":"free"},{"bike_id":"a7156c28-1946-468b-9e64-3365962b5f30","system_id":"levelo_inurba_marseille","lat":43.32827,"lon":5.3668,"is_reserved":false,"is_disabled":false,"rental_uris":{"android":"levelo://app?vid=a7156c28-1946-468b-9e64-3365962b5f30","ios":"levelo://app?vid=a7156c28-1946-468b-9e64-3365962b5f30"},"vehicle_type_id":"4","last_reported":1700921134,"current_range_meters":13200,"station_id":"ce4bhs92rcd13ifvqi0g","pricing_plan_id":"free"},{"bike_id":"8791a58e-e3a0-43a8-b083-b15b0d3679b4","system_id":"levelo_inurba_marseille","lat":43.328371,"lon":5.366909,"is_reserved":false,"is_disabled":false,"rental_uris":{"android":"levelo://app?vid=8791a58e-e3a0-43a8-b083-b15b0d3679b4","ios":"levelo://app?vid=8791a58e-e3a0-43a8-b083-b15b0d3679b4"},"vehicle_type_id":"4","last_reported":1700921134,"current_range_meters":8400,"station_id":"ce4bhs92rcd13ifvqi0g","pricing_plan_id":"free"},{"bike_id":"f67ed7f6-6b2d-4c05-8943-cbd16257ad7d","system_id":"levelo_inurba_marseille","lat":43.328283,"lon":5.36684,"is_reserved":false,"is_disabled":false,"rental_uris":{"android":"levelo://app?vid=f67ed7f6-6b2d-4c05-8943-cbd16257ad7d","ios":"levelo://app?vid=f67ed7f6-6b2d-4c05-8943-cbd16257ad7d"},"vehicle_type_id":"4","last_reported":1700921134,"current_range_meters":12800,"station_id":"ce4bhs92rcd13ifvqi0g","pricing_plan_id":"free"},{"bike_id":"07a03e0e-e12b-474e-a940-8baf07c98432","system_id":"levelo_inurba_marseille","lat":43.328305,"lon":5.366774,"is_reserved":false,"is_disabled":false,"rental_uris":{"android":"levelo://app?vid=07a03e0e-e12b-474e-a940-8baf07c98432","ios":"levelo://app?vid=07a03e0e-e12b-474e-a940-8baf07c98432"},"vehicle_type_id":"4","last_reported":1700921134,"current_range_meters":15200,"station_id":"ce4bhs92rcd13ifvqi0g","pricing_plan_id":"free"},{"bike_id":"95825c38-6c59-4753-b43e-2f944bdb26b9","system_id":"levelo_inurba_marseille","lat":43.32835,"lon":5.3668,"is_reserved":false,"is_disabled":false,"rental_uris":{"android":"levelo://app?vid=95825c38-6c59-4753-b43e-2f944bdb26b9","ios":"levelo://app?vid=95825c38-6c59-4753-b43e-2f944bdb26b9"},"vehicle_type_id":"4","last_reported":1700921134,"current_range_meters":16000,"station_id":"ce4bhs92rcd13ifvqi0g","pricing_plan_id":"free"},{"bike_id":"80c9955e-8553-48a6-b9d9-fbb7b02da650","system_id":"levelo_inurba_marseille","lat":43.297163,"lon":5.365866,"is_reserved":false,"is_disabled":false,"rental_uris":{"android":"levelo://app?vid=80c9955e-8553-48a6-b9d9-fbb7b02da650","ios":"levelo://app?vid=80c9955e-8553-48a6-b9d9-fbb7b02da650"},"vehicle_type_id":"4","last_reported":1700921134,"current_range_meters":23200,"station_id":"ce4bgn12rcd13ifvqbt0","pricing_plan_id":"free"},{"bike_id":"47fb327b-d450-4c62-b923-05c46f9681f0","system_id":"levelo_inurba_marseille","lat":43.2968,"lon":5.37291,"is_reserved":false,"is_disabled":false,"rental_uris":{"android":"levelo://app?vid=47fb327b-d450-4c62-b923-05c46f9681f0","ios":"levelo://app?vid=47fb327b-d450-4c62-b923-05c46f9681f0"},"vehicle_type_id":"4","last_reported":1700921134,"current_range_meters":26800,"station_id":"ce4bgk12rcd13ifvqbj0","pricing_plan_id":"free"},{"bike_id":"9c9bd7db-a71c-419c-ba42-83618cc977b4","system_id":"levelo_inurba_marseille","lat":43.29606,"lon":5.37312,"is_reserved":false,"is_disabled":false,"rental_uris":{"android":"levelo://app?vid=9c9bd7db-a71c-419c-ba42-83618cc977b4","ios":"levelo://app?vid=9c9bd7db-a71c-419c-ba42-83618cc977b4"},"vehicle_type_id":"4","last_reported":1700921134,"current_range_meters":14400,"station_id":"","pricing_plan_id":"free"},{"bike_id":"b12601aa-8d21-40d5-9170-600f71bc9c51","system_id":"levelo_inurba_marseille","lat":43.309589,"lon":5.390258,"is_reserved":false,"is_disabled":false,"rental_uris":{"android":"levelo://app?vid=b12601aa-8d21-40d5-9170-600f71bc9c51","ios":"levelo://app?vid=b12601aa-8d21-40d5-9170-600f71bc9c51"},"vehicle_type_id":"4","last_reported":1700921134,"current_range_meters":22800,"station_id":"ce4bgup2rcd13ifvqco0","pricing_plan_id":"free"},{"bike_id":"99f29a9a-5778-4033-999a-764e5e4e13bd","system_id":"levelo_inurba_marseille","lat":43.293009,"lon":5.374584,"is_reserved":false,"is_disabled":false,"rental_uris":{"android":"levelo://app?vid=99f29a9a-5778-4033-999a-764e5e4e13bd","ios":"levelo://app?vid=99f29a9a-5778-4033-999a-764e5e4e13bd"},"vehicle_type_id":"4","last_reported":1700921134,"current_range_meters":9200,"station_id":"ce4bgi12rcd13ifvqb70","pricing_plan_id":"free"},{"bike_id":"081ad6be-bb70-40be-8c6a-4731165da50b","system_id":"levelo_inurba_marseille","lat":43.297905,"lon":5.380851,"is_reserved":false,"is_disabled":false,"rental_uris":{"android":"levelo://app?vid=081ad6be-bb70-40be-8c6a-4731165da50b","ios":"levelo://app?vid=081ad6be-bb70-40be-8c6a-4731165da50b"},"vehicle_type_id":"4","last_reported":1700921134,"current_range_meters":10000,"station_id":"ce4bgip2rcd13ifvqbb0","pricing_plan_id":"free"},{"bike_id":"6094f9c1-8eb2-41ec-98ce-33a8d0ee6220","system_id":"levelo_inurba_marseille","lat":43.295731,"lon":5.375202,"is_reserved":false,"is_disabled":false,"rental_uris":{"android":"levelo://app?vid=6094f9c1-8eb2-41ec-98ce-33a8d0ee6220","ios":"levelo://app?vid=6094f9c1-8eb2-41ec-98ce-33a8d0ee6220"},"vehicle_type_id":"4","last_reported":1700921134,"current_range_meters":30800,"station_id":"ce4bgh92rcd13ifvqb50","pricing_plan_id":"free"},{"bike_id":"f3b91cd4-8d02-4684-b34a-0a958aa82fd3","system_id":"levelo_inurba_marseille","lat":43.304274,"lon":5.388873,"is_reserved":false,"is_disabled":false,"rental_uris":{"android":"levelo://app?vid=f3b91cd4-8d02-4684-b34a-0a958aa82fd3","ios":"levelo://app?vid=f3b91cd4-8d02-4684-b34a-0a958aa82fd3"},"vehicle_type_id":"4","last_reported":1700921134,"current_range_meters":22000,"station_id":"ce4bgk12rcd13ifvqbi0","pricing_plan_id":"free"},{"bike_id":"6b621983-5e9e-42f7-990d-ad5a093820d2","system_id":"levelo_inurba_marseille","lat":43.293801,"lon":5.363066,"is_reserved":false,"is_disabled":false,"rental_uris":{"android":"levelo://app?vid=6b621983-5e9e-42f7-990d-ad5a093820d2","ios":"levelo://app?vid=6b621983-5e9e-42f7-990d-ad5a093820d2"},"vehicle_type_id":"4","last_reported":1700921134,"current_range_meters":400,"station_id":"","pricing_plan_id":"free"},{"bike_id":"1aa85fc1-d087-4c3a-a5c5-45053c3f857e","system_id":"levelo_inurba_marseille","lat":43.290104,"lon":5.356111,"is_reserved":false,"is_disabled":false,"rental_uris":{"android":"levelo://app?vid=1aa85fc1-d087-4c3a-a5c5-45053c3f857e","ios":"levelo://app?vid=1aa85fc1-d087-4c3a-a5c5-45053c3f857e"},"vehicle_type_id":"4","last_reported":1700921134,"current_range_meters":8000,"station_id":"ce4bhb92rcd13ifvqen0","pricing_plan_id":"free"},{"bike_id":"90c53f66-12a4-4390-866e-d36335fa89e0","system_id":"levelo_inurba_marseille","lat":43.29595,"lon":5.38107,"is_reserved":false,"is_disabled":false,"rental_uris":{"android":"levelo://app?vid=90c53f66-12a4-4390-866e-d36335fa89e0","ios":"levelo://app?vid=90c53f66-12a4-4390-866e-d36335fa89e0"},"vehicle_type_id":"4","last_reported":1700921134,"current_range_meters":25200,"station_id":"ce4bgl12rcd13ifvqbo0","pricing_plan_id":"free"},{"bike_id":"c08692de-893b-4842-ac6a-624a77fd78ec","system_id":"levelo_inurba_marseille","lat":43.32381,"lon":5.38959,"is_reserved":false,"is_disabled":false,"rental_uris":{"android":"levelo://app?vid=c08692de-893b-4842-ac6a-624a77fd78ec","ios":"levelo://app?vid=c08692de-893b-4842-ac6a-624a77fd78ec"},"vehicle_type_id":"4","last_reported":1700921134,"current_range_meters":3600,"station_id":"","pricing_plan_id":"free"},{"bike_id":"6273e4a4-8f0c-4926-b308-896bdeb9bdcb","system_id":"levelo_inurba_marseille","lat":43.293259,"lon":5.371586,"is_reserved":false,"is_disabled":false,"rental_uris":{"android":"levelo://app?vid=6273e4a4-8f0c-4926-b308-896bdeb9bdcb","ios":"levelo://app?vid=6273e4a4-8f0c-4926-b308-896bdeb9bdcb"},"vehicle_type_id":"4","last_reported":1700921134,"current_range_meters":25200,"station_id":"ce4bgh92rcd13ifvqb40","pricing_plan_id":"free"},{"bike_id":"014378ed-d5af-43f5-bac7-3179addba16f","system_id":"levelo_inurba_marseille","lat":43.292749,"lon":5.368402,"is_reserved":false,"is_disabled":false,"rental_uris":{"android":"levelo://app?vid=014378ed-d5af-43f5-bac7-3179addba16f","ios":"levelo://app?vid=014378ed-d5af-43f5-bac7-3179addba16f"},"vehicle_type_id":"4","last_reported":1700921134,"current_range_meters":5600,"station_id":"ce4bhbp2rcd13ifvqesg","pricing_plan_id":"free"},{"bike_id":"f262b009-60f1-4c7b-b5b1-eef04fbda5f0","system_id":"levelo_inurba_marseille","lat":43.293259,"lon":5.371586,"is_reserved":false,"is_disabled":false,"rental_uris":{"android":"levelo://app?vid=f262b009-60f1-4c7b-b5b1-eef04fbda5f0","ios":"levelo://app?vid=f262b009-60f1-4c7b-b5b1-eef04fbda5f0"},"vehicle_type_id":"4","last_reported":1700921134,"current_range_meters":12400,"station_id":"ce4bgh92rcd13ifvqb40","pricing_plan_id":"free"},{"bike_id":"bc3d7e5c-50d0-4430-8ef5-cdf8122c50cf","system_id":"levelo_inurba_marseille","lat":43.29301,"lon":5.37467,"is_reserved":false,"is_disabled":false,"rental_uris":{"android":"levelo://app?vid=bc3d7e5c-50d0-4430-8ef5-cdf8122c50cf","ios":"levelo://app?vid=bc3d7e5c-50d0-4430-8ef5-cdf8122c50cf"},"vehicle_type_id":"4","last_reported":1700921134,"current_range_meters":4000,"station_id":"ce4bgi12rcd13ifvqb70","pricing_plan_id":"free"},{"bike_id":"81e00844-20b3-4f1a-b9a4-b18e9af5d0c7","system_id":"levelo_inurba_marseille","lat":43.292932,"lon":5.374612,"is_reserved":false,"is_disabled":false,"rental_uris":{"android":"levelo://app?vid=81e00844-20b3-4f1a-b9a4-b18e9af5d0c7","ios":"levelo://app?vid=81e00844-20b3-4f1a-b9a4-b18e9af5d0c7"},"vehicle_type_id":"4","last_reported":1700921134,"current_range_meters":14800,"station_id":"ce4bgi12rcd13ifvqb70","pricing_plan_id":"free"},{"bike_id":"f3ff6965-c0d7-48e4-ab3b-895dbf11e0a7","system_id":"levelo_inurba_marseille","lat":43.293009,"lon":5.374584,"is_reserved":false,"is_disabled":false,"rental_uris":{"android":"levelo://app?vid=f3ff6965-c0d7-48e4-ab3b-895dbf11e0a7","ios":"levelo://app?vid=f3ff6965-c0d7-48e4-ab3b-895dbf11e0a7"},"vehicle_type_id":"4","last_reported":1700921134,"current_range_meters":9600,"station_id":"ce4bgi12rcd13ifvqb70","pricing_plan_id":"free"},{"bike_id":"76e24616-7ff9-41a3-b0e0-51d979d5a869","system_id":"levelo_inurba_marseille","lat":43.298764,"lon":5.388973,"is_reserved":false,"is_disabled":false,"rental_uris":{"android":"levelo://app?vid=76e24616-7ff9-41a3-b0e0-51d979d5a869","ios":"levelo://app?vid=76e24616-7ff9-41a3-b0e0-51d979d5a869"},"vehicle_type_id":"4","last_reported":1700921134,"current_range_meters":14000,"station_id":"ce4bh392rcd13ifvqdl0","pricing_plan_id":"free"},{"bike_id":"b114bcba-f8c3-43d8-a350-219bd03bf064","system_id":"levelo_inurba_marseille","lat":43.29219,"lon":5.36049,"is_reserved":false,"is_disabled":false,"rental_uris":{"android":"levelo://app?vid=b114bcba-f8c3-43d8-a350-219bd03bf064","ios":"levelo://app?vid=b114bcba-f8c3-43d8-a350-219bd03bf064"},"vehicle_type_id":"4","last_reported":1700921134,"current_range_meters":23200,"station_id":"ce4bhbh2rcd13ifvqeqg","pricing_plan_id":"free"},{"bike_id":"61407bb0-0132-4099-93dd-feee2bafc054","system_id":"levelo_inurba_marseille","lat":43.292663,"lon":5.376394,"is_reserved":false,"is_disabled":false,"rental_uris":{"android":"levelo://app?vid=61407bb0-0132-4099-93dd-feee2bafc054","ios":"levelo://app?vid=61407bb0-0132-4099-93dd-feee2bafc054"},"vehicle_type_id":"4","last_reported":1700921134,"current_range_meters":14800,"station_id":"ce4bgi12rcd13ifvqb80","pricing_plan_id":"free"},{"bike_id":"75d20797-ff93-430c-ab4e-e9fa874c10b8","system_id":"levelo_inurba_marseille","lat":43.298764,"lon":5.388973,"is_reserved":false,"is_disabled":false,"rental_uris":{"android":"levelo://app?vid=75d20797-ff93-430c-ab4e-e9fa874c10b8","ios":"levelo://app?vid=75d20797-ff93-430c-ab4e-e9fa874c10b8"},"vehicle_type_id":"4","last_reported":1700921134,"current_range_meters":22800,"station_id":"ce4bh392rcd13ifvqdl0","pricing_plan_id":"free"},{"bike_id":"b2749c33-dbcd-4038-8ea0-d9d6ee222ab4","system_id":"levelo_inurba_marseille","lat":43.291994,"lon":5.357886,"is_reserved":false,"is_disabled":false,"rental_uris":{"android":"levelo://app?vid=b2749c33-dbcd-4038-8ea0-d9d6ee222ab4","ios":"levelo://app?vid=b2749c33-dbcd-4038-8ea0-d9d6ee222ab4"},"vehicle_type_id":"4","last_reported":1700921134,"current_range_meters":19600,"station_id":"ce4bhb12rcd13ifvqel0","pricing_plan_id":"free"},{"bike_id":"dd45e463-f6b3-4230-9f26-891b79e11e55","system_id":"levelo_inurba_marseille","lat":43.29195,"lon":5.35803,"is_reserved":false,"is_disabled":false,"rental_uris":{"android":"levelo://app?vid=dd45e463-f6b3-4230-9f26-891b79e11e55","ios":"levelo://app?vid=dd45e463-f6b3-4230-9f26-891b79e11e55"},"vehicle_type_id":"4","last_reported":1700921134,"current_range_meters":15600,"station_id":"ce4bhb12rcd13ifvqel0","pricing_plan_id":"free"},{"bike_id":"039c30fb-9eca-46f6-9959-4839a889a0bd","system_id":"levelo_inurba_marseille","lat":43.29195,"lon":5.35803,"is_reserved":false,"is_disabled":false,"rental_uris":{"android":"levelo://app?vid=039c30fb-9eca-46f6-9959-4839a889a0bd","ios":"levelo://app?vid=039c30fb-9eca-46f6-9959-4839a889a0bd"},"vehicle_type_id":"4","last_reported":1700921134,"current_range_meters":22400,"station_id":"ce4bhb12rcd13ifvqel0","pricing_plan_id":"free"},{"bike_id":"6e455a14-72a5-4077-bb83-3bc8e5b93b4b","system_id":"levelo_inurba_marseille","lat":43.291994,"lon":5.357886,"is_reserved":false,"is_disabled":false,"rental_uris":{"android":"levelo://app?vid=6e455a14-72a5-4077-bb83-3bc8e5b93b4b","ios":"levelo://app?vid=6e455a14-72a5-4077-bb83-3bc8e5b93b4b"},"vehicle_type_id":"4","last_reported":1700921134,"current_range_meters":13600,"station_id":"ce4bhb12rcd13ifvqel0","pricing_plan_id":"free"},{"bike_id":"3da81a55-cde9-4f6a-906d-45fb8e5164f2","system_id":"levelo_inurba_marseille","lat":43.313244,"lon":5.396905,"is_reserved":false,"is_disabled":false,"rental_uris":{"android":"levelo://app?vid=3da81a55-cde9-4f6a-906d-45fb8e5164f2","ios":"levelo://app?vid=3da81a55-cde9-4f6a-906d-45fb8e5164f2"},"vehicle_type_id":"4","last_reported":1700921134,"current_range_meters":28800,"station_id":"ce4bgvp2rcd13ifvqcu0","pricing_plan_id":"free"},{"bike_id":"32b46254-c8a6-4d65-ae9a-6afdd52426a3","system_id":"levelo_inurba_marseille","lat":43.302008,"lon":5.394694,"is_reserved":false,"is_disabled":false,"rental_uris":{"android":"levelo://app?vid=32b46254-c8a6-4d65-ae9a-6afdd52426a3","ios":"levelo://app?vid=32b46254-c8a6-4d65-ae9a-6afdd52426a3"},"vehicle_type_id":"4","last_reported":1700921134,"current_range_meters":14400,"station_id":"ce4bh0p2rcd13ifvqd70","pricing_plan_id":"free"},{"bike_id":"d5e035f3-768c-4b33-8060-dc65abd8dcfc","system_id":"levelo_inurba_marseille","lat":43.302008,"lon":5.394694,"is_reserved":false,"is_disabled":false,"rental_uris":{"android":"levelo://app?vid=d5e035f3-768c-4b33-8060-dc65abd8dcfc","ios":"levelo://app?vid=d5e035f3-768c-4b33-8060-dc65abd8dcfc"},"vehicle_type_id":"4","last_reported":1700921134,"current_range_meters":18400,"station_id":"ce4bh0p2rcd13ifvqd70","pricing_plan_id":"free"},{"bike_id":"76888fc6-d647-49ef-87bd-da69c15575bc","system_id":"levelo_inurba_marseille","lat":43.290624,"lon":5.359245,"is_reserved":false,"is_disabled":false,"rental_uris":{"android":"levelo://app?vid=76888fc6-d647-49ef-87bd-da69c15575bc","ios":"levelo://app?vid=76888fc6-d647-49ef-87bd-da69c15575bc"},"vehicle_type_id":"4","last_reported":1700921134,"current_range_meters":28800,"station_id":"ce4bha92rcd13ifvqeg0","pricing_plan_id":"free"},{"bike_id":"22d0b504-767d-4421-a531-72d16d8a57b9","system_id":"levelo_inurba_marseille","lat":43.289184,"lon":5.366408,"is_reserved":false,"is_disabled":false,"rental_uris":{"android":"levelo://app?vid=22d0b504-767d-4421-a531-72d16d8a57b9","ios":"levelo://app?vid=22d0b504-767d-4421-a531-72d16d8a57b9"},"vehicle_type_id":"4","last_reported":1700921134,"current_range_meters":15600,"station_id":"ce4bhap2rcd13ifvqek0","pricing_plan_id":"free"},{"bike_id":"a8def85c-e7b3-4d0b-b0f5-779ee45f4341","system_id":"levelo_inurba_marseille","lat":43.28947,"lon":5.36402,"is_reserved":false,"is_disabled":false,"rental_uris":{"android":"levelo://app?vid=a8def85c-e7b3-4d0b-b0f5-779ee45f4341","ios":"levelo://app?vid=a8def85c-e7b3-4d0b-b0f5-779ee45f4341"},"vehicle_type_id":"4","last_reported":1700921134,"current_range_meters":9200,"station_id":"ce4bhc92rcd13ifvqetg","pricing_plan_id":"free"},{"bike_id":"0029dc8d-ed90-4233-b9fe-e593c625e03e","system_id":"levelo_inurba_marseille","lat":43.289184,"lon":5.366408,"is_reserved":false,"is_disabled":false,"rental_uris":{"android":"levelo://app?vid=0029dc8d-ed90-4233-b9fe-e593c625e03e","ios":"levelo://app?vid=0029dc8d-ed90-4233-b9fe-e593c625e03e"},"vehicle_type_id":"4","last_reported":1700921134,"current_range_meters":22000,"station_id":"ce4bhap2rcd13ifvqek0","pricing_plan_id":"free"},{"bike_id":"35a1fc39-9a1e-4cae-87cc-4f5a10667ebe","system_id":"levelo_inurba_marseille","lat":43.28946,"lon":5.36402,"is_reserved":false,"is_disabled":false,"rental_uris":{"android":"levelo://app?vid=35a1fc39-9a1e-4cae-87cc-4f5a10667ebe","ios":"levelo://app?vid=35a1fc39-9a1e-4cae-87cc-4f5a10667ebe"},"vehicle_type_id":"4","last_reported":1700921134,"current_range_meters":18400,"station_id":"ce4bhc92rcd13ifvqetg","pricing_plan_id":"free"},{"bike_id":"74553838-4b7b-4784-8c6a-8de16a680aff","system_id":"levelo_inurba_marseille","lat":43.28941,"lon":5.36406,"is_reserved":false,"is_disabled":false,"rental_uris":{"android":"levelo://app?vid=74553838-4b7b-4784-8c6a-8de16a680aff","ios":"levelo://app?vid=74553838-4b7b-4784-8c6a-8de16a680aff"},"vehicle_type_id":"4","last_reported":1700921134,"current_range_meters":28800,"station_id":"ce4bhc92rcd13ifvqetg","pricing_plan_id":"free"},{"bike_id":"7c3c225e-de7e-4c6c-a2a2-d6aa5d3742ec","system_id":"levelo_inurba_marseille","lat":43.292644,"lon":5.384257,"is_reserved":false,"is_disabled":false,"rental_uris":{"android":"levelo://app?vid=7c3c225e-de7e-4c6c-a2a2-d6aa5d3742ec","ios":"levelo://app?vid=7c3c225e-de7e-4c6c-a2a2-d6aa5d3742ec"},"vehicle_type_id":"4","last_reported":1700921134,"current_range_meters":24000,"station_id":"ce4bh692rcd13ifvqea0","pricing_plan_id":"free"},{"bike_id":"97f91ee0-a461-4be9-a478-481e195012b2","system_id":"levelo_inurba_marseille","lat":43.297815,"lon":5.393548,"is_reserved":false,"is_disabled":false,"rental_uris":{"android":"levelo://app?vid=97f91ee0-a461-4be9-a478-481e195012b2","ios":"levelo://app?vid=97f91ee0-a461-4be9-a478-481e195012b2"},"vehicle_type_id":"4","last_reported":1700921134,"current_range_meters":12400,"station_id":"chh1huq6cuj3fo74tm60","pricing_plan_id":"free"},{"bike_id":"751dfea8-d7e3-4b28-9824-fc8db7a548eb","system_id":"levelo_inurba_marseille","lat":43.295169,"lon":5.390426,"is_reserved":false,"is_disabled":false,"rental_uris":{"android":"levelo://app?vid=751dfea8-d7e3-4b28-9824-fc8db7a548eb","ios":"levelo://app?vid=751dfea8-d7e3-4b28-9824-fc8db7a548eb"},"vehicle_type_id":"4","last_reported":1700921134,"current_range_meters":20000,"station_id":"ce4bh3p2rcd13ifvqdp0","pricing_plan_id":"free"},{"bike_id":"e4511bc3-8d95-4c10-949c-75664321c632","system_id":"levelo_inurba_marseille","lat":43.28856,"lon":5.358371,"is_reserved":false,"is_disabled":false,"rental_uris":{"android":"levelo://app?vid=e4511bc3-8d95-4c10-949c-75664321c632","ios":"levelo://app?vid=e4511bc3-8d95-4c10-949c-75664321c632"},"vehicle_type_id":"4","last_reported":1700921134,"current_range_meters":6800,"station_id":"ce4bhb12rcd13ifvqem0","pricing_plan_id":"free"},{"bike_id":"71eabe09-1206-45b3-9397-9b485c806df3","system_id":"levelo_inurba_marseille","lat":43.28856,"lon":5.358371,"is_reserved":false,"is_disabled":false,"rental_uris":{"android":"levelo://app?vid=71eabe09-1206-45b3-9397-9b485c806df3","ios":"levelo://app?vid=71eabe09-1206-45b3-9397-9b485c806df3"},"vehicle_type_id":"4","last_reported":1700921134,"current_range_meters":26000,"station_id":"ce4bhb12rcd13ifvqem0","pricing_plan_id":"free"},{"bike_id":"2b23f38a-1831-49fe-a943-86c9ec15f136","system_id":"levelo_inurba_marseille","lat":43.33736,"lon":5.37466,"is_reserved":false,"is_disabled":false,"rental_uris":{"android":"levelo://app?vid=2b23f38a-1831-49fe-a943-86c9ec15f136","ios":"levelo://app?vid=2b23f38a-1831-49fe-a943-86c9ec15f136"},"vehicle_type_id":"4","last_reported":1700921134,"current_range_meters":2400,"station_id":"","pricing_plan_id":"free"},{"bike_id":"98e5d998-b665-4b2d-b0e1-cd1e14f75608","system_id":"levelo_inurba_marseille","lat":43.30927,"lon":5.40146,"is_reserved":false,"is_disabled":false,"rental_uris":{"android":"levelo://app?vid=98e5d998-b665-4b2d-b0e1-cd1e14f75608","ios":"levelo://app?vid=98e5d998-b665-4b2d-b0e1-cd1e14f75608"},"vehicle_type_id":"4","last_reported":1700921134,"current_range_meters":24000,"station_id":"ce4bgvp2rcd13ifvqct0","pricing_plan_id":"free"},{"bike_id":"ac285e26-46ab-4b23-8672-d078d8fed511","system_id":"levelo_inurba_marseille","lat":43.33753,"lon":5.37479,"is_reserved":false,"is_disabled":false,"rental_uris":{"android":"levelo://app?vid=ac285e26-46ab-4b23-8672-d078d8fed511","ios":"levelo://app?vid=ac285e26-46ab-4b23-8672-d078d8fed511"},"vehicle_type_id":"4","last_reported":1700921134,"current_range_meters":29600,"station_id":"","pricing_plan_id":"free"},{"bike_id":"5a243d6b-6bac-4970-9f97-93dead9a1826","system_id":"levelo_inurba_marseille","lat":43.301117,"lon":5.398795,"is_reserved":false,"is_disabled":false,"rental_uris":{"android":"levelo://app?vid=5a243d6b-6bac-4970-9f97-93dead9a1826","ios":"levelo://app?vid=5a243d6b-6bac-4970-9f97-93dead9a1826"},"vehicle_type_id":"4","last_reported":1700921134,"current_range_meters":17200,"station_id":"ce4bh0h2rcd13ifvqd40","pricing_plan_id":"free"},{"bike_id":"b293f3b1-058c-49f8-9e25-4385dde700e3","system_id":"levelo_inurba_marseille","lat":43.3013,"lon":5.39864,"is_reserved":false,"is_disabled":false,"rental_uris":{"android":"levelo://app?vid=b293f3b1-058c-49f8-9e25-4385dde700e3","ios":"levelo://app?vid=b293f3b1-058c-49f8-9e25-4385dde700e3"},"vehicle_type_id":"4","last_reported":1700921134,"current_range_meters":17600,"station_id":"ce4bh0h2rcd13ifvqd40","pricing_plan_id":"free"},{"bike_id":"809bc806-1816-41eb-a821-1b41077a6abf","system_id":"levelo_inurba_marseille","lat":43.319179,"lon":5.407725,"is_reserved":false,"is_disabled":false,"rental_uris":{"android":"levelo://app?vid=809bc806-1816-41eb-a821-1b41077a6abf","ios":"levelo://app?vid=809bc806-1816-41eb-a821-1b41077a6abf"},"vehicle_type_id":"4","last_reported":1700921134,"current_range_meters":18800,"station_id":"ce4bhq12rcd13ifvqhig","pricing_plan_id":"free"},{"bike_id":"e435b1ea-cc4d-4f48-af16-53a7e3458ecd","system_id":"levelo_inurba_marseille","lat":43.286591,"lon":5.363346,"is_reserved":false,"is_disabled":false,"rental_uris":{"android":"levelo://app?vid=e435b1ea-cc4d-4f48-af16-53a7e3458ecd","ios":"levelo://app?vid=e435b1ea-cc4d-4f48-af16-53a7e3458ecd"},"vehicle_type_id":"4","last_reported":1700921134,"current_range_meters":10000,"station_id":"ce4bhah2rcd13ifvqej0","pricing_plan_id":"free"},{"bike_id":"0bdba9d9-d0bb-4fca-8f63-9a9cf684d57c","system_id":"levelo_inurba_marseille","lat":43.286039,"lon":5.370679,"is_reserved":false,"is_disabled":false,"rental_uris":{"android":"levelo://app?vid=0bdba9d9-d0bb-4fca-8f63-9a9cf684d57c","ios":"levelo://app?vid=0bdba9d9-d0bb-4fca-8f63-9a9cf684d57c"},"vehicle_type_id":"4","last_reported":1700921134,"current_range_meters":24000,"station_id":"ce4bht12rcd13ifvqi60","pricing_plan_id":"free"},{"bike_id":"a114aae6-8ceb-4886-b20a-6780de28c969","system_id":"levelo_inurba_marseille","lat":43.286039,"lon":5.370679,"is_reserved":false,"is_disabled":false,"rental_uris":{"android":"levelo://app?vid=a114aae6-8ceb-4886-b20a-6780de28c969","ios":"levelo://app?vid=a114aae6-8ceb-4886-b20a-6780de28c969"},"vehicle_type_id":"4","last_reported":1700921134,"current_range_meters":31200,"station_id":"ce4bht12rcd13ifvqi60","pricing_plan_id":"free"},{"bike_id":"c7405175-a7bf-4736-84f1-15fd1a6a9766","system_id":"levelo_inurba_marseille","lat":43.286039,"lon":5.370679,"is_reserved":false,"is_disabled":false,"rental_uris":{"android":"levelo://app?vid=c7405175-a7bf-4736-84f1-15fd1a6a9766","ios":"levelo://app?vid=c7405175-a7bf-4736-84f1-15fd1a6a9766"},"vehicle_type_id":"4","last_reported":1700921134,"current_range_meters":21600,"station_id":"ce4bht12rcd13ifvqi60","pricing_plan_id":"free"},{"bike_id":"2a125d2f-107b-4c5f-b3e8-44e840c0528d","system_id":"levelo_inurba_marseille","lat":43.287184,"lon":5.37937,"is_reserved":false,"is_disabled":false,"rental_uris":{"android":"levelo://app?vid=2a125d2f-107b-4c5f-b3e8-44e840c0528d","ios":"levelo://app?vid=2a125d2f-107b-4c5f-b3e8-44e840c0528d"},"vehicle_type_id":"4","last_reported":1700921134,"current_range_meters":5200,"station_id":"ce4bh9p2rcd13ifvqec0","pricing_plan_id":"free"},{"bike_id":"93e000b0-4bfa-431b-826b-137a337cd99c","system_id":"levelo_inurba_marseille","lat":43.31648,"lon":5.40439,"is_reserved":false,"is_disabled":false,"rental_uris":{"android":"levelo://app?vid=93e000b0-4bfa-431b-826b-137a337cd99c","ios":"levelo://app?vid=93e000b0-4bfa-431b-826b-137a337cd99c"},"vehicle_type_id":"4","last_reported":1700921134,"current_range_meters":17200,"station_id":"ce4bh012rcd13ifvqd00","pricing_plan_id":"free"},{"bike_id":"5c26564b-c07c-4643-948e-d9eaf1f9b2c4","system_id":"levelo_inurba_marseille","lat":43.284538,"lon":5.358657,"is_reserved":false,"is_disabled":false,"rental_uris":{"android":"levelo://app?vid=5c26564b-c07c-4643-948e-d9eaf1f9b2c4","ios":"levelo://app?vid=5c26564b-c07c-4643-948e-d9eaf1f9b2c4"},"vehicle_type_id":"4","last_reported":1700921134,"current_range_meters":29200,"station_id":"ce4bhah2rcd13ifvqei0","pricing_plan_id":"free"},{"bike_id":"cd6a0768-fd9e-4190-9709-186b29372e94","system_id":"levelo_inurba_marseille","lat":43.284534,"lon":5.358662,"is_reserved":false,"is_disabled":false,"rental_uris":{"android":"levelo://app?vid=cd6a0768-fd9e-4190-9709-186b29372e94","ios":"levelo://app?vid=cd6a0768-fd9e-4190-9709-186b29372e94"},"vehicle_type_id":"4","last_reported":1700921134,"current_range_meters":18000,"station_id":"ce4bhah2rcd13ifvqei0","pricing_plan_id":"free"},{"bike_id":"29f02d63-abd7-4e3d-955a-ba0367ce5681","system_id":"levelo_inurba_marseille","lat":43.284538,"lon":5.358657,"is_reserved":false,"is_disabled":false,"rental_uris":{"android":"levelo://app?vid=29f02d63-abd7-4e3d-955a-ba0367ce5681","ios":"levelo://app?vid=29f02d63-abd7-4e3d-955a-ba0367ce5681"},"vehicle_type_id":"4","last_reported":1700921134,"current_range_meters":23600,"station_id":"ce4bhah2rcd13ifvqei0","pricing_plan_id":"free"},{"bike_id":"d9f75149-68fc-42e6-87cd-2eafd7eee2d3","system_id":"levelo_inurba_marseille","lat":43.284538,"lon":5.358657,"is_reserved":false,"is_disabled":false,"rental_uris":{"android":"levelo://app?vid=d9f75149-68fc-42e6-87cd-2eafd7eee2d3","ios":"levelo://app?vid=d9f75149-68fc-42e6-87cd-2eafd7eee2d3"},"vehicle_type_id":"4","last_reported":1700921134,"current_range_meters":22800,"station_id":"ce4bhah2rcd13ifvqei0","pricing_plan_id":"free"},{"bike_id":"4a01703a-aeb6-49b9-86c7-68716835752a","system_id":"levelo_inurba_marseille","lat":43.28459,"lon":5.358986,"is_reserved":false,"is_disabled":false,"rental_uris":{"android":"levelo://app?vid=4a01703a-aeb6-49b9-86c7-68716835752a","ios":"levelo://app?vid=4a01703a-aeb6-49b9-86c7-68716835752a"},"vehicle_type_id":"4","last_reported":1700921134,"current_range_meters":26800,"station_id":"ce4bhah2rcd13ifvqei0","pricing_plan_id":"free"},{"bike_id":"f1cbd064-e830-434d-b265-53490110da71","system_id":"levelo_inurba_marseille","lat":43.28621,"lon":5.35108,"is_reserved":false,"is_disabled":false,"rental_uris":{"android":"levelo://app?vid=f1cbd064-e830-434d-b265-53490110da71","ios":"levelo://app?vid=f1cbd064-e830-434d-b265-53490110da71"},"vehicle_type_id":"4","last_reported":1700921134,"current_range_meters":8000,"station_id":"ce4bhch2rcd13ifvqeug","pricing_plan_id":"free"},{"bike_id":"6d664780-10cf-4339-b9d2-464a149ccbef","system_id":"levelo_inurba_marseille","lat":43.285848,"lon":5.350787,"is_reserved":false,"is_disabled":false,"rental_uris":{"android":"levelo://app?vid=6d664780-10cf-4339-b9d2-464a149ccbef","ios":"levelo://app?vid=6d664780-10cf-4339-b9d2-464a149ccbef"},"vehicle_type_id":"4","last_reported":1700921134,"current_range_meters":16800,"station_id":"ce4bhch2rcd13ifvqeug","pricing_plan_id":"free"},{"bike_id":"3f066187-e263-4881-8ff6-d18fc08cd2fd","system_id":"levelo_inurba_marseille","lat":43.29609,"lon":5.40035,"is_reserved":false,"is_disabled":false,"rental_uris":{"android":"levelo://app?vid=3f066187-e263-4881-8ff6-d18fc08cd2fd","ios":"levelo://app?vid=3f066187-e263-4881-8ff6-d18fc08cd2fd"},"vehicle_type_id":"4","last_reported":1700921134,"current_range_meters":22800,"station_id":"","pricing_plan_id":"free"},{"bike_id":"49952c19-0ca1-4acf-9085-39cb4f5b5027","system_id":"levelo_inurba_marseille","lat":43.286595,"lon":5.386795,"is_reserved":false,"is_disabled":false,"rental_uris":{"android":"levelo://app?vid=49952c19-0ca1-4acf-9085-39cb4f5b5027","ios":"levelo://app?vid=49952c19-0ca1-4acf-9085-39cb4f5b5027"},"vehicle_type_id":"4","last_reported":1700921134,"current_range_meters":15600,"station_id":"ce4bh492rcd13ifvqdug","pricing_plan_id":"free"},{"bike_id":"c21a735b-574a-41dc-9ee8-6a8926d28dea","system_id":"levelo_inurba_marseille","lat":43.318875,"lon":5.407347,"is_reserved":false,"is_disabled":false,"rental_uris":{"android":"levelo://app?vid=c21a735b-574a-41dc-9ee8-6a8926d28dea","ios":"levelo://app?vid=c21a735b-574a-41dc-9ee8-6a8926d28dea"},"vehicle_type_id":"4","last_reported":1700921134,"current_range_meters":27200,"station_id":"ce4bhq12rcd13ifvqhig","pricing_plan_id":"free"},{"bike_id":"ff50f349-14b3-45a0-8c3e-da678147bfa4","system_id":"levelo_inurba_marseille","lat":43.31894,"lon":5.40744,"is_reserved":false,"is_disabled":false,"rental_uris":{"android":"levelo://app?vid=ff50f349-14b3-45a0-8c3e-da678147bfa4","ios":"levelo://app?vid=ff50f349-14b3-45a0-8c3e-da678147bfa4"},"vehicle_type_id":"4","last_reported":1700921134,"current_range_meters":18000,"station_id":"ce4bhq12rcd13ifvqhig","pricing_plan_id":"free"},{"bike_id":"2f5ad77e-8883-43e8-8b82-85e232a0b505","system_id":"levelo_inurba_marseille","lat":43.29795,"lon":5.404086,"is_reserved":false,"is_disabled":false,"rental_uris":{"android":"levelo://app?vid=2f5ad77e-8883-43e8-8b82-85e232a0b505","ios":"levelo://app?vid=2f5ad77e-8883-43e8-8b82-85e232a0b505"},"vehicle_type_id":"4","last_reported":1700921134,"current_range_meters":28400,"station_id":"ce4bh112rcd13ifvqd90","pricing_plan_id":"free"},{"bike_id":"e92e80e0-77de-4b89-9ee6-5fa7f46ce298","system_id":"levelo_inurba_marseille","lat":43.2834,"lon":5.38104,"is_reserved":false,"is_disabled":false,"rental_uris":{"android":"levelo://app?vid=e92e80e0-77de-4b89-9ee6-5fa7f46ce298","ios":"levelo://app?vid=e92e80e0-77de-4b89-9ee6-5fa7f46ce298"},"vehicle_type_id":"4","last_reported":1700921134,"current_range_meters":21600,"station_id":"ce4bh412rcd13ifvqdr0","pricing_plan_id":"free"},{"bike_id":"e2284003-4e46-4e0a-93e7-73d05c3666d9","system_id":"levelo_inurba_marseille","lat":43.33508,"lon":5.397755,"is_reserved":false,"is_disabled":false,"rental_uris":{"android":"levelo://app?vid=e2284003-4e46-4e0a-93e7-73d05c3666d9","ios":"levelo://app?vid=e2284003-4e46-4e0a-93e7-73d05c3666d9"},"vehicle_type_id":"4","last_reported":1700921134,"current_range_meters":22400,"station_id":"","pricing_plan_id":"free"},{"bike_id":"ebbe83b1-d852-484d-966c-98cc8da66fae","system_id":"levelo_inurba_marseille","lat":43.282754,"lon":5.350519,"is_reserved":false,"is_disabled":false,"rental_uris":{"android":"levelo://app?vid=ebbe83b1-d852-484d-966c-98cc8da66fae","ios":"levelo://app?vid=ebbe83b1-d852-484d-966c-98cc8da66fae"},"vehicle_type_id":"4","last_reported":1700921134,"current_range_meters":24800,"station_id":"ce4bhbp2rcd13ifvqerg","pricing_plan_id":"free"},{"bike_id":"85f990b4-56cc-495b-a158-f97e3e163b2e","system_id":"levelo_inurba_marseille","lat":43.282754,"lon":5.350519,"is_reserved":false,"is_disabled":false,"rental_uris":{"android":"levelo://app?vid=85f990b4-56cc-495b-a158-f97e3e163b2e","ios":"levelo://app?vid=85f990b4-56cc-495b-a158-f97e3e163b2e"},"vehicle_type_id":"4","last_reported":1700921134,"current_range_meters":13600,"station_id":"ce4bhbp2rcd13ifvqerg","pricing_plan_id":"free"},{"bike_id":"94d6d529-c502-4704-8f17-2bcfe546ada9","system_id":"levelo_inurba_marseille","lat":43.282744,"lon":5.350533,"is_reserved":false,"is_disabled":false,"rental_uris":{"android":"levelo://app?vid=94d6d529-c502-4704-8f17-2bcfe546ada9","ios":"levelo://app?vid=94d6d529-c502-4704-8f17-2bcfe546ada9"},"vehicle_type_id":"4","last_reported":1700921134,"current_range_meters":30400,"station_id":"ce4bhbp2rcd13ifvqerg","pricing_plan_id":"free"},{"bike_id":"6c124473-587f-41f5-b201-fb33060c2f82","system_id":"levelo_inurba_marseille","lat":43.28043,"lon":5.36939,"is_reserved":false,"is_disabled":false,"rental_uris":{"android":"levelo://app?vid=6c124473-587f-41f5-b201-fb33060c2f82","ios":"levelo://app?vid=6c124473-587f-41f5-b201-fb33060c2f82"},"vehicle_type_id":"4","last_reported":1700921134,"current_range_meters":2000,"station_id":"ce4bha12rcd13ifvqef0","pricing_plan_id":"free"},{"bike_id":"8d26ebb1-4696-4523-943d-d1120dc0e7a2","system_id":"levelo_inurba_marseille","lat":43.28039,"lon":5.369297,"is_reserved":false,"is_disabled":false,"rental_uris":{"android":"levelo://app?vid=8d26ebb1-4696-4523-943d-d1120dc0e7a2","ios":"levelo://app?vid=8d26ebb1-4696-4523-943d-d1120dc0e7a2"},"vehicle_type_id":"4","last_reported":1700921134,"current_range_meters":13600,"station_id":"ce4bha12rcd13ifvqef0","pricing_plan_id":"free"},{"bike_id":"5491cb6e-af0c-4059-8fee-1465c4a2f6ed","system_id":"levelo_inurba_marseille","lat":43.28039,"lon":5.369297,"is_reserved":false,"is_disabled":false,"rental_uris":{"android":"levelo://app?vid=5491cb6e-af0c-4059-8fee-1465c4a2f6ed","ios":"levelo://app?vid=5491cb6e-af0c-4059-8fee-1465c4a2f6ed"},"vehicle_type_id":"4","last_reported":1700921134,"current_range_meters":22000,"station_id":"ce4bha12rcd13ifvqef0","pricing_plan_id":"free"},{"bike_id":"4cc16c78-4c2c-46c1-aa6d-11e920ffec46","system_id":"levelo_inurba_marseille","lat":43.280382,"lon":5.369291,"is_reserved":false,"is_disabled":false,"rental_uris":{"android":"levelo://app?vid=4cc16c78-4c2c-46c1-aa6d-11e920ffec46","ios":"levelo://app?vid=4cc16c78-4c2c-46c1-aa6d-11e920ffec46"},"vehicle_type_id":"4","last_reported":1700921134,"current_range_meters":7200,"station_id":"ce4bha12rcd13ifvqef0","pricing_plan_id":"free"},{"bike_id":"509b8f74-53b7-4776-8f70-b15efa089d8e","system_id":"levelo_inurba_marseille","lat":43.28039,"lon":5.369297,"is_reserved":false,"is_disabled":false,"rental_uris":{"android":"levelo://app?vid=509b8f74-53b7-4776-8f70-b15efa089d8e","ios":"levelo://app?vid=509b8f74-53b7-4776-8f70-b15efa089d8e"},"vehicle_type_id":"4","last_reported":1700921134,"current_range_meters":26800,"station_id":"ce4bha12rcd13ifvqef0","pricing_plan_id":"free"},{"bike_id":"1dfbd59b-31e6-4e08-84bd-70faa50150a3","system_id":"levelo_inurba_marseille","lat":43.280382,"lon":5.369291,"is_reserved":false,"is_disabled":false,"rental_uris":{"android":"levelo://app?vid=1dfbd59b-31e6-4e08-84bd-70faa50150a3","ios":"levelo://app?vid=1dfbd59b-31e6-4e08-84bd-70faa50150a3"},"vehicle_type_id":"4","last_reported":1700921134,"current_range_meters":17200,"station_id":"ce4bha12rcd13ifvqef0","pricing_plan_id":"free"},{"bike_id":"b370efa2-9bd3-4772-a886-466ed04f30e2","system_id":"levelo_inurba_marseille","lat":43.296263,"lon":5.40601,"is_reserved":false,"is_disabled":false,"rental_uris":{"android":"levelo://app?vid=b370efa2-9bd3-4772-a886-466ed04f30e2","ios":"levelo://app?vid=b370efa2-9bd3-4772-a886-466ed04f30e2"},"vehicle_type_id":"4","last_reported":1700921134,"current_range_meters":22000,"station_id":"ce4bh0h2rcd13ifvqd60","pricing_plan_id":"free"},{"bike_id":"e92254fd-e162-4064-870d-2f9532d67a89","system_id":"levelo_inurba_marseille","lat":43.296263,"lon":5.40601,"is_reserved":false,"is_disabled":false,"rental_uris":{"android":"levelo://app?vid=e92254fd-e162-4064-870d-2f9532d67a89","ios":"levelo://app?vid=e92254fd-e162-4064-870d-2f9532d67a89"},"vehicle_type_id":"4","last_reported":1700921134,"current_range_meters":21600,"station_id":"ce4bh0h2rcd13ifvqd60","pricing_plan_id":"free"},{"bike_id":"a03f6f5f-a4c4-48cf-ac6a-9472f6137696","system_id":"levelo_inurba_marseille","lat":43.281044,"lon":5.378308,"is_reserved":false,"is_disabled":false,"rental_uris":{"android":"levelo://app?vid=a03f6f5f-a4c4-48cf-ac6a-9472f6137696","ios":"levelo://app?vid=a03f6f5f-a4c4-48cf-ac6a-9472f6137696"},"vehicle_type_id":"4","last_reported":1700921134,"current_range_meters":20800,"station_id":"ce4bha12rcd13ifvqee0","pricing_plan_id":"free"},{"bike_id":"c548497f-d5b2-4c6f-ad61-e78defc67fd6","system_id":"levelo_inurba_marseille","lat":43.296263,"lon":5.40601,"is_reserved":false,"is_disabled":false,"rental_uris":{"android":"levelo://app?vid=c548497f-d5b2-4c6f-ad61-e78defc67fd6","ios":"levelo://app?vid=c548497f-d5b2-4c6f-ad61-e78defc67fd6"},"vehicle_type_id":"4","last_reported":1700921134,"current_range_meters":23200,"station_id":"ce4bh0h2rcd13ifvqd60","pricing_plan_id":"free"},{"bike_id":"cd8f6b87-a8d9-4f9b-a538-247ee678a6ed","system_id":"levelo_inurba_marseille","lat":43.29041,"lon":5.399634,"is_reserved":false,"is_disabled":false,"rental_uris":{"android":"levelo://app?vid=cd8f6b87-a8d9-4f9b-a538-247ee678a6ed","ios":"levelo://app?vid=cd8f6b87-a8d9-4f9b-a538-247ee678a6ed"},"vehicle_type_id":"4","last_reported":1700921134,"current_range_meters":3200,"station_id":"ce4bh392rcd13ifvqdm0","pricing_plan_id":"free"},{"bike_id":"9df7941a-84d4-4219-9e34-378f392a733e","system_id":"levelo_inurba_marseille","lat":43.296263,"lon":5.40601,"is_reserved":false,"is_disabled":false,"rental_uris":{"android":"levelo://app?vid=9df7941a-84d4-4219-9e34-378f392a733e","ios":"levelo://app?vid=9df7941a-84d4-4219-9e34-378f392a733e"},"vehicle_type_id":"4","last_reported":1700921134,"current_range_meters":16800,"station_id":"ce4bh0h2rcd13ifvqd60","pricing_plan_id":"free"},{"bike_id":"2590bb14-fe28-4d66-9185-accc8c629855","system_id":"levelo_inurba_marseille","lat":43.295907,"lon":5.405949,"is_reserved":false,"is_disabled":false,"rental_uris":{"android":"levelo://app?vid=2590bb14-fe28-4d66-9185-accc8c629855","ios":"levelo://app?vid=2590bb14-fe28-4d66-9185-accc8c629855"},"vehicle_type_id":"4","last_reported":1700921134,"current_range_meters":23600,"station_id":"","pricing_plan_id":"free"},{"bike_id":"c669fc74-fa60-42e5-ba9e-9f1a2ad8764b","system_id":"levelo_inurba_marseille","lat":43.304188,"lon":5.412904,"is_reserved":false,"is_disabled":false,"rental_uris":{"android":"levelo://app?vid=c669fc74-fa60-42e5-ba9e-9f1a2ad8764b","ios":"levelo://app?vid=c669fc74-fa60-42e5-ba9e-9f1a2ad8764b"},"vehicle_type_id":"4","last_reported":1700921134,"current_range_meters":11600,"station_id":"ce4bhop2rcd13ifvqh8g","pricing_plan_id":"free"},{"bike_id":"c04b89d5-b1b9-4e49-8b83-7e19a6ec0cbe","system_id":"levelo_inurba_marseille","lat":43.304188,"lon":5.412904,"is_reserved":false,"is_disabled":false,"rental_uris":{"android":"levelo://app?vid=c04b89d5-b1b9-4e49-8b83-7e19a6ec0cbe","ios":"levelo://app?vid=c04b89d5-b1b9-4e49-8b83-7e19a6ec0cbe"},"vehicle_type_id":"4","last_reported":1700921134,"current_range_meters":9600,"station_id":"ce4bhop2rcd13ifvqh8g","pricing_plan_id":"free"},{"bike_id":"b6bd24e6-943a-4566-9f51-569035dc9592","system_id":"levelo_inurba_marseille","lat":43.325243,"lon":5.414326,"is_reserved":false,"is_disabled":false,"rental_uris":{"android":"levelo://app?vid=b6bd24e6-943a-4566-9f51-569035dc9592","ios":"levelo://app?vid=b6bd24e6-943a-4566-9f51-569035dc9592"},"vehicle_type_id":"4","last_reported":1700921134,"current_range_meters":4800,"station_id":"ce4bhq12rcd13ifvqhhg","pricing_plan_id":"free"},{"bike_id":"9fedd3dd-4e80-4824-ac2c-7d42bc0d2622","system_id":"levelo_inurba_marseille","lat":43.279087,"lon":5.380114,"is_reserved":false,"is_disabled":false,"rental_uris":{"android":"levelo://app?vid=9fedd3dd-4e80-4824-ac2c-7d42bc0d2622","ios":"levelo://app?vid=9fedd3dd-4e80-4824-ac2c-7d42bc0d2622"},"vehicle_type_id":"4","last_reported":1700921134,"current_range_meters":31200,"station_id":"ce4bhf92rcd13ifvqf50","pricing_plan_id":"free"},{"bike_id":"d690f06d-3abc-41a6-ac72-cc5703f6353d","system_id":"levelo_inurba_marseille","lat":43.299579,"lon":5.413255,"is_reserved":false,"is_disabled":false,"rental_uris":{"android":"levelo://app?vid=d690f06d-3abc-41a6-ac72-cc5703f6353d","ios":"levelo://app?vid=d690f06d-3abc-41a6-ac72-cc5703f6353d"},"vehicle_type_id":"4","last_reported":1700921134,"current_range_meters":30400,"station_id":"ce4bhp12rcd13ifvqh9g","pricing_plan_id":"free"},{"bike_id":"0a00d757-9674-4c0b-b307-dbfbe9e7a2b2","system_id":"levelo_inurba_marseille","lat":43.320045,"lon":5.415046,"is_reserved":false,"is_disabled":false,"rental_uris":{"android":"levelo://app?vid=0a00d757-9674-4c0b-b307-dbfbe9e7a2b2","ios":"levelo://app?vid=0a00d757-9674-4c0b-b307-dbfbe9e7a2b2"},"vehicle_type_id":"4","last_reported":1700921134,"current_range_meters":29200,"station_id":"ce4bhq92rcd13ifvqhkg","pricing_plan_id":"free"},{"bike_id":"e9333e17-ea63-4942-a642-cb0a1ba22a55","system_id":"levelo_inurba_marseille","lat":43.325243,"lon":5.414326,"is_reserved":false,"is_disabled":false,"rental_uris":{"android":"levelo://app?vid=e9333e17-ea63-4942-a642-cb0a1ba22a55","ios":"levelo://app?vid=e9333e17-ea63-4942-a642-cb0a1ba22a55"},"vehicle_type_id":"4","last_reported":1700921134,"current_range_meters":0,"station_id":"ce4bhq12rcd13ifvqhhg","pricing_plan_id":"free"},{"bike_id":"54cd5685-7875-428a-aac0-27b1fbac38e3","system_id":"levelo_inurba_marseille","lat":43.276179,"lon":5.361009,"is_reserved":false,"is_disabled":false,"rental_uris":{"android":"levelo://app?vid=54cd5685-7875-428a-aac0-27b1fbac38e3","ios":"levelo://app?vid=54cd5685-7875-428a-aac0-27b1fbac38e3"},"vehicle_type_id":"4","last_reported":1700921134,"current_range_meters":31200,"station_id":"ce4bgj92rcd13ifvqbe0","pricing_plan_id":"free"},{"bike_id":"172839c6-1b7c-4140-abda-907a4cc0736c","system_id":"levelo_inurba_marseille","lat":43.27614,"lon":5.36101,"is_reserved":false,"is_disabled":false,"rental_uris":{"android":"levelo://app?vid=172839c6-1b7c-4140-abda-907a4cc0736c","ios":"levelo://app?vid=172839c6-1b7c-4140-abda-907a4cc0736c"},"vehicle_type_id":"4","last_reported":1700921134,"current_range_meters":21200,"station_id":"ce4bgj92rcd13ifvqbe0","pricing_plan_id":"free"},{"bike_id":"c25ea147-e804-4786-9d25-91f61a8ed59a","system_id":"levelo_inurba_marseille","lat":43.293651,"lon":5.41268,"is_reserved":false,"is_disabled":false,"rental_uris":{"android":"levelo://app?vid=c25ea147-e804-4786-9d25-91f61a8ed59a","ios":"levelo://app?vid=c25ea147-e804-4786-9d25-91f61a8ed59a"},"vehicle_type_id":"4","last_reported":1700921134,"current_range_meters":0,"station_id":"","pricing_plan_id":"free"},{"bike_id":"5d5ac311-b9ba-4673-ba04-8c2b02d7b37a","system_id":"levelo_inurba_marseille","lat":43.280784,"lon":5.396622,"is_reserved":false,"is_disabled":false,"rental_uris":{"android":"levelo://app?vid=5d5ac311-b9ba-4673-ba04-8c2b02d7b37a","ios":"levelo://app?vid=5d5ac311-b9ba-4673-ba04-8c2b02d7b37a"},"vehicle_type_id":"4","last_reported":1700921134,"current_range_meters":29200,"station_id":"ce4bho12rcd13ifvqh2g","pricing_plan_id":"free"},{"bike_id":"623cc478-6f3c-4d2e-9392-5df1d9d1dd67","system_id":"levelo_inurba_marseille","lat":43.280784,"lon":5.396622,"is_reserved":false,"is_disabled":false,"rental_uris":{"android":"levelo://app?vid=623cc478-6f3c-4d2e-9392-5df1d9d1dd67","ios":"levelo://app?vid=623cc478-6f3c-4d2e-9392-5df1d9d1dd67"},"vehicle_type_id":"4","last_reported":1700921134,"current_range_meters":12800,"station_id":"ce4bho12rcd13ifvqh2g","pricing_plan_id":"free"},{"bike_id":"17b933bf-422f-4c62-85c5-483474c034c4","system_id":"levelo_inurba_marseille","lat":43.280784,"lon":5.396622,"is_reserved":false,"is_disabled":false,"rental_uris":{"android":"levelo://app?vid=17b933bf-422f-4c62-85c5-483474c034c4","ios":"levelo://app?vid=17b933bf-422f-4c62-85c5-483474c034c4"},"vehicle_type_id":"4","last_reported":1700921134,"current_range_meters":16800,"station_id":"ce4bho12rcd13ifvqh2g","pricing_plan_id":"free"},{"bike_id":"187ad07c-ed6e-4a83-afdc-2d34d7e6865a","system_id":"levelo_inurba_marseille","lat":43.273613,"lon":5.362705,"is_reserved":false,"is_disabled":false,"rental_uris":{"android":"levelo://app?vid=187ad07c-ed6e-4a83-afdc-2d34d7e6865a","ios":"levelo://app?vid=187ad07c-ed6e-4a83-afdc-2d34d7e6865a"},"vehicle_type_id":"4","last_reported":1700921134,"current_range_meters":21600,"station_id":"ce4bhbh2rcd13ifvqeo0","pricing_plan_id":"free"},{"bike_id":"9b04727e-afbb-44e0-b1ff-0ebd3e38ec7b","system_id":"levelo_inurba_marseille","lat":43.33612,"lon":5.410321,"is_reserved":false,"is_disabled":false,"rental_uris":{"android":"levelo://app?vid=9b04727e-afbb-44e0-b1ff-0ebd3e38ec7b","ios":"levelo://app?vid=9b04727e-afbb-44e0-b1ff-0ebd3e38ec7b"},"vehicle_type_id":"4","last_reported":1700921134,"current_range_meters":20800,"station_id":"ce4bhqh2rcd13ifvqhmg","pricing_plan_id":"free"},{"bike_id":"5a5efdd6-6bd8-4276-ba71-296aa9e70631","system_id":"levelo_inurba_marseille","lat":43.33612,"lon":5.410321,"is_reserved":false,"is_disabled":false,"rental_uris":{"android":"levelo://app?vid=5a5efdd6-6bd8-4276-ba71-296aa9e70631","ios":"levelo://app?vid=5a5efdd6-6bd8-4276-ba71-296aa9e70631"},"vehicle_type_id":"4","last_reported":1700921134,"current_range_meters":21600,"station_id":"ce4bhqh2rcd13ifvqhmg","pricing_plan_id":"free"},{"bike_id":"65778d1b-c4c6-48e7-a7b5-0da12d73fd62","system_id":"levelo_inurba_marseille","lat":43.276769,"lon":5.388787,"is_reserved":false,"is_disabled":false,"rental_uris":{"android":"levelo://app?vid=65778d1b-c4c6-48e7-a7b5-0da12d73fd62","ios":"levelo://app?vid=65778d1b-c4c6-48e7-a7b5-0da12d73fd62"},"vehicle_type_id":"4","last_reported":1700921134,"current_range_meters":26000,"station_id":"ce4bhi12rcd13ifvqfo0","pricing_plan_id":"free"},{"bike_id":"211f360f-f9b2-49e9-813d-0b13db85eea3","system_id":"levelo_inurba_marseille","lat":43.276769,"lon":5.388787,"is_reserved":false,"is_disabled":false,"rental_uris":{"android":"levelo://app?vid=211f360f-f9b2-49e9-813d-0b13db85eea3","ios":"levelo://app?vid=211f360f-f9b2-49e9-813d-0b13db85eea3"},"vehicle_type_id":"4","last_reported":1700921134,"current_range_meters":22800,"station_id":"ce4bhi12rcd13ifvqfo0","pricing_plan_id":"free"},{"bike_id":"91215161-5014-45f6-a237-9df70268cba5","system_id":"levelo_inurba_marseille","lat":43.280045,"lon":5.400077,"is_reserved":false,"is_disabled":false,"rental_uris":{"android":"levelo://app?vid=91215161-5014-45f6-a237-9df70268cba5","ios":"levelo://app?vid=91215161-5014-45f6-a237-9df70268cba5"},"vehicle_type_id":"4","last_reported":1700921134,"current_range_meters":12800,"station_id":"ce4bho92rcd13ifvqh4g","pricing_plan_id":"free"},{"bike_id":"7fb40970-b4cb-4b6f-b51b-ff4f354575ae","system_id":"levelo_inurba_marseille","lat":43.279952,"lon":5.400085,"is_reserved":false,"is_disabled":false,"rental_uris":{"android":"levelo://app?vid=7fb40970-b4cb-4b6f-b51b-ff4f354575ae","ios":"levelo://app?vid=7fb40970-b4cb-4b6f-b51b-ff4f354575ae"},"vehicle_type_id":"4","last_reported":1700921134,"current_range_meters":16800,"station_id":"ce4bho92rcd13ifvqh4g","pricing_plan_id":"free"},{"bike_id":"0bdd442b-4f16-4277-88cc-be64a671c3ce","system_id":"levelo_inurba_marseille","lat":43.27999,"lon":5.40006,"is_reserved":false,"is_disabled":false,"rental_uris":{"android":"levelo://app?vid=0bdd442b-4f16-4277-88cc-be64a671c3ce","ios":"levelo://app?vid=0bdd442b-4f16-4277-88cc-be64a671c3ce"},"vehicle_type_id":"4","last_reported":1700921134,"current_range_meters":10000,"station_id":"ce4bho92rcd13ifvqh4g","pricing_plan_id":"free"},{"bike_id":"31a4ddc9-6a18-4dfe-b7dd-50c30c5d963b","system_id":"levelo_inurba_marseille","lat":43.27999,"lon":5.40012,"is_reserved":false,"is_disabled":false,"rental_uris":{"android":"levelo://app?vid=31a4ddc9-6a18-4dfe-b7dd-50c30c5d963b","ios":"levelo://app?vid=31a4ddc9-6a18-4dfe-b7dd-50c30c5d963b"},"vehicle_type_id":"4","last_reported":1700921134,"current_range_meters":25200,"station_id":"ce4bho92rcd13ifvqh4g","pricing_plan_id":"free"},{"bike_id":"e43adb03-57c4-45ac-a3da-a125f59bf6b4","system_id":"levelo_inurba_marseille","lat":43.27997,"lon":5.40009,"is_reserved":false,"is_disabled":false,"rental_uris":{"android":"levelo://app?vid=e43adb03-57c4-45ac-a3da-a125f59bf6b4","ios":"levelo://app?vid=e43adb03-57c4-45ac-a3da-a125f59bf6b4"},"vehicle_type_id":"4","last_reported":1700921134,"current_range_meters":12800,"station_id":"ce4bho92rcd13ifvqh4g","pricing_plan_id":"free"},{"bike_id":"561d56c0-616a-4955-bd15-b0e0ddd3d6ba","system_id":"levelo_inurba_marseille","lat":43.279952,"lon":5.400085,"is_reserved":false,"is_disabled":false,"rental_uris":{"android":"levelo://app?vid=561d56c0-616a-4955-bd15-b0e0ddd3d6ba","ios":"levelo://app?vid=561d56c0-616a-4955-bd15-b0e0ddd3d6ba"},"vehicle_type_id":"4","last_reported":1700921134,"current_range_meters":30800,"station_id":"ce4bho92rcd13ifvqh4g","pricing_plan_id":"free"},{"bike_id":"caecc40c-c3aa-4657-8ab6-da258dc2bd84","system_id":"levelo_inurba_marseille","lat":43.279952,"lon":5.400085,"is_reserved":false,"is_disabled":false,"rental_uris":{"android":"levelo://app?vid=caecc40c-c3aa-4657-8ab6-da258dc2bd84","ios":"levelo://app?vid=caecc40c-c3aa-4657-8ab6-da258dc2bd84"},"vehicle_type_id":"4","last_reported":1700921134,"current_range_meters":4800,"station_id":"ce4bho92rcd13ifvqh4g","pricing_plan_id":"free"},{"bike_id":"b13ed452-b20e-41ad-9c4a-25ac5c96fef3","system_id":"levelo_inurba_marseille","lat":43.27999,"lon":5.40019,"is_reserved":false,"is_disabled":false,"rental_uris":{"android":"levelo://app?vid=b13ed452-b20e-41ad-9c4a-25ac5c96fef3","ios":"levelo://app?vid=b13ed452-b20e-41ad-9c4a-25ac5c96fef3"},"vehicle_type_id":"4","last_reported":1700921134,"current_range_meters":6400,"station_id":"ce4bho92rcd13ifvqh4g","pricing_plan_id":"free"},{"bike_id":"5129acc1-7977-4d29-8689-fece97171c5b","system_id":"levelo_inurba_marseille","lat":43.310785,"lon":5.424305,"is_reserved":false,"is_disabled":false,"rental_uris":{"android":"levelo://app?vid=5129acc1-7977-4d29-8689-fece97171c5b","ios":"levelo://app?vid=5129acc1-7977-4d29-8689-fece97171c5b"},"vehicle_type_id":"4","last_reported":1700921134,"current_range_meters":18000,"station_id":"ce4bhp92rcd13ifvqhag","pricing_plan_id":"free"},{"bike_id":"d7f0b16e-772b-485e-b69e-f593c9f57977","system_id":"levelo_inurba_marseille","lat":43.274103,"lon":5.394016,"is_reserved":false,"is_disabled":false,"rental_uris":{"android":"levelo://app?vid=d7f0b16e-772b-485e-b69e-f593c9f57977","ios":"levelo://app?vid=d7f0b16e-772b-485e-b69e-f593c9f57977"},"vehicle_type_id":"4","last_reported":1700921134,"current_range_meters":0,"station_id":"ce4bhdp2rcd13ifvqf20","pricing_plan_id":"free"},{"bike_id":"79ce46f6-5e4f-4722-ae76-67b09c83e120","system_id":"levelo_inurba_marseille","lat":43.304096,"lon":5.425385,"is_reserved":false,"is_disabled":false,"rental_uris":{"android":"levelo://app?vid=79ce46f6-5e4f-4722-ae76-67b09c83e120","ios":"levelo://app?vid=79ce46f6-5e4f-4722-ae76-67b09c83e120"},"vehicle_type_id":"4","last_reported":1700921134,"current_range_meters":6400,"station_id":"ce4bhoh2rcd13ifvqh6g","pricing_plan_id":"free"},{"bike_id":"1052d100-bfed-4f3e-a202-ed9b2825b805","system_id":"levelo_inurba_marseille","lat":43.29558,"lon":5.42281,"is_reserved":false,"is_disabled":false,"rental_uris":{"android":"levelo://app?vid=1052d100-bfed-4f3e-a202-ed9b2825b805","ios":"levelo://app?vid=1052d100-bfed-4f3e-a202-ed9b2825b805"},"vehicle_type_id":"4","last_reported":1700921134,"current_range_meters":21600,"station_id":"ce4bhph2rcd13ifvqhdg","pricing_plan_id":"free"},{"bike_id":"d032f6fd-2fad-4d4b-840c-c4b36059bfc3","system_id":"levelo_inurba_marseille","lat":43.29556,"lon":5.42284,"is_reserved":false,"is_disabled":false,"rental_uris":{"android":"levelo://app?vid=d032f6fd-2fad-4d4b-840c-c4b36059bfc3","ios":"levelo://app?vid=d032f6fd-2fad-4d4b-840c-c4b36059bfc3"},"vehicle_type_id":"4","last_reported":1700921134,"current_range_meters":29600,"station_id":"ce4bhph2rcd13ifvqhdg","pricing_plan_id":"free"},{"bike_id":"9c85e899-cb02-4c2d-924a-68fe502d7691","system_id":"levelo_inurba_marseille","lat":43.295511,"lon":5.422926,"is_reserved":false,"is_disabled":false,"rental_uris":{"android":"levelo://app?vid=9c85e899-cb02-4c2d-924a-68fe502d7691","ios":"levelo://app?vid=9c85e899-cb02-4c2d-924a-68fe502d7691"},"vehicle_type_id":"4","last_reported":1700921134,"current_range_meters":12800,"station_id":"ce4bhph2rcd13ifvqhdg","pricing_plan_id":"free"},{"bike_id":"b8ec66c1-b96c-4a7d-ac29-d41142575cc0","system_id":"levelo_inurba_marseille","lat":43.27208,"lon":5.39181,"is_reserved":false,"is_disabled":false,"rental_uris":{"android":"levelo://app?vid=b8ec66c1-b96c-4a7d-ac29-d41142575cc0","ios":"levelo://app?vid=b8ec66c1-b96c-4a7d-ac29-d41142575cc0"},"vehicle_type_id":"4","last_reported":1700921134,"current_range_meters":22000,"station_id":"ce4bhhp2rcd13ifvqfm0","pricing_plan_id":"free"},{"bike_id":"43ed9665-e95e-419a-8247-de53590de4e3","system_id":"levelo_inurba_marseille","lat":43.27817,"lon":5.40722,"is_reserved":false,"is_disabled":false,"rental_uris":{"android":"levelo://app?vid=43ed9665-e95e-419a-8247-de53590de4e3","ios":"levelo://app?vid=43ed9665-e95e-419a-8247-de53590de4e3"},"vehicle_type_id":"4","last_reported":1700921134,"current_range_meters":28800,"station_id":"ce4bhnh2rcd13ifvqgtg","pricing_plan_id":"free"},{"bike_id":"4de0236b-3eba-456e-a730-01e948dcb78e","system_id":"levelo_inurba_marseille","lat":43.27814,"lon":5.407195,"is_reserved":false,"is_disabled":false,"rental_uris":{"android":"levelo://app?vid=4de0236b-3eba-456e-a730-01e948dcb78e","ios":"levelo://app?vid=4de0236b-3eba-456e-a730-01e948dcb78e"},"vehicle_type_id":"4","last_reported":1700921134,"current_range_meters":0,"station_id":"ce4bhnh2rcd13ifvqgtg","pricing_plan_id":"free"},{"bike_id":"5d8dd0a6-d6ce-472c-8605-b1618cbc6442","system_id":"levelo_inurba_marseille","lat":43.26559,"lon":5.37296,"is_reserved":false,"is_disabled":false,"rental_uris":{"android":"levelo://app?vid=5d8dd0a6-d6ce-472c-8605-b1618cbc6442","ios":"levelo://app?vid=5d8dd0a6-d6ce-472c-8605-b1618cbc6442"},"vehicle_type_id":"4","last_reported":1700921134,"current_range_meters":24000,"station_id":"ce4bhg12rcd13ifvqf70","pricing_plan_id":"free"},{"bike_id":"6a294583-8a22-4f3d-b383-fd77450a83a0","system_id":"levelo_inurba_marseille","lat":43.265714,"lon":5.372891,"is_reserved":false,"is_disabled":false,"rental_uris":{"android":"levelo://app?vid=6a294583-8a22-4f3d-b383-fd77450a83a0","ios":"levelo://app?vid=6a294583-8a22-4f3d-b383-fd77450a83a0"},"vehicle_type_id":"4","last_reported":1700921134,"current_range_meters":15600,"station_id":"ce4bhg12rcd13ifvqf70","pricing_plan_id":"free"},{"bike_id":"0d2c39ff-7af0-41b6-a095-e0a68bc71e9f","system_id":"levelo_inurba_marseille","lat":43.265714,"lon":5.372891,"is_reserved":false,"is_disabled":false,"rental_uris":{"android":"levelo://app?vid=0d2c39ff-7af0-41b6-a095-e0a68bc71e9f","ios":"levelo://app?vid=0d2c39ff-7af0-41b6-a095-e0a68bc71e9f"},"vehicle_type_id":"4","last_reported":1700921134,"current_range_meters":23200,"station_id":"ce4bhg12rcd13ifvqf70","pricing_plan_id":"free"},{"bike_id":"a5cb4338-e630-40c3-b27a-3700703da06c","system_id":"levelo_inurba_marseille","lat":43.265714,"lon":5.372891,"is_reserved":false,"is_disabled":false,"rental_uris":{"android":"levelo://app?vid=a5cb4338-e630-40c3-b27a-3700703da06c","ios":"levelo://app?vid=a5cb4338-e630-40c3-b27a-3700703da06c"},"vehicle_type_id":"4","last_reported":1700921134,"current_range_meters":21200,"station_id":"ce4bhg12rcd13ifvqf70","pricing_plan_id":"free"},{"bike_id":"f23d8119-b478-4639-98c5-6883279f9f84","system_id":"levelo_inurba_marseille","lat":43.32592,"lon":5.43067,"is_reserved":false,"is_disabled":false,"rental_uris":{"android":"levelo://app?vid=f23d8119-b478-4639-98c5-6883279f9f84","ios":"levelo://app?vid=f23d8119-b478-4639-98c5-6883279f9f84"},"vehicle_type_id":"4","last_reported":1700921134,"current_range_meters":26400,"station_id":"","pricing_plan_id":"free"},{"bike_id":"e7b368e8-9edf-4ac8-acef-7e9558d427aa","system_id":"levelo_inurba_marseille","lat":43.32591,"lon":5.430713,"is_reserved":false,"is_disabled":false,"rental_uris":{"android":"levelo://app?vid=e7b368e8-9edf-4ac8-acef-7e9558d427aa","ios":"levelo://app?vid=e7b368e8-9edf-4ac8-acef-7e9558d427aa"},"vehicle_type_id":"4","last_reported":1700921134,"current_range_meters":0,"station_id":"","pricing_plan_id":"free"},{"bike_id":"ed30d6a1-b23a-49e5-9c83-5546be72a734","system_id":"levelo_inurba_marseille","lat":43.3259,"lon":5.43075,"is_reserved":false,"is_disabled":false,"rental_uris":{"android":"levelo://app?vid=ed30d6a1-b23a-49e5-9c83-5546be72a734","ios":"levelo://app?vid=ed30d6a1-b23a-49e5-9c83-5546be72a734"},"vehicle_type_id":"4","last_reported":1700921134,"current_range_meters":21200,"station_id":"","pricing_plan_id":"free"},{"bike_id":"d67469ee-5362-4610-a163-fe05ae3cf4f7","system_id":"levelo_inurba_marseille","lat":43.32604,"lon":5.430817,"is_reserved":false,"is_disabled":false,"rental_uris":{"android":"levelo://app?vid=d67469ee-5362-4610-a163-fe05ae3cf4f7","ios":"levelo://app?vid=d67469ee-5362-4610-a163-fe05ae3cf4f7"},"vehicle_type_id":"4","last_reported":1700921134,"current_range_meters":9600,"station_id":"","pricing_plan_id":"free"},{"bike_id":"811ac078-90b0-4d75-baa5-41a5d7c5d43c","system_id":"levelo_inurba_marseille","lat":43.265714,"lon":5.372891,"is_reserved":false,"is_disabled":false,"rental_uris":{"android":"levelo://app?vid=811ac078-90b0-4d75-baa5-41a5d7c5d43c","ios":"levelo://app?vid=811ac078-90b0-4d75-baa5-41a5d7c5d43c"},"vehicle_type_id":"4","last_reported":1700921134,"current_range_meters":23600,"station_id":"ce4bhg12rcd13ifvqf70","pricing_plan_id":"free"},{"bike_id":"d722d7d0-189d-4d49-857e-6bf57e45a5f5","system_id":"levelo_inurba_marseille","lat":43.267966,"lon":5.393976,"is_reserved":false,"is_disabled":false,"rental_uris":{"android":"levelo://app?vid=d722d7d0-189d-4d49-857e-6bf57e45a5f5","ios":"levelo://app?vid=d722d7d0-189d-4d49-857e-6bf57e45a5f5"},"vehicle_type_id":"4","last_reported":1700921134,"current_range_meters":10800,"station_id":"ce4bhh12rcd13ifvqfg0","pricing_plan_id":"free"},{"bike_id":"092fdc46-fe12-4ace-ad6f-3e41a257fcf0","system_id":"levelo_inurba_marseille","lat":43.267966,"lon":5.393976,"is_reserved":false,"is_disabled":false,"rental_uris":{"android":"levelo://app?vid=092fdc46-fe12-4ace-ad6f-3e41a257fcf0","ios":"levelo://app?vid=092fdc46-fe12-4ace-ad6f-3e41a257fcf0"},"vehicle_type_id":"4","last_reported":1700921134,"current_range_meters":0,"station_id":"ce4bhh12rcd13ifvqfg0","pricing_plan_id":"free"},{"bike_id":"2b5f0b27-ae58-4e9e-bd76-c585f78e8a73","system_id":"levelo_inurba_marseille","lat":43.26386,"lon":5.37454,"is_reserved":false,"is_disabled":false,"rental_uris":{"android":"levelo://app?vid=2b5f0b27-ae58-4e9e-bd76-c585f78e8a73","ios":"levelo://app?vid=2b5f0b27-ae58-4e9e-bd76-c585f78e8a73"},"vehicle_type_id":"4","last_reported":1700921134,"current_range_meters":10800,"station_id":"","pricing_plan_id":"free"},{"bike_id":"9e691c7c-de2a-416d-9f15-094160bf3de4","system_id":"levelo_inurba_marseille","lat":43.2657,"lon":5.3901,"is_reserved":false,"is_disabled":false,"rental_uris":{"android":"levelo://app?vid=9e691c7c-de2a-416d-9f15-094160bf3de4","ios":"levelo://app?vid=9e691c7c-de2a-416d-9f15-094160bf3de4"},"vehicle_type_id":"4","last_reported":1700921134,"current_range_meters":18000,"station_id":"ce4bhe12rcd13ifvqf30","pricing_plan_id":"free"},{"bike_id":"20b749f0-9636-40b2-bb6d-6ad36567699d","system_id":"levelo_inurba_marseille","lat":43.26565,"lon":5.39003,"is_reserved":false,"is_disabled":false,"rental_uris":{"android":"levelo://app?vid=20b749f0-9636-40b2-bb6d-6ad36567699d","ios":"levelo://app?vid=20b749f0-9636-40b2-bb6d-6ad36567699d"},"vehicle_type_id":"4","last_reported":1700921134,"current_range_meters":0,"station_id":"ce4bhe12rcd13ifvqf30","pricing_plan_id":"free"},{"bike_id":"7e069ca0-1860-42fd-a0ca-8e88d4c665ec","system_id":"levelo_inurba_marseille","lat":43.26944,"lon":5.40255,"is_reserved":false,"is_disabled":false,"rental_uris":{"android":"levelo://app?vid=7e069ca0-1860-42fd-a0ca-8e88d4c665ec","ios":"levelo://app?vid=7e069ca0-1860-42fd-a0ca-8e88d4c665ec"},"vehicle_type_id":"4","last_reported":1700921134,"current_range_meters":21600,"station_id":"cjm6bp8fraef2m0cb0m0","pricing_plan_id":"free"},{"bike_id":"633fc580-5db5-4249-b1c6-00f056089aef","system_id":"levelo_inurba_marseille","lat":43.2694,"lon":5.402535,"is_reserved":false,"is_disabled":false,"rental_uris":{"android":"levelo://app?vid=633fc580-5db5-4249-b1c6-00f056089aef","ios":"levelo://app?vid=633fc580-5db5-4249-b1c6-00f056089aef"},"vehicle_type_id":"4","last_reported":1700921134,"current_range_meters":29600,"station_id":"cjm6bp8fraef2m0cb0m0","pricing_plan_id":"free"},{"bike_id":"b31a2a0d-1d54-454b-837f-16f48a4ead1d","system_id":"levelo_inurba_marseille","lat":43.26949,"lon":5.40262,"is_reserved":false,"is_disabled":false,"rental_uris":{"android":"levelo://app?vid=b31a2a0d-1d54-454b-837f-16f48a4ead1d","ios":"levelo://app?vid=b31a2a0d-1d54-454b-837f-16f48a4ead1d"},"vehicle_type_id":"4","last_reported":1700921134,"current_range_meters":25600,"station_id":"cjm6bp8fraef2m0cb0m0","pricing_plan_id":"free"},{"bike_id":"1b98b7d3-c287-45d9-80ab-ed0171f3329e","system_id":"levelo_inurba_marseille","lat":43.317104,"lon":5.436818,"is_reserved":false,"is_disabled":false,"rental_uris":{"android":"levelo://app?vid=1b98b7d3-c287-45d9-80ab-ed0171f3329e","ios":"levelo://app?vid=1b98b7d3-c287-45d9-80ab-ed0171f3329e"},"vehicle_type_id":"4","last_reported":1700921134,"current_range_meters":30800,"station_id":"ce4bhp92rcd13ifvqhcg","pricing_plan_id":"free"},{"bike_id":"2c4d5ebd-20a5-4930-b6d4-59de038f9215","system_id":"levelo_inurba_marseille","lat":43.262012,"lon":5.379307,"is_reserved":false,"is_disabled":false,"rental_uris":{"android":"levelo://app?vid=2c4d5ebd-20a5-4930-b6d4-59de038f9215","ios":"levelo://app?vid=2c4d5ebd-20a5-4930-b6d4-59de038f9215"},"vehicle_type_id":"4","last_reported":1700921134,"current_range_meters":27600,"station_id":"ce4bhjp2rcd13ifvqg90","pricing_plan_id":"free"},{"bike_id":"c6f7ee2b-36b4-4f2d-9f3f-15838fc5f61e","system_id":"levelo_inurba_marseille","lat":43.271388,"lon":5.409269,"is_reserved":false,"is_disabled":false,"rental_uris":{"android":"levelo://app?vid=c6f7ee2b-36b4-4f2d-9f3f-15838fc5f61e","ios":"levelo://app?vid=c6f7ee2b-36b4-4f2d-9f3f-15838fc5f61e"},"vehicle_type_id":"4","last_reported":1700921134,"current_range_meters":26800,"station_id":"ce4bhl12rcd13ifvqgf0","pricing_plan_id":"free"},{"bike_id":"dbf62bfb-d43b-46dc-b301-0e9e00d707fe","system_id":"levelo_inurba_marseille","lat":43.26174,"lon":5.379017,"is_reserved":false,"is_disabled":false,"rental_uris":{"android":"levelo://app?vid=dbf62bfb-d43b-46dc-b301-0e9e00d707fe","ios":"levelo://app?vid=dbf62bfb-d43b-46dc-b301-0e9e00d707fe"},"vehicle_type_id":"4","last_reported":1700921134,"current_range_meters":28400,"station_id":"ce4bhjp2rcd13ifvqg90","pricing_plan_id":"free"},{"bike_id":"7c5a83ac-336c-4b91-a5ea-82b3c6d6127d","system_id":"levelo_inurba_marseille","lat":43.298768,"lon":5.43643,"is_reserved":false,"is_disabled":false,"rental_uris":{"android":"levelo://app?vid=7c5a83ac-336c-4b91-a5ea-82b3c6d6127d","ios":"levelo://app?vid=7c5a83ac-336c-4b91-a5ea-82b3c6d6127d"},"vehicle_type_id":"4","last_reported":1700921134,"current_range_meters":31600,"station_id":"ce4bhpp2rcd13ifvqhfg","pricing_plan_id":"free"},{"bike_id":"91794d0e-e2e6-4dd9-a1b6-ff7501e49342","system_id":"levelo_inurba_marseille","lat":43.29899,"lon":5.43671,"is_reserved":false,"is_disabled":false,"rental_uris":{"android":"levelo://app?vid=91794d0e-e2e6-4dd9-a1b6-ff7501e49342","ios":"levelo://app?vid=91794d0e-e2e6-4dd9-a1b6-ff7501e49342"},"vehicle_type_id":"4","last_reported":1700921134,"current_range_meters":31200,"station_id":"ce4bhpp2rcd13ifvqhfg","pricing_plan_id":"free"},{"bike_id":"8af0d2ed-93d1-485d-9803-40c71e52d0d9","system_id":"levelo_inurba_marseille","lat":43.29901,"lon":5.43672,"is_reserved":false,"is_disabled":false,"rental_uris":{"android":"levelo://app?vid=8af0d2ed-93d1-485d-9803-40c71e52d0d9","ios":"levelo://app?vid=8af0d2ed-93d1-485d-9803-40c71e52d0d9"},"vehicle_type_id":"4","last_reported":1700921134,"current_range_meters":13600,"station_id":"ce4bhpp2rcd13ifvqhfg","pricing_plan_id":"free"},{"bike_id":"20fa000c-3001-43af-a8d5-b2773f495c35","system_id":"levelo_inurba_marseille","lat":43.298768,"lon":5.43643,"is_reserved":false,"is_disabled":false,"rental_uris":{"android":"levelo://app?vid=20fa000c-3001-43af-a8d5-b2773f495c35","ios":"levelo://app?vid=20fa000c-3001-43af-a8d5-b2773f495c35"},"vehicle_type_id":"4","last_reported":1700921134,"current_range_meters":14800,"station_id":"ce4bhpp2rcd13ifvqhfg","pricing_plan_id":"free"},{"bike_id":"f0185995-5ea5-4188-8b2e-cb34dfece5eb","system_id":"levelo_inurba_marseille","lat":43.298768,"lon":5.43643,"is_reserved":false,"is_disabled":false,"rental_uris":{"android":"levelo://app?vid=f0185995-5ea5-4188-8b2e-cb34dfece5eb","ios":"levelo://app?vid=f0185995-5ea5-4188-8b2e-cb34dfece5eb"},"vehicle_type_id":"4","last_reported":1700921134,"current_range_meters":29200,"station_id":"ce4bhpp2rcd13ifvqhfg","pricing_plan_id":"free"},{"bike_id":"9766722c-3e9d-46e0-af74-79605b4d1c01","system_id":"levelo_inurba_marseille","lat":43.260219,"lon":5.37546,"is_reserved":false,"is_disabled":false,"rental_uris":{"android":"levelo://app?vid=9766722c-3e9d-46e0-af74-79605b4d1c01","ios":"levelo://app?vid=9766722c-3e9d-46e0-af74-79605b4d1c01"},"vehicle_type_id":"4","last_reported":1700921134,"current_range_meters":6400,"station_id":"ce4bhgh2rcd13ifvqfa0","pricing_plan_id":"free"},{"bike_id":"5ac38179-4d98-4b89-80f2-dc6cd474e479","system_id":"levelo_inurba_marseille","lat":43.28153,"lon":5.42638,"is_reserved":false,"is_disabled":false,"rental_uris":{"android":"levelo://app?vid=5ac38179-4d98-4b89-80f2-dc6cd474e479","ios":"levelo://app?vid=5ac38179-4d98-4b89-80f2-dc6cd474e479"},"vehicle_type_id":"4","last_reported":1700921134,"current_range_meters":16400,"station_id":"ce4bhnh2rcd13ifvqgug","pricing_plan_id":"free"},{"bike_id":"5cc76595-4035-4213-b74e-41dabe622aaf","system_id":"levelo_inurba_marseille","lat":43.281504,"lon":5.426425,"is_reserved":false,"is_disabled":false,"rental_uris":{"android":"levelo://app?vid=5cc76595-4035-4213-b74e-41dabe622aaf","ios":"levelo://app?vid=5cc76595-4035-4213-b74e-41dabe622aaf"},"vehicle_type_id":"4","last_reported":1700921134,"current_range_meters":4000,"station_id":"ce4bhnh2rcd13ifvqgug","pricing_plan_id":"free"},{"bike_id":"6181795c-d57f-4dce-a524-f46690bf06cb","system_id":"levelo_inurba_marseille","lat":43.281502,"lon":5.426506,"is_reserved":false,"is_disabled":false,"rental_uris":{"android":"levelo://app?vid=6181795c-d57f-4dce-a524-f46690bf06cb","ios":"levelo://app?vid=6181795c-d57f-4dce-a524-f46690bf06cb"},"vehicle_type_id":"4","last_reported":1700921134,"current_range_meters":25200,"station_id":"ce4bhnh2rcd13ifvqgug","pricing_plan_id":"free"},{"bike_id":"2cf79fbd-faae-4217-9c35-5a2651a77669","system_id":"levelo_inurba_marseille","lat":43.2607,"lon":5.393983,"is_reserved":false,"is_disabled":false,"rental_uris":{"android":"levelo://app?vid=2cf79fbd-faae-4217-9c35-5a2651a77669","ios":"levelo://app?vid=2cf79fbd-faae-4217-9c35-5a2651a77669"},"vehicle_type_id":"4","last_reported":1700921134,"current_range_meters":30000,"station_id":"ce4bhh92rcd13ifvqfj0","pricing_plan_id":"free"},{"bike_id":"24f1bf1f-5268-45e6-a816-869a92bcc51d","system_id":"levelo_inurba_marseille","lat":43.275028,"lon":5.424534,"is_reserved":false,"is_disabled":false,"rental_uris":{"android":"levelo://app?vid=24f1bf1f-5268-45e6-a816-869a92bcc51d","ios":"levelo://app?vid=24f1bf1f-5268-45e6-a816-869a92bcc51d"},"vehicle_type_id":"4","last_reported":1700921134,"current_range_meters":31200,"station_id":"ce4bhn92rcd13ifvqgrg","pricing_plan_id":"free"},{"bike_id":"c85f7616-3a9e-47a4-ae16-28a03e51ab4f","system_id":"levelo_inurba_marseille","lat":43.28933,"lon":5.43865,"is_reserved":false,"is_disabled":false,"rental_uris":{"android":"levelo://app?vid=c85f7616-3a9e-47a4-ae16-28a03e51ab4f","ios":"levelo://app?vid=c85f7616-3a9e-47a4-ae16-28a03e51ab4f"},"vehicle_type_id":"4","last_reported":1700921134,"current_range_meters":7600,"station_id":"","pricing_plan_id":"free"},{"bike_id":"cb661aeb-4af0-48a9-a611-215d2a679905","system_id":"levelo_inurba_marseille","lat":43.25579,"lon":5.38241,"is_reserved":false,"is_disabled":false,"rental_uris":{"android":"levelo://app?vid=cb661aeb-4af0-48a9-a611-215d2a679905","ios":"levelo://app?vid=cb661aeb-4af0-48a9-a611-215d2a679905"},"vehicle_type_id":"4","last_reported":1700921134,"current_range_meters":400,"station_id":"ce4bhih2rcd13ifvqfs0","pricing_plan_id":"free"},{"bike_id":"d8474369-1a04-4104-9fc4-5457ce1a56ee","system_id":"levelo_inurba_marseille","lat":43.254945,"lon":5.376454,"is_reserved":false,"is_disabled":false,"rental_uris":{"android":"levelo://app?vid=d8474369-1a04-4104-9fc4-5457ce1a56ee","ios":"levelo://app?vid=d8474369-1a04-4104-9fc4-5457ce1a56ee"},"vehicle_type_id":"4","last_reported":1700921134,"current_range_meters":9200,"station_id":"ce4bhh12rcd13ifvqff0","pricing_plan_id":"free"},{"bike_id":"7596707c-49c3-4eae-95e1-008467641ac2","system_id":"levelo_inurba_marseille","lat":43.270721,"lon":5.422764,"is_reserved":false,"is_disabled":false,"rental_uris":{"android":"levelo://app?vid=7596707c-49c3-4eae-95e1-008467641ac2","ios":"levelo://app?vid=7596707c-49c3-4eae-95e1-008467641ac2"},"vehicle_type_id":"4","last_reported":1700921134,"current_range_meters":31200,"station_id":"ce4bhk92rcd13ifvqgb0","pricing_plan_id":"free"},{"bike_id":"ad657e31-d5a7-459b-a7ef-89532e280c6c","system_id":"levelo_inurba_marseille","lat":43.270721,"lon":5.422764,"is_reserved":false,"is_disabled":false,"rental_uris":{"android":"levelo://app?vid=ad657e31-d5a7-459b-a7ef-89532e280c6c","ios":"levelo://app?vid=ad657e31-d5a7-459b-a7ef-89532e280c6c"},"vehicle_type_id":"4","last_reported":1700921134,"current_range_meters":25600,"station_id":"ce4bhk92rcd13ifvqgb0","pricing_plan_id":"free"},{"bike_id":"4efeab10-fc64-4315-b907-003206a4c0c2","system_id":"levelo_inurba_marseille","lat":43.270721,"lon":5.422764,"is_reserved":false,"is_disabled":false,"rental_uris":{"android":"levelo://app?vid=4efeab10-fc64-4315-b907-003206a4c0c2","ios":"levelo://app?vid=4efeab10-fc64-4315-b907-003206a4c0c2"},"vehicle_type_id":"4","last_reported":1700921134,"current_range_meters":20800,"station_id":"ce4bhk92rcd13ifvqgb0","pricing_plan_id":"free"},{"bike_id":"d1b6476d-a5fa-4b54-b0b6-959b14ca8e89","system_id":"levelo_inurba_marseille","lat":43.258658,"lon":5.398935,"is_reserved":false,"is_disabled":false,"rental_uris":{"android":"levelo://app?vid=d1b6476d-a5fa-4b54-b0b6-959b14ca8e89","ios":"levelo://app?vid=d1b6476d-a5fa-4b54-b0b6-959b14ca8e89"},"vehicle_type_id":"4","last_reported":1700921134,"current_range_meters":20000,"station_id":"ce4bhl92rcd13ifvqghg","pricing_plan_id":"free"},{"bike_id":"34b8976c-6036-4b67-9ec8-e013a6ceb002","system_id":"levelo_inurba_marseille","lat":43.25929,"lon":5.40909,"is_reserved":false,"is_disabled":false,"rental_uris":{"android":"levelo://app?vid=34b8976c-6036-4b67-9ec8-e013a6ceb002","ios":"levelo://app?vid=34b8976c-6036-4b67-9ec8-e013a6ceb002"},"vehicle_type_id":"4","last_reported":1700921134,"current_range_meters":28800,"station_id":"ce4bhm92rcd13ifvqglg","pricing_plan_id":"free"},{"bike_id":"e7b3c7e8-dfd6-494c-9f79-fd54c248750d","system_id":"levelo_inurba_marseille","lat":43.259013,"lon":5.409301,"is_reserved":false,"is_disabled":false,"rental_uris":{"android":"levelo://app?vid=e7b3c7e8-dfd6-494c-9f79-fd54c248750d","ios":"levelo://app?vid=e7b3c7e8-dfd6-494c-9f79-fd54c248750d"},"vehicle_type_id":"4","last_reported":1700921134,"current_range_meters":9200,"station_id":"ce4bhm92rcd13ifvqglg","pricing_plan_id":"free"},{"bike_id":"6f98162c-1f46-4560-8fd1-8a0f0913e7e4","system_id":"levelo_inurba_marseille","lat":43.258403,"lon":5.409196,"is_reserved":false,"is_disabled":false,"rental_uris":{"android":"levelo://app?vid=6f98162c-1f46-4560-8fd1-8a0f0913e7e4","ios":"levelo://app?vid=6f98162c-1f46-4560-8fd1-8a0f0913e7e4"},"vehicle_type_id":"4","last_reported":1700921134,"current_range_meters":17200,"station_id":"ce4bhm92rcd13ifvqglg","pricing_plan_id":"free"},{"bike_id":"09d25779-2227-45a6-98fb-aacf35cb6d23","system_id":"levelo_inurba_marseille","lat":43.250009,"lon":5.389195,"is_reserved":false,"is_disabled":false,"rental_uris":{"android":"levelo://app?vid=09d25779-2227-45a6-98fb-aacf35cb6d23","ios":"levelo://app?vid=09d25779-2227-45a6-98fb-aacf35cb6d23"},"vehicle_type_id":"4","last_reported":1700921134,"current_range_meters":18800,"station_id":"ce4bhgp2rcd13ifvqfd0","pricing_plan_id":"free"},{"bike_id":"a3be9485-cff3-4e27-8c3b-3cee57b723cd","system_id":"levelo_inurba_marseille","lat":43.2479,"lon":5.374457,"is_reserved":false,"is_disabled":false,"rental_uris":{"android":"levelo://app?vid=a3be9485-cff3-4e27-8c3b-3cee57b723cd","ios":"levelo://app?vid=a3be9485-cff3-4e27-8c3b-3cee57b723cd"},"vehicle_type_id":"4","last_reported":1700921134,"current_range_meters":22000,"station_id":"ce4bhgh2rcd13ifvqfb0","pricing_plan_id":"free"},{"bike_id":"10c62fae-8a47-463b-8792-10f3343efd0c","system_id":"levelo_inurba_marseille","lat":43.2479,"lon":5.374457,"is_reserved":false,"is_disabled":false,"rental_uris":{"android":"levelo://app?vid=10c62fae-8a47-463b-8792-10f3343efd0c","ios":"levelo://app?vid=10c62fae-8a47-463b-8792-10f3343efd0c"},"vehicle_type_id":"4","last_reported":1700921134,"current_range_meters":17600,"station_id":"ce4bhgh2rcd13ifvqfb0","pricing_plan_id":"free"},{"bike_id":"9f25f169-67f2-47e3-af1e-d9938ed07875","system_id":"levelo_inurba_marseille","lat":43.2479,"lon":5.374457,"is_reserved":false,"is_disabled":false,"rental_uris":{"android":"levelo://app?vid=9f25f169-67f2-47e3-af1e-d9938ed07875","ios":"levelo://app?vid=9f25f169-67f2-47e3-af1e-d9938ed07875"},"vehicle_type_id":"4","last_reported":1700921134,"current_range_meters":5600,"station_id":"ce4bhgh2rcd13ifvqfb0","pricing_plan_id":"free"},{"bike_id":"146c5532-221f-40b3-a289-277c790358a8","system_id":"levelo_inurba_marseille","lat":43.250897,"lon":5.395161,"is_reserved":false,"is_disabled":false,"rental_uris":{"android":"levelo://app?vid=146c5532-221f-40b3-a289-277c790358a8","ios":"levelo://app?vid=146c5532-221f-40b3-a289-277c790358a8"},"vehicle_type_id":"4","last_reported":1700921134,"current_range_meters":28000,"station_id":"ce4bhm12rcd13ifvqgkg","pricing_plan_id":"free"},{"bike_id":"4e22f755-9fb8-454a-aed8-0ce31691dc80","system_id":"levelo_inurba_marseille","lat":43.2473,"lon":5.37395,"is_reserved":false,"is_disabled":false,"rental_uris":{"android":"levelo://app?vid=4e22f755-9fb8-454a-aed8-0ce31691dc80","ios":"levelo://app?vid=4e22f755-9fb8-454a-aed8-0ce31691dc80"},"vehicle_type_id":"4","last_reported":1700921134,"current_range_meters":19200,"station_id":"","pricing_plan_id":"free"},{"bike_id":"a8123fe9-ac5d-4188-9592-822f8f09d18c","system_id":"levelo_inurba_marseille","lat":43.24693,"lon":5.382096,"is_reserved":false,"is_disabled":false,"rental_uris":{"android":"levelo://app?vid=a8123fe9-ac5d-4188-9592-822f8f09d18c","ios":"levelo://app?vid=a8123fe9-ac5d-4188-9592-822f8f09d18c"},"vehicle_type_id":"4","last_reported":1700921134,"current_range_meters":29200,"station_id":"ce4bhih2rcd13ifvqfr0","pricing_plan_id":"free"},{"bike_id":"6d0da73b-49d9-43b5-8217-96a13e6ecf92","system_id":"levelo_inurba_marseille","lat":43.25102,"lon":5.403214,"is_reserved":false,"is_disabled":false,"rental_uris":{"android":"levelo://app?vid=6d0da73b-49d9-43b5-8217-96a13e6ecf92","ios":"levelo://app?vid=6d0da73b-49d9-43b5-8217-96a13e6ecf92"},"vehicle_type_id":"4","last_reported":1700921134,"current_range_meters":25600,"station_id":"ce4bhlh2rcd13ifvqgig","pricing_plan_id":"free"},{"bike_id":"3ab2f497-0219-42ba-b15d-49e2b0e7a5a2","system_id":"levelo_inurba_marseille","lat":43.246467,"lon":5.388984,"is_reserved":false,"is_disabled":false,"rental_uris":{"android":"levelo://app?vid=3ab2f497-0219-42ba-b15d-49e2b0e7a5a2","ios":"levelo://app?vid=3ab2f497-0219-42ba-b15d-49e2b0e7a5a2"},"vehicle_type_id":"4","last_reported":1700921134,"current_range_meters":15600,"station_id":"ce4bhg12rcd13ifvqf60","pricing_plan_id":"free"},{"bike_id":"16cbc471-e842-49b7-be91-1309994883e2","system_id":"levelo_inurba_marseille","lat":43.24642,"lon":5.38894,"is_reserved":false,"is_disabled":false,"rental_uris":{"android":"levelo://app?vid=16cbc471-e842-49b7-be91-1309994883e2","ios":"levelo://app?vid=16cbc471-e842-49b7-be91-1309994883e2"},"vehicle_type_id":"4","last_reported":1700921134,"current_range_meters":25600,"station_id":"ce4bhg12rcd13ifvqf60","pricing_plan_id":"free"},{"bike_id":"21250e32-4f07-423b-9e58-726b2352f4f3","system_id":"levelo_inurba_marseille","lat":43.243884,"lon":5.370737,"is_reserved":false,"is_disabled":false,"rental_uris":{"android":"levelo://app?vid=21250e32-4f07-423b-9e58-726b2352f4f3","ios":"levelo://app?vid=21250e32-4f07-423b-9e58-726b2352f4f3"},"vehicle_type_id":"4","last_reported":1700921134,"current_range_meters":31200,"station_id":"ce4bhhh2rcd13ifvqfk0","pricing_plan_id":"free"},{"bike_id":"9ff23e9c-4857-4664-b1e1-defd32203730","system_id":"levelo_inurba_marseille","lat":43.243884,"lon":5.370737,"is_reserved":false,"is_disabled":false,"rental_uris":{"android":"levelo://app?vid=9ff23e9c-4857-4664-b1e1-defd32203730","ios":"levelo://app?vid=9ff23e9c-4857-4664-b1e1-defd32203730"},"vehicle_type_id":"4","last_reported":1700921134,"current_range_meters":31200,"station_id":"ce4bhhh2rcd13ifvqfk0","pricing_plan_id":"free"},{"bike_id":"90604205-3676-4845-9812-e9f9728828ed","system_id":"levelo_inurba_marseille","lat":43.243884,"lon":5.370737,"is_reserved":false,"is_disabled":false,"rental_uris":{"android":"levelo://app?vid=90604205-3676-4845-9812-e9f9728828ed","ios":"levelo://app?vid=90604205-3676-4845-9812-e9f9728828ed"},"vehicle_type_id":"4","last_reported":1700921134,"current_range_meters":30800,"station_id":"ce4bhhh2rcd13ifvqfk0","pricing_plan_id":"free"},{"bike_id":"33dded6d-c001-4bce-bbc5-04b6725cd25d","system_id":"levelo_inurba_marseille","lat":43.243884,"lon":5.370737,"is_reserved":false,"is_disabled":false,"rental_uris":{"android":"levelo://app?vid=33dded6d-c001-4bce-bbc5-04b6725cd25d","ios":"levelo://app?vid=33dded6d-c001-4bce-bbc5-04b6725cd25d"},"vehicle_type_id":"4","last_reported":1700921134,"current_range_meters":20400,"station_id":"ce4bhhh2rcd13ifvqfk0","pricing_plan_id":"free"},{"bike_id":"d31e89dd-3bc6-41bd-acc1-e10c48af2934","system_id":"levelo_inurba_marseille","lat":43.243884,"lon":5.370737,"is_reserved":false,"is_disabled":false,"rental_uris":{"android":"levelo://app?vid=d31e89dd-3bc6-41bd-acc1-e10c48af2934","ios":"levelo://app?vid=d31e89dd-3bc6-41bd-acc1-e10c48af2934"},"vehicle_type_id":"4","last_reported":1700921134,"current_range_meters":13200,"station_id":"ce4bhhh2rcd13ifvqfk0","pricing_plan_id":"free"},{"bike_id":"768424e9-ddf3-4733-903b-2d0e006982a0","system_id":"levelo_inurba_marseille","lat":43.243884,"lon":5.370736,"is_reserved":false,"is_disabled":false,"rental_uris":{"android":"levelo://app?vid=768424e9-ddf3-4733-903b-2d0e006982a0","ios":"levelo://app?vid=768424e9-ddf3-4733-903b-2d0e006982a0"},"vehicle_type_id":"4","last_reported":1700921134,"current_range_meters":16000,"station_id":"ce4bhhh2rcd13ifvqfk0","pricing_plan_id":"free"},{"bike_id":"842d9291-1bbd-4aa4-a0e3-0ad73dbb8c2e","system_id":"levelo_inurba_marseille","lat":43.243884,"lon":5.370736,"is_reserved":false,"is_disabled":false,"rental_uris":{"android":"levelo://app?vid=842d9291-1bbd-4aa4-a0e3-0ad73dbb8c2e","ios":"levelo://app?vid=842d9291-1bbd-4aa4-a0e3-0ad73dbb8c2e"},"vehicle_type_id":"4","last_reported":1700921134,"current_range_meters":25200,"station_id":"ce4bhhh2rcd13ifvqfk0","pricing_plan_id":"free"},{"bike_id":"e3e077a5-9aa8-4310-b6fb-4c93741689dc","system_id":"levelo_inurba_marseille","lat":43.243884,"lon":5.370736,"is_reserved":false,"is_disabled":false,"rental_uris":{"android":"levelo://app?vid=e3e077a5-9aa8-4310-b6fb-4c93741689dc","ios":"levelo://app?vid=e3e077a5-9aa8-4310-b6fb-4c93741689dc"},"vehicle_type_id":"4","last_reported":1700921134,"current_range_meters":14000,"station_id":"ce4bhhh2rcd13ifvqfk0","pricing_plan_id":"free"},{"bike_id":"aacee138-95eb-4dc4-8c3b-28f2bee62089","system_id":"levelo_inurba_marseille","lat":43.24074,"lon":5.37758,"is_reserved":false,"is_disabled":false,"rental_uris":{"android":"levelo://app?vid=aacee138-95eb-4dc4-8c3b-28f2bee62089","ios":"levelo://app?vid=aacee138-95eb-4dc4-8c3b-28f2bee62089"},"vehicle_type_id":"4","last_reported":1700921134,"current_range_meters":17200,"station_id":"ce4bhnp2rcd13ifvqgvg","pricing_plan_id":"free"},{"bike_id":"1cb96f04-f422-460b-925f-998463caffcc","system_id":"levelo_inurba_marseille","lat":43.240706,"lon":5.377535,"is_reserved":false,"is_disabled":false,"rental_uris":{"android":"levelo://app?vid=1cb96f04-f422-460b-925f-998463caffcc","ios":"levelo://app?vid=1cb96f04-f422-460b-925f-998463caffcc"},"vehicle_type_id":"4","last_reported":1700921134,"current_range_meters":11200,"station_id":"ce4bhnp2rcd13ifvqgvg","pricing_plan_id":"free"},{"bike_id":"44753933-251e-471e-8435-27aad442d759","system_id":"levelo_inurba_marseille","lat":43.24071,"lon":5.3776,"is_reserved":false,"is_disabled":false,"rental_uris":{"android":"levelo://app?vid=44753933-251e-471e-8435-27aad442d759","ios":"levelo://app?vid=44753933-251e-471e-8435-27aad442d759"},"vehicle_type_id":"4","last_reported":1700921134,"current_range_meters":31200,"station_id":"ce4bhnp2rcd13ifvqgvg","pricing_plan_id":"free"},{"bike_id":"034cdb61-d747-4bb4-87d3-ed49b55b9556","system_id":"levelo_inurba_marseille","lat":43.240623,"lon":5.377642,"is_reserved":false,"is_disabled":false,"rental_uris":{"android":"levelo://app?vid=034cdb61-d747-4bb4-87d3-ed49b55b9556","ios":"levelo://app?vid=034cdb61-d747-4bb4-87d3-ed49b55b9556"},"vehicle_type_id":"4","last_reported":1700921134,"current_range_meters":29200,"station_id":"ce4bhnp2rcd13ifvqgvg","pricing_plan_id":"free"},{"bike_id":"1a451199-5228-4ac4-8ee5-66d239a1c12d","system_id":"levelo_inurba_marseille","lat":43.24071,"lon":5.37767,"is_reserved":false,"is_disabled":false,"rental_uris":{"android":"levelo://app?vid=1a451199-5228-4ac4-8ee5-66d239a1c12d","ios":"levelo://app?vid=1a451199-5228-4ac4-8ee5-66d239a1c12d"},"vehicle_type_id":"4","last_reported":1700921134,"current_range_meters":22800,"station_id":"ce4bhnp2rcd13ifvqgvg","pricing_plan_id":"free"},{"bike_id":"56c7f400-414b-4a88-83d6-f063b9f27bea","system_id":"levelo_inurba_marseille","lat":43.24068,"lon":5.37759,"is_reserved":false,"is_disabled":false,"rental_uris":{"android":"levelo://app?vid=56c7f400-414b-4a88-83d6-f063b9f27bea","ios":"levelo://app?vid=56c7f400-414b-4a88-83d6-f063b9f27bea"},"vehicle_type_id":"4","last_reported":1700921134,"current_range_meters":27200,"station_id":"ce4bhnp2rcd13ifvqgvg","pricing_plan_id":"free"},{"bike_id":"ff01dbe1-223f-43a9-b0c6-51a5a8d2ed05","system_id":"levelo_inurba_marseille","lat":43.239588,"lon":5.366238,"is_reserved":false,"is_disabled":false,"rental_uris":{"android":"levelo://app?vid=ff01dbe1-223f-43a9-b0c6-51a5a8d2ed05","ios":"levelo://app?vid=ff01dbe1-223f-43a9-b0c6-51a5a8d2ed05"},"vehicle_type_id":"4","last_reported":1700921134,"current_range_meters":31200,"station_id":"ce4bhi12rcd13ifvqfp0","pricing_plan_id":"free"},{"bike_id":"47e43998-06a7-44f6-a336-05874a757f9d","system_id":"levelo_inurba_marseille","lat":43.239588,"lon":5.366238,"is_reserved":false,"is_disabled":false,"rental_uris":{"android":"levelo://app?vid=47e43998-06a7-44f6-a336-05874a757f9d","ios":"levelo://app?vid=47e43998-06a7-44f6-a336-05874a757f9d"},"vehicle_type_id":"4","last_reported":1700921134,"current_range_meters":16400,"station_id":"ce4bhi12rcd13ifvqfp0","pricing_plan_id":"free"},{"bike_id":"5463f889-e9a8-41c6-b150-294b88a9f82e","system_id":"levelo_inurba_marseille","lat":43.239588,"lon":5.366238,"is_reserved":false,"is_disabled":false,"rental_uris":{"android":"levelo://app?vid=5463f889-e9a8-41c6-b150-294b88a9f82e","ios":"levelo://app?vid=5463f889-e9a8-41c6-b150-294b88a9f82e"},"vehicle_type_id":"4","last_reported":1700921134,"current_range_meters":31200,"station_id":"ce4bhi12rcd13ifvqfp0","pricing_plan_id":"free"},{"bike_id":"2928aec4-a092-4b20-8697-2fcf599c9821","system_id":"levelo_inurba_marseille","lat":43.239588,"lon":5.366238,"is_reserved":false,"is_disabled":false,"rental_uris":{"android":"levelo://app?vid=2928aec4-a092-4b20-8697-2fcf599c9821","ios":"levelo://app?vid=2928aec4-a092-4b20-8697-2fcf599c9821"},"vehicle_type_id":"4","last_reported":1700921134,"current_range_meters":26000,"station_id":"ce4bhi12rcd13ifvqfp0","pricing_plan_id":"free"},{"bike_id":"6a80754d-d19c-44e3-b85f-afe20e8d4da1","system_id":"levelo_inurba_marseille","lat":43.23967,"lon":5.36638,"is_reserved":false,"is_disabled":false,"rental_uris":{"android":"levelo://app?vid=6a80754d-d19c-44e3-b85f-afe20e8d4da1","ios":"levelo://app?vid=6a80754d-d19c-44e3-b85f-afe20e8d4da1"},"vehicle_type_id":"4","last_reported":1700921134,"current_range_meters":28800,"station_id":"ce4bhi12rcd13ifvqfp0","pricing_plan_id":"free"},{"bike_id":"340ba89e-beb6-4edd-9f37-a6ad2b2c6a9c","system_id":"levelo_inurba_marseille","lat":43.239588,"lon":5.366238,"is_reserved":false,"is_disabled":false,"rental_uris":{"android":"levelo://app?vid=340ba89e-beb6-4edd-9f37-a6ad2b2c6a9c","ios":"levelo://app?vid=340ba89e-beb6-4edd-9f37-a6ad2b2c6a9c"},"vehicle_type_id":"4","last_reported":1700921134,"current_range_meters":14800,"station_id":"ce4bhi12rcd13ifvqfp0","pricing_plan_id":"free"},{"bike_id":"c8b0fc92-e06b-450c-b7d7-d6ab9ca59443","system_id":"levelo_inurba_marseille","lat":43.239588,"lon":5.366238,"is_reserved":false,"is_disabled":false,"rental_uris":{"android":"levelo://app?vid=c8b0fc92-e06b-450c-b7d7-d6ab9ca59443","ios":"levelo://app?vid=c8b0fc92-e06b-450c-b7d7-d6ab9ca59443"},"vehicle_type_id":"4","last_reported":1700921134,"current_range_meters":25600,"station_id":"ce4bhi12rcd13ifvqfp0","pricing_plan_id":"free"},{"bike_id":"4da7c850-c01b-49e2-97e3-0a093981264d","system_id":"levelo_inurba_marseille","lat":43.239588,"lon":5.366238,"is_reserved":false,"is_disabled":false,"rental_uris":{"android":"levelo://app?vid=4da7c850-c01b-49e2-97e3-0a093981264d","ios":"levelo://app?vid=4da7c850-c01b-49e2-97e3-0a093981264d"},"vehicle_type_id":"4","last_reported":1700921134,"current_range_meters":28400,"station_id":"ce4bhi12rcd13ifvqfp0","pricing_plan_id":"free"},{"bike_id":"58a58866-eb62-4645-9cea-dfc48132ebca","system_id":"levelo_inurba_marseille","lat":43.23966,"lon":5.3664,"is_reserved":false,"is_disabled":false,"rental_uris":{"android":"levelo://app?vid=58a58866-eb62-4645-9cea-dfc48132ebca","ios":"levelo://app?vid=58a58866-eb62-4645-9cea-dfc48132ebca"},"vehicle_type_id":"4","last_reported":1700921134,"current_range_meters":16400,"station_id":"ce4bhi12rcd13ifvqfp0","pricing_plan_id":"free"},{"bike_id":"8ddc8e40-82e4-4cc6-90af-c119357648f0","system_id":"levelo_inurba_marseille","lat":43.239588,"lon":5.366238,"is_reserved":false,"is_disabled":false,"rental_uris":{"android":"levelo://app?vid=8ddc8e40-82e4-4cc6-90af-c119357648f0","ios":"levelo://app?vid=8ddc8e40-82e4-4cc6-90af-c119357648f0"},