{"last_updated":1717369646,"ttl":30,"version":"2.2","data":{"bikes":[{"bike_id":"1479d939-c465-429d-a7e0-a05b26a5bfbb","system_id":"levelo_inurba_marseille","lat":43.313391,"lon":5.36706,"is_reserved":false,"is_disabled":false,"rental_uris":{"android":"levelo://app?vid=1479d939-c465-429d-a7e0-a05b26a5bfbb","ios":"levelo://app?vid=1479d939-c465-429d-a7e0-a05b26a5bfbb"},"vehicle_type_id":"4","last_reported":1717369646,"current_range_meters":19600,"station_id":"ce4bgr92rcd13ifvqc6g","pricing_plan_id":"cebpf4jnsgd1na2vs0mg"},{"bike_id":"a0c5a131-990c-4536-a38c-efa1feb6dfe4","system_id":"levelo_inurba_marseille","lat":43.31341,"lon":5.367098,"is_reserved":false,"is_disabled":false,"rental_uris":{"android":"levelo://app?vid=a0c5a131-990c-4536-a38c-efa1feb6dfe4","ios":"levelo://app?vid=a0c5a131-990c-4536-a38c-efa1feb6dfe4"},"vehicle_type_id":"4","last_reported":1717369646,"current_range_meters":26000,"station_id":"ce4bgr92rcd13ifvqc6g","pricing_plan_id":"cebpf4jnsgd1na2vs0mg"},{"bike_id":"d79de981-98db-4680-b0b8-69d8f5e2f289","system_id":"levelo_inurba_marseille","lat":43.314811,"lon":5.373103,"is_reserved":false,"is_disabled":false,"rental_uris":{"android":"levelo://app?vid=d79de981-98db-4680-b0b8-69d8f5e2f289","ios":"levelo://app?vid=d79de981-98db-4680-b0b8-69d8f5e2f289"},"vehicle_type_id":"4","last_reported":1717369646,"current_range_meters":22000,"station_id":"ce4bgt12rcd13ifvqcd0","pricing_plan_id":"cebpf4jnsgd1na2vs0mg"},{"bike_id":"a0ea366f-db3e-4a3f-99bd-fc164281f6cd","system_id":"levelo_inurba_marseille","lat":43.31488,"lon":5.37312,"is_reserved":false,"is_disabled":false,"rental_uris":{"android":"levelo://app?vid=a0ea366f-db3e-4a3f-99bd-fc164281f6cd","ios":"levelo://app?vid=a0ea366f-db3e-4a3f-99bd-fc164281f6cd"},"vehicle_type_id":"4","last_reported":1717369646,"current_range_meters":8400,"station_id":"ce4bgt12rcd13ifvqcd0","pricing_plan_id":"cebpf4jnsgd1na2vs0mg"},{"bike_id":"d39f12b1-b9fd-4d00-813b-c38a5bfa3ee7","system_id":"levelo_inurba_marseille","lat":43.31493,"lon":5.3731,"is_reserved":false,"is_disabled":false,"rental_uris":{"android":"levelo://app?vid=d39f12b1-b9fd-4d00-813b-c38a5bfa3ee7","ios":"levelo://app?vid=d39f12b1-b9fd-4d00-813b-c38a5bfa3ee7"},"vehicle_type_id":"4","last_reported":1717369646,"current_range_meters":7200,"station_id":"ce4bgt12rcd13ifvqcd0","pricing_plan_id":"cebpf4jnsgd1na2vs0mg"},{"bike_id":"48d95176-6352-4e84-8532-e8ca9191fedf","system_id":"levelo_inurba_marseille","lat":43.309039,"lon":5.371797,"is_reserved":false,"is_disabled":false,"rental_uris":{"android":"levelo://app?vid=48d95176-6352-4e84-8532-e8ca9191fedf","ios":"levelo://app?vid=48d95176-6352-4e84-8532-e8ca9191fedf"},"vehicle_type_id":"4","last_reported":1717369646,"current_range_meters":29600,"station_id":"ce4bguh2rcd13ifvqckg","pricing_plan_id":"cebpf4jnsgd1na2vs0mg"},{"bike_id":"88f98fae-3661-4fd4-b075-98eb6df56ee3","system_id":"levelo_inurba_marseille","lat":43.309039,"lon":5.371797,"is_reserved":false,"is_disabled":false,"rental_uris":{"android":"levelo://app?vid=88f98fae-3661-4fd4-b075-98eb6df56ee3","ios":"levelo://app?vid=88f98fae-3661-4fd4-b075-98eb6df56ee3"},"vehicle_type_id":"4","last_reported":1717369646,"current_range_meters":31200,"station_id":"ce4bguh2rcd13ifvqckg","pricing_plan_id":"cebpf4jnsgd1na2vs0mg"},{"bike_id":"d0e55f84-a0b7-4855-9f4c-709241fc11f5","system_id":"levelo_inurba_marseille","lat":43.309039,"lon":5.371797,"is_reserved":false,"is_disabled":false,"rental_uris":{"android":"levelo://app?vid=d0e55f84-a0b7-4855-9f4c-709241fc11f5","ios":"levelo://app?vid=d0e55f84-a0b7-4855-9f4c-709241fc11f5"},"vehicle_type_id":"4","last_reported":1717369646,"current_range_meters":26000,"station_id":"ce4bguh2rcd13ifvqckg","pricing_plan_id":"cebpf4jnsgd1na2vs0mg"},{"bike_id":"75ed4a7f-eced-414a-aff0-fcb9704070db","system_id":"levelo_inurba_marseille","lat":43.30537,"lon":5.367345,"is_reserved":false,"is_disabled":false,"rental_uris":{"android":"levelo://app?vid=75ed4a7f-eced-414a-aff0-fcb9704070db","ios":"levelo://app?vid=75ed4a7f-eced-414a-aff0-fcb9704070db"},"vehicle_type_id":"4","last_reported":1717369646,"current_range_meters":29200,"station_id":"ce4bgrp2rcd13ifvqc9g","pricing_plan_id":"cebpf4jnsgd1na2vs0mg"},{"bike_id":"f71bab07-8309-4879-9e88-217a6f37d0b2","system_id":"levelo_inurba_marseille","lat":43.305989,"lon":5.37225,"is_reserved":false,"is_disabled":false,"rental_uris":{"android":"levelo://app?vid=f71bab07-8309-4879-9e88-217a6f37d0b2","ios":"levelo://app?vid=f71bab07-8309-4879-9e88-217a6f37d0b2"},"vehicle_type_id":"4","last_reported":1717369646,"current_range_meters":21600,"station_id":"ce4bgqh2rcd13ifvqc4g","pricing_plan_id":"cebpf4jnsgd1na2vs0mg"},{"bike_id":"59c049dd-d570-40a8-a27e-edf4ec41c8fa","system_id":"levelo_inurba_marseille","lat":43.305989,"lon":5.37225,"is_reserved":false,"is_disabled":false,"rental_uris":{"android":"levelo://app?vid=59c049dd-d570-40a8-a27e-edf4ec41c8fa","ios":"levelo://app?vid=59c049dd-d570-40a8-a27e-edf4ec41c8fa"},"vehicle_type_id":"4","last_reported":1717369646,"current_range_meters":16400,"station_id":"ce4bgqh2rcd13ifvqc4g","pricing_plan_id":"cebpf4jnsgd1na2vs0mg"},{"bike_id":"1d8e22e9-ba34-49d0-ac51-55ae19b26ae8","system_id":"levelo_inurba_marseille","lat":43.311131,"lon":5.377651,"is_reserved":false,"is_disabled":false,"rental_uris":{"android":"levelo://app?vid=1d8e22e9-ba34-49d0-ac51-55ae19b26ae8","ios":"levelo://app?vid=1d8e22e9-ba34-49d0-ac51-55ae19b26ae8"},"vehicle_type_id":"4","last_reported":1717369646,"current_range_meters":19200,"station_id":"ce4bgt92rcd13ifvqcg0","pricing_plan_id":"cebpf4jnsgd1na2vs0mg"},{"bike_id":"7c330a33-1bc7-4208-9eb2-cf3012638945","system_id":"levelo_inurba_marseille","lat":43.311131,"lon":5.377651,"is_reserved":false,"is_disabled":false,"rental_uris":{"android":"levelo://app?vid=7c330a33-1bc7-4208-9eb2-cf3012638945","ios":"levelo://app?vid=7c330a33-1bc7-4208-9eb2-cf3012638945"},"vehicle_type_id":"4","last_reported":1717369646,"current_range_meters":15200,"station_id":"ce4bgt92rcd13ifvqcg0","pricing_plan_id":"cebpf4jnsgd1na2vs0mg"},{"bike_id":"512bd0f0-6c1e-4158-a794-2910188da605","system_id":"levelo_inurba_marseille","lat":43.311131,"lon":5.377651,"is_reserved":false,"is_disabled":false,"rental_uris":{"android":"levelo://app?vid=512bd0f0-6c1e-4158-a794-2910188da605","ios":"levelo://app?vid=512bd0f0-6c1e-4158-a794-2910188da605"},"vehicle_type_id":"4","last_reported":1717369646,"current_range_meters":19600,"station_id":"ce4bgt92rcd13ifvqcg0","pricing_plan_id":"cebpf4jnsgd1na2vs0mg"},{"bike_id":"1b39e27e-b47a-4b0e-9dea-9627b219d845","system_id":"levelo_inurba_marseille","lat":43.311131,"lon":5.377651,"is_reserved":false,"is_disabled":false,"rental_uris":{"android":"levelo://app?vid=1b39e27e-b47a-4b0e-9dea-9627b219d845","ios":"levelo://app?vid=1b39e27e-b47a-4b0e-9dea-9627b219d845"},"vehicle_type_id":"4","last_reported":1717369646,"current_range_meters":22000,"station_id":"ce4bgt92rcd13ifvqcg0","pricing_plan_id":"cebpf4jnsgd1na2vs0mg"},{"bike_id":"e10d2bcc-35d2-4949-b2b1-796813e075a7","system_id":"levelo_inurba_marseille","lat":43.311131,"lon":5.377651,"is_reserved":false,"is_disabled":false,"rental_uris":{"android":"levelo://app?vid=e10d2bcc-35d2-4949-b2b1-796813e075a7","ios":"levelo://app?vid=e10d2bcc-35d2-4949-b2b1-796813e075a7"},"vehicle_type_id":"4","last_reported":1717369646,"current_range_meters":25600,"station_id":"ce4bgt92rcd13ifvqcg0","pricing_plan_id":"cebpf4jnsgd1na2vs0mg"},{"bike_id":"28d6b9f7-dea9-44d5-8e2e-a7f365edc336","system_id":"levelo_inurba_marseille","lat":43.31121,"lon":5.37766,"is_reserved":false,"is_disabled":false,"rental_uris":{"android":"levelo://app?vid=28d6b9f7-dea9-44d5-8e2e-a7f365edc336","ios":"levelo://app?vid=28d6b9f7-dea9-44d5-8e2e-a7f365edc336"},"vehicle_type_id":"4","last_reported":1717369646,"current_range_meters":12000,"station_id":"ce4bgt92rcd13ifvqcg0","pricing_plan_id":"cebpf4jnsgd1na2vs0mg"},{"bike_id":"57a8e80a-fa8a-4a75-8f9e-5ee714e7e6dc","system_id":"levelo_inurba_marseille","lat":43.311131,"lon":5.377651,"is_reserved":false,"is_disabled":false,"rental_uris":{"android":"levelo://app?vid=57a8e80a-fa8a-4a75-8f9e-5ee714e7e6dc","ios":"levelo://app?vid=57a8e80a-fa8a-4a75-8f9e-5ee714e7e6dc"},"vehicle_type_id":"4","last_reported":1717369646,"current_range_meters":8800,"station_id":"ce4bgt92rcd13ifvqcg0","pricing_plan_id":"cebpf4jnsgd1na2vs0mg"},{"bike_id":"1a25fa2b-b922-4da8-806a-dacc194c1978","system_id":"levelo_inurba_marseille","lat":43.311131,"lon":5.377651,"is_reserved":false,"is_disabled":false,"rental_uris":{"android":"levelo://app?vid=1a25fa2b-b922-4da8-806a-dacc194c1978","ios":"levelo://app?vid=1a25fa2b-b922-4da8-806a-dacc194c1978"},"vehicle_type_id":"4","last_reported":1717369646,"current_range_meters":21600,"station_id":"ce4bgt92rcd13ifvqcg0","pricing_plan_id":"cebpf4jnsgd1na2vs0mg"},{"bike_id":"ef31a294-ea91-42f6-80c6-974765b46ab6","system_id":"levelo_inurba_marseille","lat":43.31114,"lon":5.37768,"is_reserved":false,"is_disabled":false,"rental_uris":{"android":"levelo://app?vid=ef31a294-ea91-42f6-80c6-974765b46ab6","ios":"levelo://app?vid=ef31a294-ea91-42f6-80c6-974765b46ab6"},"vehicle_type_id":"4","last_reported":1717369646,"current_range_meters":15600,"station_id":"ce4bgt92rcd13ifvqcg0","pricing_plan_id":"cebpf4jnsgd1na2vs0mg"},{"bike_id":"58cb2b78-cf39-4f68-9e62-84bcba02cdc2","system_id":"levelo_inurba_marseille","lat":43.311131,"lon":5.377651,"is_reserved":false,"is_disabled":false,"rental_uris":{"android":"levelo://app?vid=58cb2b78-cf39-4f68-9e62-84bcba02cdc2","ios":"levelo://app?vid=58cb2b78-cf39-4f68-9e62-84bcba02cdc2"},"vehicle_type_id":"4","last_reported":1717369646,"current_range_meters":4000,"station_id":"ce4bgt92rcd13ifvqcg0","pricing_plan_id":"cebpf4jnsgd1na2vs0mg"},{"bike_id":"f3a002ce-1051-4bcc-9a29-072f5fa17116","system_id":"levelo_inurba_marseille","lat":43.311131,"lon":5.377651,"is_reserved":false,"is_disabled":false,"rental_uris":{"android":"levelo://app?vid=f3a002ce-1051-4bcc-9a29-072f5fa17116","ios":"levelo://app?vid=f3a002ce-1051-4bcc-9a29-072f5fa17116"},"vehicle_type_id":"4","last_reported":1717369646,"current_range_meters":15200,"station_id":"ce4bgt92rcd13ifvqcg0","pricing_plan_id":"cebpf4jnsgd1na2vs0mg"},{"bike_id":"eb312500-9fb6-457a-a676-723a722a703f","system_id":"levelo_inurba_marseille","lat":43.31124,"lon":5.377755,"is_reserved":false,"is_disabled":false,"rental_uris":{"android":"levelo://app?vid=eb312500-9fb6-457a-a676-723a722a703f","ios":"levelo://app?vid=eb312500-9fb6-457a-a676-723a722a703f"},"vehicle_type_id":"4","last_reported":1717369646,"current_range_meters":20400,"station_id":"ce4bgt92rcd13ifvqcg0","pricing_plan_id":"cebpf4jnsgd1na2vs0mg"},{"bike_id":"22f5e9a6-0381-441e-845e-9ed1bde1dad9","system_id":"levelo_inurba_marseille","lat":43.311195,"lon":5.377755,"is_reserved":false,"is_disabled":false,"rental_uris":{"android":"levelo://app?vid=22f5e9a6-0381-441e-845e-9ed1bde1dad9","ios":"levelo://app?vid=22f5e9a6-0381-441e-845e-9ed1bde1dad9"},"vehicle_type_id":"4","last_reported":1717369646,"current_range_meters":19600,"station_id":"ce4bgt92rcd13ifvqcg0","pricing_plan_id":"cebpf4jnsgd1na2vs0mg"},{"bike_id":"a9eaada1-2f42-4dab-972c-f208ca421d64","system_id":"levelo_inurba_marseille","lat":43.311131,"lon":5.377651,"is_reserved":false,"is_disabled":false,"rental_uris":{"android":"levelo://app?vid=a9eaada1-2f42-4dab-972c-f208ca421d64","ios":"levelo://app?vid=a9eaada1-2f42-4dab-972c-f208ca421d64"},"vehicle_type_id":"4","last_reported":1717369646,"current_range_meters":14000,"station_id":"ce4bgt92rcd13ifvqcg0","pricing_plan_id":"cebpf4jnsgd1na2vs0mg"},{"bike_id":"142d957f-55a7-4e19-90c6-84f53555ad29","system_id":"levelo_inurba_marseille","lat":43.307945,"lon":5.376487,"is_reserved":false,"is_disabled":false,"rental_uris":{"android":"levelo://app?vid=142d957f-55a7-4e19-90c6-84f53555ad29","ios":"levelo://app?vid=142d957f-55a7-4e19-90c6-84f53555ad29"},"vehicle_type_id":"4","last_reported":1717369646,"current_range_meters":18000,"station_id":"ce4bgv92rcd13ifvqcq0","pricing_plan_id":"cebpf4jnsgd1na2vs0mg"},{"bike_id":"e0a0b9a3-b3e3-4b08-8ad8-f7f5c45b1ecb","system_id":"levelo_inurba_marseille","lat":43.307945,"lon":5.376487,"is_reserved":false,"is_disabled":false,"rental_uris":{"android":"levelo://app?vid=e0a0b9a3-b3e3-4b08-8ad8-f7f5c45b1ecb","ios":"levelo://app?vid=e0a0b9a3-b3e3-4b08-8ad8-f7f5c45b1ecb"},"vehicle_type_id":"4","last_reported":1717369646,"current_range_meters":26800,"station_id":"ce4bgv92rcd13ifvqcq0","pricing_plan_id":"cebpf4jnsgd1na2vs0mg"},{"bike_id":"b4f20a17-7cdf-4f40-b8c4-6bab930f6256","system_id":"levelo_inurba_marseille","lat":43.317075,"lon":5.377367,"is_reserved":false,"is_disabled":false,"rental_uris":{"android":"levelo://app?vid=b4f20a17-7cdf-4f40-b8c4-6bab930f6256","ios":"levelo://app?vid=b4f20a17-7cdf-4f40-b8c4-6bab930f6256"},"vehicle_type_id":"4","last_reported":1717369646,"current_range_meters":0,"station_id":"ce4bgth2rcd13ifvqch0","pricing_plan_id":"cebpf4jnsgd1na2vs0mg"},{"bike_id":"90f32937-f06a-4e94-8f5d-4fa2494f0076","system_id":"levelo_inurba_marseille","lat":43.317075,"lon":5.377367,"is_reserved":false,"is_disabled":false,"rental_uris":{"android":"levelo://app?vid=90f32937-f06a-4e94-8f5d-4fa2494f0076","ios":"levelo://app?vid=90f32937-f06a-4e94-8f5d-4fa2494f0076"},"vehicle_type_id":"4","last_reported":1717369646,"current_range_meters":24000,"station_id":"ce4bgth2rcd13ifvqch0","pricing_plan_id":"cebpf4jnsgd1na2vs0mg"},{"bike_id":"cd42e8ad-7b6a-4d56-8bf6-d4088ddcf158","system_id":"levelo_inurba_marseille","lat":43.317075,"lon":5.377367,"is_reserved":false,"is_disabled":false,"rental_uris":{"android":"levelo://app?vid=cd42e8ad-7b6a-4d56-8bf6-d4088ddcf158","ios":"levelo://app?vid=cd42e8ad-7b6a-4d56-8bf6-d4088ddcf158"},"vehicle_type_id":"4","last_reported":1717369646,"current_range_meters":4800,"station_id":"ce4bgth2rcd13ifvqch0","pricing_plan_id":"cebpf4jnsgd1na2vs0mg"},{"bike_id":"072a1c3e-74cc-40a8-b59b-34af1dbeb659","system_id":"levelo_inurba_marseille","lat":43.317075,"lon":5.377367,"is_reserved":false,"is_disabled":false,"rental_uris":{"android":"levelo://app?vid=072a1c3e-74cc-40a8-b59b-34af1dbeb659","ios":"levelo://app?vid=072a1c3e-74cc-40a8-b59b-34af1dbeb659"},"vehicle_type_id":"4","last_reported":1717369646,"current_range_meters":1600,"station_id":"ce4bgth2rcd13ifvqch0","pricing_plan_id":"cebpf4jnsgd1na2vs0mg"},{"bike_id":"72be7c86-695a-4103-aaeb-b9ee9c5be913","system_id":"levelo_inurba_marseille","lat":43.317075,"lon":5.377367,"is_reserved":false,"is_disabled":false,"rental_uris":{"android":"levelo://app?vid=72be7c86-695a-4103-aaeb-b9ee9c5be913","ios":"levelo://app?vid=72be7c86-695a-4103-aaeb-b9ee9c5be913"},"vehicle_type_id":"4","last_reported":1717369646,"current_range_meters":27200,"station_id":"ce4bgth2rcd13ifvqch0","pricing_plan_id":"cebpf4jnsgd1na2vs0mg"},{"bike_id":"86570f96-c135-4b15-a377-0e3b078729ca","system_id":"levelo_inurba_marseille","lat":43.317075,"lon":5.377367,"is_reserved":false,"is_disabled":false,"rental_uris":{"android":"levelo://app?vid=86570f96-c135-4b15-a377-0e3b078729ca","ios":"levelo://app?vid=86570f96-c135-4b15-a377-0e3b078729ca"},"vehicle_type_id":"4","last_reported":1717369646,"current_range_meters":8000,"station_id":"ce4bgth2rcd13ifvqch0","pricing_plan_id":"cebpf4jnsgd1na2vs0mg"},{"bike_id":"67b7ef47-d288-4f3c-8d23-e1254f03a690","system_id":"levelo_inurba_marseille","lat":43.30304,"lon":5.368987,"is_reserved":false,"is_disabled":false,"rental_uris":{"android":"levelo://app?vid=67b7ef47-d288-4f3c-8d23-e1254f03a690","ios":"levelo://app?vid=67b7ef47-d288-4f3c-8d23-e1254f03a690"},"vehicle_type_id":"4","last_reported":1717369646,"current_range_meters":29200,"station_id":"ce4bgqh2rcd13ifvqc5g","pricing_plan_id":"cebpf4jnsgd1na2vs0mg"},{"bike_id":"688cb8db-659d-4351-bdd5-1f3fb86475ca","system_id":"levelo_inurba_marseille","lat":43.303046,"lon":5.368981,"is_reserved":false,"is_disabled":false,"rental_uris":{"android":"levelo://app?vid=688cb8db-659d-4351-bdd5-1f3fb86475ca","ios":"levelo://app?vid=688cb8db-659d-4351-bdd5-1f3fb86475ca"},"vehicle_type_id":"4","last_reported":1717369646,"current_range_meters":20000,"station_id":"ce4bgqh2rcd13ifvqc5g","pricing_plan_id":"cebpf4jnsgd1na2vs0mg"},{"bike_id":"ae53a9df-86c3-4e26-a3cc-b9bdbb22ab84","system_id":"levelo_inurba_marseille","lat":43.303046,"lon":5.368981,"is_reserved":false,"is_disabled":false,"rental_uris":{"android":"levelo://app?vid=ae53a9df-86c3-4e26-a3cc-b9bdbb22ab84","ios":"levelo://app?vid=ae53a9df-86c3-4e26-a3cc-b9bdbb22ab84"},"vehicle_type_id":"4","last_reported":1717369646,"current_range_meters":16400,"station_id":"ce4bgqh2rcd13ifvqc5g","pricing_plan_id":"cebpf4jnsgd1na2vs0mg"},{"bike_id":"32f52199-e8fa-44f1-8757-961fa90c0338","system_id":"levelo_inurba_marseille","lat":43.303046,"lon":5.368981,"is_reserved":false,"is_disabled":false,"rental_uris":{"android":"levelo://app?vid=32f52199-e8fa-44f1-8757-961fa90c0338","ios":"levelo://app?vid=32f52199-e8fa-44f1-8757-961fa90c0338"},"vehicle_type_id":"4","last_reported":1717369646,"current_range_meters":6000,"station_id":"ce4bgqh2rcd13ifvqc5g","pricing_plan_id":"cebpf4jnsgd1na2vs0mg"},{"bike_id":"11cc77dd-231e-4dd2-bd68-bbfcb5c502f5","system_id":"levelo_inurba_marseille","lat":43.315293,"lon":5.380349,"is_reserved":false,"is_disabled":false,"rental_uris":{"android":"levelo://app?vid=11cc77dd-231e-4dd2-bd68-bbfcb5c502f5","ios":"levelo://app?vid=11cc77dd-231e-4dd2-bd68-bbfcb5c502f5"},"vehicle_type_id":"4","last_reported":1717369646,"current_range_meters":29200,"station_id":"ce4bhsp2rcd13ifvqi50","pricing_plan_id":"cebpf4jnsgd1na2vs0mg"},{"bike_id":"fcabf34c-a18a-4c47-83fb-27473261cff6","system_id":"levelo_inurba_marseille","lat":43.315293,"lon":5.380349,"is_reserved":false,"is_disabled":false,"rental_uris":{"android":"levelo://app?vid=fcabf34c-a18a-4c47-83fb-27473261cff6","ios":"levelo://app?vid=fcabf34c-a18a-4c47-83fb-27473261cff6"},"vehicle_type_id":"4","last_reported":1717369646,"current_range_meters":8400,"station_id":"ce4bhsp2rcd13ifvqi50","pricing_plan_id":"cebpf4jnsgd1na2vs0mg"},{"bike_id":"e365b101-db6f-4fbc-8d3b-2834e1225c0f","system_id":"levelo_inurba_marseille","lat":43.315207,"lon":5.38032,"is_reserved":false,"is_disabled":false,"rental_uris":{"android":"levelo://app?vid=e365b101-db6f-4fbc-8d3b-2834e1225c0f","ios":"levelo://app?vid=e365b101-db6f-4fbc-8d3b-2834e1225c0f"},"vehicle_type_id":"4","last_reported":1717369646,"current_range_meters":18400,"station_id":"ce4bhsp2rcd13ifvqi50","pricing_plan_id":"cebpf4jnsgd1na2vs0mg"},{"bike_id":"e610f761-1f07-4365-adc1-3421c0f673c6","system_id":"levelo_inurba_marseille","lat":43.315293,"lon":5.380349,"is_reserved":false,"is_disabled":false,"rental_uris":{"android":"levelo://app?vid=e610f761-1f07-4365-adc1-3421c0f673c6","ios":"levelo://app?vid=e610f761-1f07-4365-adc1-3421c0f673c6"},"vehicle_type_id":"4","last_reported":1717369646,"current_range_meters":0,"station_id":"ce4bhsp2rcd13ifvqi50","pricing_plan_id":"cebpf4jnsgd1na2vs0mg"},{"bike_id":"80950dae-c8a2-4b84-9bdf-7cf0429c02c9","system_id":"levelo_inurba_marseille","lat":43.31525,"lon":5.38035,"is_reserved":false,"is_disabled":false,"rental_uris":{"android":"levelo://app?vid=80950dae-c8a2-4b84-9bdf-7cf0429c02c9","ios":"levelo://app?vid=80950dae-c8a2-4b84-9bdf-7cf0429c02c9"},"vehicle_type_id":"4","last_reported":1717369646,"current_range_meters":21200,"station_id":"ce4bhsp2rcd13ifvqi50","pricing_plan_id":"cebpf4jnsgd1na2vs0mg"},{"bike_id":"d77ed3d8-a137-4bf6-b074-34878f6e9035","system_id":"levelo_inurba_marseille","lat":43.308997,"lon":5.380497,"is_reserved":false,"is_disabled":false,"rental_uris":{"android":"levelo://app?vid=d77ed3d8-a137-4bf6-b074-34878f6e9035","ios":"levelo://app?vid=d77ed3d8-a137-4bf6-b074-34878f6e9035"},"vehicle_type_id":"4","last_reported":1717369646,"current_range_meters":12000,"station_id":"","pricing_plan_id":"cebpf4jnsgd1na2vs0mg"},{"bike_id":"eb309792-c054-43e7-b72d-bc87ba9099c7","system_id":"levelo_inurba_marseille","lat":43.308012,"lon":5.381511,"is_reserved":false,"is_disabled":false,"rental_uris":{"android":"levelo://app?vid=eb309792-c054-43e7-b72d-bc87ba9099c7","ios":"levelo://app?vid=eb309792-c054-43e7-b72d-bc87ba9099c7"},"vehicle_type_id":"4","last_reported":1717369646,"current_range_meters":6000,"station_id":"ce4bgt12rcd13ifvqce0","pricing_plan_id":"cebpf4jnsgd1na2vs0mg"},{"bike_id":"284d4481-b8b1-47dd-9a75-7fdb51a5d318","system_id":"levelo_inurba_marseille","lat":43.308012,"lon":5.381511,"is_reserved":false,"is_disabled":false,"rental_uris":{"android":"levelo://app?vid=284d4481-b8b1-47dd-9a75-7fdb51a5d318","ios":"levelo://app?vid=284d4481-b8b1-47dd-9a75-7fdb51a5d318"},"vehicle_type_id":"4","last_reported":1717369646,"current_range_meters":19600,"station_id":"ce4bgt12rcd13ifvqce0","pricing_plan_id":"cebpf4jnsgd1na2vs0mg"},{"bike_id":"06b937cb-d644-4298-989a-2594d309a537","system_id":"levelo_inurba_marseille","lat":43.308012,"lon":5.381511,"is_reserved":false,"is_disabled":false,"rental_uris":{"android":"levelo://app?vid=06b937cb-d644-4298-989a-2594d309a537","ios":"levelo://app?vid=06b937cb-d644-4298-989a-2594d309a537"},"vehicle_type_id":"4","last_reported":1717369646,"current_range_meters":21200,"station_id":"ce4bgt12rcd13ifvqce0","pricing_plan_id":"cebpf4jnsgd1na2vs0mg"},{"bike_id":"390201f5-32c2-4580-9eef-fc5b61446963","system_id":"levelo_inurba_marseille","lat":43.308012,"lon":5.381511,"is_reserved":false,"is_disabled":false,"rental_uris":{"android":"levelo://app?vid=390201f5-32c2-4580-9eef-fc5b61446963","ios":"levelo://app?vid=390201f5-32c2-4580-9eef-fc5b61446963"},"vehicle_type_id":"4","last_reported":1717369646,"current_range_meters":16800,"station_id":"ce4bgt12rcd13ifvqce0","pricing_plan_id":"cebpf4jnsgd1na2vs0mg"},{"bike_id":"34aeff1e-f0f8-443e-a3e9-b2ca90719b50","system_id":"levelo_inurba_marseille","lat":43.308012,"lon":5.381511,"is_reserved":false,"is_disabled":false,"rental_uris":{"android":"levelo://app?vid=34aeff1e-f0f8-443e-a3e9-b2ca90719b50","ios":"levelo://app?vid=34aeff1e-f0f8-443e-a3e9-b2ca90719b50"},"vehicle_type_id":"4","last_reported":1717369646,"current_range_meters":7200,"station_id":"ce4bgt12rcd13ifvqce0","pricing_plan_id":"cebpf4jnsgd1na2vs0mg"},{"bike_id":"8fbc5df4-0393-496c-8753-9e7e6c0bd551","system_id":"levelo_inurba_marseille","lat":43.308012,"lon":5.381511,"is_reserved":false,"is_disabled":false,"rental_uris":{"android":"levelo://app?vid=8fbc5df4-0393-496c-8753-9e7e6c0bd551","ios":"levelo://app?vid=8fbc5df4-0393-496c-8753-9e7e6c0bd551"},"vehicle_type_id":"4","last_reported":1717369646,"current_range_meters":14000,"station_id":"ce4bgt12rcd13ifvqce0","pricing_plan_id":"cebpf4jnsgd1na2vs0mg"},{"bike_id":"1f83fed1-a777-4a2b-a497-6fac4a93dff7","system_id":"levelo_inurba_marseille","lat":43.308012,"lon":5.381511,"is_reserved":false,"is_disabled":false,"rental_uris":{"android":"levelo://app?vid=1f83fed1-a777-4a2b-a497-6fac4a93dff7","ios":"levelo://app?vid=1f83fed1-a777-4a2b-a497-6fac4a93dff7"},"vehicle_type_id":"4","last_reported":1717369646,"current_range_meters":22400,"station_id":"ce4bgt12rcd13ifvqce0","pricing_plan_id":"cebpf4jnsgd1na2vs0mg"},{"bike_id":"a080a0a7-c2c9-42c4-8f0b-4231309256e6","system_id":"levelo_inurba_marseille","lat":43.308012,"lon":5.381511,"is_reserved":false,"is_disabled":false,"rental_uris":{"android":"levelo://app?vid=a080a0a7-c2c9-42c4-8f0b-4231309256e6","ios":"levelo://app?vid=a080a0a7-c2c9-42c4-8f0b-4231309256e6"},"vehicle_type_id":"4","last_reported":1717369646,"current_range_meters":15600,"station_id":"ce4bgt12rcd13ifvqce0","pricing_plan_id":"cebpf4jnsgd1na2vs0mg"},{"bike_id":"a4646b2a-9c5c-4a20-92e3-a2728afbede5","system_id":"levelo_inurba_marseille","lat":43.308012,"lon":5.381511,"is_reserved":false,"is_disabled":false,"rental_uris":{"android":"levelo://app?vid=a4646b2a-9c5c-4a20-92e3-a2728afbede5","ios":"levelo://app?vid=a4646b2a-9c5c-4a20-92e3-a2728afbede5"},"vehicle_type_id":"4","last_reported":1717369646,"current_range_meters":24400,"station_id":"ce4bgt12rcd13ifvqce0","pricing_plan_id":"cebpf4jnsgd1na2vs0mg"},{"bike_id":"9dc8ee1a-fa89-483b-8100-4e4c74032c91","system_id":"levelo_inurba_marseille","lat":43.308012,"lon":5.381511,"is_reserved":false,"is_disabled":false,"rental_uris":{"android":"levelo://app?vid=9dc8ee1a-fa89-483b-8100-4e4c74032c91","ios":"levelo://app?vid=9dc8ee1a-fa89-483b-8100-4e4c74032c91"},"vehicle_type_id":"4","last_reported":1717369646,"current_range_meters":10000,"station_id":"ce4bgt12rcd13ifvqce0","pricing_plan_id":"cebpf4jnsgd1na2vs0mg"},{"bike_id":"3c5baeaf-597f-4109-b344-1352aaaa620b","system_id":"levelo_inurba_marseille","lat":43.308012,"lon":5.381511,"is_reserved":false,"is_disabled":false,"rental_uris":{"android":"levelo://app?vid=3c5baeaf-597f-4109-b344-1352aaaa620b","ios":"levelo://app?vid=3c5baeaf-597f-4109-b344-1352aaaa620b"},"vehicle_type_id":"4","last_reported":1717369646,"current_range_meters":7600,"station_id":"ce4bgt12rcd13ifvqce0","pricing_plan_id":"cebpf4jnsgd1na2vs0mg"},{"bike_id":"c89d7b30-3fef-4669-9add-9e35f56f0471","system_id":"levelo_inurba_marseille","lat":43.308012,"lon":5.381511,"is_reserved":false,"is_disabled":false,"rental_uris":{"android":"levelo://app?vid=c89d7b30-3fef-4669-9add-9e35f56f0471","ios":"levelo://app?vid=c89d7b30-3fef-4669-9add-9e35f56f0471"},"vehicle_type_id":"4","last_reported":1717369646,"current_range_meters":5200,"station_id":"ce4bgt12rcd13ifvqce0","pricing_plan_id":"cebpf4jnsgd1na2vs0mg"},{"bike_id":"e0e1e902-0894-4b79-9845-d8090ca246a6","system_id":"levelo_inurba_marseille","lat":43.308012,"lon":5.381511,"is_reserved":false,"is_disabled":false,"rental_uris":{"android":"levelo://app?vid=e0e1e902-0894-4b79-9845-d8090ca246a6","ios":"levelo://app?vid=e0e1e902-0894-4b79-9845-d8090ca246a6"},"vehicle_type_id":"4","last_reported":1717369646,"current_range_meters":18400,"station_id":"ce4bgt12rcd13ifvqce0","pricing_plan_id":"cebpf4jnsgd1na2vs0mg"},{"bike_id":"acdcef8c-85bf-4062-908b-3dc8e4451642","system_id":"levelo_inurba_marseille","lat":43.304606,"lon":5.379026,"is_reserved":false,"is_disabled":false,"rental_uris":{"android":"levelo://app?vid=acdcef8c-85bf-4062-908b-3dc8e4451642","ios":"levelo://app?vid=acdcef8c-85bf-4062-908b-3dc8e4451642"},"vehicle_type_id":"4","last_reported":1717369646,"current_range_meters":27200,"station_id":"ce4bgup2rcd13ifvqcn0","pricing_plan_id":"cebpf4jnsgd1na2vs0mg"},{"bike_id":"bac6cdac-2fc7-4005-abfb-21a28f64b272","system_id":"levelo_inurba_marseille","lat":43.3046,"lon":5.37896,"is_reserved":false,"is_disabled":false,"rental_uris":{"android":"levelo://app?vid=bac6cdac-2fc7-4005-abfb-21a28f64b272","ios":"levelo://app?vid=bac6cdac-2fc7-4005-abfb-21a28f64b272"},"vehicle_type_id":"4","last_reported":1717369646,"current_range_meters":14400,"station_id":"ce4bgup2rcd13ifvqcn0","pricing_plan_id":"cebpf4jnsgd1na2vs0mg"},{"bike_id":"92ec211f-0b53-4f34-b1e9-036fd0d768f7","system_id":"levelo_inurba_marseille","lat":43.324771,"lon":5.36557,"is_reserved":false,"is_disabled":false,"rental_uris":{"android":"levelo://app?vid=92ec211f-0b53-4f34-b1e9-036fd0d768f7","ios":"levelo://app?vid=92ec211f-0b53-4f34-b1e9-036fd0d768f7"},"vehicle_type_id":"4","last_reported":1717369646,"current_range_meters":0,"station_id":"ce4bhs12rcd13ifvqhvg","pricing_plan_id":"cebpf4jnsgd1na2vs0mg"},{"bike_id":"d329921e-d5cd-4918-aadc-6a70cc832d18","system_id":"levelo_inurba_marseille","lat":43.310804,"lon":5.38359,"is_reserved":false,"is_disabled":false,"rental_uris":{"android":"levelo://app?vid=d329921e-d5cd-4918-aadc-6a70cc832d18","ios":"levelo://app?vid=d329921e-d5cd-4918-aadc-6a70cc832d18"},"vehicle_type_id":"4","last_reported":1717369646,"current_range_meters":27600,"station_id":"ce4bgv92rcd13ifvqcr0","pricing_plan_id":"cebpf4jnsgd1na2vs0mg"},{"bike_id":"2a52533d-b188-4f06-97b2-c0a710fd166f","system_id":"levelo_inurba_marseille","lat":43.310804,"lon":5.38359,"is_reserved":false,"is_disabled":false,"rental_uris":{"android":"levelo://app?vid=2a52533d-b188-4f06-97b2-c0a710fd166f","ios":"levelo://app?vid=2a52533d-b188-4f06-97b2-c0a710fd166f"},"vehicle_type_id":"4","last_reported":1717369646,"current_range_meters":1200,"station_id":"ce4bgv92rcd13ifvqcr0","pricing_plan_id":"cebpf4jnsgd1na2vs0mg"},{"bike_id":"876e98a0-d3ac-4278-bcb4-96882086b030","system_id":"levelo_inurba_marseille","lat":43.324771,"lon":5.36557,"is_reserved":false,"is_disabled":false,"rental_uris":{"android":"levelo://app?vid=876e98a0-d3ac-4278-bcb4-96882086b030","ios":"levelo://app?vid=876e98a0-d3ac-4278-bcb4-96882086b030"},"vehicle_type_id":"4","last_reported":1717369646,"current_range_meters":400,"station_id":"ce4bhs12rcd13ifvqhvg","pricing_plan_id":"cebpf4jnsgd1na2vs0mg"},{"bike_id":"b7f737a8-0342-4234-9569-32932c766cac","system_id":"levelo_inurba_marseille","lat":43.310804,"lon":5.38359,"is_reserved":false,"is_disabled":false,"rental_uris":{"android":"levelo://app?vid=b7f737a8-0342-4234-9569-32932c766cac","ios":"levelo://app?vid=b7f737a8-0342-4234-9569-32932c766cac"},"vehicle_type_id":"4","last_reported":1717369646,"current_range_meters":4400,"station_id":"ce4bgv92rcd13ifvqcr0","pricing_plan_id":"cebpf4jnsgd1na2vs0mg"},{"bike_id":"dfb069e9-7f33-48f1-a51d-6ff0b9197b6f","system_id":"levelo_inurba_marseille","lat":43.310804,"lon":5.38359,"is_reserved":false,"is_disabled":false,"rental_uris":{"android":"levelo://app?vid=dfb069e9-7f33-48f1-a51d-6ff0b9197b6f","ios":"levelo://app?vid=dfb069e9-7f33-48f1-a51d-6ff0b9197b6f"},"vehicle_type_id":"4","last_reported":1717369646,"current_range_meters":18400,"station_id":"ce4bgv92rcd13ifvqcr0","pricing_plan_id":"cebpf4jnsgd1na2vs0mg"},{"bike_id":"ecdf0cb4-5b6a-4936-8d1e-de4d1cf232f3","system_id":"levelo_inurba_marseille","lat":43.310804,"lon":5.38359,"is_reserved":false,"is_disabled":false,"rental_uris":{"android":"levelo://app?vid=ecdf0cb4-5b6a-4936-8d1e-de4d1cf232f3","ios":"levelo://app?vid=ecdf0cb4-5b6a-4936-8d1e-de4d1cf232f3"},"vehicle_type_id":"4","last_reported":1717369646,"current_range_meters":6800,"station_id":"ce4bgv92rcd13ifvqcr0","pricing_plan_id":"cebpf4jnsgd1na2vs0mg"},{"bike_id":"a0d5c252-fd2a-4a32-9544-21ecd63963cb","system_id":"levelo_inurba_marseille","lat":43.310804,"lon":5.38359,"is_reserved":false,"is_disabled":false,"rental_uris":{"android":"levelo://app?vid=a0d5c252-fd2a-4a32-9544-21ecd63963cb","ios":"levelo://app?vid=a0d5c252-fd2a-4a32-9544-21ecd63963cb"},"vehicle_type_id":"4","last_reported":1717369646,"current_range_meters":20400,"station_id":"ce4bgv92rcd13ifvqcr0","pricing_plan_id":"cebpf4jnsgd1na2vs0mg"},{"bike_id":"8a4e557f-1e64-4010-aed0-96fafc5f50e1","system_id":"levelo_inurba_marseille","lat":43.301429,"lon":5.37413,"is_reserved":false,"is_disabled":false,"rental_uris":{"android":"levelo://app?vid=8a4e557f-1e64-4010-aed0-96fafc5f50e1","ios":"levelo://app?vid=8a4e557f-1e64-4010-aed0-96fafc5f50e1"},"vehicle_type_id":"4","last_reported":1717369646,"current_range_meters":27200,"station_id":"ce4bgs92rcd13ifvqcc0","pricing_plan_id":"cebpf4jnsgd1na2vs0mg"},{"bike_id":"0e7f4bcc-4806-4add-b595-fd726b6d2e52","system_id":"levelo_inurba_marseille","lat":43.319935,"lon":5.381699,"is_reserved":false,"is_disabled":false,"rental_uris":{"android":"levelo://app?vid=0e7f4bcc-4806-4add-b595-fd726b6d2e52","ios":"levelo://app?vid=0e7f4bcc-4806-4add-b595-fd726b6d2e52"},"vehicle_type_id":"4","last_reported":1717369646,"current_range_meters":10800,"station_id":"ce4bhr12rcd13ifvqhpg","pricing_plan_id":"cebpf4jnsgd1na2vs0mg"},{"bike_id":"9b93a1d8-853a-479d-b3b8-795cae429c8f","system_id":"levelo_inurba_marseille","lat":43.319935,"lon":5.381699,"is_reserved":false,"is_disabled":false,"rental_uris":{"android":"levelo://app?vid=9b93a1d8-853a-479d-b3b8-795cae429c8f","ios":"levelo://app?vid=9b93a1d8-853a-479d-b3b8-795cae429c8f"},"vehicle_type_id":"4","last_reported":1717369646,"current_range_meters":23200,"station_id":"ce4bhr12rcd13ifvqhpg","pricing_plan_id":"cebpf4jnsgd1na2vs0mg"},{"bike_id":"9957c2af-051a-43eb-b9b6-251c6acdf953","system_id":"levelo_inurba_marseille","lat":43.31993,"lon":5.38149,"is_reserved":false,"is_disabled":false,"rental_uris":{"android":"levelo://app?vid=9957c2af-051a-43eb-b9b6-251c6acdf953","ios":"levelo://app?vid=9957c2af-051a-43eb-b9b6-251c6acdf953"},"vehicle_type_id":"4","last_reported":1717369646,"current_range_meters":5200,"station_id":"ce4bhr12rcd13ifvqhpg","pricing_plan_id":"cebpf4jnsgd1na2vs0mg"},{"bike_id":"ea0cac55-8948-4827-b4a3-783af1457367","system_id":"levelo_inurba_marseille","lat":43.31998,"lon":5.38145,"is_reserved":false,"is_disabled":false,"rental_uris":{"android":"levelo://app?vid=ea0cac55-8948-4827-b4a3-783af1457367","ios":"levelo://app?vid=ea0cac55-8948-4827-b4a3-783af1457367"},"vehicle_type_id":"4","last_reported":1717369646,"current_range_meters":16800,"station_id":"ce4bhr12rcd13ifvqhpg","pricing_plan_id":"cebpf4jnsgd1na2vs0mg"},{"bike_id":"531b3ffb-8130-494e-9b05-7400a01f3ba2","system_id":"levelo_inurba_marseille","lat":43.320065,"lon":5.38152,"is_reserved":false,"is_disabled":false,"rental_uris":{"android":"levelo://app?vid=531b3ffb-8130-494e-9b05-7400a01f3ba2","ios":"levelo://app?vid=531b3ffb-8130-494e-9b05-7400a01f3ba2"},"vehicle_type_id":"4","last_reported":1717369646,"current_range_meters":2000,"station_id":"ce4bhr12rcd13ifvqhpg","pricing_plan_id":"cebpf4jnsgd1na2vs0mg"},{"bike_id":"30fc2125-45bb-4e15-9bd1-49305cdc3170","system_id":"levelo_inurba_marseille","lat":43.313571,"lon":5.384829,"is_reserved":false,"is_disabled":false,"rental_uris":{"android":"levelo://app?vid=30fc2125-45bb-4e15-9bd1-49305cdc3170","ios":"levelo://app?vid=30fc2125-45bb-4e15-9bd1-49305cdc3170"},"vehicle_type_id":"4","last_reported":1717369646,"current_range_meters":20400,"station_id":"ce4bgt92rcd13ifvqcf0","pricing_plan_id":"cebpf4jnsgd1na2vs0mg"},{"bike_id":"aca50ddf-4960-4702-ba67-cfc84afae026","system_id":"levelo_inurba_marseille","lat":43.313571,"lon":5.384829,"is_reserved":false,"is_disabled":false,"rental_uris":{"android":"levelo://app?vid=aca50ddf-4960-4702-ba67-cfc84afae026","ios":"levelo://app?vid=aca50ddf-4960-4702-ba67-cfc84afae026"},"vehicle_type_id":"4","last_reported":1717369646,"current_range_meters":20000,"station_id":"ce4bgt92rcd13ifvqcf0","pricing_plan_id":"cebpf4jnsgd1na2vs0mg"},{"bike_id":"711926e2-06ca-48d2-a3fa-1360c63beabd","system_id":"levelo_inurba_marseille","lat":43.313571,"lon":5.384829,"is_reserved":false,"is_disabled":false,"rental_uris":{"android":"levelo://app?vid=711926e2-06ca-48d2-a3fa-1360c63beabd","ios":"levelo://app?vid=711926e2-06ca-48d2-a3fa-1360c63beabd"},"vehicle_type_id":"4","last_reported":1717369646,"current_range_meters":15200,"station_id":"ce4bgt92rcd13ifvqcf0","pricing_plan_id":"cebpf4jnsgd1na2vs0mg"},{"bike_id":"8966cd8c-9080-40d3-ae02-4ef9c1ef63b8","system_id":"levelo_inurba_marseille","lat":43.313525,"lon":5.384907,"is_reserved":false,"is_disabled":false,"rental_uris":{"android":"levelo://app?vid=8966cd8c-9080-40d3-ae02-4ef9c1ef63b8","ios":"levelo://app?vid=8966cd8c-9080-40d3-ae02-4ef9c1ef63b8"},"vehicle_type_id":"4","last_reported":1717369646,"current_range_meters":0,"station_id":"ce4bgt92rcd13ifvqcf0","pricing_plan_id":"cebpf4jnsgd1na2vs0mg"},{"bike_id":"45006de4-2227-4371-aa2c-bc2dd0245d7e","system_id":"levelo_inurba_marseille","lat":43.313533,"lon":5.384913,"is_reserved":false,"is_disabled":false,"rental_uris":{"android":"levelo://app?vid=45006de4-2227-4371-aa2c-bc2dd0245d7e","ios":"levelo://app?vid=45006de4-2227-4371-aa2c-bc2dd0245d7e"},"vehicle_type_id":"4","last_reported":1717369646,"current_range_meters":20800,"station_id":"ce4bgt92rcd13ifvqcf0","pricing_plan_id":"cebpf4jnsgd1na2vs0mg"},{"bike_id":"0e2abe5d-45bf-4a08-9683-3c8e6623e4f5","system_id":"levelo_inurba_marseille","lat":43.30076,"lon":5.374793,"is_reserved":false,"is_disabled":false,"rental_uris":{"android":"levelo://app?vid=0e2abe5d-45bf-4a08-9683-3c8e6623e4f5","ios":"levelo://app?vid=0e2abe5d-45bf-4a08-9683-3c8e6623e4f5"},"vehicle_type_id":"4","last_reported":1717369646,"current_range_meters":11200,"station_id":"","pricing_plan_id":"cebpf4jnsgd1na2vs0mg"},{"bike_id":"e6ee5ba3-072e-4027-978f-4179103713f1","system_id":"levelo_inurba_marseille","lat":43.29985,"lon":5.37171,"is_reserved":false,"is_disabled":false,"rental_uris":{"android":"levelo://app?vid=e6ee5ba3-072e-4027-978f-4179103713f1","ios":"levelo://app?vid=e6ee5ba3-072e-4027-978f-4179103713f1"},"vehicle_type_id":"4","last_reported":1717369646,"current_range_meters":31200,"station_id":"ce4bgr92rcd13ifvqc7g","pricing_plan_id":"cebpf4jnsgd1na2vs0mg"},{"bike_id":"dc2efeb1-ce0d-42e5-8470-d7357c7f02fa","system_id":"levelo_inurba_marseille","lat":43.299805,"lon":5.371765,"is_reserved":false,"is_disabled":false,"rental_uris":{"android":"levelo://app?vid=dc2efeb1-ce0d-42e5-8470-d7357c7f02fa","ios":"levelo://app?vid=dc2efeb1-ce0d-42e5-8470-d7357c7f02fa"},"vehicle_type_id":"4","last_reported":1717369646,"current_range_meters":24800,"station_id":"ce4bgr92rcd13ifvqc7g","pricing_plan_id":"cebpf4jnsgd1na2vs0mg"},{"bike_id":"7306b20b-e56a-4eab-9bf8-fc9435a0d665","system_id":"levelo_inurba_marseille","lat":43.299783,"lon":5.371695,"is_reserved":false,"is_disabled":false,"rental_uris":{"android":"levelo://app?vid=7306b20b-e56a-4eab-9bf8-fc9435a0d665","ios":"levelo://app?vid=7306b20b-e56a-4eab-9bf8-fc9435a0d665"},"vehicle_type_id":"4","last_reported":1717369646,"current_range_meters":22000,"station_id":"ce4bgr92rcd13ifvqc7g","pricing_plan_id":"cebpf4jnsgd1na2vs0mg"},{"bike_id":"cc89c369-ca8a-4fb0-8013-ed1f18a972ad","system_id":"levelo_inurba_marseille","lat":43.29979,"lon":5.37174,"is_reserved":false,"is_disabled":false,"rental_uris":{"android":"levelo://app?vid=cc89c369-ca8a-4fb0-8013-ed1f18a972ad","ios":"levelo://app?vid=cc89c369-ca8a-4fb0-8013-ed1f18a972ad"},"vehicle_type_id":"4","last_reported":1717369646,"current_range_meters":17600,"station_id":"ce4bgr92rcd13ifvqc7g","pricing_plan_id":"cebpf4jnsgd1na2vs0mg"},{"bike_id":"2943fb7b-c2a1-4586-978f-4c3651be46da","system_id":"levelo_inurba_marseille","lat":43.299724,"lon":5.371829,"is_reserved":false,"is_disabled":false,"rental_uris":{"android":"levelo://app?vid=2943fb7b-c2a1-4586-978f-4c3651be46da","ios":"levelo://app?vid=2943fb7b-c2a1-4586-978f-4c3651be46da"},"vehicle_type_id":"4","last_reported":1717369646,"current_range_meters":31200,"station_id":"ce4bgr92rcd13ifvqc7g","pricing_plan_id":"cebpf4jnsgd1na2vs0mg"},{"bike_id":"ca5adda4-019c-4a4a-8ae2-bae822f67b8d","system_id":"levelo_inurba_marseille","lat":43.299742,"lon":5.371665,"is_reserved":false,"is_disabled":false,"rental_uris":{"android":"levelo://app?vid=ca5adda4-019c-4a4a-8ae2-bae822f67b8d","ios":"levelo://app?vid=ca5adda4-019c-4a4a-8ae2-bae822f67b8d"},"vehicle_type_id":"4","last_reported":1717369646,"current_range_meters":11200,"station_id":"ce4bgr92rcd13ifvqc7g","pricing_plan_id":"cebpf4jnsgd1na2vs0mg"},{"bike_id":"fd5cb871-d0a1-46fd-aac0-ed2ed4d354d0","system_id":"levelo_inurba_marseille","lat":43.29974,"lon":5.37173,"is_reserved":false,"is_disabled":false,"rental_uris":{"android":"levelo://app?vid=fd5cb871-d0a1-46fd-aac0-ed2ed4d354d0","ios":"levelo://app?vid=fd5cb871-d0a1-46fd-aac0-ed2ed4d354d0"},"vehicle_type_id":"4","last_reported":1717369646,"current_range_meters":26400,"station_id":"ce4bgr92rcd13ifvqc7g","pricing_plan_id":"cebpf4jnsgd1na2vs0mg"},{"bike_id":"d763a472-5e52-4c85-8d5d-8797d3caa828","system_id":"levelo_inurba_marseille","lat":43.299744,"lon":5.371778,"is_reserved":false,"is_disabled":false,"rental_uris":{"android":"levelo://app?vid=d763a472-5e52-4c85-8d5d-8797d3caa828","ios":"levelo://app?vid=d763a472-5e52-4c85-8d5d-8797d3caa828"},"vehicle_type_id":"4","last_reported":1717369646,"current_range_meters":12800,"station_id":"ce4bgr92rcd13ifvqc7g","pricing_plan_id":"cebpf4jnsgd1na2vs0mg"},{"bike_id":"c44097f0-4fc5-4862-b8c7-3727a31e4a87","system_id":"levelo_inurba_marseille","lat":43.299222,"lon":5.365554,"is_reserved":false,"is_disabled":false,"rental_uris":{"android":"levelo://app?vid=c44097f0-4fc5-4862-b8c7-3727a31e4a87","ios":"levelo://app?vid=c44097f0-4fc5-4862-b8c7-3727a31e4a87"},"vehicle_type_id":"4","last_reported":1717369646,"current_range_meters":16400,"station_id":"ce4bgm92rcd13ifvqbr0","pricing_plan_id":"cebpf4jnsgd1na2vs0mg"},{"bike_id":"1f57d462-78cf-4184-9d7d-d240a1e4d75a","system_id":"levelo_inurba_marseille","lat":43.299724,"lon":5.371736,"is_reserved":false,"is_disabled":false,"rental_uris":{"android":"levelo://app?vid=1f57d462-78cf-4184-9d7d-d240a1e4d75a","ios":"levelo://app?vid=1f57d462-78cf-4184-9d7d-d240a1e4d75a"},"vehicle_type_id":"4","last_reported":1717369646,"current_range_meters":18000,"station_id":"ce4bgr92rcd13ifvqc7g","pricing_plan_id":"cebpf4jnsgd1na2vs0mg"},{"bike_id":"7c0279c4-785e-41cc-9875-11b1aa5697b0","system_id":"levelo_inurba_marseille","lat":43.298433,"lon":5.362774,"is_reserved":false,"is_disabled":false,"rental_uris":{"android":"levelo://app?vid=7c0279c4-785e-41cc-9875-11b1aa5697b0","ios":"levelo://app?vid=7c0279c4-785e-41cc-9875-11b1aa5697b0"},"vehicle_type_id":"4","last_reported":1717369646,"current_range_meters":29600,"station_id":"ce4bgpp2rcd13ifvqc3g","pricing_plan_id":"cebpf4jnsgd1na2vs0mg"},{"bike_id":"6035aecc-5328-4ffa-9e58-7a46d052199b","system_id":"levelo_inurba_marseille","lat":43.298433,"lon":5.362774,"is_reserved":false,"is_disabled":false,"rental_uris":{"android":"levelo://app?vid=6035aecc-5328-4ffa-9e58-7a46d052199b","ios":"levelo://app?vid=6035aecc-5328-4ffa-9e58-7a46d052199b"},"vehicle_type_id":"4","last_reported":1717369646,"current_range_meters":28000,"station_id":"ce4bgpp2rcd13ifvqc3g","pricing_plan_id":"cebpf4jnsgd1na2vs0mg"},{"bike_id":"e6ed08f0-235a-41f5-b7df-927bf399b915","system_id":"levelo_inurba_marseille","lat":43.305364,"lon":5.384119,"is_reserved":false,"is_disabled":false,"rental_uris":{"android":"levelo://app?vid=e6ed08f0-235a-41f5-b7df-927bf399b915","ios":"levelo://app?vid=e6ed08f0-235a-41f5-b7df-927bf399b915"},"vehicle_type_id":"4","last_reported":1717369646,"current_range_meters":25600,"station_id":"ce4bgg92rcd13ifvqb30","pricing_plan_id":"cebpf4jnsgd1na2vs0mg"},{"bike_id":"bfe6a683-9536-4c7f-bd1e-0acc8b1dc7a0","system_id":"levelo_inurba_marseille","lat":43.311722,"lon":5.387247,"is_reserved":false,"is_disabled":false,"rental_uris":{"android":"levelo://app?vid=bfe6a683-9536-4c7f-bd1e-0acc8b1dc7a0","ios":"levelo://app?vid=bfe6a683-9536-4c7f-bd1e-0acc8b1dc7a0"},"vehicle_type_id":"4","last_reported":1717369646,"current_range_meters":16800,"station_id":"ce4bgv12rcd13ifvqcp0","pricing_plan_id":"cebpf4jnsgd1na2vs0mg"},{"bike_id":"cd7806e9-c795-402b-a3a7-c6b9e23f870f","system_id":"levelo_inurba_marseille","lat":43.311722,"lon":5.387247,"is_reserved":false,"is_disabled":false,"rental_uris":{"android":"levelo://app?vid=cd7806e9-c795-402b-a3a7-c6b9e23f870f","ios":"levelo://app?vid=cd7806e9-c795-402b-a3a7-c6b9e23f870f"},"vehicle_type_id":"4","last_reported":1717369646,"current_range_meters":28000,"station_id":"ce4bgv12rcd13ifvqcp0","pricing_plan_id":"cebpf4jnsgd1na2vs0mg"},{"bike_id":"8eb39a97-1a9f-4b46-b8a3-2c2b0e31f120","system_id":"levelo_inurba_marseille","lat":43.298433,"lon":5.362774,"is_reserved":false,"is_disabled":false,"rental_uris":{"android":"levelo://app?vid=8eb39a97-1a9f-4b46-b8a3-2c2b0e31f120","ios":"levelo://app?vid=8eb39a97-1a9f-4b46-b8a3-2c2b0e31f120"},"vehicle_type_id":"4","last_reported":1717369646,"current_range_meters":27600,"station_id":"ce4bgpp2rcd13ifvqc3g","pricing_plan_id":"cebpf4jnsgd1na2vs0mg"},{"bike_id":"59dc0f5d-9af0-432d-876c-96314462781b","system_id":"levelo_inurba_marseille","lat":43.299243,"lon":5.37481,"is_reserved":false,"is_disabled":false,"rental_uris":{"android":"levelo://app?vid=59dc0f5d-9af0-432d-876c-96314462781b","ios":"levelo://app?vid=59dc0f5d-9af0-432d-876c-96314462781b"},"vehicle_type_id":"4","last_reported":1717369646,"current_range_meters":23200,"station_id":"ce4bgjh2rcd13ifvqbg0","pricing_plan_id":"cebpf4jnsgd1na2vs0mg"},{"bike_id":"9bc35a85-9aad-431f-a49a-45968f296416","system_id":"levelo_inurba_marseille","lat":43.31166,"lon":5.38709,"is_reserved":false,"is_disabled":false,"rental_uris":{"android":"levelo://app?vid=9bc35a85-9aad-431f-a49a-45968f296416","ios":"levelo://app?vid=9bc35a85-9aad-431f-a49a-45968f296416"},"vehicle_type_id":"4","last_reported":1717369646,"current_range_meters":2000,"station_id":"ce4bgv12rcd13ifvqcp0","pricing_plan_id":"cebpf4jnsgd1na2vs0mg"},{"bike_id":"005944dd-fbae-4020-ae7d-e9cecf872841","system_id":"levelo_inurba_marseille","lat":43.31168,"lon":5.387109,"is_reserved":false,"is_disabled":false,"rental_uris":{"android":"levelo://app?vid=005944dd-fbae-4020-ae7d-e9cecf872841","ios":"levelo://app?vid=005944dd-fbae-4020-ae7d-e9cecf872841"},"vehicle_type_id":"4","last_reported":1717369646,"current_range_meters":7200,"station_id":"ce4bgv12rcd13ifvqcp0","pricing_plan_id":"cebpf4jnsgd1na2vs0mg"},{"bike_id":"03d64a5b-632b-49a1-bf1f-46908b6695eb","system_id":"levelo_inurba_marseille","lat":43.31167,"lon":5.38712,"is_reserved":false,"is_disabled":false,"rental_uris":{"android":"levelo://app?vid=03d64a5b-632b-49a1-bf1f-46908b6695eb","ios":"levelo://app?vid=03d64a5b-632b-49a1-bf1f-46908b6695eb"},"vehicle_type_id":"4","last_reported":1717369646,"current_range_meters":4800,"station_id":"ce4bgv12rcd13ifvqcp0","pricing_plan_id":"cebpf4jnsgd1na2vs0mg"},{"bike_id":"d67af489-3718-4b1d-914e-224a54e63b98","system_id":"levelo_inurba_marseille","lat":43.311693,"lon":5.387127,"is_reserved":false,"is_disabled":false,"rental_uris":{"android":"levelo://app?vid=d67af489-3718-4b1d-914e-224a54e63b98","ios":"levelo://app?vid=d67af489-3718-4b1d-914e-224a54e63b98"},"vehicle_type_id":"4","last_reported":1717369646,"current_range_meters":7200,"station_id":"ce4bgv12rcd13ifvqcp0","pricing_plan_id":"cebpf4jnsgd1na2vs0mg"},{"bike_id":"78f553ab-41d3-43d8-ba31-361988e343b9","system_id":"levelo_inurba_marseille","lat":43.31172,"lon":5.38713,"is_reserved":false,"is_disabled":false,"rental_uris":{"android":"levelo://app?vid=78f553ab-41d3-43d8-ba31-361988e343b9","ios":"levelo://app?vid=78f553ab-41d3-43d8-ba31-361988e343b9"},"vehicle_type_id":"4","last_reported":1717369646,"current_range_meters":16800,"station_id":"ce4bgv12rcd13ifvqcp0","pricing_plan_id":"cebpf4jnsgd1na2vs0mg"},{"bike_id":"d630ff21-5252-4190-a01b-129bee7f4f96","system_id":"levelo_inurba_marseille","lat":43.299243,"lon":5.374807,"is_reserved":false,"is_disabled":false,"rental_uris":{"android":"levelo://app?vid=d630ff21-5252-4190-a01b-129bee7f4f96","ios":"levelo://app?vid=d630ff21-5252-4190-a01b-129bee7f4f96"},"vehicle_type_id":"4","last_reported":1717369646,"current_range_meters":16800,"station_id":"ce4bgjh2rcd13ifvqbg0","pricing_plan_id":"cebpf4jnsgd1na2vs0mg"},{"bike_id":"77c3cc05-dbb9-4072-98bd-862d9f29d43d","system_id":"levelo_inurba_marseille","lat":43.31169,"lon":5.38716,"is_reserved":false,"is_disabled":false,"rental_uris":{"android":"levelo://app?vid=77c3cc05-dbb9-4072-98bd-862d9f29d43d","ios":"levelo://app?vid=77c3cc05-dbb9-4072-98bd-862d9f29d43d"},"vehicle_type_id":"4","last_reported":1717369646,"current_range_meters":0,"station_id":"ce4bgv12rcd13ifvqcp0","pricing_plan_id":"cebpf4jnsgd1na2vs0mg"},{"bike_id":"d20aded4-be59-48a2-81cc-d9a858371321","system_id":"levelo_inurba_marseille","lat":43.3117,"lon":5.38719,"is_reserved":false,"is_disabled":false,"rental_uris":{"android":"levelo://app?vid=d20aded4-be59-48a2-81cc-d9a858371321","ios":"levelo://app?vid=d20aded4-be59-48a2-81cc-d9a858371321"},"vehicle_type_id":"4","last_reported":1717369646,"current_range_meters":19200,"station_id":"ce4bgv12rcd13ifvqcp0","pricing_plan_id":"cebpf4jnsgd1na2vs0mg"},{"bike_id":"dcae4b4d-e292-47c8-ae64-e19c696d1728","system_id":"levelo_inurba_marseille","lat":43.322872,"lon":5.382756,"is_reserved":false,"is_disabled":false,"rental_uris":{"android":"levelo://app?vid=dcae4b4d-e292-47c8-ae64-e19c696d1728","ios":"levelo://app?vid=dcae4b4d-e292-47c8-ae64-e19c696d1728"},"vehicle_type_id":"4","last_reported":1717369646,"current_range_meters":400,"station_id":"ce4bhr12rcd13ifvqhqg","pricing_plan_id":"cebpf4jnsgd1na2vs0mg"},{"bike_id":"10fb4334-c940-4455-979b-d3f1ca32e262","system_id":"levelo_inurba_marseille","lat":43.297774,"lon":5.370875,"is_reserved":false,"is_disabled":false,"rental_uris":{"android":"levelo://app?vid=10fb4334-c940-4455-979b-d3f1ca32e262","ios":"levelo://app?vid=10fb4334-c940-4455-979b-d3f1ca32e262"},"vehicle_type_id":"4","last_reported":1717369646,"current_range_meters":28400,"station_id":"ce4bgop2rcd13ifvqc1g","pricing_plan_id":"cebpf4jnsgd1na2vs0mg"},{"bike_id":"4073dc4c-59c8-4129-accc-8a7ee0b58a8a","system_id":"levelo_inurba_marseille","lat":43.297774,"lon":5.370875,"is_reserved":false,"is_disabled":false,"rental_uris":{"android":"levelo://app?vid=4073dc4c-59c8-4129-accc-8a7ee0b58a8a","ios":"levelo://app?vid=4073dc4c-59c8-4129-accc-8a7ee0b58a8a"},"vehicle_type_id":"4","last_reported":1717369646,"current_range_meters":24800,"station_id":"ce4bgop2rcd13ifvqc1g","pricing_plan_id":"cebpf4jnsgd1na2vs0mg"},{"bike_id":"de9caeac-36e9-4e7a-943e-772441c9dcde","system_id":"levelo_inurba_marseille","lat":43.29779,"lon":5.37103,"is_reserved":false,"is_disabled":false,"rental_uris":{"android":"levelo://app?vid=de9caeac-36e9-4e7a-943e-772441c9dcde","ios":"levelo://app?vid=de9caeac-36e9-4e7a-943e-772441c9dcde"},"vehicle_type_id":"4","last_reported":1717369646,"current_range_meters":10000,"station_id":"ce4bgop2rcd13ifvqc1g","pricing_plan_id":"cebpf4jnsgd1na2vs0mg"},{"bike_id":"1e32d23b-066e-4c0d-9783-f843f48a6d78","system_id":"levelo_inurba_marseille","lat":43.32295,"lon":5.38251,"is_reserved":false,"is_disabled":false,"rental_uris":{"android":"levelo://app?vid=1e32d23b-066e-4c0d-9783-f843f48a6d78","ios":"levelo://app?vid=1e32d23b-066e-4c0d-9783-f843f48a6d78"},"vehicle_type_id":"4","last_reported":1717369646,"current_range_meters":0,"station_id":"ce4bhr12rcd13ifvqhqg","pricing_plan_id":"cebpf4jnsgd1na2vs0mg"},{"bike_id":"763376b7-4bd1-4d8b-a386-516e62fdec6e","system_id":"levelo_inurba_marseille","lat":43.322872,"lon":5.382756,"is_reserved":false,"is_disabled":false,"rental_uris":{"android":"levelo://app?vid=763376b7-4bd1-4d8b-a386-516e62fdec6e","ios":"levelo://app?vid=763376b7-4bd1-4d8b-a386-516e62fdec6e"},"vehicle_type_id":"4","last_reported":1717369646,"current_range_meters":23600,"station_id":"ce4bhr12rcd13ifvqhqg","pricing_plan_id":"cebpf4jnsgd1na2vs0mg"},{"bike_id":"eefa52d8-0645-4a72-91aa-aea5b4f128c7","system_id":"levelo_inurba_marseille","lat":43.297163,"lon":5.365866,"is_reserved":false,"is_disabled":false,"rental_uris":{"android":"levelo://app?vid=eefa52d8-0645-4a72-91aa-aea5b4f128c7","ios":"levelo://app?vid=eefa52d8-0645-4a72-91aa-aea5b4f128c7"},"vehicle_type_id":"4","last_reported":1717369646,"current_range_meters":18000,"station_id":"ce4bgn12rcd13ifvqbt0","pricing_plan_id":"cebpf4jnsgd1na2vs0mg"},{"bike_id":"de82c7ce-e19c-4460-879b-0f60ebb04cb6","system_id":"levelo_inurba_marseille","lat":43.297163,"lon":5.365866,"is_reserved":false,"is_disabled":false,"rental_uris":{"android":"levelo://app?vid=de82c7ce-e19c-4460-879b-0f60ebb04cb6","ios":"levelo://app?vid=de82c7ce-e19c-4460-879b-0f60ebb04cb6"},"vehicle_type_id":"4","last_reported":1717369646,"current_range_meters":31200,"station_id":"ce4bgn12rcd13ifvqbt0","pricing_plan_id":"cebpf4jnsgd1na2vs0mg"},{"bike_id":"41b95e39-b599-4890-be5e-13ccdbe25317","system_id":"levelo_inurba_marseille","lat":43.297163,"lon":5.365866,"is_reserved":false,"is_disabled":false,"rental_uris":{"android":"levelo://app?vid=41b95e39-b599-4890-be5e-13ccdbe25317","ios":"levelo://app?vid=41b95e39-b599-4890-be5e-13ccdbe25317"},"vehicle_type_id":"4","last_reported":1717369646,"current_range_meters":7200,"station_id":"ce4bgn12rcd13ifvqbt0","pricing_plan_id":"cebpf4jnsgd1na2vs0mg"},{"bike_id":"d7bd8bf5-7fca-4b16-bb0a-08413135130b","system_id":"levelo_inurba_marseille","lat":43.297163,"lon":5.365866,"is_reserved":false,"is_disabled":false,"rental_uris":{"android":"levelo://app?vid=d7bd8bf5-7fca-4b16-bb0a-08413135130b","ios":"levelo://app?vid=d7bd8bf5-7fca-4b16-bb0a-08413135130b"},"vehicle_type_id":"4","last_reported":1717369646,"current_range_meters":17600,"station_id":"ce4bgn12rcd13ifvqbt0","pricing_plan_id":"cebpf4jnsgd1na2vs0mg"},{"bike_id":"b6a5384d-1304-4cc6-b0b1-8b03fc2025c6","system_id":"levelo_inurba_marseille","lat":43.297163,"lon":5.365866,"is_reserved":false,"is_disabled":false,"rental_uris":{"android":"levelo://app?vid=b6a5384d-1304-4cc6-b0b1-8b03fc2025c6","ios":"levelo://app?vid=b6a5384d-1304-4cc6-b0b1-8b03fc2025c6"},"vehicle_type_id":"4","last_reported":1717369646,"current_range_meters":18800,"station_id":"ce4bgn12rcd13ifvqbt0","pricing_plan_id":"cebpf4jnsgd1na2vs0mg"},{"bike_id":"fe07e0cc-6e35-40c1-9aa8-a88be45f0038","system_id":"levelo_inurba_marseille","lat":43.2968,"lon":5.37291,"is_reserved":false,"is_disabled":false,"rental_uris":{"android":"levelo://app?vid=fe07e0cc-6e35-40c1-9aa8-a88be45f0038","ios":"levelo://app?vid=fe07e0cc-6e35-40c1-9aa8-a88be45f0038"},"vehicle_type_id":"4","last_reported":1717369646,"current_range_meters":8000,"station_id":"ce4bgk12rcd13ifvqbj0","pricing_plan_id":"cebpf4jnsgd1na2vs0mg"},{"bike_id":"bbb14dc8-6ba2-49fc-9e39-d162d94312b1","system_id":"levelo_inurba_marseille","lat":43.305364,"lon":5.384119,"is_reserved":false,"is_disabled":false,"rental_uris":{"android":"levelo://app?vid=bbb14dc8-6ba2-49fc-9e39-d162d94312b1","ios":"levelo://app?vid=bbb14dc8-6ba2-49fc-9e39-d162d94312b1"},"vehicle_type_id":"4","last_reported":1717369646,"current_range_meters":30800,"station_id":"ce4bgg92rcd13ifvqb30","pricing_plan_id":"cebpf4jnsgd1na2vs0mg"},{"bike_id":"fd9cdc7b-3e97-4837-b583-d1a0f08d1482","system_id":"levelo_inurba_marseille","lat":43.29573,"lon":5.367355,"is_reserved":false,"is_disabled":false,"rental_uris":{"android":"levelo://app?vid=fd9cdc7b-3e97-4837-b583-d1a0f08d1482","ios":"levelo://app?vid=fd9cdc7b-3e97-4837-b583-d1a0f08d1482"},"vehicle_type_id":"4","last_reported":1717369646,"current_range_meters":27200,"station_id":"ce4bgph2rcd13ifvqc2g","pricing_plan_id":"cebpf4jnsgd1na2vs0mg"},{"bike_id":"ac0a6d8e-4299-4dd9-8217-40e74a30f689","system_id":"levelo_inurba_marseille","lat":43.294314,"lon":5.397498,"is_reserved":false,"is_disabled":false,"rental_uris":{"android":"levelo://app?vid=ac0a6d8e-4299-4dd9-8217-40e74a30f689","ios":"levelo://app?vid=ac0a6d8e-4299-4dd9-8217-40e74a30f689"},"vehicle_type_id":"4","last_reported":1717369646,"current_range_meters":28800,"station_id":"ce4bh3h2rcd13ifvqdo0","pricing_plan_id":"cebpf4jnsgd1na2vs0mg"},{"bike_id":"d1733db9-5089-4c7a-962d-d809cdcecd7b","system_id":"levelo_inurba_marseille","lat":43.309589,"lon":5.390258,"is_reserved":false,"is_disabled":false,"rental_uris":{"android":"levelo://app?vid=d1733db9-5089-4c7a-962d-d809cdcecd7b","ios":"levelo://app?vid=d1733db9-5089-4c7a-962d-d809cdcecd7b"},"vehicle_type_id":"4","last_reported":1717369646,"current_range_meters":0,"station_id":"ce4bgup2rcd13ifvqco0","pricing_plan_id":"cebpf4jnsgd1na2vs0mg"},{"bike_id":"c1da701c-ec93-4e5f-a00d-c6fe33a6e7d5","system_id":"levelo_inurba_marseille","lat":43.297163,"lon":5.365866,"is_reserved":false,"is_disabled":false,"rental_uris":{"android":"levelo://app?vid=c1da701c-ec93-4e5f-a00d-c6fe33a6e7d5","ios":"levelo://app?vid=c1da701c-ec93-4e5f-a00d-c6fe33a6e7d5"},"vehicle_type_id":"4","last_reported":1717369646,"current_range_meters":26000,"station_id":"ce4bgn12rcd13ifvqbt0","pricing_plan_id":"cebpf4jnsgd1na2vs0mg"},{"bike_id":"36b3d407-d863-4503-9020-56732a4110b5","system_id":"levelo_inurba_marseille","lat":43.299028,"lon":5.381509,"is_reserved":false,"is_disabled":false,"rental_uris":{"android":"levelo://app?vid=36b3d407-d863-4503-9020-56732a4110b5","ios":"levelo://app?vid=36b3d407-d863-4503-9020-56732a4110b5"},"vehicle_type_id":"4","last_reported":1717369646,"current_range_meters":10400,"station_id":"ce4bgj12rcd13ifvqbc0","pricing_plan_id":"cebpf4jnsgd1na2vs0mg"},{"bike_id":"13215d40-803d-4634-b899-ed903c77f958","system_id":"levelo_inurba_marseille","lat":43.309589,"lon":5.390258,"is_reserved":false,"is_disabled":false,"rental_uris":{"android":"levelo://app?vid=13215d40-803d-4634-b899-ed903c77f958","ios":"levelo://app?vid=13215d40-803d-4634-b899-ed903c77f958"},"vehicle_type_id":"4","last_reported":1717369646,"current_range_meters":26000,"station_id":"ce4bgup2rcd13ifvqco0","pricing_plan_id":"cebpf4jnsgd1na2vs0mg"},{"bike_id":"a52c3ca3-0ced-48e5-808a-38bab05edaca","system_id":"levelo_inurba_marseille","lat":43.31752,"lon":5.3901,"is_reserved":false,"is_disabled":false,"rental_uris":{"android":"levelo://app?vid=a52c3ca3-0ced-48e5-808a-38bab05edaca","ios":"levelo://app?vid=a52c3ca3-0ced-48e5-808a-38bab05edaca"},"vehicle_type_id":"4","last_reported":1717369646,"current_range_meters":30400,"station_id":"ce4bhqp2rcd13ifvqhng","pricing_plan_id":"cebpf4jnsgd1na2vs0mg"},{"bike_id":"fd7dd085-8c30-4d40-9c88-5849344cbde7","system_id":"levelo_inurba_marseille","lat":43.317557,"lon":5.390173,"is_reserved":false,"is_disabled":false,"rental_uris":{"android":"levelo://app?vid=fd7dd085-8c30-4d40-9c88-5849344cbde7","ios":"levelo://app?vid=fd7dd085-8c30-4d40-9c88-5849344cbde7"},"vehicle_type_id":"4","last_reported":1717369646,"current_range_meters":26800,"station_id":"ce4bhqp2rcd13ifvqhng","pricing_plan_id":"cebpf4jnsgd1na2vs0mg"},{"bike_id":"0058ec60-47cc-4a0a-98ef-8a9a1d9bca84","system_id":"levelo_inurba_marseille","lat":43.31754,"lon":5.39018,"is_reserved":false,"is_disabled":false,"rental_uris":{"android":"levelo://app?vid=0058ec60-47cc-4a0a-98ef-8a9a1d9bca84","ios":"levelo://app?vid=0058ec60-47cc-4a0a-98ef-8a9a1d9bca84"},"vehicle_type_id":"4","last_reported":1717369646,"current_range_meters":31200,"station_id":"ce4bhqp2rcd13ifvqhng","pricing_plan_id":"cebpf4jnsgd1na2vs0mg"},{"bike_id":"ac7be537-c71c-4d88-92cb-4ddebd6d581b","system_id":"levelo_inurba_marseille","lat":43.317557,"lon":5.390173,"is_reserved":false,"is_disabled":false,"rental_uris":{"android":"levelo://app?vid=ac7be537-c71c-4d88-92cb-4ddebd6d581b","ios":"levelo://app?vid=ac7be537-c71c-4d88-92cb-4ddebd6d581b"},"vehicle_type_id":"4","last_reported":1717369646,"current_range_meters":31200,"station_id":"ce4bhqp2rcd13ifvqhng","pricing_plan_id":"cebpf4jnsgd1na2vs0mg"},{"bike_id":"0a0101ce-b20d-43cd-b38c-16e9d74adad6","system_id":"levelo_inurba_marseille","lat":43.304278,"lon":5.388868,"is_reserved":false,"is_disabled":false,"rental_uris":{"android":"levelo://app?vid=0a0101ce-b20d-43cd-b38c-16e9d74adad6","ios":"levelo://app?vid=0a0101ce-b20d-43cd-b38c-16e9d74adad6"},"vehicle_type_id":"4","last_reported":1717369646,"current_range_meters":11200,"station_id":"ce4bgk12rcd13ifvqbi0","pricing_plan_id":"cebpf4jnsgd1na2vs0mg"},{"bike_id":"e479048d-3364-446c-9bb1-3f75107f7b13","system_id":"levelo_inurba_marseille","lat":43.304278,"lon":5.388868,"is_reserved":false,"is_disabled":false,"rental_uris":{"android":"levelo://app?vid=e479048d-3364-446c-9bb1-3f75107f7b13","ios":"levelo://app?vid=e479048d-3364-446c-9bb1-3f75107f7b13"},"vehicle_type_id":"4","last_reported":1717369646,"current_range_meters":31200,"station_id":"ce4bgk12rcd13ifvqbi0","pricing_plan_id":"cebpf4jnsgd1na2vs0mg"},{"bike_id":"5ed0eb23-3369-4d87-a382-aa21c05ead31","system_id":"levelo_inurba_marseille","lat":43.304274,"lon":5.388873,"is_reserved":false,"is_disabled":false,"rental_uris":{"android":"levelo://app?vid=5ed0eb23-3369-4d87-a382-aa21c05ead31","ios":"levelo://app?vid=5ed0eb23-3369-4d87-a382-aa21c05ead31"},"vehicle_type_id":"4","last_reported":1717369646,"current_range_meters":9600,"station_id":"ce4bgk12rcd13ifvqbi0","pricing_plan_id":"cebpf4jnsgd1na2vs0mg"},{"bike_id":"75c8a148-8953-45f8-aa42-8d3cfd586698","system_id":"levelo_inurba_marseille","lat":43.304278,"lon":5.388868,"is_reserved":false,"is_disabled":false,"rental_uris":{"android":"levelo://app?vid=75c8a148-8953-45f8-aa42-8d3cfd586698","ios":"levelo://app?vid=75c8a148-8953-45f8-aa42-8d3cfd586698"},"vehicle_type_id":"4","last_reported":1717369646,"current_range_meters":21600,"station_id":"ce4bgk12rcd13ifvqbi0","pricing_plan_id":"cebpf4jnsgd1na2vs0mg"},{"bike_id":"c4fcec11-8120-486f-bbfb-987de0aa8067","system_id":"levelo_inurba_marseille","lat":43.304274,"lon":5.388873,"is_reserved":false,"is_disabled":false,"rental_uris":{"android":"levelo://app?vid=c4fcec11-8120-486f-bbfb-987de0aa8067","ios":"levelo://app?vid=c4fcec11-8120-486f-bbfb-987de0aa8067"},"vehicle_type_id":"4","last_reported":1717369646,"current_range_meters":20400,"station_id":"ce4bgk12rcd13ifvqbi0","pricing_plan_id":"cebpf4jnsgd1na2vs0mg"},{"bike_id":"feee3771-6e4e-4904-8db1-63f0e2416536","system_id":"levelo_inurba_marseille","lat":43.304274,"lon":5.388873,"is_reserved":false,"is_disabled":false,"rental_uris":{"android":"levelo://app?vid=feee3771-6e4e-4904-8db1-63f0e2416536","ios":"levelo://app?vid=feee3771-6e4e-4904-8db1-63f0e2416536"},"vehicle_type_id":"4","last_reported":1717369646,"current_range_meters":19200,"station_id":"ce4bgk12rcd13ifvqbi0","pricing_plan_id":"cebpf4jnsgd1na2vs0mg"},{"bike_id":"28d89826-1b61-4b80-8a47-e7e1e3fa7ee6","system_id":"levelo_inurba_marseille","lat":43.304278,"lon":5.388868,"is_reserved":false,"is_disabled":false,"rental_uris":{"android":"levelo://app?vid=28d89826-1b61-4b80-8a47-e7e1e3fa7ee6","ios":"levelo://app?vid=28d89826-1b61-4b80-8a47-e7e1e3fa7ee6"},"vehicle_type_id":"4","last_reported":1717369646,"current_range_meters":26000,"station_id":"ce4bgk12rcd13ifvqbi0","pricing_plan_id":"cebpf4jnsgd1na2vs0mg"},{"bike_id":"66b523cb-a080-4908-b242-f6fac7c42da3","system_id":"levelo_inurba_marseille","lat":43.304278,"lon":5.388868,"is_reserved":false,"is_disabled":false,"rental_uris":{"android":"levelo://app?vid=66b523cb-a080-4908-b242-f6fac7c42da3","ios":"levelo://app?vid=66b523cb-a080-4908-b242-f6fac7c42da3"},"vehicle_type_id":"4","last_reported":1717369646,"current_range_meters":14400,"station_id":"ce4bgk12rcd13ifvqbi0","pricing_plan_id":"cebpf4jnsgd1na2vs0mg"},{"bike_id":"c7a4513b-a250-4974-836e-341796c7a07c","system_id":"levelo_inurba_marseille","lat":43.300747,"lon":5.385583,"is_reserved":false,"is_disabled":false,"rental_uris":{"android":"levelo://app?vid=c7a4513b-a250-4974-836e-341796c7a07c","ios":"levelo://app?vid=c7a4513b-a250-4974-836e-341796c7a07c"},"vehicle_type_id":"4","last_reported":1717369646,"current_range_meters":18800,"station_id":"","pricing_plan_id":"cebpf4jnsgd1na2vs0mg"},{"bike_id":"c54aa99f-59b8-40fb-bec2-924fe6394174","system_id":"levelo_inurba_marseille","lat":43.296263,"lon":5.377094,"is_reserved":false,"is_disabled":false,"rental_uris":{"android":"levelo://app?vid=c54aa99f-59b8-40fb-bec2-924fe6394174","ios":"levelo://app?vid=c54aa99f-59b8-40fb-bec2-924fe6394174"},"vehicle_type_id":"4","last_reported":1717369646,"current_range_meters":20000,"station_id":"ce4bgi92rcd13ifvqb90","pricing_plan_id":"cebpf4jnsgd1na2vs0mg"},{"bike_id":"417ce0ef-3979-4d55-93c2-ce5e74d764de","system_id":"levelo_inurba_marseille","lat":43.299707,"lon":5.384859,"is_reserved":false,"is_disabled":false,"rental_uris":{"android":"levelo://app?vid=417ce0ef-3979-4d55-93c2-ce5e74d764de","ios":"levelo://app?vid=417ce0ef-3979-4d55-93c2-ce5e74d764de"},"vehicle_type_id":"4","last_reported":1717369646,"current_range_meters":19600,"station_id":"ce4bgj92rcd13ifvqbd0","pricing_plan_id":"cebpf4jnsgd1na2vs0mg"},{"bike_id":"58559c12-4fb5-4bc0-9c05-b75bebb759c6","system_id":"levelo_inurba_marseille","lat":43.29657,"lon":5.37952,"is_reserved":false,"is_disabled":false,"rental_uris":{"android":"levelo://app?vid=58559c12-4fb5-4bc0-9c05-b75bebb759c6","ios":"levelo://app?vid=58559c12-4fb5-4bc0-9c05-b75bebb759c6"},"vehicle_type_id":"4","last_reported":1717369646,"current_range_meters":14400,"station_id":"","pricing_plan_id":"cebpf4jnsgd1na2vs0mg"},{"bike_id":"9505db98-bde4-406d-9245-36f4dc81763b","system_id":"levelo_inurba_marseille","lat":43.32367,"lon":5.388836,"is_reserved":false,"is_disabled":false,"rental_uris":{"android":"levelo://app?vid=9505db98-bde4-406d-9245-36f4dc81763b","ios":"levelo://app?vid=9505db98-bde4-406d-9245-36f4dc81763b"},"vehicle_type_id":"4","last_reported":1717369646,"current_range_meters":31200,"station_id":"ce4bhqp2rcd13ifvqhog","pricing_plan_id":"cebpf4jnsgd1na2vs0mg"},{"bike_id":"ad6fc73a-7e80-493e-9416-f26864af230d","system_id":"levelo_inurba_marseille","lat":43.32367,"lon":5.388836,"is_reserved":false,"is_disabled":false,"rental_uris":{"android":"levelo://app?vid=ad6fc73a-7e80-493e-9416-f26864af230d","ios":"levelo://app?vid=ad6fc73a-7e80-493e-9416-f26864af230d"},"vehicle_type_id":"4","last_reported":1717369646,"current_range_meters":17200,"station_id":"ce4bhqp2rcd13ifvqhog","pricing_plan_id":"cebpf4jnsgd1na2vs0mg"},{"bike_id":"6ab80645-b45b-4b15-bcd6-3959673b87af","system_id":"levelo_inurba_marseille","lat":43.32367,"lon":5.388836,"is_reserved":false,"is_disabled":false,"rental_uris":{"android":"levelo://app?vid=6ab80645-b45b-4b15-bcd6-3959673b87af","ios":"levelo://app?vid=6ab80645-b45b-4b15-bcd6-3959673b87af"},"vehicle_type_id":"4","last_reported":1717369646,"current_range_meters":28400,"station_id":"ce4bhqp2rcd13ifvqhog","pricing_plan_id":"cebpf4jnsgd1na2vs0mg"},{"bike_id":"76c443f9-bd3b-4b2d-bad3-574423842f89","system_id":"levelo_inurba_marseille","lat":43.32367,"lon":5.388836,"is_reserved":false,"is_disabled":false,"rental_uris":{"android":"levelo://app?vid=76c443f9-bd3b-4b2d-bad3-574423842f89","ios":"levelo://app?vid=76c443f9-bd3b-4b2d-bad3-574423842f89"},"vehicle_type_id":"4","last_reported":1717369646,"current_range_meters":26400,"station_id":"ce4bhqp2rcd13ifvqhog","pricing_plan_id":"cebpf4jnsgd1na2vs0mg"},{"bike_id":"812f2847-e888-460b-9e63-57915c02e193","system_id":"levelo_inurba_marseille","lat":43.32367,"lon":5.388836,"is_reserved":false,"is_disabled":false,"rental_uris":{"android":"levelo://app?vid=812f2847-e888-460b-9e63-57915c02e193","ios":"levelo://app?vid=812f2847-e888-460b-9e63-57915c02e193"},"vehicle_type_id":"4","last_reported":1717369646,"current_range_meters":8800,"station_id":"ce4bhqp2rcd13ifvqhog","pricing_plan_id":"cebpf4jnsgd1na2vs0mg"},{"bike_id":"656e8cac-bb6a-4b77-ba48-84a43d2056f9","system_id":"levelo_inurba_marseille","lat":43.32367,"lon":5.388836,"is_reserved":false,"is_disabled":false,"rental_uris":{"android":"levelo://app?vid=656e8cac-bb6a-4b77-ba48-84a43d2056f9","ios":"levelo://app?vid=656e8cac-bb6a-4b77-ba48-84a43d2056f9"},"vehicle_type_id":"4","last_reported":1717369646,"current_range_meters":5600,"station_id":"ce4bhqp2rcd13ifvqhog","pricing_plan_id":"cebpf4jnsgd1na2vs0mg"},{"bike_id":"8e68ecaa-03d6-4c78-8238-01d4dcc39575","system_id":"levelo_inurba_marseille","lat":43.32367,"lon":5.388836,"is_reserved":false,"is_disabled":false,"rental_uris":{"android":"levelo://app?vid=8e68ecaa-03d6-4c78-8238-01d4dcc39575","ios":"levelo://app?vid=8e68ecaa-03d6-4c78-8238-01d4dcc39575"},"vehicle_type_id":"4","last_reported":1717369646,"current_range_meters":31200,"station_id":"ce4bhqp2rcd13ifvqhog","pricing_plan_id":"cebpf4jnsgd1na2vs0mg"},{"bike_id":"377c9d2b-c44c-42ef-b5e8-e4debc3bc0de","system_id":"levelo_inurba_marseille","lat":43.32367,"lon":5.388836,"is_reserved":false,"is_disabled":false,"rental_uris":{"android":"levelo://app?vid=377c9d2b-c44c-42ef-b5e8-e4debc3bc0de","ios":"levelo://app?vid=377c9d2b-c44c-42ef-b5e8-e4debc3bc0de"},"vehicle_type_id":"4","last_reported":1717369646,"current_range_meters":6400,"station_id":"ce4bhqp2rcd13ifvqhog","pricing_plan_id":"cebpf4jnsgd1na2vs0mg"},{"bike_id":"722feddb-ec40-4a37-a551-0af9bf4b0954","system_id":"levelo_inurba_marseille","lat":43.32367,"lon":5.388836,"is_reserved":false,"is_disabled":false,"rental_uris":{"android":"levelo://app?vid=722feddb-ec40-4a37-a551-0af9bf4b0954","ios":"levelo://app?vid=722feddb-ec40-4a37-a551-0af9bf4b0954"},"vehicle_type_id":"4","last_reported":1717369646,"current_range_meters":17600,"station_id":"ce4bhqp2rcd13ifvqhog","pricing_plan_id":"cebpf4jnsgd1na2vs0mg"},{"bike_id":"76eab79d-b37d-4bd4-b895-745a9b10521f","system_id":"levelo_inurba_marseille","lat":43.3237,"lon":5.388847,"is_reserved":false,"is_disabled":false,"rental_uris":{"android":"levelo://app?vid=76eab79d-b37d-4bd4-b895-745a9b10521f","ios":"levelo://app?vid=76eab79d-b37d-4bd4-b895-745a9b10521f"},"vehicle_type_id":"4","last_reported":1717369646,"current_range_meters":16800,"station_id":"ce4bhqp2rcd13ifvqhog","pricing_plan_id":"cebpf4jnsgd1na2vs0mg"},{"bike_id":"8b934743-3f43-46f9-993e-1ca3ab88e117","system_id":"levelo_inurba_marseille","lat":43.32367,"lon":5.388836,"is_reserved":false,"is_disabled":false,"rental_uris":{"android":"levelo://app?vid=8b934743-3f43-46f9-993e-1ca3ab88e117","ios":"levelo://app?vid=8b934743-3f43-46f9-993e-1ca3ab88e117"},"vehicle_type_id":"4","last_reported":1717369646,"current_range_meters":31200,"station_id":"ce4bhqp2rcd13ifvqhog","pricing_plan_id":"cebpf4jnsgd1na2vs0mg"},{"bike_id":"9f41fa08-620d-49ad-a259-96dd1d120315","system_id":"levelo_inurba_marseille","lat":43.309047,"lon":5.396551,"is_reserved":false,"is_disabled":false,"rental_uris":{"android":"levelo://app?vid=9f41fa08-620d-49ad-a259-96dd1d120315","ios":"levelo://app?vid=9f41fa08-620d-49ad-a259-96dd1d120315"},"vehicle_type_id":"4","last_reported":1717369646,"current_range_meters":12800,"station_id":"ce4bh012rcd13ifvqcv0","pricing_plan_id":"cebpf4jnsgd1na2vs0mg"},{"bike_id":"95310373-a3bc-4266-9cf1-a267850db416","system_id":"levelo_inurba_marseille","lat":43.311975,"lon":5.393714,"is_reserved":false,"is_disabled":false,"rental_uris":{"android":"levelo://app?vid=95310373-a3bc-4266-9cf1-a267850db416","ios":"levelo://app?vid=95310373-a3bc-4266-9cf1-a267850db416"},"vehicle_type_id":"4","last_reported":1717369646,"current_range_meters":9600,"station_id":"","pricing_plan_id":"cebpf4jnsgd1na2vs0mg"},{"bike_id":"db4d735f-51f5-4b4c-b20b-9eb328645722","system_id":"levelo_inurba_marseille","lat":43.301936,"lon":5.389452,"is_reserved":false,"is_disabled":false,"rental_uris":{"android":"levelo://app?vid=db4d735f-51f5-4b4c-b20b-9eb328645722","ios":"levelo://app?vid=db4d735f-51f5-4b4c-b20b-9eb328645722"},"vehicle_type_id":"4","last_reported":1717369646,"current_range_meters":7200,"station_id":"","pricing_plan_id":"cebpf4jnsgd1na2vs0mg"},{"bike_id":"64187a37-4367-4484-9b84-204830d30af4","system_id":"levelo_inurba_marseille","lat":43.292749,"lon":5.368402,"is_reserved":false,"is_disabled":false,"rental_uris":{"android":"levelo://app?vid=64187a37-4367-4484-9b84-204830d30af4","ios":"levelo://app?vid=64187a37-4367-4484-9b84-204830d30af4"},"vehicle_type_id":"4","last_reported":1717369646,"current_range_meters":6800,"station_id":"ce4bhbp2rcd13ifvqesg","pricing_plan_id":"cebpf4jnsgd1na2vs0mg"},{"bike_id":"bdcac60a-7922-4ceb-b1d3-3c8a094615a3","system_id":"levelo_inurba_marseille","lat":43.292685,"lon":5.368365,"is_reserved":false,"is_disabled":false,"rental_uris":{"android":"levelo://app?vid=bdcac60a-7922-4ceb-b1d3-3c8a094615a3","ios":"levelo://app?vid=bdcac60a-7922-4ceb-b1d3-3c8a094615a3"},"vehicle_type_id":"4","last_reported":1717369646,"current_range_meters":30800,"station_id":"ce4bhbp2rcd13ifvqesg","pricing_plan_id":"cebpf4jnsgd1na2vs0mg"},{"bike_id":"01c20bc5-b9de-4ae0-8bde-57c67f5b4ec5","system_id":"levelo_inurba_marseille","lat":43.305994,"lon":5.393687,"is_reserved":false,"is_disabled":false,"rental_uris":{"android":"levelo://app?vid=01c20bc5-b9de-4ae0-8bde-57c67f5b4ec5","ios":"levelo://app?vid=01c20bc5-b9de-4ae0-8bde-57c67f5b4ec5"},"vehicle_type_id":"4","last_reported":1717369646,"current_range_meters":25200,"station_id":"ce4bh0p2rcd13ifvqd80","pricing_plan_id":"cebpf4jnsgd1na2vs0mg"},{"bike_id":"b056dea4-7849-47d3-b537-9ce89089ef91","system_id":"levelo_inurba_marseille","lat":43.303002,"lon":5.392142,"is_reserved":false,"is_disabled":false,"rental_uris":{"android":"levelo://app?vid=b056dea4-7849-47d3-b537-9ce89089ef91","ios":"levelo://app?vid=b056dea4-7849-47d3-b537-9ce89089ef91"},"vehicle_type_id":"4","last_reported":1717369646,"current_range_meters":12400,"station_id":"ce4bgkh2rcd13ifvqbk0","pricing_plan_id":"cebpf4jnsgd1na2vs0mg"},{"bike_id":"15379197-be5a-4a9f-8d0c-c4b0f0412f1a","system_id":"levelo_inurba_marseille","lat":43.303002,"lon":5.392142,"is_reserved":false,"is_disabled":false,"rental_uris":{"android":"levelo://app?vid=15379197-be5a-4a9f-8d0c-c4b0f0412f1a","ios":"levelo://app?vid=15379197-be5a-4a9f-8d0c-c4b0f0412f1a"},"vehicle_type_id":"4","last_reported":1717369646,"current_range_meters":11200,"station_id":"ce4bgkh2rcd13ifvqbk0","pricing_plan_id":"cebpf4jnsgd1na2vs0mg"},{"bike_id":"c0e3e95b-2472-47c0-88b9-eb23b03a0806","system_id":"levelo_inurba_marseille","lat":43.303002,"lon":5.392142,"is_reserved":false,"is_disabled":false,"rental_uris":{"android":"levelo://app?vid=c0e3e95b-2472-47c0-88b9-eb23b03a0806","ios":"levelo://app?vid=c0e3e95b-2472-47c0-88b9-eb23b03a0806"},"vehicle_type_id":"4","last_reported":1717369646,"current_range_meters":18400,"station_id":"ce4bgkh2rcd13ifvqbk0","pricing_plan_id":"cebpf4jnsgd1na2vs0mg"},{"bike_id":"5b76e646-f6fe-47f7-8620-61b74b1c6d80","system_id":"levelo_inurba_marseille","lat":43.302992,"lon":5.392136,"is_reserved":false,"is_disabled":false,"rental_uris":{"android":"levelo://app?vid=5b76e646-f6fe-47f7-8620-61b74b1c6d80","ios":"levelo://app?vid=5b76e646-f6fe-47f7-8620-61b74b1c6d80"},"vehicle_type_id":"4","last_reported":1717369646,"current_range_meters":21600,"station_id":"ce4bgkh2rcd13ifvqbk0","pricing_plan_id":"cebpf4jnsgd1na2vs0mg"},{"bike_id":"e77e37e0-3e64-4571-bfbe-e23ef665f4a4","system_id":"levelo_inurba_marseille","lat":43.302992,"lon":5.392136,"is_reserved":false,"is_disabled":false,"rental_uris":{"android":"levelo://app?vid=e77e37e0-3e64-4571-bfbe-e23ef665f4a4","ios":"levelo://app?vid=e77e37e0-3e64-4571-bfbe-e23ef665f4a4"},"vehicle_type_id":"4","last_reported":1717369646,"current_range_meters":26800,"station_id":"ce4bgkh2rcd13ifvqbk0","pricing_plan_id":"cebpf4jnsgd1na2vs0mg"},{"bike_id":"ed79fff4-9fc2-439a-90ff-6210cfc9f4e9","system_id":"levelo_inurba_marseille","lat":43.303002,"lon":5.392142,"is_reserved":false,"is_disabled":false,"rental_uris":{"android":"levelo://app?vid=ed79fff4-9fc2-439a-90ff-6210cfc9f4e9","ios":"levelo://app?vid=ed79fff4-9fc2-439a-90ff-6210cfc9f4e9"},"vehicle_type_id":"4","last_reported":1717369646,"current_range_meters":13200,"station_id":"ce4bgkh2rcd13ifvqbk0","pricing_plan_id":"cebpf4jnsgd1na2vs0mg"},{"bike_id":"8cdeeaf7-cd24-435c-bb60-6f5b09d58c79","system_id":"levelo_inurba_marseille","lat":43.302992,"lon":5.392136,"is_reserved":false,"is_disabled":false,"rental_uris":{"android":"levelo://app?vid=8cdeeaf7-cd24-435c-bb60-6f5b09d58c79","ios":"levelo://app?vid=8cdeeaf7-cd24-435c-bb60-6f5b09d58c79"},"vehicle_type_id":"4","last_reported":1717369646,"current_range_meters":17200,"station_id":"ce4bgkh2rcd13ifvqbk0","pricing_plan_id":"cebpf4jnsgd1na2vs0mg"},{"bike_id":"25e887c8-3dbe-4a59-87dd-866dfdb60e02","system_id":"levelo_inurba_marseille","lat":43.2923,"lon":5.36071,"is_reserved":false,"is_disabled":false,"rental_uris":{"android":"levelo://app?vid=25e887c8-3dbe-4a59-87dd-866dfdb60e02","ios":"levelo://app?vid=25e887c8-3dbe-4a59-87dd-866dfdb60e02"},"vehicle_type_id":"4","last_reported":1717369646,"current_range_meters":26400,"station_id":"ce4bhbh2rcd13ifvqeqg","pricing_plan_id":"cebpf4jnsgd1na2vs0mg"},{"bike_id":"97fc64fe-1336-4018-977b-b8bbb0764786","system_id":"levelo_inurba_marseille","lat":43.30085,"lon":5.390856,"is_reserved":false,"is_disabled":false,"rental_uris":{"android":"levelo://app?vid=97fc64fe-1336-4018-977b-b8bbb0764786","ios":"levelo://app?vid=97fc64fe-1336-4018-977b-b8bbb0764786"},"vehicle_type_id":"4","last_reported":1717369646,"current_range_meters":18000,"station_id":"ce4bh192rcd13ifvqdb0","pricing_plan_id":"cebpf4jnsgd1na2vs0mg"},{"bike_id":"91da93f1-80c3-425b-b78f-9db3849a3ead","system_id":"levelo_inurba_marseille","lat":43.30085,"lon":5.390856,"is_reserved":false,"is_disabled":false,"rental_uris":{"android":"levelo://app?vid=91da93f1-80c3-425b-b78f-9db3849a3ead","ios":"levelo://app?vid=91da93f1-80c3-425b-b78f-9db3849a3ead"},"vehicle_type_id":"4","last_reported":1717369646,"current_range_meters":4000,"station_id":"ce4bh192rcd13ifvqdb0","pricing_plan_id":"cebpf4jnsgd1na2vs0mg"},{"bike_id":"860ca405-9936-4b69-b3e1-160a7dfd62a2","system_id":"levelo_inurba_marseille","lat":43.30085,"lon":5.390856,"is_reserved":false,"is_disabled":false,"rental_uris":{"android":"levelo://app?vid=860ca405-9936-4b69-b3e1-160a7dfd62a2","ios":"levelo://app?vid=860ca405-9936-4b69-b3e1-160a7dfd62a2"},"vehicle_type_id":"4","last_reported":1717369646,"current_range_meters":20400,"station_id":"ce4bh192rcd13ifvqdb0","pricing_plan_id":"cebpf4jnsgd1na2vs0mg"},{"bike_id":"51c279f2-9515-4ef5-b5ce-ad6a8b145dcf","system_id":"levelo_inurba_marseille","lat":43.30085,"lon":5.390856,"is_reserved":false,"is_disabled":false,"rental_uris":{"android":"levelo://app?vid=51c279f2-9515-4ef5-b5ce-ad6a8b145dcf","ios":"levelo://app?vid=51c279f2-9515-4ef5-b5ce-ad6a8b145dcf"},"vehicle_type_id":"4","last_reported":1717369646,"current_range_meters":22800,"station_id":"ce4bh192rcd13ifvqdb0","pricing_plan_id":"cebpf4jnsgd1na2vs0mg"},{"bike_id":"b6be142e-a772-437b-b958-ab5201d7a2a2","system_id":"levelo_inurba_marseille","lat":43.299243,"lon":5.37481,"is_reserved":false,"is_disabled":false,"rental_uris":{"android":"levelo://app?vid=b6be142e-a772-437b-b958-ab5201d7a2a2","ios":"levelo://app?vid=b6be142e-a772-437b-b958-ab5201d7a2a2"},"vehicle_type_id":"4","last_reported":1717369646,"current_range_meters":12000,"station_id":"ce4bgjh2rcd13ifvqbg0","pricing_plan_id":"cebpf4jnsgd1na2vs0mg"},{"bike_id":"2911e6eb-374f-47cc-a07d-d76959f37a43","system_id":"levelo_inurba_marseille","lat":43.298764,"lon":5.388973,"is_reserved":false,"is_disabled":false,"rental_uris":{"android":"levelo://app?vid=2911e6eb-374f-47cc-a07d-d76959f37a43","ios":"levelo://app?vid=2911e6eb-374f-47cc-a07d-d76959f37a43"},"vehicle_type_id":"4","last_reported":1717369646,"current_range_meters":12800,"station_id":"ce4bh392rcd13ifvqdl0","pricing_plan_id":"cebpf4jnsgd1na2vs0mg"},{"bike_id":"c0eabf4a-36ed-4a1a-a0e0-92d13e8277f0","system_id":"levelo_inurba_marseille","lat":43.298764,"lon":5.388973,"is_reserved":false,"is_disabled":false,"rental_uris":{"android":"levelo://app?vid=c0eabf4a-36ed-4a1a-a0e0-92d13e8277f0","ios":"levelo://app?vid=c0eabf4a-36ed-4a1a-a0e0-92d13e8277f0"},"vehicle_type_id":"4","last_reported":1717369646,"current_range_meters":23600,"station_id":"ce4bh392rcd13ifvqdl0","pricing_plan_id":"cebpf4jnsgd1na2vs0mg"},{"bike_id":"b575f340-cfb5-4499-8e53-e191d906449d","system_id":"levelo_inurba_marseille","lat":43.298764,"lon":5.388973,"is_reserved":false,"is_disabled":false,"rental_uris":{"android":"levelo://app?vid=b575f340-cfb5-4499-8e53-e191d906449d","ios":"levelo://app?vid=b575f340-cfb5-4499-8e53-e191d906449d"},"vehicle_type_id":"4","last_reported":1717369646,"current_range_meters":13600,"station_id":"ce4bh392rcd13ifvqdl0","pricing_plan_id":"cebpf4jnsgd1na2vs0mg"},{"bike_id":"ad203f73-7d4b-4643-8010-a70f935d7279","system_id":"levelo_inurba_marseille","lat":43.298764,"lon":5.388973,"is_reserved":false,"is_disabled":false,"rental_uris":{"android":"levelo://app?vid=ad203f73-7d4b-4643-8010-a70f935d7279","ios":"levelo://app?vid=ad203f73-7d4b-4643-8010-a70f935d7279"},"vehicle_type_id":"4","last_reported":1717369646,"current_range_meters":28400,"station_id":"ce4bh392rcd13ifvqdl0","pricing_plan_id":"cebpf4jnsgd1na2vs0mg"},{"bike_id":"6fbd8c10-401a-411a-a6e9-69e4d45b9278","system_id":"levelo_inurba_marseille","lat":43.309047,"lon":5.396551,"is_reserved":false,"is_disabled":false,"rental_uris":{"android":"levelo://app?vid=6fbd8c10-401a-411a-a6e9-69e4d45b9278","ios":"levelo://app?vid=6fbd8c10-401a-411a-a6e9-69e4d45b9278"},"vehicle_type_id":"4","last_reported":1717369646,"current_range_meters":28000,"station_id":"ce4bh012rcd13ifvqcv0","pricing_plan_id":"cebpf4jnsgd1na2vs0mg"},{"bike_id":"89edcc83-5b52-4bd4-96e7-46c99ef6c988","system_id":"levelo_inurba_marseille","lat":43.309038,"lon":5.396546,"is_reserved":false,"is_disabled":false,"rental_uris":{"android":"levelo://app?vid=89edcc83-5b52-4bd4-96e7-46c99ef6c988","ios":"levelo://app?vid=89edcc83-5b52-4bd4-96e7-46c99ef6c988"},"vehicle_type_id":"4","last_reported":1717369646,"current_range_meters":27600,"station_id":"ce4bh012rcd13ifvqcv0","pricing_plan_id":"cebpf4jnsgd1na2vs0mg"},{"bike_id":"5c49fed4-5274-4457-b368-4a3792eec1c6","system_id":"levelo_inurba_marseille","lat":43.309038,"lon":5.396546,"is_reserved":false,"is_disabled":false,"rental_uris":{"android":"levelo://app?vid=5c49fed4-5274-4457-b368-4a3792eec1c6","ios":"levelo://app?vid=5c49fed4-5274-4457-b368-4a3792eec1c6"},"vehicle_type_id":"4","last_reported":1717369646,"current_range_meters":10800,"station_id":"ce4bh012rcd13ifvqcv0","pricing_plan_id":"cebpf4jnsgd1na2vs0mg"},{"bike_id":"88d85188-9462-4941-8600-f60d2bfd0bdf","system_id":"levelo_inurba_marseille","lat":43.3132,"lon":5.39688,"is_reserved":false,"is_disabled":false,"rental_uris":{"android":"levelo://app?vid=88d85188-9462-4941-8600-f60d2bfd0bdf","ios":"levelo://app?vid=88d85188-9462-4941-8600-f60d2bfd0bdf"},"vehicle_type_id":"4","last_reported":1717369646,"current_range_meters":17200,"station_id":"","pricing_plan_id":"cebpf4jnsgd1na2vs0mg"},{"bike_id":"1fad07c6-6ccf-4873-9fc0-6cafed121bfc","system_id":"levelo_inurba_marseille","lat":43.313291,"lon":5.396838,"is_reserved":false,"is_disabled":false,"rental_uris":{"android":"levelo://app?vid=1fad07c6-6ccf-4873-9fc0-6cafed121bfc","ios":"levelo://app?vid=1fad07c6-6ccf-4873-9fc0-6cafed121bfc"},"vehicle_type_id":"4","last_reported":1717369646,"current_range_meters":14800,"station_id":"ce4bgvp2rcd13ifvqcu0","pricing_plan_id":"cebpf4jnsgd1na2vs0mg"},{"bike_id":"0469a5f2-de49-4c67-ae6e-00d79f03eec1","system_id":"levelo_inurba_marseille","lat":43.291994,"lon":5.357886,"is_reserved":false,"is_disabled":false,"rental_uris":{"android":"levelo://app?vid=0469a5f2-de49-4c67-ae6e-00d79f03eec1","ios":"levelo://app?vid=0469a5f2-de49-4c67-ae6e-00d79f03eec1"},"vehicle_type_id":"4","last_reported":1717369646,"current_range_meters":17600,"station_id":"ce4bhb12rcd13ifvqel0","pricing_plan_id":"cebpf4jnsgd1na2vs0mg"},{"bike_id":"49d83d11-2415-4432-8aaf-23c5b6bf8cc4","system_id":"levelo_inurba_marseille","lat":43.29191,"lon":5.357959,"is_reserved":false,"is_disabled":false,"rental_uris":{"android":"levelo://app?vid=49d83d11-2415-4432-8aaf-23c5b6bf8cc4","ios":"levelo://app?vid=49d83d11-2415-4432-8aaf-23c5b6bf8cc4"},"vehicle_type_id":"4","last_reported":1717369646,"current_range_meters":30000,"station_id":"ce4bhb12rcd13ifvqel0","pricing_plan_id":"cebpf4jnsgd1na2vs0mg"},{"bike_id":"b184a13c-e9bd-442b-8d7f-09847e9e6857","system_id":"levelo_inurba_marseille","lat":43.309038,"lon":5.396546,"is_reserved":false,"is_disabled":false,"rental_uris":{"android":"levelo://app?vid=b184a13c-e9bd-442b-8d7f-09847e9e6857","ios":"levelo://app?vid=b184a13c-e9bd-442b-8d7f-09847e9e6857"},"vehicle_type_id":"4","last_reported":1717369646,"current_range_meters":26400,"station_id":"ce4bh012rcd13ifvqcv0","pricing_plan_id":"cebpf4jnsgd1na2vs0mg"},{"bike_id":"932fad51-fe19-494c-9ed5-a0254e80b335","system_id":"levelo_inurba_marseille","lat":43.31328,"lon":5.39692,"is_reserved":false,"is_disabled":false,"rental_uris":{"android":"levelo://app?vid=932fad51-fe19-494c-9ed5-a0254e80b335","ios":"levelo://app?vid=932fad51-fe19-494c-9ed5-a0254e80b335"},"vehicle_type_id":"4","last_reported":1717369646,"current_range_meters":6400,"station_id":"ce4bgvp2rcd13ifvqcu0","pricing_plan_id":"cebpf4jnsgd1na2vs0mg"},{"bike_id":"20be9fd4-e6ec-46a6-9d72-bca94d08009c","system_id":"levelo_inurba_marseille","lat":43.31334,"lon":5.39692,"is_reserved":false,"is_disabled":false,"rental_uris":{"android":"levelo://app?vid=20be9fd4-e6ec-46a6-9d72-bca94d08009c","ios":"levelo://app?vid=20be9fd4-e6ec-46a6-9d72-bca94d08009c"},"vehicle_type_id":"4","last_reported":1717369646,"current_range_meters":2000,"station_id":"ce4bgvp2rcd13ifvqcu0","pricing_plan_id":"cebpf4jnsgd1na2vs0mg"},{"bike_id":"b3edb4f0-963b-46ba-a79f-776b8f50b991","system_id":"levelo_inurba_marseille","lat":43.313291,"lon":5.396838,"is_reserved":false,"is_disabled":false,"rental_uris":{"android":"levelo://app?vid=b3edb4f0-963b-46ba-a79f-776b8f50b991","ios":"levelo://app?vid=b3edb4f0-963b-46ba-a79f-776b8f50b991"},"vehicle_type_id":"4","last_reported":1717369646,"current_range_meters":23200,"station_id":"ce4bgvp2rcd13ifvqcu0","pricing_plan_id":"cebpf4jnsgd1na2vs0mg"},{"bike_id":"b9927879-1ea6-4978-a549-07512c6f51f3","system_id":"levelo_inurba_marseille","lat":43.309038,"lon":5.396546,"is_reserved":false,"is_disabled":false,"rental_uris":{"android":"levelo://app?vid=b9927879-1ea6-4978-a549-07512c6f51f3","ios":"levelo://app?vid=b9927879-1ea6-4978-a549-07512c6f51f3"},"vehicle_type_id":"4","last_reported":1717369646,"current_range_meters":25200,"station_id":"ce4bh012rcd13ifvqcv0","pricing_plan_id":"cebpf4jnsgd1na2vs0mg"},{"bike_id":"53d853c7-29fb-4ff7-ab4e-b8adf5010c2d","system_id":"levelo_inurba_marseille","lat":43.309047,"lon":5.396551,"is_reserved":false,"is_disabled":false,"rental_uris":{"android":"levelo://app?vid=53d853c7-29fb-4ff7-ab4e-b8adf5010c2d","ios":"levelo://app?vid=53d853c7-29fb-4ff7-ab4e-b8adf5010c2d"},"vehicle_type_id":"4","last_reported":1717369646,"current_range_meters":26400,"station_id":"ce4bh012rcd13ifvqcv0","pricing_plan_id":"cebpf4jnsgd1na2vs0mg"},{"bike_id":"4d3c82a3-c6c6-4d5c-a61a-301f82f9bcdc","system_id":"levelo_inurba_marseille","lat":43.31335,"lon":5.39695,"is_reserved":false,"is_disabled":false,"rental_uris":{"android":"levelo://app?vid=4d3c82a3-c6c6-4d5c-a61a-301f82f9bcdc","ios":"levelo://app?vid=4d3c82a3-c6c6-4d5c-a61a-301f82f9bcdc"},"vehicle_type_id":"4","last_reported":1717369646,"current_range_meters":26400,"station_id":"ce4bgvp2rcd13ifvqcu0","pricing_plan_id":"cebpf4jnsgd1na2vs0mg"},{"bike_id":"ad7958aa-4007-48b1-a1c8-a44759453cfd","system_id":"levelo_inurba_marseille","lat":43.313291,"lon":5.396838,"is_reserved":false,"is_disabled":false,"rental_uris":{"android":"levelo://app?vid=ad7958aa-4007-48b1-a1c8-a44759453cfd","ios":"levelo://app?vid=ad7958aa-4007-48b1-a1c8-a44759453cfd"},"vehicle_type_id":"4","last_reported":1717369646,"current_range_meters":15200,"station_id":"ce4bgvp2rcd13ifvqcu0","pricing_plan_id":"cebpf4jnsgd1na2vs0mg"},{"bike_id":"9fa60354-9b2f-4e60-bc44-c4527bb2d63a","system_id":"levelo_inurba_marseille","lat":43.309038,"lon":5.396546,"is_reserved":false,"is_disabled":false,"rental_uris":{"android":"levelo://app?vid=9fa60354-9b2f-4e60-bc44-c4527bb2d63a","ios":"levelo://app?vid=9fa60354-9b2f-4e60-bc44-c4527bb2d63a"},"vehicle_type_id":"4","last_reported":1717369646,"current_range_meters":22000,"station_id":"ce4bh012rcd13ifvqcv0","pricing_plan_id":"cebpf4jnsgd1na2vs0mg"},{"bike_id":"e874f1b0-c390-4fac-b7c5-8b16069e7c19","system_id":"levelo_inurba_marseille","lat":43.31327,"lon":5.397,"is_reserved":false,"is_disabled":false,"rental_uris":{"android":"levelo://app?vid=e874f1b0-c390-4fac-b7c5-8b16069e7c19","ios":"levelo://app?vid=e874f1b0-c390-4fac-b7c5-8b16069e7c19"},"vehicle_type_id":"4","last_reported":1717369646,"current_range_meters":6400,"station_id":"ce4bgvp2rcd13ifvqcu0","pricing_plan_id":"cebpf4jnsgd1na2vs0mg"},{"bike_id":"4df80c18-e589-4140-8e62-df484ec903dd","system_id":"levelo_inurba_marseille","lat":43.309038,"lon":5.396546,"is_reserved":false,"is_disabled":false,"rental_uris":{"android":"levelo://app?vid=4df80c18-e589-4140-8e62-df484ec903dd","ios":"levelo://app?vid=4df80c18-e589-4140-8e62-df484ec903dd"},"vehicle_type_id":"4","last_reported":1717369646,"current_range_meters":27600,"station_id":"ce4bh012rcd13ifvqcv0","pricing_plan_id":"cebpf4jnsgd1na2vs0mg"},{"bike_id":"5d8cdf28-32cb-43d1-b199-b50210fd6e9e","system_id":"levelo_inurba_marseille","lat":43.309038,"lon":5.396546,"is_reserved":false,"is_disabled":false,"rental_uris":{"android":"levelo://app?vid=5d8cdf28-32cb-43d1-b199-b50210fd6e9e","ios":"levelo://app?vid=5d8cdf28-32cb-43d1-b199-b50210fd6e9e"},"vehicle_type_id":"4","last_reported":1717369646,"current_range_meters":10800,"station_id":"ce4bh012rcd13ifvqcv0","pricing_plan_id":"cebpf4jnsgd1na2vs0mg"},{"bike_id":"2b425679-82fd-41b8-a322-aa0605e9fb58","system_id":"levelo_inurba_marseille","lat":43.309038,"lon":5.396546,"is_reserved":false,"is_disabled":false,"rental_uris":{"android":"levelo://app?vid=2b425679-82fd-41b8-a322-aa0605e9fb58","ios":"levelo://app?vid=2b425679-82fd-41b8-a322-aa0605e9fb58"},"vehicle_type_id":"4","last_reported":1717369646,"current_range_meters":27600,"station_id":"ce4bh012rcd13ifvqcv0","pricing_plan_id":"cebpf4jnsgd1na2vs0mg"},{"bike_id":"17eeb63d-ceb3-4510-a439-22f2b08a606f","system_id":"levelo_inurba_marseille","lat":43.291994,"lon":5.357886,"is_reserved":false,"is_disabled":false,"rental_uris":{"android":"levelo://app?vid=17eeb63d-ceb3-4510-a439-22f2b08a606f","ios":"levelo://app?vid=17eeb63d-ceb3-4510-a439-22f2b08a606f"},"vehicle_type_id":"4","last_reported":1717369646,"current_range_meters":25200,"station_id":"ce4bhb12rcd13ifvqel0","pricing_plan_id":"cebpf4jnsgd1na2vs0mg"},{"bike_id":"a0ffdf8b-b486-4fd1-bdd2-950d318d02cb","system_id":"levelo_inurba_marseille","lat":43.295194,"lon":5.39397,"is_reserved":false,"is_disabled":false,"rental_uris":{"android":"levelo://app?vid=a0ffdf8b-b486-4fd1-bdd2-950d318d02cb","ios":"levelo://app?vid=a0ffdf8b-b486-4fd1-bdd2-950d318d02cb"},"vehicle_type_id":"4","last_reported":1717369646,"current_range_meters":25600,"station_id":"ce4bh292rcd13ifvqdf0","pricing_plan_id":"cebpf4jnsgd1na2vs0mg"},{"bike_id":"417f76a2-f404-4d3c-95c0-c05996d23091","system_id":"levelo_inurba_marseille","lat":43.29529,"lon":5.38548,"is_reserved":false,"is_disabled":false,"rental_uris":{"android":"levelo://app?vid=417f76a2-f404-4d3c-95c0-c05996d23091","ios":"levelo://app?vid=417f76a2-f404-4d3c-95c0-c05996d23091"},"vehicle_type_id":"4","last_reported":1717369646,"current_range_meters":24000,"station_id":"ce4bgih2rcd13ifvqba0","pricing_plan_id":"cebpf4jnsgd1na2vs0mg"},{"bike_id":"0cf19933-061a-4085-8cb8-53d7e00cc4e4","system_id":"levelo_inurba_marseille","lat":43.29066,"lon":5.37161,"is_reserved":false,"is_disabled":false,"rental_uris":{"android":"levelo://app?vid=0cf19933-061a-4085-8cb8-53d7e00cc4e4","ios":"levelo://app?vid=0cf19933-061a-4085-8cb8-53d7e00cc4e4"},"vehicle_type_id":"4","last_reported":1717369646,"current_range_meters":29600,"station_id":"ce4bh5p2rcd13ifvqe4g","pricing_plan_id":"cebpf4jnsgd1na2vs0mg"},{"bike_id":"67aa0d43-abcd-4373-88ff-61d2828fbd19","system_id":"levelo_inurba_marseille","lat":43.29059,"lon":5.37151,"is_reserved":false,"is_disabled":false,"rental_uris":{"android":"levelo://app?vid=67aa0d43-abcd-4373-88ff-61d2828fbd19","ios":"levelo://app?vid=67aa0d43-abcd-4373-88ff-61d2828fbd19"},"vehicle_type_id":"4","last_reported":1717369646,"current_range_meters":12400,"station_id":"ce4bh5p2rcd13ifvqe4g","pricing_plan_id":"cebpf4jnsgd1na2vs0mg"},{"bike_id":"880345d1-f534-40e2-b7af-e17c9b6ffa2d","system_id":"levelo_inurba_marseille","lat":43.302008,"lon":5.394694,"is_reserved":false,"is_disabled":false,"rental_uris":{"android":"levelo://app?vid=880345d1-f534-40e2-b7af-e17c9b6ffa2d","ios":"levelo://app?vid=880345d1-f534-40e2-b7af-e17c9b6ffa2d"},"vehicle_type_id":"4","last_reported":1717369646,"current_range_meters":18000,"station_id":"ce4bh0p2rcd13ifvqd70","pricing_plan_id":"cebpf4jnsgd1na2vs0mg"},{"bike_id":"6e9713f6-d973-4adb-8d17-638fd944bd5c","system_id":"levelo_inurba_marseille","lat":43.302008,"lon":5.394694,"is_reserved":false,"is_disabled":false,"rental_uris":{"android":"levelo://app?vid=6e9713f6-d973-4adb-8d17-638fd944bd5c","ios":"levelo://app?vid=6e9713f6-d973-4adb-8d17-638fd944bd5c"},"vehicle_type_id":"4","last_reported":1717369646,"current_range_meters":16800,"station_id":"ce4bh0p2rcd13ifvqd70","pricing_plan_id":"cebpf4jnsgd1na2vs0mg"},{"bike_id":"a8964587-8df5-4277-9bea-4acff2fe1c04","system_id":"levelo_inurba_marseille","lat":43.290631,"lon":5.359244,"is_reserved":false,"is_disabled":false,"rental_uris":{"android":"levelo://app?vid=a8964587-8df5-4277-9bea-4acff2fe1c04","ios":"levelo://app?vid=a8964587-8df5-4277-9bea-4acff2fe1c04"},"vehicle_type_id":"4","last_reported":1717369646,"current_range_meters":12800,"station_id":"ce4bha92rcd13ifvqeg0","pricing_plan_id":"cebpf4jnsgd1na2vs0mg"},{"bike_id":"54e35342-fd70-4163-b9fe-35565331a977","system_id":"levelo_inurba_marseille","lat":43.290319,"lon":5.375732,"is_reserved":false,"is_disabled":false,"rental_uris":{"android":"levelo://app?vid=54e35342-fd70-4163-b9fe-35565331a977","ios":"levelo://app?vid=54e35342-fd70-4163-b9fe-35565331a977"},"vehicle_type_id":"4","last_reported":1717369646,"current_range_meters":11200,"station_id":"ce4bh692rcd13ifvqe90","pricing_plan_id":"cebpf4jnsgd1na2vs0mg"},{"bike_id":"dac2a92b-07ef-4aec-9798-00e7264a7d01","system_id":"levelo_inurba_marseille","lat":43.289468,"lon":5.363719,"is_reserved":false,"is_disabled":false,"rental_uris":{"android":"levelo://app?vid=dac2a92b-07ef-4aec-9798-00e7264a7d01","ios":"levelo://app?vid=dac2a92b-07ef-4aec-9798-00e7264a7d01"},"vehicle_type_id":"4","last_reported":1717369646,"current_range_meters":20000,"station_id":"ce4bhc92rcd13ifvqetg","pricing_plan_id":"cebpf4jnsgd1na2vs0mg"},{"bike_id":"272a4d38-b3ef-4971-a66f-e1ee0144c58c","system_id":"levelo_inurba_marseille","lat":43.289184,"lon":5.366408,"is_reserved":false,"is_disabled":false,"rental_uris":{"android":"levelo://app?vid=272a4d38-b3ef-4971-a66f-e1ee0144c58c","ios":"levelo://app?vid=272a4d38-b3ef-4971-a66f-e1ee0144c58c"},"vehicle_type_id":"4","last_reported":1717369646,"current_range_meters":30400,"station_id":"ce4bhap2rcd13ifvqek0","pricing_plan_id":"cebpf4jnsgd1na2vs0mg"},{"bike_id":"2d77bffd-da4c-4deb-a1a2-a5b19ad270b2","system_id":"levelo_inurba_marseille","lat":43.289184,"lon":5.366408,"is_reserved":false,"is_disabled":false,"rental_uris":{"android":"levelo://app?vid=2d77bffd-da4c-4deb-a1a2-a5b19ad270b2","ios":"levelo://app?vid=2d77bffd-da4c-4deb-a1a2-a5b19ad270b2"},"vehicle_type_id":"4","last_reported":1717369646,"current_range_meters":18000,"station_id":"ce4bhap2rcd13ifvqek0","pricing_plan_id":"cebpf4jnsgd1na2vs0mg"},{"bike_id":"42c37e47-0f4c-42c7-be84-a65a67ad2dc4","system_id":"levelo_inurba_marseille","lat":43.289468,"lon":5.363719,"is_reserved":false,"is_disabled":false,"rental_uris":{"android":"levelo://app?vid=42c37e47-0f4c-42c7-be84-a65a67ad2dc4","ios":"levelo://app?vid=42c37e47-0f4c-42c7-be84-a65a67ad2dc4"},"vehicle_type_id":"4","last_reported":1717369646,"current_range_meters":17600,"station_id":"ce4bhc92rcd13ifvqetg","pricing_plan_id":"cebpf4jnsgd1na2vs0mg"},{"bike_id":"1e51ceae-d70b-46d1-89f1-41f99ee67ef7","system_id":"levelo_inurba_marseille","lat":43.289184,"lon":5.366408,"is_reserved":false,"is_disabled":false,"rental_uris":{"android":"levelo://app?vid=1e51ceae-d70b-46d1-89f1-41f99ee67ef7","ios":"levelo://app?vid=1e51ceae-d70b-46d1-89f1-41f99ee67ef7"},"vehicle_type_id":"4","last_reported":1717369646,"current_range_meters":23200,"station_id":"ce4bhap2rcd13ifvqek0","pricing_plan_id":"cebpf4jnsgd1na2vs0mg"},{"bike_id":"2656433b-32be-48c5-b2c4-cb7472526a41","system_id":"levelo_inurba_marseille","lat":43.289468,"lon":5.363719,"is_reserved":false,"is_disabled":false,"rental_uris":{"android":"levelo://app?vid=2656433b-32be-48c5-b2c4-cb7472526a41","ios":"levelo://app?vid=2656433b-32be-48c5-b2c4-cb7472526a41"},"vehicle_type_id":"4","last_reported":1717369646,"current_range_meters":13200,"station_id":"ce4bhc92rcd13ifvqetg","pricing_plan_id":"cebpf4jnsgd1na2vs0mg"},{"bike_id":"de788abb-ffb4-49f0-9968-eb4f3aa799f7","system_id":"levelo_inurba_marseille","lat":43.289468,"lon":5.363719,"is_reserved":false,"is_disabled":false,"rental_uris":{"android":"levelo://app?vid=de788abb-ffb4-49f0-9968-eb4f3aa799f7","ios":"levelo://app?vid=de788abb-ffb4-49f0-9968-eb4f3aa799f7"},"vehicle_type_id":"4","last_reported":1717369646,"current_range_meters":31200,"station_id":"ce4bhc92rcd13ifvqetg","pricing_plan_id":"cebpf4jnsgd1na2vs0mg"},{"bike_id":"21d68d82-689c-453d-8247-73c603975f64","system_id":"levelo_inurba_marseille","lat":43.289468,"lon":5.363719,"is_reserved":false,"is_disabled":false,"rental_uris":{"android":"levelo://app?vid=21d68d82-689c-453d-8247-73c603975f64","ios":"levelo://app?vid=21d68d82-689c-453d-8247-73c603975f64"},"vehicle_type_id":"4","last_reported":1717369646,"current_range_meters":21600,"station_id":"ce4bhc92rcd13ifvqetg","pricing_plan_id":"cebpf4jnsgd1na2vs0mg"},{"bike_id":"d8101d8b-e048-4ab1-ad72-2e964a9673ef","system_id":"levelo_inurba_marseille","lat":43.304274,"lon":5.397513,"is_reserved":false,"is_disabled":false,"rental_uris":{"android":"levelo://app?vid=d8101d8b-e048-4ab1-ad72-2e964a9673ef","ios":"levelo://app?vid=d8101d8b-e048-4ab1-ad72-2e964a9673ef"},"vehicle_type_id":"4","last_reported":1717369646,"current_range_meters":19200,"station_id":"ce4bh092rcd13ifvqd20","pricing_plan_id":"cebpf4jnsgd1na2vs0mg"},{"bike_id":"62c13345-8d4c-498c-86a6-831ed8b481fc","system_id":"levelo_inurba_marseille","lat":43.304296,"lon":5.397513,"is_reserved":false,"is_disabled":false,"rental_uris":{"android":"levelo://app?vid=62c13345-8d4c-498c-86a6-831ed8b481fc","ios":"levelo://app?vid=62c13345-8d4c-498c-86a6-831ed8b481fc"},"vehicle_type_id":"4","last_reported":1717369646,"current_range_meters":12400,"station_id":"ce4bh092rcd13ifvqd20","pricing_plan_id":"cebpf4jnsgd1na2vs0mg"},{"bike_id":"64188ebf-89e5-454f-8766-c5384664f48f","system_id":"levelo_inurba_marseille","lat":43.304274,"lon":5.397513,"is_reserved":false,"is_disabled":false,"rental_uris":{"android":"levelo://app?vid=64188ebf-89e5-454f-8766-c5384664f48f","ios":"levelo://app?vid=64188ebf-89e5-454f-8766-c5384664f48f"},"vehicle_type_id":"4","last_reported":1717369646,"current_range_meters":20400,"station_id":"ce4bh092rcd13ifvqd20","pricing_plan_id":"cebpf4jnsgd1na2vs0mg"},{"bike_id":"4cdc2a69-0a95-46e5-a543-91457334df4f","system_id":"levelo_inurba_marseille","lat":43.304296,"lon":5.397513,"is_reserved":false,"is_disabled":false,"rental_uris":{"android":"levelo://app?vid=4cdc2a69-0a95-46e5-a543-91457334df4f","ios":"levelo://app?vid=4cdc2a69-0a95-46e5-a543-91457334df4f"},"vehicle_type_id":"4","last_reported":1717369646,"current_range_meters":16000,"station_id":"ce4bh092rcd13ifvqd20","pricing_plan_id":"cebpf4jnsgd1na2vs0mg"},{"bike_id":"5a3ca0e0-e38e-42e1-b94c-3a94eba5d025","system_id":"levelo_inurba_marseille","lat":43.304296,"lon":5.397513,"is_reserved":false,"is_disabled":false,"rental_uris":{"android":"levelo://app?vid=5a3ca0e0-e38e-42e1-b94c-3a94eba5d025","ios":"levelo://app?vid=5a3ca0e0-e38e-42e1-b94c-3a94eba5d025"},"vehicle_type_id":"4","last_reported":1717369646,"current_range_meters":26400,"station_id":"ce4bh092rcd13ifvqd20","pricing_plan_id":"cebpf4jnsgd1na2vs0mg"},{"bike_id":"b25f6235-b25e-42b5-996b-931cc6eb47ed","system_id":"levelo_inurba_marseille","lat":43.304296,"lon":5.397513,"is_reserved":false,"is_disabled":false,"rental_uris":{"android":"levelo://app?vid=b25f6235-b25e-42b5-996b-931cc6eb47ed","ios":"levelo://app?vid=b25f6235-b25e-42b5-996b-931cc6eb47ed"},"vehicle_type_id":"4","last_reported":1717369646,"current_range_meters":24800,"station_id":"ce4bh092rcd13ifvqd20","pricing_plan_id":"cebpf4jnsgd1na2vs0mg"},{"bike_id":"13ac62fa-528a-4aa5-8ea7-0e8bb0bbd533","system_id":"levelo_inurba_marseille","lat":43.304274,"lon":5.397513,"is_reserved":false,"is_disabled":false,"rental_uris":{"android":"levelo://app?vid=13ac62fa-528a-4aa5-8ea7-0e8bb0bbd533","ios":"levelo://app?vid=13ac62fa-528a-4aa5-8ea7-0e8bb0bbd533"},"vehicle_type_id":"4","last_reported":1717369646,"current_range_meters":27200,"station_id":"ce4bh092rcd13ifvqd20","pricing_plan_id":"cebpf4jnsgd1na2vs0mg"},{"bike_id":"1c91d437-55a3-4fd8-b3ee-4c255e3b9211","system_id":"levelo_inurba_marseille","lat":43.304274,"lon":5.397513,"is_reserved":false,"is_disabled":false,"rental_uris":{"android":"levelo://app?vid=1c91d437-55a3-4fd8-b3ee-4c255e3b9211","ios":"levelo://app?vid=1c91d437-55a3-4fd8-b3ee-4c255e3b9211"},"vehicle_type_id":"4","last_reported":1717369646,"current_range_meters":4000,"station_id":"ce4bh092rcd13ifvqd20","pricing_plan_id":"cebpf4jnsgd1na2vs0mg"},{"bike_id":"ac94bf86-fe43-430d-b60d-f291f3156a26","system_id":"levelo_inurba_marseille","lat":43.304274,"lon":5.397513,"is_reserved":false,"is_disabled":false,"rental_uris":{"android":"levelo://app?vid=ac94bf86-fe43-430d-b60d-f291f3156a26","ios":"levelo://app?vid=ac94bf86-fe43-430d-b60d-f291f3156a26"},"vehicle_type_id":"4","last_reported":1717369646,"current_range_meters":24000,"station_id":"ce4bh092rcd13ifvqd20","pricing_plan_id":"cebpf4jnsgd1na2vs0mg"},