{"last_updated":1773560801,"ttl":60,"version":"2.2","data":{"bikes":[{"bike_id":"4853eebb-ab61-45f6-ad42-3d4e196de01e","system_id":"levelo_inurba_marseille","lat":43.30718,"lon":5.42409,"is_reserved":false,"is_disabled":false,"rental_uris":{"android":"levelo://app?vid=4853eebb-ab61-45f6-ad42-3d4e196de01e","ios":"levelo://app?vid=4853eebb-ab61-45f6-ad42-3d4e196de01e"},"vehicle_type_id":"4","last_reported":1773560802,"current_range_meters":38800,"station_id":"st_cvj6ca6bvosntc0bfgr0","pricing_plan_id":"cebpf4jnsgd1na2vs0mg"},{"bike_id":"c3c798ec-5d8a-4061-a1f0-4918769a5444","system_id":"levelo_inurba_marseille","lat":43.30358,"lon":5.41874,"is_reserved":false,"is_disabled":false,"rental_uris":{"android":"levelo://app?vid=c3c798ec-5d8a-4061-a1f0-4918769a5444","ios":"levelo://app?vid=c3c798ec-5d8a-4061-a1f0-4918769a5444"},"vehicle_type_id":"4","last_reported":1773560802,"current_range_meters":39200,"station_id":"ce4bhop2rcd13ifvqh7g","pricing_plan_id":"cebpf4jnsgd1na2vs0mg"},{"bike_id":"2baf0122-04d1-4b64-9cf9-22a4dace6c0b","system_id":"levelo_inurba_marseille","lat":43.31166,"lon":5.38729,"is_reserved":false,"is_disabled":false,"rental_uris":{"android":"levelo://app?vid=2baf0122-04d1-4b64-9cf9-22a4dace6c0b","ios":"levelo://app?vid=2baf0122-04d1-4b64-9cf9-22a4dace6c0b"},"vehicle_type_id":"4","last_reported":1773560802,"current_range_meters":26000,"station_id":"ce4bgv12rcd13ifvqcp0","pricing_plan_id":"cebpf4jnsgd1na2vs0mg"},{"bike_id":"4ee1719e-9828-41ad-ab0e-ac501a6f8dcb","system_id":"levelo_inurba_marseille","lat":43.26057,"lon":5.39412,"is_reserved":false,"is_disabled":false,"rental_uris":{"android":"levelo://app?vid=4ee1719e-9828-41ad-ab0e-ac501a6f8dcb","ios":"levelo://app?vid=4ee1719e-9828-41ad-ab0e-ac501a6f8dcb"},"vehicle_type_id":"4","last_reported":1773560802,"current_range_meters":8000,"station_id":"ce4bhh92rcd13ifvqfj0","pricing_plan_id":"cebpf4jnsgd1na2vs0mg"},{"bike_id":"e4c6d513-0f75-4d36-ab87-e09b44465632","system_id":"levelo_inurba_marseille","lat":43.27393,"lon":5.36277,"is_reserved":false,"is_disabled":true,"rental_uris":{"android":"levelo://app?vid=e4c6d513-0f75-4d36-ab87-e09b44465632","ios":"levelo://app?vid=e4c6d513-0f75-4d36-ab87-e09b44465632"},"vehicle_type_id":"4","last_reported":1773560802,"current_range_meters":35600,"station_id":"ce4bhbh2rcd13ifvqeo0","pricing_plan_id":"cebpf4jnsgd1na2vs0mg"},{"bike_id":"9f2a1746-11d8-47f0-bf04-a3c09370326f","system_id":"levelo_inurba_marseille","lat":43.28475,"lon":5.3591,"is_reserved":false,"is_disabled":false,"rental_uris":{"android":"levelo://app?vid=9f2a1746-11d8-47f0-bf04-a3c09370326f","ios":"levelo://app?vid=9f2a1746-11d8-47f0-bf04-a3c09370326f"},"vehicle_type_id":"4","last_reported":1773560802,"current_range_meters":18800,"station_id":"ce4bhah2rcd13ifvqei0","pricing_plan_id":"cebpf4jnsgd1na2vs0mg"},{"bike_id":"dfd0a0f6-5285-4bd7-80a4-14fead877d67","system_id":"levelo_inurba_marseille","lat":43.25092,"lon":5.39517,"is_reserved":false,"is_disabled":false,"rental_uris":{"android":"levelo://app?vid=dfd0a0f6-5285-4bd7-80a4-14fead877d67","ios":"levelo://app?vid=dfd0a0f6-5285-4bd7-80a4-14fead877d67"},"vehicle_type_id":"4","last_reported":1773560802,"current_range_meters":29600,"station_id":"ce4bhm12rcd13ifvqgkg","pricing_plan_id":"cebpf4jnsgd1na2vs0mg"},{"bike_id":"9a7da94c-06ba-4f33-9843-7cc87e049986","system_id":"levelo_inurba_marseille","lat":43.31267,"lon":5.40165,"is_reserved":false,"is_disabled":false,"rental_uris":{"android":"levelo://app?vid=9a7da94c-06ba-4f33-9843-7cc87e049986","ios":"levelo://app?vid=9a7da94c-06ba-4f33-9843-7cc87e049986"},"vehicle_type_id":"4","last_reported":1773560802,"current_range_meters":7200,"station_id":"ce4bh092rcd13ifvqd30","pricing_plan_id":"cebpf4jnsgd1na2vs0mg"},{"bike_id":"18f35d94-7133-4b4b-a629-0bec9d48af36","system_id":"levelo_inurba_marseille","lat":43.28474,"lon":5.48395,"is_reserved":false,"is_disabled":false,"rental_uris":{"android":"levelo://app?vid=18f35d94-7133-4b4b-a629-0bec9d48af36","ios":"levelo://app?vid=18f35d94-7133-4b4b-a629-0bec9d48af36"},"vehicle_type_id":"4","last_reported":1773560802,"current_range_meters":24000,"station_id":"","pricing_plan_id":"cebpf4jnsgd1na2vs0mg"},{"bike_id":"058a40ef-aca0-46a1-b31e-3c5dc3514929","system_id":"levelo_inurba_marseille","lat":43.28436,"lon":5.34986,"is_reserved":false,"is_disabled":false,"rental_uris":{"android":"levelo://app?vid=058a40ef-aca0-46a1-b31e-3c5dc3514929","ios":"levelo://app?vid=058a40ef-aca0-46a1-b31e-3c5dc3514929"},"vehicle_type_id":"4","last_reported":1773560802,"current_range_meters":29600,"station_id":"ce4bhbh2rcd13ifvqepg","pricing_plan_id":"cebpf4jnsgd1na2vs0mg"},{"bike_id":"65d10f3b-fdb1-4316-80cd-8ee00585fdd2","system_id":"levelo_inurba_marseille","lat":43.312,"lon":5.36736,"is_reserved":false,"is_disabled":false,"rental_uris":{"android":"levelo://app?vid=65d10f3b-fdb1-4316-80cd-8ee00585fdd2","ios":"levelo://app?vid=65d10f3b-fdb1-4316-80cd-8ee00585fdd2"},"vehicle_type_id":"4","last_reported":1773560802,"current_range_meters":37600,"station_id":"","pricing_plan_id":"cebpf4jnsgd1na2vs0mg"},{"bike_id":"7db92065-fd6e-4014-982f-daf9b3e1e88d","system_id":"levelo_inurba_marseille","lat":43.25824,"lon":5.3943,"is_reserved":false,"is_disabled":false,"rental_uris":{"android":"levelo://app?vid=7db92065-fd6e-4014-982f-daf9b3e1e88d","ios":"levelo://app?vid=7db92065-fd6e-4014-982f-daf9b3e1e88d"},"vehicle_type_id":"4","last_reported":1773560802,"current_range_meters":10800,"station_id":"ce4bhip2rcd13ifvqft0","pricing_plan_id":"cebpf4jnsgd1na2vs0mg"},{"bike_id":"e32dfe67-fd75-422e-b927-6de62f6b46a9","system_id":"levelo_inurba_marseille","lat":43.30335,"lon":5.40453,"is_reserved":false,"is_disabled":false,"rental_uris":{"android":"levelo://app?vid=e32dfe67-fd75-422e-b927-6de62f6b46a9","ios":"levelo://app?vid=e32dfe67-fd75-422e-b927-6de62f6b46a9"},"vehicle_type_id":"4","last_reported":1773560802,"current_range_meters":11600,"station_id":"ce4bh012rcd13ifvqd10","pricing_plan_id":"cebpf4jnsgd1na2vs0mg"},{"bike_id":"d69bc87a-4abe-4573-8c1d-eecdfac78f9e","system_id":"levelo_inurba_marseille","lat":43.31684,"lon":5.39063,"is_reserved":false,"is_disabled":false,"rental_uris":{"android":"levelo://app?vid=d69bc87a-4abe-4573-8c1d-eecdfac78f9e","ios":"levelo://app?vid=d69bc87a-4abe-4573-8c1d-eecdfac78f9e"},"vehicle_type_id":"4","last_reported":1773560802,"current_range_meters":39200,"station_id":"","pricing_plan_id":"cebpf4jnsgd1na2vs0mg"},{"bike_id":"33b16ff4-aa90-4e96-a65b-80fdeacb58de","system_id":"levelo_inurba_marseille","lat":43.30541,"lon":5.36537,"is_reserved":false,"is_disabled":false,"rental_uris":{"android":"levelo://app?vid=33b16ff4-aa90-4e96-a65b-80fdeacb58de","ios":"levelo://app?vid=33b16ff4-aa90-4e96-a65b-80fdeacb58de"},"vehicle_type_id":"4","last_reported":1773560802,"current_range_meters":25200,"station_id":"ce4bgs12rcd13ifvqcag","pricing_plan_id":"cebpf4jnsgd1na2vs0mg"},{"bike_id":"e573b9f8-2e55-460a-b105-e11639e7657a","system_id":"levelo_inurba_marseille","lat":43.29275,"lon":5.36853,"is_reserved":false,"is_disabled":false,"rental_uris":{"android":"levelo://app?vid=e573b9f8-2e55-460a-b105-e11639e7657a","ios":"levelo://app?vid=e573b9f8-2e55-460a-b105-e11639e7657a"},"vehicle_type_id":"4","last_reported":1773560802,"current_range_meters":34800,"station_id":"ce4bhbp2rcd13ifvqesg","pricing_plan_id":"cebpf4jnsgd1na2vs0mg"},{"bike_id":"1c0c4c0c-f299-41e4-90d6-b6eff31b2338","system_id":"levelo_inurba_marseille","lat":43.27014,"lon":5.38292,"is_reserved":false,"is_disabled":false,"rental_uris":{"android":"levelo://app?vid=1c0c4c0c-f299-41e4-90d6-b6eff31b2338","ios":"levelo://app?vid=1c0c4c0c-f299-41e4-90d6-b6eff31b2338"},"vehicle_type_id":"4","last_reported":1773560802,"current_range_meters":36000,"station_id":"","pricing_plan_id":"cebpf4jnsgd1na2vs0mg"},{"bike_id":"8e97a107-1c21-4120-aa7b-6a8e7ad002e1","system_id":"levelo_inurba_marseille","lat":43.29562,"lon":5.37529,"is_reserved":false,"is_disabled":false,"rental_uris":{"android":"levelo://app?vid=8e97a107-1c21-4120-aa7b-6a8e7ad002e1","ios":"levelo://app?vid=8e97a107-1c21-4120-aa7b-6a8e7ad002e1"},"vehicle_type_id":"4","last_reported":1773560802,"current_range_meters":35600,"station_id":"ce4bgh92rcd13ifvqb50","pricing_plan_id":"cebpf4jnsgd1na2vs0mg"},{"bike_id":"674e8b35-bca7-4ed8-ba45-7c86f71eaca5","system_id":"levelo_inurba_marseille","lat":43.26211,"lon":5.37443,"is_reserved":false,"is_disabled":false,"rental_uris":{"android":"levelo://app?vid=674e8b35-bca7-4ed8-ba45-7c86f71eaca5","ios":"levelo://app?vid=674e8b35-bca7-4ed8-ba45-7c86f71eaca5"},"vehicle_type_id":"4","last_reported":1773560802,"current_range_meters":19200,"station_id":"ce4bhgp2rcd13ifvqfc0","pricing_plan_id":"cebpf4jnsgd1na2vs0mg"},{"bike_id":"6f61d387-d66c-4612-94f7-67c0f0b415c5","system_id":"levelo_inurba_marseille","lat":43.3013,"lon":5.37423,"is_reserved":false,"is_disabled":false,"rental_uris":{"android":"levelo://app?vid=6f61d387-d66c-4612-94f7-67c0f0b415c5","ios":"levelo://app?vid=6f61d387-d66c-4612-94f7-67c0f0b415c5"},"vehicle_type_id":"4","last_reported":1773560802,"current_range_meters":27600,"station_id":"ce4bgs92rcd13ifvqcc0","pricing_plan_id":"cebpf4jnsgd1na2vs0mg"},{"bike_id":"15643cb0-ca44-4e67-8c97-15418479ee03","system_id":"levelo_inurba_marseille","lat":43.28653,"lon":5.36383,"is_reserved":false,"is_disabled":false,"rental_uris":{"android":"levelo://app?vid=15643cb0-ca44-4e67-8c97-15418479ee03","ios":"levelo://app?vid=15643cb0-ca44-4e67-8c97-15418479ee03"},"vehicle_type_id":"4","last_reported":1773560802,"current_range_meters":14400,"station_id":"ce4bhah2rcd13ifvqej0","pricing_plan_id":"cebpf4jnsgd1na2vs0mg"},{"bike_id":"76018294-dcc7-4c7d-ad2d-1448d43240dc","system_id":"levelo_inurba_marseille","lat":43.25111,"lon":5.40343,"is_reserved":false,"is_disabled":false,"rental_uris":{"android":"levelo://app?vid=76018294-dcc7-4c7d-ad2d-1448d43240dc","ios":"levelo://app?vid=76018294-dcc7-4c7d-ad2d-1448d43240dc"},"vehicle_type_id":"4","last_reported":1773560802,"current_range_meters":26000,"station_id":"ce4bhlh2rcd13ifvqgig","pricing_plan_id":"cebpf4jnsgd1na2vs0mg"},{"bike_id":"55ec29f4-7127-4c85-923d-63c34cba0677","system_id":"levelo_inurba_marseille","lat":43.30794,"lon":5.37661,"is_reserved":false,"is_disabled":false,"rental_uris":{"android":"levelo://app?vid=55ec29f4-7127-4c85-923d-63c34cba0677","ios":"levelo://app?vid=55ec29f4-7127-4c85-923d-63c34cba0677"},"vehicle_type_id":"4","last_reported":1773560802,"current_range_meters":39200,"station_id":"ce4bgv92rcd13ifvqcq0","pricing_plan_id":"cebpf4jnsgd1na2vs0mg"},{"bike_id":"bdc84d40-3efe-455b-919e-b15c539b144d","system_id":"levelo_inurba_marseille","lat":43.28615,"lon":5.35107,"is_reserved":false,"is_disabled":false,"rental_uris":{"android":"levelo://app?vid=bdc84d40-3efe-455b-919e-b15c539b144d","ios":"levelo://app?vid=bdc84d40-3efe-455b-919e-b15c539b144d"},"vehicle_type_id":"4","last_reported":1773560802,"current_range_meters":9600,"station_id":"ce4bhch2rcd13ifvqeug","pricing_plan_id":"cebpf4jnsgd1na2vs0mg"},{"bike_id":"391379cf-4643-4158-85b8-1cb594e2549e","system_id":"levelo_inurba_marseille","lat":43.28812,"lon":5.36083,"is_reserved":false,"is_disabled":false,"rental_uris":{"android":"levelo://app?vid=391379cf-4643-4158-85b8-1cb594e2549e","ios":"levelo://app?vid=391379cf-4643-4158-85b8-1cb594e2549e"},"vehicle_type_id":"4","last_reported":1773560802,"current_range_meters":39200,"station_id":"cki0cbj6b192h4jlfktg","pricing_plan_id":"cebpf4jnsgd1na2vs0mg"},{"bike_id":"18a594df-6c61-4fcc-bfe2-8a93ec98ac12","system_id":"levelo_inurba_marseille","lat":43.2872,"lon":5.37414,"is_reserved":false,"is_disabled":false,"rental_uris":{"android":"levelo://app?vid=18a594df-6c61-4fcc-bfe2-8a93ec98ac12","ios":"levelo://app?vid=18a594df-6c61-4fcc-bfe2-8a93ec98ac12"},"vehicle_type_id":"4","last_reported":1773560802,"current_range_meters":39200,"station_id":"ce4bh3p2rcd13ifvqdq0","pricing_plan_id":"cebpf4jnsgd1na2vs0mg"},{"bike_id":"df980ba6-a5e3-4d6c-ba7d-3005f70e10e2","system_id":"levelo_inurba_marseille","lat":43.31363,"lon":5.38492,"is_reserved":false,"is_disabled":false,"rental_uris":{"android":"levelo://app?vid=df980ba6-a5e3-4d6c-ba7d-3005f70e10e2","ios":"levelo://app?vid=df980ba6-a5e3-4d6c-ba7d-3005f70e10e2"},"vehicle_type_id":"4","last_reported":1773560802,"current_range_meters":25200,"station_id":"ce4bgt92rcd13ifvqcf0","pricing_plan_id":"cebpf4jnsgd1na2vs0mg"},{"bike_id":"3c7690d1-a097-4dc1-a920-49c74ad74917","system_id":"levelo_inurba_marseille","lat":43.29077,"lon":5.37191,"is_reserved":false,"is_disabled":true,"rental_uris":{"android":"levelo://app?vid=3c7690d1-a097-4dc1-a920-49c74ad74917","ios":"levelo://app?vid=3c7690d1-a097-4dc1-a920-49c74ad74917"},"vehicle_type_id":"4","last_reported":1773560802,"current_range_meters":27600,"station_id":"ce4bh5p2rcd13ifvqe4g","pricing_plan_id":"cebpf4jnsgd1na2vs0mg"},{"bike_id":"04b16ebb-af3f-44f8-a1a8-70bc14b73372","system_id":"levelo_inurba_marseille","lat":43.29397,"lon":5.37863,"is_reserved":false,"is_disabled":false,"rental_uris":{"android":"levelo://app?vid=04b16ebb-af3f-44f8-a1a8-70bc14b73372","ios":"levelo://app?vid=04b16ebb-af3f-44f8-a1a8-70bc14b73372"},"vehicle_type_id":"4","last_reported":1773560802,"current_range_meters":38000,"station_id":"ce4bgjh2rcd13ifvqbf0","pricing_plan_id":"cebpf4jnsgd1na2vs0mg"},{"bike_id":"42b0b6df-69b9-4ab0-83b2-a7d0d52313ec","system_id":"levelo_inurba_marseille","lat":43.25847,"lon":5.39944,"is_reserved":false,"is_disabled":false,"rental_uris":{"android":"levelo://app?vid=42b0b6df-69b9-4ab0-83b2-a7d0d52313ec","ios":"levelo://app?vid=42b0b6df-69b9-4ab0-83b2-a7d0d52313ec"},"vehicle_type_id":"4","last_reported":1773560802,"current_range_meters":39200,"station_id":"ce4bhl92rcd13ifvqghg","pricing_plan_id":"cebpf4jnsgd1na2vs0mg"},{"bike_id":"7e7249ab-ffda-4a8b-b45a-917693570120","system_id":"levelo_inurba_marseille","lat":43.2891,"lon":5.364,"is_reserved":false,"is_disabled":false,"rental_uris":{"android":"levelo://app?vid=7e7249ab-ffda-4a8b-b45a-917693570120","ios":"levelo://app?vid=7e7249ab-ffda-4a8b-b45a-917693570120"},"vehicle_type_id":"4","last_reported":1773560802,"current_range_meters":28800,"station_id":"ce4bhc92rcd13ifvqetg","pricing_plan_id":"cebpf4jnsgd1na2vs0mg"},{"bike_id":"ffad090c-cae3-4270-b25f-e63b153ea950","system_id":"levelo_inurba_marseille","lat":43.26793,"lon":5.39421,"is_reserved":false,"is_disabled":false,"rental_uris":{"android":"levelo://app?vid=ffad090c-cae3-4270-b25f-e63b153ea950","ios":"levelo://app?vid=ffad090c-cae3-4270-b25f-e63b153ea950"},"vehicle_type_id":"4","last_reported":1773560802,"current_range_meters":38400,"station_id":"ce4bhh12rcd13ifvqfg0","pricing_plan_id":"cebpf4jnsgd1na2vs0mg"},{"bike_id":"ced05e86-2551-48cf-8692-7f3559e5deac","system_id":"levelo_inurba_marseille","lat":43.29478,"lon":5.43302,"is_reserved":false,"is_disabled":false,"rental_uris":{"android":"levelo://app?vid=ced05e86-2551-48cf-8692-7f3559e5deac","ios":"levelo://app?vid=ced05e86-2551-48cf-8692-7f3559e5deac"},"vehicle_type_id":"4","last_reported":1773560802,"current_range_meters":6400,"station_id":"st_d3j5ugp08ojc73fj9d10","pricing_plan_id":"cebpf4jnsgd1na2vs0mg"},{"bike_id":"2af30bc9-8c41-41d4-9386-9ba4e8f3c6eb","system_id":"levelo_inurba_marseille","lat":43.30662,"lon":5.40066,"is_reserved":false,"is_disabled":false,"rental_uris":{"android":"levelo://app?vid=2af30bc9-8c41-41d4-9386-9ba4e8f3c6eb","ios":"levelo://app?vid=2af30bc9-8c41-41d4-9386-9ba4e8f3c6eb"},"vehicle_type_id":"4","last_reported":1773560802,"current_range_meters":40000,"station_id":"ce4bh112rcd13ifvqda0","pricing_plan_id":"cebpf4jnsgd1na2vs0mg"},{"bike_id":"356ed127-0cc8-4188-9928-4acaa914e3bf","system_id":"levelo_inurba_marseille","lat":43.25866,"lon":5.39893,"is_reserved":false,"is_disabled":false,"rental_uris":{"android":"levelo://app?vid=356ed127-0cc8-4188-9928-4acaa914e3bf","ios":"levelo://app?vid=356ed127-0cc8-4188-9928-4acaa914e3bf"},"vehicle_type_id":"4","last_reported":1773560802,"current_range_meters":38400,"station_id":"ce4bhl92rcd13ifvqghg","pricing_plan_id":"cebpf4jnsgd1na2vs0mg"},{"bike_id":"e37c2d0c-8c9e-4689-b9f1-6a10006c88b0","system_id":"levelo_inurba_marseille","lat":43.27266,"lon":5.39134,"is_reserved":false,"is_disabled":false,"rental_uris":{"android":"levelo://app?vid=e37c2d0c-8c9e-4689-b9f1-6a10006c88b0","ios":"levelo://app?vid=e37c2d0c-8c9e-4689-b9f1-6a10006c88b0"},"vehicle_type_id":"4","last_reported":1773560802,"current_range_meters":38000,"station_id":"ce4bhgp2rcd13ifvqfe0","pricing_plan_id":"cebpf4jnsgd1na2vs0mg"},{"bike_id":"e707ecb2-776e-4003-9b33-e407bbd4641f","system_id":"levelo_inurba_marseille","lat":43.29531,"lon":5.42278,"is_reserved":false,"is_disabled":false,"rental_uris":{"android":"levelo://app?vid=e707ecb2-776e-4003-9b33-e407bbd4641f","ios":"levelo://app?vid=e707ecb2-776e-4003-9b33-e407bbd4641f"},"vehicle_type_id":"4","last_reported":1773560802,"current_range_meters":35600,"station_id":"ce4bhph2rcd13ifvqhdg","pricing_plan_id":"cebpf4jnsgd1na2vs0mg"},{"bike_id":"41ae287c-9cc1-430a-84ca-70506bc523b6","system_id":"levelo_inurba_marseille","lat":43.22567,"lon":5.41633,"is_reserved":false,"is_disabled":false,"rental_uris":{"android":"levelo://app?vid=41ae287c-9cc1-430a-84ca-70506bc523b6","ios":"levelo://app?vid=41ae287c-9cc1-430a-84ca-70506bc523b6"},"vehicle_type_id":"4","last_reported":1773560802,"current_range_meters":36000,"station_id":"st_d2o4gvlbi1j2169b742g","pricing_plan_id":"cebpf4jnsgd1na2vs0mg"},{"bike_id":"fe8dfa27-62f0-46d6-ba43-c3127399aaa0","system_id":"levelo_inurba_marseille","lat":43.29634,"lon":5.42162,"is_reserved":false,"is_disabled":false,"rental_uris":{"android":"levelo://app?vid=fe8dfa27-62f0-46d6-ba43-c3127399aaa0","ios":"levelo://app?vid=fe8dfa27-62f0-46d6-ba43-c3127399aaa0"},"vehicle_type_id":"4","last_reported":1773560802,"current_range_meters":24000,"station_id":"","pricing_plan_id":"cebpf4jnsgd1na2vs0mg"},{"bike_id":"5c0630ed-bd2b-4642-b36b-ddb6b84186db","system_id":"levelo_inurba_marseille","lat":43.3073,"lon":5.4245,"is_reserved":false,"is_disabled":false,"rental_uris":{"android":"levelo://app?vid=5c0630ed-bd2b-4642-b36b-ddb6b84186db","ios":"levelo://app?vid=5c0630ed-bd2b-4642-b36b-ddb6b84186db"},"vehicle_type_id":"4","last_reported":1773560802,"current_range_meters":23200,"station_id":"st_cvj6ca6bvosntc0bfgr0","pricing_plan_id":"cebpf4jnsgd1na2vs0mg"},{"bike_id":"d315a8f9-bb43-4c6f-b2bd-a6cbdae4d557","system_id":"levelo_inurba_marseille","lat":43.26651,"lon":5.40349,"is_reserved":false,"is_disabled":false,"rental_uris":{"android":"levelo://app?vid=d315a8f9-bb43-4c6f-b2bd-a6cbdae4d557","ios":"levelo://app?vid=d315a8f9-bb43-4c6f-b2bd-a6cbdae4d557"},"vehicle_type_id":"4","last_reported":1773560802,"current_range_meters":26000,"station_id":"ce4bhmp2rcd13ifvqgng","pricing_plan_id":"cebpf4jnsgd1na2vs0mg"},{"bike_id":"41958fa8-d401-4b08-8314-53722cf95373","system_id":"levelo_inurba_marseille","lat":43.30323,"lon":5.40448,"is_reserved":false,"is_disabled":false,"rental_uris":{"android":"levelo://app?vid=41958fa8-d401-4b08-8314-53722cf95373","ios":"levelo://app?vid=41958fa8-d401-4b08-8314-53722cf95373"},"vehicle_type_id":"4","last_reported":1773560802,"current_range_meters":24000,"station_id":"ce4bh012rcd13ifvqd10","pricing_plan_id":"cebpf4jnsgd1na2vs0mg"},{"bike_id":"6cd1b79d-1347-474f-9698-eaf7241262db","system_id":"levelo_inurba_marseille","lat":43.28422,"lon":5.34972,"is_reserved":false,"is_disabled":false,"rental_uris":{"android":"levelo://app?vid=6cd1b79d-1347-474f-9698-eaf7241262db","ios":"levelo://app?vid=6cd1b79d-1347-474f-9698-eaf7241262db"},"vehicle_type_id":"4","last_reported":1773560802,"current_range_meters":38800,"station_id":"ce4bhbh2rcd13ifvqepg","pricing_plan_id":"cebpf4jnsgd1na2vs0mg"},{"bike_id":"bba2d762-24c5-424c-8885-ccb819513608","system_id":"levelo_inurba_marseille","lat":43.27663,"lon":5.38896,"is_reserved":false,"is_disabled":true,"rental_uris":{"android":"levelo://app?vid=bba2d762-24c5-424c-8885-ccb819513608","ios":"levelo://app?vid=bba2d762-24c5-424c-8885-ccb819513608"},"vehicle_type_id":"4","last_reported":1773560802,"current_range_meters":11600,"station_id":"ce4bhi12rcd13ifvqfo0","pricing_plan_id":"cebpf4jnsgd1na2vs0mg"},{"bike_id":"1217792c-987d-41a2-8823-875cdd503171","system_id":"levelo_inurba_marseille","lat":43.33155,"lon":5.37732,"is_reserved":false,"is_disabled":false,"rental_uris":{"android":"levelo://app?vid=1217792c-987d-41a2-8823-875cdd503171","ios":"levelo://app?vid=1217792c-987d-41a2-8823-875cdd503171"},"vehicle_type_id":"4","last_reported":1773560802,"current_range_meters":24800,"station_id":"st_d46cu089ee8s73dldbu0","pricing_plan_id":"cebpf4jnsgd1na2vs0mg"},{"bike_id":"8990b493-7154-4a79-b089-3dd1a50e7eea","system_id":"levelo_inurba_marseille","lat":43.3095,"lon":5.40168,"is_reserved":false,"is_disabled":false,"rental_uris":{"android":"levelo://app?vid=8990b493-7154-4a79-b089-3dd1a50e7eea","ios":"levelo://app?vid=8990b493-7154-4a79-b089-3dd1a50e7eea"},"vehicle_type_id":"4","last_reported":1773560802,"current_range_meters":28000,"station_id":"ce4bgvp2rcd13ifvqct0","pricing_plan_id":"cebpf4jnsgd1na2vs0mg"},{"bike_id":"1fa66c7c-5bbe-4c72-8397-ac5bb2c15dc7","system_id":"levelo_inurba_marseille","lat":43.32372,"lon":5.38881,"is_reserved":false,"is_disabled":false,"rental_uris":{"android":"levelo://app?vid=1fa66c7c-5bbe-4c72-8397-ac5bb2c15dc7","ios":"levelo://app?vid=1fa66c7c-5bbe-4c72-8397-ac5bb2c15dc7"},"vehicle_type_id":"4","last_reported":1773560802,"current_range_meters":36400,"station_id":"ce4bhqp2rcd13ifvqhog","pricing_plan_id":"cebpf4jnsgd1na2vs0mg"},{"bike_id":"ad85989a-f62a-47fc-af6d-45c25e9e9409","system_id":"levelo_inurba_marseille","lat":43.3134,"lon":5.3972,"is_reserved":false,"is_disabled":false,"rental_uris":{"android":"levelo://app?vid=ad85989a-f62a-47fc-af6d-45c25e9e9409","ios":"levelo://app?vid=ad85989a-f62a-47fc-af6d-45c25e9e9409"},"vehicle_type_id":"4","last_reported":1773560802,"current_range_meters":37600,"station_id":"ce4bgvp2rcd13ifvqcu0","pricing_plan_id":"cebpf4jnsgd1na2vs0mg"},{"bike_id":"aed4118b-a0e3-4071-9098-af6c6a632706","system_id":"levelo_inurba_marseille","lat":43.30182,"lon":5.43115,"is_reserved":false,"is_disabled":false,"rental_uris":{"android":"levelo://app?vid=aed4118b-a0e3-4071-9098-af6c6a632706","ios":"levelo://app?vid=aed4118b-a0e3-4071-9098-af6c6a632706"},"vehicle_type_id":"4","last_reported":1773560802,"current_range_meters":8400,"station_id":"","pricing_plan_id":"cebpf4jnsgd1na2vs0mg"},{"bike_id":"ee97d76b-d430-4b45-b3b0-dd8a973c7e77","system_id":"levelo_inurba_marseille","lat":43.23954,"lon":5.36646,"is_reserved":false,"is_disabled":false,"rental_uris":{"android":"levelo://app?vid=ee97d76b-d430-4b45-b3b0-dd8a973c7e77","ios":"levelo://app?vid=ee97d76b-d430-4b45-b3b0-dd8a973c7e77"},"vehicle_type_id":"4","last_reported":1773560802,"current_range_meters":36000,"station_id":"ce4bhi12rcd13ifvqfp0","pricing_plan_id":"cebpf4jnsgd1na2vs0mg"},{"bike_id":"92bc8068-37f4-4e54-99b9-1e9bd2b9446d","system_id":"levelo_inurba_marseille","lat":43.27054,"lon":5.40288,"is_reserved":false,"is_disabled":false,"rental_uris":{"android":"levelo://app?vid=92bc8068-37f4-4e54-99b9-1e9bd2b9446d","ios":"levelo://app?vid=92bc8068-37f4-4e54-99b9-1e9bd2b9446d"},"vehicle_type_id":"4","last_reported":1773560802,"current_range_meters":38400,"station_id":"ce4bhk92rcd13ifvqgc0","pricing_plan_id":"cebpf4jnsgd1na2vs0mg"},{"bike_id":"c4bf9557-32fa-47c0-82e6-cc65fc7a98d8","system_id":"levelo_inurba_marseille","lat":43.25502,"lon":5.37675,"is_reserved":false,"is_disabled":false,"rental_uris":{"android":"levelo://app?vid=c4bf9557-32fa-47c0-82e6-cc65fc7a98d8","ios":"levelo://app?vid=c4bf9557-32fa-47c0-82e6-cc65fc7a98d8"},"vehicle_type_id":"4","last_reported":1773560802,"current_range_meters":9600,"station_id":"ce4bhh12rcd13ifvqff0","pricing_plan_id":"cebpf4jnsgd1na2vs0mg"},{"bike_id":"2fd025c2-5d1f-404e-b401-f593d342fd66","system_id":"levelo_inurba_marseille","lat":43.3074,"lon":5.42442,"is_reserved":false,"is_disabled":false,"rental_uris":{"android":"levelo://app?vid=2fd025c2-5d1f-404e-b401-f593d342fd66","ios":"levelo://app?vid=2fd025c2-5d1f-404e-b401-f593d342fd66"},"vehicle_type_id":"4","last_reported":1773560802,"current_range_meters":37600,"station_id":"st_cvj6ca6bvosntc0bfgr0","pricing_plan_id":"cebpf4jnsgd1na2vs0mg"},{"bike_id":"d1615cfb-2c8e-4eb9-9b5f-5439933ffb39","system_id":"levelo_inurba_marseille","lat":43.28862,"lon":5.35866,"is_reserved":false,"is_disabled":false,"rental_uris":{"android":"levelo://app?vid=d1615cfb-2c8e-4eb9-9b5f-5439933ffb39","ios":"levelo://app?vid=d1615cfb-2c8e-4eb9-9b5f-5439933ffb39"},"vehicle_type_id":"4","last_reported":1773560802,"current_range_meters":28000,"station_id":"ce4bhb12rcd13ifvqem0","pricing_plan_id":"cebpf4jnsgd1na2vs0mg"},{"bike_id":"9ce84f34-5707-4336-9cc5-047e30fbf90f","system_id":"levelo_inurba_marseille","lat":43.299,"lon":5.3815,"is_reserved":false,"is_disabled":false,"rental_uris":{"android":"levelo://app?vid=9ce84f34-5707-4336-9cc5-047e30fbf90f","ios":"levelo://app?vid=9ce84f34-5707-4336-9cc5-047e30fbf90f"},"vehicle_type_id":"4","last_reported":1773560802,"current_range_meters":38400,"station_id":"ce4bgj12rcd13ifvqbc0","pricing_plan_id":"cebpf4jnsgd1na2vs0mg"},{"bike_id":"114e304d-e20d-4f8a-9525-1a164e809dee","system_id":"levelo_inurba_marseille","lat":43.25505,"lon":5.37659,"is_reserved":false,"is_disabled":false,"rental_uris":{"android":"levelo://app?vid=114e304d-e20d-4f8a-9525-1a164e809dee","ios":"levelo://app?vid=114e304d-e20d-4f8a-9525-1a164e809dee"},"vehicle_type_id":"4","last_reported":1773560802,"current_range_meters":25200,"station_id":"ce4bhh12rcd13ifvqff0","pricing_plan_id":"cebpf4jnsgd1na2vs0mg"},{"bike_id":"ed805e5c-c91a-41a9-a21f-ce0355ac464f","system_id":"levelo_inurba_marseille","lat":43.2846,"lon":5.35899,"is_reserved":false,"is_disabled":false,"rental_uris":{"android":"levelo://app?vid=ed805e5c-c91a-41a9-a21f-ce0355ac464f","ios":"levelo://app?vid=ed805e5c-c91a-41a9-a21f-ce0355ac464f"},"vehicle_type_id":"4","last_reported":1773560802,"current_range_meters":13600,"station_id":"ce4bhah2rcd13ifvqei0","pricing_plan_id":"cebpf4jnsgd1na2vs0mg"},{"bike_id":"1a90a8d3-c56d-44f0-9e3d-eb117a0cebc5","system_id":"levelo_inurba_marseille","lat":43.24183,"lon":5.39746,"is_reserved":false,"is_disabled":false,"rental_uris":{"android":"levelo://app?vid=1a90a8d3-c56d-44f0-9e3d-eb117a0cebc5","ios":"levelo://app?vid=1a90a8d3-c56d-44f0-9e3d-eb117a0cebc5"},"vehicle_type_id":"4","last_reported":1773560802,"current_range_meters":32800,"station_id":"ce4bhn12rcd13ifvqgpg","pricing_plan_id":"cebpf4jnsgd1na2vs0mg"},{"bike_id":"0952a861-96c5-4b55-a131-b78d58f4f3c7","system_id":"levelo_inurba_marseille","lat":43.29907,"lon":5.39734,"is_reserved":false,"is_disabled":false,"rental_uris":{"android":"levelo://app?vid=0952a861-96c5-4b55-a131-b78d58f4f3c7","ios":"levelo://app?vid=0952a861-96c5-4b55-a131-b78d58f4f3c7"},"vehicle_type_id":"4","last_reported":1773560802,"current_range_meters":25600,"station_id":"ce4bh0h2rcd13ifvqd50","pricing_plan_id":"cebpf4jnsgd1na2vs0mg"},{"bike_id":"84f4a2bf-2617-4f6d-b5b2-52999d43fb4f","system_id":"levelo_inurba_marseille","lat":43.28082,"lon":5.39666,"is_reserved":false,"is_disabled":false,"rental_uris":{"android":"levelo://app?vid=84f4a2bf-2617-4f6d-b5b2-52999d43fb4f","ios":"levelo://app?vid=84f4a2bf-2617-4f6d-b5b2-52999d43fb4f"},"vehicle_type_id":"4","last_reported":1773560802,"current_range_meters":38800,"station_id":"ce4bho12rcd13ifvqh2g","pricing_plan_id":"cebpf4jnsgd1na2vs0mg"},{"bike_id":"e2cb5c92-0841-40ff-b895-e7f7cc16ea0f","system_id":"levelo_inurba_marseille","lat":43.30254,"lon":5.4007,"is_reserved":false,"is_disabled":false,"rental_uris":{"android":"levelo://app?vid=e2cb5c92-0841-40ff-b895-e7f7cc16ea0f","ios":"levelo://app?vid=e2cb5c92-0841-40ff-b895-e7f7cc16ea0f"},"vehicle_type_id":"4","last_reported":1773560802,"current_range_meters":39200,"station_id":"ce4bgvh2rcd13ifvqcs0","pricing_plan_id":"cebpf4jnsgd1na2vs0mg"},{"bike_id":"3d951476-aa89-47f5-907d-0788c1744f09","system_id":"levelo_inurba_marseille","lat":43.25336,"lon":5.42175,"is_reserved":false,"is_disabled":false,"rental_uris":{"android":"levelo://app?vid=3d951476-aa89-47f5-907d-0788c1744f09","ios":"levelo://app?vid=3d951476-aa89-47f5-907d-0788c1744f09"},"vehicle_type_id":"4","last_reported":1773560802,"current_range_meters":24000,"station_id":"st_d2m65c5bi1j21697t3ng","pricing_plan_id":"cebpf4jnsgd1na2vs0mg"},{"bike_id":"959cb468-adf5-492c-a8a7-a3170c99be64","system_id":"levelo_inurba_marseille","lat":43.27058,"lon":5.38295,"is_reserved":false,"is_disabled":false,"rental_uris":{"android":"levelo://app?vid=959cb468-adf5-492c-a8a7-a3170c99be64","ios":"levelo://app?vid=959cb468-adf5-492c-a8a7-a3170c99be64"},"vehicle_type_id":"4","last_reported":1773560802,"current_range_meters":38000,"station_id":"st_d3n2fo6cfp8s73cte1j0","pricing_plan_id":"cebpf4jnsgd1na2vs0mg"},{"bike_id":"a8c21268-2edc-4550-9855-ee17f9a06fc5","system_id":"levelo_inurba_marseille","lat":43.28445,"lon":5.35923,"is_reserved":false,"is_disabled":false,"rental_uris":{"android":"levelo://app?vid=a8c21268-2edc-4550-9855-ee17f9a06fc5","ios":"levelo://app?vid=a8c21268-2edc-4550-9855-ee17f9a06fc5"},"vehicle_type_id":"4","last_reported":1773560802,"current_range_meters":39200,"station_id":"ce4bhah2rcd13ifvqei0","pricing_plan_id":"cebpf4jnsgd1na2vs0mg"},{"bike_id":"b72ddb5e-a931-44d4-b220-ff76b5486b06","system_id":"levelo_inurba_marseille","lat":43.2757,"lon":5.36109,"is_reserved":false,"is_disabled":false,"rental_uris":{"android":"levelo://app?vid=b72ddb5e-a931-44d4-b220-ff76b5486b06","ios":"levelo://app?vid=b72ddb5e-a931-44d4-b220-ff76b5486b06"},"vehicle_type_id":"4","last_reported":1773560802,"current_range_meters":39200,"station_id":"","pricing_plan_id":"cebpf4jnsgd1na2vs0mg"},{"bike_id":"556e7a02-f3b4-4a4b-aba9-1ddeda9a2ff5","system_id":"levelo_inurba_marseille","lat":43.2846,"lon":5.35876,"is_reserved":false,"is_disabled":false,"rental_uris":{"android":"levelo://app?vid=556e7a02-f3b4-4a4b-aba9-1ddeda9a2ff5","ios":"levelo://app?vid=556e7a02-f3b4-4a4b-aba9-1ddeda9a2ff5"},"vehicle_type_id":"4","last_reported":1773560802,"current_range_meters":12800,"station_id":"ce4bhah2rcd13ifvqei0","pricing_plan_id":"cebpf4jnsgd1na2vs0mg"},{"bike_id":"968e0752-94e3-4427-8693-dccfb2dc93c6","system_id":"levelo_inurba_marseille","lat":43.32366,"lon":5.38865,"is_reserved":false,"is_disabled":false,"rental_uris":{"android":"levelo://app?vid=968e0752-94e3-4427-8693-dccfb2dc93c6","ios":"levelo://app?vid=968e0752-94e3-4427-8693-dccfb2dc93c6"},"vehicle_type_id":"4","last_reported":1773560802,"current_range_meters":36800,"station_id":"ce4bhqp2rcd13ifvqhog","pricing_plan_id":"cebpf4jnsgd1na2vs0mg"},{"bike_id":"49273576-06d6-42e9-a69a-23036da529eb","system_id":"levelo_inurba_marseille","lat":43.30578,"lon":5.37233,"is_reserved":false,"is_disabled":false,"rental_uris":{"android":"levelo://app?vid=49273576-06d6-42e9-a69a-23036da529eb","ios":"levelo://app?vid=49273576-06d6-42e9-a69a-23036da529eb"},"vehicle_type_id":"4","last_reported":1773560802,"current_range_meters":9600,"station_id":"ce4bgqh2rcd13ifvqc4g","pricing_plan_id":"cebpf4jnsgd1na2vs0mg"},{"bike_id":"98ff575e-e932-485c-a678-0a491cff6beb","system_id":"levelo_inurba_marseille","lat":43.26377,"lon":5.41081,"is_reserved":false,"is_disabled":false,"rental_uris":{"android":"levelo://app?vid=98ff575e-e932-485c-a678-0a491cff6beb","ios":"levelo://app?vid=98ff575e-e932-485c-a678-0a491cff6beb"},"vehicle_type_id":"4","last_reported":1773560802,"current_range_meters":30000,"station_id":"st_d4e5ca6na9uc73bfl5fg","pricing_plan_id":"cebpf4jnsgd1na2vs0mg"},{"bike_id":"2eb112e0-30fa-4776-b5a6-10d2c0c8b525","system_id":"levelo_inurba_marseille","lat":43.2907,"lon":5.40043,"is_reserved":false,"is_disabled":true,"rental_uris":{"android":"levelo://app?vid=2eb112e0-30fa-4776-b5a6-10d2c0c8b525","ios":"levelo://app?vid=2eb112e0-30fa-4776-b5a6-10d2c0c8b525"},"vehicle_type_id":"4","last_reported":1773560802,"current_range_meters":28800,"station_id":"","pricing_plan_id":"cebpf4jnsgd1na2vs0mg"},{"bike_id":"5e37606c-cd45-4546-a107-12352d83874a","system_id":"levelo_inurba_marseille","lat":43.29219,"lon":5.39316,"is_reserved":false,"is_disabled":true,"rental_uris":{"android":"levelo://app?vid=5e37606c-cd45-4546-a107-12352d83874a","ios":"levelo://app?vid=5e37606c-cd45-4546-a107-12352d83874a"},"vehicle_type_id":"4","last_reported":1773560802,"current_range_meters":17200,"station_id":"ce4bh192rcd13ifvqdd0","pricing_plan_id":"cebpf4jnsgd1na2vs0mg"},{"bike_id":"4b77ff6b-7ad8-40ac-8852-ee5b19553dc1","system_id":"levelo_inurba_marseille","lat":43.30324,"lon":5.4044,"is_reserved":false,"is_disabled":false,"rental_uris":{"android":"levelo://app?vid=4b77ff6b-7ad8-40ac-8852-ee5b19553dc1","ios":"levelo://app?vid=4b77ff6b-7ad8-40ac-8852-ee5b19553dc1"},"vehicle_type_id":"4","last_reported":1773560802,"current_range_meters":10800,"station_id":"ce4bh012rcd13ifvqd10","pricing_plan_id":"cebpf4jnsgd1na2vs0mg"},{"bike_id":"d5455e83-72e4-4ef4-9233-f07b53171cfa","system_id":"levelo_inurba_marseille","lat":43.24955,"lon":5.40502,"is_reserved":false,"is_disabled":false,"rental_uris":{"android":"levelo://app?vid=d5455e83-72e4-4ef4-9233-f07b53171cfa","ios":"levelo://app?vid=d5455e83-72e4-4ef4-9233-f07b53171cfa"},"vehicle_type_id":"4","last_reported":1773560802,"current_range_meters":38400,"station_id":"st_d2ngiaodas8pm72gd1h0","pricing_plan_id":"cebpf4jnsgd1na2vs0mg"},{"bike_id":"c3a51489-0f5a-48ac-a8a7-6f935317a558","system_id":"levelo_inurba_marseille","lat":43.29723,"lon":5.36609,"is_reserved":false,"is_disabled":false,"rental_uris":{"android":"levelo://app?vid=c3a51489-0f5a-48ac-a8a7-6f935317a558","ios":"levelo://app?vid=c3a51489-0f5a-48ac-a8a7-6f935317a558"},"vehicle_type_id":"4","last_reported":1773560802,"current_range_meters":38800,"station_id":"ce4bgn12rcd13ifvqbt0","pricing_plan_id":"cebpf4jnsgd1na2vs0mg"},{"bike_id":"fab9d42d-0389-4e3c-b710-106effb7d2e6","system_id":"levelo_inurba_marseille","lat":43.2782,"lon":5.40719,"is_reserved":false,"is_disabled":false,"rental_uris":{"android":"levelo://app?vid=fab9d42d-0389-4e3c-b710-106effb7d2e6","ios":"levelo://app?vid=fab9d42d-0389-4e3c-b710-106effb7d2e6"},"vehicle_type_id":"4","last_reported":1773560802,"current_range_meters":31200,"station_id":"ce4bhnh2rcd13ifvqgtg","pricing_plan_id":"cebpf4jnsgd1na2vs0mg"},{"bike_id":"e6581cc3-cccc-497b-836f-313cb4d70a2c","system_id":"levelo_inurba_marseille","lat":43.2956,"lon":5.37507,"is_reserved":false,"is_disabled":false,"rental_uris":{"android":"levelo://app?vid=e6581cc3-cccc-497b-836f-313cb4d70a2c","ios":"levelo://app?vid=e6581cc3-cccc-497b-836f-313cb4d70a2c"},"vehicle_type_id":"4","last_reported":1773560802,"current_range_meters":6000,"station_id":"ce4bgh92rcd13ifvqb50","pricing_plan_id":"cebpf4jnsgd1na2vs0mg"},{"bike_id":"a29b970f-b285-425f-be46-e5d395220578","system_id":"levelo_inurba_marseille","lat":43.25106,"lon":5.4032,"is_reserved":false,"is_disabled":false,"rental_uris":{"android":"levelo://app?vid=a29b970f-b285-425f-be46-e5d395220578","ios":"levelo://app?vid=a29b970f-b285-425f-be46-e5d395220578"},"vehicle_type_id":"4","last_reported":1773560802,"current_range_meters":26000,"station_id":"ce4bhlh2rcd13ifvqgig","pricing_plan_id":"cebpf4jnsgd1na2vs0mg"},{"bike_id":"c8e6709b-d18f-4ab7-84d0-50300418656b","system_id":"levelo_inurba_marseille","lat":43.24667,"lon":5.38198,"is_reserved":false,"is_disabled":false,"rental_uris":{"android":"levelo://app?vid=c8e6709b-d18f-4ab7-84d0-50300418656b","ios":"levelo://app?vid=c8e6709b-d18f-4ab7-84d0-50300418656b"},"vehicle_type_id":"4","last_reported":1773560802,"current_range_meters":24800,"station_id":"ce4bhih2rcd13ifvqfr0","pricing_plan_id":"cebpf4jnsgd1na2vs0mg"},{"bike_id":"1b76ca95-f18f-46ad-b5e2-115c03b09dc0","system_id":"levelo_inurba_marseille","lat":43.29712,"lon":5.42823,"is_reserved":false,"is_disabled":false,"rental_uris":{"android":"levelo://app?vid=1b76ca95-f18f-46ad-b5e2-115c03b09dc0","ios":"levelo://app?vid=1b76ca95-f18f-46ad-b5e2-115c03b09dc0"},"vehicle_type_id":"4","last_reported":1773560802,"current_range_meters":18800,"station_id":"","pricing_plan_id":"cebpf4jnsgd1na2vs0mg"},{"bike_id":"aa1ea814-effc-4a82-a7ce-fc6b0be25510","system_id":"levelo_inurba_marseille","lat":43.31858,"lon":5.3697,"is_reserved":false,"is_disabled":false,"rental_uris":{"android":"levelo://app?vid=aa1ea814-effc-4a82-a7ce-fc6b0be25510","ios":"levelo://app?vid=aa1ea814-effc-4a82-a7ce-fc6b0be25510"},"vehicle_type_id":"4","last_reported":1773560802,"current_range_meters":37600,"station_id":"","pricing_plan_id":"cebpf4jnsgd1na2vs0mg"},{"bike_id":"e3f51dc0-9339-4740-b9ee-e0b68bf68426","system_id":"levelo_inurba_marseille","lat":43.29712,"lon":5.36615,"is_reserved":false,"is_disabled":false,"rental_uris":{"android":"levelo://app?vid=e3f51dc0-9339-4740-b9ee-e0b68bf68426","ios":"levelo://app?vid=e3f51dc0-9339-4740-b9ee-e0b68bf68426"},"vehicle_type_id":"4","last_reported":1773560802,"current_range_meters":17600,"station_id":"ce4bgn12rcd13ifvqbt0","pricing_plan_id":"cebpf4jnsgd1na2vs0mg"},{"bike_id":"09c27da9-b35d-4a29-acc7-26b47a3ace34","system_id":"levelo_inurba_marseille","lat":43.29901,"lon":5.39775,"is_reserved":false,"is_disabled":false,"rental_uris":{"android":"levelo://app?vid=09c27da9-b35d-4a29-acc7-26b47a3ace34","ios":"levelo://app?vid=09c27da9-b35d-4a29-acc7-26b47a3ace34"},"vehicle_type_id":"4","last_reported":1773560802,"current_range_meters":20800,"station_id":"","pricing_plan_id":"cebpf4jnsgd1na2vs0mg"},{"bike_id":"fb572cf7-cf1a-4dfc-ac30-6f925bcd24fa","system_id":"levelo_inurba_marseille","lat":43.30572,"lon":5.3721,"is_reserved":false,"is_disabled":false,"rental_uris":{"android":"levelo://app?vid=fb572cf7-cf1a-4dfc-ac30-6f925bcd24fa","ios":"levelo://app?vid=fb572cf7-cf1a-4dfc-ac30-6f925bcd24fa"},"vehicle_type_id":"4","last_reported":1773560802,"current_range_meters":32400,"station_id":"ce4bgqh2rcd13ifvqc4g","pricing_plan_id":"cebpf4jnsgd1na2vs0mg"},{"bike_id":"adb3e066-3d52-48f2-aa5f-de1d01f85bb9","system_id":"levelo_inurba_marseille","lat":43.30169,"lon":5.37424,"is_reserved":false,"is_disabled":false,"rental_uris":{"android":"levelo://app?vid=adb3e066-3d52-48f2-aa5f-de1d01f85bb9","ios":"levelo://app?vid=adb3e066-3d52-48f2-aa5f-de1d01f85bb9"},"vehicle_type_id":"4","last_reported":1773560802,"current_range_meters":17200,"station_id":"ce4bgs92rcd13ifvqcc0","pricing_plan_id":"cebpf4jnsgd1na2vs0mg"},{"bike_id":"f7ea6af8-9ec7-4b56-ac6c-0b6ebeb33d6e","system_id":"levelo_inurba_marseille","lat":43.30296,"lon":5.36912,"is_reserved":false,"is_disabled":false,"rental_uris":{"android":"levelo://app?vid=f7ea6af8-9ec7-4b56-ac6c-0b6ebeb33d6e","ios":"levelo://app?vid=f7ea6af8-9ec7-4b56-ac6c-0b6ebeb33d6e"},"vehicle_type_id":"4","last_reported":1773560802,"current_range_meters":38000,"station_id":"ce4bgqh2rcd13ifvqc5g","pricing_plan_id":"cebpf4jnsgd1na2vs0mg"},{"bike_id":"8d1d6e8b-5750-4bc4-847c-d5a2d80e3e6b","system_id":"levelo_inurba_marseille","lat":43.31436,"lon":5.37291,"is_reserved":false,"is_disabled":false,"rental_uris":{"android":"levelo://app?vid=8d1d6e8b-5750-4bc4-847c-d5a2d80e3e6b","ios":"levelo://app?vid=8d1d6e8b-5750-4bc4-847c-d5a2d80e3e6b"},"vehicle_type_id":"4","last_reported":1773560802,"current_range_meters":39200,"station_id":"ce4bgt12rcd13ifvqcd0","pricing_plan_id":"cebpf4jnsgd1na2vs0mg"},{"bike_id":"833ead7f-2cc1-415f-b495-f484e1825ff8","system_id":"levelo_inurba_marseille","lat":43.30718,"lon":5.42432,"is_reserved":false,"is_disabled":false,"rental_uris":{"android":"levelo://app?vid=833ead7f-2cc1-415f-b495-f484e1825ff8","ios":"levelo://app?vid=833ead7f-2cc1-415f-b495-f484e1825ff8"},"vehicle_type_id":"4","last_reported":1773560802,"current_range_meters":37600,"station_id":"st_cvj6ca6bvosntc0bfgr0","pricing_plan_id":"cebpf4jnsgd1na2vs0mg"},{"bike_id":"eb2f308c-8a12-4604-91b5-c6e7beca1962","system_id":"levelo_inurba_marseille","lat":43.2557,"lon":5.38235,"is_reserved":false,"is_disabled":false,"rental_uris":{"android":"levelo://app?vid=eb2f308c-8a12-4604-91b5-c6e7beca1962","ios":"levelo://app?vid=eb2f308c-8a12-4604-91b5-c6e7beca1962"},"vehicle_type_id":"4","last_reported":1773560802,"current_range_meters":24000,"station_id":"ce4bhih2rcd13ifvqfs0","pricing_plan_id":"cebpf4jnsgd1na2vs0mg"},{"bike_id":"ec062fde-2e15-4dbb-92cd-dbc3f4ead404","system_id":"levelo_inurba_marseille","lat":43.29116,"lon":5.43276,"is_reserved":false,"is_disabled":true,"rental_uris":{"android":"levelo://app?vid=ec062fde-2e15-4dbb-92cd-dbc3f4ead404","ios":"levelo://app?vid=ec062fde-2e15-4dbb-92cd-dbc3f4ead404"},"vehicle_type_id":"4","last_reported":1773560802,"current_range_meters":27600,"station_id":"","pricing_plan_id":"cebpf4jnsgd1na2vs0mg"},{"bike_id":"9a99be02-7fc5-4af9-836f-23a5fd9cab8b","system_id":"levelo_inurba_marseille","lat":43.24386,"lon":5.37065,"is_reserved":false,"is_disabled":false,"rental_uris":{"android":"levelo://app?vid=9a99be02-7fc5-4af9-836f-23a5fd9cab8b","ios":"levelo://app?vid=9a99be02-7fc5-4af9-836f-23a5fd9cab8b"},"vehicle_type_id":"4","last_reported":1773560802,"current_range_meters":10000,"station_id":"ce4bhhh2rcd13ifvqfk0","pricing_plan_id":"cebpf4jnsgd1na2vs0mg"},{"bike_id":"85f520fc-113e-4f17-b2a5-245ce16c5540","system_id":"levelo_inurba_marseille","lat":43.25343,"lon":5.42185,"is_reserved":false,"is_disabled":true,"rental_uris":{"android":"levelo://app?vid=85f520fc-113e-4f17-b2a5-245ce16c5540","ios":"levelo://app?vid=85f520fc-113e-4f17-b2a5-245ce16c5540"},"vehicle_type_id":"4","last_reported":1773560802,"current_range_meters":0,"station_id":"st_d2m65c5bi1j21697t3ng","pricing_plan_id":"cebpf4jnsgd1na2vs0mg"},{"bike_id":"7e2af57d-1b95-4afe-8aab-fe55733493d4","system_id":"levelo_inurba_marseille","lat":43.26952,"lon":5.40246,"is_reserved":false,"is_disabled":false,"rental_uris":{"android":"levelo://app?vid=7e2af57d-1b95-4afe-8aab-fe55733493d4","ios":"levelo://app?vid=7e2af57d-1b95-4afe-8aab-fe55733493d4"},"vehicle_type_id":"4","last_reported":1773560802,"current_range_meters":20800,"station_id":"cjm6bp8fraef2m0cb0m0","pricing_plan_id":"cebpf4jnsgd1na2vs0mg"},{"bike_id":"be4b33f3-f666-4b28-9e53-550c3c6e8b23","system_id":"levelo_inurba_marseille","lat":43.2848,"lon":5.484,"is_reserved":false,"is_disabled":false,"rental_uris":{"android":"levelo://app?vid=be4b33f3-f666-4b28-9e53-550c3c6e8b23","ios":"levelo://app?vid=be4b33f3-f666-4b28-9e53-550c3c6e8b23"},"vehicle_type_id":"4","last_reported":1773560802,"current_range_meters":12400,"station_id":"st_d3svhcjqgbts73a3dn0g","pricing_plan_id":"cebpf4jnsgd1na2vs0mg"},{"bike_id":"a5aff278-9967-49ae-ad5a-f6cdaa4e759d","system_id":"levelo_inurba_marseille","lat":43.29011,"lon":5.3562,"is_reserved":false,"is_disabled":false,"rental_uris":{"android":"levelo://app?vid=a5aff278-9967-49ae-ad5a-f6cdaa4e759d","ios":"levelo://app?vid=a5aff278-9967-49ae-ad5a-f6cdaa4e759d"},"vehicle_type_id":"4","last_reported":1773560802,"current_range_meters":34800,"station_id":"ce4bhb92rcd13ifvqen0","pricing_plan_id":"cebpf4jnsgd1na2vs0mg"},{"bike_id":"12f1d2b1-fb1d-483c-863b-27f8c8a4a5fe","system_id":"levelo_inurba_marseille","lat":43.26198,"lon":5.37451,"is_reserved":false,"is_disabled":false,"rental_uris":{"android":"levelo://app?vid=12f1d2b1-fb1d-483c-863b-27f8c8a4a5fe","ios":"levelo://app?vid=12f1d2b1-fb1d-483c-863b-27f8c8a4a5fe"},"vehicle_type_id":"4","last_reported":1773560802,"current_range_meters":31200,"station_id":"ce4bhgp2rcd13ifvqfc0","pricing_plan_id":"cebpf4jnsgd1na2vs0mg"},{"bike_id":"26ec3725-c826-40e4-8423-caab5390d1ff","system_id":"levelo_inurba_marseille","lat":43.26687,"lon":5.38281,"is_reserved":false,"is_disabled":false,"rental_uris":{"android":"levelo://app?vid=26ec3725-c826-40e4-8423-caab5390d1ff","ios":"levelo://app?vid=26ec3725-c826-40e4-8423-caab5390d1ff"},"vehicle_type_id":"4","last_reported":1773560802,"current_range_meters":19600,"station_id":"ce4bhg92rcd13ifvqf90","pricing_plan_id":"cebpf4jnsgd1na2vs0mg"},{"bike_id":"193cbe9d-b7d2-421e-9f76-9c8c86aebb4a","system_id":"levelo_inurba_marseille","lat":43.33536,"lon":5.37475,"is_reserved":false,"is_disabled":false,"rental_uris":{"android":"levelo://app?vid=193cbe9d-b7d2-421e-9f76-9c8c86aebb4a","ios":"levelo://app?vid=193cbe9d-b7d2-421e-9f76-9c8c86aebb4a"},"vehicle_type_id":"4","last_reported":1773560802,"current_range_meters":14000,"station_id":"st_d46tts09ee8s73dlu43g","pricing_plan_id":"cebpf4jnsgd1na2vs0mg"},{"bike_id":"c3fda1dd-5225-4f7e-a7f9-21ab5cd7437f","system_id":"levelo_inurba_marseille","lat":43.29846,"lon":5.36298,"is_reserved":false,"is_disabled":false,"rental_uris":{"android":"levelo://app?vid=c3fda1dd-5225-4f7e-a7f9-21ab5cd7437f","ios":"levelo://app?vid=c3fda1dd-5225-4f7e-a7f9-21ab5cd7437f"},"vehicle_type_id":"4","last_reported":1773560802,"current_range_meters":35200,"station_id":"ce4bgpp2rcd13ifvqc3g","pricing_plan_id":"cebpf4jnsgd1na2vs0mg"},{"bike_id":"0c7cd06d-7279-4658-8a40-9f99bb5a36fc","system_id":"levelo_inurba_marseille","lat":43.29575,"lon":5.37516,"is_reserved":false,"is_disabled":false,"rental_uris":{"android":"levelo://app?vid=0c7cd06d-7279-4658-8a40-9f99bb5a36fc","ios":"levelo://app?vid=0c7cd06d-7279-4658-8a40-9f99bb5a36fc"},"vehicle_type_id":"4","last_reported":1773560802,"current_range_meters":14400,"station_id":"ce4bgh92rcd13ifvqb50","pricing_plan_id":"cebpf4jnsgd1na2vs0mg"},{"bike_id":"91de8c26-a4ae-4282-976b-d4b287103bef","system_id":"levelo_inurba_marseille","lat":43.29493,"lon":5.4331,"is_reserved":false,"is_disabled":false,"rental_uris":{"android":"levelo://app?vid=91de8c26-a4ae-4282-976b-d4b287103bef","ios":"levelo://app?vid=91de8c26-a4ae-4282-976b-d4b287103bef"},"vehicle_type_id":"4","last_reported":1773560802,"current_range_meters":10800,"station_id":"st_d3j5ugp08ojc73fj9d10","pricing_plan_id":"cebpf4jnsgd1na2vs0mg"},{"bike_id":"1c48df4d-a36c-4be7-b044-b51eb97f3d46","system_id":"levelo_inurba_marseille","lat":43.30742,"lon":5.42447,"is_reserved":false,"is_disabled":false,"rental_uris":{"android":"levelo://app?vid=1c48df4d-a36c-4be7-b044-b51eb97f3d46","ios":"levelo://app?vid=1c48df4d-a36c-4be7-b044-b51eb97f3d46"},"vehicle_type_id":"4","last_reported":1773560802,"current_range_meters":28800,"station_id":"st_cvj6ca6bvosntc0bfgr0","pricing_plan_id":"cebpf4jnsgd1na2vs0mg"},{"bike_id":"363eb9a8-8391-43a6-8dd0-57a9b8ddd213","system_id":"levelo_inurba_marseille","lat":43.29958,"lon":5.37471,"is_reserved":false,"is_disabled":false,"rental_uris":{"android":"levelo://app?vid=363eb9a8-8391-43a6-8dd0-57a9b8ddd213","ios":"levelo://app?vid=363eb9a8-8391-43a6-8dd0-57a9b8ddd213"},"vehicle_type_id":"4","last_reported":1773560802,"current_range_meters":24800,"station_id":"ce4bgjh2rcd13ifvqbg0","pricing_plan_id":"cebpf4jnsgd1na2vs0mg"},{"bike_id":"f57f089c-5335-43ff-9fb1-a5e6e8c70c5b","system_id":"levelo_inurba_marseille","lat":43.28703,"lon":5.37929,"is_reserved":false,"is_disabled":false,"rental_uris":{"android":"levelo://app?vid=f57f089c-5335-43ff-9fb1-a5e6e8c70c5b","ios":"levelo://app?vid=f57f089c-5335-43ff-9fb1-a5e6e8c70c5b"},"vehicle_type_id":"4","last_reported":1773560802,"current_range_meters":36000,"station_id":"ce4bh9p2rcd13ifvqec0","pricing_plan_id":"cebpf4jnsgd1na2vs0mg"},{"bike_id":"641cab82-5627-4c24-a3b6-dfa17af8941b","system_id":"levelo_inurba_marseille","lat":43.24522,"lon":5.39524,"is_reserved":false,"is_disabled":false,"rental_uris":{"android":"levelo://app?vid=641cab82-5627-4c24-a3b6-dfa17af8941b","ios":"levelo://app?vid=641cab82-5627-4c24-a3b6-dfa17af8941b"},"vehicle_type_id":"4","last_reported":1773560802,"current_range_meters":24800,"station_id":"ce4bhlp2rcd13ifvqgjg","pricing_plan_id":"cebpf4jnsgd1na2vs0mg"},{"bike_id":"215155e0-8b63-489e-836e-4a3192228481","system_id":"levelo_inurba_marseille","lat":43.2894,"lon":5.39634,"is_reserved":false,"is_disabled":true,"rental_uris":{"android":"levelo://app?vid=215155e0-8b63-489e-836e-4a3192228481","ios":"levelo://app?vid=215155e0-8b63-489e-836e-4a3192228481"},"vehicle_type_id":"4","last_reported":1773560802,"current_range_meters":1200,"station_id":"ce4bh3h2rcd13ifvqdn0","pricing_plan_id":"cebpf4jnsgd1na2vs0mg"},{"bike_id":"61323a19-6e8d-4fbe-ac05-6f68173b313e","system_id":"levelo_inurba_marseille","lat":43.31086,"lon":5.42417,"is_reserved":false,"is_disabled":false,"rental_uris":{"android":"levelo://app?vid=61323a19-6e8d-4fbe-ac05-6f68173b313e","ios":"levelo://app?vid=61323a19-6e8d-4fbe-ac05-6f68173b313e"},"vehicle_type_id":"4","last_reported":1773560802,"current_range_meters":32400,"station_id":"ce4bhp92rcd13ifvqhag","pricing_plan_id":"cebpf4jnsgd1na2vs0mg"},{"bike_id":"90cd78e0-b487-4118-aeed-b099744fa193","system_id":"levelo_inurba_marseille","lat":43.28447,"lon":5.39187,"is_reserved":false,"is_disabled":false,"rental_uris":{"android":"levelo://app?vid=90cd78e0-b487-4118-aeed-b099744fa193","ios":"levelo://app?vid=90cd78e0-b487-4118-aeed-b099744fa193"},"vehicle_type_id":"4","last_reported":1773560802,"current_range_meters":38000,"station_id":"ce4bhoh2rcd13ifvqh5g","pricing_plan_id":"cebpf4jnsgd1na2vs0mg"},{"bike_id":"7db85d47-96cb-40d2-872b-73da4b8b3c26","system_id":"levelo_inurba_marseille","lat":43.29817,"lon":5.38099,"is_reserved":false,"is_disabled":false,"rental_uris":{"android":"levelo://app?vid=7db85d47-96cb-40d2-872b-73da4b8b3c26","ios":"levelo://app?vid=7db85d47-96cb-40d2-872b-73da4b8b3c26"},"vehicle_type_id":"4","last_reported":1773560802,"current_range_meters":32000,"station_id":"ce4bgip2rcd13ifvqbb0","pricing_plan_id":"cebpf4jnsgd1na2vs0mg"},{"bike_id":"3d7100c2-5bd5-4a18-a534-e313e8e3db75","system_id":"levelo_inurba_marseille","lat":43.28615,"lon":5.35118,"is_reserved":false,"is_disabled":false,"rental_uris":{"android":"levelo://app?vid=3d7100c2-5bd5-4a18-a534-e313e8e3db75","ios":"levelo://app?vid=3d7100c2-5bd5-4a18-a534-e313e8e3db75"},"vehicle_type_id":"4","last_reported":1773560802,"current_range_meters":27600,"station_id":"ce4bhch2rcd13ifvqeug","pricing_plan_id":"cebpf4jnsgd1na2vs0mg"},{"bike_id":"e339a24b-df7b-4de6-98b9-660e6308a031","system_id":"levelo_inurba_marseille","lat":43.22569,"lon":5.41639,"is_reserved":false,"is_disabled":false,"rental_uris":{"android":"levelo://app?vid=e339a24b-df7b-4de6-98b9-660e6308a031","ios":"levelo://app?vid=e339a24b-df7b-4de6-98b9-660e6308a031"},"vehicle_type_id":"4","last_reported":1773560802,"current_range_meters":34000,"station_id":"st_d2o4gvlbi1j2169b742g","pricing_plan_id":"cebpf4jnsgd1na2vs0mg"},{"bike_id":"acbbef11-1175-4fc2-be23-3149665f36b3","system_id":"levelo_inurba_marseille","lat":43.30558,"lon":5.36558,"is_reserved":false,"is_disabled":true,"rental_uris":{"android":"levelo://app?vid=acbbef11-1175-4fc2-be23-3149665f36b3","ios":"levelo://app?vid=acbbef11-1175-4fc2-be23-3149665f36b3"},"vehicle_type_id":"4","last_reported":1773560802,"current_range_meters":20000,"station_id":"ce4bgs12rcd13ifvqcag","pricing_plan_id":"cebpf4jnsgd1na2vs0mg"},{"bike_id":"9171b734-0df6-4ec4-9850-d0dfe5ba2365","system_id":"levelo_inurba_marseille","lat":43.3064,"lon":5.40081,"is_reserved":false,"is_disabled":false,"rental_uris":{"android":"levelo://app?vid=9171b734-0df6-4ec4-9850-d0dfe5ba2365","ios":"levelo://app?vid=9171b734-0df6-4ec4-9850-d0dfe5ba2365"},"vehicle_type_id":"4","last_reported":1773560802,"current_range_meters":3200,"station_id":"ce4bh112rcd13ifvqda0","pricing_plan_id":"cebpf4jnsgd1na2vs0mg"},{"bike_id":"0ed4cb71-7747-4bd4-a6af-33060dfbb309","system_id":"levelo_inurba_marseille","lat":43.27616,"lon":5.36111,"is_reserved":false,"is_disabled":false,"rental_uris":{"android":"levelo://app?vid=0ed4cb71-7747-4bd4-a6af-33060dfbb309","ios":"levelo://app?vid=0ed4cb71-7747-4bd4-a6af-33060dfbb309"},"vehicle_type_id":"4","last_reported":1773560802,"current_range_meters":39200,"station_id":"ce4bgj92rcd13ifvqbe0","pricing_plan_id":"cebpf4jnsgd1na2vs0mg"},{"bike_id":"040ebf91-65e6-4961-b3b8-9b42783730b4","system_id":"levelo_inurba_marseille","lat":43.30324,"lon":5.369,"is_reserved":false,"is_disabled":false,"rental_uris":{"android":"levelo://app?vid=040ebf91-65e6-4961-b3b8-9b42783730b4","ios":"levelo://app?vid=040ebf91-65e6-4961-b3b8-9b42783730b4"},"vehicle_type_id":"4","last_reported":1773560802,"current_range_meters":33600,"station_id":"ce4bgqh2rcd13ifvqc5g","pricing_plan_id":"cebpf4jnsgd1na2vs0mg"},{"bike_id":"39511bac-a378-495c-8620-d864725c8485","system_id":"levelo_inurba_marseille","lat":43.25088,"lon":5.39519,"is_reserved":false,"is_disabled":false,"rental_uris":{"android":"levelo://app?vid=39511bac-a378-495c-8620-d864725c8485","ios":"levelo://app?vid=39511bac-a378-495c-8620-d864725c8485"},"vehicle_type_id":"4","last_reported":1773560802,"current_range_meters":38400,"station_id":"ce4bhm12rcd13ifvqgkg","pricing_plan_id":"cebpf4jnsgd1na2vs0mg"},{"bike_id":"c7fddb7b-d563-4a83-aa84-b2d72864f9e6","system_id":"levelo_inurba_marseille","lat":43.272097,"lon":5.391881,"is_reserved":false,"is_disabled":false,"rental_uris":{"android":"levelo://app?vid=c7fddb7b-d563-4a83-aa84-b2d72864f9e6","ios":"levelo://app?vid=c7fddb7b-d563-4a83-aa84-b2d72864f9e6"},"vehicle_type_id":"4","last_reported":1773560802,"current_range_meters":27600,"station_id":"ce4bhhp2rcd13ifvqfm0","pricing_plan_id":"cebpf4jnsgd1na2vs0mg"},{"bike_id":"3a46d46a-3434-4c09-9481-ae1049d546b0","system_id":"levelo_inurba_marseille","lat":43.31432,"lon":5.3729,"is_reserved":false,"is_disabled":false,"rental_uris":{"android":"levelo://app?vid=3a46d46a-3434-4c09-9481-ae1049d546b0","ios":"levelo://app?vid=3a46d46a-3434-4c09-9481-ae1049d546b0"},"vehicle_type_id":"4","last_reported":1773560802,"current_range_meters":38000,"station_id":"","pricing_plan_id":"cebpf4jnsgd1na2vs0mg"},{"bike_id":"64069c02-c977-4af0-a752-efe4502ec874","system_id":"levelo_inurba_marseille","lat":43.28483,"lon":5.48389,"is_reserved":false,"is_disabled":false,"rental_uris":{"android":"levelo://app?vid=64069c02-c977-4af0-a752-efe4502ec874","ios":"levelo://app?vid=64069c02-c977-4af0-a752-efe4502ec874"},"vehicle_type_id":"4","last_reported":1773560802,"current_range_meters":38000,"station_id":"","pricing_plan_id":"cebpf4jnsgd1na2vs0mg"},{"bike_id":"030d87a5-4fd6-406c-97be-8b1d2c082c10","system_id":"levelo_inurba_marseille","lat":43.24549,"lon":5.39532,"is_reserved":false,"is_disabled":false,"rental_uris":{"android":"levelo://app?vid=030d87a5-4fd6-406c-97be-8b1d2c082c10","ios":"levelo://app?vid=030d87a5-4fd6-406c-97be-8b1d2c082c10"},"vehicle_type_id":"4","last_reported":1773560802,"current_range_meters":38000,"station_id":"ce4bhlp2rcd13ifvqgjg","pricing_plan_id":"cebpf4jnsgd1na2vs0mg"},{"bike_id":"0c60e9f7-419a-402d-bbe7-ab8848add394","system_id":"levelo_inurba_marseille","lat":43.31596,"lon":5.40503,"is_reserved":false,"is_disabled":false,"rental_uris":{"android":"levelo://app?vid=0c60e9f7-419a-402d-bbe7-ab8848add394","ios":"levelo://app?vid=0c60e9f7-419a-402d-bbe7-ab8848add394"},"vehicle_type_id":"4","last_reported":1773560802,"current_range_meters":32000,"station_id":"","pricing_plan_id":"cebpf4jnsgd1na2vs0mg"},{"bike_id":"e666f2fc-c602-4b8d-91e3-0d86c3da7741","system_id":"levelo_inurba_marseille","lat":43.28442,"lon":5.39206,"is_reserved":false,"is_disabled":false,"rental_uris":{"android":"levelo://app?vid=e666f2fc-c602-4b8d-91e3-0d86c3da7741","ios":"levelo://app?vid=e666f2fc-c602-4b8d-91e3-0d86c3da7741"},"vehicle_type_id":"4","last_reported":1773560802,"current_range_meters":3200,"station_id":"ce4bhoh2rcd13ifvqh5g","pricing_plan_id":"cebpf4jnsgd1na2vs0mg"},{"bike_id":"6ba02607-5543-4986-b3cb-a1df5f02d1dd","system_id":"levelo_inurba_marseille","lat":43.3136,"lon":5.36717,"is_reserved":false,"is_disabled":false,"rental_uris":{"android":"levelo://app?vid=6ba02607-5543-4986-b3cb-a1df5f02d1dd","ios":"levelo://app?vid=6ba02607-5543-4986-b3cb-a1df5f02d1dd"},"vehicle_type_id":"4","last_reported":1773560802,"current_range_meters":38400,"station_id":"ce4bgr92rcd13ifvqc6g","pricing_plan_id":"cebpf4jnsgd1na2vs0mg"},{"bike_id":"68f8bcec-7291-4d62-b8e4-32de3382d5ae","system_id":"levelo_inurba_marseille","lat":43.30159,"lon":5.37402,"is_reserved":false,"is_disabled":false,"rental_uris":{"android":"levelo://app?vid=68f8bcec-7291-4d62-b8e4-32de3382d5ae","ios":"levelo://app?vid=68f8bcec-7291-4d62-b8e4-32de3382d5ae"},"vehicle_type_id":"4","last_reported":1773560802,"current_range_meters":10000,"station_id":"ce4bgs92rcd13ifvqcc0","pricing_plan_id":"cebpf4jnsgd1na2vs0mg"},{"bike_id":"7bf0a830-d498-457c-a030-91c3bd84fed4","system_id":"levelo_inurba_marseille","lat":43.23175,"lon":5.35613,"is_reserved":false,"is_disabled":false,"rental_uris":{"android":"levelo://app?vid=7bf0a830-d498-457c-a030-91c3bd84fed4","ios":"levelo://app?vid=7bf0a830-d498-457c-a030-91c3bd84fed4"},"vehicle_type_id":"4","last_reported":1773560802,"current_range_meters":32000,"station_id":"","pricing_plan_id":"cebpf4jnsgd1na2vs0mg"},{"bike_id":"db5fc025-f609-443b-b481-2f6cefb137d4","system_id":"levelo_inurba_marseille","lat":43.28471,"lon":5.48376,"is_reserved":false,"is_disabled":false,"rental_uris":{"android":"levelo://app?vid=db5fc025-f609-443b-b481-2f6cefb137d4","ios":"levelo://app?vid=db5fc025-f609-443b-b481-2f6cefb137d4"},"vehicle_type_id":"4","last_reported":1773560802,"current_range_meters":28400,"station_id":"","pricing_plan_id":"cebpf4jnsgd1na2vs0mg"},{"bike_id":"3b85e9e8-4938-4ae7-a83e-c8e2526a550f","system_id":"levelo_inurba_marseille","lat":43.24177,"lon":5.36439,"is_reserved":false,"is_disabled":false,"rental_uris":{"android":"levelo://app?vid=3b85e9e8-4938-4ae7-a83e-c8e2526a550f","ios":"levelo://app?vid=3b85e9e8-4938-4ae7-a83e-c8e2526a550f"},"vehicle_type_id":"4","last_reported":1773560802,"current_range_meters":14000,"station_id":"cpo36qri1sfpv3e86is0","pricing_plan_id":"cebpf4jnsgd1na2vs0mg"},{"bike_id":"c6384ce6-6b54-4b6d-b227-3cffde6120a6","system_id":"levelo_inurba_marseille","lat":43.30898,"lon":5.40172,"is_reserved":false,"is_disabled":true,"rental_uris":{"android":"levelo://app?vid=c6384ce6-6b54-4b6d-b227-3cffde6120a6","ios":"levelo://app?vid=c6384ce6-6b54-4b6d-b227-3cffde6120a6"},"vehicle_type_id":"4","last_reported":1773560802,"current_range_meters":32000,"station_id":"ce4bgvp2rcd13ifvqct0","pricing_plan_id":"cebpf4jnsgd1na2vs0mg"},{"bike_id":"291874e8-1076-4212-bc5a-785d26390212","system_id":"levelo_inurba_marseille","lat":43.27925,"lon":5.41032,"is_reserved":false,"is_disabled":false,"rental_uris":{"android":"levelo://app?vid=291874e8-1076-4212-bc5a-785d26390212","ios":"levelo://app?vid=291874e8-1076-4212-bc5a-785d26390212"},"vehicle_type_id":"4","last_reported":1773560802,"current_range_meters":19600,"station_id":"ce4bhnp2rcd13ifvqh0g","pricing_plan_id":"cebpf4jnsgd1na2vs0mg"},{"bike_id":"4afcb84a-0db5-4ae3-ba90-2750739e856b","system_id":"levelo_inurba_marseille","lat":43.31436,"lon":5.37255,"is_reserved":false,"is_disabled":false,"rental_uris":{"android":"levelo://app?vid=4afcb84a-0db5-4ae3-ba90-2750739e856b","ios":"levelo://app?vid=4afcb84a-0db5-4ae3-ba90-2750739e856b"},"vehicle_type_id":"4","last_reported":1773560802,"current_range_meters":40000,"station_id":"ce4bgt12rcd13ifvqcd0","pricing_plan_id":"cebpf4jnsgd1na2vs0mg"},{"bike_id":"e3992951-2693-423e-8845-e8948be986e5","system_id":"levelo_inurba_marseille","lat":43.32452,"lon":5.36575,"is_reserved":false,"is_disabled":false,"rental_uris":{"android":"levelo://app?vid=e3992951-2693-423e-8845-e8948be986e5","ios":"levelo://app?vid=e3992951-2693-423e-8845-e8948be986e5"},"vehicle_type_id":"4","last_reported":1773560802,"current_range_meters":39200,"station_id":"ce4bhs12rcd13ifvqhvg","pricing_plan_id":"cebpf4jnsgd1na2vs0mg"},{"bike_id":"ab77300e-c665-4d91-a12d-a690b40a847b","system_id":"levelo_inurba_marseille","lat":43.2919,"lon":5.35797,"is_reserved":false,"is_disabled":false,"rental_uris":{"android":"levelo://app?vid=ab77300e-c665-4d91-a12d-a690b40a847b","ios":"levelo://app?vid=ab77300e-c665-4d91-a12d-a690b40a847b"},"vehicle_type_id":"4","last_reported":1773560802,"current_range_meters":37600,"station_id":"ce4bhb12rcd13ifvqel0","pricing_plan_id":"cebpf4jnsgd1na2vs0mg"},{"bike_id":"ab7d9189-2568-4974-829e-49dee9a447d5","system_id":"levelo_inurba_marseille","lat":43.24068,"lon":5.3776,"is_reserved":false,"is_disabled":false,"rental_uris":{"android":"levelo://app?vid=ab7d9189-2568-4974-829e-49dee9a447d5","ios":"levelo://app?vid=ab7d9189-2568-4974-829e-49dee9a447d5"},"vehicle_type_id":"4","last_reported":1773560802,"current_range_meters":38800,"station_id":"ce4bhnp2rcd13ifvqgvg","pricing_plan_id":"cebpf4jnsgd1na2vs0mg"},{"bike_id":"39513cb6-3bc6-440f-aba3-05c67abcb751","system_id":"levelo_inurba_marseille","lat":43.28998,"lon":5.35618,"is_reserved":false,"is_disabled":false,"rental_uris":{"android":"levelo://app?vid=39513cb6-3bc6-440f-aba3-05c67abcb751","ios":"levelo://app?vid=39513cb6-3bc6-440f-aba3-05c67abcb751"},"vehicle_type_id":"4","last_reported":1773560802,"current_range_meters":38400,"station_id":"ce4bhb92rcd13ifvqen0","pricing_plan_id":"cebpf4jnsgd1na2vs0mg"},{"bike_id":"c0c5d9dc-928d-48b1-bc04-fe5d71707694","system_id":"levelo_inurba_marseille","lat":43.32346,"lon":5.36733,"is_reserved":false,"is_disabled":false,"rental_uris":{"android":"levelo://app?vid=c0c5d9dc-928d-48b1-bc04-fe5d71707694","ios":"levelo://app?vid=c0c5d9dc-928d-48b1-bc04-fe5d71707694"},"vehicle_type_id":"4","last_reported":1773560802,"current_range_meters":34000,"station_id":"ce4bhsh2rcd13ifvqi2g","pricing_plan_id":"cebpf4jnsgd1na2vs0mg"},{"bike_id":"c4e6e4d4-68e7-41a7-aebb-da067ca2f711","system_id":"levelo_inurba_marseille","lat":43.28827,"lon":5.35893,"is_reserved":false,"is_disabled":false,"rental_uris":{"android":"levelo://app?vid=c4e6e4d4-68e7-41a7-aebb-da067ca2f711","ios":"levelo://app?vid=c4e6e4d4-68e7-41a7-aebb-da067ca2f711"},"vehicle_type_id":"4","last_reported":1773560802,"current_range_meters":37600,"station_id":"ce4bhb12rcd13ifvqem0","pricing_plan_id":"cebpf4jnsgd1na2vs0mg"},{"bike_id":"37d43fd8-cdec-4372-bbf9-45ba3794afe0","system_id":"levelo_inurba_marseille","lat":43.29461,"lon":5.3976,"is_reserved":false,"is_disabled":true,"rental_uris":{"android":"levelo://app?vid=37d43fd8-cdec-4372-bbf9-45ba3794afe0","ios":"levelo://app?vid=37d43fd8-cdec-4372-bbf9-45ba3794afe0"},"vehicle_type_id":"4","last_reported":1773560802,"current_range_meters":25200,"station_id":"ce4bh3h2rcd13ifvqdo0","pricing_plan_id":"cebpf4jnsgd1na2vs0mg"},{"bike_id":"475f6229-3b8f-4eab-b8fd-2fbd86f0fb75","system_id":"levelo_inurba_marseille","lat":43.24167,"lon":5.3641,"is_reserved":false,"is_disabled":false,"rental_uris":{"android":"levelo://app?vid=475f6229-3b8f-4eab-b8fd-2fbd86f0fb75","ios":"levelo://app?vid=475f6229-3b8f-4eab-b8fd-2fbd86f0fb75"},"vehicle_type_id":"4","last_reported":1773560802,"current_range_meters":36400,"station_id":"cpo36qri1sfpv3e86is0","pricing_plan_id":"cebpf4jnsgd1na2vs0mg"},{"bike_id":"aaf56433-ee77-470c-b7b6-221e680ae993","system_id":"levelo_inurba_marseille","lat":43.22565,"lon":5.4164,"is_reserved":false,"is_disabled":false,"rental_uris":{"android":"levelo://app?vid=aaf56433-ee77-470c-b7b6-221e680ae993","ios":"levelo://app?vid=aaf56433-ee77-470c-b7b6-221e680ae993"},"vehicle_type_id":"4","last_reported":1773560802,"current_range_meters":38000,"station_id":"st_d2o4gvlbi1j2169b742g","pricing_plan_id":"cebpf4jnsgd1na2vs0mg"},{"bike_id":"3ff3df78-eee4-4716-9de4-5e86fa44030b","system_id":"levelo_inurba_marseille","lat":43.30126,"lon":5.37396,"is_reserved":false,"is_disabled":false,"rental_uris":{"android":"levelo://app?vid=3ff3df78-eee4-4716-9de4-5e86fa44030b","ios":"levelo://app?vid=3ff3df78-eee4-4716-9de4-5e86fa44030b"},"vehicle_type_id":"4","last_reported":1773560802,"current_range_meters":39200,"station_id":"ce4bgs92rcd13ifvqcc0","pricing_plan_id":"cebpf4jnsgd1na2vs0mg"},{"bike_id":"45ecb43d-a240-4bee-a5ef-ce20abe4d1b3","system_id":"levelo_inurba_marseille","lat":43.28504,"lon":5.38463,"is_reserved":false,"is_disabled":false,"rental_uris":{"android":"levelo://app?vid=45ecb43d-a240-4bee-a5ef-ce20abe4d1b3","ios":"levelo://app?vid=45ecb43d-a240-4bee-a5ef-ce20abe4d1b3"},"vehicle_type_id":"4","last_reported":1773560802,"current_range_meters":37600,"station_id":"ce4bh512rcd13ifvqe3g","pricing_plan_id":"cebpf4jnsgd1na2vs0mg"},{"bike_id":"db71a0ea-8b57-4ffe-88a6-946ba0e510e2","system_id":"levelo_inurba_marseille","lat":43.30912,"lon":5.36856,"is_reserved":false,"is_disabled":false,"rental_uris":{"android":"levelo://app?vid=db71a0ea-8b57-4ffe-88a6-946ba0e510e2","ios":"levelo://app?vid=db71a0ea-8b57-4ffe-88a6-946ba0e510e2"},"vehicle_type_id":"4","last_reported":1773560802,"current_range_meters":24000,"station_id":"ce4bgn92rcd13ifvqbvg","pricing_plan_id":"cebpf4jnsgd1na2vs0mg"},{"bike_id":"eb259eb3-17cb-4932-bfd9-164bb2aaf2fe","system_id":"levelo_inurba_marseille","lat":43.23198,"lon":5.35548,"is_reserved":false,"is_disabled":false,"rental_uris":{"android":"levelo://app?vid=eb259eb3-17cb-4932-bfd9-164bb2aaf2fe","ios":"levelo://app?vid=eb259eb3-17cb-4932-bfd9-164bb2aaf2fe"},"vehicle_type_id":"4","last_reported":1773560802,"current_range_meters":38000,"station_id":"ce4bhu92rcd13ifvqi70","pricing_plan_id":"cebpf4jnsgd1na2vs0mg"},{"bike_id":"9f1129e7-2235-4faf-8100-e46743b37449","system_id":"levelo_inurba_marseille","lat":43.25723,"lon":5.4109,"is_reserved":false,"is_disabled":false,"rental_uris":{"android":"levelo://app?vid=9f1129e7-2235-4faf-8100-e46743b37449","ios":"levelo://app?vid=9f1129e7-2235-4faf-8100-e46743b37449"},"vehicle_type_id":"4","last_reported":1773560802,"current_range_meters":38800,"station_id":"ce4bhkp2rcd13ifvqgd0","pricing_plan_id":"cebpf4jnsgd1na2vs0mg"},{"bike_id":"41b16539-d93d-4e64-a8e4-b7d380ab4e3b","system_id":"levelo_inurba_marseille","lat":43.2501,"lon":5.38917,"is_reserved":false,"is_disabled":false,"rental_uris":{"android":"levelo://app?vid=41b16539-d93d-4e64-a8e4-b7d380ab4e3b","ios":"levelo://app?vid=41b16539-d93d-4e64-a8e4-b7d380ab4e3b"},"vehicle_type_id":"4","last_reported":1773560802,"current_range_meters":11600,"station_id":"ce4bhgp2rcd13ifvqfd0","pricing_plan_id":"cebpf4jnsgd1na2vs0mg"},{"bike_id":"c38579e6-c457-4b80-b0cb-afa3b73f4080","system_id":"levelo_inurba_marseille","lat":43.3109,"lon":5.42434,"is_reserved":false,"is_disabled":false,"rental_uris":{"android":"levelo://app?vid=c38579e6-c457-4b80-b0cb-afa3b73f4080","ios":"levelo://app?vid=c38579e6-c457-4b80-b0cb-afa3b73f4080"},"vehicle_type_id":"4","last_reported":1773560802,"current_range_meters":27600,"station_id":"ce4bhp92rcd13ifvqhag","pricing_plan_id":"cebpf4jnsgd1na2vs0mg"},{"bike_id":"82cc6450-dfaa-4bb6-a088-0a631d97e42b","system_id":"levelo_inurba_marseille","lat":43.32656,"lon":5.4099,"is_reserved":false,"is_disabled":false,"rental_uris":{"android":"levelo://app?vid=82cc6450-dfaa-4bb6-a088-0a631d97e42b","ios":"levelo://app?vid=82cc6450-dfaa-4bb6-a088-0a631d97e42b"},"vehicle_type_id":"4","last_reported":1773560802,"current_range_meters":39200,"station_id":"ce4bhpp2rcd13ifvqhgg","pricing_plan_id":"cebpf4jnsgd1na2vs0mg"},{"bike_id":"b9f4b36a-5c66-4007-903d-605c386a9134","system_id":"levelo_inurba_marseille","lat":43.28463,"lon":5.35885,"is_reserved":false,"is_disabled":false,"rental_uris":{"android":"levelo://app?vid=b9f4b36a-5c66-4007-903d-605c386a9134","ios":"levelo://app?vid=b9f4b36a-5c66-4007-903d-605c386a9134"},"vehicle_type_id":"4","last_reported":1773560802,"current_range_meters":30400,"station_id":"ce4bhah2rcd13ifvqei0","pricing_plan_id":"cebpf4jnsgd1na2vs0mg"},{"bike_id":"a4951a30-7084-4efc-835c-7b8db4704dd8","system_id":"levelo_inurba_marseille","lat":43.26949,"lon":5.40252,"is_reserved":false,"is_disabled":false,"rental_uris":{"android":"levelo://app?vid=a4951a30-7084-4efc-835c-7b8db4704dd8","ios":"levelo://app?vid=a4951a30-7084-4efc-835c-7b8db4704dd8"},"vehicle_type_id":"4","last_reported":1773560802,"current_range_meters":38800,"station_id":"cjm6bp8fraef2m0cb0m0","pricing_plan_id":"cebpf4jnsgd1na2vs0mg"},{"bike_id":"8f7a4dd9-ebf5-4f16-936d-241bfa909696","system_id":"levelo_inurba_marseille","lat":43.31322,"lon":5.397,"is_reserved":false,"is_disabled":false,"rental_uris":{"android":"levelo://app?vid=8f7a4dd9-ebf5-4f16-936d-241bfa909696","ios":"levelo://app?vid=8f7a4dd9-ebf5-4f16-936d-241bfa909696"},"vehicle_type_id":"4","last_reported":1773560802,"current_range_meters":6800,"station_id":"ce4bgvp2rcd13ifvqcu0","pricing_plan_id":"cebpf4jnsgd1na2vs0mg"},{"bike_id":"68909a52-a81a-47d2-a672-452ce92b3e14","system_id":"levelo_inurba_marseille","lat":43.29792,"lon":5.37082,"is_reserved":false,"is_disabled":false,"rental_uris":{"android":"levelo://app?vid=68909a52-a81a-47d2-a672-452ce92b3e14","ios":"levelo://app?vid=68909a52-a81a-47d2-a672-452ce92b3e14"},"vehicle_type_id":"4","last_reported":1773560802,"current_range_meters":6800,"station_id":"ce4bgop2rcd13ifvqc1g","pricing_plan_id":"cebpf4jnsgd1na2vs0mg"},{"bike_id":"6e8cbc55-1efb-4ebc-b70e-2a9253dbdc8a","system_id":"levelo_inurba_marseille","lat":43.30746,"lon":5.42441,"is_reserved":false,"is_disabled":false,"rental_uris":{"android":"levelo://app?vid=6e8cbc55-1efb-4ebc-b70e-2a9253dbdc8a","ios":"levelo://app?vid=6e8cbc55-1efb-4ebc-b70e-2a9253dbdc8a"},"vehicle_type_id":"4","last_reported":1773560802,"current_range_meters":26800,"station_id":"st_cvj6ca6bvosntc0bfgr0","pricing_plan_id":"cebpf4jnsgd1na2vs0mg"},{"bike_id":"fceacbae-990b-4213-8c3b-c375f2e5e911","system_id":"levelo_inurba_marseille","lat":43.29803,"lon":5.38107,"is_reserved":false,"is_disabled":true,"rental_uris":{"android":"levelo://app?vid=fceacbae-990b-4213-8c3b-c375f2e5e911","ios":"levelo://app?vid=fceacbae-990b-4213-8c3b-c375f2e5e911"},"vehicle_type_id":"4","last_reported":1773560802,"current_range_meters":19200,"station_id":"ce4bgip2rcd13ifvqbb0","pricing_plan_id":"cebpf4jnsgd1na2vs0mg"},{"bike_id":"88cb8c7f-0ccd-4a01-91f9-3a530d0e94ef","system_id":"levelo_inurba_marseille","lat":43.28623,"lon":5.35095,"is_reserved":false,"is_disabled":false,"rental_uris":{"android":"levelo://app?vid=88cb8c7f-0ccd-4a01-91f9-3a530d0e94ef","ios":"levelo://app?vid=88cb8c7f-0ccd-4a01-91f9-3a530d0e94ef"},"vehicle_type_id":"4","last_reported":1773560802,"current_range_meters":37600,"station_id":"ce4bhch2rcd13ifvqeug","pricing_plan_id":"cebpf4jnsgd1na2vs0mg"},{"bike_id":"466d5686-152b-40db-b82b-75b5e82313ee","system_id":"levelo_inurba_marseille","lat":43.3014,"lon":5.37418,"is_reserved":false,"is_disabled":false,"rental_uris":{"android":"levelo://app?vid=466d5686-152b-40db-b82b-75b5e82313ee","ios":"levelo://app?vid=466d5686-152b-40db-b82b-75b5e82313ee"},"vehicle_type_id":"4","last_reported":1773560802,"current_range_meters":17600,"station_id":"ce4bgs92rcd13ifvqcc0","pricing_plan_id":"cebpf4jnsgd1na2vs0mg"},{"bike_id":"32358ead-44ff-491d-882b-0c4122b7d796","system_id":"levelo_inurba_marseille","lat":43.21184,"lon":5.35091,"is_reserved":false,"is_disabled":true,"rental_uris":{"android":"levelo://app?vid=32358ead-44ff-491d-882b-0c4122b7d796","ios":"levelo://app?vid=32358ead-44ff-491d-882b-0c4122b7d796"},"vehicle_type_id":"4","last_reported":1773560802,"current_range_meters":800,"station_id":"st_cvj6sg6p6f1abm77japg","pricing_plan_id":"cebpf4jnsgd1na2vs0mg"},{"bike_id":"c19808e1-b08f-49c9-b303-f183f8de22cc","system_id":"levelo_inurba_marseille","lat":43.25095,"lon":5.39518,"is_reserved":false,"is_disabled":false,"rental_uris":{"android":"levelo://app?vid=c19808e1-b08f-49c9-b303-f183f8de22cc","ios":"levelo://app?vid=c19808e1-b08f-49c9-b303-f183f8de22cc"},"vehicle_type_id":"4","last_reported":1773560802,"current_range_meters":32400,"station_id":"ce4bhm12rcd13ifvqgkg","pricing_plan_id":"cebpf4jnsgd1na2vs0mg"},{"bike_id":"88baf1fe-4b9b-4c52-81f7-dd067c921a9f","system_id":"levelo_inurba_marseille","lat":43.29821,"lon":5.44061,"is_reserved":false,"is_disabled":false,"rental_uris":{"android":"levelo://app?vid=88baf1fe-4b9b-4c52-81f7-dd067c921a9f","ios":"levelo://app?vid=88baf1fe-4b9b-4c52-81f7-dd067c921a9f"},"vehicle_type_id":"4","last_reported":1773560802,"current_range_meters":10800,"station_id":"st_d3jp68qikq2c7381ktn0","pricing_plan_id":"cebpf4jnsgd1na2vs0mg"},{"bike_id":"fc490484-a83d-4dbc-a9ca-17596f3ee413","system_id":"levelo_inurba_marseille","lat":43.2408,"lon":5.37752,"is_reserved":false,"is_disabled":false,"rental_uris":{"android":"levelo://app?vid=fc490484-a83d-4dbc-a9ca-17596f3ee413","ios":"levelo://app?vid=fc490484-a83d-4dbc-a9ca-17596f3ee413"},"vehicle_type_id":"4","last_reported":1773560802,"current_range_meters":37600,"station_id":"ce4bhnp2rcd13ifvqgvg","pricing_plan_id":"cebpf4jnsgd1na2vs0mg"},{"bike_id":"e4c5b372-6892-4028-8a07-7aa5c5a4433c","system_id":"levelo_inurba_marseille","lat":43.27193,"lon":5.39213,"is_reserved":false,"is_disabled":true,"rental_uris":{"android":"levelo://app?vid=e4c5b372-6892-4028-8a07-7aa5c5a4433c","ios":"levelo://app?vid=e4c5b372-6892-4028-8a07-7aa5c5a4433c"},"vehicle_type_id":"4","last_reported":1773560802,"current_range_meters":0,"station_id":"ce4bhhp2rcd13ifvqfm0","pricing_plan_id":"cebpf4jnsgd1na2vs0mg"},{"bike_id":"574389cd-d5f7-4bb8-8e81-3a3b9218fbef","system_id":"levelo_inurba_marseille","lat":43.24163,"lon":5.36395,"is_reserved":false,"is_disabled":false,"rental_uris":{"android":"levelo://app?vid=574389cd-d5f7-4bb8-8e81-3a3b9218fbef","ios":"levelo://app?vid=574389cd-d5f7-4bb8-8e81-3a3b9218fbef"},"vehicle_type_id":"4","last_reported":1773560802,"current_range_meters":9200,"station_id":"cpo36qri1sfpv3e86is0","pricing_plan_id":"cebpf4jnsgd1na2vs0mg"},{"bike_id":"8cc80161-f05d-4510-84aa-0b6bd738d8d5","system_id":"levelo_inurba_marseille","lat":43.31364,"lon":5.38507,"is_reserved":false,"is_disabled":false,"rental_uris":{"android":"levelo://app?vid=8cc80161-f05d-4510-84aa-0b6bd738d8d5","ios":"levelo://app?vid=8cc80161-f05d-4510-84aa-0b6bd738d8d5"},"vehicle_type_id":"4","last_reported":1773560802,"current_range_meters":12000,"station_id":"ce4bgt92rcd13ifvqcf0","pricing_plan_id":"cebpf4jnsgd1na2vs0mg"},{"bike_id":"44502a88-b86f-48e4-8552-de8ca01c45de","system_id":"levelo_inurba_marseille","lat":43.2583,"lon":5.39441,"is_reserved":false,"is_disabled":false,"rental_uris":{"android":"levelo://app?vid=44502a88-b86f-48e4-8552-de8ca01c45de","ios":"levelo://app?vid=44502a88-b86f-48e4-8552-de8ca01c45de"},"vehicle_type_id":"4","last_reported":1773560802,"current_range_meters":38400,"station_id":"ce4bhip2rcd13ifvqft0","pricing_plan_id":"cebpf4jnsgd1na2vs0mg"},{"bike_id":"d008a3ca-bdab-43f7-957e-465391a2d48d","system_id":"levelo_inurba_marseille","lat":43.31723,"lon":5.42398,"is_reserved":false,"is_disabled":false,"rental_uris":{"android":"levelo://app?vid=d008a3ca-bdab-43f7-957e-465391a2d48d","ios":"levelo://app?vid=d008a3ca-bdab-43f7-957e-465391a2d48d"},"vehicle_type_id":"4","last_reported":1773560802,"current_range_meters":28400,"station_id":"ce4bhp92rcd13ifvqhbg","pricing_plan_id":"cebpf4jnsgd1na2vs0mg"},{"bike_id":"620ff2af-052e-41b1-a64f-0ec58b0cc2e0","system_id":"levelo_inurba_marseille","lat":43.30546,"lon":5.36517,"is_reserved":false,"is_disabled":false,"rental_uris":{"android":"levelo://app?vid=620ff2af-052e-41b1-a64f-0ec58b0cc2e0","ios":"levelo://app?vid=620ff2af-052e-41b1-a64f-0ec58b0cc2e0"},"vehicle_type_id":"4","last_reported":1773560802,"current_range_meters":24800,"station_id":"ce4bgs12rcd13ifvqcag","pricing_plan_id":"cebpf4jnsgd1na2vs0mg"},{"bike_id":"6a8a7c2a-8a7e-41a1-a4b5-7ca30327194c","system_id":"levelo_inurba_marseille","lat":43.25137,"lon":5.40345,"is_reserved":false,"is_disabled":false,"rental_uris":{"android":"levelo://app?vid=6a8a7c2a-8a7e-41a1-a4b5-7ca30327194c","ios":"levelo://app?vid=6a8a7c2a-8a7e-41a1-a4b5-7ca30327194c"},"vehicle_type_id":"4","last_reported":1773560802,"current_range_meters":40000,"station_id":"ce4bhlh2rcd13ifvqgig","pricing_plan_id":"cebpf4jnsgd1na2vs0mg"},{"bike_id":"2155aef1-73bb-4a0b-9841-6b3051394157","system_id":"levelo_inurba_marseille","lat":43.26027,"lon":5.37553,"is_reserved":false,"is_disabled":false,"rental_uris":{"android":"levelo://app?vid=2155aef1-73bb-4a0b-9841-6b3051394157","ios":"levelo://app?vid=2155aef1-73bb-4a0b-9841-6b3051394157"},"vehicle_type_id":"4","last_reported":1773560802,"current_range_meters":36400,"station_id":"ce4bhgh2rcd13ifvqfa0","pricing_plan_id":"cebpf4jnsgd1na2vs0mg"},{"bike_id":"5acaf7e1-5b00-4bef-85ae-4b835efcff08","system_id":"levelo_inurba_marseille","lat":43.28662,"lon":5.36358,"is_reserved":false,"is_disabled":false,"rental_uris":{"android":"levelo://app?vid=5acaf7e1-5b00-4bef-85ae-4b835efcff08","ios":"levelo://app?vid=5acaf7e1-5b00-4bef-85ae-4b835efcff08"},"vehicle_type_id":"4","last_reported":1773560802,"current_range_meters":38800,"station_id":"ce4bhah2rcd13ifvqej0","pricing_plan_id":"cebpf4jnsgd1na2vs0mg"},{"bike_id":"2da74aad-d5d0-4aee-be79-0fb398f1f69b","system_id":"levelo_inurba_marseille","lat":43.29727,"lon":5.38069,"is_reserved":false,"is_disabled":true,"rental_uris":{"android":"levelo://app?vid=2da74aad-d5d0-4aee-be79-0fb398f1f69b","ios":"levelo://app?vid=2da74aad-d5d0-4aee-be79-0fb398f1f69b"},"vehicle_type_id":"4","last_reported":1773560802,"current_range_meters":22800,"station_id":"","pricing_plan_id":"cebpf4jnsgd1na2vs0mg"},{"bike_id":"38b12cbc-5d90-4180-b39e-1ff3e0d17bf2","system_id":"levelo_inurba_marseille","lat":43.27982,"lon":5.41659,"is_reserved":false,"is_disabled":false,"rental_uris":{"android":"levelo://app?vid=38b12cbc-5d90-4180-b39e-1ff3e0d17bf2","ios":"levelo://app?vid=38b12cbc-5d90-4180-b39e-1ff3e0d17bf2"},"vehicle_type_id":"4","last_reported":1773560802,"current_range_meters":31200,"station_id":"ce4bho12rcd13ifvqh1g","pricing_plan_id":"cebpf4jnsgd1na2vs0mg"},{"bike_id":"2444b383-186d-4aa9-ac23-06be09cc8c39","system_id":"levelo_inurba_marseille","lat":43.29761,"lon":5.3709,"is_reserved":false,"is_disabled":false,"rental_uris":{"android":"levelo://app?vid=2444b383-186d-4aa9-ac23-06be09cc8c39","ios":"levelo://app?vid=2444b383-186d-4aa9-ac23-06be09cc8c39"},"vehicle_type_id":"4","last_reported":1773560802,"current_range_meters":33600,"station_id":"ce4bgop2rcd13ifvqc1g","pricing_plan_id":"cebpf4jnsgd1na2vs0mg"},{"bike_id":"c5e75752-a286-449d-8e67-bace779c66a2","system_id":"levelo_inurba_marseille","lat":43.23185,"lon":5.40014,"is_reserved":false,"is_disabled":false,"rental_uris":{"android":"levelo://app?vid=c5e75752-a286-449d-8e67-bace779c66a2","ios":"levelo://app?vid=c5e75752-a286-449d-8e67-bace779c66a2"},"vehicle_type_id":"4","last_reported":1773560802,"current_range_meters":34000,"station_id":"ce4bhn12rcd13ifvqgqg","pricing_plan_id":"cebpf4jnsgd1na2vs0mg"},{"bike_id":"fd501590-7696-4af3-ab8c-7fdb344de8fb","system_id":"levelo_inurba_marseille","lat":43.27987,"lon":5.41659,"is_reserved":false,"is_disabled":false,"rental_uris":{"android":"levelo://app?vid=fd501590-7696-4af3-ab8c-7fdb344de8fb","ios":"levelo://app?vid=fd501590-7696-4af3-ab8c-7fdb344de8fb"},"vehicle_type_id":"4","last_reported":1773560802,"current_range_meters":39200,"station_id":"ce4bho12rcd13ifvqh1g","pricing_plan_id":"cebpf4jnsgd1na2vs0mg"},{"bike_id":"98ad7446-470a-466f-a232-159feeee00c6","system_id":"levelo_inurba_marseille","lat":43.27353,"lon":5.36254,"is_reserved":false,"is_disabled":false,"rental_uris":{"android":"levelo://app?vid=98ad7446-470a-466f-a232-159feeee00c6","ios":"levelo://app?vid=98ad7446-470a-466f-a232-159feeee00c6"},"vehicle_type_id":"4","last_reported":1773560802,"current_range_meters":26800,"station_id":"ce4bhbh2rcd13ifvqeo0","pricing_plan_id":"cebpf4jnsgd1na2vs0mg"},{"bike_id":"38b4eda8-06a1-488b-ae14-788d5c883747","system_id":"levelo_inurba_marseille","lat":43.29191,"lon":5.35799,"is_reserved":false,"is_disabled":false,"rental_uris":{"android":"levelo://app?vid=38b4eda8-06a1-488b-ae14-788d5c883747","ios":"levelo://app?vid=38b4eda8-06a1-488b-ae14-788d5c883747"},"vehicle_type_id":"4","last_reported":1773560802,"current_range_meters":38400,"station_id":"ce4bhb12rcd13ifvqel0","pricing_plan_id":"cebpf4jnsgd1na2vs0mg"},{"bike_id":"57bb4d9e-d4d4-4990-bab6-6d06f315dddc","system_id":"levelo_inurba_marseille","lat":43.3015,"lon":5.37442,"is_reserved":false,"is_disabled":false,"rental_uris":{"android":"levelo://app?vid=57bb4d9e-d4d4-4990-bab6-6d06f315dddc","ios":"levelo://app?vid=57bb4d9e-d4d4-4990-bab6-6d06f315dddc"},"vehicle_type_id":"4","last_reported":1773560802,"current_range_meters":35600,"station_id":"ce4bgs92rcd13ifvqcc0","pricing_plan_id":"cebpf4jnsgd1na2vs0mg"},{"bike_id":"2bab96cf-f3bd-4d1e-9a10-e0bfbf596746","system_id":"levelo_inurba_marseille","lat":43.23227,"lon":5.40016,"is_reserved":false,"is_disabled":false,"rental_uris":{"android":"levelo://app?vid=2bab96cf-f3bd-4d1e-9a10-e0bfbf596746","ios":"levelo://app?vid=2bab96cf-f3bd-4d1e-9a10-e0bfbf596746"},"vehicle_type_id":"4","last_reported":1773560802,"current_range_meters":30000,"station_id":"","pricing_plan_id":"cebpf4jnsgd1na2vs0mg"},{"bike_id":"ef364c26-b12f-4ac2-8385-acdb623c591d","system_id":"levelo_inurba_marseille","lat":43.22548,"lon":5.41645,"is_reserved":false,"is_disabled":false,"rental_uris":{"android":"levelo://app?vid=ef364c26-b12f-4ac2-8385-acdb623c591d","ios":"levelo://app?vid=ef364c26-b12f-4ac2-8385-acdb623c591d"},"vehicle_type_id":"4","last_reported":1773560802,"current_range_meters":10800,"station_id":"st_d2o4gvlbi1j2169b742g","pricing_plan_id":"cebpf4jnsgd1na2vs0mg"},{"bike_id":"7de1cf08-524a-4117-b363-0bfbe546af65","system_id":"levelo_inurba_marseille","lat":43.30591,"lon":5.3936,"is_reserved":false,"is_disabled":false,"rental_uris":{"android":"levelo://app?vid=7de1cf08-524a-4117-b363-0bfbe546af65","ios":"levelo://app?vid=7de1cf08-524a-4117-b363-0bfbe546af65"},"vehicle_type_id":"4","last_reported":1773560802,"current_range_meters":38400,"station_id":"ce4bh0p2rcd13ifvqd80","pricing_plan_id":"cebpf4jnsgd1na2vs0mg"},{"bike_id":"c7322f00-b8b6-465c-b8c1-59daedecaff5","system_id":"levelo_inurba_marseille","lat":43.28038,"lon":5.3698,"is_reserved":false,"is_disabled":false,"rental_uris":{"android":"levelo://app?vid=c7322f00-b8b6-465c-b8c1-59daedecaff5","ios":"levelo://app?vid=c7322f00-b8b6-465c-b8c1-59daedecaff5"},"vehicle_type_id":"4","last_reported":1773560802,"current_range_meters":40000,"station_id":"ce4bha12rcd13ifvqef0","pricing_plan_id":"cebpf4jnsgd1na2vs0mg"},{"bike_id":"33366443-6e47-469a-98dd-6e660d31792e","system_id":"levelo_inurba_marseille","lat":43.26544,"lon":5.37304,"is_reserved":false,"is_disabled":true,"rental_uris":{"android":"levelo://app?vid=33366443-6e47-469a-98dd-6e660d31792e","ios":"levelo://app?vid=33366443-6e47-469a-98dd-6e660d31792e"},"vehicle_type_id":"4","last_reported":1773560802,"current_range_meters":1600,"station_id":"ce4bhg12rcd13ifvqf70","pricing_plan_id":"cebpf4jnsgd1na2vs0mg"},{"bike_id":"8617b24d-bdd2-49e3-beda-5d74fc474252","system_id":"levelo_inurba_marseille","lat":43.28467,"lon":5.48404,"is_reserved":false,"is_disabled":false,"rental_uris":{"android":"levelo://app?vid=8617b24d-bdd2-49e3-beda-5d74fc474252","ios":"levelo://app?vid=8617b24d-bdd2-49e3-beda-5d74fc474252"},"vehicle_type_id":"4","last_reported":1773560802,"current_range_meters":25200,"station_id":"","pricing_plan_id":"cebpf4jnsgd1na2vs0mg"},{"bike_id":"75f14208-a968-40dc-80f8-68b063e0d714","system_id":"levelo_inurba_marseille","lat":43.23192,"lon":5.43665,"is_reserved":false,"is_disabled":false,"rental_uris":{"android":"levelo://app?vid=75f14208-a968-40dc-80f8-68b063e0d714","ios":"levelo://app?vid=75f14208-a968-40dc-80f8-68b063e0d714"},"vehicle_type_id":"4","last_reported":1773560802,"current_range_meters":8800,"station_id":"ce4bhmp2rcd13ifvqgog","pricing_plan_id":"cebpf4jnsgd1na2vs0mg"},{"bike_id":"a409c18d-73d9-4c02-b923-be6e3af18f8c","system_id":"levelo_inurba_marseille","lat":43.28625,"lon":5.35113,"is_reserved":false,"is_disabled":false,"rental_uris":{"android":"levelo://app?vid=a409c18d-73d9-4c02-b923-be6e3af18f8c","ios":"levelo://app?vid=a409c18d-73d9-4c02-b923-be6e3af18f8c"},"vehicle_type_id":"4","last_reported":1773560802,"current_range_meters":17600,"station_id":"ce4bhch2rcd13ifvqeug","pricing_plan_id":"cebpf4jnsgd1na2vs0mg"},{"bike_id":"4a09330b-b9bf-424e-8693-aafe00acb3cd","system_id":"levelo_inurba_marseille","lat":43.29552,"lon":5.42312,"is_reserved":false,"is_disabled":false,"rental_uris":{"android":"levelo://app?vid=4a09330b-b9bf-424e-8693-aafe00acb3cd","ios":"levelo://app?vid=4a09330b-b9bf-424e-8693-aafe00acb3cd"},"vehicle_type_id":"4","last_reported":1773560802,"current_range_meters":39200,"station_id":"ce4bhph2rcd13ifvqhdg","pricing_plan_id":"cebpf4jnsgd1na2vs0mg"},{"bike_id":"e0f4c726-c891-4b59-a727-5f7bf2fb4325","system_id":"levelo_inurba_marseille","lat":43.28513,"lon":5.44127,"is_reserved":false,"is_disabled":false,"rental_uris":{"android":"levelo://app?vid=e0f4c726-c891-4b59-a727-5f7bf2fb4325","ios":"levelo://app?vid=e0f4c726-c891-4b59-a727-5f7bf2fb4325"},"vehicle_type_id":"4","last_reported":1773560802,"current_range_meters":37600,"station_id":"st_d3j3df2ikq2c7380ej80","pricing_plan_id":"cebpf4jnsgd1na2vs0mg"},{"bike_id":"fdb474a4-4731-4915-8696-0a7cb3f89d1c","system_id":"levelo_inurba_marseille","lat":43.24663,"lon":5.38176,"is_reserved":false,"is_disabled":false,"rental_uris":{"android":"levelo://app?vid=fdb474a4-4731-4915-8696-0a7cb3f89d1c","ios":"levelo://app?vid=fdb474a4-4731-4915-8696-0a7cb3f89d1c"},"vehicle_type_id":"4","last_reported":1773560802,"current_range_meters":12000,"station_id":"ce4bhih2rcd13ifvqfr0","pricing_plan_id":"cebpf4jnsgd1na2vs0mg"},{"bike_id":"3d4208c2-815f-40bf-8bb0-f78b87ee07d6","system_id":"levelo_inurba_marseille","lat":43.28401,"lon":5.34986,"is_reserved":false,"is_disabled":false,"rental_uris":{"android":"levelo://app?vid=3d4208c2-815f-40bf-8bb0-f78b87ee07d6","ios":"levelo://app?vid=3d4208c2-815f-40bf-8bb0-f78b87ee07d6"},"vehicle_type_id":"4","last_reported":1773560802,"current_range_meters":33200,"station_id":"ce4bhbh2rcd13ifvqepg","pricing_plan_id":"cebpf4jnsgd1na2vs0mg"},{"bike_id":"eb44c793-9865-4d59-9109-f53085ac6356","system_id":"levelo_inurba_marseille","lat":43.31127,"lon":5.38722,"is_reserved":false,"is_disabled":false,"rental_uris":{"android":"levelo://app?vid=eb44c793-9865-4d59-9109-f53085ac6356","ios":"levelo://app?vid=eb44c793-9865-4d59-9109-f53085ac6356"},"vehicle_type_id":"4","last_reported":1773560802,"current_range_meters":9600,"station_id":"","pricing_plan_id":"cebpf4jnsgd1na2vs0mg"},{"bike_id":"98617173-6fdc-4310-b875-4375e3808dce","system_id":"levelo_inurba_marseille","lat":43.30399,"lon":5.42492,"is_reserved":false,"is_disabled":false,"rental_uris":{"android":"levelo://app?vid=98617173-6fdc-4310-b875-4375e3808dce","ios":"levelo://app?vid=98617173-6fdc-4310-b875-4375e3808dce"},"vehicle_type_id":"4","last_reported":1773560802,"current_range_meters":30400,"station_id":"ce4bghh2rcd13ifvqb60","pricing_plan_id":"cebpf4jnsgd1na2vs0mg"},{"bike_id":"155725a2-4e9c-4e7c-942b-f2b8be31f206","system_id":"levelo_inurba_marseille","lat":43.2174,"lon":5.34607,"is_reserved":false,"is_disabled":false,"rental_uris":{"android":"levelo://app?vid=155725a2-4e9c-4e7c-942b-f2b8be31f206","ios":"levelo://app?vid=155725a2-4e9c-4e7c-942b-f2b8be31f206"},"vehicle_type_id":"4","last_reported":1773560802,"current_range_meters":4000,"station_id":"st_cvj6r9ubvosntc0bgbag","pricing_plan_id":"cebpf4jnsgd1na2vs0mg"},{"bike_id":"5b9c3f93-1599-4fd0-b513-558b424405ce","system_id":"levelo_inurba_marseille","lat":43.32437,"lon":5.3657,"is_reserved":false,"is_disabled":false,"rental_uris":{"android":"levelo://app?vid=5b9c3f93-1599-4fd0-b513-558b424405ce","ios":"levelo://app?vid=5b9c3f93-1599-4fd0-b513-558b424405ce"},"vehicle_type_id":"4","last_reported":1773560802,"current_range_meters":39200,"station_id":"ce4bhs12rcd13ifvqhvg","pricing_plan_id":"cebpf4jnsgd1na2vs0mg"},{"bike_id":"56fddcda-c541-44a5-8391-f7fbf087f4ed","system_id":"levelo_inurba_marseille","lat":43.22585,"lon":5.41643,"is_reserved":false,"is_disabled":false,"rental_uris":{"android":"levelo://app?vid=56fddcda-c541-44a5-8391-f7fbf087f4ed","ios":"levelo://app?vid=56fddcda-c541-44a5-8391-f7fbf087f4ed"},"vehicle_type_id":"4","last_reported":1773560802,"current_range_meters":37600,"station_id":"st_d2o4gvlbi1j2169b742g","pricing_plan_id":"cebpf4jnsgd1na2vs0mg"},{"bike_id":"4cbd8e90-f6b2-4a15-9171-587e8d204326","system_id":"levelo_inurba_marseille","lat":43.30285,"lon":5.37717,"is_reserved":false,"is_disabled":false,"rental_uris":{"android":"levelo://app?vid=4cbd8e90-f6b2-4a15-9171-587e8d204326","ios":"levelo://app?vid=4cbd8e90-f6b2-4a15-9171-587e8d204326"},"vehicle_type_id":"4","last_reported":1773560802,"current_range_meters":30000,"station_id":"ce4bguh2rcd13ifvqcj0","pricing_plan_id":"cebpf4jnsgd1na2vs0mg"},{"bike_id":"03a83542-630e-44b6-8f5c-63cdf9535b52","system_id":"levelo_inurba_marseille","lat":43.27183,"lon":5.40984,"is_reserved":false,"is_disabled":false,"rental_uris":{"android":"levelo://app?vid=03a83542-630e-44b6-8f5c-63cdf9535b52","ios":"levelo://app?vid=03a83542-630e-44b6-8f5c-63cdf9535b52"},"vehicle_type_id":"4","last_reported":1773560802,"current_range_meters":38400,"station_id":"ce4bhl12rcd13ifvqgf0","pricing_plan_id":"cebpf4jnsgd1na2vs0mg"},{"bike_id":"6132fa1e-e648-4f3f-bbe2-b73d4186c8f9","system_id":"levelo_inurba_marseille","lat":43.26945,"lon":5.3866,"is_reserved":false,"is_disabled":false,"rental_uris":{"android":"levelo://app?vid=6132fa1e-e648-4f3f-bbe2-b73d4186c8f9","ios":"levelo://app?vid=6132fa1e-e648-4f3f-bbe2-b73d4186c8f9"},"vehicle_type_id":"4","last_reported":1773560802,"current_range_meters":7200,"station_id":"ce4bhh92rcd13ifvqfh0","pricing_plan_id":"cebpf4jnsgd1na2vs0mg"},{"bike_id":"6417b1a1-014e-46d5-a190-408c4d247525","system_id":"levelo_inurba_marseille","lat":43.26225,"lon":5.37479,"is_reserved":false,"is_disabled":false,"rental_uris":{"android":"levelo://app?vid=6417b1a1-014e-46d5-a190-408c4d247525","ios":"levelo://app?vid=6417b1a1-014e-46d5-a190-408c4d247525"},"vehicle_type_id":"4","last_reported":1773560802,"current_range_meters":16800,"station_id":"","pricing_plan_id":"cebpf4jnsgd1na2vs0mg"},{"bike_id":"d62496aa-ae67-4506-86fe-4bae90e8d5e7","system_id":"levelo_inurba_marseille","lat":43.30312,"lon":5.3689,"is_reserved":false,"is_disabled":false,"rental_uris":{"android":"levelo://app?vid=d62496aa-ae67-4506-86fe-4bae90e8d5e7","ios":"levelo://app?vid=d62496aa-ae67-4506-86fe-4bae90e8d5e7"},"vehicle_type_id":"4","last_reported":1773560802,"current_range_meters":30800,"station_id":"ce4bgqh2rcd13ifvqc5g","pricing_plan_id":"cebpf4jnsgd1na2vs0mg"},{"bike_id":"d213d92d-5289-4183-93be-f84e36b07244","system_id":"levelo_inurba_marseille","lat":43.29003,"lon":5.35616,"is_reserved":false,"is_disabled":false,"rental_uris":{"android":"levelo://app?vid=d213d92d-5289-4183-93be-f84e36b07244","ios":"levelo://app?vid=d213d92d-5289-4183-93be-f84e36b07244"},"vehicle_type_id":"4","last_reported":1773560802,"current_range_meters":24800,"station_id":"ce4bhb92rcd13ifvqen0","pricing_plan_id":"cebpf4jnsgd1na2vs0mg"},{"bike_id":"3721604d-75eb-47c0-8eeb-afa1175b1e3b","system_id":"levelo_inurba_marseille","lat":43.29265,"lon":5.40914,"is_reserved":false,"is_disabled":false,"rental_uris":{"android":"levelo://app?vid=3721604d-75eb-47c0-8eeb-afa1175b1e3b","ios":"levelo://app?vid=3721604d-75eb-47c0-8eeb-afa1175b1e3b"},"vehicle_type_id":"4","last_reported":1773560802,"current_range_meters":39200,"station_id":"ce4bh192rcd13ifvqdc0","pricing_plan_id":"cebpf4jnsgd1na2vs0mg"},{"bike_id":"2e2cafb6-e5c3-479c-8a76-66c5dfecc926","system_id":"levelo_inurba_marseille","lat":43.26198,"lon":5.37458,"is_reserved":false,"is_disabled":true,"rental_uris":{"android":"levelo://app?vid=2e2cafb6-e5c3-479c-8a76-66c5dfecc926","ios":"levelo://app?vid=2e2cafb6-e5c3-479c-8a76-66c5dfecc926"},"vehicle_type_id":"4","last_reported":1773560802,"current_range_meters":29600,"station_id":"ce4bhgp2rcd13ifvqfc0","pricing_plan_id":"cebpf4jnsgd1na2vs0mg"},{"bike_id":"d82c8d0e-a151-4bb6-8123-c44e6aaa877b","system_id":"levelo_inurba_marseille","lat":43.28466,"lon":5.35891,"is_reserved":false,"is_disabled":false,"rental_uris":{"android":"levelo://app?vid=d82c8d0e-a151-4bb6-8123-c44e6aaa877b","ios":"levelo://app?vid=d82c8d0e-a151-4bb6-8123-c44e6aaa877b"},"vehicle_type_id":"4","last_reported":1773560802,"current_range_meters":38800,"station_id":"ce4bhah2rcd13ifvqei0","pricing_plan_id":"cebpf4jnsgd1na2vs0mg"},{"bike_id":"6cb9e4d4-e6d8-4d27-bbfe-db79800749e6","system_id":"levelo_inurba_marseille","lat":43.29291,"lon":5.39618,"is_reserved":false,"is_disabled":false,"rental_uris":{"android":"levelo://app?vid=6cb9e4d4-e6d8-4d27-bbfe-db79800749e6","ios":"levelo://app?vid=6cb9e4d4-e6d8-4d27-bbfe-db79800749e6"},"vehicle_type_id":"4","last_reported":1773560802,"current_range_meters":30000,"station_id":"","pricing_plan_id":"cebpf4jnsgd1na2vs0mg"},{"bike_id":"7b4f3785-c03f-4f66-b614-089b31933102","system_id":"levelo_inurba_marseille","lat":43.25512,"lon":5.37684,"is_reserved":false,"is_disabled":false,"rental_uris":{"android":"levelo://app?vid=7b4f3785-c03f-4f66-b614-089b31933102","ios":"levelo://app?vid=7b4f3785-c03f-4f66-b614-089b31933102"},"vehicle_type_id":"4","last_reported":1773560802,"current_range_meters":29600,"station_id":"ce4bhh12rcd13ifvqff0","pricing_plan_id":"cebpf4jnsgd1na2vs0mg"},{"bike_id":"64cb11d8-bc37-4a15-a669-e069df95243e","system_id":"levelo_inurba_marseille","lat":43.31895,"lon":5.40731,"is_reserved":false,"is_disabled":false,"rental_uris":{"android":"levelo://app?vid=64cb11d8-bc37-4a15-a669-e069df95243e","ios":"levelo://app?vid=64cb11d8-bc37-4a15-a669-e069df95243e"},"vehicle_type_id":"4","last_reported":1773560802,"current_range_meters":35200,"station_id":"ce4bhq12rcd13ifvqhig","pricing_plan_id":"cebpf4jnsgd1na2vs0mg"},{"bike_id":"242e55c9-ac4f-4aec-81c1-865b2142177b","system_id":"levelo_inurba_marseille","lat":43.22942,"lon":5.3538,"is_reserved":false,"is_disabled":false,"rental_uris":{"android":"levelo://app?vid=242e55c9-ac4f-4aec-81c1-865b2142177b","ios":"levelo://app?vid=242e55c9-ac4f-4aec-81c1-865b2142177b"},"vehicle_type_id":"4","last_reported":1773560802,"current_range_meters":9600,"station_id":"cpo3532slgdg3j2ikp40","pricing_plan_id":"cebpf4jnsgd1na2vs0mg"},{"bike_id":"9e663960-b898-4d9b-b3fc-cc012c944d0f","system_id":"levelo_inurba_marseille","lat":43.30323,"lon":5.36905,"is_reserved":false,"is_disabled":false,"rental_uris":{"android":"levelo://app?vid=9e663960-b898-4d9b-b3fc-cc012c944d0f","ios":"levelo://app?vid=9e663960-b898-4d9b-b3fc-cc012c944d0f"},"vehicle_type_id":"4","last_reported":1773560802,"current_range_meters":32400,"station_id":"ce4bgqh2rcd13ifvqc5g","pricing_plan_id":"cebpf4jnsgd1na2vs0mg"},{"bike_id":"ac325101-b5a7-4f5d-9bc7-aba501847b2e","system_id":"levelo_inurba_marseille","lat":43.27369,"lon":5.3626,"is_reserved":false,"is_disabled":true,"rental_uris":{"android":"levelo://app?vid=ac325101-b5a7-4f5d-9bc7-aba501847b2e","ios":"levelo://app?vid=ac325101-b5a7-4f5d-9bc7-aba501847b2e"},"vehicle_type_id":"4","last_reported":1773560802,"current_range_meters":38000,"station_id":"ce4bhbh2rcd13ifvqeo0","pricing_plan_id":"cebpf4jnsgd1na2vs0mg"},{"bike_id":"cffdf26c-1919-4029-87b5-8b45a2bc0447","system_id":"levelo_inurba_marseille","lat":43.29596,"lon":5.3676,"is_reserved":false,"is_disabled":true,"rental_uris":{"android":"levelo://app?vid=cffdf26c-1919-4029-87b5-8b45a2bc0447","ios":"levelo://app?vid=cffdf26c-1919-4029-87b5-8b45a2bc0447"},"vehicle_type_id":"4","last_reported":1773560802,"current_range_meters":38400,"station_id":"ce4bgph2rcd13ifvqc2g","pricing_plan_id":"cebpf4jnsgd1na2vs0mg"},{"bike_id":"8c073acc-49ea-416e-aaf4-e662605a67ea","system_id":"levelo_inurba_marseille","lat":43.29943,"lon":5.37467,"is_reserved":false,"is_disabled":false,"rental_uris":{"android":"levelo://app?vid=8c073acc-49ea-416e-aaf4-e662605a67ea","ios":"levelo://app?vid=8c073acc-49ea-416e-aaf4-e662605a67ea"},"vehicle_type_id":"4","last_reported":1773560802,"current_range_meters":4800,"station_id":"ce4bgjh2rcd13ifvqbg0","pricing_plan_id":"cebpf4jnsgd1na2vs0mg"},{"bike_id":"cb969723-c1c1-4dae-93f6-1fb61cdfb887","system_id":"levelo_inurba_marseille","lat":43.23778,"lon":5.36647,"is_reserved":false,"is_disabled":false,"rental_uris":{"android":"levelo://app?vid=cb969723-c1c1-4dae-93f6-1fb61cdfb887","ios":"levelo://app?vid=cb969723-c1c1-4dae-93f6-1fb61cdfb887"},"vehicle_type_id":"4","last_reported":1773560802,"current_range_meters":28400,"station_id":"st_d3nk18o9ro0c73en2l3g","pricing_plan_id":"cebpf4jnsgd1na2vs0mg"},{"bike_id":"6840f6df-3461-42c8-98d7-357f6584e26f","system_id":"levelo_inurba_marseille","lat":43.28072,"lon":5.39678,"is_reserved":false,"is_disabled":false,"rental_uris":{"android":"levelo://app?vid=6840f6df-3461-42c8-98d7-357f6584e26f","ios":"levelo://app?vid=6840f6df-3461-42c8-98d7-357f6584e26f"},"vehicle_type_id":"4","last_reported":1773560802,"current_range_meters":33200,"station_id":"ce4bho12rcd13ifvqh2g","pricing_plan_id":"cebpf4jnsgd1na2vs0mg"},{"bike_id":"b942e0d0-9e2e-455a-be25-3292fa32d5f9","system_id":"levelo_inurba_marseille","lat":43.31338,"lon":5.39704,"is_reserved":false,"is_disabled":false,"rental_uris":{"android":"levelo://app?vid=b942e0d0-9e2e-455a-be25-3292fa32d5f9","ios":"levelo://app?vid=b942e0d0-9e2e-455a-be25-3292fa32d5f9"},"vehicle_type_id":"4","last_reported":1773560802,"current_range_meters":26000,"station_id":"ce4bgvp2rcd13ifvqcu0","pricing_plan_id":"cebpf4jnsgd1na2vs0mg"},{"bike_id":"c94288f2-a497-4ad8-8895-742d04d19603","system_id":"levelo_inurba_marseille","lat":43.29181,"lon":5.35808,"is_reserved":false,"is_disabled":false,"rental_uris":{"android":"levelo://app?vid=c94288f2-a497-4ad8-8895-742d04d19603","ios":"levelo://app?vid=c94288f2-a497-4ad8-8895-742d04d19603"},"vehicle_type_id":"4","last_reported":1773560802,"current_range_meters":28800,"station_id":"ce4bhb12rcd13ifvqel0","pricing_plan_id":"cebpf4jnsgd1na2vs0mg"},{"bike_id":"13b759af-9f39-4385-b233-8157f102d0b7","system_id":"levelo_inurba_marseille","lat":43.23967,"lon":5.36653,"is_reserved":false,"is_disabled":false,"rental_uris":{"android":"levelo://app?vid=13b759af-9f39-4385-b233-8157f102d0b7","ios":"levelo://app?vid=13b759af-9f39-4385-b233-8157f102d0b7"},"vehicle_type_id":"4","last_reported":1773560802,"current_range_meters":39200,"station_id":"ce4bhi12rcd13ifvqfp0","pricing_plan_id":"cebpf4jnsgd1na2vs0mg"},{"bike_id":"85f4745b-ab68-4297-8f93-949367de0bfe","system_id":"levelo_inurba_marseille","lat":43.28466,"lon":5.39204,"is_reserved":false,"is_disabled":false,"rental_uris":{"android":"levelo://app?vid=85f4745b-ab68-4297-8f93-949367de0bfe","ios":"levelo://app?vid=85f4745b-ab68-4297-8f93-949367de0bfe"},"vehicle_type_id":"4","last_reported":1773560802,"current_range_meters":35600,"station_id":"ce4bhoh2rcd13ifvqh5g","pricing_plan_id":"cebpf4jnsgd1na2vs0mg"},{"bike_id":"ce85a082-729f-4db7-99c1-d945817661a9","system_id":"levelo_inurba_marseille","lat":43.29586,"lon":5.3675,"is_reserved":false,"is_disabled":false,"rental_uris":{"android":"levelo://app?vid=ce85a082-729f-4db7-99c1-d945817661a9","ios":"levelo://app?vid=ce85a082-729f-4db7-99c1-d945817661a9"},"vehicle_type_id":"4","last_reported":1773560802,"current_range_meters":33200,"station_id":"ce4bgph2rcd13ifvqc2g","pricing_plan_id":"cebpf4jnsgd1na2vs0mg"},{"bike_id":"4750752f-43ad-45f1-98e9-dda63ab4c2f6","system_id":"levelo_inurba_marseille","lat":43.31273,"lon":5.40175,"is_reserved":false,"is_disabled":false,"rental_uris":{"android":"levelo://app?vid=4750752f-43ad-45f1-98e9-dda63ab4c2f6","ios":"levelo://app?vid=4750752f-43ad-45f1-98e9-dda63ab4c2f6"},"vehicle_type_id":"4","last_reported":1773560802,"current_range_meters":38400,"station_id":"ce4bh092rcd13ifvqd30","pricing_plan_id":"cebpf4jnsgd1na2vs0mg"},{"bike_id":"93c8107a-44d9-4b92-a485-08cbd24bb80c","system_id":"levelo_inurba_marseille","lat":43.28628,"lon":5.35136,"is_reserved":false,"is_disabled":false,"rental_uris":{"android":"levelo://app?vid=93c8107a-44d9-4b92-a485-08cbd24bb80c","ios":"levelo://app?vid=93c8107a-44d9-4b92-a485-08cbd24bb80c"},"vehicle_type_id":"4","last_reported":1773560802,"current_range_meters":10800,"station_id":"ce4bhch2rcd13ifvqeug","pricing_plan_id":"cebpf4jnsgd1na2vs0mg"},{"bike_id":"4605d0eb-aef4-494c-b103-fe3cbd9a939f","system_id":"levelo_inurba_marseille","lat":43.26062,"lon":5.39399,"is_reserved":false,"is_disabled":false,"rental_uris":{"android":"levelo://app?vid=4605d0eb-aef4-494c-b103-fe3cbd9a939f","ios":"levelo://app?vid=4605d0eb-aef4-494c-b103-fe3cbd9a939f"},"vehicle_type_id":"4","last_reported":1773560802,"current_range_meters":16800,"station_id":"ce4bhh92rcd13ifvqfj0","pricing_plan_id":"cebpf4jnsgd1na2vs0mg"},{"bike_id":"a21c9052-194a-4dba-83d6-8d833c630fff","system_id":"levelo_inurba_marseille","lat":43.24813,"lon":5.37461,"is_reserved":false,"is_disabled":false,"rental_uris":{"android":"levelo://app?vid=a21c9052-194a-4dba-83d6-8d833c630fff","ios":"levelo://app?vid=a21c9052-194a-4dba-83d6-8d833c630fff"},