{"last_updated":1746609098,"ttl":60,"version":"2.2","data":{"bikes":[{"bike_id":"c319c3fd-0535-4684-aaee-b87868137d5b","system_id":"levelo_inurba_marseille","lat":43.29172,"lon":5.4003,"is_reserved":false,"is_disabled":false,"rental_uris":{"android":"levelo://app?vid=c319c3fd-0535-4684-aaee-b87868137d5b","ios":"levelo://app?vid=c319c3fd-0535-4684-aaee-b87868137d5b"},"vehicle_type_id":"4","last_reported":1746609098,"current_range_meters":2800,"station_id":"","pricing_plan_id":"cebpf4jnsgd1na2vs0mg"},{"bike_id":"83cc1842-773c-46bc-8be1-caa63d83c3c2","system_id":"levelo_inurba_marseille","lat":43.25907,"lon":5.39533,"is_reserved":false,"is_disabled":false,"rental_uris":{"android":"levelo://app?vid=83cc1842-773c-46bc-8be1-caa63d83c3c2","ios":"levelo://app?vid=83cc1842-773c-46bc-8be1-caa63d83c3c2"},"vehicle_type_id":"4","last_reported":1746609098,"current_range_meters":2800,"station_id":"","pricing_plan_id":"cebpf4jnsgd1na2vs0mg"},{"bike_id":"b529881f-0a6b-427e-9be8-df2040e5df5c","system_id":"levelo_inurba_marseille","lat":43.28543,"lon":5.39864,"is_reserved":false,"is_disabled":false,"rental_uris":{"android":"levelo://app?vid=b529881f-0a6b-427e-9be8-df2040e5df5c","ios":"levelo://app?vid=b529881f-0a6b-427e-9be8-df2040e5df5c"},"vehicle_type_id":"4","last_reported":1746609098,"current_range_meters":3200,"station_id":"","pricing_plan_id":"cebpf4jnsgd1na2vs0mg"},{"bike_id":"6dda2f29-adfe-471d-8d9e-0668cebba972","system_id":"levelo_inurba_marseille","lat":43.24178,"lon":5.39731,"is_reserved":false,"is_disabled":false,"rental_uris":{"android":"levelo://app?vid=6dda2f29-adfe-471d-8d9e-0668cebba972","ios":"levelo://app?vid=6dda2f29-adfe-471d-8d9e-0668cebba972"},"vehicle_type_id":"4","last_reported":1746609098,"current_range_meters":3600,"station_id":"ce4bhn12rcd13ifvqgpg","pricing_plan_id":"cebpf4jnsgd1na2vs0mg"},{"bike_id":"214a003f-a856-4a2d-abd4-bf11831fc261","system_id":"levelo_inurba_marseille","lat":43.30602,"lon":5.37232,"is_reserved":false,"is_disabled":true,"rental_uris":{"android":"levelo://app?vid=214a003f-a856-4a2d-abd4-bf11831fc261","ios":"levelo://app?vid=214a003f-a856-4a2d-abd4-bf11831fc261"},"vehicle_type_id":"4","last_reported":1746609098,"current_range_meters":4000,"station_id":"ce4bgqh2rcd13ifvqc4g","pricing_plan_id":"cebpf4jnsgd1na2vs0mg"},{"bike_id":"a96ecb1d-8c22-42e8-8e19-f6f3aa9dac63","system_id":"levelo_inurba_marseille","lat":43.3188,"lon":5.36987,"is_reserved":false,"is_disabled":false,"rental_uris":{"android":"levelo://app?vid=a96ecb1d-8c22-42e8-8e19-f6f3aa9dac63","ios":"levelo://app?vid=a96ecb1d-8c22-42e8-8e19-f6f3aa9dac63"},"vehicle_type_id":"4","last_reported":1746609098,"current_range_meters":4000,"station_id":"","pricing_plan_id":"cebpf4jnsgd1na2vs0mg"},{"bike_id":"961d2d5d-61e2-4869-bd64-5648b146b504","system_id":"levelo_inurba_marseille","lat":43.26552,"lon":5.37285,"is_reserved":false,"is_disabled":false,"rental_uris":{"android":"levelo://app?vid=961d2d5d-61e2-4869-bd64-5648b146b504","ios":"levelo://app?vid=961d2d5d-61e2-4869-bd64-5648b146b504"},"vehicle_type_id":"4","last_reported":1746609098,"current_range_meters":4000,"station_id":"ce4bhg12rcd13ifvqf70","pricing_plan_id":"cebpf4jnsgd1na2vs0mg"},{"bike_id":"ff8ed172-1f01-4319-8858-11589a0cb7a5","system_id":"levelo_inurba_marseille","lat":43.27331,"lon":5.39059,"is_reserved":false,"is_disabled":false,"rental_uris":{"android":"levelo://app?vid=ff8ed172-1f01-4319-8858-11589a0cb7a5","ios":"levelo://app?vid=ff8ed172-1f01-4319-8858-11589a0cb7a5"},"vehicle_type_id":"4","last_reported":1746609098,"current_range_meters":4000,"station_id":"ce4bhgp2rcd13ifvqfe0","pricing_plan_id":"cebpf4jnsgd1na2vs0mg"},{"bike_id":"a76ed20f-d073-4c41-9cb1-9ea1b0737c69","system_id":"levelo_inurba_marseille","lat":43.31315,"lon":5.39024,"is_reserved":false,"is_disabled":false,"rental_uris":{"android":"levelo://app?vid=a76ed20f-d073-4c41-9cb1-9ea1b0737c69","ios":"levelo://app?vid=a76ed20f-d073-4c41-9cb1-9ea1b0737c69"},"vehicle_type_id":"4","last_reported":1746609098,"current_range_meters":4800,"station_id":"","pricing_plan_id":"cebpf4jnsgd1na2vs0mg"},{"bike_id":"724738f0-b4bb-4c63-a485-430754f09ce7","system_id":"levelo_inurba_marseille","lat":43.3357,"lon":5.41037,"is_reserved":false,"is_disabled":false,"rental_uris":{"android":"levelo://app?vid=724738f0-b4bb-4c63-a485-430754f09ce7","ios":"levelo://app?vid=724738f0-b4bb-4c63-a485-430754f09ce7"},"vehicle_type_id":"4","last_reported":1746609098,"current_range_meters":4800,"station_id":"ce4bhqh2rcd13ifvqhmg","pricing_plan_id":"cebpf4jnsgd1na2vs0mg"},{"bike_id":"9d8f73eb-df09-4699-86a7-d631e2319093","system_id":"levelo_inurba_marseille","lat":43.26267,"lon":5.37431,"is_reserved":false,"is_disabled":false,"rental_uris":{"android":"levelo://app?vid=9d8f73eb-df09-4699-86a7-d631e2319093","ios":"levelo://app?vid=9d8f73eb-df09-4699-86a7-d631e2319093"},"vehicle_type_id":"4","last_reported":1746609098,"current_range_meters":5600,"station_id":"","pricing_plan_id":"cebpf4jnsgd1na2vs0mg"},{"bike_id":"cd874f70-1452-439c-826e-8a11a9645db3","system_id":"levelo_inurba_marseille","lat":43.32655,"lon":5.40998,"is_reserved":false,"is_disabled":false,"rental_uris":{"android":"levelo://app?vid=cd874f70-1452-439c-826e-8a11a9645db3","ios":"levelo://app?vid=cd874f70-1452-439c-826e-8a11a9645db3"},"vehicle_type_id":"4","last_reported":1746609098,"current_range_meters":6000,"station_id":"ce4bhpp2rcd13ifvqhgg","pricing_plan_id":"cebpf4jnsgd1na2vs0mg"},{"bike_id":"9e809d4f-16c8-4e62-a8ff-051f66739af5","system_id":"levelo_inurba_marseille","lat":43.27054,"lon":5.40262,"is_reserved":false,"is_disabled":false,"rental_uris":{"android":"levelo://app?vid=9e809d4f-16c8-4e62-a8ff-051f66739af5","ios":"levelo://app?vid=9e809d4f-16c8-4e62-a8ff-051f66739af5"},"vehicle_type_id":"4","last_reported":1746609098,"current_range_meters":6000,"station_id":"ce4bhk92rcd13ifvqgc0","pricing_plan_id":"cebpf4jnsgd1na2vs0mg"},{"bike_id":"099c0da2-7d68-4ff6-a775-50bcbfeab94e","system_id":"levelo_inurba_marseille","lat":43.33635,"lon":5.40977,"is_reserved":false,"is_disabled":false,"rental_uris":{"android":"levelo://app?vid=099c0da2-7d68-4ff6-a775-50bcbfeab94e","ios":"levelo://app?vid=099c0da2-7d68-4ff6-a775-50bcbfeab94e"},"vehicle_type_id":"4","last_reported":1746609098,"current_range_meters":6400,"station_id":"","pricing_plan_id":"cebpf4jnsgd1na2vs0mg"},{"bike_id":"2abfa4c1-f999-4481-b63b-a4cd267a5cdf","system_id":"levelo_inurba_marseille","lat":43.31802,"lon":5.37444,"is_reserved":false,"is_disabled":false,"rental_uris":{"android":"levelo://app?vid=2abfa4c1-f999-4481-b63b-a4cd267a5cdf","ios":"levelo://app?vid=2abfa4c1-f999-4481-b63b-a4cd267a5cdf"},"vehicle_type_id":"4","last_reported":1746609098,"current_range_meters":6400,"station_id":"","pricing_plan_id":"cebpf4jnsgd1na2vs0mg"},{"bike_id":"dc14f7a4-5db2-4669-bcf2-e93e80b84632","system_id":"levelo_inurba_marseille","lat":43.26222,"lon":5.40473,"is_reserved":false,"is_disabled":false,"rental_uris":{"android":"levelo://app?vid=dc14f7a4-5db2-4669-bcf2-e93e80b84632","ios":"levelo://app?vid=dc14f7a4-5db2-4669-bcf2-e93e80b84632"},"vehicle_type_id":"4","last_reported":1746609098,"current_range_meters":6400,"station_id":"ce4bhmh2rcd13ifvqgmg","pricing_plan_id":"cebpf4jnsgd1na2vs0mg"},{"bike_id":"c838c4a2-a95e-4306-827e-f83fa1ce88c3","system_id":"levelo_inurba_marseille","lat":43.24076,"lon":5.3775,"is_reserved":false,"is_disabled":false,"rental_uris":{"android":"levelo://app?vid=c838c4a2-a95e-4306-827e-f83fa1ce88c3","ios":"levelo://app?vid=c838c4a2-a95e-4306-827e-f83fa1ce88c3"},"vehicle_type_id":"4","last_reported":1746609098,"current_range_meters":6400,"station_id":"ce4bhnp2rcd13ifvqgvg","pricing_plan_id":"cebpf4jnsgd1na2vs0mg"},{"bike_id":"39ef5996-73dc-4c0d-b341-6ff222e73f4d","system_id":"levelo_inurba_marseille","lat":43.30592,"lon":5.37224,"is_reserved":false,"is_disabled":false,"rental_uris":{"android":"levelo://app?vid=39ef5996-73dc-4c0d-b341-6ff222e73f4d","ios":"levelo://app?vid=39ef5996-73dc-4c0d-b341-6ff222e73f4d"},"vehicle_type_id":"4","last_reported":1746609098,"current_range_meters":9200,"station_id":"ce4bgqh2rcd13ifvqc4g","pricing_plan_id":"cebpf4jnsgd1na2vs0mg"},{"bike_id":"4e8158e1-1702-40e0-9730-bfdf43f877c8","system_id":"levelo_inurba_marseille","lat":43.2749,"lon":5.42466,"is_reserved":false,"is_disabled":false,"rental_uris":{"android":"levelo://app?vid=4e8158e1-1702-40e0-9730-bfdf43f877c8","ios":"levelo://app?vid=4e8158e1-1702-40e0-9730-bfdf43f877c8"},"vehicle_type_id":"4","last_reported":1746609098,"current_range_meters":6800,"station_id":"ce4bhn92rcd13ifvqgrg","pricing_plan_id":"cebpf4jnsgd1na2vs0mg"},{"bike_id":"7735f831-86a3-46b0-8e7b-1ab594c8e639","system_id":"levelo_inurba_marseille","lat":43.2594,"lon":5.40904,"is_reserved":false,"is_disabled":false,"rental_uris":{"android":"levelo://app?vid=7735f831-86a3-46b0-8e7b-1ab594c8e639","ios":"levelo://app?vid=7735f831-86a3-46b0-8e7b-1ab594c8e639"},"vehicle_type_id":"4","last_reported":1746609098,"current_range_meters":6800,"station_id":"ce4bhm92rcd13ifvqglg","pricing_plan_id":"cebpf4jnsgd1na2vs0mg"},{"bike_id":"736fd015-bba6-471c-b0b0-5955c48d2d0e","system_id":"levelo_inurba_marseille","lat":43.3108,"lon":5.42433,"is_reserved":false,"is_disabled":false,"rental_uris":{"android":"levelo://app?vid=736fd015-bba6-471c-b0b0-5955c48d2d0e","ios":"levelo://app?vid=736fd015-bba6-471c-b0b0-5955c48d2d0e"},"vehicle_type_id":"4","last_reported":1746609098,"current_range_meters":6800,"station_id":"ce4bhp92rcd13ifvqhag","pricing_plan_id":"cebpf4jnsgd1na2vs0mg"},{"bike_id":"c2fff035-6128-402a-b38b-ebc94261b3d8","system_id":"levelo_inurba_marseille","lat":43.21197,"lon":5.35053,"is_reserved":false,"is_disabled":false,"rental_uris":{"android":"levelo://app?vid=c2fff035-6128-402a-b38b-ebc94261b3d8","ios":"levelo://app?vid=c2fff035-6128-402a-b38b-ebc94261b3d8"},"vehicle_type_id":"4","last_reported":1746609098,"current_range_meters":6800,"station_id":"st_cvj6sg6p6f1abm77japg","pricing_plan_id":"cebpf4jnsgd1na2vs0mg"},{"bike_id":"3e9abd31-89f7-4c2a-a114-fb5f3a915978","system_id":"levelo_inurba_marseille","lat":43.29268,"lon":5.3762,"is_reserved":false,"is_disabled":false,"rental_uris":{"android":"levelo://app?vid=3e9abd31-89f7-4c2a-a114-fb5f3a915978","ios":"levelo://app?vid=3e9abd31-89f7-4c2a-a114-fb5f3a915978"},"vehicle_type_id":"4","last_reported":1746609098,"current_range_meters":6800,"station_id":"ce4bgi12rcd13ifvqb80","pricing_plan_id":"cebpf4jnsgd1na2vs0mg"},{"bike_id":"503569af-07db-461f-918e-29f89d0c1c24","system_id":"levelo_inurba_marseille","lat":43.22502,"lon":5.34776,"is_reserved":false,"is_disabled":false,"rental_uris":{"android":"levelo://app?vid=503569af-07db-461f-918e-29f89d0c1c24","ios":"levelo://app?vid=503569af-07db-461f-918e-29f89d0c1c24"},"vehicle_type_id":"4","last_reported":1746609098,"current_range_meters":6800,"station_id":"st_cvj5dfep6f1abm77gieg","pricing_plan_id":"cebpf4jnsgd1na2vs0mg"},{"bike_id":"5bb7e41e-3f33-4c47-a08f-c83f8c72d2e7","system_id":"levelo_inurba_marseille","lat":43.27491,"lon":5.42453,"is_reserved":false,"is_disabled":false,"rental_uris":{"android":"levelo://app?vid=5bb7e41e-3f33-4c47-a08f-c83f8c72d2e7","ios":"levelo://app?vid=5bb7e41e-3f33-4c47-a08f-c83f8c72d2e7"},"vehicle_type_id":"4","last_reported":1746609098,"current_range_meters":6800,"station_id":"ce4bhn92rcd13ifvqgrg","pricing_plan_id":"cebpf4jnsgd1na2vs0mg"},{"bike_id":"6be342f4-914c-4fa8-9a13-66bf958aad25","system_id":"levelo_inurba_marseille","lat":43.29368,"lon":5.3785,"is_reserved":false,"is_disabled":false,"rental_uris":{"android":"levelo://app?vid=6be342f4-914c-4fa8-9a13-66bf958aad25","ios":"levelo://app?vid=6be342f4-914c-4fa8-9a13-66bf958aad25"},"vehicle_type_id":"4","last_reported":1746609098,"current_range_meters":7200,"station_id":"ce4bgjh2rcd13ifvqbf0","pricing_plan_id":"cebpf4jnsgd1na2vs0mg"},{"bike_id":"42ad0894-2e14-4a3d-8f13-a6d3a19e0ed5","system_id":"levelo_inurba_marseille","lat":43.30954,"lon":5.39042,"is_reserved":false,"is_disabled":false,"rental_uris":{"android":"levelo://app?vid=42ad0894-2e14-4a3d-8f13-a6d3a19e0ed5","ios":"levelo://app?vid=42ad0894-2e14-4a3d-8f13-a6d3a19e0ed5"},"vehicle_type_id":"4","last_reported":1746609098,"current_range_meters":7200,"station_id":"ce4bgup2rcd13ifvqco0","pricing_plan_id":"cebpf4jnsgd1na2vs0mg"},{"bike_id":"5381626f-fc99-43af-b720-010fe743e3f8","system_id":"levelo_inurba_marseille","lat":43.29004,"lon":5.35609,"is_reserved":false,"is_disabled":false,"rental_uris":{"android":"levelo://app?vid=5381626f-fc99-43af-b720-010fe743e3f8","ios":"levelo://app?vid=5381626f-fc99-43af-b720-010fe743e3f8"},"vehicle_type_id":"4","last_reported":1746609098,"current_range_meters":7200,"station_id":"ce4bhb92rcd13ifvqen0","pricing_plan_id":"cebpf4jnsgd1na2vs0mg"},{"bike_id":"c9592205-9409-4f74-aed1-7c4141a58caa","system_id":"levelo_inurba_marseille","lat":43.27153,"lon":5.36362,"is_reserved":false,"is_disabled":false,"rental_uris":{"android":"levelo://app?vid=c9592205-9409-4f74-aed1-7c4141a58caa","ios":"levelo://app?vid=c9592205-9409-4f74-aed1-7c4141a58caa"},"vehicle_type_id":"4","last_reported":1746609098,"current_range_meters":7200,"station_id":"","pricing_plan_id":"cebpf4jnsgd1na2vs0mg"},{"bike_id":"f063e056-1d92-4aff-a5b3-abe124bae0b7","system_id":"levelo_inurba_marseille","lat":43.28704,"lon":5.40007,"is_reserved":false,"is_disabled":false,"rental_uris":{"android":"levelo://app?vid=f063e056-1d92-4aff-a5b3-abe124bae0b7","ios":"levelo://app?vid=f063e056-1d92-4aff-a5b3-abe124bae0b7"},"vehicle_type_id":"4","last_reported":1746609098,"current_range_meters":8000,"station_id":"ce4bho92rcd13ifvqh3g","pricing_plan_id":"cebpf4jnsgd1na2vs0mg"},{"bike_id":"b4bac287-3615-423a-bca2-a11fb80cb066","system_id":"levelo_inurba_marseille","lat":43.23057,"lon":5.3548,"is_reserved":false,"is_disabled":false,"rental_uris":{"android":"levelo://app?vid=b4bac287-3615-423a-bca2-a11fb80cb066","ios":"levelo://app?vid=b4bac287-3615-423a-bca2-a11fb80cb066"},"vehicle_type_id":"4","last_reported":1746609098,"current_range_meters":8000,"station_id":"cpo3342slgdg3j2ifvpg","pricing_plan_id":"cebpf4jnsgd1na2vs0mg"},{"bike_id":"19aac90a-3fb3-4e88-8da9-871bacda63cd","system_id":"levelo_inurba_marseille","lat":43.25942,"lon":5.40908,"is_reserved":false,"is_disabled":false,"rental_uris":{"android":"levelo://app?vid=19aac90a-3fb3-4e88-8da9-871bacda63cd","ios":"levelo://app?vid=19aac90a-3fb3-4e88-8da9-871bacda63cd"},"vehicle_type_id":"4","last_reported":1746609098,"current_range_meters":8000,"station_id":"ce4bhm92rcd13ifvqglg","pricing_plan_id":"cebpf4jnsgd1na2vs0mg"},{"bike_id":"cc9293f9-3a28-4065-9d90-a6ac45f9bb58","system_id":"levelo_inurba_marseille","lat":43.26198,"lon":5.37941,"is_reserved":false,"is_disabled":true,"rental_uris":{"android":"levelo://app?vid=cc9293f9-3a28-4065-9d90-a6ac45f9bb58","ios":"levelo://app?vid=cc9293f9-3a28-4065-9d90-a6ac45f9bb58"},"vehicle_type_id":"4","last_reported":1746609098,"current_range_meters":8000,"station_id":"ce4bhjp2rcd13ifvqg90","pricing_plan_id":"cebpf4jnsgd1na2vs0mg"},{"bike_id":"551c0181-ff6d-49f0-9442-bf4ffe9facd8","system_id":"levelo_inurba_marseille","lat":43.2175,"lon":5.34603,"is_reserved":false,"is_disabled":false,"rental_uris":{"android":"levelo://app?vid=551c0181-ff6d-49f0-9442-bf4ffe9facd8","ios":"levelo://app?vid=551c0181-ff6d-49f0-9442-bf4ffe9facd8"},"vehicle_type_id":"4","last_reported":1746609098,"current_range_meters":8000,"station_id":"st_cvj6r9ubvosntc0bgbag","pricing_plan_id":"cebpf4jnsgd1na2vs0mg"},{"bike_id":"943d0601-5d73-468b-922c-7ef604961a21","system_id":"levelo_inurba_marseille","lat":43.21173,"lon":5.35065,"is_reserved":false,"is_disabled":false,"rental_uris":{"android":"levelo://app?vid=943d0601-5d73-468b-922c-7ef604961a21","ios":"levelo://app?vid=943d0601-5d73-468b-922c-7ef604961a21"},"vehicle_type_id":"4","last_reported":1746609098,"current_range_meters":8000,"station_id":"st_cvj6sg6p6f1abm77japg","pricing_plan_id":"cebpf4jnsgd1na2vs0mg"},{"bike_id":"ea638f63-2cf6-47ab-af71-6cecf1287074","system_id":"levelo_inurba_marseille","lat":43.27492,"lon":5.42462,"is_reserved":false,"is_disabled":false,"rental_uris":{"android":"levelo://app?vid=ea638f63-2cf6-47ab-af71-6cecf1287074","ios":"levelo://app?vid=ea638f63-2cf6-47ab-af71-6cecf1287074"},"vehicle_type_id":"4","last_reported":1746609098,"current_range_meters":8400,"station_id":"ce4bhn92rcd13ifvqgrg","pricing_plan_id":"cebpf4jnsgd1na2vs0mg"},{"bike_id":"3185f3bd-afcb-40f2-94a4-747557095a72","system_id":"levelo_inurba_marseille","lat":43.3055,"lon":5.36704,"is_reserved":false,"is_disabled":false,"rental_uris":{"android":"levelo://app?vid=3185f3bd-afcb-40f2-94a4-747557095a72","ios":"levelo://app?vid=3185f3bd-afcb-40f2-94a4-747557095a72"},"vehicle_type_id":"4","last_reported":1746609098,"current_range_meters":8400,"station_id":"ce4bgrp2rcd13ifvqc9g","pricing_plan_id":"cebpf4jnsgd1na2vs0mg"},{"bike_id":"2db162a9-6814-4bce-978c-1159c8254bce","system_id":"levelo_inurba_marseille","lat":43.29258,"lon":5.38437,"is_reserved":false,"is_disabled":false,"rental_uris":{"android":"levelo://app?vid=2db162a9-6814-4bce-978c-1159c8254bce","ios":"levelo://app?vid=2db162a9-6814-4bce-978c-1159c8254bce"},"vehicle_type_id":"4","last_reported":1746609098,"current_range_meters":8400,"station_id":"ce4bh692rcd13ifvqea0","pricing_plan_id":"cebpf4jnsgd1na2vs0mg"},{"bike_id":"eb5d602e-a3ab-4f37-972a-9b57ce940f3b","system_id":"levelo_inurba_marseille","lat":43.31379,"lon":5.36714,"is_reserved":false,"is_disabled":false,"rental_uris":{"android":"levelo://app?vid=eb5d602e-a3ab-4f37-972a-9b57ce940f3b","ios":"levelo://app?vid=eb5d602e-a3ab-4f37-972a-9b57ce940f3b"},"vehicle_type_id":"4","last_reported":1746609098,"current_range_meters":8400,"station_id":"ce4bgr92rcd13ifvqc6g","pricing_plan_id":"cebpf4jnsgd1na2vs0mg"},{"bike_id":"339df808-39b3-44e1-9e60-6a628acbcec6","system_id":"levelo_inurba_marseille","lat":43.23192,"lon":5.35556,"is_reserved":false,"is_disabled":false,"rental_uris":{"android":"levelo://app?vid=339df808-39b3-44e1-9e60-6a628acbcec6","ios":"levelo://app?vid=339df808-39b3-44e1-9e60-6a628acbcec6"},"vehicle_type_id":"4","last_reported":1746609098,"current_range_meters":8400,"station_id":"ce4bhu92rcd13ifvqi70","pricing_plan_id":"cebpf4jnsgd1na2vs0mg"},{"bike_id":"3f84d55c-f7b3-443f-a8ba-1f83ba8291a2","system_id":"levelo_inurba_marseille","lat":43.21186,"lon":5.35075,"is_reserved":false,"is_disabled":false,"rental_uris":{"android":"levelo://app?vid=3f84d55c-f7b3-443f-a8ba-1f83ba8291a2","ios":"levelo://app?vid=3f84d55c-f7b3-443f-a8ba-1f83ba8291a2"},"vehicle_type_id":"4","last_reported":1746609098,"current_range_meters":8400,"station_id":"st_cvj6sg6p6f1abm77japg","pricing_plan_id":"cebpf4jnsgd1na2vs0mg"},{"bike_id":"b8473e14-df10-4bf9-abe3-37cfdad6200a","system_id":"levelo_inurba_marseille","lat":43.31339,"lon":5.36733,"is_reserved":false,"is_disabled":false,"rental_uris":{"android":"levelo://app?vid=b8473e14-df10-4bf9-abe3-37cfdad6200a","ios":"levelo://app?vid=b8473e14-df10-4bf9-abe3-37cfdad6200a"},"vehicle_type_id":"4","last_reported":1746609098,"current_range_meters":8800,"station_id":"ce4bgr92rcd13ifvqc6g","pricing_plan_id":"cebpf4jnsgd1na2vs0mg"},{"bike_id":"783fb5d6-d66b-4bf2-bcc8-d73887c625e7","system_id":"levelo_inurba_marseille","lat":43.30947,"lon":5.39033,"is_reserved":false,"is_disabled":false,"rental_uris":{"android":"levelo://app?vid=783fb5d6-d66b-4bf2-bcc8-d73887c625e7","ios":"levelo://app?vid=783fb5d6-d66b-4bf2-bcc8-d73887c625e7"},"vehicle_type_id":"4","last_reported":1746609098,"current_range_meters":12000,"station_id":"ce4bgup2rcd13ifvqco0","pricing_plan_id":"cebpf4jnsgd1na2vs0mg"},{"bike_id":"0e309cd1-77f6-4aa4-9145-01d98d8669a3","system_id":"levelo_inurba_marseille","lat":43.32058,"lon":5.41544,"is_reserved":false,"is_disabled":false,"rental_uris":{"android":"levelo://app?vid=0e309cd1-77f6-4aa4-9145-01d98d8669a3","ios":"levelo://app?vid=0e309cd1-77f6-4aa4-9145-01d98d8669a3"},"vehicle_type_id":"4","last_reported":1746609098,"current_range_meters":8800,"station_id":"ce4bhq92rcd13ifvqhkg","pricing_plan_id":"cebpf4jnsgd1na2vs0mg"},{"bike_id":"d5fee40b-76d8-41c5-92b0-bc3427530055","system_id":"levelo_inurba_marseille","lat":43.33609,"lon":5.41017,"is_reserved":false,"is_disabled":false,"rental_uris":{"android":"levelo://app?vid=d5fee40b-76d8-41c5-92b0-bc3427530055","ios":"levelo://app?vid=d5fee40b-76d8-41c5-92b0-bc3427530055"},"vehicle_type_id":"4","last_reported":1746609098,"current_range_meters":9200,"station_id":"ce4bhqh2rcd13ifvqhmg","pricing_plan_id":"cebpf4jnsgd1na2vs0mg"},{"bike_id":"f909d878-88c2-447a-bc4f-82f1db2e243c","system_id":"levelo_inurba_marseille","lat":43.3124,"lon":5.36871,"is_reserved":false,"is_disabled":false,"rental_uris":{"android":"levelo://app?vid=f909d878-88c2-447a-bc4f-82f1db2e243c","ios":"levelo://app?vid=f909d878-88c2-447a-bc4f-82f1db2e243c"},"vehicle_type_id":"4","last_reported":1746609098,"current_range_meters":9200,"station_id":"ce4bgl92rcd13ifvqbq0","pricing_plan_id":"cebpf4jnsgd1na2vs0mg"},{"bike_id":"ded9bd18-bc9a-4e74-9959-ea6270ccd83d","system_id":"levelo_inurba_marseille","lat":43.30533,"lon":5.36539,"is_reserved":false,"is_disabled":false,"rental_uris":{"android":"levelo://app?vid=ded9bd18-bc9a-4e74-9959-ea6270ccd83d","ios":"levelo://app?vid=ded9bd18-bc9a-4e74-9959-ea6270ccd83d"},"vehicle_type_id":"4","last_reported":1746609098,"current_range_meters":9200,"station_id":"ce4bgs12rcd13ifvqcag","pricing_plan_id":"cebpf4jnsgd1na2vs0mg"},{"bike_id":"65e48e71-3db6-42e7-9765-8bb0b06108e8","system_id":"levelo_inurba_marseille","lat":43.27313,"lon":5.39084,"is_reserved":false,"is_disabled":false,"rental_uris":{"android":"levelo://app?vid=65e48e71-3db6-42e7-9765-8bb0b06108e8","ios":"levelo://app?vid=65e48e71-3db6-42e7-9765-8bb0b06108e8"},"vehicle_type_id":"4","last_reported":1746609098,"current_range_meters":9200,"station_id":"ce4bhgp2rcd13ifvqfe0","pricing_plan_id":"cebpf4jnsgd1na2vs0mg"},{"bike_id":"e2cea721-ea68-4d34-bd76-01c6b198eb92","system_id":"levelo_inurba_marseille","lat":43.27991,"lon":5.41663,"is_reserved":false,"is_disabled":false,"rental_uris":{"android":"levelo://app?vid=e2cea721-ea68-4d34-bd76-01c6b198eb92","ios":"levelo://app?vid=e2cea721-ea68-4d34-bd76-01c6b198eb92"},"vehicle_type_id":"4","last_reported":1746609098,"current_range_meters":9200,"station_id":"ce4bho12rcd13ifvqh1g","pricing_plan_id":"cebpf4jnsgd1na2vs0mg"},{"bike_id":"f3d85d7c-4e1a-49e9-9762-e423b17e6ccf","system_id":"levelo_inurba_marseille","lat":43.32034,"lon":5.41564,"is_reserved":false,"is_disabled":false,"rental_uris":{"android":"levelo://app?vid=f3d85d7c-4e1a-49e9-9762-e423b17e6ccf","ios":"levelo://app?vid=f3d85d7c-4e1a-49e9-9762-e423b17e6ccf"},"vehicle_type_id":"4","last_reported":1746609098,"current_range_meters":9200,"station_id":"ce4bhq92rcd13ifvqhkg","pricing_plan_id":"cebpf4jnsgd1na2vs0mg"},{"bike_id":"e03e2225-6e70-4749-8f6c-1fc56563a33a","system_id":"levelo_inurba_marseille","lat":43.27495,"lon":5.42446,"is_reserved":false,"is_disabled":false,"rental_uris":{"android":"levelo://app?vid=e03e2225-6e70-4749-8f6c-1fc56563a33a","ios":"levelo://app?vid=e03e2225-6e70-4749-8f6c-1fc56563a33a"},"vehicle_type_id":"4","last_reported":1746609098,"current_range_meters":9200,"station_id":"ce4bhn92rcd13ifvqgrg","pricing_plan_id":"cebpf4jnsgd1na2vs0mg"},{"bike_id":"bd3b2178-bd6a-4801-b79f-10fa8392d3d4","system_id":"levelo_inurba_marseille","lat":43.312333,"lon":5.3688,"is_reserved":false,"is_disabled":false,"rental_uris":{"android":"levelo://app?vid=bd3b2178-bd6a-4801-b79f-10fa8392d3d4","ios":"levelo://app?vid=bd3b2178-bd6a-4801-b79f-10fa8392d3d4"},"vehicle_type_id":"4","last_reported":1746609098,"current_range_meters":9200,"station_id":"ce4bgl92rcd13ifvqbq0","pricing_plan_id":"cebpf4jnsgd1na2vs0mg"},{"bike_id":"bcccd0bf-6462-4ab6-8328-73845b4643a2","system_id":"levelo_inurba_marseille","lat":43.304147,"lon":5.412727,"is_reserved":false,"is_disabled":true,"rental_uris":{"android":"levelo://app?vid=bcccd0bf-6462-4ab6-8328-73845b4643a2","ios":"levelo://app?vid=bcccd0bf-6462-4ab6-8328-73845b4643a2"},"vehicle_type_id":"4","last_reported":1746609098,"current_range_meters":9600,"station_id":"ce4bhop2rcd13ifvqh8g","pricing_plan_id":"cebpf4jnsgd1na2vs0mg"},{"bike_id":"73061fd3-1c8d-4546-ad19-93a61ab0bedc","system_id":"levelo_inurba_marseille","lat":43.217438,"lon":5.34606,"is_reserved":false,"is_disabled":false,"rental_uris":{"android":"levelo://app?vid=73061fd3-1c8d-4546-ad19-93a61ab0bedc","ios":"levelo://app?vid=73061fd3-1c8d-4546-ad19-93a61ab0bedc"},"vehicle_type_id":"4","last_reported":1746609098,"current_range_meters":9600,"station_id":"st_cvj6r9ubvosntc0bgbag","pricing_plan_id":"cebpf4jnsgd1na2vs0mg"},{"bike_id":"b2e862b9-fc57-4c93-9e03-659c6fda2007","system_id":"levelo_inurba_marseille","lat":43.29369,"lon":5.37851,"is_reserved":false,"is_disabled":false,"rental_uris":{"android":"levelo://app?vid=b2e862b9-fc57-4c93-9e03-659c6fda2007","ios":"levelo://app?vid=b2e862b9-fc57-4c93-9e03-659c6fda2007"},"vehicle_type_id":"4","last_reported":1746609098,"current_range_meters":9600,"station_id":"ce4bgjh2rcd13ifvqbf0","pricing_plan_id":"cebpf4jnsgd1na2vs0mg"},{"bike_id":"384fac82-f6d4-48ab-aacf-c251f46cf0c1","system_id":"levelo_inurba_marseille","lat":43.26235,"lon":5.40442,"is_reserved":false,"is_disabled":false,"rental_uris":{"android":"levelo://app?vid=384fac82-f6d4-48ab-aacf-c251f46cf0c1","ios":"levelo://app?vid=384fac82-f6d4-48ab-aacf-c251f46cf0c1"},"vehicle_type_id":"4","last_reported":1746609098,"current_range_meters":9600,"station_id":"ce4bhmh2rcd13ifvqgmg","pricing_plan_id":"cebpf4jnsgd1na2vs0mg"},{"bike_id":"23046318-4edd-48bf-a1f0-1eeda00d0782","system_id":"levelo_inurba_marseille","lat":43.27485,"lon":5.42467,"is_reserved":false,"is_disabled":true,"rental_uris":{"android":"levelo://app?vid=23046318-4edd-48bf-a1f0-1eeda00d0782","ios":"levelo://app?vid=23046318-4edd-48bf-a1f0-1eeda00d0782"},"vehicle_type_id":"4","last_reported":1746609098,"current_range_meters":10000,"station_id":"ce4bhn92rcd13ifvqgrg","pricing_plan_id":"cebpf4jnsgd1na2vs0mg"},{"bike_id":"dbf42f42-14c0-4947-9e03-00c6b4f1ba7e","system_id":"levelo_inurba_marseille","lat":43.26222,"lon":5.37431,"is_reserved":false,"is_disabled":false,"rental_uris":{"android":"levelo://app?vid=dbf42f42-14c0-4947-9e03-00c6b4f1ba7e","ios":"levelo://app?vid=dbf42f42-14c0-4947-9e03-00c6b4f1ba7e"},"vehicle_type_id":"4","last_reported":1746609098,"current_range_meters":10000,"station_id":"ce4bhgp2rcd13ifvqfc0","pricing_plan_id":"cebpf4jnsgd1na2vs0mg"},{"bike_id":"17616a2b-7660-4f92-a213-fb06bfd905e7","system_id":"levelo_inurba_marseille","lat":43.33676,"lon":5.40918,"is_reserved":false,"is_disabled":false,"rental_uris":{"android":"levelo://app?vid=17616a2b-7660-4f92-a213-fb06bfd905e7","ios":"levelo://app?vid=17616a2b-7660-4f92-a213-fb06bfd905e7"},"vehicle_type_id":"4","last_reported":1746609098,"current_range_meters":10000,"station_id":"","pricing_plan_id":"cebpf4jnsgd1na2vs0mg"},{"bike_id":"0feedf9c-9267-41ab-9e22-5d7a105fb2ec","system_id":"levelo_inurba_marseille","lat":43.3014,"lon":5.37416,"is_reserved":false,"is_disabled":false,"rental_uris":{"android":"levelo://app?vid=0feedf9c-9267-41ab-9e22-5d7a105fb2ec","ios":"levelo://app?vid=0feedf9c-9267-41ab-9e22-5d7a105fb2ec"},"vehicle_type_id":"4","last_reported":1746609098,"current_range_meters":10000,"station_id":"ce4bgs92rcd13ifvqcc0","pricing_plan_id":"cebpf4jnsgd1na2vs0mg"},{"bike_id":"8a5554a2-b62f-4371-8d49-519ad97fb9f1","system_id":"levelo_inurba_marseille","lat":43.33021,"lon":5.39025,"is_reserved":false,"is_disabled":false,"rental_uris":{"android":"levelo://app?vid=8a5554a2-b62f-4371-8d49-519ad97fb9f1","ios":"levelo://app?vid=8a5554a2-b62f-4371-8d49-519ad97fb9f1"},"vehicle_type_id":"4","last_reported":1746609098,"current_range_meters":10000,"station_id":"ce4bhr92rcd13ifvqhrg","pricing_plan_id":"cebpf4jnsgd1na2vs0mg"},{"bike_id":"f1442852-f71a-448f-b6c6-c6128acec5d3","system_id":"levelo_inurba_marseille","lat":43.30654,"lon":5.40096,"is_reserved":false,"is_disabled":true,"rental_uris":{"android":"levelo://app?vid=f1442852-f71a-448f-b6c6-c6128acec5d3","ios":"levelo://app?vid=f1442852-f71a-448f-b6c6-c6128acec5d3"},"vehicle_type_id":"4","last_reported":1746609098,"current_range_meters":10800,"station_id":"ce4bh112rcd13ifvqda0","pricing_plan_id":"cebpf4jnsgd1na2vs0mg"},{"bike_id":"7e37132a-4c68-4c0a-9c62-ed91f618809c","system_id":"levelo_inurba_marseille","lat":43.24395,"lon":5.3706,"is_reserved":false,"is_disabled":false,"rental_uris":{"android":"levelo://app?vid=7e37132a-4c68-4c0a-9c62-ed91f618809c","ios":"levelo://app?vid=7e37132a-4c68-4c0a-9c62-ed91f618809c"},"vehicle_type_id":"4","last_reported":1746609098,"current_range_meters":10800,"station_id":"ce4bhhh2rcd13ifvqfk0","pricing_plan_id":"cebpf4jnsgd1na2vs0mg"},{"bike_id":"c65b64f5-a38f-4b33-a48f-6bb6c6b32a53","system_id":"levelo_inurba_marseille","lat":43.21206,"lon":5.35071,"is_reserved":false,"is_disabled":false,"rental_uris":{"android":"levelo://app?vid=c65b64f5-a38f-4b33-a48f-6bb6c6b32a53","ios":"levelo://app?vid=c65b64f5-a38f-4b33-a48f-6bb6c6b32a53"},"vehicle_type_id":"4","last_reported":1746609098,"current_range_meters":10800,"station_id":"st_cvj6sg6p6f1abm77japg","pricing_plan_id":"cebpf4jnsgd1na2vs0mg"},{"bike_id":"8e6de374-7e07-47cf-a8c0-9b1a411738b5","system_id":"levelo_inurba_marseille","lat":43.33758,"lon":5.37423,"is_reserved":false,"is_disabled":false,"rental_uris":{"android":"levelo://app?vid=8e6de374-7e07-47cf-a8c0-9b1a411738b5","ios":"levelo://app?vid=8e6de374-7e07-47cf-a8c0-9b1a411738b5"},"vehicle_type_id":"4","last_reported":1746609098,"current_range_meters":10800,"station_id":"","pricing_plan_id":"cebpf4jnsgd1na2vs0mg"},{"bike_id":"75ba69fa-2440-45bb-8c13-666f88491ebf","system_id":"levelo_inurba_marseille","lat":43.30524,"lon":5.3654,"is_reserved":false,"is_disabled":false,"rental_uris":{"android":"levelo://app?vid=75ba69fa-2440-45bb-8c13-666f88491ebf","ios":"levelo://app?vid=75ba69fa-2440-45bb-8c13-666f88491ebf"},"vehicle_type_id":"4","last_reported":1746609098,"current_range_meters":11200,"station_id":"ce4bgs12rcd13ifvqcag","pricing_plan_id":"cebpf4jnsgd1na2vs0mg"},{"bike_id":"ac59816b-fbef-40e9-b39e-2542a991d4a7","system_id":"levelo_inurba_marseille","lat":43.32549,"lon":5.41428,"is_reserved":false,"is_disabled":false,"rental_uris":{"android":"levelo://app?vid=ac59816b-fbef-40e9-b39e-2542a991d4a7","ios":"levelo://app?vid=ac59816b-fbef-40e9-b39e-2542a991d4a7"},"vehicle_type_id":"4","last_reported":1746609098,"current_range_meters":11200,"station_id":"ce4bhq12rcd13ifvqhhg","pricing_plan_id":"cebpf4jnsgd1na2vs0mg"},{"bike_id":"741922f7-49ff-4751-a228-5a73f2c8c24d","system_id":"levelo_inurba_marseille","lat":43.241688,"lon":5.363982,"is_reserved":false,"is_disabled":false,"rental_uris":{"android":"levelo://app?vid=741922f7-49ff-4751-a228-5a73f2c8c24d","ios":"levelo://app?vid=741922f7-49ff-4751-a228-5a73f2c8c24d"},"vehicle_type_id":"4","last_reported":1746609098,"current_range_meters":11200,"station_id":"cpo36qri1sfpv3e86is0","pricing_plan_id":"cebpf4jnsgd1na2vs0mg"},{"bike_id":"ea657117-9946-4a85-ab24-029fc441c24b","system_id":"levelo_inurba_marseille","lat":43.29364,"lon":5.37857,"is_reserved":false,"is_disabled":false,"rental_uris":{"android":"levelo://app?vid=ea657117-9946-4a85-ab24-029fc441c24b","ios":"levelo://app?vid=ea657117-9946-4a85-ab24-029fc441c24b"},"vehicle_type_id":"4","last_reported":1746609098,"current_range_meters":11200,"station_id":"ce4bgjh2rcd13ifvqbf0","pricing_plan_id":"cebpf4jnsgd1na2vs0mg"},{"bike_id":"d5d3a0a4-9896-468e-a44a-8d18ae442981","system_id":"levelo_inurba_marseille","lat":43.298386,"lon":5.362764,"is_reserved":false,"is_disabled":false,"rental_uris":{"android":"levelo://app?vid=d5d3a0a4-9896-468e-a44a-8d18ae442981","ios":"levelo://app?vid=d5d3a0a4-9896-468e-a44a-8d18ae442981"},"vehicle_type_id":"4","last_reported":1746609098,"current_range_meters":11200,"station_id":"ce4bgpp2rcd13ifvqc3g","pricing_plan_id":"cebpf4jnsgd1na2vs0mg"},{"bike_id":"4d040c03-9712-4180-b1f5-cb78bc51fd3b","system_id":"levelo_inurba_marseille","lat":43.30967,"lon":5.39033,"is_reserved":false,"is_disabled":false,"rental_uris":{"android":"levelo://app?vid=4d040c03-9712-4180-b1f5-cb78bc51fd3b","ios":"levelo://app?vid=4d040c03-9712-4180-b1f5-cb78bc51fd3b"},"vehicle_type_id":"4","last_reported":1746609098,"current_range_meters":11600,"station_id":"ce4bgup2rcd13ifvqco0","pricing_plan_id":"cebpf4jnsgd1na2vs0mg"},{"bike_id":"1fc1d1e0-c8a6-4dd5-b25e-8366557b500a","system_id":"levelo_inurba_marseille","lat":43.28614,"lon":5.35107,"is_reserved":false,"is_disabled":false,"rental_uris":{"android":"levelo://app?vid=1fc1d1e0-c8a6-4dd5-b25e-8366557b500a","ios":"levelo://app?vid=1fc1d1e0-c8a6-4dd5-b25e-8366557b500a"},"vehicle_type_id":"4","last_reported":1746609098,"current_range_meters":11600,"station_id":"ce4bhch2rcd13ifvqeug","pricing_plan_id":"cebpf4jnsgd1na2vs0mg"},{"bike_id":"5a684592-94dd-449f-b4dc-914c2afe6916","system_id":"levelo_inurba_marseille","lat":43.31344,"lon":5.36749,"is_reserved":false,"is_disabled":false,"rental_uris":{"android":"levelo://app?vid=5a684592-94dd-449f-b4dc-914c2afe6916","ios":"levelo://app?vid=5a684592-94dd-449f-b4dc-914c2afe6916"},"vehicle_type_id":"4","last_reported":1746609098,"current_range_meters":11600,"station_id":"ce4bgr92rcd13ifvqc6g","pricing_plan_id":"cebpf4jnsgd1na2vs0mg"},{"bike_id":"47d2fd70-6980-4296-bfaf-01fe22c02520","system_id":"levelo_inurba_marseille","lat":43.30796,"lon":5.43507,"is_reserved":false,"is_disabled":true,"rental_uris":{"android":"levelo://app?vid=47d2fd70-6980-4296-bfaf-01fe22c02520","ios":"levelo://app?vid=47d2fd70-6980-4296-bfaf-01fe22c02520"},"vehicle_type_id":"4","last_reported":1746609098,"current_range_meters":12000,"station_id":"ce4bhph2rcd13ifvqheg","pricing_plan_id":"cebpf4jnsgd1na2vs0mg"},{"bike_id":"a898ade7-d149-439f-892a-a5fe69132e41","system_id":"levelo_inurba_marseille","lat":43.32359,"lon":5.36774,"is_reserved":false,"is_disabled":false,"rental_uris":{"android":"levelo://app?vid=a898ade7-d149-439f-892a-a5fe69132e41","ios":"levelo://app?vid=a898ade7-d149-439f-892a-a5fe69132e41"},"vehicle_type_id":"4","last_reported":1746609098,"current_range_meters":12000,"station_id":"ce4bhsh2rcd13ifvqi2g","pricing_plan_id":"cebpf4jnsgd1na2vs0mg"},{"bike_id":"e64ef014-e18b-4e97-ba9f-fd57efe9fa07","system_id":"levelo_inurba_marseille","lat":43.2961,"lon":5.37717,"is_reserved":false,"is_disabled":false,"rental_uris":{"android":"levelo://app?vid=e64ef014-e18b-4e97-ba9f-fd57efe9fa07","ios":"levelo://app?vid=e64ef014-e18b-4e97-ba9f-fd57efe9fa07"},"vehicle_type_id":"4","last_reported":1746609098,"current_range_meters":12400,"station_id":"ce4bgi92rcd13ifvqb90","pricing_plan_id":"cebpf4jnsgd1na2vs0mg"},{"bike_id":"9f2da385-aaba-4737-b0f9-207b345341bf","system_id":"levelo_inurba_marseille","lat":43.33609,"lon":5.41008,"is_reserved":false,"is_disabled":false,"rental_uris":{"android":"levelo://app?vid=9f2da385-aaba-4737-b0f9-207b345341bf","ios":"levelo://app?vid=9f2da385-aaba-4737-b0f9-207b345341bf"},"vehicle_type_id":"4","last_reported":1746609098,"current_range_meters":12400,"station_id":"ce4bhqh2rcd13ifvqhmg","pricing_plan_id":"cebpf4jnsgd1na2vs0mg"},{"bike_id":"1dbcfa5b-507f-4809-844b-7cce9a37d254","system_id":"levelo_inurba_marseille","lat":43.31273,"lon":5.40154,"is_reserved":false,"is_disabled":false,"rental_uris":{"android":"levelo://app?vid=1dbcfa5b-507f-4809-844b-7cce9a37d254","ios":"levelo://app?vid=1dbcfa5b-507f-4809-844b-7cce9a37d254"},"vehicle_type_id":"4","last_reported":1746609098,"current_range_meters":12800,"station_id":"ce4bh092rcd13ifvqd30","pricing_plan_id":"cebpf4jnsgd1na2vs0mg"},{"bike_id":"ff56e8c0-df4d-460d-9525-aea007cdf3b0","system_id":"levelo_inurba_marseille","lat":43.29633,"lon":5.40589,"is_reserved":false,"is_disabled":false,"rental_uris":{"android":"levelo://app?vid=ff56e8c0-df4d-460d-9525-aea007cdf3b0","ios":"levelo://app?vid=ff56e8c0-df4d-460d-9525-aea007cdf3b0"},"vehicle_type_id":"4","last_reported":1746609098,"current_range_meters":12800,"station_id":"ce4bh0h2rcd13ifvqd60","pricing_plan_id":"cebpf4jnsgd1na2vs0mg"},{"bike_id":"2714f713-c769-4f6a-ac44-441a635e9cba","system_id":"levelo_inurba_marseille","lat":43.21617,"lon":5.34248,"is_reserved":false,"is_disabled":false,"rental_uris":{"android":"levelo://app?vid=2714f713-c769-4f6a-ac44-441a635e9cba","ios":"levelo://app?vid=2714f713-c769-4f6a-ac44-441a635e9cba"},"vehicle_type_id":"4","last_reported":1746609098,"current_range_meters":12800,"station_id":"","pricing_plan_id":"cebpf4jnsgd1na2vs0mg"},{"bike_id":"a43278df-4e81-4b9f-addd-f05b442cbaa5","system_id":"levelo_inurba_marseille","lat":43.25933,"lon":5.40901,"is_reserved":false,"is_disabled":false,"rental_uris":{"android":"levelo://app?vid=a43278df-4e81-4b9f-addd-f05b442cbaa5","ios":"levelo://app?vid=a43278df-4e81-4b9f-addd-f05b442cbaa5"},"vehicle_type_id":"4","last_reported":1746609098,"current_range_meters":13600,"station_id":"ce4bhm92rcd13ifvqglg","pricing_plan_id":"cebpf4jnsgd1na2vs0mg"},{"bike_id":"1a63ad9e-f44f-4d6e-8b48-7dcd41dfd2c5","system_id":"levelo_inurba_marseille","lat":43.32051,"lon":5.41568,"is_reserved":false,"is_disabled":false,"rental_uris":{"android":"levelo://app?vid=1a63ad9e-f44f-4d6e-8b48-7dcd41dfd2c5","ios":"levelo://app?vid=1a63ad9e-f44f-4d6e-8b48-7dcd41dfd2c5"},"vehicle_type_id":"4","last_reported":1746609098,"current_range_meters":13600,"station_id":"ce4bhq92rcd13ifvqhkg","pricing_plan_id":"cebpf4jnsgd1na2vs0mg"},{"bike_id":"000a7379-399d-43de-9cad-9a3135c84e3a","system_id":"levelo_inurba_marseille","lat":43.293732,"lon":5.37858,"is_reserved":false,"is_disabled":true,"rental_uris":{"android":"levelo://app?vid=000a7379-399d-43de-9cad-9a3135c84e3a","ios":"levelo://app?vid=000a7379-399d-43de-9cad-9a3135c84e3a"},"vehicle_type_id":"4","last_reported":1746609098,"current_range_meters":13600,"station_id":"ce4bgjh2rcd13ifvqbf0","pricing_plan_id":"cebpf4jnsgd1na2vs0mg"},{"bike_id":"aacd0b21-2e2a-49ab-96a3-d1bf4e6f9616","system_id":"levelo_inurba_marseille","lat":43.29303,"lon":5.37443,"is_reserved":false,"is_disabled":false,"rental_uris":{"android":"levelo://app?vid=aacd0b21-2e2a-49ab-96a3-d1bf4e6f9616","ios":"levelo://app?vid=aacd0b21-2e2a-49ab-96a3-d1bf4e6f9616"},"vehicle_type_id":"4","last_reported":1746609098,"current_range_meters":14000,"station_id":"ce4bgi12rcd13ifvqb70","pricing_plan_id":"cebpf4jnsgd1na2vs0mg"},{"bike_id":"c1a8e414-0ae9-4fdd-92c1-17babaf3e324","system_id":"levelo_inurba_marseille","lat":43.27424,"lon":5.39419,"is_reserved":false,"is_disabled":false,"rental_uris":{"android":"levelo://app?vid=c1a8e414-0ae9-4fdd-92c1-17babaf3e324","ios":"levelo://app?vid=c1a8e414-0ae9-4fdd-92c1-17babaf3e324"},"vehicle_type_id":"4","last_reported":1746609098,"current_range_meters":14000,"station_id":"ce4bhdp2rcd13ifvqf20","pricing_plan_id":"cebpf4jnsgd1na2vs0mg"},{"bike_id":"9b0f9666-4b9d-45fe-86e0-aba419c0cf3f","system_id":"levelo_inurba_marseille","lat":43.33603,"lon":5.41006,"is_reserved":false,"is_disabled":false,"rental_uris":{"android":"levelo://app?vid=9b0f9666-4b9d-45fe-86e0-aba419c0cf3f","ios":"levelo://app?vid=9b0f9666-4b9d-45fe-86e0-aba419c0cf3f"},"vehicle_type_id":"4","last_reported":1746609098,"current_range_meters":14000,"station_id":"ce4bhqh2rcd13ifvqhmg","pricing_plan_id":"cebpf4jnsgd1na2vs0mg"},{"bike_id":"12d25d0a-4fe4-4ec6-8a91-2c2bf9fc2504","system_id":"levelo_inurba_marseille","lat":43.31363,"lon":5.36729,"is_reserved":false,"is_disabled":false,"rental_uris":{"android":"levelo://app?vid=12d25d0a-4fe4-4ec6-8a91-2c2bf9fc2504","ios":"levelo://app?vid=12d25d0a-4fe4-4ec6-8a91-2c2bf9fc2504"},"vehicle_type_id":"4","last_reported":1746609098,"current_range_meters":14000,"station_id":"ce4bgr92rcd13ifvqc6g","pricing_plan_id":"cebpf4jnsgd1na2vs0mg"},{"bike_id":"ce4b8159-c0b3-4a1f-8d63-28fbe483f5b1","system_id":"levelo_inurba_marseille","lat":43.33721,"lon":5.39184,"is_reserved":false,"is_disabled":false,"rental_uris":{"android":"levelo://app?vid=ce4b8159-c0b3-4a1f-8d63-28fbe483f5b1","ios":"levelo://app?vid=ce4b8159-c0b3-4a1f-8d63-28fbe483f5b1"},"vehicle_type_id":"4","last_reported":1746609098,"current_range_meters":14400,"station_id":"ce4bhr92rcd13ifvqhsg","pricing_plan_id":"cebpf4jnsgd1na2vs0mg"},{"bike_id":"0894f087-1793-4c32-8bd6-b22216f5bc08","system_id":"levelo_inurba_marseille","lat":43.22932,"lon":5.35377,"is_reserved":false,"is_disabled":false,"rental_uris":{"android":"levelo://app?vid=0894f087-1793-4c32-8bd6-b22216f5bc08","ios":"levelo://app?vid=0894f087-1793-4c32-8bd6-b22216f5bc08"},"vehicle_type_id":"4","last_reported":1746609098,"current_range_meters":14400,"station_id":"cpo3532slgdg3j2ikp40","pricing_plan_id":"cebpf4jnsgd1na2vs0mg"},{"bike_id":"47fdd7f8-e4df-4edc-bf26-a92cf466959a","system_id":"levelo_inurba_marseille","lat":43.25915,"lon":5.40923,"is_reserved":false,"is_disabled":false,"rental_uris":{"android":"levelo://app?vid=47fdd7f8-e4df-4edc-bf26-a92cf466959a","ios":"levelo://app?vid=47fdd7f8-e4df-4edc-bf26-a92cf466959a"},"vehicle_type_id":"4","last_reported":1746609098,"current_range_meters":14800,"station_id":"ce4bhm92rcd13ifvqglg","pricing_plan_id":"cebpf4jnsgd1na2vs0mg"},{"bike_id":"5006e242-e021-4d28-bc70-9d61c71a9d9c","system_id":"levelo_inurba_marseille","lat":43.28705,"lon":5.39991,"is_reserved":false,"is_disabled":false,"rental_uris":{"android":"levelo://app?vid=5006e242-e021-4d28-bc70-9d61c71a9d9c","ios":"levelo://app?vid=5006e242-e021-4d28-bc70-9d61c71a9d9c"},"vehicle_type_id":"4","last_reported":1746609098,"current_range_meters":14800,"station_id":"ce4bho92rcd13ifvqh3g","pricing_plan_id":"cebpf4jnsgd1na2vs0mg"},{"bike_id":"cad73dbd-538c-461e-8f5d-9f9cb63b32c3","system_id":"levelo_inurba_marseille","lat":43.2119,"lon":5.35085,"is_reserved":false,"is_disabled":true,"rental_uris":{"android":"levelo://app?vid=cad73dbd-538c-461e-8f5d-9f9cb63b32c3","ios":"levelo://app?vid=cad73dbd-538c-461e-8f5d-9f9cb63b32c3"},"vehicle_type_id":"4","last_reported":1746609098,"current_range_meters":14800,"station_id":"st_cvj6sg6p6f1abm77japg","pricing_plan_id":"cebpf4jnsgd1na2vs0mg"},{"bike_id":"6cce1156-f773-4808-ad62-c8ccf484b6ea","system_id":"levelo_inurba_marseille","lat":43.31245,"lon":5.36865,"is_reserved":false,"is_disabled":false,"rental_uris":{"android":"levelo://app?vid=6cce1156-f773-4808-ad62-c8ccf484b6ea","ios":"levelo://app?vid=6cce1156-f773-4808-ad62-c8ccf484b6ea"},"vehicle_type_id":"4","last_reported":1746609098,"current_range_meters":14800,"station_id":"ce4bgl92rcd13ifvqbq0","pricing_plan_id":"cebpf4jnsgd1na2vs0mg"},{"bike_id":"4d72812b-bb19-4b78-964c-33a8632983e7","system_id":"levelo_inurba_marseille","lat":43.28434,"lon":5.39176,"is_reserved":false,"is_disabled":false,"rental_uris":{"android":"levelo://app?vid=4d72812b-bb19-4b78-964c-33a8632983e7","ios":"levelo://app?vid=4d72812b-bb19-4b78-964c-33a8632983e7"},"vehicle_type_id":"4","last_reported":1746609098,"current_range_meters":14800,"station_id":"ce4bhoh2rcd13ifvqh5g","pricing_plan_id":"cebpf4jnsgd1na2vs0mg"},{"bike_id":"f45321ad-a54b-404d-981b-802d3c9e0607","system_id":"levelo_inurba_marseille","lat":43.21213,"lon":5.35066,"is_reserved":false,"is_disabled":false,"rental_uris":{"android":"levelo://app?vid=f45321ad-a54b-404d-981b-802d3c9e0607","ios":"levelo://app?vid=f45321ad-a54b-404d-981b-802d3c9e0607"},"vehicle_type_id":"4","last_reported":1746609098,"current_range_meters":15200,"station_id":"st_cvj6sg6p6f1abm77japg","pricing_plan_id":"cebpf4jnsgd1na2vs0mg"},{"bike_id":"90384ce3-0cb2-4a43-91e2-44d97efa93de","system_id":"levelo_inurba_marseille","lat":43.25926,"lon":5.40926,"is_reserved":false,"is_disabled":false,"rental_uris":{"android":"levelo://app?vid=90384ce3-0cb2-4a43-91e2-44d97efa93de","ios":"levelo://app?vid=90384ce3-0cb2-4a43-91e2-44d97efa93de"},"vehicle_type_id":"4","last_reported":1746609098,"current_range_meters":15200,"station_id":"ce4bhm92rcd13ifvqglg","pricing_plan_id":"cebpf4jnsgd1na2vs0mg"},{"bike_id":"ac700e2e-c129-4f82-a3c3-f628077933a6","system_id":"levelo_inurba_marseille","lat":43.21201,"lon":5.35059,"is_reserved":false,"is_disabled":false,"rental_uris":{"android":"levelo://app?vid=ac700e2e-c129-4f82-a3c3-f628077933a6","ios":"levelo://app?vid=ac700e2e-c129-4f82-a3c3-f628077933a6"},"vehicle_type_id":"4","last_reported":1746609098,"current_range_meters":15200,"station_id":"st_cvj6sg6p6f1abm77japg","pricing_plan_id":"cebpf4jnsgd1na2vs0mg"},{"bike_id":"cf412c68-dfbb-421d-8e40-ec9787962f68","system_id":"levelo_inurba_marseille","lat":43.28721,"lon":5.37301,"is_reserved":false,"is_disabled":false,"rental_uris":{"android":"levelo://app?vid=cf412c68-dfbb-421d-8e40-ec9787962f68","ios":"levelo://app?vid=cf412c68-dfbb-421d-8e40-ec9787962f68"},"vehicle_type_id":"4","last_reported":1746609098,"current_range_meters":15200,"station_id":"ce4bha92rcd13ifvqeg0","pricing_plan_id":"cebpf4jnsgd1na2vs0mg"},{"bike_id":"9fdebdcd-5e4b-4600-a11e-70dded51118b","system_id":"levelo_inurba_marseille","lat":43.29767,"lon":5.37119,"is_reserved":false,"is_disabled":false,"rental_uris":{"android":"levelo://app?vid=9fdebdcd-5e4b-4600-a11e-70dded51118b","ios":"levelo://app?vid=9fdebdcd-5e4b-4600-a11e-70dded51118b"},"vehicle_type_id":"4","last_reported":1746609098,"current_range_meters":15200,"station_id":"ce4bgop2rcd13ifvqc1g","pricing_plan_id":"cebpf4jnsgd1na2vs0mg"},{"bike_id":"6d736ab9-325c-46f7-9cd6-6f52b47875ee","system_id":"levelo_inurba_marseille","lat":43.24998,"lon":5.389303,"is_reserved":false,"is_disabled":false,"rental_uris":{"android":"levelo://app?vid=6d736ab9-325c-46f7-9cd6-6f52b47875ee","ios":"levelo://app?vid=6d736ab9-325c-46f7-9cd6-6f52b47875ee"},"vehicle_type_id":"4","last_reported":1746609098,"current_range_meters":16000,"station_id":"ce4bhgp2rcd13ifvqfd0","pricing_plan_id":"cebpf4jnsgd1na2vs0mg"},{"bike_id":"25a5fe2d-c149-47ad-a876-809075f6c85f","system_id":"levelo_inurba_marseille","lat":43.31342,"lon":5.36733,"is_reserved":false,"is_disabled":false,"rental_uris":{"android":"levelo://app?vid=25a5fe2d-c149-47ad-a876-809075f6c85f","ios":"levelo://app?vid=25a5fe2d-c149-47ad-a876-809075f6c85f"},"vehicle_type_id":"4","last_reported":1746609098,"current_range_meters":16000,"station_id":"ce4bgr92rcd13ifvqc6g","pricing_plan_id":"cebpf4jnsgd1na2vs0mg"},{"bike_id":"ee78e03a-0afa-4176-9461-8cd9d0c929c1","system_id":"levelo_inurba_marseille","lat":43.2655,"lon":5.3729,"is_reserved":false,"is_disabled":false,"rental_uris":{"android":"levelo://app?vid=ee78e03a-0afa-4176-9461-8cd9d0c929c1","ios":"levelo://app?vid=ee78e03a-0afa-4176-9461-8cd9d0c929c1"},"vehicle_type_id":"4","last_reported":1746609098,"current_range_meters":16400,"station_id":"ce4bhg12rcd13ifvqf70","pricing_plan_id":"cebpf4jnsgd1na2vs0mg"},{"bike_id":"64ad0b4d-baa3-4241-80cf-30e8592bb560","system_id":"levelo_inurba_marseille","lat":43.29875,"lon":5.3629,"is_reserved":false,"is_disabled":false,"rental_uris":{"android":"levelo://app?vid=64ad0b4d-baa3-4241-80cf-30e8592bb560","ios":"levelo://app?vid=64ad0b4d-baa3-4241-80cf-30e8592bb560"},"vehicle_type_id":"4","last_reported":1746609098,"current_range_meters":16800,"station_id":"ce4bgpp2rcd13ifvqc3g","pricing_plan_id":"cebpf4jnsgd1na2vs0mg"},{"bike_id":"a8356f2c-2a57-4859-8ab4-73c5bd83dee6","system_id":"levelo_inurba_marseille","lat":43.21748,"lon":5.346017,"is_reserved":false,"is_disabled":true,"rental_uris":{"android":"levelo://app?vid=a8356f2c-2a57-4859-8ab4-73c5bd83dee6","ios":"levelo://app?vid=a8356f2c-2a57-4859-8ab4-73c5bd83dee6"},"vehicle_type_id":"4","last_reported":1746609098,"current_range_meters":16800,"station_id":"","pricing_plan_id":"cebpf4jnsgd1na2vs0mg"},{"bike_id":"ced4dfa7-2b7d-43ef-a9ea-27eeeacf0b84","system_id":"levelo_inurba_marseille","lat":43.26066,"lon":5.3939,"is_reserved":false,"is_disabled":false,"rental_uris":{"android":"levelo://app?vid=ced4dfa7-2b7d-43ef-a9ea-27eeeacf0b84","ios":"levelo://app?vid=ced4dfa7-2b7d-43ef-a9ea-27eeeacf0b84"},"vehicle_type_id":"4","last_reported":1746609098,"current_range_meters":16800,"station_id":"ce4bhh92rcd13ifvqfj0","pricing_plan_id":"cebpf4jnsgd1na2vs0mg"},{"bike_id":"819cdf31-ba33-44c5-8a3a-36693dee03e8","system_id":"levelo_inurba_marseille","lat":43.29375,"lon":5.37853,"is_reserved":false,"is_disabled":false,"rental_uris":{"android":"levelo://app?vid=819cdf31-ba33-44c5-8a3a-36693dee03e8","ios":"levelo://app?vid=819cdf31-ba33-44c5-8a3a-36693dee03e8"},"vehicle_type_id":"4","last_reported":1746609098,"current_range_meters":16800,"station_id":"ce4bgjh2rcd13ifvqbf0","pricing_plan_id":"cebpf4jnsgd1na2vs0mg"},{"bike_id":"1a172dc1-cff4-40f0-bbd1-56d5fc860d01","system_id":"levelo_inurba_marseille","lat":43.27365,"lon":5.3626,"is_reserved":false,"is_disabled":false,"rental_uris":{"android":"levelo://app?vid=1a172dc1-cff4-40f0-bbd1-56d5fc860d01","ios":"levelo://app?vid=1a172dc1-cff4-40f0-bbd1-56d5fc860d01"},"vehicle_type_id":"4","last_reported":1746609098,"current_range_meters":17200,"station_id":"ce4bhbh2rcd13ifvqeo0","pricing_plan_id":"cebpf4jnsgd1na2vs0mg"},{"bike_id":"06c36d98-c03b-4204-b6c1-962a72426968","system_id":"levelo_inurba_marseille","lat":43.309586,"lon":5.390427,"is_reserved":false,"is_disabled":false,"rental_uris":{"android":"levelo://app?vid=06c36d98-c03b-4204-b6c1-962a72426968","ios":"levelo://app?vid=06c36d98-c03b-4204-b6c1-962a72426968"},"vehicle_type_id":"4","last_reported":1746609098,"current_range_meters":17600,"station_id":"ce4bgup2rcd13ifvqco0","pricing_plan_id":"cebpf4jnsgd1na2vs0mg"},{"bike_id":"d1c7bc16-5baa-42e8-9ff6-662cbfaa0e67","system_id":"levelo_inurba_marseille","lat":43.24093,"lon":5.3776,"is_reserved":false,"is_disabled":false,"rental_uris":{"android":"levelo://app?vid=d1c7bc16-5baa-42e8-9ff6-662cbfaa0e67","ios":"levelo://app?vid=d1c7bc16-5baa-42e8-9ff6-662cbfaa0e67"},"vehicle_type_id":"4","last_reported":1746609098,"current_range_meters":17600,"station_id":"ce4bhnp2rcd13ifvqgvg","pricing_plan_id":"cebpf4jnsgd1na2vs0mg"},{"bike_id":"c344b623-3015-41a6-8f12-c5d2a5cd12c2","system_id":"levelo_inurba_marseille","lat":43.23147,"lon":5.43705,"is_reserved":false,"is_disabled":false,"rental_uris":{"android":"levelo://app?vid=c344b623-3015-41a6-8f12-c5d2a5cd12c2","ios":"levelo://app?vid=c344b623-3015-41a6-8f12-c5d2a5cd12c2"},"vehicle_type_id":"4","last_reported":1746609098,"current_range_meters":17600,"station_id":"ce4bhmp2rcd13ifvqgog","pricing_plan_id":"cebpf4jnsgd1na2vs0mg"},{"bike_id":"63af6f78-57d5-4f3d-9494-a6d72ff84dc1","system_id":"levelo_inurba_marseille","lat":43.21207,"lon":5.35046,"is_reserved":false,"is_disabled":false,"rental_uris":{"android":"levelo://app?vid=63af6f78-57d5-4f3d-9494-a6d72ff84dc1","ios":"levelo://app?vid=63af6f78-57d5-4f3d-9494-a6d72ff84dc1"},"vehicle_type_id":"4","last_reported":1746609098,"current_range_meters":17600,"station_id":"st_cvj6sg6p6f1abm77japg","pricing_plan_id":"cebpf4jnsgd1na2vs0mg"},{"bike_id":"a5ed9c2e-853c-469f-ad0c-54aa4e1b2ef8","system_id":"levelo_inurba_marseille","lat":43.30961,"lon":5.3903,"is_reserved":false,"is_disabled":true,"rental_uris":{"android":"levelo://app?vid=a5ed9c2e-853c-469f-ad0c-54aa4e1b2ef8","ios":"levelo://app?vid=a5ed9c2e-853c-469f-ad0c-54aa4e1b2ef8"},"vehicle_type_id":"4","last_reported":1746609098,"current_range_meters":17600,"station_id":"ce4bgup2rcd13ifvqco0","pricing_plan_id":"cebpf4jnsgd1na2vs0mg"},{"bike_id":"94a3f5fb-60a0-4ba4-8b3e-3759629e9c4a","system_id":"levelo_inurba_marseille","lat":43.336,"lon":5.410211,"is_reserved":false,"is_disabled":false,"rental_uris":{"android":"levelo://app?vid=94a3f5fb-60a0-4ba4-8b3e-3759629e9c4a","ios":"levelo://app?vid=94a3f5fb-60a0-4ba4-8b3e-3759629e9c4a"},"vehicle_type_id":"4","last_reported":1746609098,"current_range_meters":17600,"station_id":"ce4bhqh2rcd13ifvqhmg","pricing_plan_id":"cebpf4jnsgd1na2vs0mg"},{"bike_id":"b8bb0d6d-d682-4df7-80c5-da64e9c95891","system_id":"levelo_inurba_marseille","lat":43.25943,"lon":5.40903,"is_reserved":false,"is_disabled":false,"rental_uris":{"android":"levelo://app?vid=b8bb0d6d-d682-4df7-80c5-da64e9c95891","ios":"levelo://app?vid=b8bb0d6d-d682-4df7-80c5-da64e9c95891"},"vehicle_type_id":"4","last_reported":1746609098,"current_range_meters":17600,"station_id":"ce4bhm92rcd13ifvqglg","pricing_plan_id":"cebpf4jnsgd1na2vs0mg"},{"bike_id":"051f942d-6957-4956-ba9f-4b0466995da1","system_id":"levelo_inurba_marseille","lat":43.27488,"lon":5.42454,"is_reserved":false,"is_disabled":true,"rental_uris":{"android":"levelo://app?vid=051f942d-6957-4956-ba9f-4b0466995da1","ios":"levelo://app?vid=051f942d-6957-4956-ba9f-4b0466995da1"},"vehicle_type_id":"4","last_reported":1746609098,"current_range_meters":17600,"station_id":"ce4bhn92rcd13ifvqgrg","pricing_plan_id":"cebpf4jnsgd1na2vs0mg"},{"bike_id":"af8bd9b9-657c-497f-aa24-c58b3ced6a70","system_id":"levelo_inurba_marseille","lat":43.31093,"lon":5.42435,"is_reserved":false,"is_disabled":false,"rental_uris":{"android":"levelo://app?vid=af8bd9b9-657c-497f-aa24-c58b3ced6a70","ios":"levelo://app?vid=af8bd9b9-657c-497f-aa24-c58b3ced6a70"},"vehicle_type_id":"4","last_reported":1746609098,"current_range_meters":17600,"station_id":"ce4bhp92rcd13ifvqhag","pricing_plan_id":"cebpf4jnsgd1na2vs0mg"},{"bike_id":"64136aeb-44a0-490d-9f50-de3f7b9cbb4c","system_id":"levelo_inurba_marseille","lat":43.27066,"lon":5.40259,"is_reserved":false,"is_disabled":false,"rental_uris":{"android":"levelo://app?vid=64136aeb-44a0-490d-9f50-de3f7b9cbb4c","ios":"levelo://app?vid=64136aeb-44a0-490d-9f50-de3f7b9cbb4c"},"vehicle_type_id":"4","last_reported":1746609098,"current_range_meters":18000,"station_id":"ce4bhk92rcd13ifvqgc0","pricing_plan_id":"cebpf4jnsgd1na2vs0mg"},{"bike_id":"caa6fd07-36d5-4eea-b528-9734e84e8de0","system_id":"levelo_inurba_marseille","lat":43.30533,"lon":5.36543,"is_reserved":false,"is_disabled":false,"rental_uris":{"android":"levelo://app?vid=caa6fd07-36d5-4eea-b528-9734e84e8de0","ios":"levelo://app?vid=caa6fd07-36d5-4eea-b528-9734e84e8de0"},"vehicle_type_id":"4","last_reported":1746609098,"current_range_meters":18800,"station_id":"ce4bgs12rcd13ifvqcag","pricing_plan_id":"cebpf4jnsgd1na2vs0mg"},{"bike_id":"bb745cee-af37-4b23-afc5-3d5aa5ce7aed","system_id":"levelo_inurba_marseille","lat":43.26216,"lon":5.40446,"is_reserved":false,"is_disabled":true,"rental_uris":{"android":"levelo://app?vid=bb745cee-af37-4b23-afc5-3d5aa5ce7aed","ios":"levelo://app?vid=bb745cee-af37-4b23-afc5-3d5aa5ce7aed"},"vehicle_type_id":"4","last_reported":1746609098,"current_range_meters":18800,"station_id":"ce4bhmh2rcd13ifvqgmg","pricing_plan_id":"cebpf4jnsgd1na2vs0mg"},{"bike_id":"2ef2ebd1-bdfa-4679-8156-f62d2ffdfb1d","system_id":"levelo_inurba_marseille","lat":43.29274,"lon":5.37607,"is_reserved":false,"is_disabled":false,"rental_uris":{"android":"levelo://app?vid=2ef2ebd1-bdfa-4679-8156-f62d2ffdfb1d","ios":"levelo://app?vid=2ef2ebd1-bdfa-4679-8156-f62d2ffdfb1d"},"vehicle_type_id":"4","last_reported":1746609098,"current_range_meters":18800,"station_id":"ce4bgi12rcd13ifvqb80","pricing_plan_id":"cebpf4jnsgd1na2vs0mg"},{"bike_id":"ca527f91-f658-47d5-8514-70166b7da12b","system_id":"levelo_inurba_marseille","lat":43.33637,"lon":5.4104,"is_reserved":false,"is_disabled":false,"rental_uris":{"android":"levelo://app?vid=ca527f91-f658-47d5-8514-70166b7da12b","ios":"levelo://app?vid=ca527f91-f658-47d5-8514-70166b7da12b"},"vehicle_type_id":"4","last_reported":1746609098,"current_range_meters":19200,"station_id":"ce4bhqh2rcd13ifvqhmg","pricing_plan_id":"cebpf4jnsgd1na2vs0mg"},{"bike_id":"6f5987c6-f4a0-4296-839c-364ea9a42c49","system_id":"levelo_inurba_marseille","lat":43.30553,"lon":5.36707,"is_reserved":false,"is_disabled":false,"rental_uris":{"android":"levelo://app?vid=6f5987c6-f4a0-4296-839c-364ea9a42c49","ios":"levelo://app?vid=6f5987c6-f4a0-4296-839c-364ea9a42c49"},"vehicle_type_id":"4","last_reported":1746609098,"current_range_meters":19200,"station_id":"ce4bgrp2rcd13ifvqc9g","pricing_plan_id":"cebpf4jnsgd1na2vs0mg"},{"bike_id":"a8b556c4-5bfe-4a3c-8f1c-fe03e7041ef8","system_id":"levelo_inurba_marseille","lat":43.24078,"lon":5.37747,"is_reserved":false,"is_disabled":false,"rental_uris":{"android":"levelo://app?vid=a8b556c4-5bfe-4a3c-8f1c-fe03e7041ef8","ios":"levelo://app?vid=a8b556c4-5bfe-4a3c-8f1c-fe03e7041ef8"},"vehicle_type_id":"4","last_reported":1746609098,"current_range_meters":19200,"station_id":"ce4bhnp2rcd13ifvqgvg","pricing_plan_id":"cebpf4jnsgd1na2vs0mg"},{"bike_id":"c7dc3326-9dd8-496c-9ee9-c7875646460b","system_id":"levelo_inurba_marseille","lat":43.274973,"lon":5.424554,"is_reserved":false,"is_disabled":false,"rental_uris":{"android":"levelo://app?vid=c7dc3326-9dd8-496c-9ee9-c7875646460b","ios":"levelo://app?vid=c7dc3326-9dd8-496c-9ee9-c7875646460b"},"vehicle_type_id":"4","last_reported":1746609098,"current_range_meters":19200,"station_id":"ce4bhn92rcd13ifvqgrg","pricing_plan_id":"cebpf4jnsgd1na2vs0mg"},{"bike_id":"fce0466e-1a5d-4da6-b4c6-0b8f475a28d6","system_id":"levelo_inurba_marseille","lat":43.31326,"lon":5.39695,"is_reserved":false,"is_disabled":false,"rental_uris":{"android":"levelo://app?vid=fce0466e-1a5d-4da6-b4c6-0b8f475a28d6","ios":"levelo://app?vid=fce0466e-1a5d-4da6-b4c6-0b8f475a28d6"},"vehicle_type_id":"4","last_reported":1746609098,"current_range_meters":19200,"station_id":"ce4bgvp2rcd13ifvqcu0","pricing_plan_id":"cebpf4jnsgd1na2vs0mg"},{"bike_id":"28cd243e-86dd-4a22-aae6-b733c0fa3b3d","system_id":"levelo_inurba_marseille","lat":43.241,"lon":5.37774,"is_reserved":false,"is_disabled":false,"rental_uris":{"android":"levelo://app?vid=28cd243e-86dd-4a22-aae6-b733c0fa3b3d","ios":"levelo://app?vid=28cd243e-86dd-4a22-aae6-b733c0fa3b3d"},"vehicle_type_id":"4","last_reported":1746609098,"current_range_meters":19200,"station_id":"ce4bhnp2rcd13ifvqgvg","pricing_plan_id":"cebpf4jnsgd1na2vs0mg"},{"bike_id":"b3350da8-a97f-4bcc-bc97-22f6d3e2b782","system_id":"levelo_inurba_marseille","lat":43.30417,"lon":5.41285,"is_reserved":false,"is_disabled":false,"rental_uris":{"android":"levelo://app?vid=b3350da8-a97f-4bcc-bc97-22f6d3e2b782","ios":"levelo://app?vid=b3350da8-a97f-4bcc-bc97-22f6d3e2b782"},"vehicle_type_id":"4","last_reported":1746609098,"current_range_meters":19200,"station_id":"ce4bhop2rcd13ifvqh8g","pricing_plan_id":"cebpf4jnsgd1na2vs0mg"},{"bike_id":"bba319bd-6ab0-4b85-bcba-b63995545c45","system_id":"levelo_inurba_marseille","lat":43.34142,"lon":5.40908,"is_reserved":false,"is_disabled":false,"rental_uris":{"android":"levelo://app?vid=bba319bd-6ab0-4b85-bcba-b63995545c45","ios":"levelo://app?vid=bba319bd-6ab0-4b85-bcba-b63995545c45"},"vehicle_type_id":"4","last_reported":1746609098,"current_range_meters":19200,"station_id":"ce4bhqh2rcd13ifvqhlg","pricing_plan_id":"cebpf4jnsgd1na2vs0mg"},{"bike_id":"8a810db1-03c4-49ad-917c-59e8b224c353","system_id":"levelo_inurba_marseille","lat":43.33733,"lon":5.39196,"is_reserved":false,"is_disabled":false,"rental_uris":{"android":"levelo://app?vid=8a810db1-03c4-49ad-917c-59e8b224c353","ios":"levelo://app?vid=8a810db1-03c4-49ad-917c-59e8b224c353"},"vehicle_type_id":"4","last_reported":1746609098,"current_range_meters":19600,"station_id":"ce4bhr92rcd13ifvqhsg","pricing_plan_id":"cebpf4jnsgd1na2vs0mg"},{"bike_id":"26ba32b8-82c9-4a02-a5a9-cc0b3227d2a2","system_id":"levelo_inurba_marseille","lat":43.25935,"lon":5.40892,"is_reserved":false,"is_disabled":false,"rental_uris":{"android":"levelo://app?vid=26ba32b8-82c9-4a02-a5a9-cc0b3227d2a2","ios":"levelo://app?vid=26ba32b8-82c9-4a02-a5a9-cc0b3227d2a2"},"vehicle_type_id":"4","last_reported":1746609098,"current_range_meters":19600,"station_id":"ce4bhm92rcd13ifvqglg","pricing_plan_id":"cebpf4jnsgd1na2vs0mg"},{"bike_id":"9a709650-c551-4005-bb43-d73f607a0cd1","system_id":"levelo_inurba_marseille","lat":43.24452,"lon":5.36983,"is_reserved":false,"is_disabled":false,"rental_uris":{"android":"levelo://app?vid=9a709650-c551-4005-bb43-d73f607a0cd1","ios":"levelo://app?vid=9a709650-c551-4005-bb43-d73f607a0cd1"},"vehicle_type_id":"4","last_reported":1746609098,"current_range_meters":19600,"station_id":"ce4bhhh2rcd13ifvqfk0","pricing_plan_id":"cebpf4jnsgd1na2vs0mg"},{"bike_id":"79530818-df3c-484b-8e62-dc190e713b96","system_id":"levelo_inurba_marseille","lat":43.29894,"lon":5.43676,"is_reserved":false,"is_disabled":false,"rental_uris":{"android":"levelo://app?vid=79530818-df3c-484b-8e62-dc190e713b96","ios":"levelo://app?vid=79530818-df3c-484b-8e62-dc190e713b96"},"vehicle_type_id":"4","last_reported":1746609098,"current_range_meters":19600,"station_id":"ce4bhpp2rcd13ifvqhfg","pricing_plan_id":"cebpf4jnsgd1na2vs0mg"},{"bike_id":"46f83161-f60c-4f7c-9541-c0bb26d0ae24","system_id":"levelo_inurba_marseille","lat":43.21767,"lon":5.34589,"is_reserved":false,"is_disabled":false,"rental_uris":{"android":"levelo://app?vid=46f83161-f60c-4f7c-9541-c0bb26d0ae24","ios":"levelo://app?vid=46f83161-f60c-4f7c-9541-c0bb26d0ae24"},"vehicle_type_id":"4","last_reported":1746609098,"current_range_meters":19600,"station_id":"st_cvj6r9ubvosntc0bgbag","pricing_plan_id":"cebpf4jnsgd1na2vs0mg"},{"bike_id":"7f785bca-da55-47c7-9bd4-9bec97d565db","system_id":"levelo_inurba_marseille","lat":43.26692,"lon":5.38271,"is_reserved":false,"is_disabled":false,"rental_uris":{"android":"levelo://app?vid=7f785bca-da55-47c7-9bd4-9bec97d565db","ios":"levelo://app?vid=7f785bca-da55-47c7-9bd4-9bec97d565db"},"vehicle_type_id":"4","last_reported":1746609098,"current_range_meters":19600,"station_id":"ce4bhg92rcd13ifvqf90","pricing_plan_id":"cebpf4jnsgd1na2vs0mg"},{"bike_id":"db81ab1d-6ef0-42ef-a265-93340d0c10ca","system_id":"levelo_inurba_marseille","lat":43.23967,"lon":5.36627,"is_reserved":false,"is_disabled":false,"rental_uris":{"android":"levelo://app?vid=db81ab1d-6ef0-42ef-a265-93340d0c10ca","ios":"levelo://app?vid=db81ab1d-6ef0-42ef-a265-93340d0c10ca"},"vehicle_type_id":"4","last_reported":1746609098,"current_range_meters":19600,"station_id":"ce4bhi12rcd13ifvqfp0","pricing_plan_id":"cebpf4jnsgd1na2vs0mg"},{"bike_id":"4175df44-b0a0-443d-975e-08c01e2ab4bd","system_id":"levelo_inurba_marseille","lat":43.275,"lon":5.42448,"is_reserved":false,"is_disabled":false,"rental_uris":{"android":"levelo://app?vid=4175df44-b0a0-443d-975e-08c01e2ab4bd","ios":"levelo://app?vid=4175df44-b0a0-443d-975e-08c01e2ab4bd"},"vehicle_type_id":"4","last_reported":1746609098,"current_range_meters":19600,"station_id":"ce4bhn92rcd13ifvqgrg","pricing_plan_id":"cebpf4jnsgd1na2vs0mg"},{"bike_id":"c0cd3821-e87c-44a2-9ec4-f941c33073f4","system_id":"levelo_inurba_marseille","lat":43.30531,"lon":5.36542,"is_reserved":false,"is_disabled":false,"rental_uris":{"android":"levelo://app?vid=c0cd3821-e87c-44a2-9ec4-f941c33073f4","ios":"levelo://app?vid=c0cd3821-e87c-44a2-9ec4-f941c33073f4"},"vehicle_type_id":"4","last_reported":1746609098,"current_range_meters":20000,"station_id":"ce4bgs12rcd13ifvqcag","pricing_plan_id":"cebpf4jnsgd1na2vs0mg"},{"bike_id":"61b7bf8c-00ae-4280-9015-f0af790fa2b1","system_id":"levelo_inurba_marseille","lat":43.33582,"lon":5.41008,"is_reserved":false,"is_disabled":false,"rental_uris":{"android":"levelo://app?vid=61b7bf8c-00ae-4280-9015-f0af790fa2b1","ios":"levelo://app?vid=61b7bf8c-00ae-4280-9015-f0af790fa2b1"},"vehicle_type_id":"4","last_reported":1746609098,"current_range_meters":20000,"station_id":"ce4bhqh2rcd13ifvqhmg","pricing_plan_id":"cebpf4jnsgd1na2vs0mg"},{"bike_id":"2952c29e-32ac-4ad6-9fbd-482b735014b9","system_id":"levelo_inurba_marseille","lat":43.24069,"lon":5.37747,"is_reserved":false,"is_disabled":false,"rental_uris":{"android":"levelo://app?vid=2952c29e-32ac-4ad6-9fbd-482b735014b9","ios":"levelo://app?vid=2952c29e-32ac-4ad6-9fbd-482b735014b9"},"vehicle_type_id":"4","last_reported":1746609098,"current_range_meters":20000,"station_id":"ce4bhnp2rcd13ifvqgvg","pricing_plan_id":"cebpf4jnsgd1na2vs0mg"},{"bike_id":"23efda3d-c0f6-46fa-a139-2fab7b75c0b1","system_id":"levelo_inurba_marseille","lat":43.29185,"lon":5.39333,"is_reserved":false,"is_disabled":false,"rental_uris":{"android":"levelo://app?vid=23efda3d-c0f6-46fa-a139-2fab7b75c0b1","ios":"levelo://app?vid=23efda3d-c0f6-46fa-a139-2fab7b75c0b1"},"vehicle_type_id":"4","last_reported":1746609098,"current_range_meters":20000,"station_id":"ce4bh192rcd13ifvqdd0","pricing_plan_id":"cebpf4jnsgd1na2vs0mg"},{"bike_id":"e5401d68-eac2-492e-9113-2f9588f85793","system_id":"levelo_inurba_marseille","lat":43.24076,"lon":5.37723,"is_reserved":false,"is_disabled":false,"rental_uris":{"android":"levelo://app?vid=e5401d68-eac2-492e-9113-2f9588f85793","ios":"levelo://app?vid=e5401d68-eac2-492e-9113-2f9588f85793"},"vehicle_type_id":"4","last_reported":1746609098,"current_range_meters":20000,"station_id":"ce4bhnp2rcd13ifvqgvg","pricing_plan_id":"cebpf4jnsgd1na2vs0mg"},{"bike_id":"89f953df-2061-408d-8f0d-6a2938e5443a","system_id":"levelo_inurba_marseille","lat":43.23657,"lon":5.40322,"is_reserved":false,"is_disabled":false,"rental_uris":{"android":"levelo://app?vid=89f953df-2061-408d-8f0d-6a2938e5443a","ios":"levelo://app?vid=89f953df-2061-408d-8f0d-6a2938e5443a"},"vehicle_type_id":"4","last_reported":1746609098,"current_range_meters":20000,"station_id":"","pricing_plan_id":"cebpf4jnsgd1na2vs0mg"},{"bike_id":"e3c916c4-524b-4820-ac11-f9d328373afd","system_id":"levelo_inurba_marseille","lat":43.28002,"lon":5.40013,"is_reserved":false,"is_disabled":true,"rental_uris":{"android":"levelo://app?vid=e3c916c4-524b-4820-ac11-f9d328373afd","ios":"levelo://app?vid=e3c916c4-524b-4820-ac11-f9d328373afd"},"vehicle_type_id":"4","last_reported":1746609098,"current_range_meters":20000,"station_id":"ce4bho92rcd13ifvqh4g","pricing_plan_id":"cebpf4jnsgd1na2vs0mg"},{"bike_id":"69e277e0-aa39-44fa-a0b3-c364cb219f4f","system_id":"levelo_inurba_marseille","lat":43.24076,"lon":5.3776,"is_reserved":false,"is_disabled":false,"rental_uris":{"android":"levelo://app?vid=69e277e0-aa39-44fa-a0b3-c364cb219f4f","ios":"levelo://app?vid=69e277e0-aa39-44fa-a0b3-c364cb219f4f"},"vehicle_type_id":"4","last_reported":1746609098,"current_range_meters":20000,"station_id":"ce4bhnp2rcd13ifvqgvg","pricing_plan_id":"cebpf4jnsgd1na2vs0mg"},{"bike_id":"be14af02-7701-4605-b2d6-5fd0439029d8","system_id":"levelo_inurba_marseille","lat":43.21209,"lon":5.35069,"is_reserved":false,"is_disabled":false,"rental_uris":{"android":"levelo://app?vid=be14af02-7701-4605-b2d6-5fd0439029d8","ios":"levelo://app?vid=be14af02-7701-4605-b2d6-5fd0439029d8"},"vehicle_type_id":"4","last_reported":1746609098,"current_range_meters":20000,"station_id":"st_cvj6sg6p6f1abm77japg","pricing_plan_id":"cebpf4jnsgd1na2vs0mg"},{"bike_id":"ce15f3f2-b68e-4e86-97f1-9a3342b30746","system_id":"levelo_inurba_marseille","lat":43.31321,"lon":5.39693,"is_reserved":false,"is_disabled":false,"rental_uris":{"android":"levelo://app?vid=ce15f3f2-b68e-4e86-97f1-9a3342b30746","ios":"levelo://app?vid=ce15f3f2-b68e-4e86-97f1-9a3342b30746"},"vehicle_type_id":"4","last_reported":1746609098,"current_range_meters":20400,"station_id":"ce4bgvp2rcd13ifvqcu0","pricing_plan_id":"cebpf4jnsgd1na2vs0mg"},{"bike_id":"19766bb7-2dcc-447d-9375-4ce3f44d52fd","system_id":"levelo_inurba_marseille","lat":43.26208,"lon":5.37444,"is_reserved":false,"is_disabled":false,"rental_uris":{"android":"levelo://app?vid=19766bb7-2dcc-447d-9375-4ce3f44d52fd","ios":"levelo://app?vid=19766bb7-2dcc-447d-9375-4ce3f44d52fd"},"vehicle_type_id":"4","last_reported":1746609098,"current_range_meters":20400,"station_id":"ce4bhgp2rcd13ifvqfc0","pricing_plan_id":"cebpf4jnsgd1na2vs0mg"},{"bike_id":"2d3dca6e-317c-4ef0-bc40-1339fb5291de","system_id":"levelo_inurba_marseille","lat":43.24997,"lon":5.38931,"is_reserved":false,"is_disabled":false,"rental_uris":{"android":"levelo://app?vid=2d3dca6e-317c-4ef0-bc40-1339fb5291de","ios":"levelo://app?vid=2d3dca6e-317c-4ef0-bc40-1339fb5291de"},"vehicle_type_id":"4","last_reported":1746609098,"current_range_meters":20400,"station_id":"ce4bhgp2rcd13ifvqfd0","pricing_plan_id":"cebpf4jnsgd1na2vs0mg"},{"bike_id":"b5775ca1-748e-4cd6-9392-09595003dc6d","system_id":"levelo_inurba_marseille","lat":43.31221,"lon":5.36867,"is_reserved":false,"is_disabled":false,"rental_uris":{"android":"levelo://app?vid=b5775ca1-748e-4cd6-9392-09595003dc6d","ios":"levelo://app?vid=b5775ca1-748e-4cd6-9392-09595003dc6d"},"vehicle_type_id":"4","last_reported":1746609098,"current_range_meters":20400,"station_id":"ce4bgl92rcd13ifvqbq0","pricing_plan_id":"cebpf4jnsgd1na2vs0mg"},{"bike_id":"33a17204-e446-41e3-9795-c1b492310014","system_id":"levelo_inurba_marseille","lat":43.23959,"lon":5.36648,"is_reserved":false,"is_disabled":false,"rental_uris":{"android":"levelo://app?vid=33a17204-e446-41e3-9795-c1b492310014","ios":"levelo://app?vid=33a17204-e446-41e3-9795-c1b492310014"},"vehicle_type_id":"4","last_reported":1746609098,"current_range_meters":20800,"station_id":"ce4bhi12rcd13ifvqfp0","pricing_plan_id":"cebpf4jnsgd1na2vs0mg"},{"bike_id":"d94c20e4-06da-46e7-91de-34f9559e18ac","system_id":"levelo_inurba_marseille","lat":43.26566,"lon":5.3729,"is_reserved":false,"is_disabled":false,"rental_uris":{"android":"levelo://app?vid=d94c20e4-06da-46e7-91de-34f9559e18ac","ios":"levelo://app?vid=d94c20e4-06da-46e7-91de-34f9559e18ac"},"vehicle_type_id":"4","last_reported":1746609098,"current_range_meters":20800,"station_id":"ce4bhg12rcd13ifvqf70","pricing_plan_id":"cebpf4jnsgd1na2vs0mg"},{"bike_id":"d50213c2-6c93-44b4-81a3-00d4ff793208","system_id":"levelo_inurba_marseille","lat":43.31371,"lon":5.36723,"is_reserved":false,"is_disabled":false,"rental_uris":{"android":"levelo://app?vid=d50213c2-6c93-44b4-81a3-00d4ff793208","ios":"levelo://app?vid=d50213c2-6c93-44b4-81a3-00d4ff793208"},"vehicle_type_id":"4","last_reported":1746609098,"current_range_meters":21600,"station_id":"ce4bgr92rcd13ifvqc6g","pricing_plan_id":"cebpf4jnsgd1na2vs0mg"},{"bike_id":"d43c6973-7b56-4c28-bb46-7ace155be881","system_id":"levelo_inurba_marseille","lat":43.29261,"lon":5.38444,"is_reserved":false,"is_disabled":false,"rental_uris":{"android":"levelo://app?vid=d43c6973-7b56-4c28-bb46-7ace155be881","ios":"levelo://app?vid=d43c6973-7b56-4c28-bb46-7ace155be881"},"vehicle_type_id":"4","last_reported":1746609098,"current_range_meters":21600,"station_id":"ce4bh692rcd13ifvqea0","pricing_plan_id":"cebpf4jnsgd1na2vs0mg"},{"bike_id":"2c2bfd34-5378-4b4f-b3b6-f01039483555","system_id":"levelo_inurba_marseille","lat":43.292786,"lon":5.40116,"is_reserved":false,"is_disabled":true,"rental_uris":{"android":"levelo://app?vid=2c2bfd34-5378-4b4f-b3b6-f01039483555","ios":"levelo://app?vid=2c2bfd34-5378-4b4f-b3b6-f01039483555"},"vehicle_type_id":"4","last_reported":1746609098,"current_range_meters":21600,"station_id":"ce4bh312rcd13ifvqdk0","pricing_plan_id":"cebpf4jnsgd1na2vs0mg"},{"bike_id":"0af8622b-784f-4ed6-b1c2-48dd94d7fac8","system_id":"levelo_inurba_marseille","lat":43.26932,"lon":5.38914,"is_reserved":false,"is_disabled":false,"rental_uris":{"android":"levelo://app?vid=0af8622b-784f-4ed6-b1c2-48dd94d7fac8","ios":"levelo://app?vid=0af8622b-784f-4ed6-b1c2-48dd94d7fac8"},"vehicle_type_id":"4","last_reported":1746609098,"current_range_meters":21600,"station_id":"ce4bhhh2rcd13ifvqfl0","pricing_plan_id":"cebpf4jnsgd1na2vs0mg"},{"bike_id":"639af545-e90b-4863-97f9-81335d2037e0","system_id":"levelo_inurba_marseille","lat":43.295321,"lon":5.390418,"is_reserved":false,"is_disabled":false,"rental_uris":{"android":"levelo://app?vid=639af545-e90b-4863-97f9-81335d2037e0","ios":"levelo://app?vid=639af545-e90b-4863-97f9-81335d2037e0"},"vehicle_type_id":"4","last_reported":1746609098,"current_range_meters":21600,"station_id":"ce4bh3p2rcd13ifvqdp0","pricing_plan_id":"cebpf4jnsgd1na2vs0mg"},{"bike_id":"a4574e39-dd43-4b5b-b730-d7c344b1bf89","system_id":"levelo_inurba_marseille","lat":43.248,"lon":5.37453,"is_reserved":false,"is_disabled":false,"rental_uris":{"android":"levelo://app?vid=a4574e39-dd43-4b5b-b730-d7c344b1bf89","ios":"levelo://app?vid=a4574e39-dd43-4b5b-b730-d7c344b1bf89"},"vehicle_type_id":"4","last_reported":1746609098,"current_range_meters":21600,"station_id":"ce4bhgh2rcd13ifvqfb0","pricing_plan_id":"cebpf4jnsgd1na2vs0mg"},{"bike_id":"78b3b055-8eb3-4107-aca9-14207ba6f5bf","system_id":"levelo_inurba_marseille","lat":43.2816,"lon":5.40212,"is_reserved":false,"is_disabled":false,"rental_uris":{"android":"levelo://app?vid=78b3b055-8eb3-4107-aca9-14207ba6f5bf","ios":"levelo://app?vid=78b3b055-8eb3-4107-aca9-14207ba6f5bf"},"vehicle_type_id":"4","last_reported":1746609098,"current_range_meters":22000,"station_id":"","pricing_plan_id":"cebpf4jnsgd1na2vs0mg"},{"bike_id":"5a520ae7-2939-476b-825d-7a8178c90a97","system_id":"levelo_inurba_marseille","lat":43.31058,"lon":5.38356,"is_reserved":false,"is_disabled":true,"rental_uris":{"android":"levelo://app?vid=5a520ae7-2939-476b-825d-7a8178c90a97","ios":"levelo://app?vid=5a520ae7-2939-476b-825d-7a8178c90a97"},"vehicle_type_id":"4","last_reported":1746609098,"current_range_meters":22000,"station_id":"ce4bgv92rcd13ifvqcr0","pricing_plan_id":"cebpf4jnsgd1na2vs0mg"},{"bike_id":"2c02d4b2-d24d-43b7-b291-4c662bffab1c","system_id":"levelo_inurba_marseille","lat":43.30566,"lon":5.3652,"is_reserved":false,"is_disabled":false,"rental_uris":{"android":"levelo://app?vid=2c02d4b2-d24d-43b7-b291-4c662bffab1c","ios":"levelo://app?vid=2c02d4b2-d24d-43b7-b291-4c662bffab1c"},"vehicle_type_id":"4","last_reported":1746609098,"current_range_meters":22000,"station_id":"ce4bgs12rcd13ifvqcag","pricing_plan_id":"cebpf4jnsgd1na2vs0mg"},{"bike_id":"70a29a45-574c-4ff1-aca3-740aa0e705be","system_id":"levelo_inurba_marseille","lat":43.24164,"lon":5.36414,"is_reserved":false,"is_disabled":false,"rental_uris":{"android":"levelo://app?vid=70a29a45-574c-4ff1-aca3-740aa0e705be","ios":"levelo://app?vid=70a29a45-574c-4ff1-aca3-740aa0e705be"},"vehicle_type_id":"4","last_reported":1746609098,"current_range_meters":22000,"station_id":"cpo36qri1sfpv3e86is0","pricing_plan_id":"cebpf4jnsgd1na2vs0mg"},{"bike_id":"8d535c2d-a8c7-4b37-a8d5-b52d07ed46fd","system_id":"levelo_inurba_marseille","lat":43.30351,"lon":5.41882,"is_reserved":false,"is_disabled":false,"rental_uris":{"android":"levelo://app?vid=8d535c2d-a8c7-4b37-a8d5-b52d07ed46fd","ios":"levelo://app?vid=8d535c2d-a8c7-4b37-a8d5-b52d07ed46fd"},"vehicle_type_id":"4","last_reported":1746609098,"current_range_meters":22000,"station_id":"ce4bhop2rcd13ifvqh7g","pricing_plan_id":"cebpf4jnsgd1na2vs0mg"},{"bike_id":"c88e8600-b98d-4d03-a751-95970359f5ca","system_id":"levelo_inurba_marseille","lat":43.29252,"lon":5.37623,"is_reserved":false,"is_disabled":false,"rental_uris":{"android":"levelo://app?vid=c88e8600-b98d-4d03-a751-95970359f5ca","ios":"levelo://app?vid=c88e8600-b98d-4d03-a751-95970359f5ca"},"vehicle_type_id":"4","last_reported":1746609098,"current_range_meters":22000,"station_id":"ce4bgi12rcd13ifvqb80","pricing_plan_id":"cebpf4jnsgd1na2vs0mg"},{"bike_id":"06acbf16-c900-4070-b348-b96b6f8ea280","system_id":"levelo_inurba_marseille","lat":43.28155,"lon":5.42643,"is_reserved":false,"is_disabled":false,"rental_uris":{"android":"levelo://app?vid=06acbf16-c900-4070-b348-b96b6f8ea280","ios":"levelo://app?vid=06acbf16-c900-4070-b348-b96b6f8ea280"},"vehicle_type_id":"4","last_reported":1746609098,"current_range_meters":22000,"station_id":"ce4bhnh2rcd13ifvqgug","pricing_plan_id":"cebpf4jnsgd1na2vs0mg"},{"bike_id":"327cc39f-d91f-4b77-aab9-5dc3bf60ad82","system_id":"levelo_inurba_marseille","lat":43.25087,"lon":5.39505,"is_reserved":false,"is_disabled":true,"rental_uris":{"android":"levelo://app?vid=327cc39f-d91f-4b77-aab9-5dc3bf60ad82","ios":"levelo://app?vid=327cc39f-d91f-4b77-aab9-5dc3bf60ad82"},"vehicle_type_id":"4","last_reported":1746609098,"current_range_meters":22000,"station_id":"ce4bhm12rcd13ifvqgkg","pricing_plan_id":"cebpf4jnsgd1na2vs0mg"},{"bike_id":"3eeaa5a5-1f47-4607-80c5-d6c4ef1efade","system_id":"levelo_inurba_marseille","lat":43.28454,"lon":5.35895,"is_reserved":false,"is_disabled":false,"rental_uris":{"android":"levelo://app?vid=3eeaa5a5-1f47-4607-80c5-d6c4ef1efade","ios":"levelo://app?vid=3eeaa5a5-1f47-4607-80c5-d6c4ef1efade"},"vehicle_type_id":"4","last_reported":1746609098,"current_range_meters":22400,"station_id":"ce4bhah2rcd13ifvqei0","pricing_plan_id":"cebpf4jnsgd1na2vs0mg"},{"bike_id":"61773464-18ea-4477-b785-2b5e8184d3c2","system_id":"levelo_inurba_marseille","lat":43.32544,"lon":5.41429,"is_reserved":false,"is_disabled":false,"rental_uris":{"android":"levelo://app?vid=61773464-18ea-4477-b785-2b5e8184d3c2","ios":"levelo://app?vid=61773464-18ea-4477-b785-2b5e8184d3c2"},"vehicle_type_id":"4","last_reported":1746609098,"current_range_meters":22400,"station_id":"ce4bhq12rcd13ifvqhhg","pricing_plan_id":"cebpf4jnsgd1na2vs0mg"},{"bike_id":"89b5c51b-cd9c-475c-ba7a-726b12d22f75","system_id":"levelo_inurba_marseille","lat":43.21206,"lon":5.35035,"is_reserved":false,"is_disabled":true,"rental_uris":{"android":"levelo://app?vid=89b5c51b-cd9c-475c-ba7a-726b12d22f75","ios":"levelo://app?vid=89b5c51b-cd9c-475c-ba7a-726b12d22f75"},"vehicle_type_id":"4","last_reported":1746609098,"current_range_meters":22800,"station_id":"","pricing_plan_id":"cebpf4jnsgd1na2vs0mg"},{"bike_id":"aaad2336-2ad8-412d-ae48-070f832e292f","system_id":"levelo_inurba_marseille","lat":43.27437,"lon":5.42523,"is_reserved":false,"is_disabled":false,"rental_uris":{"android":"levelo://app?vid=aaad2336-2ad8-412d-ae48-070f832e292f","ios":"levelo://app?vid=aaad2336-2ad8-412d-ae48-070f832e292f"},"vehicle_type_id":"4","last_reported":1746609098,"current_range_meters":22800,"station_id":"","pricing_plan_id":"cebpf4jnsgd1na2vs0mg"},{"bike_id":"b3eb2d0b-3e09-4ad0-b56f-11849f9cf181","system_id":"levelo_inurba_marseille","lat":43.33613,"lon":5.40998,"is_reserved":false,"is_disabled":false,"rental_uris":{"android":"levelo://app?vid=b3eb2d0b-3e09-4ad0-b56f-11849f9cf181","ios":"levelo://app?vid=b3eb2d0b-3e09-4ad0-b56f-11849f9cf181"},"vehicle_type_id":"4","last_reported":1746609098,"current_range_meters":22800,"station_id":"ce4bhqh2rcd13ifvqhmg","pricing_plan_id":"cebpf4jnsgd1na2vs0mg"},{"bike_id":"74dfcb2f-a38e-46fd-a9a4-88a9c0d71f4a","system_id":"levelo_inurba_marseille","lat":43.25936,"lon":5.40916,"is_reserved":false,"is_disabled":false,"rental_uris":{"android":"levelo://app?vid=74dfcb2f-a38e-46fd-a9a4-88a9c0d71f4a","ios":"levelo://app?vid=74dfcb2f-a38e-46fd-a9a4-88a9c0d71f4a"},"vehicle_type_id":"4","last_reported":1746609098,"current_range_meters":22800,"station_id":"ce4bhm92rcd13ifvqglg","pricing_plan_id":"cebpf4jnsgd1na2vs0mg"},{"bike_id":"67a540a8-6eb5-49f7-b795-4cef3405eb5a","system_id":"levelo_inurba_marseille","lat":43.2593,"lon":5.40917,"is_reserved":false,"is_disabled":false,"rental_uris":{"android":"levelo://app?vid=67a540a8-6eb5-49f7-b795-4cef3405eb5a","ios":"levelo://app?vid=67a540a8-6eb5-49f7-b795-4cef3405eb5a"},"vehicle_type_id":"4","last_reported":1746609098,"current_range_meters":23200,"station_id":"ce4bhm92rcd13ifvqglg","pricing_plan_id":"cebpf4jnsgd1na2vs0mg"},{"bike_id":"2d60fc77-0789-4aa5-ae17-49c387a82783","system_id":"levelo_inurba_marseille","lat":43.21195,"lon":5.3507,"is_reserved":false,"is_disabled":false,"rental_uris":{"android":"levelo://app?vid=2d60fc77-0789-4aa5-ae17-49c387a82783","ios":"levelo://app?vid=2d60fc77-0789-4aa5-ae17-49c387a82783"},"vehicle_type_id":"4","last_reported":1746609098,"current_range_meters":23200,"station_id":"st_cvj6sg6p6f1abm77japg","pricing_plan_id":"cebpf4jnsgd1na2vs0mg"},{"bike_id":"3807f7ae-0aed-467b-bf60-f75e20d0c938","system_id":"levelo_inurba_marseille","lat":43.27505,"lon":5.42443,"is_reserved":false,"is_disabled":false,"rental_uris":{"android":"levelo://app?vid=3807f7ae-0aed-467b-bf60-f75e20d0c938","ios":"levelo://app?vid=3807f7ae-0aed-467b-bf60-f75e20d0c938"},"vehicle_type_id":"4","last_reported":1746609098,"current_range_meters":23200,"station_id":"ce4bhn92rcd13ifvqgrg","pricing_plan_id":"cebpf4jnsgd1na2vs0mg"},{"bike_id":"70a576ca-d174-4f91-9c54-aa0e357f1ba9","system_id":"levelo_inurba_marseille","lat":43.30903,"lon":5.36847,"is_reserved":false,"is_disabled":false,"rental_uris":{"android":"levelo://app?vid=70a576ca-d174-4f91-9c54-aa0e357f1ba9","ios":"levelo://app?vid=70a576ca-d174-4f91-9c54-aa0e357f1ba9"},"vehicle_type_id":"4","last_reported":1746609098,"current_range_meters":23200,"station_id":"ce4bgn92rcd13ifvqbvg","pricing_plan_id":"cebpf4jnsgd1na2vs0mg"},{"bike_id":"e0133833-c585-40f5-bbce-b853bf3542cf","system_id":"levelo_inurba_marseille","lat":43.27501,"lon":5.42426,"is_reserved":false,"is_disabled":false,"rental_uris":{"android":"levelo://app?vid=e0133833-c585-40f5-bbce-b853bf3542cf","ios":"levelo://app?vid=e0133833-c585-40f5-bbce-b853bf3542cf"},"vehicle_type_id":"4","last_reported":1746609098,"current_range_meters":23200,"station_id":"ce4bhn92rcd13ifvqgrg","pricing_plan_id":"cebpf4jnsgd1na2vs0mg"},{"bike_id":"5545e5f3-6379-4d16-8527-ea6f67b4fa46","system_id":"levelo_inurba_marseille","lat":43.259338,"lon":5.409061,"is_reserved":false,"is_disabled":false,"rental_uris":{"android":"levelo://app?vid=5545e5f3-6379-4d16-8527-ea6f67b4fa46","ios":"levelo://app?vid=5545e5f3-6379-4d16-8527-ea6f67b4fa46"},"vehicle_type_id":"4","last_reported":1746609098,"current_range_meters":23200,"station_id":"ce4bhm92rcd13ifvqglg","pricing_plan_id":"cebpf4jnsgd1na2vs0mg"},{"bike_id":"96807fab-53a4-4e67-82ed-d73ce1829fe1","system_id":"levelo_inurba_marseille","lat":43.31389,"lon":5.366935,"is_reserved":false,"is_disabled":false,"rental_uris":{"android":"levelo://app?vid=96807fab-53a4-4e67-82ed-d73ce1829fe1","ios":"levelo://app?vid=96807fab-53a4-4e67-82ed-d73ce1829fe1"},"vehicle_type_id":"4","last_reported":1746609098,"current_range_meters":24000,"station_id":"","pricing_plan_id":"cebpf4jnsgd1na2vs0mg"},{"bike_id":"4b06adb4-e7b7-4494-ba50-59f1152c46d9","system_id":"levelo_inurba_marseille","lat":43.2656,"lon":5.37292,"is_reserved":false,"is_disabled":false,"rental_uris":{"android":"levelo://app?vid=4b06adb4-e7b7-4494-ba50-59f1152c46d9","ios":"levelo://app?vid=4b06adb4-e7b7-4494-ba50-59f1152c46d9"},"vehicle_type_id":"4","last_reported":1746609098,"current_range_meters":24000,"station_id":"ce4bhg12rcd13ifvqf70","pricing_plan_id":"cebpf4jnsgd1na2vs0mg"},{"bike_id":"66def5c7-deb8-4fda-b49e-eec25991b3ad","system_id":"levelo_inurba_marseille","lat":43.281457,"lon":5.402073,"is_reserved":false,"is_disabled":false,"rental_uris":{"android":"levelo://app?vid=66def5c7-deb8-4fda-b49e-eec25991b3ad","ios":"levelo://app?vid=66def5c7-deb8-4fda-b49e-eec25991b3ad"},"vehicle_type_id":"4","last_reported":1746609098,"current_range_meters":24000,"station_id":"","pricing_plan_id":"cebpf4jnsgd1na2vs0mg"},{"bike_id":"ee28b82d-4040-4f62-9897-5c866ee16043","system_id":"levelo_inurba_marseille","lat":43.240765,"lon":5.377575,"is_reserved":false,"is_disabled":false,"rental_uris":{"android":"levelo://app?vid=ee28b82d-4040-4f62-9897-5c866ee16043","ios":"levelo://app?vid=ee28b82d-4040-4f62-9897-5c866ee16043"},"vehicle_type_id":"4","last_reported":1746609098,"current_range_meters":24000,"station_id":"ce4bhnp2rcd13ifvqgvg","pricing_plan_id":"cebpf4jnsgd1na2vs0mg"},{"bike_id":"2aef606a-f992-45df-807a-b961c83e874e","system_id":"levelo_inurba_marseille","lat":43.29974,"lon":5.38491,"is_reserved":false,"is_disabled":false,"rental_uris":{"android":"levelo://app?vid=2aef606a-f992-45df-807a-b961c83e874e","ios":"levelo://app?vid=2aef606a-f992-45df-807a-b961c83e874e"},"vehicle_type_id":"4","last_reported":1746609098,"current_range_meters":24000,"station_id":"ce4bgj92rcd13ifvqbd0","pricing_plan_id":"cebpf4jnsgd1na2vs0mg"},{"bike_id":"ff807334-3ad3-4e40-bbde-648eb2b1c45b","system_id":"levelo_inurba_marseille","lat":43.2121,"lon":5.3507,"is_reserved":false,"is_disabled":false,"rental_uris":{"android":"levelo://app?vid=ff807334-3ad3-4e40-bbde-648eb2b1c45b","ios":"levelo://app?vid=ff807334-3ad3-4e40-bbde-648eb2b1c45b"},"vehicle_type_id":"4","last_reported":1746609098,"current_range_meters":24000,"station_id":"st_cvj6sg6p6f1abm77japg","pricing_plan_id":"cebpf4jnsgd1na2vs0mg"},{"bike_id":"b281e3a2-2005-4830-a730-cd007006a903","system_id":"levelo_inurba_marseille","lat":43.29572,"lon":5.36734,"is_reserved":false,"is_disabled":false,"rental_uris":{"android":"levelo://app?vid=b281e3a2-2005-4830-a730-cd007006a903","ios":"levelo://app?vid=b281e3a2-2005-4830-a730-cd007006a903"},"vehicle_type_id":"4","last_reported":1746609098,"current_range_meters":24400,"station_id":"ce4bgph2rcd13ifvqc2g","pricing_plan_id":"cebpf4jnsgd1na2vs0mg"},{"bike_id":"4946e6da-9c94-4a8e-bc7c-3938e341f47d","system_id":"levelo_inurba_marseille","lat":43.21751,"lon":5.346,"is_reserved":false,"is_disabled":false,"rental_uris":{"android":"levelo://app?vid=4946e6da-9c94-4a8e-bc7c-3938e341f47d","ios":"levelo://app?vid=4946e6da-9c94-4a8e-bc7c-3938e341f47d"},"vehicle_type_id":"4","last_reported":1746609098,"current_range_meters":24400,"station_id":"st_cvj6r9ubvosntc0bgbag","pricing_plan_id":"cebpf4jnsgd1na2vs0mg"},{"bike_id":"707d8317-a1e1-4582-b1c0-e2783213dbdf","system_id":"levelo_inurba_marseille","lat":43.30949,"lon":5.39014,"is_reserved":false,"is_disabled":true,"rental_uris":{"android":"levelo://app?vid=707d8317-a1e1-4582-b1c0-e2783213dbdf","ios":"levelo://app?vid=707d8317-a1e1-4582-b1c0-e2783213dbdf"},"vehicle_type_id":"4","last_reported":1746609098,"current_range_meters":24400,"station_id":"ce4bgup2rcd13ifvqco0","pricing_plan_id":"cebpf4jnsgd1na2vs0mg"},{"bike_id":"a7561b9d-a6a2-4748-877c-2f4a31486eeb","system_id":"levelo_inurba_marseille","lat":43.284335,"lon":5.391992,"is_reserved":false,"is_disabled":false,"rental_uris":{"android":"levelo://app?vid=a7561b9d-a6a2-4748-877c-2f4a31486eeb","ios":"levelo://app?vid=a7561b9d-a6a2-4748-877c-2f4a31486eeb"},"vehicle_type_id":"4","last_reported":1746609098,"current_range_meters":24400,"station_id":"ce4bhoh2rcd13ifvqh5g","pricing_plan_id":"cebpf4jnsgd1na2vs0mg"},{"bike_id":"9cba1a44-525d-483d-8899-5595fe172b37","system_id":"levelo_inurba_marseille","lat":43.33596,"lon":5.41002,"is_reserved":false,"is_disabled":false,"rental_uris":{"android":"levelo://app?vid=9cba1a44-525d-483d-8899-5595fe172b37","ios":"levelo://app?vid=9cba1a44-525d-483d-8899-5595fe172b37"},"vehicle_type_id":"4","last_reported":1746609098,"current_range_meters":24400,"station_id":"ce4bhqh2rcd13ifvqhmg","pricing_plan_id":"cebpf4jnsgd1na2vs0mg"},{"bike_id":"6f10f711-89e9-4298-a792-fc929d7a01de","system_id":"levelo_inurba_marseille","lat":43.30886,"lon":5.36855,"is_reserved":false,"is_disabled":false,"rental_uris":{"android":"levelo://app?vid=6f10f711-89e9-4298-a792-fc929d7a01de","ios":"levelo://app?vid=6f10f711-89e9-4298-a792-fc929d7a01de"},"vehicle_type_id":"4","last_reported":1746609098,"current_range_meters":24400,"station_id":"ce4bgn92rcd13ifvqbvg","pricing_plan_id":"cebpf4jnsgd1na2vs0mg"},{"bike_id":"fffd3d76-da5d-43ca-9730-1eea3ac64f2c","system_id":"levelo_inurba_marseille","lat":43.25925,"lon":5.40909,"is_reserved":false,"is_disabled":false,"rental_uris":{"android":"levelo://app?vid=fffd3d76-da5d-43ca-9730-1eea3ac64f2c","ios":"levelo://app?vid=fffd3d76-da5d-43ca-9730-1eea3ac64f2c"},"vehicle_type_id":"4","last_reported":1746609098,"current_range_meters":24400,"station_id":"ce4bhm92rcd13ifvqglg","pricing_plan_id":"cebpf4jnsgd1na2vs0mg"},{"bike_id":"12c1ddf1-31dc-4c99-a27d-54b7b409e272","system_id":"levelo_inurba_marseille","lat":43.24073,"lon":5.37754,"is_reserved":false,"is_disabled":false,"rental_uris":{"android":"levelo://app?vid=12c1ddf1-31dc-4c99-a27d-54b7b409e272","ios":"levelo://app?vid=12c1ddf1-31dc-4c99-a27d-54b7b409e272"},"vehicle_type_id":"4","last_reported":1746609098,"current_range_meters":24400,"station_id":"ce4bhnp2rcd13ifvqgvg","pricing_plan_id":"cebpf4jnsgd1na2vs0mg"},{"bike_id":"ea24b8b0-c527-40b0-afd1-e53441cb456e","system_id":"levelo_inurba_marseille","lat":43.30528,"lon":5.36514,"is_reserved":false,"is_disabled":false,"rental_uris":{"android":"levelo://app?vid=ea24b8b0-c527-40b0-afd1-e53441cb456e","ios":"levelo://app?vid=ea24b8b0-c527-40b0-afd1-e53441cb456e"},"vehicle_type_id":"4","last_reported":1746609098,"current_range_meters":24400,"station_id":"ce4bgs12rcd13ifvqcag","pricing_plan_id":"cebpf4jnsgd1na2vs0mg"},{"bike_id":"c54bf8eb-07b3-4341-bb68-7c918d04487d","system_id":"levelo_inurba_marseille","lat":43.30919,"lon":5.36837,"is_reserved":false,"is_disabled":false,"rental_uris":{"android":"levelo://app?vid=c54bf8eb-07b3-4341-bb68-7c918d04487d","ios":"levelo://app?vid=c54bf8eb-07b3-4341-bb68-7c918d04487d"},"vehicle_type_id":"4","last_reported":1746609098,"current_range_meters":24400,"station_id":"ce4bgn92rcd13ifvqbvg","pricing_plan_id":"cebpf4jnsgd1na2vs0mg"},{"bike_id":"35f8e959-cd7a-46b9-a417-63ce851ae559","system_id":"levelo_inurba_marseille","lat":43.295347,"lon":5.390426,"is_reserved":false,"is_disabled":false,"rental_uris":{"android":"levelo://app?vid=35f8e959-cd7a-46b9-a417-63ce851ae559","ios":"levelo://app?vid=35f8e959-cd7a-46b9-a417-63ce851ae559"},"vehicle_type_id":"4","last_reported":1746609098,"current_range_meters":24800,"station_id":"ce4bh3p2rcd13ifvqdp0","pricing_plan_id":"cebpf4jnsgd1na2vs0mg"},{"bike_id":"bd92e776-b809-4bd1-9463-5d3510f3ecb2","system_id":"levelo_inurba_marseille","lat":43.266806,"lon":5.382703,"is_reserved":false,"is_disabled":false,"rental_uris":{"android":"levelo://app?vid=bd92e776-b809-4bd1-9463-5d3510f3ecb2","ios":"levelo://app?vid=bd92e776-b809-4bd1-9463-5d3510f3ecb2"},"vehicle_type_id":"4","last_reported":1746609098,"current_range_meters":24800,"station_id":"ce4bhg92rcd13ifvqf90","pricing_plan_id":"cebpf4jnsgd1na2vs0mg"},{"bike_id":"f73d450b-fde6-4898-99b1-916875a407c6","system_id":"levelo_inurba_marseille","lat":43.225,"lon":5.34783,"is_reserved":false,"is_disabled":false,"rental_uris":{"android":"levelo://app?vid=f73d450b-fde6-4898-99b1-916875a407c6","ios":"levelo://app?vid=f73d450b-fde6-4898-99b1-916875a407c6"},"vehicle_type_id":"4","last_reported":1746609098,"current_range_meters":24800,"station_id":"st_cvj5dfep6f1abm77gieg","pricing_plan_id":"cebpf4jnsgd1na2vs0mg"},{"bike_id":"99a07f65-c615-4cf3-b7a0-03ebfeec6574","system_id":"levelo_inurba_marseille","lat":43.26688,"lon":5.38273,"is_reserved":false,"is_disabled":false,"rental_uris":{"android":"levelo://app?vid=99a07f65-c615-4cf3-b7a0-03ebfeec6574","ios":"levelo://app?vid=99a07f65-c615-4cf3-b7a0-03ebfeec6574"},"vehicle_type_id":"4","last_reported":1746609098,"current_range_meters":24800,"station_id":"ce4bhg92rcd13ifvqf90","pricing_plan_id":"cebpf4jnsgd1na2vs0mg"},{"bike_id":"840567d5-3219-4a4c-874a-98158d56ca20","system_id":"levelo_inurba_marseille","lat":43.2962,"lon":5.37162,"is_reserved":false,"is_disabled":false,"rental_uris":{"android":"levelo://app?vid=840567d5-3219-4a4c-874a-98158d56ca20","ios":"levelo://app?vid=840567d5-3219-4a4c-874a-98158d56ca20"},"vehicle_type_id":"4","last_reported":1746609098,"current_range_meters":24800,"station_id":"ce4bgnh2rcd13ifvqc0g","pricing_plan_id":"cebpf4jnsgd1na2vs0mg"},{"bike_id":"75f2b3e2-41d1-42b4-8558-91039ee38dba","system_id":"levelo_inurba_marseille","lat":43.26562,"lon":5.37285,"is_reserved":false,"is_disabled":false,"rental_uris":{"android":"levelo://app?vid=75f2b3e2-41d1-42b4-8558-91039ee38dba","ios":"levelo://app?vid=75f2b3e2-41d1-42b4-8558-91039ee38dba"},"vehicle_type_id":"4","last_reported":1746609098,"current_range_meters":24800,"station_id":"ce4bhg12rcd13ifvqf70","pricing_plan_id":"cebpf4jnsgd1na2vs0mg"},{"bike_id":"f3e9ab38-3242-4aa5-83f9-529a16ccf936","system_id":"levelo_inurba_marseille","lat":43.22527,"lon":5.34784,"is_reserved":false,"is_disabled":true,"rental_uris":{"android":"levelo://app?vid=f3e9ab38-3242-4aa5-83f9-529a16ccf936","ios":"levelo://app?vid=f3e9ab38-3242-4aa5-83f9-529a16ccf936"},"vehicle_type_id":"4","last_reported":1746609098,"current_range_meters":24800,"station_id":"st_cvj5dfep6f1abm77gieg","pricing_plan_id":"cebpf4jnsgd1na2vs0mg"},{"bike_id":"1453c58e-75e3-4a9f-8fd1-59f11bfb559b","system_id":"levelo_inurba_marseille","lat":43.2417,"lon":5.39724,"is_reserved":false,"is_disabled":false,"rental_uris":{"android":"levelo://app?vid=1453c58e-75e3-4a9f-8fd1-59f11bfb559b","ios":"levelo://app?vid=1453c58e-75e3-4a9f-8fd1-59f11bfb559b"},"vehicle_type_id":"4","last_reported":1746609098,"current_range_meters":24800,"station_id":"ce4bhn12rcd13ifvqgpg","pricing_plan_id":"cebpf4jnsgd1na2vs0mg"},{"bike_id":"a49c3212-2ebf-4640-933d-e5784397b8d7","system_id":"levelo_inurba_marseille","lat":43.27513,"lon":5.39547,"is_reserved":false,"is_disabled":false,"rental_uris":{"android":"levelo://app?vid=a49c3212-2ebf-4640-933d-e5784397b8d7","ios":"levelo://app?vid=a49c3212-2ebf-4640-933d-e5784397b8d7"},"vehicle_type_id":"4","last_reported":1746609098,"current_range_meters":25200,"station_id":"","pricing_plan_id":"cebpf4jnsgd1na2vs0mg"},{"bike_id":"8c880c1f-85be-4137-a10c-32144cd8d414","system_id":"levelo_inurba_marseille","lat":43.24073,"lon":5.37752,"is_reserved":false,"is_disabled":false,"rental_uris":{"android":"levelo://app?vid=8c880c1f-85be-4137-a10c-32144cd8d414","ios":"levelo://app?vid=8c880c1f-85be-4137-a10c-32144cd8d414"},"vehicle_type_id":"4","last_reported":1746609098,"current_range_meters":25200,"station_id":"ce4bhnp2rcd13ifvqgvg","pricing_plan_id":"cebpf4jnsgd1na2vs0mg"},{"bike_id":"2ff8ca4f-139c-4583-a0ba-27d1b07e2f24","system_id":"levelo_inurba_marseille","lat":43.289703,"lon":5.356678,"is_reserved":false,"is_disabled":false,"rental_uris":{"android":"levelo://app?vid=2ff8ca4f-139c-4583-a0ba-27d1b07e2f24","ios":"levelo://app?vid=2ff8ca4f-139c-4583-a0ba-27d1b07e2f24"},"vehicle_type_id":"4","last_reported":1746609098,"current_range_meters":25200,"station_id":"ce4bhb92rcd13ifvqen0","pricing_plan_id":"cebpf4jnsgd1na2vs0mg"},{"bike_id":"0b4768f5-eff7-4811-ada7-e1138dcdb437","system_id":"levelo_inurba_marseille","lat":43.25927,"lon":5.40903,"is_reserved":false,"is_disabled":false,"rental_uris":{"android":"levelo://app?vid=0b4768f5-eff7-4811-ada7-e1138dcdb437","ios":"levelo://app?vid=0b4768f5-eff7-4811-ada7-e1138dcdb437"},"vehicle_type_id":"4","last_reported":1746609098,"current_range_meters":25200,"station_id":"ce4bhm92rcd13ifvqglg","pricing_plan_id":"cebpf4jnsgd1na2vs0mg"},{"bike_id":"1ca8cb49-4097-4472-bdb4-6a21bc53f778","system_id":"levelo_inurba_marseille","lat":43.30126,"lon":5.39879,"is_reserved":false,"is_disabled":false,"rental_uris":{"android":"levelo://app?vid=1ca8cb49-4097-4472-bdb4-6a21bc53f778","ios":"levelo://app?vid=1ca8cb49-4097-4472-bdb4-6a21bc53f778"},"vehicle_type_id":"4","last_reported":1746609098,"current_range_meters":25200,"station_id":"ce4bh0h2rcd13ifvqd40","pricing_plan_id":"cebpf4jnsgd1na2vs0mg"},{"bike_id":"db7282b4-81ab-4a37-bad5-9d4589e9fd77","system_id":"levelo_inurba_marseille","lat":43.309,"lon":5.36853,"is_reserved":false,"is_disabled":false,"rental_uris":{"android":"levelo://app?vid=db7282b4-81ab-4a37-bad5-9d4589e9fd77","ios":"levelo://app?vid=db7282b4-81ab-4a37-bad5-9d4589e9fd77"},"vehicle_type_id":"4","last_reported":1746609098,"current_range_meters":25200,"station_id":"ce4bgn92rcd13ifvqbvg","pricing_plan_id":"cebpf4jnsgd1na2vs0mg"},{"bike_id":"e3e242c0-f561-4e5c-bc18-fa486ff74090","system_id":"levelo_inurba_marseille","lat":43.24165,"lon":5.36386,"is_reserved":false,"is_disabled":false,"rental_uris":{"android":"levelo://app?vid=e3e242c0-f561-4e5c-bc18-fa486ff74090","ios":"levelo://app?vid=e3e242c0-f561-4e5c-bc18-fa486ff74090"},"vehicle_type_id":"4","last_reported":1746609098,"current_range_meters":25200,"station_id":"cpo36qri1sfpv3e86is0","pricing_plan_id":"cebpf4jnsgd1na2vs0mg"},{"bike_id":"dfb00836-3172-4862-b491-f18dcd3d09e2","system_id":"levelo_inurba_marseille","lat":43.2408,"lon":5.37751,"is_reserved":false,"is_disabled":false,"rental_uris":{"android":"levelo://app?vid=dfb00836-3172-4862-b491-f18dcd3d09e2","ios":"levelo://app?vid=dfb00836-3172-4862-b491-f18dcd3d09e2"},"vehicle_type_id":"4","last_reported":1746609098,"current_range_meters":25200,"station_id":"ce4bhnp2rcd13ifvqgvg","pricing_plan_id":"cebpf4jnsgd1na2vs0mg"},{"bike_id":"86de1bc6-478a-4a3f-839b-c1c7eb422693","system_id":"levelo_inurba_marseille","lat":43.29267,"lon":5.37623,"is_reserved":false,"is_disabled":false,"rental_uris":{"android":"levelo://app?vid=86de1bc6-478a-4a3f-839b-c1c7eb422693","ios":"levelo://app?vid=86de1bc6-478a-4a3f-839b-c1c7eb422693"},"vehicle_type_id":"4","last_reported":1746609098,"current_range_meters":25200,"station_id":"ce4bgi12rcd13ifvqb80","pricing_plan_id":"cebpf4jnsgd1na2vs0mg"},{"bike_id":"69b5143f-33f0-41a2-afe2-16d93f90791b","system_id":"levelo_inurba_marseille","lat":43.308853,"lon":5.368313,"is_reserved":false,"is_disabled":true,"rental_uris":{"android":"levelo://app?vid=69b5143f-33f0-41a2-afe2-16d93f90791b","ios":"levelo://app?vid=69b5143f-33f0-41a2-afe2-16d93f90791b"},"vehicle_type_id":"4","last_reported":1746609098,"current_range_meters":25600,"station_id":"ce4bgn92rcd13ifvqbvg","pricing_plan_id":"cebpf4jnsgd1na2vs0mg"},{"bike_id":"7579a4f1-2cfc-4008-97a1-78ef200890a8","system_id":"levelo_inurba_marseille","lat":43.29784,"lon":5.38109,"is_reserved":false,"is_disabled":false,"rental_uris":{"android":"levelo://app?vid=7579a4f1-2cfc-4008-97a1-78ef200890a8","ios":"levelo://app?vid=7579a4f1-2cfc-4008-97a1-78ef200890a8"},"vehicle_type_id":"4","last_reported":1746609098,"current_range_meters":25600,"station_id":"ce4bgip2rcd13ifvqbb0","pricing_plan_id":"cebpf4jnsgd1na2vs0mg"},{"bike_id":"f16bfab2-ae06-4697-885f-67e53bd07272","system_id":"levelo_inurba_marseille","lat":43.28595,"lon":5.3511,"is_reserved":false,"is_disabled":false,"rental_uris":{"android":"levelo://app?vid=f16bfab2-ae06-4697-885f-67e53bd07272","ios":"levelo://app?vid=f16bfab2-ae06-4697-885f-67e53bd07272"},"vehicle_type_id":"4","last_reported":1746609098,"current_range_meters":25600,"station_id":"ce4bhch2rcd13ifvqeug","pricing_plan_id":"cebpf4jnsgd1na2vs0mg"},{"bike_id":"22a5c2d1-184c-4055-9770-a37d865c1f8b","system_id":"levelo_inurba_marseille","lat":43.27172,"lon":5.40993,"is_reserved":false,"is_disabled":false,"rental_uris":{"android":"levelo://app?vid=22a5c2d1-184c-4055-9770-a37d865c1f8b","ios":"levelo://app?vid=22a5c2d1-184c-4055-9770-a37d865c1f8b"},"vehicle_type_id":"4","last_reported":1746609098,"current_range_meters":25600,"station_id":"ce4bhl12rcd13ifvqgf0","pricing_plan_id":"cebpf4jnsgd1na2vs0mg"},{"bike_id":"f0d40f8a-8735-4a05-8216-c6602badb610","system_id":"levelo_inurba_marseille","lat":43.292,"lon":5.39325,"is_reserved":false,"is_disabled":false,"rental_uris":{"android":"levelo://app?vid=f0d40f8a-8735-4a05-8216-c6602badb610","ios":"levelo://app?vid=f0d40f8a-8735-4a05-8216-c6602badb610"},"vehicle_type_id":"4","last_reported":1746609098,"current_range_meters":25600,"station_id":"ce4bh192rcd13ifvqdd0","pricing_plan_id":"cebpf4jnsgd1na2vs0mg"},{"bike_id":"8108fa38-1efa-4a44-9045-eaedc56cebf9","system_id":"levelo_inurba_marseille","lat":43.26204,"lon":5.37927,"is_reserved":false,"is_disabled":false,"rental_uris":{"android":"levelo://app?vid=8108fa38-1efa-4a44-9045-eaedc56cebf9","ios":"levelo://app?vid=8108fa38-1efa-4a44-9045-eaedc56cebf9"},"vehicle_type_id":"4","last_reported":1746609098,"current_range_meters":26000,"station_id":"ce4bhjp2rcd13ifvqg90","pricing_plan_id":"cebpf4jnsgd1na2vs0mg"},{"bike_id":"a7d36e34-ae5c-4a51-81f7-3d984fff6bc6","system_id":"levelo_inurba_marseille","lat":43.25723,"lon":5.41107,"is_reserved":false,"is_disabled":false,"rental_uris":{"android":"levelo://app?vid=a7d36e34-ae5c-4a51-81f7-3d984fff6bc6","ios":"levelo://app?vid=a7d36e34-ae5c-4a51-81f7-3d984fff6bc6"},"vehicle_type_id":"4","last_reported":1746609098,"current_range_meters":26000,"station_id":"ce4bhkp2rcd13ifvqgd0","pricing_plan_id":"cebpf4jnsgd1na2vs0mg"},{"bike_id":"c1041c9f-2085-470a-b13c-f88fd8323115","system_id":"levelo_inurba_marseille","lat":43.27728,"lon":5.38701,"is_reserved":false,"is_disabled":false,"rental_uris":{"android":"levelo://app?vid=c1041c9f-2085-470a-b13c-f88fd8323115","ios":"levelo://app?vid=c1041c9f-2085-470a-b13c-f88fd8323115"},"vehicle_type_id":"4","last_reported":1746609098,"current_range_meters":26000,"station_id":"","pricing_plan_id":"cebpf4jnsgd1na2vs0mg"},{"bike_id":"e49368ee-22b0-4fcf-ba2f-958fa5efc9bd","system_id":"levelo_inurba_marseille","lat":43.25111,"lon":5.40319,"is_reserved":false,"is_disabled":false,"rental_uris":{"android":"levelo://app?vid=e49368ee-22b0-4fcf-ba2f-958fa5efc9bd","ios":"levelo://app?vid=e49368ee-22b0-4fcf-ba2f-958fa5efc9bd"},"vehicle_type_id":"4","last_reported":1746609098,"current_range_meters":26000,"station_id":"ce4bhlh2rcd13ifvqgig","pricing_plan_id":"cebpf4jnsgd1na2vs0mg"},{"bike_id":"10f9297d-7dcd-4169-a091-ba5d621e46a4","system_id":"levelo_inurba_marseille","lat":43.31349,"lon":5.36732,"is_reserved":false,"is_disabled":false,"rental_uris":{"android":"levelo://app?vid=10f9297d-7dcd-4169-a091-ba5d621e46a4","ios":"levelo://app?vid=10f9297d-7dcd-4169-a091-ba5d621e46a4"},