{"last_updated":1726537410,"ttl":30,"version":"2.2","data":{"bikes":[{"bike_id":"1e4e25cc-20ca-4921-a5dd-7d0a92a2f479","system_id":"levelo_inurba_marseille","lat":43.3064,"lon":5.40097,"is_reserved":false,"is_disabled":false,"rental_uris":{"android":"levelo://app?vid=1e4e25cc-20ca-4921-a5dd-7d0a92a2f479","ios":"levelo://app?vid=1e4e25cc-20ca-4921-a5dd-7d0a92a2f479"},"vehicle_type_id":"4","last_reported":1726537410,"current_range_meters":37600,"station_id":"ce4bh112rcd13ifvqda0","pricing_plan_id":"cebpf4jnsgd1na2vs0mg"},{"bike_id":"18d6962d-b5d0-4cf1-8d82-4aef16436bc2","system_id":"levelo_inurba_marseille","lat":43.2864,"lon":5.35095,"is_reserved":false,"is_disabled":false,"rental_uris":{"android":"levelo://app?vid=18d6962d-b5d0-4cf1-8d82-4aef16436bc2","ios":"levelo://app?vid=18d6962d-b5d0-4cf1-8d82-4aef16436bc2"},"vehicle_type_id":"4","last_reported":1726537410,"current_range_meters":38800,"station_id":"ce4bhch2rcd13ifvqeug","pricing_plan_id":"cebpf4jnsgd1na2vs0mg"},{"bike_id":"ed37adc8-fe9c-4a94-a4e2-4268ebeae7d8","system_id":"levelo_inurba_marseille","lat":43.26942,"lon":5.40253,"is_reserved":false,"is_disabled":false,"rental_uris":{"android":"levelo://app?vid=ed37adc8-fe9c-4a94-a4e2-4268ebeae7d8","ios":"levelo://app?vid=ed37adc8-fe9c-4a94-a4e2-4268ebeae7d8"},"vehicle_type_id":"4","last_reported":1726537410,"current_range_meters":38800,"station_id":"cjm6bp8fraef2m0cb0m0","pricing_plan_id":"cebpf4jnsgd1na2vs0mg"},{"bike_id":"137917db-1595-42b1-8d66-795edcf5d6c3","system_id":"levelo_inurba_marseille","lat":43.2588,"lon":5.39965,"is_reserved":false,"is_disabled":false,"rental_uris":{"android":"levelo://app?vid=137917db-1595-42b1-8d66-795edcf5d6c3","ios":"levelo://app?vid=137917db-1595-42b1-8d66-795edcf5d6c3"},"vehicle_type_id":"4","last_reported":1726537410,"current_range_meters":16000,"station_id":"ce4bhl92rcd13ifvqghg","pricing_plan_id":"cebpf4jnsgd1na2vs0mg"},{"bike_id":"94093477-d3cb-4d9b-bda9-bd54e8de9360","system_id":"levelo_inurba_marseille","lat":43.33011,"lon":5.39028,"is_reserved":false,"is_disabled":false,"rental_uris":{"android":"levelo://app?vid=94093477-d3cb-4d9b-bda9-bd54e8de9360","ios":"levelo://app?vid=94093477-d3cb-4d9b-bda9-bd54e8de9360"},"vehicle_type_id":"4","last_reported":1726537410,"current_range_meters":18800,"station_id":"ce4bhr92rcd13ifvqhrg","pricing_plan_id":"cebpf4jnsgd1na2vs0mg"},{"bike_id":"180f822f-e1c2-4a61-8d2f-deae6b8e3db7","system_id":"levelo_inurba_marseille","lat":43.25581,"lon":5.38233,"is_reserved":false,"is_disabled":false,"rental_uris":{"android":"levelo://app?vid=180f822f-e1c2-4a61-8d2f-deae6b8e3db7","ios":"levelo://app?vid=180f822f-e1c2-4a61-8d2f-deae6b8e3db7"},"vehicle_type_id":"4","last_reported":1726537410,"current_range_meters":13600,"station_id":"ce4bhih2rcd13ifvqfs0","pricing_plan_id":"cebpf4jnsgd1na2vs0mg"},{"bike_id":"e58e4e10-994d-474f-afcc-7b41ddc63dfe","system_id":"levelo_inurba_marseille","lat":43.28152,"lon":5.42631,"is_reserved":false,"is_disabled":false,"rental_uris":{"android":"levelo://app?vid=e58e4e10-994d-474f-afcc-7b41ddc63dfe","ios":"levelo://app?vid=e58e4e10-994d-474f-afcc-7b41ddc63dfe"},"vehicle_type_id":"4","last_reported":1726537410,"current_range_meters":38800,"station_id":"ce4bhnh2rcd13ifvqgug","pricing_plan_id":"cebpf4jnsgd1na2vs0mg"},{"bike_id":"43176770-eaee-4996-86c7-d408161e4ce6","system_id":"levelo_inurba_marseille","lat":43.29896,"lon":5.43661,"is_reserved":false,"is_disabled":false,"rental_uris":{"android":"levelo://app?vid=43176770-eaee-4996-86c7-d408161e4ce6","ios":"levelo://app?vid=43176770-eaee-4996-86c7-d408161e4ce6"},"vehicle_type_id":"4","last_reported":1726537410,"current_range_meters":8400,"station_id":"ce4bhpp2rcd13ifvqhfg","pricing_plan_id":"cebpf4jnsgd1na2vs0mg"},{"bike_id":"0f1eacce-9190-449c-a59a-d80c044e8d7a","system_id":"levelo_inurba_marseille","lat":43.30879,"lon":5.39614,"is_reserved":false,"is_disabled":false,"rental_uris":{"android":"levelo://app?vid=0f1eacce-9190-449c-a59a-d80c044e8d7a","ios":"levelo://app?vid=0f1eacce-9190-449c-a59a-d80c044e8d7a"},"vehicle_type_id":"4","last_reported":1726537410,"current_range_meters":20000,"station_id":"ce4bh012rcd13ifvqcv0","pricing_plan_id":"cebpf4jnsgd1na2vs0mg"},{"bike_id":"9ae74781-e291-4f41-9df0-8d2a770621ca","system_id":"levelo_inurba_marseille","lat":43.3302,"lon":5.39026,"is_reserved":false,"is_disabled":false,"rental_uris":{"android":"levelo://app?vid=9ae74781-e291-4f41-9df0-8d2a770621ca","ios":"levelo://app?vid=9ae74781-e291-4f41-9df0-8d2a770621ca"},"vehicle_type_id":"4","last_reported":1726537410,"current_range_meters":38800,"station_id":"ce4bhr92rcd13ifvqhrg","pricing_plan_id":"cebpf4jnsgd1na2vs0mg"},{"bike_id":"89e75e5f-39c5-4bac-b61f-e25e8a268ad7","system_id":"levelo_inurba_marseille","lat":43.27182,"lon":5.40985,"is_reserved":false,"is_disabled":false,"rental_uris":{"android":"levelo://app?vid=89e75e5f-39c5-4bac-b61f-e25e8a268ad7","ios":"levelo://app?vid=89e75e5f-39c5-4bac-b61f-e25e8a268ad7"},"vehicle_type_id":"4","last_reported":1726537410,"current_range_meters":38800,"station_id":"ce4bhl12rcd13ifvqgf0","pricing_plan_id":"cebpf4jnsgd1na2vs0mg"},{"bike_id":"9ff51e33-edb9-4350-bfee-8e4cf4b11572","system_id":"levelo_inurba_marseille","lat":43.2815,"lon":5.42639,"is_reserved":false,"is_disabled":false,"rental_uris":{"android":"levelo://app?vid=9ff51e33-edb9-4350-bfee-8e4cf4b11572","ios":"levelo://app?vid=9ff51e33-edb9-4350-bfee-8e4cf4b11572"},"vehicle_type_id":"4","last_reported":1726537410,"current_range_meters":38800,"station_id":"ce4bhnh2rcd13ifvqgug","pricing_plan_id":"cebpf4jnsgd1na2vs0mg"},{"bike_id":"ad1268a9-189d-4991-8a09-c960b5b46bd0","system_id":"levelo_inurba_marseille","lat":43.28732,"lon":5.36084,"is_reserved":false,"is_disabled":false,"rental_uris":{"android":"levelo://app?vid=ad1268a9-189d-4991-8a09-c960b5b46bd0","ios":"levelo://app?vid=ad1268a9-189d-4991-8a09-c960b5b46bd0"},"vehicle_type_id":"4","last_reported":1726537410,"current_range_meters":29600,"station_id":"cki0cbj6b192h4jlfktg","pricing_plan_id":"cebpf4jnsgd1na2vs0mg"},{"bike_id":"0c10ec26-e5c2-4778-818d-bccf0003d305","system_id":"levelo_inurba_marseille","lat":43.29249,"lon":5.40906,"is_reserved":false,"is_disabled":false,"rental_uris":{"android":"levelo://app?vid=0c10ec26-e5c2-4778-818d-bccf0003d305","ios":"levelo://app?vid=0c10ec26-e5c2-4778-818d-bccf0003d305"},"vehicle_type_id":"4","last_reported":1726537410,"current_range_meters":38800,"station_id":"ce4bh192rcd13ifvqdc0","pricing_plan_id":"cebpf4jnsgd1na2vs0mg"},{"bike_id":"aeedf7c0-6f67-48df-83a6-e3f922ffad08","system_id":"levelo_inurba_marseille","lat":43.26802,"lon":5.40268,"is_reserved":false,"is_disabled":false,"rental_uris":{"android":"levelo://app?vid=aeedf7c0-6f67-48df-83a6-e3f922ffad08","ios":"levelo://app?vid=aeedf7c0-6f67-48df-83a6-e3f922ffad08"},"vehicle_type_id":"4","last_reported":1726537410,"current_range_meters":38800,"station_id":"ce501612rcd8frsf0b60","pricing_plan_id":"cebpf4jnsgd1na2vs0mg"},{"bike_id":"38b20570-f055-4e9d-98cb-6c13b14a6a59","system_id":"levelo_inurba_marseille","lat":43.30135,"lon":5.39879,"is_reserved":false,"is_disabled":false,"rental_uris":{"android":"levelo://app?vid=38b20570-f055-4e9d-98cb-6c13b14a6a59","ios":"levelo://app?vid=38b20570-f055-4e9d-98cb-6c13b14a6a59"},"vehicle_type_id":"4","last_reported":1726537410,"current_range_meters":24800,"station_id":"ce4bh0h2rcd13ifvqd40","pricing_plan_id":"cebpf4jnsgd1na2vs0mg"},{"bike_id":"7e0eb0bf-1dd8-4c61-80c2-927ba429e435","system_id":"levelo_inurba_marseille","lat":43.24387,"lon":5.37056,"is_reserved":false,"is_disabled":false,"rental_uris":{"android":"levelo://app?vid=7e0eb0bf-1dd8-4c61-80c2-927ba429e435","ios":"levelo://app?vid=7e0eb0bf-1dd8-4c61-80c2-927ba429e435"},"vehicle_type_id":"4","last_reported":1726537410,"current_range_meters":38400,"station_id":"ce4bhhh2rcd13ifvqfk0","pricing_plan_id":"cebpf4jnsgd1na2vs0mg"},{"bike_id":"13ec4916-f0ea-4897-8afc-596425b42c42","system_id":"levelo_inurba_marseille","lat":43.2319,"lon":5.35561,"is_reserved":false,"is_disabled":false,"rental_uris":{"android":"levelo://app?vid=13ec4916-f0ea-4897-8afc-596425b42c42","ios":"levelo://app?vid=13ec4916-f0ea-4897-8afc-596425b42c42"},"vehicle_type_id":"4","last_reported":1726537410,"current_range_meters":11600,"station_id":"ce4bhu92rcd13ifvqi70","pricing_plan_id":"cebpf4jnsgd1na2vs0mg"},{"bike_id":"58b6658b-23e6-4835-957a-fb21978120b3","system_id":"levelo_inurba_marseille","lat":43.28146,"lon":5.42647,"is_reserved":false,"is_disabled":false,"rental_uris":{"android":"levelo://app?vid=58b6658b-23e6-4835-957a-fb21978120b3","ios":"levelo://app?vid=58b6658b-23e6-4835-957a-fb21978120b3"},"vehicle_type_id":"4","last_reported":1726537410,"current_range_meters":38800,"station_id":"ce4bhnh2rcd13ifvqgug","pricing_plan_id":"cebpf4jnsgd1na2vs0mg"},{"bike_id":"7a0bab49-27b5-44fc-ac4d-73ae01c977f9","system_id":"levelo_inurba_marseille","lat":43.32365,"lon":5.38874,"is_reserved":false,"is_disabled":false,"rental_uris":{"android":"levelo://app?vid=7a0bab49-27b5-44fc-ac4d-73ae01c977f9","ios":"levelo://app?vid=7a0bab49-27b5-44fc-ac4d-73ae01c977f9"},"vehicle_type_id":"4","last_reported":1726537410,"current_range_meters":38800,"station_id":"ce4bhqp2rcd13ifvqhog","pricing_plan_id":"cebpf4jnsgd1na2vs0mg"},{"bike_id":"783830e1-6ddd-42ba-8c79-275029d3124d","system_id":"levelo_inurba_marseille","lat":43.28725,"lon":5.36093,"is_reserved":false,"is_disabled":false,"rental_uris":{"android":"levelo://app?vid=783830e1-6ddd-42ba-8c79-275029d3124d","ios":"levelo://app?vid=783830e1-6ddd-42ba-8c79-275029d3124d"},"vehicle_type_id":"4","last_reported":1726537410,"current_range_meters":38800,"station_id":"cki0cbj6b192h4jlfktg","pricing_plan_id":"cebpf4jnsgd1na2vs0mg"},{"bike_id":"7c150612-c49d-40b4-93d3-709577c5e777","system_id":"levelo_inurba_marseille","lat":43.337444,"lon":5.374475,"is_reserved":false,"is_disabled":false,"rental_uris":{"android":"levelo://app?vid=7c150612-c49d-40b4-93d3-709577c5e777","ios":"levelo://app?vid=7c150612-c49d-40b4-93d3-709577c5e777"},"vehicle_type_id":"4","last_reported":1726537410,"current_range_meters":36000,"station_id":"","pricing_plan_id":"cebpf4jnsgd1na2vs0mg"},{"bike_id":"6a4c51b3-d82e-44f8-bb4c-2c614eece92b","system_id":"levelo_inurba_marseille","lat":43.27816,"lon":5.40711,"is_reserved":false,"is_disabled":false,"rental_uris":{"android":"levelo://app?vid=6a4c51b3-d82e-44f8-bb4c-2c614eece92b","ios":"levelo://app?vid=6a4c51b3-d82e-44f8-bb4c-2c614eece92b"},"vehicle_type_id":"4","last_reported":1726537410,"current_range_meters":38800,"station_id":"ce4bhnh2rcd13ifvqgtg","pricing_plan_id":"cebpf4jnsgd1na2vs0mg"},{"bike_id":"4693d04e-9ca9-4318-bc78-f64aea014232","system_id":"levelo_inurba_marseille","lat":43.26559,"lon":5.38997,"is_reserved":false,"is_disabled":false,"rental_uris":{"android":"levelo://app?vid=4693d04e-9ca9-4318-bc78-f64aea014232","ios":"levelo://app?vid=4693d04e-9ca9-4318-bc78-f64aea014232"},"vehicle_type_id":"4","last_reported":1726537410,"current_range_meters":26800,"station_id":"ce4bhe12rcd13ifvqf30","pricing_plan_id":"cebpf4jnsgd1na2vs0mg"},{"bike_id":"e5a3b5b3-2320-4c4e-9f8b-9f6fa23846a7","system_id":"levelo_inurba_marseille","lat":43.31759,"lon":5.39019,"is_reserved":false,"is_disabled":false,"rental_uris":{"android":"levelo://app?vid=e5a3b5b3-2320-4c4e-9f8b-9f6fa23846a7","ios":"levelo://app?vid=e5a3b5b3-2320-4c4e-9f8b-9f6fa23846a7"},"vehicle_type_id":"4","last_reported":1726537410,"current_range_meters":37600,"station_id":"ce4bhqp2rcd13ifvqhng","pricing_plan_id":"cebpf4jnsgd1na2vs0mg"},{"bike_id":"723223f7-1743-4c3d-8d30-dd76151735f5","system_id":"levelo_inurba_marseille","lat":43.27658,"lon":5.38922,"is_reserved":false,"is_disabled":false,"rental_uris":{"android":"levelo://app?vid=723223f7-1743-4c3d-8d30-dd76151735f5","ios":"levelo://app?vid=723223f7-1743-4c3d-8d30-dd76151735f5"},"vehicle_type_id":"4","last_reported":1726537410,"current_range_meters":38800,"station_id":"ce4bhi12rcd13ifvqfo0","pricing_plan_id":"cebpf4jnsgd1na2vs0mg"},{"bike_id":"66a11e96-8394-4385-9cd5-65f3f9c28446","system_id":"levelo_inurba_marseille","lat":43.31758,"lon":5.39017,"is_reserved":false,"is_disabled":false,"rental_uris":{"android":"levelo://app?vid=66a11e96-8394-4385-9cd5-65f3f9c28446","ios":"levelo://app?vid=66a11e96-8394-4385-9cd5-65f3f9c28446"},"vehicle_type_id":"4","last_reported":1726537410,"current_range_meters":37600,"station_id":"ce4bhqp2rcd13ifvqhng","pricing_plan_id":"cebpf4jnsgd1na2vs0mg"},{"bike_id":"e3e3b4a7-6d5e-48d3-ba69-f3a80ee0dcef","system_id":"levelo_inurba_marseille","lat":43.29252,"lon":5.40904,"is_reserved":false,"is_disabled":false,"rental_uris":{"android":"levelo://app?vid=e3e3b4a7-6d5e-48d3-ba69-f3a80ee0dcef","ios":"levelo://app?vid=e3e3b4a7-6d5e-48d3-ba69-f3a80ee0dcef"},"vehicle_type_id":"4","last_reported":1726537410,"current_range_meters":38800,"station_id":"ce4bh192rcd13ifvqdc0","pricing_plan_id":"cebpf4jnsgd1na2vs0mg"},{"bike_id":"b196c513-8bf3-418d-bf86-aeb8fb8f2275","system_id":"levelo_inurba_marseille","lat":43.31372,"lon":5.385,"is_reserved":false,"is_disabled":false,"rental_uris":{"android":"levelo://app?vid=b196c513-8bf3-418d-bf86-aeb8fb8f2275","ios":"levelo://app?vid=b196c513-8bf3-418d-bf86-aeb8fb8f2275"},"vehicle_type_id":"4","last_reported":1726537410,"current_range_meters":32800,"station_id":"ce4bgt92rcd13ifvqcf0","pricing_plan_id":"cebpf4jnsgd1na2vs0mg"},{"bike_id":"dbd298e0-a382-4414-92ca-00d7d938bcff","system_id":"levelo_inurba_marseille","lat":43.23197,"lon":5.35547,"is_reserved":false,"is_disabled":false,"rental_uris":{"android":"levelo://app?vid=dbd298e0-a382-4414-92ca-00d7d938bcff","ios":"levelo://app?vid=dbd298e0-a382-4414-92ca-00d7d938bcff"},"vehicle_type_id":"4","last_reported":1726537410,"current_range_meters":38400,"station_id":"ce4bhu92rcd13ifvqi70","pricing_plan_id":"cebpf4jnsgd1na2vs0mg"},{"bike_id":"74604862-7a27-47d9-a14c-08aaf1e49bdc","system_id":"levelo_inurba_marseille","lat":43.30415,"lon":5.41281,"is_reserved":false,"is_disabled":false,"rental_uris":{"android":"levelo://app?vid=74604862-7a27-47d9-a14c-08aaf1e49bdc","ios":"levelo://app?vid=74604862-7a27-47d9-a14c-08aaf1e49bdc"},"vehicle_type_id":"4","last_reported":1726537410,"current_range_meters":38800,"station_id":"ce4bhop2rcd13ifvqh8g","pricing_plan_id":"cebpf4jnsgd1na2vs0mg"},{"bike_id":"de7e8524-2f89-4d57-ac47-4ef770fa7c40","system_id":"levelo_inurba_marseille","lat":43.28082,"lon":5.39665,"is_reserved":false,"is_disabled":false,"rental_uris":{"android":"levelo://app?vid=de7e8524-2f89-4d57-ac47-4ef770fa7c40","ios":"levelo://app?vid=de7e8524-2f89-4d57-ac47-4ef770fa7c40"},"vehicle_type_id":"4","last_reported":1726537410,"current_range_meters":38800,"station_id":"ce4bho12rcd13ifvqh2g","pricing_plan_id":"cebpf4jnsgd1na2vs0mg"},{"bike_id":"79b73ca8-4ce3-4891-bf2b-a24a123a231c","system_id":"levelo_inurba_marseille","lat":43.26937,"lon":5.40253,"is_reserved":false,"is_disabled":false,"rental_uris":{"android":"levelo://app?vid=79b73ca8-4ce3-4891-bf2b-a24a123a231c","ios":"levelo://app?vid=79b73ca8-4ce3-4891-bf2b-a24a123a231c"},"vehicle_type_id":"4","last_reported":1726537410,"current_range_meters":22400,"station_id":"cjm6bp8fraef2m0cb0m0","pricing_plan_id":"cebpf4jnsgd1na2vs0mg"},{"bike_id":"69492fd4-7aea-4a82-b3a4-28d065ca5722","system_id":"levelo_inurba_marseille","lat":43.27833,"lon":5.392,"is_reserved":false,"is_disabled":false,"rental_uris":{"android":"levelo://app?vid=69492fd4-7aea-4a82-b3a4-28d065ca5722","ios":"levelo://app?vid=69492fd4-7aea-4a82-b3a4-28d065ca5722"},"vehicle_type_id":"4","last_reported":1726537410,"current_range_meters":38800,"station_id":"ce4bhjp2rcd13ifvqga0","pricing_plan_id":"cebpf4jnsgd1na2vs0mg"},{"bike_id":"59e50323-d2e7-4c43-b6ba-513ac92be97a","system_id":"levelo_inurba_marseille","lat":43.25819,"lon":5.39434,"is_reserved":false,"is_disabled":false,"rental_uris":{"android":"levelo://app?vid=59e50323-d2e7-4c43-b6ba-513ac92be97a","ios":"levelo://app?vid=59e50323-d2e7-4c43-b6ba-513ac92be97a"},"vehicle_type_id":"4","last_reported":1726537410,"current_range_meters":38800,"station_id":"","pricing_plan_id":"cebpf4jnsgd1na2vs0mg"},{"bike_id":"d40de1f4-89be-4162-9b10-be428b5a38aa","system_id":"levelo_inurba_marseille","lat":43.31752,"lon":5.3903,"is_reserved":false,"is_disabled":false,"rental_uris":{"android":"levelo://app?vid=d40de1f4-89be-4162-9b10-be428b5a38aa","ios":"levelo://app?vid=d40de1f4-89be-4162-9b10-be428b5a38aa"},"vehicle_type_id":"4","last_reported":1726537410,"current_range_meters":20800,"station_id":"ce4bhqp2rcd13ifvqhng","pricing_plan_id":"cebpf4jnsgd1na2vs0mg"},{"bike_id":"8420397d-a83c-4adc-9a3b-30db84a637f5","system_id":"levelo_inurba_marseille","lat":43.30925,"lon":5.40134,"is_reserved":false,"is_disabled":false,"rental_uris":{"android":"levelo://app?vid=8420397d-a83c-4adc-9a3b-30db84a637f5","ios":"levelo://app?vid=8420397d-a83c-4adc-9a3b-30db84a637f5"},"vehicle_type_id":"4","last_reported":1726537410,"current_range_meters":27600,"station_id":"ce4bgvp2rcd13ifvqct0","pricing_plan_id":"cebpf4jnsgd1na2vs0mg"},{"bike_id":"55c36c80-c042-4c80-a166-b0676d8dd5bf","system_id":"levelo_inurba_marseille","lat":43.28847,"lon":5.35845,"is_reserved":false,"is_disabled":false,"rental_uris":{"android":"levelo://app?vid=55c36c80-c042-4c80-a166-b0676d8dd5bf","ios":"levelo://app?vid=55c36c80-c042-4c80-a166-b0676d8dd5bf"},"vehicle_type_id":"4","last_reported":1726537410,"current_range_meters":26000,"station_id":"ce4bhb12rcd13ifvqem0","pricing_plan_id":"cebpf4jnsgd1na2vs0mg"},{"bike_id":"2a5808e5-1612-4dc1-a62b-b9c71459256c","system_id":"levelo_inurba_marseille","lat":43.34094,"lon":5.39108,"is_reserved":false,"is_disabled":false,"rental_uris":{"android":"levelo://app?vid=2a5808e5-1612-4dc1-a62b-b9c71459256c","ios":"levelo://app?vid=2a5808e5-1612-4dc1-a62b-b9c71459256c"},"vehicle_type_id":"4","last_reported":1726537410,"current_range_meters":14800,"station_id":"","pricing_plan_id":"cebpf4jnsgd1na2vs0mg"},{"bike_id":"03f057ab-78ba-4602-952f-cd279147a6ac","system_id":"levelo_inurba_marseille","lat":43.28016,"lon":5.39408,"is_reserved":false,"is_disabled":false,"rental_uris":{"android":"levelo://app?vid=03f057ab-78ba-4602-952f-cd279147a6ac","ios":"levelo://app?vid=03f057ab-78ba-4602-952f-cd279147a6ac"},"vehicle_type_id":"4","last_reported":1726537410,"current_range_meters":36800,"station_id":"","pricing_plan_id":"cebpf4jnsgd1na2vs0mg"},{"bike_id":"1e38682e-d647-4de2-b6c0-fcec4e4dce9f","system_id":"levelo_inurba_marseille","lat":43.33019,"lon":5.39029,"is_reserved":false,"is_disabled":false,"rental_uris":{"android":"levelo://app?vid=1e38682e-d647-4de2-b6c0-fcec4e4dce9f","ios":"levelo://app?vid=1e38682e-d647-4de2-b6c0-fcec4e4dce9f"},"vehicle_type_id":"4","last_reported":1726537410,"current_range_meters":38000,"station_id":"ce4bhr92rcd13ifvqhrg","pricing_plan_id":"cebpf4jnsgd1na2vs0mg"},{"bike_id":"e75bdf37-6017-4dd9-8183-f2edc970ca06","system_id":"levelo_inurba_marseille","lat":43.23193,"lon":5.35552,"is_reserved":false,"is_disabled":false,"rental_uris":{"android":"levelo://app?vid=e75bdf37-6017-4dd9-8183-f2edc970ca06","ios":"levelo://app?vid=e75bdf37-6017-4dd9-8183-f2edc970ca06"},"vehicle_type_id":"4","last_reported":1726537410,"current_range_meters":32800,"station_id":"ce4bhu92rcd13ifvqi70","pricing_plan_id":"cebpf4jnsgd1na2vs0mg"},{"bike_id":"9c14c0d4-3df9-4122-aa56-074da3d0cc4b","system_id":"levelo_inurba_marseille","lat":43.27171,"lon":5.40984,"is_reserved":false,"is_disabled":false,"rental_uris":{"android":"levelo://app?vid=9c14c0d4-3df9-4122-aa56-074da3d0cc4b","ios":"levelo://app?vid=9c14c0d4-3df9-4122-aa56-074da3d0cc4b"},"vehicle_type_id":"4","last_reported":1726537410,"current_range_meters":39200,"station_id":"ce4bhl12rcd13ifvqgf0","pricing_plan_id":"cebpf4jnsgd1na2vs0mg"},{"bike_id":"f1b480fe-f3fc-4ba3-a80e-6f1450ad2cfd","system_id":"levelo_inurba_marseille","lat":43.27067,"lon":5.4227,"is_reserved":false,"is_disabled":false,"rental_uris":{"android":"levelo://app?vid=f1b480fe-f3fc-4ba3-a80e-6f1450ad2cfd","ios":"levelo://app?vid=f1b480fe-f3fc-4ba3-a80e-6f1450ad2cfd"},"vehicle_type_id":"4","last_reported":1726537410,"current_range_meters":12800,"station_id":"ce4bhk92rcd13ifvqgb0","pricing_plan_id":"cebpf4jnsgd1na2vs0mg"},{"bike_id":"fcc2c5ab-6008-40d3-9bbf-9a0f5b13a2b6","system_id":"levelo_inurba_marseille","lat":43.28728,"lon":5.36074,"is_reserved":false,"is_disabled":false,"rental_uris":{"android":"levelo://app?vid=fcc2c5ab-6008-40d3-9bbf-9a0f5b13a2b6","ios":"levelo://app?vid=fcc2c5ab-6008-40d3-9bbf-9a0f5b13a2b6"},"vehicle_type_id":"4","last_reported":1726537410,"current_range_meters":36800,"station_id":"cki0cbj6b192h4jlfktg","pricing_plan_id":"cebpf4jnsgd1na2vs0mg"},{"bike_id":"ad32bf8b-3845-4c67-9803-214b89d24a12","system_id":"levelo_inurba_marseille","lat":43.2707,"lon":5.42276,"is_reserved":false,"is_disabled":false,"rental_uris":{"android":"levelo://app?vid=ad32bf8b-3845-4c67-9803-214b89d24a12","ios":"levelo://app?vid=ad32bf8b-3845-4c67-9803-214b89d24a12"},"vehicle_type_id":"4","last_reported":1726537410,"current_range_meters":25200,"station_id":"ce4bhk92rcd13ifvqgb0","pricing_plan_id":"cebpf4jnsgd1na2vs0mg"},{"bike_id":"74777c08-e7e7-4446-a257-ce6e096cbef1","system_id":"levelo_inurba_marseille","lat":43.28105,"lon":5.37843,"is_reserved":false,"is_disabled":false,"rental_uris":{"android":"levelo://app?vid=74777c08-e7e7-4446-a257-ce6e096cbef1","ios":"levelo://app?vid=74777c08-e7e7-4446-a257-ce6e096cbef1"},"vehicle_type_id":"4","last_reported":1726537410,"current_range_meters":33600,"station_id":"ce4bha12rcd13ifvqee0","pricing_plan_id":"cebpf4jnsgd1na2vs0mg"},{"bike_id":"c52e4848-dd66-46b8-a132-9836b7620028","system_id":"levelo_inurba_marseille","lat":43.2593,"lon":5.4091,"is_reserved":false,"is_disabled":false,"rental_uris":{"android":"levelo://app?vid=c52e4848-dd66-46b8-a132-9836b7620028","ios":"levelo://app?vid=c52e4848-dd66-46b8-a132-9836b7620028"},"vehicle_type_id":"4","last_reported":1726537410,"current_range_meters":21600,"station_id":"ce4bhm92rcd13ifvqglg","pricing_plan_id":"cebpf4jnsgd1na2vs0mg"},{"bike_id":"f60209f1-bb66-4649-a2f4-e3fd3060e157","system_id":"levelo_inurba_marseille","lat":43.28443,"lon":5.39183,"is_reserved":false,"is_disabled":false,"rental_uris":{"android":"levelo://app?vid=f60209f1-bb66-4649-a2f4-e3fd3060e157","ios":"levelo://app?vid=f60209f1-bb66-4649-a2f4-e3fd3060e157"},"vehicle_type_id":"4","last_reported":1726537410,"current_range_meters":37600,"station_id":"ce4bhoh2rcd13ifvqh5g","pricing_plan_id":"cebpf4jnsgd1na2vs0mg"},{"bike_id":"bc4109ff-c07d-4952-a356-bfbe0bae95a6","system_id":"levelo_inurba_marseille","lat":43.29284,"lon":5.40123,"is_reserved":false,"is_disabled":false,"rental_uris":{"android":"levelo://app?vid=bc4109ff-c07d-4952-a356-bfbe0bae95a6","ios":"levelo://app?vid=bc4109ff-c07d-4952-a356-bfbe0bae95a6"},"vehicle_type_id":"4","last_reported":1726537410,"current_range_meters":38800,"station_id":"ce4bh312rcd13ifvqdk0","pricing_plan_id":"cebpf4jnsgd1na2vs0mg"},{"bike_id":"214b4a28-a621-47d4-979f-0b07387ee565","system_id":"levelo_inurba_marseille","lat":43.27662,"lon":5.38902,"is_reserved":false,"is_disabled":false,"rental_uris":{"android":"levelo://app?vid=214b4a28-a621-47d4-979f-0b07387ee565","ios":"levelo://app?vid=214b4a28-a621-47d4-979f-0b07387ee565"},"vehicle_type_id":"4","last_reported":1726537410,"current_range_meters":38800,"station_id":"ce4bhi12rcd13ifvqfo0","pricing_plan_id":"cebpf4jnsgd1na2vs0mg"},{"bike_id":"92330d91-2db6-4082-8189-b7b509798f90","system_id":"levelo_inurba_marseille","lat":43.29274,"lon":5.40127,"is_reserved":false,"is_disabled":false,"rental_uris":{"android":"levelo://app?vid=92330d91-2db6-4082-8189-b7b509798f90","ios":"levelo://app?vid=92330d91-2db6-4082-8189-b7b509798f90"},"vehicle_type_id":"4","last_reported":1726537410,"current_range_meters":38800,"station_id":"ce4bh312rcd13ifvqdk0","pricing_plan_id":"cebpf4jnsgd1na2vs0mg"},{"bike_id":"41be21a6-9ce7-48bb-be56-f7d3c9292e7d","system_id":"levelo_inurba_marseille","lat":43.28003,"lon":5.40012,"is_reserved":false,"is_disabled":false,"rental_uris":{"android":"levelo://app?vid=41be21a6-9ce7-48bb-be56-f7d3c9292e7d","ios":"levelo://app?vid=41be21a6-9ce7-48bb-be56-f7d3c9292e7d"},"vehicle_type_id":"4","last_reported":1726537410,"current_range_meters":36400,"station_id":"ce4bho92rcd13ifvqh4g","pricing_plan_id":"cebpf4jnsgd1na2vs0mg"},{"bike_id":"0cb1d315-e084-4f99-b779-42e2f04d3818","system_id":"levelo_inurba_marseille","lat":43.24386,"lon":5.37052,"is_reserved":false,"is_disabled":false,"rental_uris":{"android":"levelo://app?vid=0cb1d315-e084-4f99-b779-42e2f04d3818","ios":"levelo://app?vid=0cb1d315-e084-4f99-b779-42e2f04d3818"},"vehicle_type_id":"4","last_reported":1726537410,"current_range_meters":38400,"station_id":"ce4bhhh2rcd13ifvqfk0","pricing_plan_id":"cebpf4jnsgd1na2vs0mg"},{"bike_id":"87cb734b-2ed9-475c-96d0-2d96cf5859d3","system_id":"levelo_inurba_marseille","lat":43.32291,"lon":5.38267,"is_reserved":false,"is_disabled":false,"rental_uris":{"android":"levelo://app?vid=87cb734b-2ed9-475c-96d0-2d96cf5859d3","ios":"levelo://app?vid=87cb734b-2ed9-475c-96d0-2d96cf5859d3"},"vehicle_type_id":"4","last_reported":1726537410,"current_range_meters":24800,"station_id":"ce4bhr12rcd13ifvqhqg","pricing_plan_id":"cebpf4jnsgd1na2vs0mg"},{"bike_id":"f9a6d61d-6f90-487e-97b9-fb029b757e0a","system_id":"levelo_inurba_marseille","lat":43.28943,"lon":5.36632,"is_reserved":false,"is_disabled":false,"rental_uris":{"android":"levelo://app?vid=f9a6d61d-6f90-487e-97b9-fb029b757e0a","ios":"levelo://app?vid=f9a6d61d-6f90-487e-97b9-fb029b757e0a"},"vehicle_type_id":"4","last_reported":1726537410,"current_range_meters":38800,"station_id":"ce4bhap2rcd13ifvqek0","pricing_plan_id":"cebpf4jnsgd1na2vs0mg"},{"bike_id":"d6c709ac-d8cd-4d37-9778-c40f7cfe020f","system_id":"levelo_inurba_marseille","lat":43.2319,"lon":5.39983,"is_reserved":false,"is_disabled":false,"rental_uris":{"android":"levelo://app?vid=d6c709ac-d8cd-4d37-9778-c40f7cfe020f","ios":"levelo://app?vid=d6c709ac-d8cd-4d37-9778-c40f7cfe020f"},"vehicle_type_id":"4","last_reported":1726537410,"current_range_meters":37600,"station_id":"ce4bhn12rcd13ifvqgqg","pricing_plan_id":"cebpf4jnsgd1na2vs0mg"},{"bike_id":"d05e306f-3d0a-4318-ae90-1518017189f8","system_id":"levelo_inurba_marseille","lat":43.24997,"lon":5.38181,"is_reserved":false,"is_disabled":false,"rental_uris":{"android":"levelo://app?vid=d05e306f-3d0a-4318-ae90-1518017189f8","ios":"levelo://app?vid=d05e306f-3d0a-4318-ae90-1518017189f8"},"vehicle_type_id":"4","last_reported":1726537410,"current_range_meters":33600,"station_id":"","pricing_plan_id":"cebpf4jnsgd1na2vs0mg"},{"bike_id":"a504d9a7-310e-48f5-838c-a666d4c1f623","system_id":"levelo_inurba_marseille","lat":43.28272,"lon":5.35079,"is_reserved":false,"is_disabled":false,"rental_uris":{"android":"levelo://app?vid=a504d9a7-310e-48f5-838c-a666d4c1f623","ios":"levelo://app?vid=a504d9a7-310e-48f5-838c-a666d4c1f623"},"vehicle_type_id":"4","last_reported":1726537410,"current_range_meters":38800,"station_id":"ce4bhbp2rcd13ifvqerg","pricing_plan_id":"cebpf4jnsgd1na2vs0mg"},{"bike_id":"5ada3411-a879-421f-85fd-755b8400b9d6","system_id":"levelo_inurba_marseille","lat":43.27907,"lon":5.39586,"is_reserved":false,"is_disabled":false,"rental_uris":{"android":"levelo://app?vid=5ada3411-a879-421f-85fd-755b8400b9d6","ios":"levelo://app?vid=5ada3411-a879-421f-85fd-755b8400b9d6"},"vehicle_type_id":"4","last_reported":1726537410,"current_range_meters":6000,"station_id":"ce4bhf92rcd13ifvqf40","pricing_plan_id":"cebpf4jnsgd1na2vs0mg"},{"bike_id":"4b2b2176-bced-440c-b283-bc9a169398d7","system_id":"levelo_inurba_marseille","lat":43.2846,"lon":5.35888,"is_reserved":false,"is_disabled":false,"rental_uris":{"android":"levelo://app?vid=4b2b2176-bced-440c-b283-bc9a169398d7","ios":"levelo://app?vid=4b2b2176-bced-440c-b283-bc9a169398d7"},"vehicle_type_id":"4","last_reported":1726537410,"current_range_meters":36400,"station_id":"ce4bhah2rcd13ifvqei0","pricing_plan_id":"cebpf4jnsgd1na2vs0mg"},{"bike_id":"99af4ec8-0c52-411e-b261-058a278dc767","system_id":"levelo_inurba_marseille","lat":43.30647,"lon":5.40084,"is_reserved":false,"is_disabled":false,"rental_uris":{"android":"levelo://app?vid=99af4ec8-0c52-411e-b261-058a278dc767","ios":"levelo://app?vid=99af4ec8-0c52-411e-b261-058a278dc767"},"vehicle_type_id":"4","last_reported":1726537410,"current_range_meters":20800,"station_id":"ce4bh112rcd13ifvqda0","pricing_plan_id":"cebpf4jnsgd1na2vs0mg"},{"bike_id":"368e0b32-828d-4889-81a1-c72163a0344b","system_id":"levelo_inurba_marseille","lat":43.31074,"lon":5.38356,"is_reserved":false,"is_disabled":false,"rental_uris":{"android":"levelo://app?vid=368e0b32-828d-4889-81a1-c72163a0344b","ios":"levelo://app?vid=368e0b32-828d-4889-81a1-c72163a0344b"},"vehicle_type_id":"4","last_reported":1726537410,"current_range_meters":6800,"station_id":"ce4bgv92rcd13ifvqcr0","pricing_plan_id":"cebpf4jnsgd1na2vs0mg"},{"bike_id":"1551fa63-e711-4932-824d-d77ecf44b0d3","system_id":"levelo_inurba_marseille","lat":43.30798,"lon":5.38149,"is_reserved":false,"is_disabled":false,"rental_uris":{"android":"levelo://app?vid=1551fa63-e711-4932-824d-d77ecf44b0d3","ios":"levelo://app?vid=1551fa63-e711-4932-824d-d77ecf44b0d3"},"vehicle_type_id":"4","last_reported":1726537410,"current_range_meters":36800,"station_id":"ce4bgt12rcd13ifvqce0","pricing_plan_id":"cebpf4jnsgd1na2vs0mg"},{"bike_id":"f409a27c-3291-4d9b-ac57-9e74e75d80d1","system_id":"levelo_inurba_marseille","lat":43.32362,"lon":5.38888,"is_reserved":false,"is_disabled":false,"rental_uris":{"android":"levelo://app?vid=f409a27c-3291-4d9b-ac57-9e74e75d80d1","ios":"levelo://app?vid=f409a27c-3291-4d9b-ac57-9e74e75d80d1"},"vehicle_type_id":"4","last_reported":1726537410,"current_range_meters":16800,"station_id":"ce4bhqp2rcd13ifvqhog","pricing_plan_id":"cebpf4jnsgd1na2vs0mg"},{"bike_id":"982f9fe9-aa4d-4880-b189-4e07f6c20c5f","system_id":"levelo_inurba_marseille","lat":43.24069,"lon":5.3776,"is_reserved":false,"is_disabled":false,"rental_uris":{"android":"levelo://app?vid=982f9fe9-aa4d-4880-b189-4e07f6c20c5f","ios":"levelo://app?vid=982f9fe9-aa4d-4880-b189-4e07f6c20c5f"},"vehicle_type_id":"4","last_reported":1726537410,"current_range_meters":28800,"station_id":"ce4bhnp2rcd13ifvqgvg","pricing_plan_id":"cebpf4jnsgd1na2vs0mg"},{"bike_id":"7bbaafc8-0050-492b-86dd-f3de2a42a358","system_id":"levelo_inurba_marseille","lat":43.28461,"lon":5.35884,"is_reserved":false,"is_disabled":false,"rental_uris":{"android":"levelo://app?vid=7bbaafc8-0050-492b-86dd-f3de2a42a358","ios":"levelo://app?vid=7bbaafc8-0050-492b-86dd-f3de2a42a358"},"vehicle_type_id":"4","last_reported":1726537410,"current_range_meters":38000,"station_id":"ce4bhah2rcd13ifvqei0","pricing_plan_id":"cebpf4jnsgd1na2vs0mg"},{"bike_id":"e0d2c89b-4e06-402c-bca3-132333b87153","system_id":"levelo_inurba_marseille","lat":43.28718,"lon":5.37948,"is_reserved":false,"is_disabled":false,"rental_uris":{"android":"levelo://app?vid=e0d2c89b-4e06-402c-bca3-132333b87153","ios":"levelo://app?vid=e0d2c89b-4e06-402c-bca3-132333b87153"},"vehicle_type_id":"4","last_reported":1726537410,"current_range_meters":38000,"station_id":"ce4bh9p2rcd13ifvqec0","pricing_plan_id":"cebpf4jnsgd1na2vs0mg"},{"bike_id":"9ee2c24b-a9fe-4224-8902-b4f61977b82f","system_id":"levelo_inurba_marseille","lat":43.27561,"lon":5.38423,"is_reserved":false,"is_disabled":false,"rental_uris":{"android":"levelo://app?vid=9ee2c24b-a9fe-4224-8902-b4f61977b82f","ios":"levelo://app?vid=9ee2c24b-a9fe-4224-8902-b4f61977b82f"},"vehicle_type_id":"4","last_reported":1726537410,"current_range_meters":18800,"station_id":"ce4bhh92rcd13ifvqfi0","pricing_plan_id":"cebpf4jnsgd1na2vs0mg"},{"bike_id":"2d6c8295-d826-449f-9ad9-3fc28a85949e","system_id":"levelo_inurba_marseille","lat":43.24178,"lon":5.39725,"is_reserved":false,"is_disabled":false,"rental_uris":{"android":"levelo://app?vid=2d6c8295-d826-449f-9ad9-3fc28a85949e","ios":"levelo://app?vid=2d6c8295-d826-449f-9ad9-3fc28a85949e"},"vehicle_type_id":"4","last_reported":1726537410,"current_range_meters":38800,"station_id":"ce4bhn12rcd13ifvqgpg","pricing_plan_id":"cebpf4jnsgd1na2vs0mg"},{"bike_id":"a2311bbf-a129-4bd6-aa78-bbe376aa5529","system_id":"levelo_inurba_marseille","lat":43.2843,"lon":5.39181,"is_reserved":false,"is_disabled":false,"rental_uris":{"android":"levelo://app?vid=a2311bbf-a129-4bd6-aa78-bbe376aa5529","ios":"levelo://app?vid=a2311bbf-a129-4bd6-aa78-bbe376aa5529"},"vehicle_type_id":"4","last_reported":1726537410,"current_range_meters":33600,"station_id":"ce4bhoh2rcd13ifvqh5g","pricing_plan_id":"cebpf4jnsgd1na2vs0mg"},{"bike_id":"4eb4ae0a-58d4-4b0e-b621-3f0553d4aae5","system_id":"levelo_inurba_marseille","lat":43.31284,"lon":5.40163,"is_reserved":false,"is_disabled":false,"rental_uris":{"android":"levelo://app?vid=4eb4ae0a-58d4-4b0e-b621-3f0553d4aae5","ios":"levelo://app?vid=4eb4ae0a-58d4-4b0e-b621-3f0553d4aae5"},"vehicle_type_id":"4","last_reported":1726537410,"current_range_meters":38000,"station_id":"ce4bh092rcd13ifvqd30","pricing_plan_id":"cebpf4jnsgd1na2vs0mg"},{"bike_id":"9952e5d0-3073-4269-b908-c02feef7bd25","system_id":"levelo_inurba_marseille","lat":43.28456,"lon":5.35881,"is_reserved":false,"is_disabled":false,"rental_uris":{"android":"levelo://app?vid=9952e5d0-3073-4269-b908-c02feef7bd25","ios":"levelo://app?vid=9952e5d0-3073-4269-b908-c02feef7bd25"},"vehicle_type_id":"4","last_reported":1726537410,"current_range_meters":29600,"station_id":"ce4bhah2rcd13ifvqei0","pricing_plan_id":"cebpf4jnsgd1na2vs0mg"},{"bike_id":"c7f93bf2-2b30-4c5c-aa72-447b3f4a28ea","system_id":"levelo_inurba_marseille","lat":43.29894,"lon":5.43654,"is_reserved":false,"is_disabled":false,"rental_uris":{"android":"levelo://app?vid=c7f93bf2-2b30-4c5c-aa72-447b3f4a28ea","ios":"levelo://app?vid=c7f93bf2-2b30-4c5c-aa72-447b3f4a28ea"},"vehicle_type_id":"4","last_reported":1726537410,"current_range_meters":11200,"station_id":"ce4bhpp2rcd13ifvqhfg","pricing_plan_id":"cebpf4jnsgd1na2vs0mg"},{"bike_id":"9b7baa3c-35cc-45d2-8d3f-2c4ceed327ea","system_id":"levelo_inurba_marseille","lat":43.29523,"lon":5.39397,"is_reserved":false,"is_disabled":false,"rental_uris":{"android":"levelo://app?vid=9b7baa3c-35cc-45d2-8d3f-2c4ceed327ea","ios":"levelo://app?vid=9b7baa3c-35cc-45d2-8d3f-2c4ceed327ea"},"vehicle_type_id":"4","last_reported":1726537410,"current_range_meters":37600,"station_id":"ce4bh292rcd13ifvqdf0","pricing_plan_id":"cebpf4jnsgd1na2vs0mg"},{"bike_id":"88a13c5b-1546-4387-97c2-c54a97b847e3","system_id":"levelo_inurba_marseille","lat":43.28453,"lon":5.35888,"is_reserved":false,"is_disabled":false,"rental_uris":{"android":"levelo://app?vid=88a13c5b-1546-4387-97c2-c54a97b847e3","ios":"levelo://app?vid=88a13c5b-1546-4387-97c2-c54a97b847e3"},"vehicle_type_id":"4","last_reported":1726537410,"current_range_meters":38800,"station_id":"ce4bhah2rcd13ifvqei0","pricing_plan_id":"cebpf4jnsgd1na2vs0mg"},{"bike_id":"d53cd1a0-346f-4e90-8484-e11f030b9f09","system_id":"levelo_inurba_marseille","lat":43.29198,"lon":5.39321,"is_reserved":false,"is_disabled":false,"rental_uris":{"android":"levelo://app?vid=d53cd1a0-346f-4e90-8484-e11f030b9f09","ios":"levelo://app?vid=d53cd1a0-346f-4e90-8484-e11f030b9f09"},"vehicle_type_id":"4","last_reported":1726537410,"current_range_meters":38800,"station_id":"ce4bh192rcd13ifvqdd0","pricing_plan_id":"cebpf4jnsgd1na2vs0mg"},{"bike_id":"f9d3ff09-2d46-49a3-957e-6d15ed42ce7c","system_id":"levelo_inurba_marseille","lat":43.25085,"lon":5.39516,"is_reserved":false,"is_disabled":false,"rental_uris":{"android":"levelo://app?vid=f9d3ff09-2d46-49a3-957e-6d15ed42ce7c","ios":"levelo://app?vid=f9d3ff09-2d46-49a3-957e-6d15ed42ce7c"},"vehicle_type_id":"4","last_reported":1726537410,"current_range_meters":38800,"station_id":"ce4bhm12rcd13ifvqgkg","pricing_plan_id":"cebpf4jnsgd1na2vs0mg"},{"bike_id":"fea7fb74-423d-460f-bf4b-7c0013f3e6ee","system_id":"levelo_inurba_marseille","lat":43.25107,"lon":5.40323,"is_reserved":false,"is_disabled":false,"rental_uris":{"android":"levelo://app?vid=fea7fb74-423d-460f-bf4b-7c0013f3e6ee","ios":"levelo://app?vid=fea7fb74-423d-460f-bf4b-7c0013f3e6ee"},"vehicle_type_id":"4","last_reported":1726537410,"current_range_meters":39200,"station_id":"ce4bhlh2rcd13ifvqgig","pricing_plan_id":"cebpf4jnsgd1na2vs0mg"},{"bike_id":"7b5c05fa-0c63-4ee9-b8ae-eb31f1ded645","system_id":"levelo_inurba_marseille","lat":43.2866,"lon":5.36361,"is_reserved":false,"is_disabled":false,"rental_uris":{"android":"levelo://app?vid=7b5c05fa-0c63-4ee9-b8ae-eb31f1ded645","ios":"levelo://app?vid=7b5c05fa-0c63-4ee9-b8ae-eb31f1ded645"},"vehicle_type_id":"4","last_reported":1726537410,"current_range_meters":38800,"station_id":"ce4bhah2rcd13ifvqej0","pricing_plan_id":"cebpf4jnsgd1na2vs0mg"},{"bike_id":"a3780b58-e961-4366-a3d3-0ec432d5b37d","system_id":"levelo_inurba_marseille","lat":43.27964,"lon":5.38721,"is_reserved":false,"is_disabled":false,"rental_uris":{"android":"levelo://app?vid=a3780b58-e961-4366-a3d3-0ec432d5b37d","ios":"levelo://app?vid=a3780b58-e961-4366-a3d3-0ec432d5b37d"},"vehicle_type_id":"4","last_reported":1726537410,"current_range_meters":23200,"station_id":"ce4bhg12rcd13ifvqf80","pricing_plan_id":"cebpf4jnsgd1na2vs0mg"},{"bike_id":"630b7b25-36c2-4fed-9267-c26726a2329e","system_id":"levelo_inurba_marseille","lat":43.26939,"lon":5.40256,"is_reserved":false,"is_disabled":false,"rental_uris":{"android":"levelo://app?vid=630b7b25-36c2-4fed-9267-c26726a2329e","ios":"levelo://app?vid=630b7b25-36c2-4fed-9267-c26726a2329e"},"vehicle_type_id":"4","last_reported":1726537410,"current_range_meters":13600,"station_id":"cjm6bp8fraef2m0cb0m0","pricing_plan_id":"cebpf4jnsgd1na2vs0mg"},{"bike_id":"1e457d23-5b6a-449b-86bc-07234c4368ea","system_id":"levelo_inurba_marseille","lat":43.24661,"lon":5.38163,"is_reserved":false,"is_disabled":false,"rental_uris":{"android":"levelo://app?vid=1e457d23-5b6a-449b-86bc-07234c4368ea","ios":"levelo://app?vid=1e457d23-5b6a-449b-86bc-07234c4368ea"},"vehicle_type_id":"4","last_reported":1726537410,"current_range_meters":28000,"station_id":"ce4bhih2rcd13ifvqfr0","pricing_plan_id":"cebpf4jnsgd1na2vs0mg"},{"bike_id":"c3d6b649-15e3-4bba-8167-f82ba135df07","system_id":"levelo_inurba_marseille","lat":43.3093,"lon":5.40147,"is_reserved":false,"is_disabled":false,"rental_uris":{"android":"levelo://app?vid=c3d6b649-15e3-4bba-8167-f82ba135df07","ios":"levelo://app?vid=c3d6b649-15e3-4bba-8167-f82ba135df07"},"vehicle_type_id":"4","last_reported":1726537410,"current_range_meters":35200,"station_id":"ce4bgvp2rcd13ifvqct0","pricing_plan_id":"cebpf4jnsgd1na2vs0mg"},{"bike_id":"9f7ae6d2-0769-40dd-8624-b937e510c7bf","system_id":"levelo_inurba_marseille","lat":43.31326,"lon":5.3969,"is_reserved":false,"is_disabled":false,"rental_uris":{"android":"levelo://app?vid=9f7ae6d2-0769-40dd-8624-b937e510c7bf","ios":"levelo://app?vid=9f7ae6d2-0769-40dd-8624-b937e510c7bf"},"vehicle_type_id":"4","last_reported":1726537410,"current_range_meters":36800,"station_id":"ce4bgvp2rcd13ifvqcu0","pricing_plan_id":"cebpf4jnsgd1na2vs0mg"},{"bike_id":"34a21d17-7fab-46e2-85f4-0bcfa2ca581d","system_id":"levelo_inurba_marseille","lat":43.31367,"lon":5.38506,"is_reserved":false,"is_disabled":false,"rental_uris":{"android":"levelo://app?vid=34a21d17-7fab-46e2-85f4-0bcfa2ca581d","ios":"levelo://app?vid=34a21d17-7fab-46e2-85f4-0bcfa2ca581d"},"vehicle_type_id":"4","last_reported":1726537410,"current_range_meters":25200,"station_id":"ce4bgt92rcd13ifvqcf0","pricing_plan_id":"cebpf4jnsgd1na2vs0mg"},{"bike_id":"2a2da436-9804-46b8-b04b-d0d24513be9f","system_id":"levelo_inurba_marseille","lat":43.28931,"lon":5.36626,"is_reserved":false,"is_disabled":false,"rental_uris":{"android":"levelo://app?vid=2a2da436-9804-46b8-b04b-d0d24513be9f","ios":"levelo://app?vid=2a2da436-9804-46b8-b04b-d0d24513be9f"},"vehicle_type_id":"4","last_reported":1726537410,"current_range_meters":38000,"station_id":"ce4bhap2rcd13ifvqek0","pricing_plan_id":"cebpf4jnsgd1na2vs0mg"},{"bike_id":"59e6e652-69ea-474a-9790-3d81d8d5b495","system_id":"levelo_inurba_marseille","lat":43.29798,"lon":5.40404,"is_reserved":false,"is_disabled":false,"rental_uris":{"android":"levelo://app?vid=59e6e652-69ea-474a-9790-3d81d8d5b495","ios":"levelo://app?vid=59e6e652-69ea-474a-9790-3d81d8d5b495"},"vehicle_type_id":"4","last_reported":1726537410,"current_range_meters":24800,"station_id":"ce4bh112rcd13ifvqd90","pricing_plan_id":"cebpf4jnsgd1na2vs0mg"},{"bike_id":"1912e651-337a-49ed-b67a-1645faaa6710","system_id":"levelo_inurba_marseille","lat":43.29252,"lon":5.40908,"is_reserved":false,"is_disabled":false,"rental_uris":{"android":"levelo://app?vid=1912e651-337a-49ed-b67a-1645faaa6710","ios":"levelo://app?vid=1912e651-337a-49ed-b67a-1645faaa6710"},"vehicle_type_id":"4","last_reported":1726537410,"current_range_meters":38800,"station_id":"ce4bh192rcd13ifvqdc0","pricing_plan_id":"cebpf4jnsgd1na2vs0mg"},{"bike_id":"0b5743fb-c432-4a8b-af61-02f37e691302","system_id":"levelo_inurba_marseille","lat":43.26561,"lon":5.39008,"is_reserved":false,"is_disabled":false,"rental_uris":{"android":"levelo://app?vid=0b5743fb-c432-4a8b-af61-02f37e691302","ios":"levelo://app?vid=0b5743fb-c432-4a8b-af61-02f37e691302"},"vehicle_type_id":"4","last_reported":1726537410,"current_range_meters":38000,"station_id":"ce4bhe12rcd13ifvqf30","pricing_plan_id":"cebpf4jnsgd1na2vs0mg"},{"bike_id":"4153cc51-d4e8-4e56-a8fd-c1a04ecf3fa7","system_id":"levelo_inurba_marseille","lat":43.29954,"lon":5.4134,"is_reserved":false,"is_disabled":false,"rental_uris":{"android":"levelo://app?vid=4153cc51-d4e8-4e56-a8fd-c1a04ecf3fa7","ios":"levelo://app?vid=4153cc51-d4e8-4e56-a8fd-c1a04ecf3fa7"},"vehicle_type_id":"4","last_reported":1726537410,"current_range_meters":32400,"station_id":"ce4bhp12rcd13ifvqh9g","pricing_plan_id":"cebpf4jnsgd1na2vs0mg"},{"bike_id":"d89f885c-3302-494b-b3e2-5017a49b699a","system_id":"levelo_inurba_marseille","lat":43.29298,"lon":5.37448,"is_reserved":false,"is_disabled":false,"rental_uris":{"android":"levelo://app?vid=d89f885c-3302-494b-b3e2-5017a49b699a","ios":"levelo://app?vid=d89f885c-3302-494b-b3e2-5017a49b699a"},"vehicle_type_id":"4","last_reported":1726537410,"current_range_meters":32400,"station_id":"ce4bgi12rcd13ifvqb70","pricing_plan_id":"cebpf4jnsgd1na2vs0mg"},{"bike_id":"ed227c0d-cea6-400a-abd2-4c8159f252ed","system_id":"levelo_inurba_marseille","lat":43.28709,"lon":5.39987,"is_reserved":false,"is_disabled":false,"rental_uris":{"android":"levelo://app?vid=ed227c0d-cea6-400a-abd2-4c8159f252ed","ios":"levelo://app?vid=ed227c0d-cea6-400a-abd2-4c8159f252ed"},"vehicle_type_id":"4","last_reported":1726537410,"current_range_meters":39200,"station_id":"ce4bho92rcd13ifvqh3g","pricing_plan_id":"cebpf4jnsgd1na2vs0mg"},{"bike_id":"85aa2ccb-6c1a-4836-bdc4-9b8d3da45dac","system_id":"levelo_inurba_marseille","lat":43.31688,"lon":5.4046,"is_reserved":false,"is_disabled":false,"rental_uris":{"android":"levelo://app?vid=85aa2ccb-6c1a-4836-bdc4-9b8d3da45dac","ios":"levelo://app?vid=85aa2ccb-6c1a-4836-bdc4-9b8d3da45dac"},"vehicle_type_id":"4","last_reported":1726537410,"current_range_meters":38800,"station_id":"ce4bh012rcd13ifvqd00","pricing_plan_id":"cebpf4jnsgd1na2vs0mg"},{"bike_id":"8cb592d9-f82f-4171-894f-8d7ffa6525e5","system_id":"levelo_inurba_marseille","lat":43.23195,"lon":5.35545,"is_reserved":false,"is_disabled":false,"rental_uris":{"android":"levelo://app?vid=8cb592d9-f82f-4171-894f-8d7ffa6525e5","ios":"levelo://app?vid=8cb592d9-f82f-4171-894f-8d7ffa6525e5"},"vehicle_type_id":"4","last_reported":1726537410,"current_range_meters":22800,"station_id":"ce4bhu92rcd13ifvqi70","pricing_plan_id":"cebpf4jnsgd1na2vs0mg"},{"bike_id":"224fd388-a6ed-40de-aed2-9764785607b3","system_id":"levelo_inurba_marseille","lat":43.29261,"lon":5.40126,"is_reserved":false,"is_disabled":false,"rental_uris":{"android":"levelo://app?vid=224fd388-a6ed-40de-aed2-9764785607b3","ios":"levelo://app?vid=224fd388-a6ed-40de-aed2-9764785607b3"},"vehicle_type_id":"4","last_reported":1726537410,"current_range_meters":38800,"station_id":"ce4bh312rcd13ifvqdk0","pricing_plan_id":"cebpf4jnsgd1na2vs0mg"},{"bike_id":"a6664524-29e4-4cb3-8a11-89baa18fda12","system_id":"levelo_inurba_marseille","lat":43.29963,"lon":5.41319,"is_reserved":false,"is_disabled":false,"rental_uris":{"android":"levelo://app?vid=a6664524-29e4-4cb3-8a11-89baa18fda12","ios":"levelo://app?vid=a6664524-29e4-4cb3-8a11-89baa18fda12"},"vehicle_type_id":"4","last_reported":1726537410,"current_range_meters":38800,"station_id":"ce4bhp12rcd13ifvqh9g","pricing_plan_id":"cebpf4jnsgd1na2vs0mg"},{"bike_id":"e8577ff1-e7d5-4bd8-af09-a820a63b8b50","system_id":"levelo_inurba_marseille","lat":43.33018,"lon":5.39043,"is_reserved":false,"is_disabled":false,"rental_uris":{"android":"levelo://app?vid=e8577ff1-e7d5-4bd8-af09-a820a63b8b50","ios":"levelo://app?vid=e8577ff1-e7d5-4bd8-af09-a820a63b8b50"},"vehicle_type_id":"4","last_reported":1726537410,"current_range_meters":16400,"station_id":"ce4bhr92rcd13ifvqhrg","pricing_plan_id":"cebpf4jnsgd1na2vs0mg"},{"bike_id":"86940ac9-c7d2-487d-bb68-1659f0a1a79c","system_id":"levelo_inurba_marseille","lat":43.25818,"lon":5.39432,"is_reserved":false,"is_disabled":false,"rental_uris":{"android":"levelo://app?vid=86940ac9-c7d2-487d-bb68-1659f0a1a79c","ios":"levelo://app?vid=86940ac9-c7d2-487d-bb68-1659f0a1a79c"},"vehicle_type_id":"4","last_reported":1726537410,"current_range_meters":38800,"station_id":"ce4bhip2rcd13ifvqft0","pricing_plan_id":"cebpf4jnsgd1na2vs0mg"},{"bike_id":"20a4a91d-8541-4958-9b2e-4e75165c8a2a","system_id":"levelo_inurba_marseille","lat":43.30797,"lon":5.43512,"is_reserved":false,"is_disabled":false,"rental_uris":{"android":"levelo://app?vid=20a4a91d-8541-4958-9b2e-4e75165c8a2a","ios":"levelo://app?vid=20a4a91d-8541-4958-9b2e-4e75165c8a2a"},"vehicle_type_id":"4","last_reported":1726537410,"current_range_meters":16800,"station_id":"ce4bhph2rcd13ifvqheg","pricing_plan_id":"cebpf4jnsgd1na2vs0mg"},{"bike_id":"87250a3a-c0e2-4303-a83e-bcfebab78738","system_id":"levelo_inurba_marseille","lat":43.26494,"lon":5.39547,"is_reserved":false,"is_disabled":false,"rental_uris":{"android":"levelo://app?vid=87250a3a-c0e2-4303-a83e-bcfebab78738","ios":"levelo://app?vid=87250a3a-c0e2-4303-a83e-bcfebab78738"},"vehicle_type_id":"4","last_reported":1726537410,"current_range_meters":38800,"station_id":"ce4bhi12rcd13ifvqfq0","pricing_plan_id":"cebpf4jnsgd1na2vs0mg"},{"bike_id":"091b3b6b-8fb6-4c16-acf4-adf8bda04be7","system_id":"levelo_inurba_marseille","lat":43.28614,"lon":5.35106,"is_reserved":false,"is_disabled":false,"rental_uris":{"android":"levelo://app?vid=091b3b6b-8fb6-4c16-acf4-adf8bda04be7","ios":"levelo://app?vid=091b3b6b-8fb6-4c16-acf4-adf8bda04be7"},"vehicle_type_id":"4","last_reported":1726537410,"current_range_meters":38000,"station_id":"ce4bhch2rcd13ifvqeug","pricing_plan_id":"cebpf4jnsgd1na2vs0mg"},{"bike_id":"c3bcca86-6294-4639-9d07-9722d40f464e","system_id":"levelo_inurba_marseille","lat":43.29898,"lon":5.4366,"is_reserved":false,"is_disabled":false,"rental_uris":{"android":"levelo://app?vid=c3bcca86-6294-4639-9d07-9722d40f464e","ios":"levelo://app?vid=c3bcca86-6294-4639-9d07-9722d40f464e"},"vehicle_type_id":"4","last_reported":1726537410,"current_range_meters":38800,"station_id":"ce4bhpp2rcd13ifvqhfg","pricing_plan_id":"cebpf4jnsgd1na2vs0mg"},{"bike_id":"b8575011-8302-48a4-8af4-a59ce79d4a2f","system_id":"levelo_inurba_marseille","lat":43.31084,"lon":5.4243,"is_reserved":false,"is_disabled":false,"rental_uris":{"android":"levelo://app?vid=b8575011-8302-48a4-8af4-a59ce79d4a2f","ios":"levelo://app?vid=b8575011-8302-48a4-8af4-a59ce79d4a2f"},"vehicle_type_id":"4","last_reported":1726537410,"current_range_meters":34000,"station_id":"ce4bhp92rcd13ifvqhag","pricing_plan_id":"cebpf4jnsgd1na2vs0mg"},{"bike_id":"9689a282-10a1-4d4b-9757-128386743d65","system_id":"levelo_inurba_marseille","lat":43.30429,"lon":5.38884,"is_reserved":false,"is_disabled":false,"rental_uris":{"android":"levelo://app?vid=9689a282-10a1-4d4b-9757-128386743d65","ios":"levelo://app?vid=9689a282-10a1-4d4b-9757-128386743d65"},"vehicle_type_id":"4","last_reported":1726537410,"current_range_meters":38800,"station_id":"ce4bgk12rcd13ifvqbi0","pricing_plan_id":"cebpf4jnsgd1na2vs0mg"},{"bike_id":"1d7adde8-64b3-45d2-9c83-d5448889c250","system_id":"levelo_inurba_marseille","lat":43.28845,"lon":5.35852,"is_reserved":false,"is_disabled":false,"rental_uris":{"android":"levelo://app?vid=1d7adde8-64b3-45d2-9c83-d5448889c250","ios":"levelo://app?vid=1d7adde8-64b3-45d2-9c83-d5448889c250"},"vehicle_type_id":"4","last_reported":1726537410,"current_range_meters":24000,"station_id":"ce4bhb12rcd13ifvqem0","pricing_plan_id":"cebpf4jnsgd1na2vs0mg"},{"bike_id":"6fcb0470-5b2d-4c1d-8d35-ccfb07e79374","system_id":"levelo_inurba_marseille","lat":43.31331,"lon":5.39699,"is_reserved":false,"is_disabled":false,"rental_uris":{"android":"levelo://app?vid=6fcb0470-5b2d-4c1d-8d35-ccfb07e79374","ios":"levelo://app?vid=6fcb0470-5b2d-4c1d-8d35-ccfb07e79374"},"vehicle_type_id":"4","last_reported":1726537410,"current_range_meters":38800,"station_id":"ce4bgvp2rcd13ifvqcu0","pricing_plan_id":"cebpf4jnsgd1na2vs0mg"},{"bike_id":"6bdf6d7d-2eb2-45b2-b185-2714b7273c57","system_id":"levelo_inurba_marseille","lat":43.27176,"lon":5.40996,"is_reserved":false,"is_disabled":false,"rental_uris":{"android":"levelo://app?vid=6bdf6d7d-2eb2-45b2-b185-2714b7273c57","ios":"levelo://app?vid=6bdf6d7d-2eb2-45b2-b185-2714b7273c57"},"vehicle_type_id":"4","last_reported":1726537410,"current_range_meters":18800,"station_id":"ce4bhl12rcd13ifvqgf0","pricing_plan_id":"cebpf4jnsgd1na2vs0mg"},{"bike_id":"bc1720ea-5fc4-4416-ad9a-b8ed6878fe5f","system_id":"levelo_inurba_marseille","lat":43.31168,"lon":5.38715,"is_reserved":false,"is_disabled":false,"rental_uris":{"android":"levelo://app?vid=bc1720ea-5fc4-4416-ad9a-b8ed6878fe5f","ios":"levelo://app?vid=bc1720ea-5fc4-4416-ad9a-b8ed6878fe5f"},"vehicle_type_id":"4","last_reported":1726537410,"current_range_meters":35200,"station_id":"ce4bgv12rcd13ifvqcp0","pricing_plan_id":"cebpf4jnsgd1na2vs0mg"},{"bike_id":"d9127387-e7c6-4a95-9534-401c80794878","system_id":"levelo_inurba_marseille","lat":43.28409,"lon":5.37521,"is_reserved":false,"is_disabled":false,"rental_uris":{"android":"levelo://app?vid=d9127387-e7c6-4a95-9534-401c80794878","ios":"levelo://app?vid=d9127387-e7c6-4a95-9534-401c80794878"},"vehicle_type_id":"4","last_reported":1726537410,"current_range_meters":37600,"station_id":"ce4bh412rcd13ifvqds0","pricing_plan_id":"cebpf4jnsgd1na2vs0mg"},{"bike_id":"b1db6496-7d7b-4acc-a88c-e5406d38e100","system_id":"levelo_inurba_marseille","lat":43.23195,"lon":5.35552,"is_reserved":false,"is_disabled":false,"rental_uris":{"android":"levelo://app?vid=b1db6496-7d7b-4acc-a88c-e5406d38e100","ios":"levelo://app?vid=b1db6496-7d7b-4acc-a88c-e5406d38e100"},"vehicle_type_id":"4","last_reported":1726537410,"current_range_meters":28800,"station_id":"ce4bhu92rcd13ifvqi70","pricing_plan_id":"cebpf4jnsgd1na2vs0mg"},{"bike_id":"e458fa1c-1f23-496d-a562-e9e9eccb352b","system_id":"levelo_inurba_marseille","lat":43.27491,"lon":5.42454,"is_reserved":false,"is_disabled":false,"rental_uris":{"android":"levelo://app?vid=e458fa1c-1f23-496d-a562-e9e9eccb352b","ios":"levelo://app?vid=e458fa1c-1f23-496d-a562-e9e9eccb352b"},"vehicle_type_id":"4","last_reported":1726537410,"current_range_meters":29600,"station_id":"ce4bhn92rcd13ifvqgrg","pricing_plan_id":"cebpf4jnsgd1na2vs0mg"},{"bike_id":"06f7ac39-3a92-4e05-9a6d-c6517fe0b1d3","system_id":"levelo_inurba_marseille","lat":43.28416,"lon":5.37517,"is_reserved":false,"is_disabled":false,"rental_uris":{"android":"levelo://app?vid=06f7ac39-3a92-4e05-9a6d-c6517fe0b1d3","ios":"levelo://app?vid=06f7ac39-3a92-4e05-9a6d-c6517fe0b1d3"},"vehicle_type_id":"4","last_reported":1726537410,"current_range_meters":38800,"station_id":"ce4bh412rcd13ifvqds0","pricing_plan_id":"cebpf4jnsgd1na2vs0mg"},{"bike_id":"475b377c-a583-4dad-ac30-dc4d1404ea77","system_id":"levelo_inurba_marseille","lat":43.31271,"lon":5.40186,"is_reserved":false,"is_disabled":false,"rental_uris":{"android":"levelo://app?vid=475b377c-a583-4dad-ac30-dc4d1404ea77","ios":"levelo://app?vid=475b377c-a583-4dad-ac30-dc4d1404ea77"},"vehicle_type_id":"4","last_reported":1726537410,"current_range_meters":38800,"station_id":"ce4bh092rcd13ifvqd30","pricing_plan_id":"cebpf4jnsgd1na2vs0mg"},{"bike_id":"733e4865-3357-4a1f-819b-4a724885d4e3","system_id":"levelo_inurba_marseille","lat":43.2692,"lon":5.38636,"is_reserved":false,"is_disabled":false,"rental_uris":{"android":"levelo://app?vid=733e4865-3357-4a1f-819b-4a724885d4e3","ios":"levelo://app?vid=733e4865-3357-4a1f-819b-4a724885d4e3"},"vehicle_type_id":"4","last_reported":1726537410,"current_range_meters":35200,"station_id":"ce4bhh92rcd13ifvqfh0","pricing_plan_id":"cebpf4jnsgd1na2vs0mg"},{"bike_id":"5cf4c2f1-f092-4550-b8cf-369099ebc3bc","system_id":"levelo_inurba_marseille","lat":43.2456,"lon":5.41552,"is_reserved":false,"is_disabled":false,"rental_uris":{"android":"levelo://app?vid=5cf4c2f1-f092-4550-b8cf-369099ebc3bc","ios":"levelo://app?vid=5cf4c2f1-f092-4550-b8cf-369099ebc3bc"},"vehicle_type_id":"4","last_reported":1726537410,"current_range_meters":5600,"station_id":"ce4bhlh2rcd13ifvqgig","pricing_plan_id":"cebpf4jnsgd1na2vs0mg"},{"bike_id":"95b58fbf-53cd-47a1-b49e-0e36ef86a266","system_id":"levelo_inurba_marseille","lat":43.27177,"lon":5.40981,"is_reserved":false,"is_disabled":false,"rental_uris":{"android":"levelo://app?vid=95b58fbf-53cd-47a1-b49e-0e36ef86a266","ios":"levelo://app?vid=95b58fbf-53cd-47a1-b49e-0e36ef86a266"},"vehicle_type_id":"4","last_reported":1726537410,"current_range_meters":8400,"station_id":"ce4bhl12rcd13ifvqgf0","pricing_plan_id":"cebpf4jnsgd1na2vs0mg"},{"bike_id":"32ea18c2-5ff3-43d9-bb23-e14f31d4e0d5","system_id":"levelo_inurba_marseille","lat":43.27838,"lon":5.39217,"is_reserved":false,"is_disabled":false,"rental_uris":{"android":"levelo://app?vid=32ea18c2-5ff3-43d9-bb23-e14f31d4e0d5","ios":"levelo://app?vid=32ea18c2-5ff3-43d9-bb23-e14f31d4e0d5"},"vehicle_type_id":"4","last_reported":1726537410,"current_range_meters":37600,"station_id":"ce4bhjp2rcd13ifvqga0","pricing_plan_id":"cebpf4jnsgd1na2vs0mg"},{"bike_id":"9fd2fea1-0efb-4fa8-b5f9-6869334c9e87","system_id":"levelo_inurba_marseille","lat":43.32365,"lon":5.38881,"is_reserved":false,"is_disabled":false,"rental_uris":{"android":"levelo://app?vid=9fd2fea1-0efb-4fa8-b5f9-6869334c9e87","ios":"levelo://app?vid=9fd2fea1-0efb-4fa8-b5f9-6869334c9e87"},"vehicle_type_id":"4","last_reported":1726537410,"current_range_meters":25200,"station_id":"ce4bhqp2rcd13ifvqhog","pricing_plan_id":"cebpf4jnsgd1na2vs0mg"},{"bike_id":"af9466ac-e831-478e-b8d5-afdab4570f04","system_id":"levelo_inurba_marseille","lat":43.2509,"lon":5.3952,"is_reserved":false,"is_disabled":false,"rental_uris":{"android":"levelo://app?vid=af9466ac-e831-478e-b8d5-afdab4570f04","ios":"levelo://app?vid=af9466ac-e831-478e-b8d5-afdab4570f04"},"vehicle_type_id":"4","last_reported":1726537410,"current_range_meters":38400,"station_id":"ce4bhm12rcd13ifvqgkg","pricing_plan_id":"cebpf4jnsgd1na2vs0mg"},{"bike_id":"b5f27f9e-78a9-4425-86cf-0a7af7a32e0f","system_id":"levelo_inurba_marseille","lat":43.28414,"lon":5.34988,"is_reserved":false,"is_disabled":false,"rental_uris":{"android":"levelo://app?vid=b5f27f9e-78a9-4425-86cf-0a7af7a32e0f","ios":"levelo://app?vid=b5f27f9e-78a9-4425-86cf-0a7af7a32e0f"},"vehicle_type_id":"4","last_reported":1726537410,"current_range_meters":38800,"station_id":"ce4bhbh2rcd13ifvqepg","pricing_plan_id":"cebpf4jnsgd1na2vs0mg"},{"bike_id":"a3ab67e6-c71e-486c-b84b-fdc5d9019e65","system_id":"levelo_inurba_marseille","lat":43.3117,"lon":5.38712,"is_reserved":false,"is_disabled":false,"rental_uris":{"android":"levelo://app?vid=a3ab67e6-c71e-486c-b84b-fdc5d9019e65","ios":"levelo://app?vid=a3ab67e6-c71e-486c-b84b-fdc5d9019e65"},"vehicle_type_id":"4","last_reported":1726537410,"current_range_meters":19600,"station_id":"ce4bgv12rcd13ifvqcp0","pricing_plan_id":"cebpf4jnsgd1na2vs0mg"},{"bike_id":"b645ac77-0d58-4fa9-8ad3-947af8bdb1d9","system_id":"levelo_inurba_marseille","lat":43.29896,"lon":5.43653,"is_reserved":false,"is_disabled":false,"rental_uris":{"android":"levelo://app?vid=b645ac77-0d58-4fa9-8ad3-947af8bdb1d9","ios":"levelo://app?vid=b645ac77-0d58-4fa9-8ad3-947af8bdb1d9"},"vehicle_type_id":"4","last_reported":1726537410,"current_range_meters":26800,"station_id":"ce4bhpp2rcd13ifvqhfg","pricing_plan_id":"cebpf4jnsgd1na2vs0mg"},{"bike_id":"2fe98fd3-3bde-4a8f-98eb-df79809aa727","system_id":"levelo_inurba_marseille","lat":43.31999,"lon":5.38146,"is_reserved":false,"is_disabled":false,"rental_uris":{"android":"levelo://app?vid=2fe98fd3-3bde-4a8f-98eb-df79809aa727","ios":"levelo://app?vid=2fe98fd3-3bde-4a8f-98eb-df79809aa727"},"vehicle_type_id":"4","last_reported":1726537410,"current_range_meters":32800,"station_id":"ce4bhr12rcd13ifvqhpg","pricing_plan_id":"cebpf4jnsgd1na2vs0mg"},{"bike_id":"c0fca21a-54b8-4ab7-a1cb-6cddb6519682","system_id":"levelo_inurba_marseille","lat":43.27939,"lon":5.41031,"is_reserved":false,"is_disabled":false,"rental_uris":{"android":"levelo://app?vid=c0fca21a-54b8-4ab7-a1cb-6cddb6519682","ios":"levelo://app?vid=c0fca21a-54b8-4ab7-a1cb-6cddb6519682"},"vehicle_type_id":"4","last_reported":1726537410,"current_range_meters":38400,"station_id":"ce4bhnp2rcd13ifvqh0g","pricing_plan_id":"cebpf4jnsgd1na2vs0mg"},{"bike_id":"1d53a508-0946-4ef0-9d31-e3d5f444a352","system_id":"levelo_inurba_marseille","lat":43.24081,"lon":5.37732,"is_reserved":false,"is_disabled":false,"rental_uris":{"android":"levelo://app?vid=1d53a508-0946-4ef0-9d31-e3d5f444a352","ios":"levelo://app?vid=1d53a508-0946-4ef0-9d31-e3d5f444a352"},"vehicle_type_id":"4","last_reported":1726537410,"current_range_meters":38800,"station_id":"ce4bhnp2rcd13ifvqgvg","pricing_plan_id":"cebpf4jnsgd1na2vs0mg"},{"bike_id":"f8bacb80-e453-4a18-9d70-ff343eb7cf84","system_id":"levelo_inurba_marseille","lat":43.33023,"lon":5.39042,"is_reserved":false,"is_disabled":false,"rental_uris":{"android":"levelo://app?vid=f8bacb80-e453-4a18-9d70-ff343eb7cf84","ios":"levelo://app?vid=f8bacb80-e453-4a18-9d70-ff343eb7cf84"},"vehicle_type_id":"4","last_reported":1726537410,"current_range_meters":7200,"station_id":"ce4bhr92rcd13ifvqhrg","pricing_plan_id":"cebpf4jnsgd1na2vs0mg"},{"bike_id":"3f7f557a-0b23-4a08-b15d-24d9ee43c20c","system_id":"levelo_inurba_marseille","lat":43.25872,"lon":5.39899,"is_reserved":false,"is_disabled":false,"rental_uris":{"android":"levelo://app?vid=3f7f557a-0b23-4a08-b15d-24d9ee43c20c","ios":"levelo://app?vid=3f7f557a-0b23-4a08-b15d-24d9ee43c20c"},"vehicle_type_id":"4","last_reported":1726537410,"current_range_meters":39200,"station_id":"ce4bhl92rcd13ifvqghg","pricing_plan_id":"cebpf4jnsgd1na2vs0mg"},{"bike_id":"7abc2a25-404a-4f70-a7c0-c89315b5c4bc","system_id":"levelo_inurba_marseille","lat":43.31026,"lon":5.4034,"is_reserved":false,"is_disabled":false,"rental_uris":{"android":"levelo://app?vid=7abc2a25-404a-4f70-a7c0-c89315b5c4bc","ios":"levelo://app?vid=7abc2a25-404a-4f70-a7c0-c89315b5c4bc"},"vehicle_type_id":"4","last_reported":1726537410,"current_range_meters":24400,"station_id":"","pricing_plan_id":"cebpf4jnsgd1na2vs0mg"},{"bike_id":"0295feaf-345d-4f99-ba2b-8df36cdbd58a","system_id":"levelo_inurba_marseille","lat":43.28437,"lon":5.39183,"is_reserved":false,"is_disabled":false,"rental_uris":{"android":"levelo://app?vid=0295feaf-345d-4f99-ba2b-8df36cdbd58a","ios":"levelo://app?vid=0295feaf-345d-4f99-ba2b-8df36cdbd58a"},"vehicle_type_id":"4","last_reported":1726537410,"current_range_meters":24400,"station_id":"ce4bhoh2rcd13ifvqh5g","pricing_plan_id":"cebpf4jnsgd1na2vs0mg"},{"bike_id":"677498c9-746b-4650-9a8e-2c7479635944","system_id":"levelo_inurba_marseille","lat":43.33022,"lon":5.3905,"is_reserved":false,"is_disabled":false,"rental_uris":{"android":"levelo://app?vid=677498c9-746b-4650-9a8e-2c7479635944","ios":"levelo://app?vid=677498c9-746b-4650-9a8e-2c7479635944"},"vehicle_type_id":"4","last_reported":1726537410,"current_range_meters":24400,"station_id":"ce4bhr92rcd13ifvqhrg","pricing_plan_id":"cebpf4jnsgd1na2vs0mg"},{"bike_id":"3955f975-848a-4bb7-b65b-97ad2bc46030","system_id":"levelo_inurba_marseille","lat":43.30643,"lon":5.40088,"is_reserved":false,"is_disabled":false,"rental_uris":{"android":"levelo://app?vid=3955f975-848a-4bb7-b65b-97ad2bc46030","ios":"levelo://app?vid=3955f975-848a-4bb7-b65b-97ad2bc46030"},"vehicle_type_id":"4","last_reported":1726537410,"current_range_meters":10800,"station_id":"ce4bh112rcd13ifvqda0","pricing_plan_id":"cebpf4jnsgd1na2vs0mg"},{"bike_id":"a90fde8f-fdad-4379-ba06-bace7314ebcf","system_id":"levelo_inurba_marseille","lat":43.31325,"lon":5.39692,"is_reserved":false,"is_disabled":false,"rental_uris":{"android":"levelo://app?vid=a90fde8f-fdad-4379-ba06-bace7314ebcf","ios":"levelo://app?vid=a90fde8f-fdad-4379-ba06-bace7314ebcf"},"vehicle_type_id":"4","last_reported":1726537410,"current_range_meters":28400,"station_id":"ce4bgvp2rcd13ifvqcu0","pricing_plan_id":"cebpf4jnsgd1na2vs0mg"},{"bike_id":"a09b8657-3298-4390-8dd5-f622909fc3da","system_id":"levelo_inurba_marseille","lat":43.28512,"lon":5.39151,"is_reserved":false,"is_disabled":false,"rental_uris":{"android":"levelo://app?vid=a09b8657-3298-4390-8dd5-f622909fc3da","ios":"levelo://app?vid=a09b8657-3298-4390-8dd5-f622909fc3da"},"vehicle_type_id":"4","last_reported":1726537410,"current_range_meters":33200,"station_id":"","pricing_plan_id":"cebpf4jnsgd1na2vs0mg"},{"bike_id":"ba24a0cd-d0f2-41df-a3cd-11c6def34ed0","system_id":"levelo_inurba_marseille","lat":43.28463,"lon":5.35888,"is_reserved":false,"is_disabled":false,"rental_uris":{"android":"levelo://app?vid=ba24a0cd-d0f2-41df-a3cd-11c6def34ed0","ios":"levelo://app?vid=ba24a0cd-d0f2-41df-a3cd-11c6def34ed0"},"vehicle_type_id":"4","last_reported":1726537410,"current_range_meters":27600,"station_id":"ce4bhah2rcd13ifvqei0","pricing_plan_id":"cebpf4jnsgd1na2vs0mg"},{"bike_id":"4c8cba21-2dc4-482f-ae41-eccda61692c3","system_id":"levelo_inurba_marseille","lat":43.3189,"lon":5.40728,"is_reserved":false,"is_disabled":false,"rental_uris":{"android":"levelo://app?vid=4c8cba21-2dc4-482f-ae41-eccda61692c3","ios":"levelo://app?vid=4c8cba21-2dc4-482f-ae41-eccda61692c3"},"vehicle_type_id":"4","last_reported":1726537410,"current_range_meters":6800,"station_id":"ce4bhq12rcd13ifvqhig","pricing_plan_id":"cebpf4jnsgd1na2vs0mg"},{"bike_id":"d8fad538-dd28-4ccf-ab7d-1e50afd0659a","system_id":"levelo_inurba_marseille","lat":43.29602,"lon":5.36746,"is_reserved":false,"is_disabled":false,"rental_uris":{"android":"levelo://app?vid=d8fad538-dd28-4ccf-ab7d-1e50afd0659a","ios":"levelo://app?vid=d8fad538-dd28-4ccf-ab7d-1e50afd0659a"},"vehicle_type_id":"4","last_reported":1726537410,"current_range_meters":38400,"station_id":"ce4bgph2rcd13ifvqc2g","pricing_plan_id":"cebpf4jnsgd1na2vs0mg"},{"bike_id":"7ba5a0d3-87f5-4dbc-8dc8-0d67d795da41","system_id":"levelo_inurba_marseille","lat":43.30909,"lon":5.36851,"is_reserved":false,"is_disabled":false,"rental_uris":{"android":"levelo://app?vid=7ba5a0d3-87f5-4dbc-8dc8-0d67d795da41","ios":"levelo://app?vid=7ba5a0d3-87f5-4dbc-8dc8-0d67d795da41"},"vehicle_type_id":"4","last_reported":1726537410,"current_range_meters":37600,"station_id":"ce4bgn92rcd13ifvqbvg","pricing_plan_id":"cebpf4jnsgd1na2vs0mg"},{"bike_id":"6ab90e7b-3cd5-4ab0-a6e3-16251a781fff","system_id":"levelo_inurba_marseille","lat":43.28458,"lon":5.3588,"is_reserved":false,"is_disabled":false,"rental_uris":{"android":"levelo://app?vid=6ab90e7b-3cd5-4ab0-a6e3-16251a781fff","ios":"levelo://app?vid=6ab90e7b-3cd5-4ab0-a6e3-16251a781fff"},"vehicle_type_id":"4","last_reported":1726537410,"current_range_meters":38800,"station_id":"ce4bhah2rcd13ifvqei0","pricing_plan_id":"cebpf4jnsgd1na2vs0mg"},{"bike_id":"0f798844-15b5-4e5a-9872-0487cce9ed14","system_id":"levelo_inurba_marseille","lat":43.30882,"lon":5.39644,"is_reserved":false,"is_disabled":false,"rental_uris":{"android":"levelo://app?vid=0f798844-15b5-4e5a-9872-0487cce9ed14","ios":"levelo://app?vid=0f798844-15b5-4e5a-9872-0487cce9ed14"},"vehicle_type_id":"4","last_reported":1726537410,"current_range_meters":35200,"station_id":"ce4bh012rcd13ifvqcv0","pricing_plan_id":"cebpf4jnsgd1na2vs0mg"},{"bike_id":"15392aa0-90a1-41d4-a66d-995d88d0aa75","system_id":"levelo_inurba_marseille","lat":43.24668,"lon":5.38171,"is_reserved":false,"is_disabled":false,"rental_uris":{"android":"levelo://app?vid=15392aa0-90a1-41d4-a66d-995d88d0aa75","ios":"levelo://app?vid=15392aa0-90a1-41d4-a66d-995d88d0aa75"},"vehicle_type_id":"4","last_reported":1726537410,"current_range_meters":36800,"station_id":"ce4bhih2rcd13ifvqfr0","pricing_plan_id":"cebpf4jnsgd1na2vs0mg"},{"bike_id":"c120e053-2cf6-4b86-baef-2147853299bf","system_id":"levelo_inurba_marseille","lat":43.32368,"lon":5.38886,"is_reserved":false,"is_disabled":false,"rental_uris":{"android":"levelo://app?vid=c120e053-2cf6-4b86-baef-2147853299bf","ios":"levelo://app?vid=c120e053-2cf6-4b86-baef-2147853299bf"},"vehicle_type_id":"4","last_reported":1726537410,"current_range_meters":38800,"station_id":"ce4bhqp2rcd13ifvqhog","pricing_plan_id":"cebpf4jnsgd1na2vs0mg"},{"bike_id":"94829247-daf5-4b5f-8142-20e89d959705","system_id":"levelo_inurba_marseille","lat":43.31184,"lon":5.38681,"is_reserved":false,"is_disabled":false,"rental_uris":{"android":"levelo://app?vid=94829247-daf5-4b5f-8142-20e89d959705","ios":"levelo://app?vid=94829247-daf5-4b5f-8142-20e89d959705"},"vehicle_type_id":"4","last_reported":1726537410,"current_range_meters":38800,"station_id":"ce4bgv12rcd13ifvqcp0","pricing_plan_id":"cebpf4jnsgd1na2vs0mg"},{"bike_id":"b4148530-ebdb-4fd3-a840-6ebd85f44bf4","system_id":"levelo_inurba_marseille","lat":43.31692,"lon":5.40467,"is_reserved":false,"is_disabled":false,"rental_uris":{"android":"levelo://app?vid=b4148530-ebdb-4fd3-a840-6ebd85f44bf4","ios":"levelo://app?vid=b4148530-ebdb-4fd3-a840-6ebd85f44bf4"},"vehicle_type_id":"4","last_reported":1726537410,"current_range_meters":12800,"station_id":"ce4bh012rcd13ifvqd00","pricing_plan_id":"cebpf4jnsgd1na2vs0mg"},{"bike_id":"f76e7115-dcce-4dd4-9178-71d00b158324","system_id":"levelo_inurba_marseille","lat":43.25114,"lon":5.40316,"is_reserved":false,"is_disabled":false,"rental_uris":{"android":"levelo://app?vid=f76e7115-dcce-4dd4-9178-71d00b158324","ios":"levelo://app?vid=f76e7115-dcce-4dd4-9178-71d00b158324"},"vehicle_type_id":"4","last_reported":1726537410,"current_range_meters":38800,"station_id":"ce4bhlh2rcd13ifvqgig","pricing_plan_id":"cebpf4jnsgd1na2vs0mg"},{"bike_id":"f7513478-d14c-4383-9570-aa8d81b87e3a","system_id":"levelo_inurba_marseille","lat":43.30881,"lon":5.39642,"is_reserved":false,"is_disabled":false,"rental_uris":{"android":"levelo://app?vid=f7513478-d14c-4383-9570-aa8d81b87e3a","ios":"levelo://app?vid=f7513478-d14c-4383-9570-aa8d81b87e3a"},"vehicle_type_id":"4","last_reported":1726537410,"current_range_meters":38800,"station_id":"ce4bh012rcd13ifvqcv0","pricing_plan_id":"cebpf4jnsgd1na2vs0mg"},{"bike_id":"a626b048-b039-4983-b123-be68431c8302","system_id":"levelo_inurba_marseille","lat":43.28718,"lon":5.39993,"is_reserved":false,"is_disabled":false,"rental_uris":{"android":"levelo://app?vid=a626b048-b039-4983-b123-be68431c8302","ios":"levelo://app?vid=a626b048-b039-4983-b123-be68431c8302"},"vehicle_type_id":"4","last_reported":1726537410,"current_range_meters":16800,"station_id":"ce4bho92rcd13ifvqh3g","pricing_plan_id":"cebpf4jnsgd1na2vs0mg"},{"bike_id":"0775a585-588e-4a73-84db-4bf9466c672d","system_id":"levelo_inurba_marseille","lat":43.28563,"lon":5.39487,"is_reserved":false,"is_disabled":false,"rental_uris":{"android":"levelo://app?vid=0775a585-588e-4a73-84db-4bf9466c672d","ios":"levelo://app?vid=0775a585-588e-4a73-84db-4bf9466c672d"},"vehicle_type_id":"4","last_reported":1726537410,"current_range_meters":30800,"station_id":"ce4bh292rcd13ifvqdg0","pricing_plan_id":"cebpf4jnsgd1na2vs0mg"},{"bike_id":"efdb13d6-ef23-49b0-9a8b-75b101687d79","system_id":"levelo_inurba_marseille","lat":43.32276,"lon":5.40661,"is_reserved":false,"is_disabled":false,"rental_uris":{"android":"levelo://app?vid=efdb13d6-ef23-49b0-9a8b-75b101687d79","ios":"levelo://app?vid=efdb13d6-ef23-49b0-9a8b-75b101687d79"},"vehicle_type_id":"4","last_reported":1726537410,"current_range_meters":24400,"station_id":"ce4bhq92rcd13ifvqhjg","pricing_plan_id":"cebpf4jnsgd1na2vs0mg"},{"bike_id":"474a155d-e22d-44cb-bf3d-06bb1ae28387","system_id":"levelo_inurba_marseille","lat":43.30931,"lon":5.40143,"is_reserved":false,"is_disabled":false,"rental_uris":{"android":"levelo://app?vid=474a155d-e22d-44cb-bf3d-06bb1ae28387","ios":"levelo://app?vid=474a155d-e22d-44cb-bf3d-06bb1ae28387"},"vehicle_type_id":"4","last_reported":1726537410,"current_range_meters":38800,"station_id":"ce4bgvp2rcd13ifvqct0","pricing_plan_id":"cebpf4jnsgd1na2vs0mg"},{"bike_id":"4d579e43-d134-468d-832a-405c8e9aa74b","system_id":"levelo_inurba_marseille","lat":43.27565,"lon":5.38429,"is_reserved":false,"is_disabled":false,"rental_uris":{"android":"levelo://app?vid=4d579e43-d134-468d-832a-405c8e9aa74b","ios":"levelo://app?vid=4d579e43-d134-468d-832a-405c8e9aa74b"},"vehicle_type_id":"4","last_reported":1726537410,"current_range_meters":38400,"station_id":"ce4bhh92rcd13ifvqfi0","pricing_plan_id":"cebpf4jnsgd1na2vs0mg"},{"bike_id":"99684f50-b398-427b-a4e9-7ca0a0382c79","system_id":"levelo_inurba_marseille","lat":43.23196,"lon":5.35549,"is_reserved":false,"is_disabled":false,"rental_uris":{"android":"levelo://app?vid=99684f50-b398-427b-a4e9-7ca0a0382c79","ios":"levelo://app?vid=99684f50-b398-427b-a4e9-7ca0a0382c79"},"vehicle_type_id":"4","last_reported":1726537410,"current_range_meters":38800,"station_id":"ce4bhu92rcd13ifvqi70","pricing_plan_id":"cebpf4jnsgd1na2vs0mg"},{"bike_id":"c3a28cfd-1747-4bcf-85ec-e4cf450e6284","system_id":"levelo_inurba_marseille","lat":43.31165,"lon":5.38711,"is_reserved":false,"is_disabled":false,"rental_uris":{"android":"levelo://app?vid=c3a28cfd-1747-4bcf-85ec-e4cf450e6284","ios":"levelo://app?vid=c3a28cfd-1747-4bcf-85ec-e4cf450e6284"},"vehicle_type_id":"4","last_reported":1726537410,"current_range_meters":37600,"station_id":"ce4bgv12rcd13ifvqcp0","pricing_plan_id":"cebpf4jnsgd1na2vs0mg"},{"bike_id":"2b78e364-924b-4afe-afce-ed438e4dae97","system_id":"levelo_inurba_marseille","lat":43.27065,"lon":5.4227,"is_reserved":false,"is_disabled":false,"rental_uris":{"android":"levelo://app?vid=2b78e364-924b-4afe-afce-ed438e4dae97","ios":"levelo://app?vid=2b78e364-924b-4afe-afce-ed438e4dae97"},"vehicle_type_id":"4","last_reported":1726537410,"current_range_meters":30400,"station_id":"ce4bhk92rcd13ifvqgb0","pricing_plan_id":"cebpf4jnsgd1na2vs0mg"},{"bike_id":"c7d0c20f-c1ca-4c60-adaa-b5d380df3050","system_id":"levelo_inurba_marseille","lat":43.29795,"lon":5.39343,"is_reserved":false,"is_disabled":false,"rental_uris":{"android":"levelo://app?vid=c7d0c20f-c1ca-4c60-adaa-b5d380df3050","ios":"levelo://app?vid=c7d0c20f-c1ca-4c60-adaa-b5d380df3050"},"vehicle_type_id":"4","last_reported":1726537410,"current_range_meters":38800,"station_id":"chh1huq6cuj3fo74tm60","pricing_plan_id":"cebpf4jnsgd1na2vs0mg"},{"bike_id":"1bd9f874-5ea2-4273-8df2-3153cd590d7e","system_id":"levelo_inurba_marseille","lat":43.27942,"lon":5.41043,"is_reserved":false,"is_disabled":false,"rental_uris":{"android":"levelo://app?vid=1bd9f874-5ea2-4273-8df2-3153cd590d7e","ios":"levelo://app?vid=1bd9f874-5ea2-4273-8df2-3153cd590d7e"},"vehicle_type_id":"4","last_reported":1726537410,"current_range_meters":38800,"station_id":"ce4bhnp2rcd13ifvqh0g","pricing_plan_id":"cebpf4jnsgd1na2vs0mg"},{"bike_id":"1e50fdae-020a-4cb6-9b1c-d6613add5f05","system_id":"levelo_inurba_marseille","lat":43.30935,"lon":5.40134,"is_reserved":false,"is_disabled":false,"rental_uris":{"android":"levelo://app?vid=1e50fdae-020a-4cb6-9b1c-d6613add5f05","ios":"levelo://app?vid=1e50fdae-020a-4cb6-9b1c-d6613add5f05"},"vehicle_type_id":"4","last_reported":1726537410,"current_range_meters":16000,"station_id":"ce4bgvp2rcd13ifvqct0","pricing_plan_id":"cebpf4jnsgd1na2vs0mg"},{"bike_id":"850604a8-1fd5-434a-b904-464a3f5f231b","system_id":"levelo_inurba_marseille","lat":43.29608,"lon":5.3772,"is_reserved":false,"is_disabled":false,"rental_uris":{"android":"levelo://app?vid=850604a8-1fd5-434a-b904-464a3f5f231b","ios":"levelo://app?vid=850604a8-1fd5-434a-b904-464a3f5f231b"},"vehicle_type_id":"4","last_reported":1726537410,"current_range_meters":38800,"station_id":"ce4bgi92rcd13ifvqb90","pricing_plan_id":"cebpf4jnsgd1na2vs0mg"},{"bike_id":"51a0ef68-0a0c-4c80-8365-793323e0b2e1","system_id":"levelo_inurba_marseille","lat":43.31723,"lon":5.424,"is_reserved":false,"is_disabled":false,"rental_uris":{"android":"levelo://app?vid=51a0ef68-0a0c-4c80-8365-793323e0b2e1","ios":"levelo://app?vid=51a0ef68-0a0c-4c80-8365-793323e0b2e1"},"vehicle_type_id":"4","last_reported":1726537410,"current_range_meters":38800,"station_id":"ce4bhp92rcd13ifvqhbg","pricing_plan_id":"cebpf4jnsgd1na2vs0mg"},{"bike_id":"9c6dc8ef-1c0c-4cb9-b418-19ee547f6b08","system_id":"levelo_inurba_marseille","lat":43.31483,"lon":5.37296,"is_reserved":false,"is_disabled":false,"rental_uris":{"android":"levelo://app?vid=9c6dc8ef-1c0c-4cb9-b418-19ee547f6b08","ios":"levelo://app?vid=9c6dc8ef-1c0c-4cb9-b418-19ee547f6b08"},"vehicle_type_id":"4","last_reported":1726537410,"current_range_meters":37600,"station_id":"ce4bgt12rcd13ifvqcd0","pricing_plan_id":"cebpf4jnsgd1na2vs0mg"},{"bike_id":"e72f43fd-5fd7-43f3-8743-4c038c7a4717","system_id":"levelo_inurba_marseille","lat":43.24649,"lon":5.38893,"is_reserved":false,"is_disabled":false,"rental_uris":{"android":"levelo://app?vid=e72f43fd-5fd7-43f3-8743-4c038c7a4717","ios":"levelo://app?vid=e72f43fd-5fd7-43f3-8743-4c038c7a4717"},"vehicle_type_id":"4","last_reported":1726537410,"current_range_meters":32000,"station_id":"ce4bhg12rcd13ifvqf60","pricing_plan_id":"cebpf4jnsgd1na2vs0mg"},{"bike_id":"0ee7a5e1-a53d-474a-9625-99477ecad597","system_id":"levelo_inurba_marseille","lat":43.22931,"lon":5.35376,"is_reserved":false,"is_disabled":false,"rental_uris":{"android":"levelo://app?vid=0ee7a5e1-a53d-474a-9625-99477ecad597","ios":"levelo://app?vid=0ee7a5e1-a53d-474a-9625-99477ecad597"},"vehicle_type_id":"4","last_reported":1726537410,"current_range_meters":19600,"station_id":"cpo3532slgdg3j2ikp40","pricing_plan_id":"cebpf4jnsgd1na2vs0mg"},{"bike_id":"c793a8e2-fda6-45bf-bf4c-58f552eb6534","system_id":"levelo_inurba_marseille","lat":43.27949,"lon":5.41033,"is_reserved":false,"is_disabled":false,"rental_uris":{"android":"levelo://app?vid=c793a8e2-fda6-45bf-bf4c-58f552eb6534","ios":"levelo://app?vid=c793a8e2-fda6-45bf-bf4c-58f552eb6534"},"vehicle_type_id":"4","last_reported":1726537410,"current_range_meters":7200,"station_id":"ce4bhnp2rcd13ifvqh0g","pricing_plan_id":"cebpf4jnsgd1na2vs0mg"},{"bike_id":"d4a5eb26-b065-4afe-af9d-6f80f0b9f610","system_id":"levelo_inurba_marseille","lat":43.31715,"lon":5.43703,"is_reserved":false,"is_disabled":false,"rental_uris":{"android":"levelo://app?vid=d4a5eb26-b065-4afe-af9d-6f80f0b9f610","ios":"levelo://app?vid=d4a5eb26-b065-4afe-af9d-6f80f0b9f610"},"vehicle_type_id":"4","last_reported":1726537410,"current_range_meters":8400,"station_id":"ce4bhp92rcd13ifvqhcg","pricing_plan_id":"cebpf4jnsgd1na2vs0mg"},{"bike_id":"50a2b5d3-0f50-4851-bf79-9ecccd45ca06","system_id":"levelo_inurba_marseille","lat":43.27377,"lon":5.36245,"is_reserved":false,"is_disabled":false,"rental_uris":{"android":"levelo://app?vid=50a2b5d3-0f50-4851-bf79-9ecccd45ca06","ios":"levelo://app?vid=50a2b5d3-0f50-4851-bf79-9ecccd45ca06"},"vehicle_type_id":"4","last_reported":1726537410,"current_range_meters":37600,"station_id":"ce4bhbh2rcd13ifvqeo0","pricing_plan_id":"cebpf4jnsgd1na2vs0mg"},{"bike_id":"98c5049c-3e5c-4a1e-8382-9d4eb5994edb","system_id":"levelo_inurba_marseille","lat":43.28847,"lon":5.35858,"is_reserved":false,"is_disabled":false,"rental_uris":{"android":"levelo://app?vid=98c5049c-3e5c-4a1e-8382-9d4eb5994edb","ios":"levelo://app?vid=98c5049c-3e5c-4a1e-8382-9d4eb5994edb"},"vehicle_type_id":"4","last_reported":1726537410,"current_range_meters":28800,"station_id":"ce4bhb12rcd13ifvqem0","pricing_plan_id":"cebpf4jnsgd1na2vs0mg"},{"bike_id":"1aa9d18b-3cb0-43db-abef-b9bb4172ad85","system_id":"levelo_inurba_marseille","lat":43.26941,"lon":5.40248,"is_reserved":false,"is_disabled":false,"rental_uris":{"android":"levelo://app?vid=1aa9d18b-3cb0-43db-abef-b9bb4172ad85","ios":"levelo://app?vid=1aa9d18b-3cb0-43db-abef-b9bb4172ad85"},"vehicle_type_id":"4","last_reported":1726537410,"current_range_meters":38400,"station_id":"cjm6bp8fraef2m0cb0m0","pricing_plan_id":"cebpf4jnsgd1na2vs0mg"},{"bike_id":"e2d0eb8f-b91a-4f09-bd69-1eba8d59a730","system_id":"levelo_inurba_marseille","lat":43.24537,"lon":5.39528,"is_reserved":false,"is_disabled":false,"rental_uris":{"android":"levelo://app?vid=e2d0eb8f-b91a-4f09-bd69-1eba8d59a730","ios":"levelo://app?vid=e2d0eb8f-b91a-4f09-bd69-1eba8d59a730"},"vehicle_type_id":"4","last_reported":1726537410,"current_range_meters":27600,"station_id":"ce4bhlp2rcd13ifvqgjg","pricing_plan_id":"cebpf4jnsgd1na2vs0mg"},{"bike_id":"129eec2c-37fc-4d0a-86d0-fd2c11d8ba68","system_id":"levelo_inurba_marseille","lat":43.24677,"lon":5.38163,"is_reserved":false,"is_disabled":false,"rental_uris":{"android":"levelo://app?vid=129eec2c-37fc-4d0a-86d0-fd2c11d8ba68","ios":"levelo://app?vid=129eec2c-37fc-4d0a-86d0-fd2c11d8ba68"},"vehicle_type_id":"4","last_reported":1726537410,"current_range_meters":11200,"station_id":"ce4bhih2rcd13ifvqfr0","pricing_plan_id":"cebpf4jnsgd1na2vs0mg"},{"bike_id":"8d52c58f-9942-4f2d-b989-11d61f2ba529","system_id":"levelo_inurba_marseille","lat":43.30331,"lon":5.40394,"is_reserved":false,"is_disabled":false,"rental_uris":{"android":"levelo://app?vid=8d52c58f-9942-4f2d-b989-11d61f2ba529","ios":"levelo://app?vid=8d52c58f-9942-4f2d-b989-11d61f2ba529"},"vehicle_type_id":"4","last_reported":1726537410,"current_range_meters":17600,"station_id":"ce4bh012rcd13ifvqd10","pricing_plan_id":"cebpf4jnsgd1na2vs0mg"},{"bike_id":"d631b9d4-56df-45a6-a050-dad89844caab","system_id":"levelo_inurba_marseille","lat":43.30883,"lon":5.37196,"is_reserved":false,"is_disabled":false,"rental_uris":{"android":"levelo://app?vid=d631b9d4-56df-45a6-a050-dad89844caab","ios":"levelo://app?vid=d631b9d4-56df-45a6-a050-dad89844caab"},"vehicle_type_id":"4","last_reported":1726537410,"current_range_meters":39200,"station_id":"ce4bguh2rcd13ifvqckg","pricing_plan_id":"cebpf4jnsgd1na2vs0mg"},{"bike_id":"fed25c85-b3e7-4093-a992-a9eacb54e345","system_id":"levelo_inurba_marseille","lat":43.23191,"lon":5.35541,"is_reserved":false,"is_disabled":false,"rental_uris":{"android":"levelo://app?vid=fed25c85-b3e7-4093-a992-a9eacb54e345","ios":"levelo://app?vid=fed25c85-b3e7-4093-a992-a9eacb54e345"},"vehicle_type_id":"4","last_reported":1726537410,"current_range_meters":38800,"station_id":"ce4bhu92rcd13ifvqi70","pricing_plan_id":"cebpf4jnsgd1na2vs0mg"},{"bike_id":"aa200705-ceb5-482b-95b6-236c7438642f","system_id":"levelo_inurba_marseille","lat":43.26932,"lon":5.38918,"is_reserved":false,"is_disabled":false,"rental_uris":{"android":"levelo://app?vid=aa200705-ceb5-482b-95b6-236c7438642f","ios":"levelo://app?vid=aa200705-ceb5-482b-95b6-236c7438642f"},"vehicle_type_id":"4","last_reported":1726537410,"current_range_meters":38800,"station_id":"ce4bhhh2rcd13ifvqfl0","pricing_plan_id":"cebpf4jnsgd1na2vs0mg"},{"bike_id":"5d1fc471-3be0-4068-b5f2-ffc2ae7be440","system_id":"levelo_inurba_marseille","lat":43.29931,"lon":5.3653,"is_reserved":false,"is_disabled":false,"rental_uris":{"android":"levelo://app?vid=5d1fc471-3be0-4068-b5f2-ffc2ae7be440","ios":"levelo://app?vid=5d1fc471-3be0-4068-b5f2-ffc2ae7be440"},"vehicle_type_id":"4","last_reported":1726537410,"current_range_meters":9200,"station_id":"ce4bgm92rcd13ifvqbr0","pricing_plan_id":"cebpf4jnsgd1na2vs0mg"},{"bike_id":"7778f388-d0ae-44fa-91ea-1930bbb64b40","system_id":"levelo_inurba_marseille","lat":43.28434,"lon":5.39183,"is_reserved":false,"is_disabled":false,"rental_uris":{"android":"levelo://app?vid=7778f388-d0ae-44fa-91ea-1930bbb64b40","ios":"levelo://app?vid=7778f388-d0ae-44fa-91ea-1930bbb64b40"},"vehicle_type_id":"4","last_reported":1726537410,"current_range_meters":37600,"station_id":"ce4bhoh2rcd13ifvqh5g","pricing_plan_id":"cebpf4jnsgd1na2vs0mg"},{"bike_id":"a43a6109-12ef-475b-a798-89b024a1f345","system_id":"levelo_inurba_marseille","lat":43.28105,"lon":5.3783,"is_reserved":false,"is_disabled":false,"rental_uris":{"android":"levelo://app?vid=a43a6109-12ef-475b-a798-89b024a1f345","ios":"levelo://app?vid=a43a6109-12ef-475b-a798-89b024a1f345"},"vehicle_type_id":"4","last_reported":1726537410,"current_range_meters":24000,"station_id":"ce4bha12rcd13ifvqee0","pricing_plan_id":"cebpf4jnsgd1na2vs0mg"},{"bike_id":"4be2f992-6a39-4d05-b243-59665b675740","system_id":"levelo_inurba_marseille","lat":43.30933,"lon":5.40146,"is_reserved":false,"is_disabled":false,"rental_uris":{"android":"levelo://app?vid=4be2f992-6a39-4d05-b243-59665b675740","ios":"levelo://app?vid=4be2f992-6a39-4d05-b243-59665b675740"},"vehicle_type_id":"4","last_reported":1726537410,"current_range_meters":6800,"station_id":"ce4bgvp2rcd13ifvqct0","pricing_plan_id":"cebpf4jnsgd1na2vs0mg"},{"bike_id":"f0725c4d-788f-43dc-9cb3-a928697c634a","system_id":"levelo_inurba_marseille","lat":43.27611,"lon":5.36108,"is_reserved":false,"is_disabled":false,"rental_uris":{"android":"levelo://app?vid=f0725c4d-788f-43dc-9cb3-a928697c634a","ios":"levelo://app?vid=f0725c4d-788f-43dc-9cb3-a928697c634a"},"vehicle_type_id":"4","last_reported":1726537410,"current_range_meters":37600,"station_id":"ce4bgj92rcd13ifvqbe0","pricing_plan_id":"cebpf4jnsgd1na2vs0mg"},{"bike_id":"9db864bb-e162-44f2-a443-f7f4891f20a3","system_id":"levelo_inurba_marseille","lat":43.29805,"lon":5.4041,"is_reserved":false,"is_disabled":false,"rental_uris":{"android":"levelo://app?vid=9db864bb-e162-44f2-a443-f7f4891f20a3","ios":"levelo://app?vid=9db864bb-e162-44f2-a443-f7f4891f20a3"},"vehicle_type_id":"4","last_reported":1726537410,"current_range_meters":38800,"station_id":"ce4bh112rcd13ifvqd90","pricing_plan_id":"cebpf4jnsgd1na2vs0mg"},{"bike_id":"9ba87bb5-9f3d-4194-a269-b120a31c3dae","system_id":"levelo_inurba_marseille","lat":43.28857,"lon":5.35841,"is_reserved":false,"is_disabled":false,"rental_uris":{"android":"levelo://app?vid=9ba87bb5-9f3d-4194-a269-b120a31c3dae","ios":"levelo://app?vid=9ba87bb5-9f3d-4194-a269-b120a31c3dae"},"vehicle_type_id":"4","last_reported":1726537410,"current_range_meters":37600,"station_id":"ce4bhb12rcd13ifvqem0","pricing_plan_id":"cebpf4jnsgd1na2vs0mg"},{"bike_id":"6ad2fe94-195b-4d58-9ac6-d3a9675a4c80","system_id":"levelo_inurba_marseille","lat":43.23061,"lon":5.35496,"is_reserved":false,"is_disabled":false,"rental_uris":{"android":"levelo://app?vid=6ad2fe94-195b-4d58-9ac6-d3a9675a4c80","ios":"levelo://app?vid=6ad2fe94-195b-4d58-9ac6-d3a9675a4c80"},"vehicle_type_id":"4","last_reported":1726537410,"current_range_meters":12400,"station_id":"cpo3342slgdg3j2ifvpg","pricing_plan_id":"cebpf4jnsgd1na2vs0mg"},{"bike_id":"6dd17a2f-59bb-4453-859d-2c09ab795824","system_id":"levelo_inurba_marseille","lat":43.33022,"lon":5.39053,"is_reserved":false,"is_disabled":false,"rental_uris":{"android":"levelo://app?vid=6dd17a2f-59bb-4453-859d-2c09ab795824","ios":"levelo://app?vid=6dd17a2f-59bb-4453-859d-2c09ab795824"},"vehicle_type_id":"4","last_reported":1726537410,"current_range_meters":33600,"station_id":"ce4bhr92rcd13ifvqhrg","pricing_plan_id":"cebpf4jnsgd1na2vs0mg"},{"bike_id":"2f471be3-fe36-4a4b-b8ae-3093c0731bc1","system_id":"levelo_inurba_marseille","lat":43.24072,"lon":5.37763,"is_reserved":false,"is_disabled":false,"rental_uris":{"android":"levelo://app?vid=2f471be3-fe36-4a4b-b8ae-3093c0731bc1","ios":"levelo://app?vid=2f471be3-fe36-4a4b-b8ae-3093c0731bc1"},"vehicle_type_id":"4","last_reported":1726537410,"current_range_meters":35200,"station_id":"ce4bhnp2rcd13ifvqgvg","pricing_plan_id":"cebpf4jnsgd1na2vs0mg"},{"bike_id":"c2ecb147-8ee1-4803-aa1c-5a9b13d8ea1c","system_id":"levelo_inurba_marseille","lat":43.23154,"lon":5.43711,"is_reserved":false,"is_disabled":false,"rental_uris":{"android":"levelo://app?vid=c2ecb147-8ee1-4803-aa1c-5a9b13d8ea1c","ios":"levelo://app?vid=c2ecb147-8ee1-4803-aa1c-5a9b13d8ea1c"},"vehicle_type_id":"4","last_reported":1726537410,"current_range_meters":38800,"station_id":"ce4bhmp2rcd13ifvqgog","pricing_plan_id":"cebpf4jnsgd1na2vs0mg"},{"bike_id":"8ac17af3-1087-4030-8684-fc752197666e","system_id":"levelo_inurba_marseille","lat":43.32363,"lon":5.38871,"is_reserved":false,"is_disabled":false,"rental_uris":{"android":"levelo://app?vid=8ac17af3-1087-4030-8684-fc752197666e","ios":"levelo://app?vid=8ac17af3-1087-4030-8684-fc752197666e"},"vehicle_type_id":"4","last_reported":1726537410,"current_range_meters":20000,"station_id":"ce4bhqp2rcd13ifvqhog","pricing_plan_id":"cebpf4jnsgd1na2vs0mg"},{"bike_id":"2a9a56d3-b7a3-4c95-bf21-e53721b33531","system_id":"levelo_inurba_marseille","lat":43.26801,"lon":5.4026,"is_reserved":false,"is_disabled":false,"rental_uris":{"android":"levelo://app?vid=2a9a56d3-b7a3-4c95-bf21-e53721b33531","ios":"levelo://app?vid=2a9a56d3-b7a3-4c95-bf21-e53721b33531"},"vehicle_type_id":"4","last_reported":1726537410,"current_range_meters":37600,"station_id":"ce501612rcd8frsf0b60","pricing_plan_id":"cebpf4jnsgd1na2vs0mg"},{"bike_id":"285d3ce5-30a7-4099-b570-90e915acc78a","system_id":"levelo_inurba_marseille","lat":43.2465,"lon":5.38883,"is_reserved":false,"is_disabled":false,"rental_uris":{"android":"levelo://app?vid=285d3ce5-30a7-4099-b570-90e915acc78a","ios":"levelo://app?vid=285d3ce5-30a7-4099-b570-90e915acc78a"},"vehicle_type_id":"4","last_reported":1726537410,"current_range_meters":38800,"station_id":"ce4bhg12rcd13ifvqf60","pricing_plan_id":"cebpf4jnsgd1na2vs0mg"},{"bike_id":"a0da9788-6ad0-4bd2-9978-72c1654ca4ea","system_id":"levelo_inurba_marseille","lat":43.3237,"lon":5.38882,"is_reserved":false,"is_disabled":false,"rental_uris":{"android":"levelo://app?vid=a0da9788-6ad0-4bd2-9978-72c1654ca4ea","ios":"levelo://app?vid=a0da9788-6ad0-4bd2-9978-72c1654ca4ea"},"vehicle_type_id":"4","last_reported":1726537410,"current_range_meters":23200,"station_id":"ce4bhqp2rcd13ifvqhog","pricing_plan_id":"cebpf4jnsgd1na2vs0mg"},{"bike_id":"f11293b9-5944-418c-9cea-2087ec8521d3","system_id":"levelo_inurba_marseille","lat":43.31219,"lon":5.36856,"is_reserved":false,"is_disabled":false,"rental_uris":{"android":"levelo://app?vid=f11293b9-5944-418c-9cea-2087ec8521d3","ios":"levelo://app?vid=f11293b9-5944-418c-9cea-2087ec8521d3"},"vehicle_type_id":"4","last_reported":1726537410,"current_range_meters":17600,"station_id":"ce4bgl92rcd13ifvqbq0","pricing_plan_id":"cebpf4jnsgd1na2vs0mg"},{"bike_id":"01e50dd8-2a48-4063-b60e-8d3bda491221","system_id":"levelo_inurba_marseille","lat":43.31167,"lon":5.38718,"is_reserved":false,"is_disabled":false,"rental_uris":{"android":"levelo://app?vid=01e50dd8-2a48-4063-b60e-8d3bda491221","ios":"levelo://app?vid=01e50dd8-2a48-4063-b60e-8d3bda491221"},"vehicle_type_id":"4","last_reported":1726537410,"current_range_meters":18800,"station_id":"ce4bgv12rcd13ifvqcp0","pricing_plan_id":"cebpf4jnsgd1na2vs0mg"},{"bike_id":"ee2a6f6f-8fd5-4be5-b404-f76250f2e4dc","system_id":"levelo_inurba_marseille","lat":43.27483,"lon":5.42456,"is_reserved":false,"is_disabled":false,"rental_uris":{"android":"levelo://app?vid=ee2a6f6f-8fd5-4be5-b404-f76250f2e4dc","ios":"levelo://app?vid=ee2a6f6f-8fd5-4be5-b404-f76250f2e4dc"},"vehicle_type_id":"4","last_reported":1726537410,"current_range_meters":38400,"station_id":"ce4bhn92rcd13ifvqgrg","pricing_plan_id":"cebpf4jnsgd1na2vs0mg"},{"bike_id":"22f26e89-4ccd-47af-bb30-5f037502847c","system_id":"levelo_inurba_marseille","lat":43.23196,"lon":5.39978,"is_reserved":false,"is_disabled":false,"rental_uris":{"android":"levelo://app?vid=22f26e89-4ccd-47af-bb30-5f037502847c","ios":"levelo://app?vid=22f26e89-4ccd-47af-bb30-5f037502847c"},"vehicle_type_id":"4","last_reported":1726537410,"current_range_meters":30000,"station_id":"ce4bhn12rcd13ifvqgqg","pricing_plan_id":"cebpf4jnsgd1na2vs0mg"},{"bike_id":"93b15369-51ec-4546-bec7-157d7319fb41","system_id":"levelo_inurba_marseille","lat":43.30887,"lon":5.39632,"is_reserved":false,"is_disabled":false,"rental_uris":{"android":"levelo://app?vid=93b15369-51ec-4546-bec7-157d7319fb41","ios":"levelo://app?vid=93b15369-51ec-4546-bec7-157d7319fb41"},"vehicle_type_id":"4","last_reported":1726537410,"current_range_meters":39200,"station_id":"ce4bh012rcd13ifvqcv0","pricing_plan_id":"cebpf4jnsgd1na2vs0mg"},{"bike_id":"b999ce2f-9b74-45c1-bce0-f20ed5d3b454","system_id":"levelo_inurba_marseille","lat":43.30437,"lon":5.38886,"is_reserved":false,"is_disabled":false,"rental_uris":{"android":"levelo://app?vid=b999ce2f-9b74-45c1-bce0-f20ed5d3b454","ios":"levelo://app?vid=b999ce2f-9b74-45c1-bce0-f20ed5d3b454"},"vehicle_type_id":"4","last_reported":1726537410,"current_range_meters":38800,"station_id":"ce4bgk12rcd13ifvqbi0","pricing_plan_id":"cebpf4jnsgd1na2vs0mg"},{"bike_id":"dcedc4d0-5154-46be-ab26-09bd6c855628","system_id":"levelo_inurba_marseille","lat":43.32363,"lon":5.38871,"is_reserved":false,"is_disabled":false,"rental_uris":{"android":"levelo://app?vid=dcedc4d0-5154-46be-ab26-09bd6c855628","ios":"levelo://app?vid=dcedc4d0-5154-46be-ab26-09bd6c855628"},"vehicle_type_id":"4","last_reported":1726537410,"current_range_meters":34800,"station_id":"ce4bhqp2rcd13ifvqhog","pricing_plan_id":"cebpf4jnsgd1na2vs0mg"},{"bike_id":"98e1770f-65b3-43ca-8e2c-dfa23f52d087","system_id":"levelo_inurba_marseille","lat":43.2957,"lon":5.39958,"is_reserved":false,"is_disabled":false,"rental_uris":{"android":"levelo://app?vid=98e1770f-65b3-43ca-8e2c-dfa23f52d087","ios":"levelo://app?vid=98e1770f-65b3-43ca-8e2c-dfa23f52d087"},"vehicle_type_id":"4","last_reported":1726537410,"current_range_meters":38800,"station_id":"ce4bh312rcd13ifvqdj0","pricing_plan_id":"cebpf4jnsgd1na2vs0mg"},{"bike_id":"752b7c23-99a0-422d-aba9-b2a2c8d2f24f","system_id":"levelo_inurba_marseille","lat":43.28452,"lon":5.35881,"is_reserved":false,"is_disabled":false,"rental_uris":{"android":"levelo://app?vid=752b7c23-99a0-422d-aba9-b2a2c8d2f24f","ios":"levelo://app?vid=752b7c23-99a0-422d-aba9-b2a2c8d2f24f"},"vehicle_type_id":"4","last_reported":1726537410,"current_range_meters":37600,"station_id":"ce4bhah2rcd13ifvqei0","pricing_plan_id":"cebpf4jnsgd1na2vs0mg"},{"bike_id":"097b9263-abe0-4b3e-ab16-57dbd5d21279","system_id":"levelo_inurba_marseille","lat":43.29526,"lon":5.39403,"is_reserved":false,"is_disabled":false,"rental_uris":{"android":"levelo://app?vid=097b9263-abe0-4b3e-ab16-57dbd5d21279","ios":"levelo://app?vid=097b9263-abe0-4b3e-ab16-57dbd5d21279"},"vehicle_type_id":"4","last_reported":1726537410,"current_range_meters":37600,"station_id":"ce4bh292rcd13ifvqdf0","pricing_plan_id":"cebpf4jnsgd1na2vs0mg"},{"bike_id":"65eecb51-7024-4f30-af20-d65f809bce2b","system_id":"levelo_inurba_marseille","lat":43.31458,"lon":5.38332,"is_reserved":false,"is_disabled":false,"rental_uris":{"android":"levelo://app?vid=65eecb51-7024-4f30-af20-d65f809bce2b","ios":"levelo://app?vid=65eecb51-7024-4f30-af20-d65f809bce2b"},"vehicle_type_id":"4","last_reported":1726537410,"current_range_meters":9600,"station_id":"ce4bgvp2rcd13ifvqcu0","pricing_plan_id":"cebpf4jnsgd1na2vs0mg"},{"bike_id":"148458f4-2ab9-4f3f-995d-96d4a7096a1c","system_id":"levelo_inurba_marseille","lat":43.29066,"lon":5.37147,"is_reserved":false,"is_disabled":false,"rental_uris":{"android":"levelo://app?vid=148458f4-2ab9-4f3f-995d-96d4a7096a1c","ios":"levelo://app?vid=148458f4-2ab9-4f3f-995d-96d4a7096a1c"},"vehicle_type_id":"4","last_reported":1726537410,"current_range_meters":38400,"station_id":"ce4bh5p2rcd13ifvqe4g","pricing_plan_id":"cebpf4jnsgd1na2vs0mg"},{"bike_id":"84db06af-0b02-4094-90e6-21cb61dbcafd","system_id":"levelo_inurba_marseille","lat":43.27984,"lon":5.41665,"is_reserved":false,"is_disabled":false,"rental_uris":{"android":"levelo://app?vid=84db06af-0b02-4094-90e6-21cb61dbcafd","ios":"levelo://app?vid=84db06af-0b02-4094-90e6-21cb61dbcafd"},"vehicle_type_id":"4","last_reported":1726537410,"current_range_meters":38800,"station_id":"ce4bho12rcd13ifvqh1g","pricing_plan_id":"cebpf4jnsgd1na2vs0mg"},{"bike_id":"9a67484a-b200-4c8a-8842-e924dcc44372","system_id":"levelo_inurba_marseille","lat":43.30327,"lon":5.40436,"is_reserved":false,"is_disabled":false,"rental_uris":{"android":"levelo://app?vid=9a67484a-b200-4c8a-8842-e924dcc44372","ios":"levelo://app?vid=9a67484a-b200-4c8a-8842-e924dcc44372"},"vehicle_type_id":"4","last_reported":1726537410,"current_range_meters":38000,"station_id":"ce4bh012rcd13ifvqd10","pricing_plan_id":"cebpf4jnsgd1na2vs0mg"},{"bike_id":"1c0be0df-2859-4834-8ec3-e54bba296300","system_id":"levelo_inurba_marseille","lat":43.26483,"lon":5.39554,"is_reserved":false,"is_disabled":false,"rental_uris":{"android":"levelo://app?vid=1c0be0df-2859-4834-8ec3-e54bba296300","ios":"levelo://app?vid=1c0be0df-2859-4834-8ec3-e54bba296300"},"vehicle_type_id":"4","last_reported":1726537410,"current_range_meters":38800,"station_id":"ce4bhi12rcd13ifvqfq0","pricing_plan_id":"cebpf4jnsgd1na2vs0mg"},{"bike_id":"714bd286-0914-421a-ac78-a8aec3d8de06","system_id":"levelo_inurba_marseille","lat":43.31712,"lon":5.43708,"is_reserved":false,"is_disabled":false,"rental_uris":{"android":"levelo://app?vid=714bd286-0914-421a-ac78-a8aec3d8de06","ios":"levelo://app?vid=714bd286-0914-421a-ac78-a8aec3d8de06"},"vehicle_type_id":"4","last_reported":1726537410,"current_range_meters":6800,"station_id":"ce4bhp92rcd13ifvqhcg","pricing_plan_id":"cebpf4jnsgd1na2vs0mg"},{"bike_id":"90ac149a-3a95-4b27-be6a-2683b4b59c04","system_id":"levelo_inurba_marseille","lat":43.32365,"lon":5.38876,"is_reserved":false,"is_disabled":false,"rental_uris":{"android":"levelo://app?vid=90ac149a-3a95-4b27-be6a-2683b4b59c04","ios":"levelo://app?vid=90ac149a-3a95-4b27-be6a-2683b4b59c04"},"vehicle_type_id":"4","last_reported":1726537410,"current_range_meters":27600,"station_id":"ce4bhqp2rcd13ifvqhog","pricing_plan_id":"cebpf4jnsgd1na2vs0mg"},{"bike_id":"9e6acc5e-94a7-4e9f-94a9-f4362cac3b04","system_id":"levelo_inurba_marseille","lat":43.30906,"lon":5.36854,"is_reserved":false,"is_disabled":false,"rental_uris":{"android":"levelo://app?vid=9e6acc5e-94a7-4e9f-94a9-f4362cac3b04","ios":"levelo://app?vid=9e6acc5e-94a7-4e9f-94a9-f4362cac3b04"},"vehicle_type_id":"4","last_reported":1726537410,"current_range_meters":10800,"station_id":"ce4bgn92rcd13ifvqbvg","pricing_plan_id":"cebpf4jnsgd1na2vs0mg"},{"bike_id":"f5c0e1e2-2d50-430f-b096-cc74d6ddc37d","system_id":"levelo_inurba_marseille","lat":43.27487,"lon":5.42458,"is_reserved":false,"is_disabled":false,"rental_uris":{"android":"levelo://app?vid=f5c0e1e2-2d50-430f-b096-cc74d6ddc37d","ios":"levelo://app?vid=f5c0e1e2-2d50-430f-b096-cc74d6ddc37d"},"vehicle_type_id":"4","last_reported":1726537410,"current_range_meters":38800,"station_id":"ce4bhn92rcd13ifvqgrg","pricing_plan_id":"cebpf4jnsgd1na2vs0mg"},{"bike_id":"c0b1f7bf-1fae-4790-830b-8b43d74961ef","system_id":"levelo_inurba_marseille","lat":43.2841,"lon":5.37521,"is_reserved":false,"is_disabled":false,"rental_uris":{"android":"levelo://app?vid=c0b1f7bf-1fae-4790-830b-8b43d74961ef","ios":"levelo://app?vid=c0b1f7bf-1fae-4790-830b-8b43d74961ef"},"vehicle_type_id":"4","last_reported":1726537410,"current_range_meters":33600,"station_id":"ce4bh412rcd13ifvqds0","pricing_plan_id":"cebpf4jnsgd1na2vs0mg"},{"bike_id":"3ba54119-f1f1-4b43-9ff6-4fdb7e565fee","system_id":"levelo_inurba_marseille","lat":43.26932,"lon":5.40266,"is_reserved":false,"is_disabled":false,"rental_uris":{"android":"levelo://app?vid=3ba54119-f1f1-4b43-9ff6-4fdb7e565fee","ios":"levelo://app?vid=3ba54119-f1f1-4b43-9ff6-4fdb7e565fee"},"vehicle_type_id":"4","last_reported":1726537410,"current_range_meters":25200,"station_id":"cjm6bp8fraef2m0cb0m0","pricing_plan_id":"cebpf4jnsgd1na2vs0mg"},{"bike_id":"2ca293b3-d82c-41b7-a4f2-1e7688325b1b","system_id":"levelo_inurba_marseille","lat":43.25105,"lon":5.40326,"is_reserved":false,"is_disabled":false,"rental_uris":{"android":"levelo://app?vid=2ca293b3-d82c-41b7-a4f2-1e7688325b1b","ios":"levelo://app?vid=2ca293b3-d82c-41b7-a4f2-1e7688325b1b"},"vehicle_type_id":"4","last_reported":1726537410,"current_range_meters":28800,"station_id":"ce4bhlh2rcd13ifvqgig","pricing_plan_id":"cebpf4jnsgd1na2vs0mg"},{"bike_id":"304f2efa-04f3-407b-9e09-024e44efbead","system_id":"levelo_inurba_marseille","lat":43.3089,"lon":5.37195,"is_reserved":false,"is_disabled":false,"rental_uris":{"android":"levelo://app?vid=304f2efa-04f3-407b-9e09-024e44efbead","ios":"levelo://app?vid=304f2efa-04f3-407b-9e09-024e44efbead"},"vehicle_type_id":"4","last_reported":1726537410,"current_range_meters":39200,"station_id":"ce4bguh2rcd13ifvqckg","pricing_plan_id":"cebpf4jnsgd1na2vs0mg"},{"bike_id":"1996e39f-8f18-486f-8884-0e03321355c2","system_id":"levelo_inurba_marseille","lat":43.28433,"lon":5.39191,"is_reserved":false,"is_disabled":false,"rental_uris":{"android":"levelo://app?vid=1996e39f-8f18-486f-8884-0e03321355c2","ios":"levelo://app?vid=1996e39f-8f18-486f-8884-0e03321355c2"},"vehicle_type_id":"4","last_reported":1726537410,"current_range_meters":38800,"station_id":"ce4bhoh2rcd13ifvqh5g","pricing_plan_id":"cebpf4jnsgd1na2vs0mg"},{"bike_id":"e3b1bc72-7f72-46db-a800-7dcac88ff7e2","system_id":"levelo_inurba_marseille","lat":43.2512,"lon":5.40316,"is_reserved":false,"is_disabled":false,"rental_uris":{"android":"levelo://app?vid=e3b1bc72-7f72-46db-a800-7dcac88ff7e2","ios":"levelo://app?vid=e3b1bc72-7f72-46db-a800-7dcac88ff7e2"},"vehicle_type_id":"4","last_reported":1726537410,"current_range_meters":16000,"station_id":"ce4bhlh2rcd13ifvqgig","pricing_plan_id":"cebpf4jnsgd1na2vs0mg"},{"bike_id":"6261bd89-ab58-423f-bbc1-a92316381280","system_id":"levelo_inurba_marseille","lat":43.28473,"lon":5.38415,"is_reserved":false,"is_disabled":false,"rental_uris":{"android":"levelo://app?vid=6261bd89-ab58-423f-bbc1-a92316381280","ios":"levelo://app?vid=6261bd89-ab58-423f-bbc1-a92316381280"},"vehicle_type_id":"4","last_reported":1726537410,"current_range_meters":37600,"station_id":"ce4bh512rcd13ifvqe3g","pricing_plan_id":"cebpf4jnsgd1na2vs0mg"},{"bike_id":"58b3807d-8a9d-46a5-8add-14ba5d8ab59a","system_id":"levelo_inurba_marseille","lat":43.28702,"lon":5.39978,"is_reserved":false,"is_disabled":false,"rental_uris":{"android":"levelo://app?vid=58b3807d-8a9d-46a5-8add-14ba5d8ab59a","ios":"levelo://app?vid=58b3807d-8a9d-46a5-8add-14ba5d8ab59a"},"vehicle_type_id":"4","last_reported":1726537410,"current_range_meters":33600,"station_id":"ce4bho92rcd13ifvqh3g","pricing_plan_id":"cebpf4jnsgd1na2vs0mg"},{"bike_id":"8cf17552-5527-4357-aca7-942aed1386be","system_id":"levelo_inurba_marseille","lat":43.28664,"lon":5.36356,"is_reserved":false,"is_disabled":false,"rental_uris":{"android":"levelo://app?vid=8cf17552-5527-4357-aca7-942aed1386be","ios":"levelo://app?vid=8cf17552-5527-4357-aca7-942aed1386be"},"vehicle_type_id":"4","last_reported":1726537410,"current_range_meters":38800,"station_id":"ce4bhah2rcd13ifvqej0","pricing_plan_id":"cebpf4jnsgd1na2vs0mg"},{"bike_id":"2a74aa2d-f8fa-4b59-af3e-57ccb051a669","system_id":"levelo_inurba_marseille","lat":43.31729,"lon":5.42393,"is_reserved":false,"is_disabled":false,"rental_uris":{"android":"levelo://app?vid=2a74aa2d-f8fa-4b59-af3e-57ccb051a669","ios":"levelo://app?vid=2a74aa2d-f8fa-4b59-af3e-57ccb051a669"},"vehicle_type_id":"4","last_reported":1726537410,"current_range_meters":14400,"station_id":"ce4bhp92rcd13ifvqhbg","pricing_plan_id":"cebpf4jnsgd1na2vs0mg"},{"bike_id":"4b416f5c-d0bb-4b83-a0d2-9152e8fdacd6","system_id":"levelo_inurba_marseille","lat":43.28461,"lon":5.35877,"is_reserved":false,"is_disabled":false,"rental_uris":{"android":"levelo://app?vid=4b416f5c-d0bb-4b83-a0d2-9152e8fdacd6","ios":"levelo://app?vid=4b416f5c-d0bb-4b83-a0d2-9152e8fdacd6"},"vehicle_type_id":"4","last_reported":1726537410,"current_range_meters":16400,"station_id":"ce4bhah2rcd13ifvqei0","pricing_plan_id":"cebpf4jnsgd1na2vs0mg"},{"bike_id":"c5cd1bc6-e936-4ea5-9eae-558c0dd88416","system_id":"levelo_inurba_marseille","lat":43.25716,"lon":5.41114,"is_reserved":false,"is_disabled":false,"rental_uris":{"android":"levelo://app?vid=c5cd1bc6-e936-4ea5-9eae-558c0dd88416","ios":"levelo://app?vid=c5cd1bc6-e936-4ea5-9eae-558c0dd88416"},"vehicle_type_id":"4","last_reported":1726537410,"current_range_meters":10000,"station_id":"ce4bhkp2rcd13ifvqgd0","pricing_plan_id":"cebpf4jnsgd1na2vs0mg"},