{"last_updated":1751635475,"ttl":60,"version":"2.2","data":{"bikes":[{"bike_id":"3da29fb8-fc97-44c6-b9ac-31dd456b2fd4","system_id":"levelo_inurba_marseille","lat":43.33771,"lon":5.37424,"is_reserved":false,"is_disabled":true,"rental_uris":{"android":"levelo://app?vid=3da29fb8-fc97-44c6-b9ac-31dd456b2fd4","ios":"levelo://app?vid=3da29fb8-fc97-44c6-b9ac-31dd456b2fd4"},"vehicle_type_id":"4","last_reported":1751635475,"current_range_meters":0,"station_id":"","pricing_plan_id":"cebpf4jnsgd1na2vs0mg"},{"bike_id":"01861ad8-a8d7-4be6-816e-651927c87584","system_id":"levelo_inurba_marseille","lat":43.33751,"lon":5.37456,"is_reserved":false,"is_disabled":true,"rental_uris":{"android":"levelo://app?vid=01861ad8-a8d7-4be6-816e-651927c87584","ios":"levelo://app?vid=01861ad8-a8d7-4be6-816e-651927c87584"},"vehicle_type_id":"4","last_reported":1751635475,"current_range_meters":0,"station_id":"","pricing_plan_id":"cebpf4jnsgd1na2vs0mg"},{"bike_id":"db1e3d17-32d6-43d7-ba0c-148f07bec6d0","system_id":"levelo_inurba_marseille","lat":43.2811,"lon":5.3784,"is_reserved":false,"is_disabled":true,"rental_uris":{"android":"levelo://app?vid=db1e3d17-32d6-43d7-ba0c-148f07bec6d0","ios":"levelo://app?vid=db1e3d17-32d6-43d7-ba0c-148f07bec6d0"},"vehicle_type_id":"4","last_reported":1751635475,"current_range_meters":0,"station_id":"ce4bha12rcd13ifvqee0","pricing_plan_id":"cebpf4jnsgd1na2vs0mg"},{"bike_id":"fc060f82-74bd-4b5c-945d-c716b76a0386","system_id":"levelo_inurba_marseille","lat":43.26556,"lon":5.37293,"is_reserved":false,"is_disabled":true,"rental_uris":{"android":"levelo://app?vid=fc060f82-74bd-4b5c-945d-c716b76a0386","ios":"levelo://app?vid=fc060f82-74bd-4b5c-945d-c716b76a0386"},"vehicle_type_id":"4","last_reported":1751635475,"current_range_meters":0,"station_id":"ce4bhg12rcd13ifvqf70","pricing_plan_id":"cebpf4jnsgd1na2vs0mg"},{"bike_id":"c13983b5-9150-4091-a6f9-d1788934375a","system_id":"levelo_inurba_marseille","lat":43.24393,"lon":5.37058,"is_reserved":false,"is_disabled":true,"rental_uris":{"android":"levelo://app?vid=c13983b5-9150-4091-a6f9-d1788934375a","ios":"levelo://app?vid=c13983b5-9150-4091-a6f9-d1788934375a"},"vehicle_type_id":"4","last_reported":1751635475,"current_range_meters":0,"station_id":"ce4bhhh2rcd13ifvqfk0","pricing_plan_id":"cebpf4jnsgd1na2vs0mg"},{"bike_id":"bf132a63-e358-4283-852b-a4520cf8e6b1","system_id":"levelo_inurba_marseille","lat":43.27204,"lon":5.39191,"is_reserved":false,"is_disabled":true,"rental_uris":{"android":"levelo://app?vid=bf132a63-e358-4283-852b-a4520cf8e6b1","ios":"levelo://app?vid=bf132a63-e358-4283-852b-a4520cf8e6b1"},"vehicle_type_id":"4","last_reported":1751635475,"current_range_meters":0,"station_id":"ce4bhhp2rcd13ifvqfm0","pricing_plan_id":"cebpf4jnsgd1na2vs0mg"},{"bike_id":"f057f5e2-17c2-48cf-89b3-35b177fc8c14","system_id":"levelo_inurba_marseille","lat":43.25829,"lon":5.39436,"is_reserved":false,"is_disabled":true,"rental_uris":{"android":"levelo://app?vid=f057f5e2-17c2-48cf-89b3-35b177fc8c14","ios":"levelo://app?vid=f057f5e2-17c2-48cf-89b3-35b177fc8c14"},"vehicle_type_id":"4","last_reported":1751635475,"current_range_meters":0,"station_id":"ce4bhip2rcd13ifvqft0","pricing_plan_id":"cebpf4jnsgd1na2vs0mg"},{"bike_id":"9877f38a-6e8d-48a2-bcfc-bc9c4a17eb3f","system_id":"levelo_inurba_marseille","lat":43.25868,"lon":5.39897,"is_reserved":false,"is_disabled":true,"rental_uris":{"android":"levelo://app?vid=9877f38a-6e8d-48a2-bcfc-bc9c4a17eb3f","ios":"levelo://app?vid=9877f38a-6e8d-48a2-bcfc-bc9c4a17eb3f"},"vehicle_type_id":"4","last_reported":1751635475,"current_range_meters":0,"station_id":"ce4bhl92rcd13ifvqghg","pricing_plan_id":"cebpf4jnsgd1na2vs0mg"},{"bike_id":"a5d1fa5f-9ebe-4cfb-b45c-3e29919bec59","system_id":"levelo_inurba_marseille","lat":43.30423,"lon":5.41277,"is_reserved":false,"is_disabled":true,"rental_uris":{"android":"levelo://app?vid=a5d1fa5f-9ebe-4cfb-b45c-3e29919bec59","ios":"levelo://app?vid=a5d1fa5f-9ebe-4cfb-b45c-3e29919bec59"},"vehicle_type_id":"4","last_reported":1751635475,"current_range_meters":0,"station_id":"ce4bhop2rcd13ifvqh8g","pricing_plan_id":"cebpf4jnsgd1na2vs0mg"},{"bike_id":"891065b2-d2c4-420b-94bb-e620b7de28d3","system_id":"levelo_inurba_marseille","lat":43.23194,"lon":5.35553,"is_reserved":false,"is_disabled":true,"rental_uris":{"android":"levelo://app?vid=891065b2-d2c4-420b-94bb-e620b7de28d3","ios":"levelo://app?vid=891065b2-d2c4-420b-94bb-e620b7de28d3"},"vehicle_type_id":"4","last_reported":1751635475,"current_range_meters":0,"station_id":"ce4bhu92rcd13ifvqi70","pricing_plan_id":"cebpf4jnsgd1na2vs0mg"},{"bike_id":"022d1f15-7385-4917-861d-c7ec3d47371f","system_id":"levelo_inurba_marseille","lat":43.23198,"lon":5.35552,"is_reserved":false,"is_disabled":true,"rental_uris":{"android":"levelo://app?vid=022d1f15-7385-4917-861d-c7ec3d47371f","ios":"levelo://app?vid=022d1f15-7385-4917-861d-c7ec3d47371f"},"vehicle_type_id":"4","last_reported":1751635475,"current_range_meters":0,"station_id":"ce4bhu92rcd13ifvqi70","pricing_plan_id":"cebpf4jnsgd1na2vs0mg"},{"bike_id":"2db7de25-6c57-447b-bff5-ea01c3753780","system_id":"levelo_inurba_marseille","lat":43.21757,"lon":5.34609,"is_reserved":false,"is_disabled":true,"rental_uris":{"android":"levelo://app?vid=2db7de25-6c57-447b-bff5-ea01c3753780","ios":"levelo://app?vid=2db7de25-6c57-447b-bff5-ea01c3753780"},"vehicle_type_id":"4","last_reported":1751635475,"current_range_meters":0,"station_id":"st_cvj6r9ubvosntc0bgbag","pricing_plan_id":"cebpf4jnsgd1na2vs0mg"},{"bike_id":"5e8830ec-34e5-4f0f-b607-434b2954d153","system_id":"levelo_inurba_marseille","lat":43.212173,"lon":5.35091,"is_reserved":false,"is_disabled":true,"rental_uris":{"android":"levelo://app?vid=5e8830ec-34e5-4f0f-b607-434b2954d153","ios":"levelo://app?vid=5e8830ec-34e5-4f0f-b607-434b2954d153"},"vehicle_type_id":"4","last_reported":1751635475,"current_range_meters":0,"station_id":"st_cvj6sg6p6f1abm77japg","pricing_plan_id":"cebpf4jnsgd1na2vs0mg"},{"bike_id":"cd2a3af2-854b-4519-92e5-1eaf70ba8a37","system_id":"levelo_inurba_marseille","lat":43.212037,"lon":5.35083,"is_reserved":false,"is_disabled":true,"rental_uris":{"android":"levelo://app?vid=cd2a3af2-854b-4519-92e5-1eaf70ba8a37","ios":"levelo://app?vid=cd2a3af2-854b-4519-92e5-1eaf70ba8a37"},"vehicle_type_id":"4","last_reported":1751635475,"current_range_meters":0,"station_id":"st_cvj6sg6p6f1abm77japg","pricing_plan_id":"cebpf4jnsgd1na2vs0mg"},{"bike_id":"8a4d8f24-af5a-4ab8-be8c-b42050894415","system_id":"levelo_inurba_marseille","lat":43.28732,"lon":5.37957,"is_reserved":false,"is_disabled":true,"rental_uris":{"android":"levelo://app?vid=8a4d8f24-af5a-4ab8-be8c-b42050894415","ios":"levelo://app?vid=8a4d8f24-af5a-4ab8-be8c-b42050894415"},"vehicle_type_id":"4","last_reported":1751635475,"current_range_meters":400,"station_id":"ce4bh9p2rcd13ifvqec0","pricing_plan_id":"cebpf4jnsgd1na2vs0mg"},{"bike_id":"bbc0598d-93ef-4dd2-b89d-4b8ed9eb144a","system_id":"levelo_inurba_marseille","lat":43.2467,"lon":5.3816,"is_reserved":false,"is_disabled":true,"rental_uris":{"android":"levelo://app?vid=bbc0598d-93ef-4dd2-b89d-4b8ed9eb144a","ios":"levelo://app?vid=bbc0598d-93ef-4dd2-b89d-4b8ed9eb144a"},"vehicle_type_id":"4","last_reported":1751635475,"current_range_meters":400,"station_id":"ce4bhih2rcd13ifvqfr0","pricing_plan_id":"cebpf4jnsgd1na2vs0mg"},{"bike_id":"0ece5170-8402-4ba3-a03f-be2ef65fcaca","system_id":"levelo_inurba_marseille","lat":43.22945,"lon":5.35374,"is_reserved":false,"is_disabled":true,"rental_uris":{"android":"levelo://app?vid=0ece5170-8402-4ba3-a03f-be2ef65fcaca","ios":"levelo://app?vid=0ece5170-8402-4ba3-a03f-be2ef65fcaca"},"vehicle_type_id":"4","last_reported":1751635475,"current_range_meters":400,"station_id":"cpo3532slgdg3j2ikp40","pricing_plan_id":"cebpf4jnsgd1na2vs0mg"},{"bike_id":"c585588b-238d-41a3-985c-b2c30775ee86","system_id":"levelo_inurba_marseille","lat":43.29605,"lon":5.381,"is_reserved":false,"is_disabled":true,"rental_uris":{"android":"levelo://app?vid=c585588b-238d-41a3-985c-b2c30775ee86","ios":"levelo://app?vid=c585588b-238d-41a3-985c-b2c30775ee86"},"vehicle_type_id":"4","last_reported":1751635475,"current_range_meters":1200,"station_id":"ce4bgl12rcd13ifvqbo0","pricing_plan_id":"cebpf4jnsgd1na2vs0mg"},{"bike_id":"8fda9baa-d689-4652-a319-e17516ca497b","system_id":"levelo_inurba_marseille","lat":43.2679,"lon":5.39408,"is_reserved":false,"is_disabled":true,"rental_uris":{"android":"levelo://app?vid=8fda9baa-d689-4652-a319-e17516ca497b","ios":"levelo://app?vid=8fda9baa-d689-4652-a319-e17516ca497b"},"vehicle_type_id":"4","last_reported":1751635475,"current_range_meters":1200,"station_id":"ce4bhh12rcd13ifvqfg0","pricing_plan_id":"cebpf4jnsgd1na2vs0mg"},{"bike_id":"1cd6fe1c-2398-4ba7-93da-b735cb4aa152","system_id":"levelo_inurba_marseille","lat":43.24154,"lon":5.39771,"is_reserved":false,"is_disabled":true,"rental_uris":{"android":"levelo://app?vid=1cd6fe1c-2398-4ba7-93da-b735cb4aa152","ios":"levelo://app?vid=1cd6fe1c-2398-4ba7-93da-b735cb4aa152"},"vehicle_type_id":"4","last_reported":1751635475,"current_range_meters":1200,"station_id":"ce4bhn12rcd13ifvqgpg","pricing_plan_id":"cebpf4jnsgd1na2vs0mg"},{"bike_id":"d7ebab25-79c9-41d1-8757-cd1b596618b3","system_id":"levelo_inurba_marseille","lat":43.22948,"lon":5.35357,"is_reserved":false,"is_disabled":true,"rental_uris":{"android":"levelo://app?vid=d7ebab25-79c9-41d1-8757-cd1b596618b3","ios":"levelo://app?vid=d7ebab25-79c9-41d1-8757-cd1b596618b3"},"vehicle_type_id":"4","last_reported":1751635475,"current_range_meters":1200,"station_id":"cpo3532slgdg3j2ikp40","pricing_plan_id":"cebpf4jnsgd1na2vs0mg"},{"bike_id":"b7730369-34f0-46be-abf6-76b74d5e2114","system_id":"levelo_inurba_marseille","lat":43.27906,"lon":5.38013,"is_reserved":false,"is_disabled":true,"rental_uris":{"android":"levelo://app?vid=b7730369-34f0-46be-abf6-76b74d5e2114","ios":"levelo://app?vid=b7730369-34f0-46be-abf6-76b74d5e2114"},"vehicle_type_id":"4","last_reported":1751635475,"current_range_meters":1600,"station_id":"ce4bhf92rcd13ifvqf50","pricing_plan_id":"cebpf4jnsgd1na2vs0mg"},{"bike_id":"9b5adc31-8fbb-4ddc-bd55-ceb5696356a2","system_id":"levelo_inurba_marseille","lat":43.2549,"lon":5.37642,"is_reserved":false,"is_disabled":true,"rental_uris":{"android":"levelo://app?vid=9b5adc31-8fbb-4ddc-bd55-ceb5696356a2","ios":"levelo://app?vid=9b5adc31-8fbb-4ddc-bd55-ceb5696356a2"},"vehicle_type_id":"4","last_reported":1751635475,"current_range_meters":1600,"station_id":"ce4bhh12rcd13ifvqff0","pricing_plan_id":"cebpf4jnsgd1na2vs0mg"},{"bike_id":"8ed33aea-2bdb-4075-9aca-f7e4a44803df","system_id":"levelo_inurba_marseille","lat":43.34143,"lon":5.40901,"is_reserved":false,"is_disabled":true,"rental_uris":{"android":"levelo://app?vid=8ed33aea-2bdb-4075-9aca-f7e4a44803df","ios":"levelo://app?vid=8ed33aea-2bdb-4075-9aca-f7e4a44803df"},"vehicle_type_id":"4","last_reported":1751635475,"current_range_meters":1600,"station_id":"ce4bhqh2rcd13ifvqhlg","pricing_plan_id":"cebpf4jnsgd1na2vs0mg"},{"bike_id":"7c749f71-e6bf-46e8-ad90-941007969b12","system_id":"levelo_inurba_marseille","lat":43.30311,"lon":5.39199,"is_reserved":false,"is_disabled":true,"rental_uris":{"android":"levelo://app?vid=7c749f71-e6bf-46e8-ad90-941007969b12","ios":"levelo://app?vid=7c749f71-e6bf-46e8-ad90-941007969b12"},"vehicle_type_id":"4","last_reported":1751635475,"current_range_meters":2000,"station_id":"ce4bgkh2rcd13ifvqbk0","pricing_plan_id":"cebpf4jnsgd1na2vs0mg"},{"bike_id":"ebe74cf2-39e2-4b53-bf92-cfc8f854045b","system_id":"levelo_inurba_marseille","lat":43.28976,"lon":5.37839,"is_reserved":false,"is_disabled":true,"rental_uris":{"android":"levelo://app?vid=ebe74cf2-39e2-4b53-bf92-cfc8f854045b","ios":"levelo://app?vid=ebe74cf2-39e2-4b53-bf92-cfc8f854045b"},"vehicle_type_id":"4","last_reported":1751635475,"current_range_meters":2000,"station_id":"ce4bh9p2rcd13ifvqed0","pricing_plan_id":"cebpf4jnsgd1na2vs0mg"},{"bike_id":"fb284be8-4f21-4fd4-bbc6-5b31249ebbdd","system_id":"levelo_inurba_marseille","lat":43.24168,"lon":5.36399,"is_reserved":false,"is_disabled":true,"rental_uris":{"android":"levelo://app?vid=fb284be8-4f21-4fd4-bbc6-5b31249ebbdd","ios":"levelo://app?vid=fb284be8-4f21-4fd4-bbc6-5b31249ebbdd"},"vehicle_type_id":"4","last_reported":1751635475,"current_range_meters":2000,"station_id":"cpo36qri1sfpv3e86is0","pricing_plan_id":"cebpf4jnsgd1na2vs0mg"},{"bike_id":"cee0b5b6-9b90-457a-85f4-540287a23b84","system_id":"levelo_inurba_marseille","lat":43.21185,"lon":5.35064,"is_reserved":false,"is_disabled":true,"rental_uris":{"android":"levelo://app?vid=cee0b5b6-9b90-457a-85f4-540287a23b84","ios":"levelo://app?vid=cee0b5b6-9b90-457a-85f4-540287a23b84"},"vehicle_type_id":"4","last_reported":1751635475,"current_range_meters":2000,"station_id":"st_cvj6sg6p6f1abm77japg","pricing_plan_id":"cebpf4jnsgd1na2vs0mg"},{"bike_id":"34c6e3d0-b005-424f-a0a7-52f9f8bd654f","system_id":"levelo_inurba_marseille","lat":43.23622,"lon":5.36207,"is_reserved":false,"is_disabled":false,"rental_uris":{"android":"levelo://app?vid=34c6e3d0-b005-424f-a0a7-52f9f8bd654f","ios":"levelo://app?vid=34c6e3d0-b005-424f-a0a7-52f9f8bd654f"},"vehicle_type_id":"4","last_reported":1751635475,"current_range_meters":2800,"station_id":"","pricing_plan_id":"cebpf4jnsgd1na2vs0mg"},{"bike_id":"32dd7147-f33a-453e-a6fa-4fea3f95cd21","system_id":"levelo_inurba_marseille","lat":43.29801,"lon":5.38112,"is_reserved":false,"is_disabled":true,"rental_uris":{"android":"levelo://app?vid=32dd7147-f33a-453e-a6fa-4fea3f95cd21","ios":"levelo://app?vid=32dd7147-f33a-453e-a6fa-4fea3f95cd21"},"vehicle_type_id":"4","last_reported":1751635475,"current_range_meters":2800,"station_id":"ce4bgip2rcd13ifvqbb0","pricing_plan_id":"cebpf4jnsgd1na2vs0mg"},{"bike_id":"3a4cf5c0-a4b7-44c3-8a88-bf0a85727a5a","system_id":"levelo_inurba_marseille","lat":43.22927,"lon":5.35384,"is_reserved":false,"is_disabled":false,"rental_uris":{"android":"levelo://app?vid=3a4cf5c0-a4b7-44c3-8a88-bf0a85727a5a","ios":"levelo://app?vid=3a4cf5c0-a4b7-44c3-8a88-bf0a85727a5a"},"vehicle_type_id":"4","last_reported":1751635475,"current_range_meters":2800,"station_id":"cpo3532slgdg3j2ikp40","pricing_plan_id":"cebpf4jnsgd1na2vs0mg"},{"bike_id":"262db7c7-8c34-4e97-8cab-884a705c1bf5","system_id":"levelo_inurba_marseille","lat":43.25867,"lon":5.39897,"is_reserved":false,"is_disabled":false,"rental_uris":{"android":"levelo://app?vid=262db7c7-8c34-4e97-8cab-884a705c1bf5","ios":"levelo://app?vid=262db7c7-8c34-4e97-8cab-884a705c1bf5"},"vehicle_type_id":"4","last_reported":1751635475,"current_range_meters":3200,"station_id":"ce4bhl92rcd13ifvqghg","pricing_plan_id":"cebpf4jnsgd1na2vs0mg"},{"bike_id":"7b05237f-17f7-4d60-ac5a-0a2e5402911e","system_id":"levelo_inurba_marseille","lat":43.22931,"lon":5.35366,"is_reserved":false,"is_disabled":false,"rental_uris":{"android":"levelo://app?vid=7b05237f-17f7-4d60-ac5a-0a2e5402911e","ios":"levelo://app?vid=7b05237f-17f7-4d60-ac5a-0a2e5402911e"},"vehicle_type_id":"4","last_reported":1751635475,"current_range_meters":3200,"station_id":"cpo3532slgdg3j2ikp40","pricing_plan_id":"cebpf4jnsgd1na2vs0mg"},{"bike_id":"65729f59-aa50-46a4-8f4d-74e8009cb3ae","system_id":"levelo_inurba_marseille","lat":43.30208,"lon":5.37067,"is_reserved":false,"is_disabled":false,"rental_uris":{"android":"levelo://app?vid=65729f59-aa50-46a4-8f4d-74e8009cb3ae","ios":"levelo://app?vid=65729f59-aa50-46a4-8f4d-74e8009cb3ae"},"vehicle_type_id":"4","last_reported":1751635475,"current_range_meters":3600,"station_id":"","pricing_plan_id":"cebpf4jnsgd1na2vs0mg"},{"bike_id":"9755a03c-8ab9-4a58-bd2c-40e869d64e05","system_id":"levelo_inurba_marseille","lat":43.27377,"lon":5.36259,"is_reserved":false,"is_disabled":false,"rental_uris":{"android":"levelo://app?vid=9755a03c-8ab9-4a58-bd2c-40e869d64e05","ios":"levelo://app?vid=9755a03c-8ab9-4a58-bd2c-40e869d64e05"},"vehicle_type_id":"4","last_reported":1751635475,"current_range_meters":3600,"station_id":"ce4bhbh2rcd13ifvqeo0","pricing_plan_id":"cebpf4jnsgd1na2vs0mg"},{"bike_id":"0c304774-bbe1-4da4-b282-8c8ceb3975b0","system_id":"levelo_inurba_marseille","lat":43.27381,"lon":5.36258,"is_reserved":false,"is_disabled":false,"rental_uris":{"android":"levelo://app?vid=0c304774-bbe1-4da4-b282-8c8ceb3975b0","ios":"levelo://app?vid=0c304774-bbe1-4da4-b282-8c8ceb3975b0"},"vehicle_type_id":"4","last_reported":1751635475,"current_range_meters":3600,"station_id":"ce4bhbh2rcd13ifvqeo0","pricing_plan_id":"cebpf4jnsgd1na2vs0mg"},{"bike_id":"02ea2631-03af-473e-91c0-dd429f046dbc","system_id":"levelo_inurba_marseille","lat":43.24389,"lon":5.37064,"is_reserved":false,"is_disabled":false,"rental_uris":{"android":"levelo://app?vid=02ea2631-03af-473e-91c0-dd429f046dbc","ios":"levelo://app?vid=02ea2631-03af-473e-91c0-dd429f046dbc"},"vehicle_type_id":"4","last_reported":1751635475,"current_range_meters":3600,"station_id":"ce4bhhh2rcd13ifvqfk0","pricing_plan_id":"cebpf4jnsgd1na2vs0mg"},{"bike_id":"dfb6000d-b72d-44ac-b081-bd464f7d9596","system_id":"levelo_inurba_marseille","lat":43.29712,"lon":5.37704,"is_reserved":false,"is_disabled":false,"rental_uris":{"android":"levelo://app?vid=dfb6000d-b72d-44ac-b081-bd464f7d9596","ios":"levelo://app?vid=dfb6000d-b72d-44ac-b081-bd464f7d9596"},"vehicle_type_id":"4","last_reported":1751635475,"current_range_meters":4000,"station_id":"ce4bgkh2rcd13ifvqbl0","pricing_plan_id":"cebpf4jnsgd1na2vs0mg"},{"bike_id":"f86dfb7f-b2df-4af3-86b6-6e29bcdfb443","system_id":"levelo_inurba_marseille","lat":43.2917,"lon":5.3715,"is_reserved":false,"is_disabled":false,"rental_uris":{"android":"levelo://app?vid=f86dfb7f-b2df-4af3-86b6-6e29bcdfb443","ios":"levelo://app?vid=f86dfb7f-b2df-4af3-86b6-6e29bcdfb443"},"vehicle_type_id":"4","last_reported":1751635475,"current_range_meters":4000,"station_id":"ce4bha92rcd13ifvqeh0","pricing_plan_id":"cebpf4jnsgd1na2vs0mg"},{"bike_id":"89d928e3-7a19-4a6e-af93-02d86b34b363","system_id":"levelo_inurba_marseille","lat":43.24806,"lon":5.37454,"is_reserved":false,"is_disabled":false,"rental_uris":{"android":"levelo://app?vid=89d928e3-7a19-4a6e-af93-02d86b34b363","ios":"levelo://app?vid=89d928e3-7a19-4a6e-af93-02d86b34b363"},"vehicle_type_id":"4","last_reported":1751635475,"current_range_meters":4000,"station_id":"ce4bhgh2rcd13ifvqfb0","pricing_plan_id":"cebpf4jnsgd1na2vs0mg"},{"bike_id":"056aff19-bdec-472c-8aa6-2a3dc998add5","system_id":"levelo_inurba_marseille","lat":43.23956,"lon":5.36651,"is_reserved":false,"is_disabled":false,"rental_uris":{"android":"levelo://app?vid=056aff19-bdec-472c-8aa6-2a3dc998add5","ios":"levelo://app?vid=056aff19-bdec-472c-8aa6-2a3dc998add5"},"vehicle_type_id":"4","last_reported":1751635475,"current_range_meters":4000,"station_id":"ce4bhi12rcd13ifvqfp0","pricing_plan_id":"cebpf4jnsgd1na2vs0mg"},{"bike_id":"e1139841-7ee5-4607-852e-04b5be978695","system_id":"levelo_inurba_marseille","lat":43.29006,"lon":5.35615,"is_reserved":false,"is_disabled":false,"rental_uris":{"android":"levelo://app?vid=e1139841-7ee5-4607-852e-04b5be978695","ios":"levelo://app?vid=e1139841-7ee5-4607-852e-04b5be978695"},"vehicle_type_id":"4","last_reported":1751635475,"current_range_meters":4400,"station_id":"ce4bhb92rcd13ifvqen0","pricing_plan_id":"cebpf4jnsgd1na2vs0mg"},{"bike_id":"1c376b25-aaa2-4359-a423-6ec47f447409","system_id":"levelo_inurba_marseille","lat":43.27385,"lon":5.36247,"is_reserved":false,"is_disabled":false,"rental_uris":{"android":"levelo://app?vid=1c376b25-aaa2-4359-a423-6ec47f447409","ios":"levelo://app?vid=1c376b25-aaa2-4359-a423-6ec47f447409"},"vehicle_type_id":"4","last_reported":1751635475,"current_range_meters":4400,"station_id":"ce4bhbh2rcd13ifvqeo0","pricing_plan_id":"cebpf4jnsgd1na2vs0mg"},{"bike_id":"a3ea083f-4281-42bd-9f0f-674dd1f89da3","system_id":"levelo_inurba_marseille","lat":43.29038,"lon":5.37566,"is_reserved":false,"is_disabled":false,"rental_uris":{"android":"levelo://app?vid=a3ea083f-4281-42bd-9f0f-674dd1f89da3","ios":"levelo://app?vid=a3ea083f-4281-42bd-9f0f-674dd1f89da3"},"vehicle_type_id":"4","last_reported":1751635475,"current_range_meters":4800,"station_id":"ce4bh692rcd13ifvqe90","pricing_plan_id":"cebpf4jnsgd1na2vs0mg"},{"bike_id":"9a7d342a-ff8e-46c4-af1e-6e0519bd67dc","system_id":"levelo_inurba_marseille","lat":43.291433,"lon":5.355899,"is_reserved":false,"is_disabled":false,"rental_uris":{"android":"levelo://app?vid=9a7d342a-ff8e-46c4-af1e-6e0519bd67dc","ios":"levelo://app?vid=9a7d342a-ff8e-46c4-af1e-6e0519bd67dc"},"vehicle_type_id":"4","last_reported":1751635475,"current_range_meters":5600,"station_id":"","pricing_plan_id":"cebpf4jnsgd1na2vs0mg"},{"bike_id":"11e7b8be-6254-46c8-a705-c6941c346d56","system_id":"levelo_inurba_marseille","lat":43.30096,"lon":5.37706,"is_reserved":false,"is_disabled":false,"rental_uris":{"android":"levelo://app?vid=11e7b8be-6254-46c8-a705-c6941c346d56","ios":"levelo://app?vid=11e7b8be-6254-46c8-a705-c6941c346d56"},"vehicle_type_id":"4","last_reported":1751635475,"current_range_meters":6000,"station_id":"","pricing_plan_id":"cebpf4jnsgd1na2vs0mg"},{"bike_id":"2ce0c140-192a-4cde-9f18-aa89177ee2b1","system_id":"levelo_inurba_marseille","lat":43.27375,"lon":5.36271,"is_reserved":false,"is_disabled":false,"rental_uris":{"android":"levelo://app?vid=2ce0c140-192a-4cde-9f18-aa89177ee2b1","ios":"levelo://app?vid=2ce0c140-192a-4cde-9f18-aa89177ee2b1"},"vehicle_type_id":"4","last_reported":1751635475,"current_range_meters":6000,"station_id":"ce4bhbh2rcd13ifvqeo0","pricing_plan_id":"cebpf4jnsgd1na2vs0mg"},{"bike_id":"b45b14d3-5c22-44e8-a7db-c2402998fdd1","system_id":"levelo_inurba_marseille","lat":43.26783,"lon":5.39417,"is_reserved":false,"is_disabled":false,"rental_uris":{"android":"levelo://app?vid=b45b14d3-5c22-44e8-a7db-c2402998fdd1","ios":"levelo://app?vid=b45b14d3-5c22-44e8-a7db-c2402998fdd1"},"vehicle_type_id":"4","last_reported":1751635475,"current_range_meters":6000,"station_id":"ce4bhh12rcd13ifvqfg0","pricing_plan_id":"cebpf4jnsgd1na2vs0mg"},{"bike_id":"9576b358-f907-4533-bd0e-47543e96ae64","system_id":"levelo_inurba_marseille","lat":43.24169,"lon":5.36391,"is_reserved":false,"is_disabled":false,"rental_uris":{"android":"levelo://app?vid=9576b358-f907-4533-bd0e-47543e96ae64","ios":"levelo://app?vid=9576b358-f907-4533-bd0e-47543e96ae64"},"vehicle_type_id":"4","last_reported":1751635475,"current_range_meters":6000,"station_id":"cpo36qri1sfpv3e86is0","pricing_plan_id":"cebpf4jnsgd1na2vs0mg"},{"bike_id":"e26ba497-efc7-4420-b8c5-9fa5e27f2ce4","system_id":"levelo_inurba_marseille","lat":43.31411,"lon":5.37045,"is_reserved":false,"is_disabled":false,"rental_uris":{"android":"levelo://app?vid=e26ba497-efc7-4420-b8c5-9fa5e27f2ce4","ios":"levelo://app?vid=e26ba497-efc7-4420-b8c5-9fa5e27f2ce4"},"vehicle_type_id":"4","last_reported":1751635475,"current_range_meters":6400,"station_id":"","pricing_plan_id":"cebpf4jnsgd1na2vs0mg"},{"bike_id":"0b740bd2-d543-4232-b6f7-c7413b573987","system_id":"levelo_inurba_marseille","lat":43.31284,"lon":5.40168,"is_reserved":false,"is_disabled":false,"rental_uris":{"android":"levelo://app?vid=0b740bd2-d543-4232-b6f7-c7413b573987","ios":"levelo://app?vid=0b740bd2-d543-4232-b6f7-c7413b573987"},"vehicle_type_id":"4","last_reported":1751635475,"current_range_meters":6400,"station_id":"ce4bh092rcd13ifvqd30","pricing_plan_id":"cebpf4jnsgd1na2vs0mg"},{"bike_id":"7718f7c1-e389-4d81-8b78-1a9b9feeec40","system_id":"levelo_inurba_marseille","lat":43.28345,"lon":5.38109,"is_reserved":false,"is_disabled":false,"rental_uris":{"android":"levelo://app?vid=7718f7c1-e389-4d81-8b78-1a9b9feeec40","ios":"levelo://app?vid=7718f7c1-e389-4d81-8b78-1a9b9feeec40"},"vehicle_type_id":"4","last_reported":1751635475,"current_range_meters":6400,"station_id":"ce4bh412rcd13ifvqdr0","pricing_plan_id":"cebpf4jnsgd1na2vs0mg"},{"bike_id":"aad2184a-bfc0-43f6-9887-b4d62815b208","system_id":"levelo_inurba_marseille","lat":43.229306,"lon":5.353806,"is_reserved":false,"is_disabled":false,"rental_uris":{"android":"levelo://app?vid=aad2184a-bfc0-43f6-9887-b4d62815b208","ios":"levelo://app?vid=aad2184a-bfc0-43f6-9887-b4d62815b208"},"vehicle_type_id":"4","last_reported":1751635475,"current_range_meters":6400,"station_id":"cpo3532slgdg3j2ikp40","pricing_plan_id":"cebpf4jnsgd1na2vs0mg"},{"bike_id":"8afa7640-ebe8-4025-983a-c83f3912a2dd","system_id":"levelo_inurba_marseille","lat":43.21196,"lon":5.35084,"is_reserved":false,"is_disabled":false,"rental_uris":{"android":"levelo://app?vid=8afa7640-ebe8-4025-983a-c83f3912a2dd","ios":"levelo://app?vid=8afa7640-ebe8-4025-983a-c83f3912a2dd"},"vehicle_type_id":"4","last_reported":1751635475,"current_range_meters":6400,"station_id":"st_cvj6sg6p6f1abm77japg","pricing_plan_id":"cebpf4jnsgd1na2vs0mg"},{"bike_id":"f6b7c6c7-7c3f-481f-b6d1-cee2a12eec1f","system_id":"levelo_inurba_marseille","lat":43.26563,"lon":5.39003,"is_reserved":false,"is_disabled":false,"rental_uris":{"android":"levelo://app?vid=f6b7c6c7-7c3f-481f-b6d1-cee2a12eec1f","ios":"levelo://app?vid=f6b7c6c7-7c3f-481f-b6d1-cee2a12eec1f"},"vehicle_type_id":"4","last_reported":1751635475,"current_range_meters":6800,"station_id":"ce4bhe12rcd13ifvqf30","pricing_plan_id":"cebpf4jnsgd1na2vs0mg"},{"bike_id":"2dfefc75-ee6a-4525-ab73-850b46d8f26c","system_id":"levelo_inurba_marseille","lat":43.26032,"lon":5.37543,"is_reserved":false,"is_disabled":false,"rental_uris":{"android":"levelo://app?vid=2dfefc75-ee6a-4525-ab73-850b46d8f26c","ios":"levelo://app?vid=2dfefc75-ee6a-4525-ab73-850b46d8f26c"},"vehicle_type_id":"4","last_reported":1751635475,"current_range_meters":7200,"station_id":"ce4bhgh2rcd13ifvqfa0","pricing_plan_id":"cebpf4jnsgd1na2vs0mg"},{"bike_id":"b562e349-e6d1-4c80-a2f6-064929cd95f5","system_id":"levelo_inurba_marseille","lat":43.26939,"lon":5.3892,"is_reserved":false,"is_disabled":false,"rental_uris":{"android":"levelo://app?vid=b562e349-e6d1-4c80-a2f6-064929cd95f5","ios":"levelo://app?vid=b562e349-e6d1-4c80-a2f6-064929cd95f5"},"vehicle_type_id":"4","last_reported":1751635475,"current_range_meters":7200,"station_id":"ce4bhhh2rcd13ifvqfl0","pricing_plan_id":"cebpf4jnsgd1na2vs0mg"},{"bike_id":"d567a98a-7952-4227-875f-9176613e0a81","system_id":"levelo_inurba_marseille","lat":43.303762,"lon":5.424883,"is_reserved":false,"is_disabled":false,"rental_uris":{"android":"levelo://app?vid=d567a98a-7952-4227-875f-9176613e0a81","ios":"levelo://app?vid=d567a98a-7952-4227-875f-9176613e0a81"},"vehicle_type_id":"4","last_reported":1751635475,"current_range_meters":7200,"station_id":"ce4bhoh2rcd13ifvqh6g","pricing_plan_id":"cebpf4jnsgd1na2vs0mg"},{"bike_id":"09454f46-e55e-4559-820c-cbc05b531847","system_id":"levelo_inurba_marseille","lat":43.32317,"lon":5.39027,"is_reserved":false,"is_disabled":false,"rental_uris":{"android":"levelo://app?vid=09454f46-e55e-4559-820c-cbc05b531847","ios":"levelo://app?vid=09454f46-e55e-4559-820c-cbc05b531847"},"vehicle_type_id":"4","last_reported":1751635475,"current_range_meters":8000,"station_id":"","pricing_plan_id":"cebpf4jnsgd1na2vs0mg"},{"bike_id":"e9f93152-c103-42e7-8290-70a0dd64d0c1","system_id":"levelo_inurba_marseille","lat":43.24811,"lon":5.37457,"is_reserved":false,"is_disabled":false,"rental_uris":{"android":"levelo://app?vid=e9f93152-c103-42e7-8290-70a0dd64d0c1","ios":"levelo://app?vid=e9f93152-c103-42e7-8290-70a0dd64d0c1"},"vehicle_type_id":"4","last_reported":1751635475,"current_range_meters":8000,"station_id":"","pricing_plan_id":"cebpf4jnsgd1na2vs0mg"},{"bike_id":"5faefa19-5f6c-4b34-bc69-303f0a603aab","system_id":"levelo_inurba_marseille","lat":43.29914,"lon":5.38141,"is_reserved":false,"is_disabled":false,"rental_uris":{"android":"levelo://app?vid=5faefa19-5f6c-4b34-bc69-303f0a603aab","ios":"levelo://app?vid=5faefa19-5f6c-4b34-bc69-303f0a603aab"},"vehicle_type_id":"4","last_reported":1751635475,"current_range_meters":8000,"station_id":"ce4bgj12rcd13ifvqbc0","pricing_plan_id":"cebpf4jnsgd1na2vs0mg"},{"bike_id":"616a7414-8760-47ec-bce3-d40d43c4d23d","system_id":"levelo_inurba_marseille","lat":43.30548,"lon":5.36555,"is_reserved":false,"is_disabled":false,"rental_uris":{"android":"levelo://app?vid=616a7414-8760-47ec-bce3-d40d43c4d23d","ios":"levelo://app?vid=616a7414-8760-47ec-bce3-d40d43c4d23d"},"vehicle_type_id":"4","last_reported":1751635475,"current_range_meters":8000,"station_id":"ce4bgs12rcd13ifvqcag","pricing_plan_id":"cebpf4jnsgd1na2vs0mg"},{"bike_id":"0b7bf5fb-2142-4ffa-b64a-36264c994ef4","system_id":"levelo_inurba_marseille","lat":43.28039,"lon":5.36949,"is_reserved":false,"is_disabled":false,"rental_uris":{"android":"levelo://app?vid=0b7bf5fb-2142-4ffa-b64a-36264c994ef4","ios":"levelo://app?vid=0b7bf5fb-2142-4ffa-b64a-36264c994ef4"},"vehicle_type_id":"4","last_reported":1751635475,"current_range_meters":8000,"station_id":"ce4bha12rcd13ifvqef0","pricing_plan_id":"cebpf4jnsgd1na2vs0mg"},{"bike_id":"dd5c1fdd-064a-4cff-a2d2-a455804bf3e4","system_id":"levelo_inurba_marseille","lat":43.24804,"lon":5.37454,"is_reserved":false,"is_disabled":false,"rental_uris":{"android":"levelo://app?vid=dd5c1fdd-064a-4cff-a2d2-a455804bf3e4","ios":"levelo://app?vid=dd5c1fdd-064a-4cff-a2d2-a455804bf3e4"},"vehicle_type_id":"4","last_reported":1751635475,"current_range_meters":8000,"station_id":"ce4bhgh2rcd13ifvqfb0","pricing_plan_id":"cebpf4jnsgd1na2vs0mg"},{"bike_id":"16d472c3-6439-49bf-8c0a-bf0ba51d0f19","system_id":"levelo_inurba_marseille","lat":43.24649,"lon":5.38157,"is_reserved":false,"is_disabled":false,"rental_uris":{"android":"levelo://app?vid=16d472c3-6439-49bf-8c0a-bf0ba51d0f19","ios":"levelo://app?vid=16d472c3-6439-49bf-8c0a-bf0ba51d0f19"},"vehicle_type_id":"4","last_reported":1751635475,"current_range_meters":8000,"station_id":"ce4bhih2rcd13ifvqfr0","pricing_plan_id":"cebpf4jnsgd1na2vs0mg"},{"bike_id":"c13b67a8-16db-4942-9c73-ca5dfdbf22ab","system_id":"levelo_inurba_marseille","lat":43.24161,"lon":5.36405,"is_reserved":false,"is_disabled":false,"rental_uris":{"android":"levelo://app?vid=c13b67a8-16db-4942-9c73-ca5dfdbf22ab","ios":"levelo://app?vid=c13b67a8-16db-4942-9c73-ca5dfdbf22ab"},"vehicle_type_id":"4","last_reported":1751635475,"current_range_meters":8000,"station_id":"cpo36qri1sfpv3e86is0","pricing_plan_id":"cebpf4jnsgd1na2vs0mg"},{"bike_id":"023593c5-a539-4ff9-b237-ac399caddb6b","system_id":"levelo_inurba_marseille","lat":43.27206,"lon":5.3919,"is_reserved":false,"is_disabled":false,"rental_uris":{"android":"levelo://app?vid=023593c5-a539-4ff9-b237-ac399caddb6b","ios":"levelo://app?vid=023593c5-a539-4ff9-b237-ac399caddb6b"},"vehicle_type_id":"4","last_reported":1751635475,"current_range_meters":8400,"station_id":"ce4bhhp2rcd13ifvqfm0","pricing_plan_id":"cebpf4jnsgd1na2vs0mg"},{"bike_id":"74ef8210-5088-47cb-bc9d-6252b2ee9e31","system_id":"levelo_inurba_marseille","lat":43.28936,"lon":5.36631,"is_reserved":false,"is_disabled":false,"rental_uris":{"android":"levelo://app?vid=74ef8210-5088-47cb-bc9d-6252b2ee9e31","ios":"levelo://app?vid=74ef8210-5088-47cb-bc9d-6252b2ee9e31"},"vehicle_type_id":"4","last_reported":1751635475,"current_range_meters":8800,"station_id":"ce4bhap2rcd13ifvqek0","pricing_plan_id":"cebpf4jnsgd1na2vs0mg"},{"bike_id":"74915c73-3006-4deb-99bf-391064607f16","system_id":"levelo_inurba_marseille","lat":43.29006,"lon":5.35609,"is_reserved":false,"is_disabled":false,"rental_uris":{"android":"levelo://app?vid=74915c73-3006-4deb-99bf-391064607f16","ios":"levelo://app?vid=74915c73-3006-4deb-99bf-391064607f16"},"vehicle_type_id":"4","last_reported":1751635475,"current_range_meters":8800,"station_id":"ce4bhb92rcd13ifvqen0","pricing_plan_id":"cebpf4jnsgd1na2vs0mg"},{"bike_id":"dd129f10-d9db-44b8-9886-bc7b5c2b08dc","system_id":"levelo_inurba_marseille","lat":43.26212,"lon":5.37434,"is_reserved":false,"is_disabled":false,"rental_uris":{"android":"levelo://app?vid=dd129f10-d9db-44b8-9886-bc7b5c2b08dc","ios":"levelo://app?vid=dd129f10-d9db-44b8-9886-bc7b5c2b08dc"},"vehicle_type_id":"4","last_reported":1751635475,"current_range_meters":8800,"station_id":"ce4bhgp2rcd13ifvqfc0","pricing_plan_id":"cebpf4jnsgd1na2vs0mg"},{"bike_id":"bcfd0eda-b9ab-4bec-9ca3-3f2b86617415","system_id":"levelo_inurba_marseille","lat":43.21169,"lon":5.35069,"is_reserved":false,"is_disabled":false,"rental_uris":{"android":"levelo://app?vid=bcfd0eda-b9ab-4bec-9ca3-3f2b86617415","ios":"levelo://app?vid=bcfd0eda-b9ab-4bec-9ca3-3f2b86617415"},"vehicle_type_id":"4","last_reported":1751635475,"current_range_meters":8800,"station_id":"st_cvj6sg6p6f1abm77japg","pricing_plan_id":"cebpf4jnsgd1na2vs0mg"},{"bike_id":"9bfc7d3d-4e60-4f8a-9c32-ef3d0e77ec5b","system_id":"levelo_inurba_marseille","lat":43.21186,"lon":5.35072,"is_reserved":false,"is_disabled":false,"rental_uris":{"android":"levelo://app?vid=9bfc7d3d-4e60-4f8a-9c32-ef3d0e77ec5b","ios":"levelo://app?vid=9bfc7d3d-4e60-4f8a-9c32-ef3d0e77ec5b"},"vehicle_type_id":"4","last_reported":1751635475,"current_range_meters":8800,"station_id":"st_cvj6sg6p6f1abm77japg","pricing_plan_id":"cebpf4jnsgd1na2vs0mg"},{"bike_id":"be4e2ba2-f83c-4be6-923a-932d435bb5ce","system_id":"levelo_inurba_marseille","lat":43.28232,"lon":5.40449,"is_reserved":false,"is_disabled":false,"rental_uris":{"android":"levelo://app?vid=be4e2ba2-f83c-4be6-923a-932d435bb5ce","ios":"levelo://app?vid=be4e2ba2-f83c-4be6-923a-932d435bb5ce"},"vehicle_type_id":"4","last_reported":1751635475,"current_range_meters":9200,"station_id":"","pricing_plan_id":"cebpf4jnsgd1na2vs0mg"},{"bike_id":"d172b5bc-db8c-4198-80d9-855a000daae4","system_id":"levelo_inurba_marseille","lat":43.307915,"lon":5.376515,"is_reserved":false,"is_disabled":false,"rental_uris":{"android":"levelo://app?vid=d172b5bc-db8c-4198-80d9-855a000daae4","ios":"levelo://app?vid=d172b5bc-db8c-4198-80d9-855a000daae4"},"vehicle_type_id":"4","last_reported":1751635475,"current_range_meters":9200,"station_id":"ce4bgv92rcd13ifvqcq0","pricing_plan_id":"cebpf4jnsgd1na2vs0mg"},{"bike_id":"f1afcb17-fcf9-41a7-8e12-acd70032868b","system_id":"levelo_inurba_marseille","lat":43.284,"lon":5.37533,"is_reserved":false,"is_disabled":false,"rental_uris":{"android":"levelo://app?vid=f1afcb17-fcf9-41a7-8e12-acd70032868b","ios":"levelo://app?vid=f1afcb17-fcf9-41a7-8e12-acd70032868b"},"vehicle_type_id":"4","last_reported":1751635475,"current_range_meters":9200,"station_id":"ce4bh412rcd13ifvqds0","pricing_plan_id":"cebpf4jnsgd1na2vs0mg"},{"bike_id":"aaa40a2f-5137-4631-ac61-aba8086bdeb7","system_id":"levelo_inurba_marseille","lat":43.26555,"lon":5.37288,"is_reserved":false,"is_disabled":false,"rental_uris":{"android":"levelo://app?vid=aaa40a2f-5137-4631-ac61-aba8086bdeb7","ios":"levelo://app?vid=aaa40a2f-5137-4631-ac61-aba8086bdeb7"},"vehicle_type_id":"4","last_reported":1751635475,"current_range_meters":9200,"station_id":"ce4bhg12rcd13ifvqf70","pricing_plan_id":"cebpf4jnsgd1na2vs0mg"},{"bike_id":"d799b321-3a7d-4201-b46e-ffe2ad124f19","system_id":"levelo_inurba_marseille","lat":43.32903,"lon":5.383854,"is_reserved":false,"is_disabled":false,"rental_uris":{"android":"levelo://app?vid=d799b321-3a7d-4201-b46e-ffe2ad124f19","ios":"levelo://app?vid=d799b321-3a7d-4201-b46e-ffe2ad124f19"},"vehicle_type_id":"4","last_reported":1751635475,"current_range_meters":9600,"station_id":"","pricing_plan_id":"cebpf4jnsgd1na2vs0mg"},{"bike_id":"086ec20a-71bf-4983-b90d-fa23d4686999","system_id":"levelo_inurba_marseille","lat":43.30938,"lon":5.40139,"is_reserved":false,"is_disabled":false,"rental_uris":{"android":"levelo://app?vid=086ec20a-71bf-4983-b90d-fa23d4686999","ios":"levelo://app?vid=086ec20a-71bf-4983-b90d-fa23d4686999"},"vehicle_type_id":"4","last_reported":1751635475,"current_range_meters":9600,"station_id":"ce4bgvp2rcd13ifvqct0","pricing_plan_id":"cebpf4jnsgd1na2vs0mg"},{"bike_id":"fc1bf356-4f59-48fd-81ef-fcdcbf1f8466","system_id":"levelo_inurba_marseille","lat":43.28465,"lon":5.35882,"is_reserved":false,"is_disabled":false,"rental_uris":{"android":"levelo://app?vid=fc1bf356-4f59-48fd-81ef-fcdcbf1f8466","ios":"levelo://app?vid=fc1bf356-4f59-48fd-81ef-fcdcbf1f8466"},"vehicle_type_id":"4","last_reported":1751635475,"current_range_meters":9600,"station_id":"ce4bhah2rcd13ifvqei0","pricing_plan_id":"cebpf4jnsgd1na2vs0mg"},{"bike_id":"d3116948-51f5-4b2e-9cf7-e92eb6505e2c","system_id":"levelo_inurba_marseille","lat":43.2696,"lon":5.38637,"is_reserved":false,"is_disabled":false,"rental_uris":{"android":"levelo://app?vid=d3116948-51f5-4b2e-9cf7-e92eb6505e2c","ios":"levelo://app?vid=d3116948-51f5-4b2e-9cf7-e92eb6505e2c"},"vehicle_type_id":"4","last_reported":1751635475,"current_range_meters":9600,"station_id":"ce4bhh92rcd13ifvqfh0","pricing_plan_id":"cebpf4jnsgd1na2vs0mg"},{"bike_id":"7757fa2b-7960-49f3-bf7a-28b7d2cd6b06","system_id":"levelo_inurba_marseille","lat":43.23968,"lon":5.36629,"is_reserved":false,"is_disabled":false,"rental_uris":{"android":"levelo://app?vid=7757fa2b-7960-49f3-bf7a-28b7d2cd6b06","ios":"levelo://app?vid=7757fa2b-7960-49f3-bf7a-28b7d2cd6b06"},"vehicle_type_id":"4","last_reported":1751635475,"current_range_meters":9600,"station_id":"ce4bhi12rcd13ifvqfp0","pricing_plan_id":"cebpf4jnsgd1na2vs0mg"},{"bike_id":"2346f85f-9246-45b8-beb6-066a494293f3","system_id":"levelo_inurba_marseille","lat":43.32111,"lon":5.36776,"is_reserved":false,"is_disabled":false,"rental_uris":{"android":"levelo://app?vid=2346f85f-9246-45b8-beb6-066a494293f3","ios":"levelo://app?vid=2346f85f-9246-45b8-beb6-066a494293f3"},"vehicle_type_id":"4","last_reported":1751635475,"current_range_meters":9600,"station_id":"ce4bhrh2rcd13ifvqhug","pricing_plan_id":"cebpf4jnsgd1na2vs0mg"},{"bike_id":"76cf2511-f4b7-4ac2-8990-73d983be0539","system_id":"levelo_inurba_marseille","lat":43.21749,"lon":5.34607,"is_reserved":false,"is_disabled":false,"rental_uris":{"android":"levelo://app?vid=76cf2511-f4b7-4ac2-8990-73d983be0539","ios":"levelo://app?vid=76cf2511-f4b7-4ac2-8990-73d983be0539"},"vehicle_type_id":"4","last_reported":1751635475,"current_range_meters":9600,"station_id":"st_cvj6r9ubvosntc0bgbag","pricing_plan_id":"cebpf4jnsgd1na2vs0mg"},{"bike_id":"2c6c50d1-3177-4edd-8c14-dfda2a6cc027","system_id":"levelo_inurba_marseille","lat":43.305431,"lon":5.365674,"is_reserved":false,"is_disabled":false,"rental_uris":{"android":"levelo://app?vid=2c6c50d1-3177-4edd-8c14-dfda2a6cc027","ios":"levelo://app?vid=2c6c50d1-3177-4edd-8c14-dfda2a6cc027"},"vehicle_type_id":"4","last_reported":1751635475,"current_range_meters":10000,"station_id":"ce4bgs12rcd13ifvqcag","pricing_plan_id":"cebpf4jnsgd1na2vs0mg"},{"bike_id":"0a5a9db9-5da2-4e57-b230-57a1a5db24cb","system_id":"levelo_inurba_marseille","lat":43.26931,"lon":5.38916,"is_reserved":false,"is_disabled":false,"rental_uris":{"android":"levelo://app?vid=0a5a9db9-5da2-4e57-b230-57a1a5db24cb","ios":"levelo://app?vid=0a5a9db9-5da2-4e57-b230-57a1a5db24cb"},"vehicle_type_id":"4","last_reported":1751635475,"current_range_meters":10000,"station_id":"ce4bhhh2rcd13ifvqfl0","pricing_plan_id":"cebpf4jnsgd1na2vs0mg"},{"bike_id":"bc9015ae-0c50-4900-a50c-f75eaded280e","system_id":"levelo_inurba_marseille","lat":43.23967,"lon":5.36631,"is_reserved":false,"is_disabled":false,"rental_uris":{"android":"levelo://app?vid=bc9015ae-0c50-4900-a50c-f75eaded280e","ios":"levelo://app?vid=bc9015ae-0c50-4900-a50c-f75eaded280e"},"vehicle_type_id":"4","last_reported":1751635475,"current_range_meters":10000,"station_id":"ce4bhi12rcd13ifvqfp0","pricing_plan_id":"cebpf4jnsgd1na2vs0mg"},{"bike_id":"7e46842f-53bd-4ae6-a997-6983b26c9c45","system_id":"levelo_inurba_marseille","lat":43.27073,"lon":5.42277,"is_reserved":false,"is_disabled":false,"rental_uris":{"android":"levelo://app?vid=7e46842f-53bd-4ae6-a997-6983b26c9c45","ios":"levelo://app?vid=7e46842f-53bd-4ae6-a997-6983b26c9c45"},"vehicle_type_id":"4","last_reported":1751635475,"current_range_meters":10000,"station_id":"ce4bhk92rcd13ifvqgb0","pricing_plan_id":"cebpf4jnsgd1na2vs0mg"},{"bike_id":"d93bf4de-6a46-4d4f-b208-749dbc192a94","system_id":"levelo_inurba_marseille","lat":43.33617,"lon":5.41036,"is_reserved":false,"is_disabled":false,"rental_uris":{"android":"levelo://app?vid=d93bf4de-6a46-4d4f-b208-749dbc192a94","ios":"levelo://app?vid=d93bf4de-6a46-4d4f-b208-749dbc192a94"},"vehicle_type_id":"4","last_reported":1751635475,"current_range_meters":10000,"station_id":"ce4bhqh2rcd13ifvqhmg","pricing_plan_id":"cebpf4jnsgd1na2vs0mg"},{"bike_id":"c76381fd-b6b9-4d02-a8a4-fd4e6891e706","system_id":"levelo_inurba_marseille","lat":43.30253,"lon":5.3903,"is_reserved":false,"is_disabled":false,"rental_uris":{"android":"levelo://app?vid=c76381fd-b6b9-4d02-a8a4-fd4e6891e706","ios":"levelo://app?vid=c76381fd-b6b9-4d02-a8a4-fd4e6891e706"},"vehicle_type_id":"4","last_reported":1751635475,"current_range_meters":10800,"station_id":"","pricing_plan_id":"cebpf4jnsgd1na2vs0mg"},{"bike_id":"ba154a12-11bd-42a5-958a-5992f5d043d1","system_id":"levelo_inurba_marseille","lat":43.305029,"lon":5.370693,"is_reserved":false,"is_disabled":false,"rental_uris":{"android":"levelo://app?vid=ba154a12-11bd-42a5-958a-5992f5d043d1","ios":"levelo://app?vid=ba154a12-11bd-42a5-958a-5992f5d043d1"},"vehicle_type_id":"4","last_reported":1751635475,"current_range_meters":10800,"station_id":"","pricing_plan_id":"cebpf4jnsgd1na2vs0mg"},{"bike_id":"4e54cf7d-f7f0-4b11-bf78-9a5a353fae02","system_id":"levelo_inurba_marseille","lat":43.30111,"lon":5.39865,"is_reserved":false,"is_disabled":false,"rental_uris":{"android":"levelo://app?vid=4e54cf7d-f7f0-4b11-bf78-9a5a353fae02","ios":"levelo://app?vid=4e54cf7d-f7f0-4b11-bf78-9a5a353fae02"},"vehicle_type_id":"4","last_reported":1751635475,"current_range_meters":10800,"station_id":"ce4bh0h2rcd13ifvqd40","pricing_plan_id":"cebpf4jnsgd1na2vs0mg"},{"bike_id":"3b1cdf37-a688-41fc-9429-c241a7caa829","system_id":"levelo_inurba_marseille","lat":43.26194,"lon":5.3744,"is_reserved":false,"is_disabled":false,"rental_uris":{"android":"levelo://app?vid=3b1cdf37-a688-41fc-9429-c241a7caa829","ios":"levelo://app?vid=3b1cdf37-a688-41fc-9429-c241a7caa829"},"vehicle_type_id":"4","last_reported":1751635475,"current_range_meters":10800,"station_id":"ce4bhgp2rcd13ifvqfc0","pricing_plan_id":"cebpf4jnsgd1na2vs0mg"},{"bike_id":"1dc9cfed-5d9e-4f71-bbf0-8ceb8b0632ed","system_id":"levelo_inurba_marseille","lat":43.2439,"lon":5.37049,"is_reserved":false,"is_disabled":false,"rental_uris":{"android":"levelo://app?vid=1dc9cfed-5d9e-4f71-bbf0-8ceb8b0632ed","ios":"levelo://app?vid=1dc9cfed-5d9e-4f71-bbf0-8ceb8b0632ed"},"vehicle_type_id":"4","last_reported":1751635475,"current_range_meters":10800,"station_id":"ce4bhhh2rcd13ifvqfk0","pricing_plan_id":"cebpf4jnsgd1na2vs0mg"},{"bike_id":"9f1f6042-7e07-4b00-9dc1-8f0343d9174e","system_id":"levelo_inurba_marseille","lat":43.211908,"lon":5.350736,"is_reserved":false,"is_disabled":false,"rental_uris":{"android":"levelo://app?vid=9f1f6042-7e07-4b00-9dc1-8f0343d9174e","ios":"levelo://app?vid=9f1f6042-7e07-4b00-9dc1-8f0343d9174e"},"vehicle_type_id":"4","last_reported":1751635475,"current_range_meters":10800,"station_id":"st_cvj6sg6p6f1abm77japg","pricing_plan_id":"cebpf4jnsgd1na2vs0mg"},{"bike_id":"a52d99d4-90d8-4840-bc4c-cf9f2c41afbb","system_id":"levelo_inurba_marseille","lat":43.29841,"lon":5.36264,"is_reserved":false,"is_disabled":false,"rental_uris":{"android":"levelo://app?vid=a52d99d4-90d8-4840-bc4c-cf9f2c41afbb","ios":"levelo://app?vid=a52d99d4-90d8-4840-bc4c-cf9f2c41afbb"},"vehicle_type_id":"4","last_reported":1751635475,"current_range_meters":11200,"station_id":"ce4bgpp2rcd13ifvqc3g","pricing_plan_id":"cebpf4jnsgd1na2vs0mg"},{"bike_id":"e5c2c2f9-7ba9-440d-96d2-c01515007859","system_id":"levelo_inurba_marseille","lat":43.28272,"lon":5.35065,"is_reserved":false,"is_disabled":false,"rental_uris":{"android":"levelo://app?vid=e5c2c2f9-7ba9-440d-96d2-c01515007859","ios":"levelo://app?vid=e5c2c2f9-7ba9-440d-96d2-c01515007859"},"vehicle_type_id":"4","last_reported":1751635475,"current_range_meters":11200,"station_id":"ce4bhbp2rcd13ifvqerg","pricing_plan_id":"cebpf4jnsgd1na2vs0mg"},{"bike_id":"ce91fdec-53d6-49af-b164-e4ddfa1bbb6d","system_id":"levelo_inurba_marseille","lat":43.25725,"lon":5.411074,"is_reserved":false,"is_disabled":false,"rental_uris":{"android":"levelo://app?vid=ce91fdec-53d6-49af-b164-e4ddfa1bbb6d","ios":"levelo://app?vid=ce91fdec-53d6-49af-b164-e4ddfa1bbb6d"},"vehicle_type_id":"4","last_reported":1751635475,"current_range_meters":11200,"station_id":"ce4bhkp2rcd13ifvqgd0","pricing_plan_id":"cebpf4jnsgd1na2vs0mg"},{"bike_id":"57e8f0b5-331e-4c7f-ab1e-5a912b2be374","system_id":"levelo_inurba_marseille","lat":43.29796,"lon":5.38104,"is_reserved":false,"is_disabled":false,"rental_uris":{"android":"levelo://app?vid=57e8f0b5-331e-4c7f-ab1e-5a912b2be374","ios":"levelo://app?vid=57e8f0b5-331e-4c7f-ab1e-5a912b2be374"},"vehicle_type_id":"4","last_reported":1751635475,"current_range_meters":11600,"station_id":"ce4bgip2rcd13ifvqbb0","pricing_plan_id":"cebpf4jnsgd1na2vs0mg"},{"bike_id":"0519f465-29dd-47fc-9834-56be3688e16b","system_id":"levelo_inurba_marseille","lat":43.30467,"lon":5.37914,"is_reserved":false,"is_disabled":false,"rental_uris":{"android":"levelo://app?vid=0519f465-29dd-47fc-9834-56be3688e16b","ios":"levelo://app?vid=0519f465-29dd-47fc-9834-56be3688e16b"},"vehicle_type_id":"4","last_reported":1751635475,"current_range_meters":11600,"station_id":"ce4bgup2rcd13ifvqcn0","pricing_plan_id":"cebpf4jnsgd1na2vs0mg"},{"bike_id":"dd64bbb5-edb5-4b7a-9da4-d6102947d257","system_id":"levelo_inurba_marseille","lat":43.24662,"lon":5.38164,"is_reserved":false,"is_disabled":false,"rental_uris":{"android":"levelo://app?vid=dd64bbb5-edb5-4b7a-9da4-d6102947d257","ios":"levelo://app?vid=dd64bbb5-edb5-4b7a-9da4-d6102947d257"},"vehicle_type_id":"4","last_reported":1751635475,"current_range_meters":11600,"station_id":"ce4bhih2rcd13ifvqfr0","pricing_plan_id":"cebpf4jnsgd1na2vs0mg"},{"bike_id":"0c4b7fdb-b39e-49b3-a2b0-ae3d0f43e89d","system_id":"levelo_inurba_marseille","lat":43.329047,"lon":5.405691,"is_reserved":false,"is_disabled":false,"rental_uris":{"android":"levelo://app?vid=0c4b7fdb-b39e-49b3-a2b0-ae3d0f43e89d","ios":"levelo://app?vid=0c4b7fdb-b39e-49b3-a2b0-ae3d0f43e89d"},"vehicle_type_id":"4","last_reported":1751635475,"current_range_meters":12000,"station_id":"","pricing_plan_id":"cebpf4jnsgd1na2vs0mg"},{"bike_id":"175513bb-dce2-48e2-83c8-1e9f1cb23cd0","system_id":"levelo_inurba_marseille","lat":43.286255,"lon":5.412651,"is_reserved":false,"is_disabled":false,"rental_uris":{"android":"levelo://app?vid=175513bb-dce2-48e2-83c8-1e9f1cb23cd0","ios":"levelo://app?vid=175513bb-dce2-48e2-83c8-1e9f1cb23cd0"},"vehicle_type_id":"4","last_reported":1751635475,"current_range_meters":12000,"station_id":"","pricing_plan_id":"cebpf4jnsgd1na2vs0mg"},{"bike_id":"71acd418-7e13-4741-ada0-85c42e0b1147","system_id":"levelo_inurba_marseille","lat":43.28478,"lon":5.38409,"is_reserved":false,"is_disabled":false,"rental_uris":{"android":"levelo://app?vid=71acd418-7e13-4741-ada0-85c42e0b1147","ios":"levelo://app?vid=71acd418-7e13-4741-ada0-85c42e0b1147"},"vehicle_type_id":"4","last_reported":1751635475,"current_range_meters":12000,"station_id":"ce4bh512rcd13ifvqe3g","pricing_plan_id":"cebpf4jnsgd1na2vs0mg"},{"bike_id":"d3628499-1beb-45f2-b005-0c2d8126487a","system_id":"levelo_inurba_marseille","lat":43.23195,"lon":5.35554,"is_reserved":false,"is_disabled":false,"rental_uris":{"android":"levelo://app?vid=d3628499-1beb-45f2-b005-0c2d8126487a","ios":"levelo://app?vid=d3628499-1beb-45f2-b005-0c2d8126487a"},"vehicle_type_id":"4","last_reported":1751635475,"current_range_meters":12000,"station_id":"ce4bhu92rcd13ifvqi70","pricing_plan_id":"cebpf4jnsgd1na2vs0mg"},{"bike_id":"1b19ee50-f242-4a40-b59c-631477d87288","system_id":"levelo_inurba_marseille","lat":43.337444,"lon":5.374475,"is_reserved":false,"is_disabled":false,"rental_uris":{"android":"levelo://app?vid=1b19ee50-f242-4a40-b59c-631477d87288","ios":"levelo://app?vid=1b19ee50-f242-4a40-b59c-631477d87288"},"vehicle_type_id":"4","last_reported":1751635475,"current_range_meters":12400,"station_id":"","pricing_plan_id":"cebpf4jnsgd1na2vs0mg"},{"bike_id":"748a0666-d207-40cd-8863-ca1d021a96eb","system_id":"levelo_inurba_marseille","lat":43.30136,"lon":5.37397,"is_reserved":false,"is_disabled":false,"rental_uris":{"android":"levelo://app?vid=748a0666-d207-40cd-8863-ca1d021a96eb","ios":"levelo://app?vid=748a0666-d207-40cd-8863-ca1d021a96eb"},"vehicle_type_id":"4","last_reported":1751635475,"current_range_meters":12400,"station_id":"ce4bgs92rcd13ifvqcc0","pricing_plan_id":"cebpf4jnsgd1na2vs0mg"},{"bike_id":"69272601-9d52-4ef2-b97f-0f3285fad4be","system_id":"levelo_inurba_marseille","lat":43.30933,"lon":5.40142,"is_reserved":false,"is_disabled":false,"rental_uris":{"android":"levelo://app?vid=69272601-9d52-4ef2-b97f-0f3285fad4be","ios":"levelo://app?vid=69272601-9d52-4ef2-b97f-0f3285fad4be"},"vehicle_type_id":"4","last_reported":1751635475,"current_range_meters":12400,"station_id":"ce4bgvp2rcd13ifvqct0","pricing_plan_id":"cebpf4jnsgd1na2vs0mg"},{"bike_id":"d3e963c8-dca6-4646-af0b-f9c56ee31a5d","system_id":"levelo_inurba_marseille","lat":43.28423,"lon":5.34991,"is_reserved":false,"is_disabled":false,"rental_uris":{"android":"levelo://app?vid=d3e963c8-dca6-4646-af0b-f9c56ee31a5d","ios":"levelo://app?vid=d3e963c8-dca6-4646-af0b-f9c56ee31a5d"},"vehicle_type_id":"4","last_reported":1751635475,"current_range_meters":12400,"station_id":"ce4bhbh2rcd13ifvqepg","pricing_plan_id":"cebpf4jnsgd1na2vs0mg"},{"bike_id":"a2c9b6ee-779f-47cf-b3eb-5fed2b65726b","system_id":"levelo_inurba_marseille","lat":43.21749,"lon":5.34608,"is_reserved":false,"is_disabled":false,"rental_uris":{"android":"levelo://app?vid=a2c9b6ee-779f-47cf-b3eb-5fed2b65726b","ios":"levelo://app?vid=a2c9b6ee-779f-47cf-b3eb-5fed2b65726b"},"vehicle_type_id":"4","last_reported":1751635475,"current_range_meters":12400,"station_id":"st_cvj6r9ubvosntc0bgbag","pricing_plan_id":"cebpf4jnsgd1na2vs0mg"},{"bike_id":"43b8b648-960e-46ea-bfad-839bb09cb576","system_id":"levelo_inurba_marseille","lat":43.26214,"lon":5.37041,"is_reserved":false,"is_disabled":false,"rental_uris":{"android":"levelo://app?vid=43b8b648-960e-46ea-bfad-839bb09cb576","ios":"levelo://app?vid=43b8b648-960e-46ea-bfad-839bb09cb576"},"vehicle_type_id":"4","last_reported":1751635475,"current_range_meters":12800,"station_id":"","pricing_plan_id":"cebpf4jnsgd1na2vs0mg"},{"bike_id":"aa2295f7-d39e-43be-8723-73cf3ec6364b","system_id":"levelo_inurba_marseille","lat":43.28416,"lon":5.349953,"is_reserved":false,"is_disabled":false,"rental_uris":{"android":"levelo://app?vid=aa2295f7-d39e-43be-8723-73cf3ec6364b","ios":"levelo://app?vid=aa2295f7-d39e-43be-8723-73cf3ec6364b"},"vehicle_type_id":"4","last_reported":1751635475,"current_range_meters":12800,"station_id":"ce4bhbh2rcd13ifvqepg","pricing_plan_id":"cebpf4jnsgd1na2vs0mg"},{"bike_id":"486cd7b5-1850-4d2b-8a56-a443e3236593","system_id":"levelo_inurba_marseille","lat":43.25494,"lon":5.3765,"is_reserved":false,"is_disabled":false,"rental_uris":{"android":"levelo://app?vid=486cd7b5-1850-4d2b-8a56-a443e3236593","ios":"levelo://app?vid=486cd7b5-1850-4d2b-8a56-a443e3236593"},"vehicle_type_id":"4","last_reported":1751635475,"current_range_meters":12800,"station_id":"ce4bhh12rcd13ifvqff0","pricing_plan_id":"cebpf4jnsgd1na2vs0mg"},{"bike_id":"26100b28-e8c4-4362-9642-6e83c2e33576","system_id":"levelo_inurba_marseille","lat":43.23966,"lon":5.36628,"is_reserved":false,"is_disabled":false,"rental_uris":{"android":"levelo://app?vid=26100b28-e8c4-4362-9642-6e83c2e33576","ios":"levelo://app?vid=26100b28-e8c4-4362-9642-6e83c2e33576"},"vehicle_type_id":"4","last_reported":1751635475,"current_range_meters":12800,"station_id":"ce4bhi12rcd13ifvqfp0","pricing_plan_id":"cebpf4jnsgd1na2vs0mg"},{"bike_id":"0c470c0c-8ad3-4147-8bcd-f7981266ac52","system_id":"levelo_inurba_marseille","lat":43.26201,"lon":5.37927,"is_reserved":false,"is_disabled":false,"rental_uris":{"android":"levelo://app?vid=0c470c0c-8ad3-4147-8bcd-f7981266ac52","ios":"levelo://app?vid=0c470c0c-8ad3-4147-8bcd-f7981266ac52"},"vehicle_type_id":"4","last_reported":1751635475,"current_range_meters":12800,"station_id":"ce4bhjp2rcd13ifvqg90","pricing_plan_id":"cebpf4jnsgd1na2vs0mg"},{"bike_id":"6e703efe-d004-492b-a4e1-8f9a45caf618","system_id":"levelo_inurba_marseille","lat":43.30352,"lon":5.42514,"is_reserved":false,"is_disabled":false,"rental_uris":{"android":"levelo://app?vid=6e703efe-d004-492b-a4e1-8f9a45caf618","ios":"levelo://app?vid=6e703efe-d004-492b-a4e1-8f9a45caf618"},"vehicle_type_id":"4","last_reported":1751635475,"current_range_meters":12800,"station_id":"ce4bhoh2rcd13ifvqh6g","pricing_plan_id":"cebpf4jnsgd1na2vs0mg"},{"bike_id":"5e197122-e8ec-4f01-b370-6bbfc10c6950","system_id":"levelo_inurba_marseille","lat":43.21219,"lon":5.35081,"is_reserved":false,"is_disabled":false,"rental_uris":{"android":"levelo://app?vid=5e197122-e8ec-4f01-b370-6bbfc10c6950","ios":"levelo://app?vid=5e197122-e8ec-4f01-b370-6bbfc10c6950"},"vehicle_type_id":"4","last_reported":1751635475,"current_range_meters":12800,"station_id":"st_cvj6sg6p6f1abm77japg","pricing_plan_id":"cebpf4jnsgd1na2vs0mg"},{"bike_id":"946ebcf6-5ab2-44a9-9806-7b412cc3413c","system_id":"levelo_inurba_marseille","lat":43.28357,"lon":5.38627,"is_reserved":false,"is_disabled":false,"rental_uris":{"android":"levelo://app?vid=946ebcf6-5ab2-44a9-9806-7b412cc3413c","ios":"levelo://app?vid=946ebcf6-5ab2-44a9-9806-7b412cc3413c"},"vehicle_type_id":"4","last_reported":1751635475,"current_range_meters":13600,"station_id":"ce4bh492rcd13ifvqdvg","pricing_plan_id":"cebpf4jnsgd1na2vs0mg"},{"bike_id":"e4e38e17-d162-473e-8d8d-73b26e25c74b","system_id":"levelo_inurba_marseille","lat":43.28106,"lon":5.37835,"is_reserved":false,"is_disabled":false,"rental_uris":{"android":"levelo://app?vid=e4e38e17-d162-473e-8d8d-73b26e25c74b","ios":"levelo://app?vid=e4e38e17-d162-473e-8d8d-73b26e25c74b"},"vehicle_type_id":"4","last_reported":1751635475,"current_range_meters":13600,"station_id":"ce4bha12rcd13ifvqee0","pricing_plan_id":"cebpf4jnsgd1na2vs0mg"},{"bike_id":"e1aa5983-6325-42e2-8323-42350f78e1b6","system_id":"levelo_inurba_marseille","lat":43.25496,"lon":5.37645,"is_reserved":false,"is_disabled":false,"rental_uris":{"android":"levelo://app?vid=e1aa5983-6325-42e2-8323-42350f78e1b6","ios":"levelo://app?vid=e1aa5983-6325-42e2-8323-42350f78e1b6"},"vehicle_type_id":"4","last_reported":1751635475,"current_range_meters":13600,"station_id":"ce4bhh12rcd13ifvqff0","pricing_plan_id":"cebpf4jnsgd1na2vs0mg"},{"bike_id":"6eebadd3-99fa-48af-8556-1f64731f83a2","system_id":"levelo_inurba_marseille","lat":43.23089,"lon":5.35486,"is_reserved":false,"is_disabled":false,"rental_uris":{"android":"levelo://app?vid=6eebadd3-99fa-48af-8556-1f64731f83a2","ios":"levelo://app?vid=6eebadd3-99fa-48af-8556-1f64731f83a2"},"vehicle_type_id":"4","last_reported":1751635475,"current_range_meters":13600,"station_id":"cpo3342slgdg3j2ifvpg","pricing_plan_id":"cebpf4jnsgd1na2vs0mg"},{"bike_id":"d7d5b776-bcc7-423d-8a89-6abd09a6c07c","system_id":"levelo_inurba_marseille","lat":43.24165,"lon":5.36396,"is_reserved":false,"is_disabled":false,"rental_uris":{"android":"levelo://app?vid=d7d5b776-bcc7-423d-8a89-6abd09a6c07c","ios":"levelo://app?vid=d7d5b776-bcc7-423d-8a89-6abd09a6c07c"},"vehicle_type_id":"4","last_reported":1751635475,"current_range_meters":13600,"station_id":"cpo36qri1sfpv3e86is0","pricing_plan_id":"cebpf4jnsgd1na2vs0mg"},{"bike_id":"0aecdaa8-f8c1-424b-a75f-a9ca61401ae2","system_id":"levelo_inurba_marseille","lat":43.30136,"lon":5.38772,"is_reserved":false,"is_disabled":false,"rental_uris":{"android":"levelo://app?vid=0aecdaa8-f8c1-424b-a75f-a9ca61401ae2","ios":"levelo://app?vid=0aecdaa8-f8c1-424b-a75f-a9ca61401ae2"},"vehicle_type_id":"4","last_reported":1751635475,"current_range_meters":14000,"station_id":"ce4bghh2rcd13ifvqb60","pricing_plan_id":"cebpf4jnsgd1na2vs0mg"},{"bike_id":"92851203-6339-4d2a-802c-5fec965e7035","system_id":"levelo_inurba_marseille","lat":43.29633,"lon":5.37721,"is_reserved":false,"is_disabled":false,"rental_uris":{"android":"levelo://app?vid=92851203-6339-4d2a-802c-5fec965e7035","ios":"levelo://app?vid=92851203-6339-4d2a-802c-5fec965e7035"},"vehicle_type_id":"4","last_reported":1751635475,"current_range_meters":14000,"station_id":"ce4bgi92rcd13ifvqb90","pricing_plan_id":"cebpf4jnsgd1na2vs0mg"},{"bike_id":"df8334f1-5854-4f04-83d4-f882a7cf6b67","system_id":"levelo_inurba_marseille","lat":43.30575,"lon":5.36534,"is_reserved":false,"is_disabled":false,"rental_uris":{"android":"levelo://app?vid=df8334f1-5854-4f04-83d4-f882a7cf6b67","ios":"levelo://app?vid=df8334f1-5854-4f04-83d4-f882a7cf6b67"},"vehicle_type_id":"4","last_reported":1751635475,"current_range_meters":14000,"station_id":"ce4bgs12rcd13ifvqcag","pricing_plan_id":"cebpf4jnsgd1na2vs0mg"},{"bike_id":"eeccc374-1d6d-447c-8029-712e4700ae45","system_id":"levelo_inurba_marseille","lat":43.30331,"lon":5.40431,"is_reserved":false,"is_disabled":false,"rental_uris":{"android":"levelo://app?vid=eeccc374-1d6d-447c-8029-712e4700ae45","ios":"levelo://app?vid=eeccc374-1d6d-447c-8029-712e4700ae45"},"vehicle_type_id":"4","last_reported":1751635475,"current_range_meters":14000,"station_id":"ce4bh012rcd13ifvqd10","pricing_plan_id":"cebpf4jnsgd1na2vs0mg"},{"bike_id":"208da0db-5376-4c66-974a-9e178ea001c5","system_id":"levelo_inurba_marseille","lat":43.28359,"lon":5.38108,"is_reserved":false,"is_disabled":false,"rental_uris":{"android":"levelo://app?vid=208da0db-5376-4c66-974a-9e178ea001c5","ios":"levelo://app?vid=208da0db-5376-4c66-974a-9e178ea001c5"},"vehicle_type_id":"4","last_reported":1751635475,"current_range_meters":14000,"station_id":"ce4bh412rcd13ifvqdr0","pricing_plan_id":"cebpf4jnsgd1na2vs0mg"},{"bike_id":"8bad7d5c-e8bd-422a-926d-ce5793bf914f","system_id":"levelo_inurba_marseille","lat":43.28428,"lon":5.34996,"is_reserved":false,"is_disabled":false,"rental_uris":{"android":"levelo://app?vid=8bad7d5c-e8bd-422a-926d-ce5793bf914f","ios":"levelo://app?vid=8bad7d5c-e8bd-422a-926d-ce5793bf914f"},"vehicle_type_id":"4","last_reported":1751635475,"current_range_meters":14000,"station_id":"ce4bhbh2rcd13ifvqepg","pricing_plan_id":"cebpf4jnsgd1na2vs0mg"},{"bike_id":"167dbfa7-2182-4d81-ba30-6152c1b1ecf7","system_id":"levelo_inurba_marseille","lat":43.24806,"lon":5.37455,"is_reserved":false,"is_disabled":false,"rental_uris":{"android":"levelo://app?vid=167dbfa7-2182-4d81-ba30-6152c1b1ecf7","ios":"levelo://app?vid=167dbfa7-2182-4d81-ba30-6152c1b1ecf7"},"vehicle_type_id":"4","last_reported":1751635475,"current_range_meters":14000,"station_id":"ce4bhgh2rcd13ifvqfb0","pricing_plan_id":"cebpf4jnsgd1na2vs0mg"},{"bike_id":"d5a7b043-e210-4dd7-a0f0-35fb21054c8c","system_id":"levelo_inurba_marseille","lat":43.231544,"lon":5.4372,"is_reserved":false,"is_disabled":false,"rental_uris":{"android":"levelo://app?vid=d5a7b043-e210-4dd7-a0f0-35fb21054c8c","ios":"levelo://app?vid=d5a7b043-e210-4dd7-a0f0-35fb21054c8c"},"vehicle_type_id":"4","last_reported":1751635475,"current_range_meters":14000,"station_id":"ce4bhmp2rcd13ifvqgog","pricing_plan_id":"cebpf4jnsgd1na2vs0mg"},{"bike_id":"1c8ab180-05fd-405f-9922-b2b2c2d5142f","system_id":"levelo_inurba_marseille","lat":43.337863,"lon":5.381192,"is_reserved":false,"is_disabled":false,"rental_uris":{"android":"levelo://app?vid=1c8ab180-05fd-405f-9922-b2b2c2d5142f","ios":"levelo://app?vid=1c8ab180-05fd-405f-9922-b2b2c2d5142f"},"vehicle_type_id":"4","last_reported":1751635475,"current_range_meters":14400,"station_id":"","pricing_plan_id":"cebpf4jnsgd1na2vs0mg"},{"bike_id":"4ca45c1b-dfb0-4bd2-b066-4d46a2818657","system_id":"levelo_inurba_marseille","lat":43.30641,"lon":5.40097,"is_reserved":false,"is_disabled":false,"rental_uris":{"android":"levelo://app?vid=4ca45c1b-dfb0-4bd2-b066-4d46a2818657","ios":"levelo://app?vid=4ca45c1b-dfb0-4bd2-b066-4d46a2818657"},"vehicle_type_id":"4","last_reported":1751635475,"current_range_meters":14400,"station_id":"ce4bh112rcd13ifvqda0","pricing_plan_id":"cebpf4jnsgd1na2vs0mg"},{"bike_id":"4393359c-53a9-4083-afb4-7bd9d53351d8","system_id":"levelo_inurba_marseille","lat":43.27908,"lon":5.38014,"is_reserved":false,"is_disabled":false,"rental_uris":{"android":"levelo://app?vid=4393359c-53a9-4083-afb4-7bd9d53351d8","ios":"levelo://app?vid=4393359c-53a9-4083-afb4-7bd9d53351d8"},"vehicle_type_id":"4","last_reported":1751635475,"current_range_meters":14400,"station_id":"ce4bhf92rcd13ifvqf50","pricing_plan_id":"cebpf4jnsgd1na2vs0mg"},{"bike_id":"62e288d8-e99a-4ebc-a826-066ab28ebb35","system_id":"levelo_inurba_marseille","lat":43.30806,"lon":5.43552,"is_reserved":false,"is_disabled":false,"rental_uris":{"android":"levelo://app?vid=62e288d8-e99a-4ebc-a826-066ab28ebb35","ios":"levelo://app?vid=62e288d8-e99a-4ebc-a826-066ab28ebb35"},"vehicle_type_id":"4","last_reported":1751635475,"current_range_meters":14400,"station_id":"ce4bhph2rcd13ifvqheg","pricing_plan_id":"cebpf4jnsgd1na2vs0mg"},{"bike_id":"fe2fa8ec-8dae-412a-a387-87d100e2aae9","system_id":"levelo_inurba_marseille","lat":43.23197,"lon":5.35556,"is_reserved":false,"is_disabled":false,"rental_uris":{"android":"levelo://app?vid=fe2fa8ec-8dae-412a-a387-87d100e2aae9","ios":"levelo://app?vid=fe2fa8ec-8dae-412a-a387-87d100e2aae9"},"vehicle_type_id":"4","last_reported":1751635475,"current_range_meters":14400,"station_id":"ce4bhu92rcd13ifvqi70","pricing_plan_id":"cebpf4jnsgd1na2vs0mg"},{"bike_id":"a1fce6af-9770-46a5-8090-5501cb4216f5","system_id":"levelo_inurba_marseille","lat":43.30547,"lon":5.36555,"is_reserved":false,"is_disabled":false,"rental_uris":{"android":"levelo://app?vid=a1fce6af-9770-46a5-8090-5501cb4216f5","ios":"levelo://app?vid=a1fce6af-9770-46a5-8090-5501cb4216f5"},"vehicle_type_id":"4","last_reported":1751635475,"current_range_meters":14800,"station_id":"ce4bgs12rcd13ifvqcag","pricing_plan_id":"cebpf4jnsgd1na2vs0mg"},{"bike_id":"3b2e1de2-e08a-4478-85a0-653e89c941c9","system_id":"levelo_inurba_marseille","lat":43.31327,"lon":5.39737,"is_reserved":false,"is_disabled":false,"rental_uris":{"android":"levelo://app?vid=3b2e1de2-e08a-4478-85a0-653e89c941c9","ios":"levelo://app?vid=3b2e1de2-e08a-4478-85a0-653e89c941c9"},"vehicle_type_id":"4","last_reported":1751635475,"current_range_meters":15200,"station_id":"ce4bgvp2rcd13ifvqcu0","pricing_plan_id":"cebpf4jnsgd1na2vs0mg"},{"bike_id":"0762b542-a9ec-4122-9228-01d41231d491","system_id":"levelo_inurba_marseille","lat":43.27373,"lon":5.36262,"is_reserved":false,"is_disabled":false,"rental_uris":{"android":"levelo://app?vid=0762b542-a9ec-4122-9228-01d41231d491","ios":"levelo://app?vid=0762b542-a9ec-4122-9228-01d41231d491"},"vehicle_type_id":"4","last_reported":1751635475,"current_range_meters":15200,"station_id":"ce4bhbh2rcd13ifvqeo0","pricing_plan_id":"cebpf4jnsgd1na2vs0mg"},{"bike_id":"6cfbb839-4f13-4141-be5b-c7bdca673a54","system_id":"levelo_inurba_marseille","lat":43.27371,"lon":5.3626,"is_reserved":false,"is_disabled":false,"rental_uris":{"android":"levelo://app?vid=6cfbb839-4f13-4141-be5b-c7bdca673a54","ios":"levelo://app?vid=6cfbb839-4f13-4141-be5b-c7bdca673a54"},"vehicle_type_id":"4","last_reported":1751635475,"current_range_meters":15200,"station_id":"ce4bhbh2rcd13ifvqeo0","pricing_plan_id":"cebpf4jnsgd1na2vs0mg"},{"bike_id":"e6645133-5b2c-4159-9eb9-e536db5cc1c7","system_id":"levelo_inurba_marseille","lat":43.23146,"lon":5.43731,"is_reserved":false,"is_disabled":false,"rental_uris":{"android":"levelo://app?vid=e6645133-5b2c-4159-9eb9-e536db5cc1c7","ios":"levelo://app?vid=e6645133-5b2c-4159-9eb9-e536db5cc1c7"},"vehicle_type_id":"4","last_reported":1751635475,"current_range_meters":15200,"station_id":"ce4bhmp2rcd13ifvqgog","pricing_plan_id":"cebpf4jnsgd1na2vs0mg"},{"bike_id":"a42402a5-acfb-48d9-b763-232c1b0137c8","system_id":"levelo_inurba_marseille","lat":43.33024,"lon":5.3904,"is_reserved":false,"is_disabled":false,"rental_uris":{"android":"levelo://app?vid=a42402a5-acfb-48d9-b763-232c1b0137c8","ios":"levelo://app?vid=a42402a5-acfb-48d9-b763-232c1b0137c8"},"vehicle_type_id":"4","last_reported":1751635475,"current_range_meters":15200,"station_id":"ce4bhr92rcd13ifvqhrg","pricing_plan_id":"cebpf4jnsgd1na2vs0mg"},{"bike_id":"fd5da43c-59db-45ba-b5a9-5a9970c83c95","system_id":"levelo_inurba_marseille","lat":43.32483,"lon":5.36574,"is_reserved":false,"is_disabled":false,"rental_uris":{"android":"levelo://app?vid=fd5da43c-59db-45ba-b5a9-5a9970c83c95","ios":"levelo://app?vid=fd5da43c-59db-45ba-b5a9-5a9970c83c95"},"vehicle_type_id":"4","last_reported":1751635475,"current_range_meters":15200,"station_id":"ce4bhs12rcd13ifvqhvg","pricing_plan_id":"cebpf4jnsgd1na2vs0mg"},{"bike_id":"1c67da18-679e-48e1-9cf2-139aa89edbf2","system_id":"levelo_inurba_marseille","lat":43.292,"lon":5.35809,"is_reserved":false,"is_disabled":false,"rental_uris":{"android":"levelo://app?vid=1c67da18-679e-48e1-9cf2-139aa89edbf2","ios":"levelo://app?vid=1c67da18-679e-48e1-9cf2-139aa89edbf2"},"vehicle_type_id":"4","last_reported":1751635475,"current_range_meters":16000,"station_id":"ce4bhb12rcd13ifvqel0","pricing_plan_id":"cebpf4jnsgd1na2vs0mg"},{"bike_id":"11069914-c649-4cdd-b0cf-b4577e6037a4","system_id":"levelo_inurba_marseille","lat":43.26685,"lon":5.38273,"is_reserved":false,"is_disabled":false,"rental_uris":{"android":"levelo://app?vid=11069914-c649-4cdd-b0cf-b4577e6037a4","ios":"levelo://app?vid=11069914-c649-4cdd-b0cf-b4577e6037a4"},"vehicle_type_id":"4","last_reported":1751635475,"current_range_meters":16000,"station_id":"ce4bhg92rcd13ifvqf90","pricing_plan_id":"cebpf4jnsgd1na2vs0mg"},{"bike_id":"6014d9cc-7d04-4eb1-8cb9-b9e4afc628ee","system_id":"levelo_inurba_marseille","lat":43.24999,"lon":5.38927,"is_reserved":false,"is_disabled":false,"rental_uris":{"android":"levelo://app?vid=6014d9cc-7d04-4eb1-8cb9-b9e4afc628ee","ios":"levelo://app?vid=6014d9cc-7d04-4eb1-8cb9-b9e4afc628ee"},"vehicle_type_id":"4","last_reported":1751635475,"current_range_meters":16000,"station_id":"ce4bhgp2rcd13ifvqfd0","pricing_plan_id":"cebpf4jnsgd1na2vs0mg"},{"bike_id":"094015c2-44e4-40f7-a843-9cd2d9cb1f82","system_id":"levelo_inurba_marseille","lat":43.21753,"lon":5.34601,"is_reserved":false,"is_disabled":false,"rental_uris":{"android":"levelo://app?vid=094015c2-44e4-40f7-a843-9cd2d9cb1f82","ios":"levelo://app?vid=094015c2-44e4-40f7-a843-9cd2d9cb1f82"},"vehicle_type_id":"4","last_reported":1751635475,"current_range_meters":16000,"station_id":"st_cvj6r9ubvosntc0bgbag","pricing_plan_id":"cebpf4jnsgd1na2vs0mg"},{"bike_id":"d2a14eb5-6460-4d16-b424-6a5ca982fa7d","system_id":"levelo_inurba_marseille","lat":43.30348,"lon":5.37884,"is_reserved":false,"is_disabled":false,"rental_uris":{"android":"levelo://app?vid=d2a14eb5-6460-4d16-b424-6a5ca982fa7d","ios":"levelo://app?vid=d2a14eb5-6460-4d16-b424-6a5ca982fa7d"},"vehicle_type_id":"4","last_reported":1751635475,"current_range_meters":16400,"station_id":"","pricing_plan_id":"cebpf4jnsgd1na2vs0mg"},{"bike_id":"4b8da722-ee9e-48a4-a5e5-3a8a10364708","system_id":"levelo_inurba_marseille","lat":43.31226,"lon":5.378112,"is_reserved":false,"is_disabled":false,"rental_uris":{"android":"levelo://app?vid=4b8da722-ee9e-48a4-a5e5-3a8a10364708","ios":"levelo://app?vid=4b8da722-ee9e-48a4-a5e5-3a8a10364708"},"vehicle_type_id":"4","last_reported":1751635475,"current_range_meters":16400,"station_id":"","pricing_plan_id":"cebpf4jnsgd1na2vs0mg"},{"bike_id":"2c8d6737-b89d-408d-8770-af93b507a41f","system_id":"levelo_inurba_marseille","lat":43.30158,"lon":5.40041,"is_reserved":false,"is_disabled":false,"rental_uris":{"android":"levelo://app?vid=2c8d6737-b89d-408d-8770-af93b507a41f","ios":"levelo://app?vid=2c8d6737-b89d-408d-8770-af93b507a41f"},"vehicle_type_id":"4","last_reported":1751635475,"current_range_meters":16400,"station_id":"","pricing_plan_id":"cebpf4jnsgd1na2vs0mg"},{"bike_id":"6d6489e9-c4dc-4dca-acd1-870cc23810f4","system_id":"levelo_inurba_marseille","lat":43.30891,"lon":5.39652,"is_reserved":false,"is_disabled":false,"rental_uris":{"android":"levelo://app?vid=6d6489e9-c4dc-4dca-acd1-870cc23810f4","ios":"levelo://app?vid=6d6489e9-c4dc-4dca-acd1-870cc23810f4"},"vehicle_type_id":"4","last_reported":1751635475,"current_range_meters":16400,"station_id":"ce4bh012rcd13ifvqcv0","pricing_plan_id":"cebpf4jnsgd1na2vs0mg"},{"bike_id":"89a69b49-b1b7-47a2-a4e7-1a1220d92ed9","system_id":"levelo_inurba_marseille","lat":43.27226,"lon":5.39145,"is_reserved":false,"is_disabled":false,"rental_uris":{"android":"levelo://app?vid=89a69b49-b1b7-47a2-a4e7-1a1220d92ed9","ios":"levelo://app?vid=89a69b49-b1b7-47a2-a4e7-1a1220d92ed9"},"vehicle_type_id":"4","last_reported":1751635475,"current_range_meters":16400,"station_id":"ce4bhhp2rcd13ifvqfm0","pricing_plan_id":"cebpf4jnsgd1na2vs0mg"},{"bike_id":"f1d73bc9-174f-4a56-8fc4-c7126868d459","system_id":"levelo_inurba_marseille","lat":43.22944,"lon":5.35384,"is_reserved":false,"is_disabled":false,"rental_uris":{"android":"levelo://app?vid=f1d73bc9-174f-4a56-8fc4-c7126868d459","ios":"levelo://app?vid=f1d73bc9-174f-4a56-8fc4-c7126868d459"},"vehicle_type_id":"4","last_reported":1751635475,"current_range_meters":16400,"station_id":"cpo3532slgdg3j2ikp40","pricing_plan_id":"cebpf4jnsgd1na2vs0mg"},{"bike_id":"1dbf2dec-d3f4-4101-8a67-bbdad55d120e","system_id":"levelo_inurba_marseille","lat":43.29624,"lon":5.37709,"is_reserved":false,"is_disabled":false,"rental_uris":{"android":"levelo://app?vid=1dbf2dec-d3f4-4101-8a67-bbdad55d120e","ios":"levelo://app?vid=1dbf2dec-d3f4-4101-8a67-bbdad55d120e"},"vehicle_type_id":"4","last_reported":1751635475,"current_range_meters":16800,"station_id":"ce4bgi92rcd13ifvqb90","pricing_plan_id":"cebpf4jnsgd1na2vs0mg"},{"bike_id":"1bbe87fa-7751-4499-9c9f-02df3ce5b80c","system_id":"levelo_inurba_marseille","lat":43.250275,"lon":5.389454,"is_reserved":false,"is_disabled":false,"rental_uris":{"android":"levelo://app?vid=1bbe87fa-7751-4499-9c9f-02df3ce5b80c","ios":"levelo://app?vid=1bbe87fa-7751-4499-9c9f-02df3ce5b80c"},"vehicle_type_id":"4","last_reported":1751635475,"current_range_meters":16800,"station_id":"ce4bhgp2rcd13ifvqfd0","pricing_plan_id":"cebpf4jnsgd1na2vs0mg"},{"bike_id":"b0d27917-bd55-46b1-989e-0629c6d1ea78","system_id":"levelo_inurba_marseille","lat":43.28108,"lon":5.37842,"is_reserved":false,"is_disabled":false,"rental_uris":{"android":"levelo://app?vid=b0d27917-bd55-46b1-989e-0629c6d1ea78","ios":"levelo://app?vid=b0d27917-bd55-46b1-989e-0629c6d1ea78"},"vehicle_type_id":"4","last_reported":1751635475,"current_range_meters":17200,"station_id":"ce4bha12rcd13ifvqee0","pricing_plan_id":"cebpf4jnsgd1na2vs0mg"},{"bike_id":"b5974b9b-d052-486b-bcc2-d5893ec0c8f6","system_id":"levelo_inurba_marseille","lat":43.28453,"lon":5.35877,"is_reserved":false,"is_disabled":false,"rental_uris":{"android":"levelo://app?vid=b5974b9b-d052-486b-bcc2-d5893ec0c8f6","ios":"levelo://app?vid=b5974b9b-d052-486b-bcc2-d5893ec0c8f6"},"vehicle_type_id":"4","last_reported":1751635475,"current_range_meters":17200,"station_id":"ce4bhah2rcd13ifvqei0","pricing_plan_id":"cebpf4jnsgd1na2vs0mg"},{"bike_id":"8634c0b9-f6dd-4bc7-82d4-a6a87e50db68","system_id":"levelo_inurba_marseille","lat":43.27371,"lon":5.3625,"is_reserved":false,"is_disabled":false,"rental_uris":{"android":"levelo://app?vid=8634c0b9-f6dd-4bc7-82d4-a6a87e50db68","ios":"levelo://app?vid=8634c0b9-f6dd-4bc7-82d4-a6a87e50db68"},"vehicle_type_id":"4","last_reported":1751635475,"current_range_meters":17200,"station_id":"ce4bhbh2rcd13ifvqeo0","pricing_plan_id":"cebpf4jnsgd1na2vs0mg"},{"bike_id":"9ffdf7c0-c979-4d06-81e2-693b06026120","system_id":"levelo_inurba_marseille","lat":43.24172,"lon":5.36406,"is_reserved":false,"is_disabled":false,"rental_uris":{"android":"levelo://app?vid=9ffdf7c0-c979-4d06-81e2-693b06026120","ios":"levelo://app?vid=9ffdf7c0-c979-4d06-81e2-693b06026120"},"vehicle_type_id":"4","last_reported":1751635475,"current_range_meters":17200,"station_id":"cpo36qri1sfpv3e86is0","pricing_plan_id":"cebpf4jnsgd1na2vs0mg"},{"bike_id":"3847022a-5187-4521-af78-80f88fe96595","system_id":"levelo_inurba_marseille","lat":43.21193,"lon":5.35067,"is_reserved":false,"is_disabled":false,"rental_uris":{"android":"levelo://app?vid=3847022a-5187-4521-af78-80f88fe96595","ios":"levelo://app?vid=3847022a-5187-4521-af78-80f88fe96595"},"vehicle_type_id":"4","last_reported":1751635475,"current_range_meters":17200,"station_id":"st_cvj6sg6p6f1abm77japg","pricing_plan_id":"cebpf4jnsgd1na2vs0mg"},{"bike_id":"6993f544-256b-429b-81b6-d0b049a9b379","system_id":"levelo_inurba_marseille","lat":43.30431,"lon":5.38894,"is_reserved":false,"is_disabled":false,"rental_uris":{"android":"levelo://app?vid=6993f544-256b-429b-81b6-d0b049a9b379","ios":"levelo://app?vid=6993f544-256b-429b-81b6-d0b049a9b379"},"vehicle_type_id":"4","last_reported":1751635475,"current_range_meters":17600,"station_id":"ce4bgk12rcd13ifvqbi0","pricing_plan_id":"cebpf4jnsgd1na2vs0mg"},{"bike_id":"efa94d0d-e05e-46f2-9013-03372cc0a862","system_id":"levelo_inurba_marseille","lat":43.29034,"lon":5.38656,"is_reserved":false,"is_disabled":false,"rental_uris":{"android":"levelo://app?vid=efa94d0d-e05e-46f2-9013-03372cc0a862","ios":"levelo://app?vid=efa94d0d-e05e-46f2-9013-03372cc0a862"},"vehicle_type_id":"4","last_reported":1751635475,"current_range_meters":17600,"station_id":"ce4bh4p2rcd13ifvqe0g","pricing_plan_id":"cebpf4jnsgd1na2vs0mg"},{"bike_id":"0c4ec926-e630-4a42-9b6c-8dbb877ef411","system_id":"levelo_inurba_marseille","lat":43.29181,"lon":5.3715,"is_reserved":false,"is_disabled":false,"rental_uris":{"android":"levelo://app?vid=0c4ec926-e630-4a42-9b6c-8dbb877ef411","ios":"levelo://app?vid=0c4ec926-e630-4a42-9b6c-8dbb877ef411"},"vehicle_type_id":"4","last_reported":1751635475,"current_range_meters":17600,"station_id":"ce4bha92rcd13ifvqeh0","pricing_plan_id":"cebpf4jnsgd1na2vs0mg"},{"bike_id":"c98bcc32-67a5-4d41-ba8f-65ca727974ef","system_id":"levelo_inurba_marseille","lat":43.33021,"lon":5.39037,"is_reserved":false,"is_disabled":false,"rental_uris":{"android":"levelo://app?vid=c98bcc32-67a5-4d41-ba8f-65ca727974ef","ios":"levelo://app?vid=c98bcc32-67a5-4d41-ba8f-65ca727974ef"},"vehicle_type_id":"4","last_reported":1751635475,"current_range_meters":17600,"station_id":"ce4bhr92rcd13ifvqhrg","pricing_plan_id":"cebpf4jnsgd1na2vs0mg"},{"bike_id":"eab3e33a-5b54-4910-870d-76cdcaea7e3b","system_id":"levelo_inurba_marseille","lat":43.29861,"lon":5.3974,"is_reserved":false,"is_disabled":false,"rental_uris":{"android":"levelo://app?vid=eab3e33a-5b54-4910-870d-76cdcaea7e3b","ios":"levelo://app?vid=eab3e33a-5b54-4910-870d-76cdcaea7e3b"},"vehicle_type_id":"4","last_reported":1751635475,"current_range_meters":18000,"station_id":"ce4bh0h2rcd13ifvqd50","pricing_plan_id":"cebpf4jnsgd1na2vs0mg"},{"bike_id":"9ab92b5b-1b30-4769-a7e4-fb6abe4fea88","system_id":"levelo_inurba_marseille","lat":43.29871,"lon":5.39733,"is_reserved":false,"is_disabled":false,"rental_uris":{"android":"levelo://app?vid=9ab92b5b-1b30-4769-a7e4-fb6abe4fea88","ios":"levelo://app?vid=9ab92b5b-1b30-4769-a7e4-fb6abe4fea88"},"vehicle_type_id":"4","last_reported":1751635475,"current_range_meters":18000,"station_id":"ce4bh0h2rcd13ifvqd50","pricing_plan_id":"cebpf4jnsgd1na2vs0mg"},{"bike_id":"919f29a7-7425-47a6-a2cd-f571472a0c89","system_id":"levelo_inurba_marseille","lat":43.28696,"lon":5.37393,"is_reserved":false,"is_disabled":false,"rental_uris":{"android":"levelo://app?vid=919f29a7-7425-47a6-a2cd-f571472a0c89","ios":"levelo://app?vid=919f29a7-7425-47a6-a2cd-f571472a0c89"},"vehicle_type_id":"4","last_reported":1751635475,"current_range_meters":18000,"station_id":"ce4bh3p2rcd13ifvqdq0","pricing_plan_id":"cebpf4jnsgd1na2vs0mg"},{"bike_id":"f64a49af-a02b-433f-a87a-09fb2e3c4d3b","system_id":"levelo_inurba_marseille","lat":43.286566,"lon":5.386691,"is_reserved":false,"is_disabled":false,"rental_uris":{"android":"levelo://app?vid=f64a49af-a02b-433f-a87a-09fb2e3c4d3b","ios":"levelo://app?vid=f64a49af-a02b-433f-a87a-09fb2e3c4d3b"},"vehicle_type_id":"4","last_reported":1751635475,"current_range_meters":18000,"station_id":"ce4bh492rcd13ifvqdug","pricing_plan_id":"cebpf4jnsgd1na2vs0mg"},{"bike_id":"730e960e-96ab-4c94-be93-70594bca5841","system_id":"levelo_inurba_marseille","lat":43.273745,"lon":5.362605,"is_reserved":false,"is_disabled":false,"rental_uris":{"android":"levelo://app?vid=730e960e-96ab-4c94-be93-70594bca5841","ios":"levelo://app?vid=730e960e-96ab-4c94-be93-70594bca5841"},"vehicle_type_id":"4","last_reported":1751635475,"current_range_meters":18000,"station_id":"ce4bhbh2rcd13ifvqeo0","pricing_plan_id":"cebpf4jnsgd1na2vs0mg"},{"bike_id":"ed6f69ea-9835-42fc-8d3b-580aa0b450fa","system_id":"levelo_inurba_marseille","lat":43.28263,"lon":5.35074,"is_reserved":false,"is_disabled":false,"rental_uris":{"android":"levelo://app?vid=ed6f69ea-9835-42fc-8d3b-580aa0b450fa","ios":"levelo://app?vid=ed6f69ea-9835-42fc-8d3b-580aa0b450fa"},"vehicle_type_id":"4","last_reported":1751635475,"current_range_meters":18000,"station_id":"ce4bhbp2rcd13ifvqerg","pricing_plan_id":"cebpf4jnsgd1na2vs0mg"},{"bike_id":"025720f9-bc1f-4e99-a9ec-835ca1dc2da8","system_id":"levelo_inurba_marseille","lat":43.28135,"lon":5.4265,"is_reserved":false,"is_disabled":false,"rental_uris":{"android":"levelo://app?vid=025720f9-bc1f-4e99-a9ec-835ca1dc2da8","ios":"levelo://app?vid=025720f9-bc1f-4e99-a9ec-835ca1dc2da8"},"vehicle_type_id":"4","last_reported":1751635475,"current_range_meters":18000,"station_id":"ce4bhnh2rcd13ifvqgug","pricing_plan_id":"cebpf4jnsgd1na2vs0mg"},{"bike_id":"5f470112-8139-4343-b082-08a74e0b7074","system_id":"levelo_inurba_marseille","lat":43.21186,"lon":5.35068,"is_reserved":false,"is_disabled":false,"rental_uris":{"android":"levelo://app?vid=5f470112-8139-4343-b082-08a74e0b7074","ios":"levelo://app?vid=5f470112-8139-4343-b082-08a74e0b7074"},"vehicle_type_id":"4","last_reported":1751635475,"current_range_meters":18000,"station_id":"st_cvj6sg6p6f1abm77japg","pricing_plan_id":"cebpf4jnsgd1na2vs0mg"},{"bike_id":"7ed4a6c4-4ab3-4ed2-a30a-e21462463644","system_id":"levelo_inurba_marseille","lat":43.2929,"lon":5.37972,"is_reserved":false,"is_disabled":false,"rental_uris":{"android":"levelo://app?vid=7ed4a6c4-4ab3-4ed2-a30a-e21462463644","ios":"levelo://app?vid=7ed4a6c4-4ab3-4ed2-a30a-e21462463644"},"vehicle_type_id":"4","last_reported":1751635475,"current_range_meters":18800,"station_id":"","pricing_plan_id":"cebpf4jnsgd1na2vs0mg"},{"bike_id":"84ba8979-49d8-41a3-99bf-a74bf1ed4102","system_id":"levelo_inurba_marseille","lat":43.30147,"lon":5.38079,"is_reserved":false,"is_disabled":false,"rental_uris":{"android":"levelo://app?vid=84ba8979-49d8-41a3-99bf-a74bf1ed4102","ios":"levelo://app?vid=84ba8979-49d8-41a3-99bf-a74bf1ed4102"},"vehicle_type_id":"4","last_reported":1751635475,"current_range_meters":18800,"station_id":"ce4bgjp2rcd13ifvqbh0","pricing_plan_id":"cebpf4jnsgd1na2vs0mg"},{"bike_id":"d3d801e2-d666-427e-a75b-41dbd8d3dac8","system_id":"levelo_inurba_marseille","lat":43.29521,"lon":5.39391,"is_reserved":false,"is_disabled":false,"rental_uris":{"android":"levelo://app?vid=d3d801e2-d666-427e-a75b-41dbd8d3dac8","ios":"levelo://app?vid=d3d801e2-d666-427e-a75b-41dbd8d3dac8"},"vehicle_type_id":"4","last_reported":1751635475,"current_range_meters":18800,"station_id":"ce4bh292rcd13ifvqdf0","pricing_plan_id":"cebpf4jnsgd1na2vs0mg"},{"bike_id":"552bcf28-72f1-4f10-b8f6-f0512fe0cc4b","system_id":"levelo_inurba_marseille","lat":43.27373,"lon":5.36252,"is_reserved":false,"is_disabled":false,"rental_uris":{"android":"levelo://app?vid=552bcf28-72f1-4f10-b8f6-f0512fe0cc4b","ios":"levelo://app?vid=552bcf28-72f1-4f10-b8f6-f0512fe0cc4b"},"vehicle_type_id":"4","last_reported":1751635475,"current_range_meters":18800,"station_id":"ce4bhbh2rcd13ifvqeo0","pricing_plan_id":"cebpf4jnsgd1na2vs0mg"},{"bike_id":"c7092f0b-5feb-4abf-9b09-9a4bbc4acbdb","system_id":"levelo_inurba_marseille","lat":43.28275,"lon":5.35072,"is_reserved":false,"is_disabled":false,"rental_uris":{"android":"levelo://app?vid=c7092f0b-5feb-4abf-9b09-9a4bbc4acbdb","ios":"levelo://app?vid=c7092f0b-5feb-4abf-9b09-9a4bbc4acbdb"},"vehicle_type_id":"4","last_reported":1751635475,"current_range_meters":18800,"station_id":"ce4bhbp2rcd13ifvqerg","pricing_plan_id":"cebpf4jnsgd1na2vs0mg"},{"bike_id":"adb06d5d-e27d-4fd7-bf82-4e1d1cba2ff7","system_id":"levelo_inurba_marseille","lat":43.25921,"lon":5.40898,"is_reserved":false,"is_disabled":false,"rental_uris":{"android":"levelo://app?vid=adb06d5d-e27d-4fd7-bf82-4e1d1cba2ff7","ios":"levelo://app?vid=adb06d5d-e27d-4fd7-bf82-4e1d1cba2ff7"},"vehicle_type_id":"4","last_reported":1751635475,"current_range_meters":18800,"station_id":"ce4bhm92rcd13ifvqglg","pricing_plan_id":"cebpf4jnsgd1na2vs0mg"},{"bike_id":"0f7e77e2-8bad-46d1-8d81-11b86051aefa","system_id":"levelo_inurba_marseille","lat":43.23159,"lon":5.43707,"is_reserved":false,"is_disabled":false,"rental_uris":{"android":"levelo://app?vid=0f7e77e2-8bad-46d1-8d81-11b86051aefa","ios":"levelo://app?vid=0f7e77e2-8bad-46d1-8d81-11b86051aefa"},"vehicle_type_id":"4","last_reported":1751635475,"current_range_meters":18800,"station_id":"ce4bhmp2rcd13ifvqgog","pricing_plan_id":"cebpf4jnsgd1na2vs0mg"},{"bike_id":"6f482fdc-5592-422e-aa8e-7c66cf9e3791","system_id":"levelo_inurba_marseille","lat":43.232,"lon":5.35548,"is_reserved":false,"is_disabled":false,"rental_uris":{"android":"levelo://app?vid=6f482fdc-5592-422e-aa8e-7c66cf9e3791","ios":"levelo://app?vid=6f482fdc-5592-422e-aa8e-7c66cf9e3791"},"vehicle_type_id":"4","last_reported":1751635475,"current_range_meters":18800,"station_id":"ce4bhu92rcd13ifvqi70","pricing_plan_id":"cebpf4jnsgd1na2vs0mg"},{"bike_id":"d5467415-be19-4598-b2a8-d393a9144be1","system_id":"levelo_inurba_marseille","lat":43.21175,"lon":5.35094,"is_reserved":false,"is_disabled":false,"rental_uris":{"android":"levelo://app?vid=d5467415-be19-4598-b2a8-d393a9144be1","ios":"levelo://app?vid=d5467415-be19-4598-b2a8-d393a9144be1"},"vehicle_type_id":"4","last_reported":1751635475,"current_range_meters":18800,"station_id":"st_cvj6sg6p6f1abm77japg","pricing_plan_id":"cebpf4jnsgd1na2vs0mg"},{"bike_id":"25d65b54-2483-49ad-9e8c-b4102ded682f","system_id":"levelo_inurba_marseille","lat":43.211971,"lon":5.351067,"is_reserved":false,"is_disabled":false,"rental_uris":{"android":"levelo://app?vid=25d65b54-2483-49ad-9e8c-b4102ded682f","ios":"levelo://app?vid=25d65b54-2483-49ad-9e8c-b4102ded682f"},"vehicle_type_id":"4","last_reported":1751635475,"current_range_meters":18800,"station_id":"st_cvj6sg6p6f1abm77japg","pricing_plan_id":"cebpf4jnsgd1na2vs0mg"},{"bike_id":"e9a55282-ace0-4206-b787-2b7e3e8d52ce","system_id":"levelo_inurba_marseille","lat":43.305404,"lon":5.365647,"is_reserved":false,"is_disabled":false,"rental_uris":{"android":"levelo://app?vid=e9a55282-ace0-4206-b787-2b7e3e8d52ce","ios":"levelo://app?vid=e9a55282-ace0-4206-b787-2b7e3e8d52ce"},"vehicle_type_id":"4","last_reported":1751635475,"current_range_meters":19200,"station_id":"","pricing_plan_id":"cebpf4jnsgd1na2vs0mg"},{"bike_id":"beac5559-757d-4593-88f5-3c74aa4ac62b","system_id":"levelo_inurba_marseille","lat":43.293701,"lon":5.378413,"is_reserved":false,"is_disabled":false,"rental_uris":{"android":"levelo://app?vid=beac5559-757d-4593-88f5-3c74aa4ac62b","ios":"levelo://app?vid=beac5559-757d-4593-88f5-3c74aa4ac62b"},"vehicle_type_id":"4","last_reported":1751635475,"current_range_meters":19200,"station_id":"ce4bgjh2rcd13ifvqbf0","pricing_plan_id":"cebpf4jnsgd1na2vs0mg"},{"bike_id":"1036f3b5-5954-48a3-93e5-d291f1ca0c73","system_id":"levelo_inurba_marseille","lat":43.29519,"lon":5.37547,"is_reserved":false,"is_disabled":false,"rental_uris":{"android":"levelo://app?vid=1036f3b5-5954-48a3-93e5-d291f1ca0c73","ios":"levelo://app?vid=1036f3b5-5954-48a3-93e5-d291f1ca0c73"},"vehicle_type_id":"4","last_reported":1751635475,"current_range_meters":19200,"station_id":"ce4bgkp2rcd13ifvqbmg","pricing_plan_id":"cebpf4jnsgd1na2vs0mg"},{"bike_id":"77b09567-0e3e-4d4c-8b17-ab14af73d077","system_id":"levelo_inurba_marseille","lat":43.3032,"lon":5.4043,"is_reserved":false,"is_disabled":false,"rental_uris":{"android":"levelo://app?vid=77b09567-0e3e-4d4c-8b17-ab14af73d077","ios":"levelo://app?vid=77b09567-0e3e-4d4c-8b17-ab14af73d077"},"vehicle_type_id":"4","last_reported":1751635475,"current_range_meters":19200,"station_id":"ce4bh012rcd13ifvqd10","pricing_plan_id":"cebpf4jnsgd1na2vs0mg"},{"bike_id":"25ad9e2c-3c4c-4828-b236-9ecbced28485","system_id":"levelo_inurba_marseille","lat":43.27381,"lon":5.36257,"is_reserved":false,"is_disabled":false,"rental_uris":{"android":"levelo://app?vid=25ad9e2c-3c4c-4828-b236-9ecbced28485","ios":"levelo://app?vid=25ad9e2c-3c4c-4828-b236-9ecbced28485"},"vehicle_type_id":"4","last_reported":1751635475,"current_range_meters":19200,"station_id":"ce4bhbh2rcd13ifvqeo0","pricing_plan_id":"cebpf4jnsgd1na2vs0mg"},{"bike_id":"b49c01e0-8ee3-4fdf-9036-50fac903dae3","system_id":"levelo_inurba_marseille","lat":43.26554,"lon":5.37278,"is_reserved":false,"is_disabled":false,"rental_uris":{"android":"levelo://app?vid=b49c01e0-8ee3-4fdf-9036-50fac903dae3","ios":"levelo://app?vid=b49c01e0-8ee3-4fdf-9036-50fac903dae3"},"vehicle_type_id":"4","last_reported":1751635475,"current_range_meters":19200,"station_id":"ce4bhg12rcd13ifvqf70","pricing_plan_id":"cebpf4jnsgd1na2vs0mg"},{"bike_id":"26d9be62-d17d-4ed8-85f2-e8f3eec97258","system_id":"levelo_inurba_marseille","lat":43.32658,"lon":5.40988,"is_reserved":false,"is_disabled":false,"rental_uris":{"android":"levelo://app?vid=26d9be62-d17d-4ed8-85f2-e8f3eec97258","ios":"levelo://app?vid=26d9be62-d17d-4ed8-85f2-e8f3eec97258"},"vehicle_type_id":"4","last_reported":1751635475,"current_range_meters":19200,"station_id":"ce4bhpp2rcd13ifvqhgg","pricing_plan_id":"cebpf4jnsgd1na2vs0mg"},{"bike_id":"b8a071c1-ada9-4c0d-a7f3-fe686d646cdf","system_id":"levelo_inurba_marseille","lat":43.217452,"lon":5.346025,"is_reserved":false,"is_disabled":false,"rental_uris":{"android":"levelo://app?vid=b8a071c1-ada9-4c0d-a7f3-fe686d646cdf","ios":"levelo://app?vid=b8a071c1-ada9-4c0d-a7f3-fe686d646cdf"},"vehicle_type_id":"4","last_reported":1751635475,"current_range_meters":19200,"station_id":"st_cvj6r9ubvosntc0bgbag","pricing_plan_id":"cebpf4jnsgd1na2vs0mg"},{"bike_id":"8501c7f1-4540-433a-9226-9677bd87b71a","system_id":"levelo_inurba_marseille","lat":43.2119,"lon":5.35074,"is_reserved":false,"is_disabled":false,"rental_uris":{"android":"levelo://app?vid=8501c7f1-4540-433a-9226-9677bd87b71a","ios":"levelo://app?vid=8501c7f1-4540-433a-9226-9677bd87b71a"},"vehicle_type_id":"4","last_reported":1751635475,"current_range_meters":19200,"station_id":"st_cvj6sg6p6f1abm77japg","pricing_plan_id":"cebpf4jnsgd1na2vs0mg"},{"bike_id":"134a6fd1-cb8b-4ade-a0c2-0b22bf7dca76","system_id":"levelo_inurba_marseille","lat":43.21196,"lon":5.35075,"is_reserved":false,"is_disabled":false,"rental_uris":{"android":"levelo://app?vid=134a6fd1-cb8b-4ade-a0c2-0b22bf7dca76","ios":"levelo://app?vid=134a6fd1-cb8b-4ade-a0c2-0b22bf7dca76"},"vehicle_type_id":"4","last_reported":1751635475,"current_range_meters":19200,"station_id":"st_cvj6sg6p6f1abm77japg","pricing_plan_id":"cebpf4jnsgd1na2vs0mg"},{"bike_id":"0e95c039-e344-4ef2-8ae3-2271111801b3","system_id":"levelo_inurba_marseille","lat":43.229271,"lon":5.353776,"is_reserved":false,"is_disabled":false,"rental_uris":{"android":"levelo://app?vid=0e95c039-e344-4ef2-8ae3-2271111801b3","ios":"levelo://app?vid=0e95c039-e344-4ef2-8ae3-2271111801b3"},"vehicle_type_id":"4","last_reported":1751635475,"current_range_meters":19600,"station_id":"","pricing_plan_id":"cebpf4jnsgd1na2vs0mg"},{"bike_id":"adf1d38d-1f03-40cf-9b57-0a8f15f62b2d","system_id":"levelo_inurba_marseille","lat":43.32965,"lon":5.36395,"is_reserved":false,"is_disabled":false,"rental_uris":{"android":"levelo://app?vid=adf1d38d-1f03-40cf-9b57-0a8f15f62b2d","ios":"levelo://app?vid=adf1d38d-1f03-40cf-9b57-0a8f15f62b2d"},"vehicle_type_id":"4","last_reported":1751635475,"current_range_meters":19600,"station_id":"","pricing_plan_id":"cebpf4jnsgd1na2vs0mg"},{"bike_id":"429f1847-fbbb-412c-9a32-5c7f7843adc5","system_id":"levelo_inurba_marseille","lat":43.29576,"lon":5.37513,"is_reserved":false,"is_disabled":false,"rental_uris":{"android":"levelo://app?vid=429f1847-fbbb-412c-9a32-5c7f7843adc5","ios":"levelo://app?vid=429f1847-fbbb-412c-9a32-5c7f7843adc5"},"vehicle_type_id":"4","last_reported":1751635475,"current_range_meters":19600,"station_id":"ce4bgh92rcd13ifvqb50","pricing_plan_id":"cebpf4jnsgd1na2vs0mg"},{"bike_id":"9ce4c23d-80d6-4d46-93bf-9799e8730d6f","system_id":"levelo_inurba_marseille","lat":43.304302,"lon":5.378678,"is_reserved":false,"is_disabled":false,"rental_uris":{"android":"levelo://app?vid=9ce4c23d-80d6-4d46-93bf-9799e8730d6f","ios":"levelo://app?vid=9ce4c23d-80d6-4d46-93bf-9799e8730d6f"},"vehicle_type_id":"4","last_reported":1751635475,"current_range_meters":19600,"station_id":"ce4bgt92rcd13ifvqcf0","pricing_plan_id":"cebpf4jnsgd1na2vs0mg"},{"bike_id":"39a359e9-c2ba-43dc-8897-db923128eb22","system_id":"levelo_inurba_marseille","lat":43.3152,"lon":5.39087,"is_reserved":false,"is_disabled":false,"rental_uris":{"android":"levelo://app?vid=39a359e9-c2ba-43dc-8897-db923128eb22","ios":"levelo://app?vid=39a359e9-c2ba-43dc-8897-db923128eb22"},"vehicle_type_id":"4","last_reported":1751635475,"current_range_meters":19600,"station_id":"ce4bgvp2rcd13ifvqcu0","pricing_plan_id":"cebpf4jnsgd1na2vs0mg"},{"bike_id":"e6f5b10a-f2b7-44bc-88d3-8d846dc2bc1e","system_id":"levelo_inurba_marseille","lat":43.25008,"lon":5.38922,"is_reserved":false,"is_disabled":false,"rental_uris":{"android":"levelo://app?vid=e6f5b10a-f2b7-44bc-88d3-8d846dc2bc1e","ios":"levelo://app?vid=e6f5b10a-f2b7-44bc-88d3-8d846dc2bc1e"},"vehicle_type_id":"4","last_reported":1751635475,"current_range_meters":19600,"station_id":"ce4bhgp2rcd13ifvqfd0","pricing_plan_id":"cebpf4jnsgd1na2vs0mg"},{"bike_id":"fe8ee84c-fdfc-40aa-a1c2-6e36409c0740","system_id":"levelo_inurba_marseille","lat":43.26796,"lon":5.39057,"is_reserved":false,"is_disabled":false,"rental_uris":{"android":"levelo://app?vid=fe8ee84c-fdfc-40aa-a1c2-6e36409c0740","ios":"levelo://app?vid=fe8ee84c-fdfc-40aa-a1c2-6e36409c0740"},"vehicle_type_id":"4","last_reported":1751635475,"current_range_meters":20000,"station_id":"","pricing_plan_id":"cebpf4jnsgd1na2vs0mg"},{"bike_id":"7edfae6b-e91d-44bd-8a7c-e31f5254c0e1","system_id":"levelo_inurba_marseille","lat":43.2573,"lon":5.41107,"is_reserved":false,"is_disabled":false,"rental_uris":{"android":"levelo://app?vid=7edfae6b-e91d-44bd-8a7c-e31f5254c0e1","ios":"levelo://app?vid=7edfae6b-e91d-44bd-8a7c-e31f5254c0e1"},"vehicle_type_id":"4","last_reported":1751635475,"current_range_meters":20000,"station_id":"","pricing_plan_id":"cebpf4jnsgd1na2vs0mg"},{"bike_id":"c8a104fe-a36a-4bb4-86dc-0e904f8cfb93","system_id":"levelo_inurba_marseille","lat":43.29619,"lon":5.37715,"is_reserved":false,"is_disabled":false,"rental_uris":{"android":"levelo://app?vid=c8a104fe-a36a-4bb4-86dc-0e904f8cfb93","ios":"levelo://app?vid=c8a104fe-a36a-4bb4-86dc-0e904f8cfb93"},"vehicle_type_id":"4","last_reported":1751635475,"current_range_meters":20000,"station_id":"ce4bgi92rcd13ifvqb90","pricing_plan_id":"cebpf4jnsgd1na2vs0mg"},{"bike_id":"fcde7ec1-c822-490b-b66f-c815c08d7815","system_id":"levelo_inurba_marseille","lat":43.31349,"lon":5.39723,"is_reserved":false,"is_disabled":false,"rental_uris":{"android":"levelo://app?vid=fcde7ec1-c822-490b-b66f-c815c08d7815","ios":"levelo://app?vid=fcde7ec1-c822-490b-b66f-c815c08d7815"},"vehicle_type_id":"4","last_reported":1751635475,"current_range_meters":20000,"station_id":"ce4bgvp2rcd13ifvqcu0","pricing_plan_id":"cebpf4jnsgd1na2vs0mg"},{"bike_id":"0af28f87-29b0-4d2a-b08e-0146c42ab545","system_id":"levelo_inurba_marseille","lat":43.28409,"lon":5.37524,"is_reserved":false,"is_disabled":false,"rental_uris":{"android":"levelo://app?vid=0af28f87-29b0-4d2a-b08e-0146c42ab545","ios":"levelo://app?vid=0af28f87-29b0-4d2a-b08e-0146c42ab545"},"vehicle_type_id":"4","last_reported":1751635475,"current_range_meters":20000,"station_id":"ce4bh412rcd13ifvqds0","pricing_plan_id":"cebpf4jnsgd1na2vs0mg"},{"bike_id":"d79582d6-f852-42e4-b0e4-8e8e52185a45","system_id":"levelo_inurba_marseille","lat":43.28617,"lon":5.35104,"is_reserved":false,"is_disabled":false,"rental_uris":{"android":"levelo://app?vid=d79582d6-f852-42e4-b0e4-8e8e52185a45","ios":"levelo://app?vid=d79582d6-f852-42e4-b0e4-8e8e52185a45"},"vehicle_type_id":"4","last_reported":1751635475,"current_range_meters":20000,"station_id":"ce4bhch2rcd13ifvqeug","pricing_plan_id":"cebpf4jnsgd1na2vs0mg"},{"bike_id":"3ee2e7d3-c08e-45f9-8d9c-59cbe848e0ca","system_id":"levelo_inurba_marseille","lat":43.231583,"lon":5.437125,"is_reserved":false,"is_disabled":false,"rental_uris":{"android":"levelo://app?vid=3ee2e7d3-c08e-45f9-8d9c-59cbe848e0ca","ios":"levelo://app?vid=3ee2e7d3-c08e-45f9-8d9c-59cbe848e0ca"},"vehicle_type_id":"4","last_reported":1751635475,"current_range_meters":20000,"station_id":"ce4bhmp2rcd13ifvqgog","pricing_plan_id":"cebpf4jnsgd1na2vs0mg"},{"bike_id":"6e26f4e1-af6b-4e02-81c4-dc9cceafebd5","system_id":"levelo_inurba_marseille","lat":43.30364,"lon":5.42495,"is_reserved":false,"is_disabled":false,"rental_uris":{"android":"levelo://app?vid=6e26f4e1-af6b-4e02-81c4-dc9cceafebd5","ios":"levelo://app?vid=6e26f4e1-af6b-4e02-81c4-dc9cceafebd5"},"vehicle_type_id":"4","last_reported":1751635475,"current_range_meters":20000,"station_id":"ce4bhoh2rcd13ifvqh6g","pricing_plan_id":"cebpf4jnsgd1na2vs0mg"},{"bike_id":"c642cc8d-de5f-4408-b464-3a365aae4318","system_id":"levelo_inurba_marseille","lat":43.317531,"lon":5.390089,"is_reserved":false,"is_disabled":false,"rental_uris":{"android":"levelo://app?vid=c642cc8d-de5f-4408-b464-3a365aae4318","ios":"levelo://app?vid=c642cc8d-de5f-4408-b464-3a365aae4318"},"vehicle_type_id":"4","last_reported":1751635475,"current_range_meters":20000,"station_id":"ce4bhqp2rcd13ifvqhng","pricing_plan_id":"cebpf4jnsgd1na2vs0mg"},{"bike_id":"d5ef770d-9759-47e3-b3a5-7d2785ef76db","system_id":"levelo_inurba_marseille","lat":43.330266,"lon":5.390409,"is_reserved":false,"is_disabled":false,"rental_uris":{"android":"levelo://app?vid=d5ef770d-9759-47e3-b3a5-7d2785ef76db","ios":"levelo://app?vid=d5ef770d-9759-47e3-b3a5-7d2785ef76db"},"vehicle_type_id":"4","last_reported":1751635475,"current_range_meters":20000,"station_id":"ce4bhr92rcd13ifvqhrg","pricing_plan_id":"cebpf4jnsgd1na2vs0mg"},{"bike_id":"4532d549-52ec-4bce-abf6-43b968a0c607","system_id":"levelo_inurba_marseille","lat":43.2292,"lon":5.35378,"is_reserved":false,"is_disabled":false,"rental_uris":{"android":"levelo://app?vid=4532d549-52ec-4bce-abf6-43b968a0c607","ios":"levelo://app?vid=4532d549-52ec-4bce-abf6-43b968a0c607"},"vehicle_type_id":"4","last_reported":1751635475,"current_range_meters":20000,"station_id":"cpo3532slgdg3j2ikp40","pricing_plan_id":"cebpf4jnsgd1na2vs0mg"},{"bike_id":"03e9eecd-8900-4d4c-95ea-3d4c54b48c17","system_id":"levelo_inurba_marseille","lat":43.3169,"lon":5.40464,"is_reserved":false,"is_disabled":false,"rental_uris":{"android":"levelo://app?vid=03e9eecd-8900-4d4c-95ea-3d4c54b48c17","ios":"levelo://app?vid=03e9eecd-8900-4d4c-95ea-3d4c54b48c17"},"vehicle_type_id":"4","last_reported":1751635475,"current_range_meters":20400,"station_id":"ce4bh012rcd13ifvqd00","pricing_plan_id":"cebpf4jnsgd1na2vs0mg"},{"bike_id":"c7d181d4-5f63-40b6-a246-171ead9cb40c","system_id":"levelo_inurba_marseille","lat":43.28481,"lon":5.38585,"is_reserved":false,"is_disabled":false,"rental_uris":{"android":"levelo://app?vid=c7d181d4-5f63-40b6-a246-171ead9cb40c","ios":"levelo://app?vid=c7d181d4-5f63-40b6-a246-171ead9cb40c"},"vehicle_type_id":"4","last_reported":1751635475,"current_range_meters":20400,"station_id":"ce4bh8p2rcd13ifvqeb0","pricing_plan_id":"cebpf4jnsgd1na2vs0mg"},{"bike_id":"59266369-1638-4bdc-8831-8637640335a0","system_id":"levelo_inurba_marseille","lat":43.259788,"lon":5.375721,"is_reserved":false,"is_disabled":false,"rental_uris":{"android":"levelo://app?vid=59266369-1638-4bdc-8831-8637640335a0","ios":"levelo://app?vid=59266369-1638-4bdc-8831-8637640335a0"},"vehicle_type_id":"4","last_reported":1751635475,"current_range_meters":20400,"station_id":"ce4bhgh2rcd13ifvqfa0","pricing_plan_id":"cebpf4jnsgd1na2vs0mg"},{"bike_id":"bf24b26e-7f51-4120-9a48-54c87edaa2f7","system_id":"levelo_inurba_marseille","lat":43.2119,"lon":5.35077,"is_reserved":false,"is_disabled":false,"rental_uris":{"android":"levelo://app?vid=bf24b26e-7f51-4120-9a48-54c87edaa2f7","ios":"levelo://app?vid=bf24b26e-7f51-4120-9a48-54c87edaa2f7"},"vehicle_type_id":"4","last_reported":1751635475,"current_range_meters":20400,"station_id":"st_cvj6sg6p6f1abm77japg","pricing_plan_id":"cebpf4jnsgd1na2vs0mg"},{"bike_id":"5b5ca915-19f5-4c5c-ba88-71fe4a9869eb","system_id":"levelo_inurba_marseille","lat":43.31703,"lon":5.37772,"is_reserved":false,"is_disabled":false,"rental_uris":{"android":"levelo://app?vid=5b5ca915-19f5-4c5c-ba88-71fe4a9869eb","ios":"levelo://app?vid=5b5ca915-19f5-4c5c-ba88-71fe4a9869eb"},"vehicle_type_id":"4","last_reported":1751635475,"current_range_meters":20800,"station_id":"ce4bgth2rcd13ifvqch0","pricing_plan_id":"cebpf4jnsgd1na2vs0mg"},{"bike_id":"22c1b304-ab54-4fca-b192-d3e3f5aad0ea","system_id":"levelo_inurba_marseille","lat":43.28711,"lon":5.39991,"is_reserved":false,"is_disabled":false,"rental_uris":{"android":"levelo://app?vid=22c1b304-ab54-4fca-b192-d3e3f5aad0ea","ios":"levelo://app?vid=22c1b304-ab54-4fca-b192-d3e3f5aad0ea"},"vehicle_type_id":"4","last_reported":1751635475,"current_range_meters":20800,"station_id":"ce4bho92rcd13ifvqh3g","pricing_plan_id":"cebpf4jnsgd1na2vs0mg"},{"bike_id":"cfd19137-824c-4f6f-9b45-6e2d090740d9","system_id":"levelo_inurba_marseille","lat":43.29801,"lon":5.40399,"is_reserved":false,"is_disabled":false,"rental_uris":{"android":"levelo://app?vid=cfd19137-824c-4f6f-9b45-6e2d090740d9","ios":"levelo://app?vid=cfd19137-824c-4f6f-9b45-6e2d090740d9"},"vehicle_type_id":"4","last_reported":1751635475,"current_range_meters":21600,"station_id":"ce4bh112rcd13ifvqd90","pricing_plan_id":"cebpf4jnsgd1na2vs0mg"},{"bike_id":"7bba8a3e-5b56-4797-a43e-860cbf4b2360","system_id":"levelo_inurba_marseille","lat":43.27378,"lon":5.36266,"is_reserved":false,"is_disabled":false,"rental_uris":{"android":"levelo://app?vid=7bba8a3e-5b56-4797-a43e-860cbf4b2360","ios":"levelo://app?vid=7bba8a3e-5b56-4797-a43e-860cbf4b2360"},"vehicle_type_id":"4","last_reported":1751635475,"current_range_meters":21600,"station_id":"ce4bhbh2rcd13ifvqeo0","pricing_plan_id":"cebpf4jnsgd1na2vs0mg"},{"bike_id":"a44be9dc-35b4-426a-bd1f-48dcdd852046","system_id":"levelo_inurba_marseille","lat":43.26553,"lon":5.37284,"is_reserved":false,"is_disabled":false,"rental_uris":{"android":"levelo://app?vid=a44be9dc-35b4-426a-bd1f-48dcdd852046","ios":"levelo://app?vid=a44be9dc-35b4-426a-bd1f-48dcdd852046"},"vehicle_type_id":"4","last_reported":1751635475,"current_range_meters":21600,"station_id":"ce4bhg12rcd13ifvqf70","pricing_plan_id":"cebpf4jnsgd1na2vs0mg"},{"bike_id":"5137b89f-b650-4efb-a331-1b1932dc1ca3","system_id":"levelo_inurba_marseille","lat":43.317144,"lon":5.437052,"is_reserved":false,"is_disabled":false,"rental_uris":{"android":"levelo://app?vid=5137b89f-b650-4efb-a331-1b1932dc1ca3","ios":"levelo://app?vid=5137b89f-b650-4efb-a331-1b1932dc1ca3"},"vehicle_type_id":"4","last_reported":1751635475,"current_range_meters":21600,"station_id":"ce4bhp92rcd13ifvqhcg","pricing_plan_id":"cebpf4jnsgd1na2vs0mg"},{"bike_id":"2145d376-4aba-46a1-b195-e1f6ef6f20fa","system_id":"levelo_inurba_marseille","lat":43.23087,"lon":5.35496,"is_reserved":false,"is_disabled":false,"rental_uris":{"android":"levelo://app?vid=2145d376-4aba-46a1-b195-e1f6ef6f20fa","ios":"levelo://app?vid=2145d376-4aba-46a1-b195-e1f6ef6f20fa"},"vehicle_type_id":"4","last_reported":1751635475,"current_range_meters":21600,"station_id":"cpo3342slgdg3j2ifvpg","pricing_plan_id":"cebpf4jnsgd1na2vs0mg"},{"bike_id":"0fd9d38b-6b06-42b6-89ef-9832c4d32a8d","system_id":"levelo_inurba_marseille","lat":43.2306,"lon":5.35522,"is_reserved":false,"is_disabled":false,"rental_uris":{"android":"levelo://app?vid=0fd9d38b-6b06-42b6-89ef-9832c4d32a8d","ios":"levelo://app?vid=0fd9d38b-6b06-42b6-89ef-9832c4d32a8d"},"vehicle_type_id":"4","last_reported":1751635475,"current_range_meters":21600,"station_id":"cpo3342slgdg3j2ifvpg","pricing_plan_id":"cebpf4jnsgd1na2vs0mg"},{"bike_id":"43db69be-ab19-4e7e-af0d-bb078898a8f6","system_id":"levelo_inurba_marseille","lat":43.29011,"lon":5.35895,"is_reserved":false,"is_disabled":false,"rental_uris":{"android":"levelo://app?vid=43db69be-ab19-4e7e-af0d-bb078898a8f6","ios":"levelo://app?vid=43db69be-ab19-4e7e-af0d-bb078898a8f6"},"vehicle_type_id":"4","last_reported":1751635475,"current_range_meters":22000,"station_id":"","pricing_plan_id":"cebpf4jnsgd1na2vs0mg"},