{"last_updated":1701238187,"ttl":30,"version":"2.2","data":{"bikes":[{"bike_id":"673d90de-a2fe-4791-8516-05ed2a9d1784","system_id":"levelo_inurba_marseille","lat":43.309076,"lon":5.368465,"is_reserved":false,"is_disabled":false,"rental_uris":{"android":"levelo://app?vid=673d90de-a2fe-4791-8516-05ed2a9d1784","ios":"levelo://app?vid=673d90de-a2fe-4791-8516-05ed2a9d1784"},"vehicle_type_id":"4","last_reported":1701238187,"current_range_meters":14000,"station_id":"ce4bgn92rcd13ifvqbvg","pricing_plan_id":"free"},{"bike_id":"62cabb95-2e13-44cc-b533-ba3a65f1fa7f","system_id":"levelo_inurba_marseille","lat":43.309039,"lon":5.371797,"is_reserved":false,"is_disabled":false,"rental_uris":{"android":"levelo://app?vid=62cabb95-2e13-44cc-b533-ba3a65f1fa7f","ios":"levelo://app?vid=62cabb95-2e13-44cc-b533-ba3a65f1fa7f"},"vehicle_type_id":"4","last_reported":1701238187,"current_range_meters":21600,"station_id":"ce4bguh2rcd13ifvqckg","pricing_plan_id":"free"},{"bike_id":"c582c196-6d07-4b30-b2c2-0d8b690c923c","system_id":"levelo_inurba_marseille","lat":43.309039,"lon":5.371797,"is_reserved":false,"is_disabled":false,"rental_uris":{"android":"levelo://app?vid=c582c196-6d07-4b30-b2c2-0d8b690c923c","ios":"levelo://app?vid=c582c196-6d07-4b30-b2c2-0d8b690c923c"},"vehicle_type_id":"4","last_reported":1701238187,"current_range_meters":29600,"station_id":"ce4bguh2rcd13ifvqckg","pricing_plan_id":"free"},{"bike_id":"878504fe-d5a2-4bb7-9b4c-3d221495a0ff","system_id":"levelo_inurba_marseille","lat":43.305712,"lon":5.365641,"is_reserved":false,"is_disabled":false,"rental_uris":{"android":"levelo://app?vid=878504fe-d5a2-4bb7-9b4c-3d221495a0ff","ios":"levelo://app?vid=878504fe-d5a2-4bb7-9b4c-3d221495a0ff"},"vehicle_type_id":"4","last_reported":1701238187,"current_range_meters":28000,"station_id":"ce4bgs12rcd13ifvqcag","pricing_plan_id":"free"},{"bike_id":"e6cb03c2-5f9e-4178-8416-6f41ed632ae8","system_id":"levelo_inurba_marseille","lat":43.30537,"lon":5.367345,"is_reserved":false,"is_disabled":false,"rental_uris":{"android":"levelo://app?vid=e6cb03c2-5f9e-4178-8416-6f41ed632ae8","ios":"levelo://app?vid=e6cb03c2-5f9e-4178-8416-6f41ed632ae8"},"vehicle_type_id":"4","last_reported":1701238187,"current_range_meters":0,"station_id":"ce4bgrp2rcd13ifvqc9g","pricing_plan_id":"free"},{"bike_id":"65af0e14-afcb-43b7-a1a3-06dce25629b3","system_id":"levelo_inurba_marseille","lat":43.305395,"lon":5.367105,"is_reserved":false,"is_disabled":false,"rental_uris":{"android":"levelo://app?vid=65af0e14-afcb-43b7-a1a3-06dce25629b3","ios":"levelo://app?vid=65af0e14-afcb-43b7-a1a3-06dce25629b3"},"vehicle_type_id":"4","last_reported":1701238187,"current_range_meters":26000,"station_id":"ce4bgrp2rcd13ifvqc9g","pricing_plan_id":"free"},{"bike_id":"e4a5dd99-c04e-4a50-bd4b-dd6d9964171a","system_id":"levelo_inurba_marseille","lat":43.305706,"lon":5.365654,"is_reserved":false,"is_disabled":false,"rental_uris":{"android":"levelo://app?vid=e4a5dd99-c04e-4a50-bd4b-dd6d9964171a","ios":"levelo://app?vid=e4a5dd99-c04e-4a50-bd4b-dd6d9964171a"},"vehicle_type_id":"4","last_reported":1701238187,"current_range_meters":21600,"station_id":"ce4bgs12rcd13ifvqcag","pricing_plan_id":"free"},{"bike_id":"ff78abee-a4c7-42a6-bed7-f117d3fb7cde","system_id":"levelo_inurba_marseille","lat":43.305706,"lon":5.365654,"is_reserved":false,"is_disabled":false,"rental_uris":{"android":"levelo://app?vid=ff78abee-a4c7-42a6-bed7-f117d3fb7cde","ios":"levelo://app?vid=ff78abee-a4c7-42a6-bed7-f117d3fb7cde"},"vehicle_type_id":"4","last_reported":1701238187,"current_range_meters":30000,"station_id":"ce4bgs12rcd13ifvqcag","pricing_plan_id":"free"},{"bike_id":"1f3ac414-ce46-4010-b946-2357ae3ea287","system_id":"levelo_inurba_marseille","lat":43.306038,"lon":5.372165,"is_reserved":false,"is_disabled":false,"rental_uris":{"android":"levelo://app?vid=1f3ac414-ce46-4010-b946-2357ae3ea287","ios":"levelo://app?vid=1f3ac414-ce46-4010-b946-2357ae3ea287"},"vehicle_type_id":"4","last_reported":1701238187,"current_range_meters":26000,"station_id":"ce4bgqh2rcd13ifvqc4g","pricing_plan_id":"free"},{"bike_id":"7fa2f231-d105-47e6-acb6-4b882951d82b","system_id":"levelo_inurba_marseille","lat":43.306009,"lon":5.372106,"is_reserved":false,"is_disabled":false,"rental_uris":{"android":"levelo://app?vid=7fa2f231-d105-47e6-acb6-4b882951d82b","ios":"levelo://app?vid=7fa2f231-d105-47e6-acb6-4b882951d82b"},"vehicle_type_id":"4","last_reported":1701238187,"current_range_meters":5200,"station_id":"ce4bgqh2rcd13ifvqc4g","pricing_plan_id":"free"},{"bike_id":"d72fd850-1e76-4d1d-9512-eb59d2648389","system_id":"levelo_inurba_marseille","lat":43.30597,"lon":5.37213,"is_reserved":false,"is_disabled":false,"rental_uris":{"android":"levelo://app?vid=d72fd850-1e76-4d1d-9512-eb59d2648389","ios":"levelo://app?vid=d72fd850-1e76-4d1d-9512-eb59d2648389"},"vehicle_type_id":"4","last_reported":1701238187,"current_range_meters":24000,"station_id":"ce4bgqh2rcd13ifvqc4g","pricing_plan_id":"free"},{"bike_id":"50fa95a5-0838-4f69-aa14-89836d3ce4f0","system_id":"levelo_inurba_marseille","lat":43.305989,"lon":5.37225,"is_reserved":false,"is_disabled":false,"rental_uris":{"android":"levelo://app?vid=50fa95a5-0838-4f69-aa14-89836d3ce4f0","ios":"levelo://app?vid=50fa95a5-0838-4f69-aa14-89836d3ce4f0"},"vehicle_type_id":"4","last_reported":1701238187,"current_range_meters":20400,"station_id":"ce4bgqh2rcd13ifvqc4g","pricing_plan_id":"free"},{"bike_id":"6948445e-d427-4d92-96f0-50e689e7f781","system_id":"levelo_inurba_marseille","lat":43.311131,"lon":5.377651,"is_reserved":false,"is_disabled":false,"rental_uris":{"android":"levelo://app?vid=6948445e-d427-4d92-96f0-50e689e7f781","ios":"levelo://app?vid=6948445e-d427-4d92-96f0-50e689e7f781"},"vehicle_type_id":"4","last_reported":1701238187,"current_range_meters":23600,"station_id":"ce4bgt92rcd13ifvqcg0","pricing_plan_id":"free"},{"bike_id":"45b3ff23-a937-45d9-9f96-088c308c0189","system_id":"levelo_inurba_marseille","lat":43.308185,"lon":5.376553,"is_reserved":false,"is_disabled":false,"rental_uris":{"android":"levelo://app?vid=45b3ff23-a937-45d9-9f96-088c308c0189","ios":"levelo://app?vid=45b3ff23-a937-45d9-9f96-088c308c0189"},"vehicle_type_id":"4","last_reported":1701238187,"current_range_meters":10400,"station_id":"ce4bgv92rcd13ifvqcq0","pricing_plan_id":"free"},{"bike_id":"f427a2c3-6e4a-446b-ae2f-9be8aa7f4122","system_id":"levelo_inurba_marseille","lat":43.31719,"lon":5.376813,"is_reserved":false,"is_disabled":false,"rental_uris":{"android":"levelo://app?vid=f427a2c3-6e4a-446b-ae2f-9be8aa7f4122","ios":"levelo://app?vid=f427a2c3-6e4a-446b-ae2f-9be8aa7f4122"},"vehicle_type_id":"4","last_reported":1701238187,"current_range_meters":10400,"station_id":"ce4bgth2rcd13ifvqch0","pricing_plan_id":"free"},{"bike_id":"e913f328-1e31-4c22-bd87-f809ea246de4","system_id":"levelo_inurba_marseille","lat":43.317168,"lon":5.376883,"is_reserved":false,"is_disabled":false,"rental_uris":{"android":"levelo://app?vid=e913f328-1e31-4c22-bd87-f809ea246de4","ios":"levelo://app?vid=e913f328-1e31-4c22-bd87-f809ea246de4"},"vehicle_type_id":"4","last_reported":1701238187,"current_range_meters":12800,"station_id":"ce4bgth2rcd13ifvqch0","pricing_plan_id":"free"},{"bike_id":"7cbb935f-6726-4695-a726-02269c036cc1","system_id":"levelo_inurba_marseille","lat":43.307945,"lon":5.376487,"is_reserved":false,"is_disabled":false,"rental_uris":{"android":"levelo://app?vid=7cbb935f-6726-4695-a726-02269c036cc1","ios":"levelo://app?vid=7cbb935f-6726-4695-a726-02269c036cc1"},"vehicle_type_id":"4","last_reported":1701238187,"current_range_meters":800,"station_id":"ce4bgv92rcd13ifvqcq0","pricing_plan_id":"free"},{"bike_id":"5bc4e475-ab5c-4ba8-9849-973831b65237","system_id":"levelo_inurba_marseille","lat":43.317075,"lon":5.377367,"is_reserved":false,"is_disabled":false,"rental_uris":{"android":"levelo://app?vid=5bc4e475-ab5c-4ba8-9849-973831b65237","ios":"levelo://app?vid=5bc4e475-ab5c-4ba8-9849-973831b65237"},"vehicle_type_id":"4","last_reported":1701238187,"current_range_meters":28000,"station_id":"ce4bgth2rcd13ifvqch0","pricing_plan_id":"free"},{"bike_id":"1ed4961a-b92c-4924-a374-7c1d24f435e3","system_id":"levelo_inurba_marseille","lat":43.30304,"lon":5.368987,"is_reserved":false,"is_disabled":false,"rental_uris":{"android":"levelo://app?vid=1ed4961a-b92c-4924-a374-7c1d24f435e3","ios":"levelo://app?vid=1ed4961a-b92c-4924-a374-7c1d24f435e3"},"vehicle_type_id":"4","last_reported":1701238187,"current_range_meters":29600,"station_id":"ce4bgqh2rcd13ifvqc5g","pricing_plan_id":"free"},{"bike_id":"65efaea0-45e5-4ea1-8d1b-e52a0f544898","system_id":"levelo_inurba_marseille","lat":43.31534,"lon":5.3803,"is_reserved":false,"is_disabled":false,"rental_uris":{"android":"levelo://app?vid=65efaea0-45e5-4ea1-8d1b-e52a0f544898","ios":"levelo://app?vid=65efaea0-45e5-4ea1-8d1b-e52a0f544898"},"vehicle_type_id":"4","last_reported":1701238187,"current_range_meters":11600,"station_id":"ce4bhsp2rcd13ifvqi50","pricing_plan_id":"free"},{"bike_id":"3e09080e-9db5-4c48-951f-c5f672a60264","system_id":"levelo_inurba_marseille","lat":43.32162,"lon":5.374651,"is_reserved":false,"is_disabled":false,"rental_uris":{"android":"levelo://app?vid=3e09080e-9db5-4c48-951f-c5f672a60264","ios":"levelo://app?vid=3e09080e-9db5-4c48-951f-c5f672a60264"},"vehicle_type_id":"4","last_reported":1701238187,"current_range_meters":9600,"station_id":"","pricing_plan_id":"free"},{"bike_id":"3d35ca43-23fe-4daa-81bb-d94d227dd124","system_id":"levelo_inurba_marseille","lat":43.301939,"lon":5.366286,"is_reserved":false,"is_disabled":false,"rental_uris":{"android":"levelo://app?vid=3d35ca43-23fe-4daa-81bb-d94d227dd124","ios":"levelo://app?vid=3d35ca43-23fe-4daa-81bb-d94d227dd124"},"vehicle_type_id":"4","last_reported":1701238187,"current_range_meters":31200,"station_id":"ce4bgrh2rcd13ifvqc8g","pricing_plan_id":"free"},{"bike_id":"9e384e10-7e38-442c-9e21-54e7c8f45ec6","system_id":"levelo_inurba_marseille","lat":43.301799,"lon":5.366152,"is_reserved":false,"is_disabled":false,"rental_uris":{"android":"levelo://app?vid=9e384e10-7e38-442c-9e21-54e7c8f45ec6","ios":"levelo://app?vid=9e384e10-7e38-442c-9e21-54e7c8f45ec6"},"vehicle_type_id":"4","last_reported":1701238187,"current_range_meters":16000,"station_id":"","pricing_plan_id":"free"},{"bike_id":"bf1ef153-cda5-4785-813f-93d302172f11","system_id":"levelo_inurba_marseille","lat":43.308012,"lon":5.381511,"is_reserved":false,"is_disabled":false,"rental_uris":{"android":"levelo://app?vid=bf1ef153-cda5-4785-813f-93d302172f11","ios":"levelo://app?vid=bf1ef153-cda5-4785-813f-93d302172f11"},"vehicle_type_id":"4","last_reported":1701238187,"current_range_meters":9200,"station_id":"ce4bgt12rcd13ifvqce0","pricing_plan_id":"free"},{"bike_id":"30518cbd-881f-4dec-ba29-4a072e46c975","system_id":"levelo_inurba_marseille","lat":43.308012,"lon":5.381511,"is_reserved":false,"is_disabled":false,"rental_uris":{"android":"levelo://app?vid=30518cbd-881f-4dec-ba29-4a072e46c975","ios":"levelo://app?vid=30518cbd-881f-4dec-ba29-4a072e46c975"},"vehicle_type_id":"4","last_reported":1701238187,"current_range_meters":22400,"station_id":"ce4bgt12rcd13ifvqce0","pricing_plan_id":"free"},{"bike_id":"d8cefe2c-f886-4ec7-9b59-574e1dc5a91d","system_id":"levelo_inurba_marseille","lat":43.304606,"lon":5.379026,"is_reserved":false,"is_disabled":false,"rental_uris":{"android":"levelo://app?vid=d8cefe2c-f886-4ec7-9b59-574e1dc5a91d","ios":"levelo://app?vid=d8cefe2c-f886-4ec7-9b59-574e1dc5a91d"},"vehicle_type_id":"4","last_reported":1701238187,"current_range_meters":30000,"station_id":"ce4bgup2rcd13ifvqcn0","pricing_plan_id":"free"},{"bike_id":"5af2be37-2fad-4db9-a2b0-e9637595e442","system_id":"levelo_inurba_marseille","lat":43.304606,"lon":5.379026,"is_reserved":false,"is_disabled":false,"rental_uris":{"android":"levelo://app?vid=5af2be37-2fad-4db9-a2b0-e9637595e442","ios":"levelo://app?vid=5af2be37-2fad-4db9-a2b0-e9637595e442"},"vehicle_type_id":"4","last_reported":1701238187,"current_range_meters":29200,"station_id":"ce4bgup2rcd13ifvqcn0","pricing_plan_id":"free"},{"bike_id":"5b688605-3239-4132-a774-ce165b3222f7","system_id":"levelo_inurba_marseille","lat":43.30477,"lon":5.37907,"is_reserved":false,"is_disabled":false,"rental_uris":{"android":"levelo://app?vid=5b688605-3239-4132-a774-ce165b3222f7","ios":"levelo://app?vid=5b688605-3239-4132-a774-ce165b3222f7"},"vehicle_type_id":"4","last_reported":1701238187,"current_range_meters":24400,"station_id":"ce4bgup2rcd13ifvqcn0","pricing_plan_id":"free"},{"bike_id":"32d232ff-881a-48ff-841a-39a538d2be07","system_id":"levelo_inurba_marseille","lat":43.304606,"lon":5.379026,"is_reserved":false,"is_disabled":false,"rental_uris":{"android":"levelo://app?vid=32d232ff-881a-48ff-841a-39a538d2be07","ios":"levelo://app?vid=32d232ff-881a-48ff-841a-39a538d2be07"},"vehicle_type_id":"4","last_reported":1701238187,"current_range_meters":26000,"station_id":"ce4bgup2rcd13ifvqcn0","pricing_plan_id":"free"},{"bike_id":"3f706e49-69d6-44ab-9d8f-ab8108ec2239","system_id":"levelo_inurba_marseille","lat":43.304606,"lon":5.379026,"is_reserved":false,"is_disabled":false,"rental_uris":{"android":"levelo://app?vid=3f706e49-69d6-44ab-9d8f-ab8108ec2239","ios":"levelo://app?vid=3f706e49-69d6-44ab-9d8f-ab8108ec2239"},"vehicle_type_id":"4","last_reported":1701238187,"current_range_meters":31600,"station_id":"ce4bgup2rcd13ifvqcn0","pricing_plan_id":"free"},{"bike_id":"45169c77-0980-40ca-8cee-d4ed64fc752c","system_id":"levelo_inurba_marseille","lat":43.304606,"lon":5.379026,"is_reserved":false,"is_disabled":false,"rental_uris":{"android":"levelo://app?vid=45169c77-0980-40ca-8cee-d4ed64fc752c","ios":"levelo://app?vid=45169c77-0980-40ca-8cee-d4ed64fc752c"},"vehicle_type_id":"4","last_reported":1701238187,"current_range_meters":30800,"station_id":"ce4bgup2rcd13ifvqcn0","pricing_plan_id":"free"},{"bike_id":"26ac818e-a747-4f49-8e05-3985a37c7854","system_id":"levelo_inurba_marseille","lat":43.304606,"lon":5.379026,"is_reserved":false,"is_disabled":false,"rental_uris":{"android":"levelo://app?vid=26ac818e-a747-4f49-8e05-3985a37c7854","ios":"levelo://app?vid=26ac818e-a747-4f49-8e05-3985a37c7854"},"vehicle_type_id":"4","last_reported":1701238187,"current_range_meters":12800,"station_id":"ce4bgup2rcd13ifvqcn0","pricing_plan_id":"free"},{"bike_id":"f24f2fd6-5d9c-40a1-841c-00e781607f90","system_id":"levelo_inurba_marseille","lat":43.304606,"lon":5.379026,"is_reserved":false,"is_disabled":false,"rental_uris":{"android":"levelo://app?vid=f24f2fd6-5d9c-40a1-841c-00e781607f90","ios":"levelo://app?vid=f24f2fd6-5d9c-40a1-841c-00e781607f90"},"vehicle_type_id":"4","last_reported":1701238187,"current_range_meters":29200,"station_id":"ce4bgup2rcd13ifvqcn0","pricing_plan_id":"free"},{"bike_id":"1a82f4e0-e573-4791-bf08-efeab84a0b62","system_id":"levelo_inurba_marseille","lat":43.304606,"lon":5.379026,"is_reserved":false,"is_disabled":false,"rental_uris":{"android":"levelo://app?vid=1a82f4e0-e573-4791-bf08-efeab84a0b62","ios":"levelo://app?vid=1a82f4e0-e573-4791-bf08-efeab84a0b62"},"vehicle_type_id":"4","last_reported":1701238187,"current_range_meters":31600,"station_id":"ce4bgup2rcd13ifvqcn0","pricing_plan_id":"free"},{"bike_id":"419ea7e3-74ec-4f1a-bf3e-0b0b07c14b5f","system_id":"levelo_inurba_marseille","lat":43.304606,"lon":5.379026,"is_reserved":false,"is_disabled":false,"rental_uris":{"android":"levelo://app?vid=419ea7e3-74ec-4f1a-bf3e-0b0b07c14b5f","ios":"levelo://app?vid=419ea7e3-74ec-4f1a-bf3e-0b0b07c14b5f"},"vehicle_type_id":"4","last_reported":1701238187,"current_range_meters":29200,"station_id":"ce4bgup2rcd13ifvqcn0","pricing_plan_id":"free"},{"bike_id":"9eb437ae-8e75-4e14-a436-76054326aa6c","system_id":"levelo_inurba_marseille","lat":43.304606,"lon":5.379026,"is_reserved":false,"is_disabled":false,"rental_uris":{"android":"levelo://app?vid=9eb437ae-8e75-4e14-a436-76054326aa6c","ios":"levelo://app?vid=9eb437ae-8e75-4e14-a436-76054326aa6c"},"vehicle_type_id":"4","last_reported":1701238187,"current_range_meters":15600,"station_id":"ce4bgup2rcd13ifvqcn0","pricing_plan_id":"free"},{"bike_id":"38be0b4c-59df-459f-9bf2-f235663331fc","system_id":"levelo_inurba_marseille","lat":43.304606,"lon":5.379026,"is_reserved":false,"is_disabled":false,"rental_uris":{"android":"levelo://app?vid=38be0b4c-59df-459f-9bf2-f235663331fc","ios":"levelo://app?vid=38be0b4c-59df-459f-9bf2-f235663331fc"},"vehicle_type_id":"4","last_reported":1701238187,"current_range_meters":21200,"station_id":"ce4bgup2rcd13ifvqcn0","pricing_plan_id":"free"},{"bike_id":"e2235b81-e1ba-4419-b384-52115a2e0204","system_id":"levelo_inurba_marseille","lat":43.304606,"lon":5.379026,"is_reserved":false,"is_disabled":false,"rental_uris":{"android":"levelo://app?vid=e2235b81-e1ba-4419-b384-52115a2e0204","ios":"levelo://app?vid=e2235b81-e1ba-4419-b384-52115a2e0204"},"vehicle_type_id":"4","last_reported":1701238187,"current_range_meters":22800,"station_id":"ce4bgup2rcd13ifvqcn0","pricing_plan_id":"free"},{"bike_id":"20f3852c-9a19-4c73-bb9f-665709ff6675","system_id":"levelo_inurba_marseille","lat":43.304606,"lon":5.379026,"is_reserved":false,"is_disabled":false,"rental_uris":{"android":"levelo://app?vid=20f3852c-9a19-4c73-bb9f-665709ff6675","ios":"levelo://app?vid=20f3852c-9a19-4c73-bb9f-665709ff6675"},"vehicle_type_id":"4","last_reported":1701238187,"current_range_meters":17200,"station_id":"ce4bgup2rcd13ifvqcn0","pricing_plan_id":"free"},{"bike_id":"b7567862-d038-44cc-9371-eb650482a2d6","system_id":"levelo_inurba_marseille","lat":43.304606,"lon":5.379026,"is_reserved":false,"is_disabled":false,"rental_uris":{"android":"levelo://app?vid=b7567862-d038-44cc-9371-eb650482a2d6","ios":"levelo://app?vid=b7567862-d038-44cc-9371-eb650482a2d6"},"vehicle_type_id":"4","last_reported":1701238187,"current_range_meters":22400,"station_id":"ce4bgup2rcd13ifvqcn0","pricing_plan_id":"free"},{"bike_id":"6ed5db8e-7816-4dc7-8b62-f4d36185ed4c","system_id":"levelo_inurba_marseille","lat":43.304606,"lon":5.379026,"is_reserved":false,"is_disabled":false,"rental_uris":{"android":"levelo://app?vid=6ed5db8e-7816-4dc7-8b62-f4d36185ed4c","ios":"levelo://app?vid=6ed5db8e-7816-4dc7-8b62-f4d36185ed4c"},"vehicle_type_id":"4","last_reported":1701238187,"current_range_meters":4000,"station_id":"ce4bgup2rcd13ifvqcn0","pricing_plan_id":"free"},{"bike_id":"24dbd633-fed4-4fcb-a27f-bef205402ea2","system_id":"levelo_inurba_marseille","lat":43.304606,"lon":5.379026,"is_reserved":false,"is_disabled":false,"rental_uris":{"android":"levelo://app?vid=24dbd633-fed4-4fcb-a27f-bef205402ea2","ios":"levelo://app?vid=24dbd633-fed4-4fcb-a27f-bef205402ea2"},"vehicle_type_id":"4","last_reported":1701238187,"current_range_meters":25600,"station_id":"ce4bgup2rcd13ifvqcn0","pricing_plan_id":"free"},{"bike_id":"7ff9a082-4a95-4f21-9d0f-6f49085af790","system_id":"levelo_inurba_marseille","lat":43.304594,"lon":5.379112,"is_reserved":false,"is_disabled":false,"rental_uris":{"android":"levelo://app?vid=7ff9a082-4a95-4f21-9d0f-6f49085af790","ios":"levelo://app?vid=7ff9a082-4a95-4f21-9d0f-6f49085af790"},"vehicle_type_id":"4","last_reported":1701238187,"current_range_meters":22000,"station_id":"ce4bgup2rcd13ifvqcn0","pricing_plan_id":"free"},{"bike_id":"f5296a5a-9d6e-47dc-9105-27838449cc7d","system_id":"levelo_inurba_marseille","lat":43.304606,"lon":5.379026,"is_reserved":false,"is_disabled":false,"rental_uris":{"android":"levelo://app?vid=f5296a5a-9d6e-47dc-9105-27838449cc7d","ios":"levelo://app?vid=f5296a5a-9d6e-47dc-9105-27838449cc7d"},"vehicle_type_id":"4","last_reported":1701238187,"current_range_meters":25200,"station_id":"ce4bgup2rcd13ifvqcn0","pricing_plan_id":"free"},{"bike_id":"29a954bf-20f2-4e76-93ad-8e69214b6133","system_id":"levelo_inurba_marseille","lat":43.304606,"lon":5.379026,"is_reserved":false,"is_disabled":false,"rental_uris":{"android":"levelo://app?vid=29a954bf-20f2-4e76-93ad-8e69214b6133","ios":"levelo://app?vid=29a954bf-20f2-4e76-93ad-8e69214b6133"},"vehicle_type_id":"4","last_reported":1701238187,"current_range_meters":29200,"station_id":"ce4bgup2rcd13ifvqcn0","pricing_plan_id":"free"},{"bike_id":"5715a9c8-9d8f-4eaf-82a9-ce48688f7ea1","system_id":"levelo_inurba_marseille","lat":43.32479,"lon":5.365648,"is_reserved":false,"is_disabled":false,"rental_uris":{"android":"levelo://app?vid=5715a9c8-9d8f-4eaf-82a9-ce48688f7ea1","ios":"levelo://app?vid=5715a9c8-9d8f-4eaf-82a9-ce48688f7ea1"},"vehicle_type_id":"4","last_reported":1701238187,"current_range_meters":21600,"station_id":"ce4bhs12rcd13ifvqhvg","pricing_plan_id":"free"},{"bike_id":"95d8ba4a-1228-49e4-a7d9-6b6b62880e14","system_id":"levelo_inurba_marseille","lat":43.304606,"lon":5.379026,"is_reserved":false,"is_disabled":false,"rental_uris":{"android":"levelo://app?vid=95d8ba4a-1228-49e4-a7d9-6b6b62880e14","ios":"levelo://app?vid=95d8ba4a-1228-49e4-a7d9-6b6b62880e14"},"vehicle_type_id":"4","last_reported":1701238187,"current_range_meters":27200,"station_id":"ce4bgup2rcd13ifvqcn0","pricing_plan_id":"free"},{"bike_id":"e7ba107d-3ace-4825-8c2f-822ba52da56e","system_id":"levelo_inurba_marseille","lat":43.301429,"lon":5.37413,"is_reserved":false,"is_disabled":false,"rental_uris":{"android":"levelo://app?vid=e7ba107d-3ace-4825-8c2f-822ba52da56e","ios":"levelo://app?vid=e7ba107d-3ace-4825-8c2f-822ba52da56e"},"vehicle_type_id":"4","last_reported":1701238187,"current_range_meters":5600,"station_id":"ce4bgs92rcd13ifvqcc0","pricing_plan_id":"free"},{"bike_id":"6c35af6f-c3eb-4d8d-aad3-30428ac272ca","system_id":"levelo_inurba_marseille","lat":43.302784,"lon":5.377158,"is_reserved":false,"is_disabled":false,"rental_uris":{"android":"levelo://app?vid=6c35af6f-c3eb-4d8d-aad3-30428ac272ca","ios":"levelo://app?vid=6c35af6f-c3eb-4d8d-aad3-30428ac272ca"},"vehicle_type_id":"4","last_reported":1701238187,"current_range_meters":29200,"station_id":"ce4bguh2rcd13ifvqcj0","pricing_plan_id":"free"},{"bike_id":"2592df46-6d52-4040-b44a-872969926906","system_id":"levelo_inurba_marseille","lat":43.301429,"lon":5.37413,"is_reserved":false,"is_disabled":false,"rental_uris":{"android":"levelo://app?vid=2592df46-6d52-4040-b44a-872969926906","ios":"levelo://app?vid=2592df46-6d52-4040-b44a-872969926906"},"vehicle_type_id":"4","last_reported":1701238187,"current_range_meters":31200,"station_id":"ce4bgs92rcd13ifvqcc0","pricing_plan_id":"free"},{"bike_id":"d68ff592-86e3-4859-947a-8e3e5c81913c","system_id":"levelo_inurba_marseille","lat":43.319997,"lon":5.381594,"is_reserved":false,"is_disabled":false,"rental_uris":{"android":"levelo://app?vid=d68ff592-86e3-4859-947a-8e3e5c81913c","ios":"levelo://app?vid=d68ff592-86e3-4859-947a-8e3e5c81913c"},"vehicle_type_id":"4","last_reported":1701238187,"current_range_meters":28000,"station_id":"ce4bhr12rcd13ifvqhpg","pricing_plan_id":"free"},{"bike_id":"8371f92d-ad70-45a4-8e51-8b6547f90922","system_id":"levelo_inurba_marseille","lat":43.313571,"lon":5.384829,"is_reserved":false,"is_disabled":false,"rental_uris":{"android":"levelo://app?vid=8371f92d-ad70-45a4-8e51-8b6547f90922","ios":"levelo://app?vid=8371f92d-ad70-45a4-8e51-8b6547f90922"},"vehicle_type_id":"4","last_reported":1701238187,"current_range_meters":30400,"station_id":"ce4bgt92rcd13ifvqcf0","pricing_plan_id":"free"},{"bike_id":"4ef2de5b-130e-42dd-8287-b03daacbc3fc","system_id":"levelo_inurba_marseille","lat":43.313571,"lon":5.384829,"is_reserved":false,"is_disabled":false,"rental_uris":{"android":"levelo://app?vid=4ef2de5b-130e-42dd-8287-b03daacbc3fc","ios":"levelo://app?vid=4ef2de5b-130e-42dd-8287-b03daacbc3fc"},"vehicle_type_id":"4","last_reported":1701238187,"current_range_meters":18400,"station_id":"ce4bgt92rcd13ifvqcf0","pricing_plan_id":"free"},{"bike_id":"48a116e6-ed22-47cd-b8c6-45fd21f826c7","system_id":"levelo_inurba_marseille","lat":43.313571,"lon":5.384829,"is_reserved":false,"is_disabled":false,"rental_uris":{"android":"levelo://app?vid=48a116e6-ed22-47cd-b8c6-45fd21f826c7","ios":"levelo://app?vid=48a116e6-ed22-47cd-b8c6-45fd21f826c7"},"vehicle_type_id":"4","last_reported":1701238187,"current_range_meters":30400,"station_id":"ce4bgt92rcd13ifvqcf0","pricing_plan_id":"free"},{"bike_id":"c3add042-f7ec-4c84-9c66-c895e1a6e483","system_id":"levelo_inurba_marseille","lat":43.313571,"lon":5.384829,"is_reserved":false,"is_disabled":false,"rental_uris":{"android":"levelo://app?vid=c3add042-f7ec-4c84-9c66-c895e1a6e483","ios":"levelo://app?vid=c3add042-f7ec-4c84-9c66-c895e1a6e483"},"vehicle_type_id":"4","last_reported":1701238187,"current_range_meters":24400,"station_id":"ce4bgt92rcd13ifvqcf0","pricing_plan_id":"free"},{"bike_id":"cd1f8a7e-8dcf-44d4-8458-e0300ec3a936","system_id":"levelo_inurba_marseille","lat":43.313571,"lon":5.384829,"is_reserved":false,"is_disabled":false,"rental_uris":{"android":"levelo://app?vid=cd1f8a7e-8dcf-44d4-8458-e0300ec3a936","ios":"levelo://app?vid=cd1f8a7e-8dcf-44d4-8458-e0300ec3a936"},"vehicle_type_id":"4","last_reported":1701238187,"current_range_meters":0,"station_id":"ce4bgt92rcd13ifvqcf0","pricing_plan_id":"free"},{"bike_id":"a0b00ce8-a589-465e-a76a-83986fdeb741","system_id":"levelo_inurba_marseille","lat":43.299222,"lon":5.365554,"is_reserved":false,"is_disabled":false,"rental_uris":{"android":"levelo://app?vid=a0b00ce8-a589-465e-a76a-83986fdeb741","ios":"levelo://app?vid=a0b00ce8-a589-465e-a76a-83986fdeb741"},"vehicle_type_id":"4","last_reported":1701238187,"current_range_meters":6400,"station_id":"ce4bgm92rcd13ifvqbr0","pricing_plan_id":"free"},{"bike_id":"d49b6c10-f23c-42b5-8178-98a6bcd4dda9","system_id":"levelo_inurba_marseille","lat":43.299243,"lon":5.374807,"is_reserved":false,"is_disabled":false,"rental_uris":{"android":"levelo://app?vid=d49b6c10-f23c-42b5-8178-98a6bcd4dda9","ios":"levelo://app?vid=d49b6c10-f23c-42b5-8178-98a6bcd4dda9"},"vehicle_type_id":"4","last_reported":1701238187,"current_range_meters":9200,"station_id":"ce4bgjh2rcd13ifvqbg0","pricing_plan_id":"free"},{"bike_id":"7765bd66-c30e-42d5-8c54-aa2cb7a56fd5","system_id":"levelo_inurba_marseille","lat":43.305364,"lon":5.384119,"is_reserved":false,"is_disabled":false,"rental_uris":{"android":"levelo://app?vid=7765bd66-c30e-42d5-8c54-aa2cb7a56fd5","ios":"levelo://app?vid=7765bd66-c30e-42d5-8c54-aa2cb7a56fd5"},"vehicle_type_id":"4","last_reported":1701238187,"current_range_meters":28800,"station_id":"ce4bgg92rcd13ifvqb30","pricing_plan_id":"free"},{"bike_id":"4f6933d8-1618-45b7-805a-cbc51b78aacd","system_id":"levelo_inurba_marseille","lat":43.305364,"lon":5.384119,"is_reserved":false,"is_disabled":false,"rental_uris":{"android":"levelo://app?vid=4f6933d8-1618-45b7-805a-cbc51b78aacd","ios":"levelo://app?vid=4f6933d8-1618-45b7-805a-cbc51b78aacd"},"vehicle_type_id":"4","last_reported":1701238187,"current_range_meters":24800,"station_id":"ce4bgg92rcd13ifvqb30","pricing_plan_id":"free"},{"bike_id":"cb54d4b8-7480-4085-b908-47a3fdf1a7c6","system_id":"levelo_inurba_marseille","lat":43.328301,"lon":5.36678,"is_reserved":false,"is_disabled":false,"rental_uris":{"android":"levelo://app?vid=cb54d4b8-7480-4085-b908-47a3fdf1a7c6","ios":"levelo://app?vid=cb54d4b8-7480-4085-b908-47a3fdf1a7c6"},"vehicle_type_id":"4","last_reported":1701238187,"current_range_meters":19600,"station_id":"ce4bhs92rcd13ifvqi0g","pricing_plan_id":"free"},{"bike_id":"36a65469-7d1c-4e20-9e4d-6b21b0da8042","system_id":"levelo_inurba_marseille","lat":43.32831,"lon":5.3669,"is_reserved":false,"is_disabled":false,"rental_uris":{"android":"levelo://app?vid=36a65469-7d1c-4e20-9e4d-6b21b0da8042","ios":"levelo://app?vid=36a65469-7d1c-4e20-9e4d-6b21b0da8042"},"vehicle_type_id":"4","last_reported":1701238187,"current_range_meters":23600,"station_id":"ce4bhs92rcd13ifvqi0g","pricing_plan_id":"free"},{"bike_id":"0f540c2d-4986-457e-84c0-13bbd0c381ec","system_id":"levelo_inurba_marseille","lat":43.328335,"lon":5.366798,"is_reserved":false,"is_disabled":false,"rental_uris":{"android":"levelo://app?vid=0f540c2d-4986-457e-84c0-13bbd0c381ec","ios":"levelo://app?vid=0f540c2d-4986-457e-84c0-13bbd0c381ec"},"vehicle_type_id":"4","last_reported":1701238187,"current_range_meters":6000,"station_id":"ce4bhs92rcd13ifvqi0g","pricing_plan_id":"free"},{"bike_id":"7dc02b47-8d61-4206-bac7-38260c1d3db5","system_id":"levelo_inurba_marseille","lat":43.297163,"lon":5.365866,"is_reserved":false,"is_disabled":false,"rental_uris":{"android":"levelo://app?vid=7dc02b47-8d61-4206-bac7-38260c1d3db5","ios":"levelo://app?vid=7dc02b47-8d61-4206-bac7-38260c1d3db5"},"vehicle_type_id":"4","last_reported":1701238187,"current_range_meters":26800,"station_id":"ce4bgn12rcd13ifvqbt0","pricing_plan_id":"free"},{"bike_id":"22939c07-a39a-4feb-b14a-687a15d89198","system_id":"levelo_inurba_marseille","lat":43.299028,"lon":5.381509,"is_reserved":false,"is_disabled":false,"rental_uris":{"android":"levelo://app?vid=22939c07-a39a-4feb-b14a-687a15d89198","ios":"levelo://app?vid=22939c07-a39a-4feb-b14a-687a15d89198"},"vehicle_type_id":"4","last_reported":1701238187,"current_range_meters":28000,"station_id":"ce4bgj12rcd13ifvqbc0","pricing_plan_id":"free"},{"bike_id":"8d7bd8f8-096d-409e-b4fc-f36bfa0e920c","system_id":"levelo_inurba_marseille","lat":43.298037,"lon":5.381066,"is_reserved":false,"is_disabled":false,"rental_uris":{"android":"levelo://app?vid=8d7bd8f8-096d-409e-b4fc-f36bfa0e920c","ios":"levelo://app?vid=8d7bd8f8-096d-409e-b4fc-f36bfa0e920c"},"vehicle_type_id":"4","last_reported":1701238187,"current_range_meters":28400,"station_id":"ce4bgip2rcd13ifvqbb0","pricing_plan_id":"free"},{"bike_id":"0d2a18ff-001f-44d9-9463-41774eceef33","system_id":"levelo_inurba_marseille","lat":43.304278,"lon":5.388868,"is_reserved":false,"is_disabled":false,"rental_uris":{"android":"levelo://app?vid=0d2a18ff-001f-44d9-9463-41774eceef33","ios":"levelo://app?vid=0d2a18ff-001f-44d9-9463-41774eceef33"},"vehicle_type_id":"4","last_reported":1701238187,"current_range_meters":29600,"station_id":"ce4bgk12rcd13ifvqbi0","pricing_plan_id":"free"},{"bike_id":"89edf680-64d3-4c49-bc39-5df61538dd8b","system_id":"levelo_inurba_marseille","lat":43.304274,"lon":5.388873,"is_reserved":false,"is_disabled":false,"rental_uris":{"android":"levelo://app?vid=89edf680-64d3-4c49-bc39-5df61538dd8b","ios":"levelo://app?vid=89edf680-64d3-4c49-bc39-5df61538dd8b"},"vehicle_type_id":"4","last_reported":1701238187,"current_range_meters":26000,"station_id":"ce4bgk12rcd13ifvqbi0","pricing_plan_id":"free"},{"bike_id":"38ba5745-7b38-4150-8874-12fa94328395","system_id":"levelo_inurba_marseille","lat":43.296263,"lon":5.377094,"is_reserved":false,"is_disabled":false,"rental_uris":{"android":"levelo://app?vid=38ba5745-7b38-4150-8874-12fa94328395","ios":"levelo://app?vid=38ba5745-7b38-4150-8874-12fa94328395"},"vehicle_type_id":"4","last_reported":1701238187,"current_range_meters":16000,"station_id":"ce4bgi92rcd13ifvqb90","pricing_plan_id":"free"},{"bike_id":"751571f3-ec9f-4cb3-8306-950650679034","system_id":"levelo_inurba_marseille","lat":43.296263,"lon":5.377094,"is_reserved":false,"is_disabled":false,"rental_uris":{"android":"levelo://app?vid=751571f3-ec9f-4cb3-8306-950650679034","ios":"levelo://app?vid=751571f3-ec9f-4cb3-8306-950650679034"},"vehicle_type_id":"4","last_reported":1701238187,"current_range_meters":20400,"station_id":"ce4bgi92rcd13ifvqb90","pricing_plan_id":"free"},{"bike_id":"61ade3a0-a46b-4a24-90e4-32a2c98ac3c4","system_id":"levelo_inurba_marseille","lat":43.299724,"lon":5.384848,"is_reserved":false,"is_disabled":false,"rental_uris":{"android":"levelo://app?vid=61ade3a0-a46b-4a24-90e4-32a2c98ac3c4","ios":"levelo://app?vid=61ade3a0-a46b-4a24-90e4-32a2c98ac3c4"},"vehicle_type_id":"4","last_reported":1701238187,"current_range_meters":29200,"station_id":"ce4bgj92rcd13ifvqbd0","pricing_plan_id":"free"},{"bike_id":"629e47f7-ff6d-4843-b729-b66910e9ab06","system_id":"levelo_inurba_marseille","lat":43.293009,"lon":5.374584,"is_reserved":false,"is_disabled":false,"rental_uris":{"android":"levelo://app?vid=629e47f7-ff6d-4843-b729-b66910e9ab06","ios":"levelo://app?vid=629e47f7-ff6d-4843-b729-b66910e9ab06"},"vehicle_type_id":"4","last_reported":1701238187,"current_range_meters":23200,"station_id":"ce4bgi12rcd13ifvqb70","pricing_plan_id":"free"},{"bike_id":"e8fde822-7c37-4819-aabb-3d55e6388a3b","system_id":"levelo_inurba_marseille","lat":43.293009,"lon":5.374584,"is_reserved":false,"is_disabled":false,"rental_uris":{"android":"levelo://app?vid=e8fde822-7c37-4819-aabb-3d55e6388a3b","ios":"levelo://app?vid=e8fde822-7c37-4819-aabb-3d55e6388a3b"},"vehicle_type_id":"4","last_reported":1701238187,"current_range_meters":20800,"station_id":"ce4bgi12rcd13ifvqb70","pricing_plan_id":"free"},{"bike_id":"de4ba7c7-b45f-4284-b1a2-c4a6b1e964e5","system_id":"levelo_inurba_marseille","lat":43.303002,"lon":5.392142,"is_reserved":false,"is_disabled":false,"rental_uris":{"android":"levelo://app?vid=de4ba7c7-b45f-4284-b1a2-c4a6b1e964e5","ios":"levelo://app?vid=de4ba7c7-b45f-4284-b1a2-c4a6b1e964e5"},"vehicle_type_id":"4","last_reported":1701238187,"current_range_meters":28800,"station_id":"ce4bgkh2rcd13ifvqbk0","pricing_plan_id":"free"},{"bike_id":"e11cf6b4-9b2d-4f30-8c63-9a29ee75cea8","system_id":"levelo_inurba_marseille","lat":43.302992,"lon":5.392136,"is_reserved":false,"is_disabled":false,"rental_uris":{"android":"levelo://app?vid=e11cf6b4-9b2d-4f30-8c63-9a29ee75cea8","ios":"levelo://app?vid=e11cf6b4-9b2d-4f30-8c63-9a29ee75cea8"},"vehicle_type_id":"4","last_reported":1701238187,"current_range_meters":26400,"station_id":"ce4bgkh2rcd13ifvqbk0","pricing_plan_id":"free"},{"bike_id":"3797bb78-44c3-47b0-8905-63c3dfc281f7","system_id":"levelo_inurba_marseille","lat":43.292311,"lon":5.360731,"is_reserved":false,"is_disabled":false,"rental_uris":{"android":"levelo://app?vid=3797bb78-44c3-47b0-8905-63c3dfc281f7","ios":"levelo://app?vid=3797bb78-44c3-47b0-8905-63c3dfc281f7"},"vehicle_type_id":"4","last_reported":1701238187,"current_range_meters":26400,"station_id":"ce4bhbh2rcd13ifvqeqg","pricing_plan_id":"free"},{"bike_id":"553ab3d5-14c5-41f2-b2cb-0ebed2deedb9","system_id":"levelo_inurba_marseille","lat":43.30085,"lon":5.390856,"is_reserved":false,"is_disabled":false,"rental_uris":{"android":"levelo://app?vid=553ab3d5-14c5-41f2-b2cb-0ebed2deedb9","ios":"levelo://app?vid=553ab3d5-14c5-41f2-b2cb-0ebed2deedb9"},"vehicle_type_id":"4","last_reported":1701238187,"current_range_meters":30000,"station_id":"ce4bh192rcd13ifvqdb0","pricing_plan_id":"free"},{"bike_id":"a611793c-a0b4-46cf-898a-57acc62a2b03","system_id":"levelo_inurba_marseille","lat":43.291675,"lon":5.371583,"is_reserved":false,"is_disabled":false,"rental_uris":{"android":"levelo://app?vid=a611793c-a0b4-46cf-898a-57acc62a2b03","ios":"levelo://app?vid=a611793c-a0b4-46cf-898a-57acc62a2b03"},"vehicle_type_id":"4","last_reported":1701238187,"current_range_meters":26400,"station_id":"ce4bha92rcd13ifvqeh0","pricing_plan_id":"free"},{"bike_id":"77621d6b-8990-4544-be4b-ead551752d29","system_id":"levelo_inurba_marseille","lat":43.313413,"lon":5.396553,"is_reserved":false,"is_disabled":false,"rental_uris":{"android":"levelo://app?vid=77621d6b-8990-4544-be4b-ead551752d29","ios":"levelo://app?vid=77621d6b-8990-4544-be4b-ead551752d29"},"vehicle_type_id":"4","last_reported":1701238187,"current_range_meters":23600,"station_id":"","pricing_plan_id":"free"},{"bike_id":"07dfef92-904f-4c33-8c14-53a178d7ae6f","system_id":"levelo_inurba_marseille","lat":43.313295,"lon":5.396898,"is_reserved":false,"is_disabled":false,"rental_uris":{"android":"levelo://app?vid=07dfef92-904f-4c33-8c14-53a178d7ae6f","ios":"levelo://app?vid=07dfef92-904f-4c33-8c14-53a178d7ae6f"},"vehicle_type_id":"4","last_reported":1701238187,"current_range_meters":26000,"station_id":"ce4bgvp2rcd13ifvqcu0","pricing_plan_id":"free"},{"bike_id":"00f782b6-4b18-433b-bc0a-644ef2fb3594","system_id":"levelo_inurba_marseille","lat":43.31322,"lon":5.39694,"is_reserved":false,"is_disabled":false,"rental_uris":{"android":"levelo://app?vid=00f782b6-4b18-433b-bc0a-644ef2fb3594","ios":"levelo://app?vid=00f782b6-4b18-433b-bc0a-644ef2fb3594"},"vehicle_type_id":"4","last_reported":1701238187,"current_range_meters":24800,"station_id":"ce4bgvp2rcd13ifvqcu0","pricing_plan_id":"free"},{"bike_id":"c77436ed-1696-4f87-a1bb-424a7a09ae35","system_id":"levelo_inurba_marseille","lat":43.313252,"lon":5.39694,"is_reserved":false,"is_disabled":false,"rental_uris":{"android":"levelo://app?vid=c77436ed-1696-4f87-a1bb-424a7a09ae35","ios":"levelo://app?vid=c77436ed-1696-4f87-a1bb-424a7a09ae35"},"vehicle_type_id":"4","last_reported":1701238187,"current_range_meters":20800,"station_id":"ce4bgvp2rcd13ifvqcu0","pricing_plan_id":"free"},{"bike_id":"a431f85e-aab0-4d1e-978a-1b1ee1d4e8ee","system_id":"levelo_inurba_marseille","lat":43.313285,"lon":5.39696,"is_reserved":false,"is_disabled":false,"rental_uris":{"android":"levelo://app?vid=a431f85e-aab0-4d1e-978a-1b1ee1d4e8ee","ios":"levelo://app?vid=a431f85e-aab0-4d1e-978a-1b1ee1d4e8ee"},"vehicle_type_id":"4","last_reported":1701238187,"current_range_meters":11600,"station_id":"ce4bgvp2rcd13ifvqcu0","pricing_plan_id":"free"},{"bike_id":"d330530f-c130-4105-aea7-8cef8d6635c7","system_id":"levelo_inurba_marseille","lat":43.290624,"lon":5.359245,"is_reserved":false,"is_disabled":false,"rental_uris":{"android":"levelo://app?vid=d330530f-c130-4105-aea7-8cef8d6635c7","ios":"levelo://app?vid=d330530f-c130-4105-aea7-8cef8d6635c7"},"vehicle_type_id":"4","last_reported":1701238187,"current_range_meters":31200,"station_id":"ce4bha92rcd13ifvqeg0","pricing_plan_id":"free"},{"bike_id":"c575ffdb-ad4a-47cf-a040-a2e593a2f1a6","system_id":"levelo_inurba_marseille","lat":43.289184,"lon":5.366408,"is_reserved":false,"is_disabled":false,"rental_uris":{"android":"levelo://app?vid=c575ffdb-ad4a-47cf-a040-a2e593a2f1a6","ios":"levelo://app?vid=c575ffdb-ad4a-47cf-a040-a2e593a2f1a6"},"vehicle_type_id":"4","last_reported":1701238187,"current_range_meters":28400,"station_id":"ce4bhap2rcd13ifvqek0","pricing_plan_id":"free"},{"bike_id":"8091117c-ae72-4d5e-a3b7-f795b31a9452","system_id":"levelo_inurba_marseille","lat":43.290327,"lon":5.375711,"is_reserved":false,"is_disabled":false,"rental_uris":{"android":"levelo://app?vid=8091117c-ae72-4d5e-a3b7-f795b31a9452","ios":"levelo://app?vid=8091117c-ae72-4d5e-a3b7-f795b31a9452"},"vehicle_type_id":"4","last_reported":1701238187,"current_range_meters":20800,"station_id":"ce4bh692rcd13ifvqe90","pricing_plan_id":"free"},{"bike_id":"ab0c319a-2714-4426-bec8-33e76c983939","system_id":"levelo_inurba_marseille","lat":43.290327,"lon":5.375711,"is_reserved":false,"is_disabled":false,"rental_uris":{"android":"levelo://app?vid=ab0c319a-2714-4426-bec8-33e76c983939","ios":"levelo://app?vid=ab0c319a-2714-4426-bec8-33e76c983939"},"vehicle_type_id":"4","last_reported":1701238187,"current_range_meters":29600,"station_id":"ce4bh692rcd13ifvqe90","pricing_plan_id":"free"},{"bike_id":"01736101-cd6a-4b27-84ed-1c5b63d574d6","system_id":"levelo_inurba_marseille","lat":43.289454,"lon":5.363982,"is_reserved":false,"is_disabled":false,"rental_uris":{"android":"levelo://app?vid=01736101-cd6a-4b27-84ed-1c5b63d574d6","ios":"levelo://app?vid=01736101-cd6a-4b27-84ed-1c5b63d574d6"},"vehicle_type_id":"4","last_reported":1701238187,"current_range_meters":29200,"station_id":"ce4bhc92rcd13ifvqetg","pricing_plan_id":"free"},{"bike_id":"2819335e-efaa-425f-8826-8d924ba8f62b","system_id":"levelo_inurba_marseille","lat":43.289438,"lon":5.363875,"is_reserved":false,"is_disabled":false,"rental_uris":{"android":"levelo://app?vid=2819335e-efaa-425f-8826-8d924ba8f62b","ios":"levelo://app?vid=2819335e-efaa-425f-8826-8d924ba8f62b"},"vehicle_type_id":"4","last_reported":1701238187,"current_range_meters":27200,"station_id":"ce4bhc92rcd13ifvqetg","pricing_plan_id":"free"},{"bike_id":"2e9a0ea5-69f5-4cd4-b90b-5c3f30cb770c","system_id":"levelo_inurba_marseille","lat":43.289394,"lon":5.363979,"is_reserved":false,"is_disabled":false,"rental_uris":{"android":"levelo://app?vid=2e9a0ea5-69f5-4cd4-b90b-5c3f30cb770c","ios":"levelo://app?vid=2e9a0ea5-69f5-4cd4-b90b-5c3f30cb770c"},"vehicle_type_id":"4","last_reported":1701238187,"current_range_meters":29200,"station_id":"ce4bhc92rcd13ifvqetg","pricing_plan_id":"free"},{"bike_id":"c80ff3fc-20e2-4a8e-803b-88a06705d9d1","system_id":"levelo_inurba_marseille","lat":43.289361,"lon":5.363914,"is_reserved":false,"is_disabled":false,"rental_uris":{"android":"levelo://app?vid=c80ff3fc-20e2-4a8e-803b-88a06705d9d1","ios":"levelo://app?vid=c80ff3fc-20e2-4a8e-803b-88a06705d9d1"},"vehicle_type_id":"4","last_reported":1701238187,"current_range_meters":31600,"station_id":"ce4bhc92rcd13ifvqetg","pricing_plan_id":"free"},{"bike_id":"26a53e31-3e48-4146-b221-c4c87bdd6ab2","system_id":"levelo_inurba_marseille","lat":43.28934,"lon":5.36413,"is_reserved":false,"is_disabled":false,"rental_uris":{"android":"levelo://app?vid=26a53e31-3e48-4146-b221-c4c87bdd6ab2","ios":"levelo://app?vid=26a53e31-3e48-4146-b221-c4c87bdd6ab2"},"vehicle_type_id":"4","last_reported":1701238187,"current_range_meters":24800,"station_id":"ce4bhc92rcd13ifvqetg","pricing_plan_id":"free"},{"bike_id":"71aa77f2-e90b-4c02-b55e-e94887531de0","system_id":"levelo_inurba_marseille","lat":43.304274,"lon":5.397513,"is_reserved":false,"is_disabled":false,"rental_uris":{"android":"levelo://app?vid=71aa77f2-e90b-4c02-b55e-e94887531de0","ios":"levelo://app?vid=71aa77f2-e90b-4c02-b55e-e94887531de0"},"vehicle_type_id":"4","last_reported":1701238187,"current_range_meters":28400,"station_id":"ce4bh092rcd13ifvqd20","pricing_plan_id":"free"},{"bike_id":"65a8c888-aae9-4de8-bb2f-81acb72375a9","system_id":"levelo_inurba_marseille","lat":43.304296,"lon":5.397513,"is_reserved":false,"is_disabled":false,"rental_uris":{"android":"levelo://app?vid=65a8c888-aae9-4de8-bb2f-81acb72375a9","ios":"levelo://app?vid=65a8c888-aae9-4de8-bb2f-81acb72375a9"},"vehicle_type_id":"4","last_reported":1701238187,"current_range_meters":28400,"station_id":"ce4bh092rcd13ifvqd20","pricing_plan_id":"free"},{"bike_id":"67810528-fb28-41e8-a8bc-9f1e263f753e","system_id":"levelo_inurba_marseille","lat":43.290104,"lon":5.356111,"is_reserved":false,"is_disabled":false,"rental_uris":{"android":"levelo://app?vid=67810528-fb28-41e8-a8bc-9f1e263f753e","ios":"levelo://app?vid=67810528-fb28-41e8-a8bc-9f1e263f753e"},"vehicle_type_id":"4","last_reported":1701238187,"current_range_meters":29600,"station_id":"ce4bhb92rcd13ifvqen0","pricing_plan_id":"free"},{"bike_id":"fc8fcf9f-c687-4daa-87e8-dcdafa5fa665","system_id":"levelo_inurba_marseille","lat":43.290011,"lon":5.35615,"is_reserved":false,"is_disabled":false,"rental_uris":{"android":"levelo://app?vid=fc8fcf9f-c687-4daa-87e8-dcdafa5fa665","ios":"levelo://app?vid=fc8fcf9f-c687-4daa-87e8-dcdafa5fa665"},"vehicle_type_id":"4","last_reported":1701238187,"current_range_meters":30000,"station_id":"ce4bhb92rcd13ifvqen0","pricing_plan_id":"free"},{"bike_id":"981261c2-4e4e-4c2b-96ca-afd2853dbadf","system_id":"levelo_inurba_marseille","lat":43.290104,"lon":5.356111,"is_reserved":false,"is_disabled":false,"rental_uris":{"android":"levelo://app?vid=981261c2-4e4e-4c2b-96ca-afd2853dbadf","ios":"levelo://app?vid=981261c2-4e4e-4c2b-96ca-afd2853dbadf"},"vehicle_type_id":"4","last_reported":1701238187,"current_range_meters":24400,"station_id":"ce4bhb92rcd13ifvqen0","pricing_plan_id":"free"},{"bike_id":"7236c95f-cfdc-49b2-8998-d157fe8297a8","system_id":"levelo_inurba_marseille","lat":43.28856,"lon":5.358371,"is_reserved":false,"is_disabled":false,"rental_uris":{"android":"levelo://app?vid=7236c95f-cfdc-49b2-8998-d157fe8297a8","ios":"levelo://app?vid=7236c95f-cfdc-49b2-8998-d157fe8297a8"},"vehicle_type_id":"4","last_reported":1701238187,"current_range_meters":31200,"station_id":"ce4bhb12rcd13ifvqem0","pricing_plan_id":"free"},{"bike_id":"ddf26704-29af-4137-b10b-b42944575399","system_id":"levelo_inurba_marseille","lat":43.28856,"lon":5.358371,"is_reserved":false,"is_disabled":false,"rental_uris":{"android":"levelo://app?vid=ddf26704-29af-4137-b10b-b42944575399","ios":"levelo://app?vid=ddf26704-29af-4137-b10b-b42944575399"},"vehicle_type_id":"4","last_reported":1701238187,"current_range_meters":30400,"station_id":"ce4bhb12rcd13ifvqem0","pricing_plan_id":"free"},{"bike_id":"77b088cb-35f9-460a-9f79-0c93b2db5ec1","system_id":"levelo_inurba_marseille","lat":43.28856,"lon":5.358371,"is_reserved":false,"is_disabled":false,"rental_uris":{"android":"levelo://app?vid=77b088cb-35f9-460a-9f79-0c93b2db5ec1","ios":"levelo://app?vid=77b088cb-35f9-460a-9f79-0c93b2db5ec1"},"vehicle_type_id":"4","last_reported":1701238187,"current_range_meters":10800,"station_id":"ce4bhb12rcd13ifvqem0","pricing_plan_id":"free"},{"bike_id":"e1ea4410-abaf-48c3-bfac-109caf57fcc9","system_id":"levelo_inurba_marseille","lat":43.28856,"lon":5.358371,"is_reserved":false,"is_disabled":false,"rental_uris":{"android":"levelo://app?vid=e1ea4410-abaf-48c3-bfac-109caf57fcc9","ios":"levelo://app?vid=e1ea4410-abaf-48c3-bfac-109caf57fcc9"},"vehicle_type_id":"4","last_reported":1701238187,"current_range_meters":24800,"station_id":"ce4bhb12rcd13ifvqem0","pricing_plan_id":"free"},{"bike_id":"c676974d-3d90-40ba-80fe-f46a28fd0516","system_id":"levelo_inurba_marseille","lat":43.309328,"lon":5.401425,"is_reserved":false,"is_disabled":false,"rental_uris":{"android":"levelo://app?vid=c676974d-3d90-40ba-80fe-f46a28fd0516","ios":"levelo://app?vid=c676974d-3d90-40ba-80fe-f46a28fd0516"},"vehicle_type_id":"4","last_reported":1701238187,"current_range_meters":28000,"station_id":"ce4bgvp2rcd13ifvqct0","pricing_plan_id":"free"},{"bike_id":"a0b97864-a427-4093-9db6-badf2b1a25e2","system_id":"levelo_inurba_marseille","lat":43.309371,"lon":5.401449,"is_reserved":false,"is_disabled":false,"rental_uris":{"android":"levelo://app?vid=a0b97864-a427-4093-9db6-badf2b1a25e2","ios":"levelo://app?vid=a0b97864-a427-4093-9db6-badf2b1a25e2"},"vehicle_type_id":"4","last_reported":1701238187,"current_range_meters":16000,"station_id":"ce4bgvp2rcd13ifvqct0","pricing_plan_id":"free"},{"bike_id":"6ed92bd8-2dd7-4b69-85f2-8ec61e615ebf","system_id":"levelo_inurba_marseille","lat":43.309371,"lon":5.401449,"is_reserved":false,"is_disabled":false,"rental_uris":{"android":"levelo://app?vid=6ed92bd8-2dd7-4b69-85f2-8ec61e615ebf","ios":"levelo://app?vid=6ed92bd8-2dd7-4b69-85f2-8ec61e615ebf"},"vehicle_type_id":"4","last_reported":1701238187,"current_range_meters":22000,"station_id":"ce4bgvp2rcd13ifvqct0","pricing_plan_id":"free"},{"bike_id":"9b4884c0-c65d-4e20-8a5c-b9cd5f26fa0a","system_id":"levelo_inurba_marseille","lat":43.309306,"lon":5.401527,"is_reserved":false,"is_disabled":false,"rental_uris":{"android":"levelo://app?vid=9b4884c0-c65d-4e20-8a5c-b9cd5f26fa0a","ios":"levelo://app?vid=9b4884c0-c65d-4e20-8a5c-b9cd5f26fa0a"},"vehicle_type_id":"4","last_reported":1701238187,"current_range_meters":20400,"station_id":"ce4bgvp2rcd13ifvqct0","pricing_plan_id":"free"},{"bike_id":"e09d1c54-6d2b-459c-941d-619b640674f6","system_id":"levelo_inurba_marseille","lat":43.309248,"lon":5.401523,"is_reserved":false,"is_disabled":false,"rental_uris":{"android":"levelo://app?vid=e09d1c54-6d2b-459c-941d-619b640674f6","ios":"levelo://app?vid=e09d1c54-6d2b-459c-941d-619b640674f6"},"vehicle_type_id":"4","last_reported":1701238187,"current_range_meters":26000,"station_id":"ce4bgvp2rcd13ifvqct0","pricing_plan_id":"free"},{"bike_id":"80003ba4-a760-41f4-941e-70dd3e093dcd","system_id":"levelo_inurba_marseille","lat":43.309371,"lon":5.401449,"is_reserved":false,"is_disabled":false,"rental_uris":{"android":"levelo://app?vid=80003ba4-a760-41f4-941e-70dd3e093dcd","ios":"levelo://app?vid=80003ba4-a760-41f4-941e-70dd3e093dcd"},"vehicle_type_id":"4","last_reported":1701238187,"current_range_meters":22000,"station_id":"ce4bgvp2rcd13ifvqct0","pricing_plan_id":"free"},{"bike_id":"b4c0d15a-dfce-4424-9c87-a04445a3f247","system_id":"levelo_inurba_marseille","lat":43.28727,"lon":5.36078,"is_reserved":false,"is_disabled":false,"rental_uris":{"android":"levelo://app?vid=b4c0d15a-dfce-4424-9c87-a04445a3f247","ios":"levelo://app?vid=b4c0d15a-dfce-4424-9c87-a04445a3f247"},"vehicle_type_id":"4","last_reported":1701238187,"current_range_meters":24800,"station_id":"cki0cbj6b192h4jlfktg","pricing_plan_id":"free"},{"bike_id":"d65ef8c7-beb1-497f-8b51-d908c0fe6de7","system_id":"levelo_inurba_marseille","lat":43.286593,"lon":5.363346,"is_reserved":false,"is_disabled":false,"rental_uris":{"android":"levelo://app?vid=d65ef8c7-beb1-497f-8b51-d908c0fe6de7","ios":"levelo://app?vid=d65ef8c7-beb1-497f-8b51-d908c0fe6de7"},"vehicle_type_id":"4","last_reported":1701238187,"current_range_meters":16400,"station_id":"ce4bhah2rcd13ifvqej0","pricing_plan_id":"free"},{"bike_id":"0835f735-fbc4-40ca-b02a-112ff61ff6d1","system_id":"levelo_inurba_marseille","lat":43.286591,"lon":5.363346,"is_reserved":false,"is_disabled":false,"rental_uris":{"android":"levelo://app?vid=0835f735-fbc4-40ca-b02a-112ff61ff6d1","ios":"levelo://app?vid=0835f735-fbc4-40ca-b02a-112ff61ff6d1"},"vehicle_type_id":"4","last_reported":1701238187,"current_range_meters":27200,"station_id":"ce4bhah2rcd13ifvqej0","pricing_plan_id":"free"},{"bike_id":"4c583723-ddf3-463d-afff-20205cc787f8","system_id":"levelo_inurba_marseille","lat":43.286591,"lon":5.363346,"is_reserved":false,"is_disabled":false,"rental_uris":{"android":"levelo://app?vid=4c583723-ddf3-463d-afff-20205cc787f8","ios":"levelo://app?vid=4c583723-ddf3-463d-afff-20205cc787f8"},"vehicle_type_id":"4","last_reported":1701238187,"current_range_meters":18800,"station_id":"ce4bhah2rcd13ifvqej0","pricing_plan_id":"free"},{"bike_id":"50bada01-5851-437c-9dbf-0054c2a582d8","system_id":"levelo_inurba_marseille","lat":43.286663,"lon":5.36355,"is_reserved":false,"is_disabled":false,"rental_uris":{"android":"levelo://app?vid=50bada01-5851-437c-9dbf-0054c2a582d8","ios":"levelo://app?vid=50bada01-5851-437c-9dbf-0054c2a582d8"},"vehicle_type_id":"4","last_reported":1701238187,"current_range_meters":29200,"station_id":"ce4bhah2rcd13ifvqej0","pricing_plan_id":"free"},{"bike_id":"e5723a22-18b0-4bba-944e-f4d0788972cf","system_id":"levelo_inurba_marseille","lat":43.286591,"lon":5.363346,"is_reserved":false,"is_disabled":false,"rental_uris":{"android":"levelo://app?vid=e5723a22-18b0-4bba-944e-f4d0788972cf","ios":"levelo://app?vid=e5723a22-18b0-4bba-944e-f4d0788972cf"},"vehicle_type_id":"4","last_reported":1701238187,"current_range_meters":31200,"station_id":"ce4bhah2rcd13ifvqej0","pricing_plan_id":"free"},{"bike_id":"73a2e9e8-22a2-493d-8019-77186ed06d14","system_id":"levelo_inurba_marseille","lat":43.286593,"lon":5.363346,"is_reserved":false,"is_disabled":false,"rental_uris":{"android":"levelo://app?vid=73a2e9e8-22a2-493d-8019-77186ed06d14","ios":"levelo://app?vid=73a2e9e8-22a2-493d-8019-77186ed06d14"},"vehicle_type_id":"4","last_reported":1701238187,"current_range_meters":19200,"station_id":"ce4bhah2rcd13ifvqej0","pricing_plan_id":"free"},{"bike_id":"fe6119e7-c38b-40bb-9fc5-279548e896a2","system_id":"levelo_inurba_marseille","lat":43.286593,"lon":5.363346,"is_reserved":false,"is_disabled":false,"rental_uris":{"android":"levelo://app?vid=fe6119e7-c38b-40bb-9fc5-279548e896a2","ios":"levelo://app?vid=fe6119e7-c38b-40bb-9fc5-279548e896a2"},"vehicle_type_id":"4","last_reported":1701238187,"current_range_meters":29600,"station_id":"ce4bhah2rcd13ifvqej0","pricing_plan_id":"free"},{"bike_id":"dbd26251-fadf-421d-9592-7616fbb041dd","system_id":"levelo_inurba_marseille","lat":43.286593,"lon":5.363346,"is_reserved":false,"is_disabled":false,"rental_uris":{"android":"levelo://app?vid=dbd26251-fadf-421d-9592-7616fbb041dd","ios":"levelo://app?vid=dbd26251-fadf-421d-9592-7616fbb041dd"},"vehicle_type_id":"4","last_reported":1701238187,"current_range_meters":16400,"station_id":"ce4bhah2rcd13ifvqej0","pricing_plan_id":"free"},{"bike_id":"f3c25e05-acea-401c-b66b-350c8e3a8fa3","system_id":"levelo_inurba_marseille","lat":43.286961,"lon":5.373785,"is_reserved":false,"is_disabled":false,"rental_uris":{"android":"levelo://app?vid=f3c25e05-acea-401c-b66b-350c8e3a8fa3","ios":"levelo://app?vid=f3c25e05-acea-401c-b66b-350c8e3a8fa3"},"vehicle_type_id":"4","last_reported":1701238187,"current_range_meters":24000,"station_id":"ce4bh3p2rcd13ifvqdq0","pricing_plan_id":"free"},{"bike_id":"c07f0312-a415-4cc2-81a0-38436b7503c9","system_id":"levelo_inurba_marseille","lat":43.286593,"lon":5.363346,"is_reserved":false,"is_disabled":false,"rental_uris":{"android":"levelo://app?vid=c07f0312-a415-4cc2-81a0-38436b7503c9","ios":"levelo://app?vid=c07f0312-a415-4cc2-81a0-38436b7503c9"},"vehicle_type_id":"4","last_reported":1701238187,"current_range_meters":31200,"station_id":"ce4bhah2rcd13ifvqej0","pricing_plan_id":"free"},{"bike_id":"00badb3d-21f6-427b-a43c-c7e91b23a2b5","system_id":"levelo_inurba_marseille","lat":43.286961,"lon":5.373785,"is_reserved":false,"is_disabled":false,"rental_uris":{"android":"levelo://app?vid=00badb3d-21f6-427b-a43c-c7e91b23a2b5","ios":"levelo://app?vid=00badb3d-21f6-427b-a43c-c7e91b23a2b5"},"vehicle_type_id":"4","last_reported":1701238187,"current_range_meters":28400,"station_id":"ce4bh3p2rcd13ifvqdq0","pricing_plan_id":"free"},{"bike_id":"910b0632-74d1-4458-bd82-5c82a3b73883","system_id":"levelo_inurba_marseille","lat":43.286593,"lon":5.363346,"is_reserved":false,"is_disabled":false,"rental_uris":{"android":"levelo://app?vid=910b0632-74d1-4458-bd82-5c82a3b73883","ios":"levelo://app?vid=910b0632-74d1-4458-bd82-5c82a3b73883"},"vehicle_type_id":"4","last_reported":1701238187,"current_range_meters":13200,"station_id":"ce4bhah2rcd13ifvqej0","pricing_plan_id":"free"},{"bike_id":"60d67949-5332-480e-8331-92cea7c53c81","system_id":"levelo_inurba_marseille","lat":43.286591,"lon":5.363346,"is_reserved":false,"is_disabled":false,"rental_uris":{"android":"levelo://app?vid=60d67949-5332-480e-8331-92cea7c53c81","ios":"levelo://app?vid=60d67949-5332-480e-8331-92cea7c53c81"},"vehicle_type_id":"4","last_reported":1701238187,"current_range_meters":26000,"station_id":"ce4bhah2rcd13ifvqej0","pricing_plan_id":"free"},{"bike_id":"e95cc522-325c-4c95-bed6-a2c4b4257899","system_id":"levelo_inurba_marseille","lat":43.289307,"lon":5.38406,"is_reserved":false,"is_disabled":false,"rental_uris":{"android":"levelo://app?vid=e95cc522-325c-4c95-bed6-a2c4b4257899","ios":"levelo://app?vid=e95cc522-325c-4c95-bed6-a2c4b4257899"},"vehicle_type_id":"4","last_reported":1701238187,"current_range_meters":27200,"station_id":"ce4bh612rcd13ifvqe6g","pricing_plan_id":"free"},{"bike_id":"ebe50efd-303e-4b31-a84f-9142c67b01ca","system_id":"levelo_inurba_marseille","lat":43.2903,"lon":5.38647,"is_reserved":false,"is_disabled":false,"rental_uris":{"android":"levelo://app?vid=ebe50efd-303e-4b31-a84f-9142c67b01ca","ios":"levelo://app?vid=ebe50efd-303e-4b31-a84f-9142c67b01ca"},"vehicle_type_id":"4","last_reported":1701238187,"current_range_meters":22000,"station_id":"","pricing_plan_id":"free"},{"bike_id":"9c170648-b835-4ed8-b22f-974e731efb3e","system_id":"levelo_inurba_marseille","lat":43.286039,"lon":5.370681,"is_reserved":false,"is_disabled":false,"rental_uris":{"android":"levelo://app?vid=9c170648-b835-4ed8-b22f-974e731efb3e","ios":"levelo://app?vid=9c170648-b835-4ed8-b22f-974e731efb3e"},"vehicle_type_id":"4","last_reported":1701238187,"current_range_meters":4400,"station_id":"ce4bht12rcd13ifvqi60","pricing_plan_id":"free"},{"bike_id":"9128693d-c5ee-429a-b0c7-efe2503bfcfb","system_id":"levelo_inurba_marseille","lat":43.291994,"lon":5.392907,"is_reserved":false,"is_disabled":false,"rental_uris":{"android":"levelo://app?vid=9128693d-c5ee-429a-b0c7-efe2503bfcfb","ios":"levelo://app?vid=9128693d-c5ee-429a-b0c7-efe2503bfcfb"},"vehicle_type_id":"4","last_reported":1701238187,"current_range_meters":26800,"station_id":"ce4bh192rcd13ifvqdd0","pricing_plan_id":"free"},{"bike_id":"13ef9b81-dddf-4300-b06a-fa2d7b791a32","system_id":"levelo_inurba_marseille","lat":43.29204,"lon":5.39333,"is_reserved":false,"is_disabled":false,"rental_uris":{"android":"levelo://app?vid=13ef9b81-dddf-4300-b06a-fa2d7b791a32","ios":"levelo://app?vid=13ef9b81-dddf-4300-b06a-fa2d7b791a32"},"vehicle_type_id":"4","last_reported":1701238187,"current_range_meters":1600,"station_id":"ce4bh192rcd13ifvqdd0","pricing_plan_id":"free"},{"bike_id":"736457ac-9954-4414-85f7-0ffdab74d67f","system_id":"levelo_inurba_marseille","lat":43.28468,"lon":5.358895,"is_reserved":false,"is_disabled":false,"rental_uris":{"android":"levelo://app?vid=736457ac-9954-4414-85f7-0ffdab74d67f","ios":"levelo://app?vid=736457ac-9954-4414-85f7-0ffdab74d67f"},"vehicle_type_id":"4","last_reported":1701238187,"current_range_meters":30000,"station_id":"ce4bhah2rcd13ifvqei0","pricing_plan_id":"free"},{"bike_id":"25c2ec6d-e178-4d2f-88d3-840244cb8ec0","system_id":"levelo_inurba_marseille","lat":43.284534,"lon":5.358662,"is_reserved":false,"is_disabled":false,"rental_uris":{"android":"levelo://app?vid=25c2ec6d-e178-4d2f-88d3-840244cb8ec0","ios":"levelo://app?vid=25c2ec6d-e178-4d2f-88d3-840244cb8ec0"},"vehicle_type_id":"4","last_reported":1701238187,"current_range_meters":31200,"station_id":"ce4bhah2rcd13ifvqei0","pricing_plan_id":"free"},{"bike_id":"5e43b6eb-37fc-481f-83f6-a4b4faa34f4f","system_id":"levelo_inurba_marseille","lat":43.284538,"lon":5.358657,"is_reserved":false,"is_disabled":false,"rental_uris":{"android":"levelo://app?vid=5e43b6eb-37fc-481f-83f6-a4b4faa34f4f","ios":"levelo://app?vid=5e43b6eb-37fc-481f-83f6-a4b4faa34f4f"},"vehicle_type_id":"4","last_reported":1701238187,"current_range_meters":28800,"station_id":"ce4bhah2rcd13ifvqei0","pricing_plan_id":"free"},{"bike_id":"38e20aee-0f2e-4b14-beaf-ebce34830f09","system_id":"levelo_inurba_marseille","lat":43.284538,"lon":5.358657,"is_reserved":false,"is_disabled":false,"rental_uris":{"android":"levelo://app?vid=38e20aee-0f2e-4b14-beaf-ebce34830f09","ios":"levelo://app?vid=38e20aee-0f2e-4b14-beaf-ebce34830f09"},"vehicle_type_id":"4","last_reported":1701238187,"current_range_meters":31200,"station_id":"ce4bhah2rcd13ifvqei0","pricing_plan_id":"free"},{"bike_id":"fd258b51-4b33-4a0a-953f-4cc898e3f8f9","system_id":"levelo_inurba_marseille","lat":43.284534,"lon":5.358662,"is_reserved":false,"is_disabled":false,"rental_uris":{"android":"levelo://app?vid=fd258b51-4b33-4a0a-953f-4cc898e3f8f9","ios":"levelo://app?vid=fd258b51-4b33-4a0a-953f-4cc898e3f8f9"},"vehicle_type_id":"4","last_reported":1701238187,"current_range_meters":30000,"station_id":"ce4bhah2rcd13ifvqei0","pricing_plan_id":"free"},{"bike_id":"f9d317a2-ff24-41e6-9549-7f0d05f9ec1e","system_id":"levelo_inurba_marseille","lat":43.284534,"lon":5.358662,"is_reserved":false,"is_disabled":false,"rental_uris":{"android":"levelo://app?vid=f9d317a2-ff24-41e6-9549-7f0d05f9ec1e","ios":"levelo://app?vid=f9d317a2-ff24-41e6-9549-7f0d05f9ec1e"},"vehicle_type_id":"4","last_reported":1701238187,"current_range_meters":25200,"station_id":"ce4bhah2rcd13ifvqei0","pricing_plan_id":"free"},{"bike_id":"e4f5a648-844b-4fdf-adea-a3e6c94eb263","system_id":"levelo_inurba_marseille","lat":43.284534,"lon":5.358662,"is_reserved":false,"is_disabled":false,"rental_uris":{"android":"levelo://app?vid=e4f5a648-844b-4fdf-adea-a3e6c94eb263","ios":"levelo://app?vid=e4f5a648-844b-4fdf-adea-a3e6c94eb263"},"vehicle_type_id":"4","last_reported":1701238187,"current_range_meters":31200,"station_id":"ce4bhah2rcd13ifvqei0","pricing_plan_id":"free"},{"bike_id":"b7ac0b70-e1f3-45e6-8c72-587f249de1c7","system_id":"levelo_inurba_marseille","lat":43.283998,"lon":5.375062,"is_reserved":false,"is_disabled":false,"rental_uris":{"android":"levelo://app?vid=b7ac0b70-e1f3-45e6-8c72-587f249de1c7","ios":"levelo://app?vid=b7ac0b70-e1f3-45e6-8c72-587f249de1c7"},"vehicle_type_id":"4","last_reported":1701238187,"current_range_meters":24000,"station_id":"ce4bh412rcd13ifvqds0","pricing_plan_id":"free"},{"bike_id":"bb08fba1-1d85-49f3-bb19-f02b2f43a564","system_id":"levelo_inurba_marseille","lat":43.284078,"lon":5.375161,"is_reserved":false,"is_disabled":false,"rental_uris":{"android":"levelo://app?vid=bb08fba1-1d85-49f3-bb19-f02b2f43a564","ios":"levelo://app?vid=bb08fba1-1d85-49f3-bb19-f02b2f43a564"},"vehicle_type_id":"4","last_reported":1701238187,"current_range_meters":29200,"station_id":"ce4bh412rcd13ifvqds0","pricing_plan_id":"free"},{"bike_id":"54a0cfc3-0189-4d2f-9bf2-92e16374ced4","system_id":"levelo_inurba_marseille","lat":43.284075,"lon":5.375166,"is_reserved":false,"is_disabled":false,"rental_uris":{"android":"levelo://app?vid=54a0cfc3-0189-4d2f-9bf2-92e16374ced4","ios":"levelo://app?vid=54a0cfc3-0189-4d2f-9bf2-92e16374ced4"},"vehicle_type_id":"4","last_reported":1701238187,"current_range_meters":3600,"station_id":"ce4bh412rcd13ifvqds0","pricing_plan_id":"free"},{"bike_id":"72860c30-41d4-4bc7-8010-479f025df774","system_id":"levelo_inurba_marseille","lat":43.284072,"lon":5.375206,"is_reserved":false,"is_disabled":false,"rental_uris":{"android":"levelo://app?vid=72860c30-41d4-4bc7-8010-479f025df774","ios":"levelo://app?vid=72860c30-41d4-4bc7-8010-479f025df774"},"vehicle_type_id":"4","last_reported":1701238187,"current_range_meters":9600,"station_id":"ce4bh412rcd13ifvqds0","pricing_plan_id":"free"},{"bike_id":"461dd545-0c00-4a3d-be06-77ace2c40c2c","system_id":"levelo_inurba_marseille","lat":43.295713,"lon":5.399639,"is_reserved":false,"is_disabled":false,"rental_uris":{"android":"levelo://app?vid=461dd545-0c00-4a3d-be06-77ace2c40c2c","ios":"levelo://app?vid=461dd545-0c00-4a3d-be06-77ace2c40c2c"},"vehicle_type_id":"4","last_reported":1701238187,"current_range_meters":27600,"station_id":"ce4bh312rcd13ifvqdj0","pricing_plan_id":"free"},{"bike_id":"6dc3fd46-e5a0-40f5-be80-0dbf1eb835cf","system_id":"levelo_inurba_marseille","lat":43.295713,"lon":5.399639,"is_reserved":false,"is_disabled":false,"rental_uris":{"android":"levelo://app?vid=6dc3fd46-e5a0-40f5-be80-0dbf1eb835cf","ios":"levelo://app?vid=6dc3fd46-e5a0-40f5-be80-0dbf1eb835cf"},"vehicle_type_id":"4","last_reported":1701238187,"current_range_meters":28000,"station_id":"ce4bh312rcd13ifvqdj0","pricing_plan_id":"free"},{"bike_id":"c79952c3-9903-4ddd-a0f0-e09c439ad3e3","system_id":"levelo_inurba_marseille","lat":43.295713,"lon":5.399639,"is_reserved":false,"is_disabled":false,"rental_uris":{"android":"levelo://app?vid=c79952c3-9903-4ddd-a0f0-e09c439ad3e3","ios":"levelo://app?vid=c79952c3-9903-4ddd-a0f0-e09c439ad3e3"},"vehicle_type_id":"4","last_reported":1701238187,"current_range_meters":400,"station_id":"ce4bh312rcd13ifvqdj0","pricing_plan_id":"free"},{"bike_id":"d4d75069-67e2-4cc3-badd-8e669865f20d","system_id":"levelo_inurba_marseille","lat":43.29574,"lon":5.39982,"is_reserved":false,"is_disabled":false,"rental_uris":{"android":"levelo://app?vid=d4d75069-67e2-4cc3-badd-8e669865f20d","ios":"levelo://app?vid=d4d75069-67e2-4cc3-badd-8e669865f20d"},"vehicle_type_id":"4","last_reported":1701238187,"current_range_meters":28000,"station_id":"ce4bh312rcd13ifvqdj0","pricing_plan_id":"free"},{"bike_id":"47e94687-26eb-4171-98b1-dcc28cd21487","system_id":"levelo_inurba_marseille","lat":43.295713,"lon":5.399639,"is_reserved":false,"is_disabled":false,"rental_uris":{"android":"levelo://app?vid=47e94687-26eb-4171-98b1-dcc28cd21487","ios":"levelo://app?vid=47e94687-26eb-4171-98b1-dcc28cd21487"},"vehicle_type_id":"4","last_reported":1701238187,"current_range_meters":27600,"station_id":"ce4bh312rcd13ifvqdj0","pricing_plan_id":"free"},{"bike_id":"965087ee-e084-4dfe-a087-1c07b896b1c4","system_id":"levelo_inurba_marseille","lat":43.2957,"lon":5.3998,"is_reserved":false,"is_disabled":false,"rental_uris":{"android":"levelo://app?vid=965087ee-e084-4dfe-a087-1c07b896b1c4","ios":"levelo://app?vid=965087ee-e084-4dfe-a087-1c07b896b1c4"},"vehicle_type_id":"4","last_reported":1701238187,"current_range_meters":28800,"station_id":"ce4bh312rcd13ifvqdj0","pricing_plan_id":"free"},{"bike_id":"7004b651-298f-4534-9dc2-d6c58a53bdb9","system_id":"levelo_inurba_marseille","lat":43.295713,"lon":5.399639,"is_reserved":false,"is_disabled":false,"rental_uris":{"android":"levelo://app?vid=7004b651-298f-4534-9dc2-d6c58a53bdb9","ios":"levelo://app?vid=7004b651-298f-4534-9dc2-d6c58a53bdb9"},"vehicle_type_id":"4","last_reported":1701238187,"current_range_meters":27600,"station_id":"ce4bh312rcd13ifvqdj0","pricing_plan_id":"free"},{"bike_id":"8f919d1c-4563-4250-9c8d-46b61add1583","system_id":"levelo_inurba_marseille","lat":43.29569,"lon":5.399816,"is_reserved":false,"is_disabled":false,"rental_uris":{"android":"levelo://app?vid=8f919d1c-4563-4250-9c8d-46b61add1583","ios":"levelo://app?vid=8f919d1c-4563-4250-9c8d-46b61add1583"},"vehicle_type_id":"4","last_reported":1701238187,"current_range_meters":27600,"station_id":"ce4bh312rcd13ifvqdj0","pricing_plan_id":"free"},{"bike_id":"4bfd5491-24db-4bf8-bb8c-a0efe562bdb1","system_id":"levelo_inurba_marseille","lat":43.298681,"lon":5.397225,"is_reserved":false,"is_disabled":false,"rental_uris":{"android":"levelo://app?vid=4bfd5491-24db-4bf8-bb8c-a0efe562bdb1","ios":"levelo://app?vid=4bfd5491-24db-4bf8-bb8c-a0efe562bdb1"},"vehicle_type_id":"4","last_reported":1701238187,"current_range_meters":28400,"station_id":"ce4bh0h2rcd13ifvqd50","pricing_plan_id":"free"},{"bike_id":"9c2b0bf1-41c8-4f85-aea0-5272aa18387b","system_id":"levelo_inurba_marseille","lat":43.297946,"lon":5.404063,"is_reserved":false,"is_disabled":false,"rental_uris":{"android":"levelo://app?vid=9c2b0bf1-41c8-4f85-aea0-5272aa18387b","ios":"levelo://app?vid=9c2b0bf1-41c8-4f85-aea0-5272aa18387b"},"vehicle_type_id":"4","last_reported":1701238187,"current_range_meters":30000,"station_id":"ce4bh112rcd13ifvqd90","pricing_plan_id":"free"},{"bike_id":"08f18a58-04e6-4cf4-aca5-b83202313fc9","system_id":"levelo_inurba_marseille","lat":43.288563,"lon":5.393037,"is_reserved":false,"is_disabled":false,"rental_uris":{"android":"levelo://app?vid=08f18a58-04e6-4cf4-aca5-b83202313fc9","ios":"levelo://app?vid=08f18a58-04e6-4cf4-aca5-b83202313fc9"},"vehicle_type_id":"4","last_reported":1701238187,"current_range_meters":0,"station_id":"ce4bh2p2rcd13ifvqdi0","pricing_plan_id":"free"},{"bike_id":"438ea98d-bbf8-4841-a9da-0dd1e60fd016","system_id":"levelo_inurba_marseille","lat":43.297946,"lon":5.404063,"is_reserved":false,"is_disabled":false,"rental_uris":{"android":"levelo://app?vid=438ea98d-bbf8-4841-a9da-0dd1e60fd016","ios":"levelo://app?vid=438ea98d-bbf8-4841-a9da-0dd1e60fd016"},"vehicle_type_id":"4","last_reported":1701238187,"current_range_meters":30000,"station_id":"ce4bh112rcd13ifvqd90","pricing_plan_id":"free"},{"bike_id":"c480e1a6-29e5-4b65-aafa-91ab2f713dc8","system_id":"levelo_inurba_marseille","lat":43.288501,"lon":5.393087,"is_reserved":false,"is_disabled":false,"rental_uris":{"android":"levelo://app?vid=c480e1a6-29e5-4b65-aafa-91ab2f713dc8","ios":"levelo://app?vid=c480e1a6-29e5-4b65-aafa-91ab2f713dc8"},"vehicle_type_id":"4","last_reported":1701238187,"current_range_meters":31200,"station_id":"ce4bh2p2rcd13ifvqdi0","pricing_plan_id":"free"},{"bike_id":"111dfb90-3ac2-4a38-894a-f6e2628154ac","system_id":"levelo_inurba_marseille","lat":43.288501,"lon":5.393087,"is_reserved":false,"is_disabled":false,"rental_uris":{"android":"levelo://app?vid=111dfb90-3ac2-4a38-894a-f6e2628154ac","ios":"levelo://app?vid=111dfb90-3ac2-4a38-894a-f6e2628154ac"},"vehicle_type_id":"4","last_reported":1701238187,"current_range_meters":31200,"station_id":"ce4bh2p2rcd13ifvqdi0","pricing_plan_id":"free"},{"bike_id":"2c73d258-726b-458a-a17d-5bb59ebe2373","system_id":"levelo_inurba_marseille","lat":43.284217,"lon":5.349697,"is_reserved":false,"is_disabled":false,"rental_uris":{"android":"levelo://app?vid=2c73d258-726b-458a-a17d-5bb59ebe2373","ios":"levelo://app?vid=2c73d258-726b-458a-a17d-5bb59ebe2373"},"vehicle_type_id":"4","last_reported":1701238187,"current_range_meters":30400,"station_id":"ce4bhbh2rcd13ifvqepg","pricing_plan_id":"free"},{"bike_id":"ba4279f4-259c-43c1-a09b-c986d02f4e30","system_id":"levelo_inurba_marseille","lat":43.284219,"lon":5.3497,"is_reserved":false,"is_disabled":false,"rental_uris":{"android":"levelo://app?vid=ba4279f4-259c-43c1-a09b-c986d02f4e30","ios":"levelo://app?vid=ba4279f4-259c-43c1-a09b-c986d02f4e30"},"vehicle_type_id":"4","last_reported":1701238187,"current_range_meters":18800,"station_id":"ce4bhbh2rcd13ifvqepg","pricing_plan_id":"free"},{"bike_id":"1562f9ac-8fa1-4b1c-a12e-af0ae46032f5","system_id":"levelo_inurba_marseille","lat":43.284217,"lon":5.349697,"is_reserved":false,"is_disabled":false,"rental_uris":{"android":"levelo://app?vid=1562f9ac-8fa1-4b1c-a12e-af0ae46032f5","ios":"levelo://app?vid=1562f9ac-8fa1-4b1c-a12e-af0ae46032f5"},"vehicle_type_id":"4","last_reported":1701238187,"current_range_meters":29200,"station_id":"ce4bhbh2rcd13ifvqepg","pricing_plan_id":"free"},{"bike_id":"07191867-67ab-4f80-9f97-704f21ec50dc","system_id":"levelo_inurba_marseille","lat":43.283502,"lon":5.386471,"is_reserved":false,"is_disabled":false,"rental_uris":{"android":"levelo://app?vid=07191867-67ab-4f80-9f97-704f21ec50dc","ios":"levelo://app?vid=07191867-67ab-4f80-9f97-704f21ec50dc"},"vehicle_type_id":"4","last_reported":1701238187,"current_range_meters":24800,"station_id":"ce4bh492rcd13ifvqdvg","pricing_plan_id":"free"},{"bike_id":"7cab3f8d-f8d9-4c6f-9940-3a2d51219c66","system_id":"levelo_inurba_marseille","lat":43.282754,"lon":5.350519,"is_reserved":false,"is_disabled":false,"rental_uris":{"android":"levelo://app?vid=7cab3f8d-f8d9-4c6f-9940-3a2d51219c66","ios":"levelo://app?vid=7cab3f8d-f8d9-4c6f-9940-3a2d51219c66"},"vehicle_type_id":"4","last_reported":1701238187,"current_range_meters":28000,"station_id":"ce4bhbp2rcd13ifvqerg","pricing_plan_id":"free"},{"bike_id":"e4aeb4f8-feae-40be-9dd8-4f8912d79314","system_id":"levelo_inurba_marseille","lat":43.282744,"lon":5.350533,"is_reserved":false,"is_disabled":false,"rental_uris":{"android":"levelo://app?vid=e4aeb4f8-feae-40be-9dd8-4f8912d79314","ios":"levelo://app?vid=e4aeb4f8-feae-40be-9dd8-4f8912d79314"},"vehicle_type_id":"4","last_reported":1701238187,"current_range_meters":27600,"station_id":"ce4bhbp2rcd13ifvqerg","pricing_plan_id":"free"},{"bike_id":"d5956e3d-d3de-48b3-9bec-2beb921f893f","system_id":"levelo_inurba_marseille","lat":43.282618,"lon":5.350789,"is_reserved":false,"is_disabled":false,"rental_uris":{"android":"levelo://app?vid=d5956e3d-d3de-48b3-9bec-2beb921f893f","ios":"levelo://app?vid=d5956e3d-d3de-48b3-9bec-2beb921f893f"},"vehicle_type_id":"4","last_reported":1701238187,"current_range_meters":19600,"station_id":"ce4bhbp2rcd13ifvqerg","pricing_plan_id":"free"},{"bike_id":"f8e93a5f-b85d-4c01-8630-1453bb55b231","system_id":"levelo_inurba_marseille","lat":43.28262,"lon":5.35077,"is_reserved":false,"is_disabled":false,"rental_uris":{"android":"levelo://app?vid=f8e93a5f-b85d-4c01-8630-1453bb55b231","ios":"levelo://app?vid=f8e93a5f-b85d-4c01-8630-1453bb55b231"},"vehicle_type_id":"4","last_reported":1701238187,"current_range_meters":31200,"station_id":"ce4bhbp2rcd13ifvqerg","pricing_plan_id":"free"},{"bike_id":"f947ac04-b32d-4416-b67f-d60000149146","system_id":"levelo_inurba_marseille","lat":43.282631,"lon":5.350716,"is_reserved":false,"is_disabled":false,"rental_uris":{"android":"levelo://app?vid=f947ac04-b32d-4416-b67f-d60000149146","ios":"levelo://app?vid=f947ac04-b32d-4416-b67f-d60000149146"},"vehicle_type_id":"4","last_reported":1701238187,"current_range_meters":30400,"station_id":"ce4bhbp2rcd13ifvqerg","pricing_plan_id":"free"},{"bike_id":"02c5e94d-af4d-4288-85c2-35168750e080","system_id":"levelo_inurba_marseille","lat":43.280368,"lon":5.369443,"is_reserved":false,"is_disabled":false,"rental_uris":{"android":"levelo://app?vid=02c5e94d-af4d-4288-85c2-35168750e080","ios":"levelo://app?vid=02c5e94d-af4d-4288-85c2-35168750e080"},"vehicle_type_id":"4","last_reported":1701238187,"current_range_meters":27600,"station_id":"ce4bha12rcd13ifvqef0","pricing_plan_id":"free"},{"bike_id":"52247a62-d59f-4d74-bea3-d9131cb788c0","system_id":"levelo_inurba_marseille","lat":43.28039,"lon":5.369297,"is_reserved":false,"is_disabled":false,"rental_uris":{"android":"levelo://app?vid=52247a62-d59f-4d74-bea3-d9131cb788c0","ios":"levelo://app?vid=52247a62-d59f-4d74-bea3-d9131cb788c0"},"vehicle_type_id":"4","last_reported":1701238187,"current_range_meters":28800,"station_id":"ce4bha12rcd13ifvqef0","pricing_plan_id":"free"},{"bike_id":"4b5b5b9a-04c9-4c9b-9f27-7f62860aeb4d","system_id":"levelo_inurba_marseille","lat":43.28025,"lon":5.36957,"is_reserved":false,"is_disabled":false,"rental_uris":{"android":"levelo://app?vid=4b5b5b9a-04c9-4c9b-9f27-7f62860aeb4d","ios":"levelo://app?vid=4b5b5b9a-04c9-4c9b-9f27-7f62860aeb4d"},"vehicle_type_id":"4","last_reported":1701238187,"current_range_meters":24000,"station_id":"ce4bha12rcd13ifvqef0","pricing_plan_id":"free"},{"bike_id":"91fc692b-da10-4e7e-a320-a3b83a3c1d45","system_id":"levelo_inurba_marseille","lat":43.29044,"lon":5.39967,"is_reserved":false,"is_disabled":false,"rental_uris":{"android":"levelo://app?vid=91fc692b-da10-4e7e-a320-a3b83a3c1d45","ios":"levelo://app?vid=91fc692b-da10-4e7e-a320-a3b83a3c1d45"},"vehicle_type_id":"4","last_reported":1701238187,"current_range_meters":24800,"station_id":"ce4bh392rcd13ifvqdm0","pricing_plan_id":"free"},{"bike_id":"dd8f6f18-8f00-46a1-b004-9d431973f084","system_id":"levelo_inurba_marseille","lat":43.29041,"lon":5.399634,"is_reserved":false,"is_disabled":false,"rental_uris":{"android":"levelo://app?vid=dd8f6f18-8f00-46a1-b004-9d431973f084","ios":"levelo://app?vid=dd8f6f18-8f00-46a1-b004-9d431973f084"},"vehicle_type_id":"4","last_reported":1701238187,"current_range_meters":20400,"station_id":"ce4bh392rcd13ifvqdm0","pricing_plan_id":"free"},{"bike_id":"9b488ac3-ef99-4601-b01c-81499f798224","system_id":"levelo_inurba_marseille","lat":43.284468,"lon":5.391873,"is_reserved":false,"is_disabled":false,"rental_uris":{"android":"levelo://app?vid=9b488ac3-ef99-4601-b01c-81499f798224","ios":"levelo://app?vid=9b488ac3-ef99-4601-b01c-81499f798224"},"vehicle_type_id":"4","last_reported":1701238187,"current_range_meters":4000,"station_id":"ce4bhoh2rcd13ifvqh5g","pricing_plan_id":"free"},{"bike_id":"c41eb779-c361-45d6-9202-6e28bb206143","system_id":"levelo_inurba_marseille","lat":43.28573,"lon":5.394992,"is_reserved":false,"is_disabled":false,"rental_uris":{"android":"levelo://app?vid=c41eb779-c361-45d6-9202-6e28bb206143","ios":"levelo://app?vid=c41eb779-c361-45d6-9202-6e28bb206143"},"vehicle_type_id":"4","last_reported":1701238187,"current_range_meters":28400,"station_id":"ce4bh292rcd13ifvqdg0","pricing_plan_id":"free"},{"bike_id":"91d5a3ba-2b12-40f6-84a3-9eb5a1f67721","system_id":"levelo_inurba_marseille","lat":43.28573,"lon":5.394992,"is_reserved":false,"is_disabled":false,"rental_uris":{"android":"levelo://app?vid=91d5a3ba-2b12-40f6-84a3-9eb5a1f67721","ios":"levelo://app?vid=91d5a3ba-2b12-40f6-84a3-9eb5a1f67721"},"vehicle_type_id":"4","last_reported":1701238187,"current_range_meters":31200,"station_id":"ce4bh292rcd13ifvqdg0","pricing_plan_id":"free"},{"bike_id":"a708fc34-8aab-442c-b226-a00b3999fbb1","system_id":"levelo_inurba_marseille","lat":43.28573,"lon":5.394992,"is_reserved":false,"is_disabled":false,"rental_uris":{"android":"levelo://app?vid=a708fc34-8aab-442c-b226-a00b3999fbb1","ios":"levelo://app?vid=a708fc34-8aab-442c-b226-a00b3999fbb1"},"vehicle_type_id":"4","last_reported":1701238187,"current_range_meters":23200,"station_id":"ce4bh292rcd13ifvqdg0","pricing_plan_id":"free"},{"bike_id":"1e52b1ce-4e03-479b-b074-efaff2ea3d0e","system_id":"levelo_inurba_marseille","lat":43.287154,"lon":5.399979,"is_reserved":false,"is_disabled":false,"rental_uris":{"android":"levelo://app?vid=1e52b1ce-4e03-479b-b074-efaff2ea3d0e","ios":"levelo://app?vid=1e52b1ce-4e03-479b-b074-efaff2ea3d0e"},"vehicle_type_id":"4","last_reported":1701238187,"current_range_meters":30800,"station_id":"ce4bho92rcd13ifvqh3g","pricing_plan_id":"free"},{"bike_id":"3e492f28-b62d-4c0f-a2b0-70e837f8e1e5","system_id":"levelo_inurba_marseille","lat":43.287154,"lon":5.399979,"is_reserved":false,"is_disabled":false,"rental_uris":{"android":"levelo://app?vid=3e492f28-b62d-4c0f-a2b0-70e837f8e1e5","ios":"levelo://app?vid=3e492f28-b62d-4c0f-a2b0-70e837f8e1e5"},"vehicle_type_id":"4","last_reported":1701238187,"current_range_meters":31200,"station_id":"ce4bho92rcd13ifvqh3g","pricing_plan_id":"free"},{"bike_id":"a63e94f6-d903-4faa-b5fe-c68ec9edcb8d","system_id":"levelo_inurba_marseille","lat":43.287154,"lon":5.399979,"is_reserved":false,"is_disabled":false,"rental_uris":{"android":"levelo://app?vid=a63e94f6-d903-4faa-b5fe-c68ec9edcb8d","ios":"levelo://app?vid=a63e94f6-d903-4faa-b5fe-c68ec9edcb8d"},"vehicle_type_id":"4","last_reported":1701238187,"current_range_meters":22400,"station_id":"ce4bho92rcd13ifvqh3g","pricing_plan_id":"free"},{"bike_id":"0c7d5fff-4ebf-4502-b182-6822c72806f3","system_id":"levelo_inurba_marseille","lat":43.287154,"lon":5.399979,"is_reserved":false,"is_disabled":false,"rental_uris":{"android":"levelo://app?vid=0c7d5fff-4ebf-4502-b182-6822c72806f3","ios":"levelo://app?vid=0c7d5fff-4ebf-4502-b182-6822c72806f3"},"vehicle_type_id":"4","last_reported":1701238187,"current_range_meters":19200,"station_id":"ce4bho92rcd13ifvqh3g","pricing_plan_id":"free"},{"bike_id":"553703cc-a198-4b7c-b4f7-88e7d2d9a97c","system_id":"levelo_inurba_marseille","lat":43.299579,"lon":5.413255,"is_reserved":false,"is_disabled":false,"rental_uris":{"android":"levelo://app?vid=553703cc-a198-4b7c-b4f7-88e7d2d9a97c","ios":"levelo://app?vid=553703cc-a198-4b7c-b4f7-88e7d2d9a97c"},"vehicle_type_id":"4","last_reported":1701238187,"current_range_meters":23600,"station_id":"ce4bhp12rcd13ifvqh9g","pricing_plan_id":"free"},{"bike_id":"c9f5885a-65ab-4ae9-b6da-71b5329c790b","system_id":"levelo_inurba_marseille","lat":43.279795,"lon":5.38751,"is_reserved":false,"is_disabled":false,"rental_uris":{"android":"levelo://app?vid=c9f5885a-65ab-4ae9-b6da-71b5329c790b","ios":"levelo://app?vid=c9f5885a-65ab-4ae9-b6da-71b5329c790b"},"vehicle_type_id":"4","last_reported":1701238187,"current_range_meters":28400,"station_id":"ce4bhg12rcd13ifvqf80","pricing_plan_id":"free"},{"bike_id":"81753472-79e0-4cfa-a233-20c0ecbe4c0a","system_id":"levelo_inurba_marseille","lat":43.320045,"lon":5.415046,"is_reserved":false,"is_disabled":false,"rental_uris":{"android":"levelo://app?vid=81753472-79e0-4cfa-a233-20c0ecbe4c0a","ios":"levelo://app?vid=81753472-79e0-4cfa-a233-20c0ecbe4c0a"},"vehicle_type_id":"4","last_reported":1701238187,"current_range_meters":28400,"station_id":"ce4bhq92rcd13ifvqhkg","pricing_plan_id":"free"},{"bike_id":"c35c24cb-35b6-455f-83cb-19fc23708fa6","system_id":"levelo_inurba_marseille","lat":43.279742,"lon":5.38744,"is_reserved":false,"is_disabled":false,"rental_uris":{"android":"levelo://app?vid=c35c24cb-35b6-455f-83cb-19fc23708fa6","ios":"levelo://app?vid=c35c24cb-35b6-455f-83cb-19fc23708fa6"},"vehicle_type_id":"4","last_reported":1701238187,"current_range_meters":18000,"station_id":"ce4bhg12rcd13ifvqf80","pricing_plan_id":"free"},{"bike_id":"50289298-ce8a-4ddf-bd57-79e118aafb72","system_id":"levelo_inurba_marseille","lat":43.279656,"lon":5.387305,"is_reserved":false,"is_disabled":false,"rental_uris":{"android":"levelo://app?vid=50289298-ce8a-4ddf-bd57-79e118aafb72","ios":"levelo://app?vid=50289298-ce8a-4ddf-bd57-79e118aafb72"},"vehicle_type_id":"4","last_reported":1701238187,"current_range_meters":30000,"station_id":"ce4bhg12rcd13ifvqf80","pricing_plan_id":"free"},{"bike_id":"1ab9ebae-19f0-4642-bdf6-bf7d803695d1","system_id":"levelo_inurba_marseille","lat":43.27962,"lon":5.38732,"is_reserved":false,"is_disabled":false,"rental_uris":{"android":"levelo://app?vid=1ab9ebae-19f0-4642-bdf6-bf7d803695d1","ios":"levelo://app?vid=1ab9ebae-19f0-4642-bdf6-bf7d803695d1"},"vehicle_type_id":"4","last_reported":1701238187,"current_range_meters":25200,"station_id":"ce4bhg12rcd13ifvqf80","pricing_plan_id":"free"},{"bike_id":"0d410972-8ed3-4feb-8b85-4fc4b172d7fc","system_id":"levelo_inurba_marseille","lat":43.27621,"lon":5.36111,"is_reserved":false,"is_disabled":false,"rental_uris":{"android":"levelo://app?vid=0d410972-8ed3-4feb-8b85-4fc4b172d7fc","ios":"levelo://app?vid=0d410972-8ed3-4feb-8b85-4fc4b172d7fc"},"vehicle_type_id":"4","last_reported":1701238187,"current_range_meters":16800,"station_id":"ce4bgj92rcd13ifvqbe0","pricing_plan_id":"free"},{"bike_id":"0ae4b498-b77c-4813-af12-4503794660e1","system_id":"levelo_inurba_marseille","lat":43.280784,"lon":5.396622,"is_reserved":false,"is_disabled":false,"rental_uris":{"android":"levelo://app?vid=0ae4b498-b77c-4813-af12-4503794660e1","ios":"levelo://app?vid=0ae4b498-b77c-4813-af12-4503794660e1"},"vehicle_type_id":"4","last_reported":1701238187,"current_range_meters":30000,"station_id":"ce4bho12rcd13ifvqh2g","pricing_plan_id":"free"},{"bike_id":"c78d9778-891e-4402-aafb-a0e1da2ab261","system_id":"levelo_inurba_marseille","lat":43.275625,"lon":5.384392,"is_reserved":false,"is_disabled":false,"rental_uris":{"android":"levelo://app?vid=c78d9778-891e-4402-aafb-a0e1da2ab261","ios":"levelo://app?vid=c78d9778-891e-4402-aafb-a0e1da2ab261"},"vehicle_type_id":"4","last_reported":1701238187,"current_range_meters":31200,"station_id":"ce4bhh92rcd13ifvqfi0","pricing_plan_id":"free"},{"bike_id":"df50b5d9-5f53-497f-ae5c-508414f7e8a5","system_id":"levelo_inurba_marseille","lat":43.336134,"lon":5.410341,"is_reserved":false,"is_disabled":false,"rental_uris":{"android":"levelo://app?vid=df50b5d9-5f53-497f-ae5c-508414f7e8a5","ios":"levelo://app?vid=df50b5d9-5f53-497f-ae5c-508414f7e8a5"},"vehicle_type_id":"4","last_reported":1701238187,"current_range_meters":17600,"station_id":"ce4bhqh2rcd13ifvqhmg","pricing_plan_id":"free"},{"bike_id":"dc987c73-e119-4cfc-9fa7-288eef430c87","system_id":"levelo_inurba_marseille","lat":43.276771,"lon":5.388799,"is_reserved":false,"is_disabled":false,"rental_uris":{"android":"levelo://app?vid=dc987c73-e119-4cfc-9fa7-288eef430c87","ios":"levelo://app?vid=dc987c73-e119-4cfc-9fa7-288eef430c87"},"vehicle_type_id":"4","last_reported":1701238187,"current_range_meters":30000,"station_id":"ce4bhi12rcd13ifvqfo0","pricing_plan_id":"free"},{"bike_id":"42cbd211-cbcb-479e-a7b9-21d55a10e5cb","system_id":"levelo_inurba_marseille","lat":43.317121,"lon":5.423936,"is_reserved":false,"is_disabled":false,"rental_uris":{"android":"levelo://app?vid=42cbd211-cbcb-479e-a7b9-21d55a10e5cb","ios":"levelo://app?vid=42cbd211-cbcb-479e-a7b9-21d55a10e5cb"},"vehicle_type_id":"4","last_reported":1701238187,"current_range_meters":30400,"station_id":"ce4bhp92rcd13ifvqhbg","pricing_plan_id":"free"},{"bike_id":"b96aa254-24de-41e1-8c05-b7d04ceb4118","system_id":"levelo_inurba_marseille","lat":43.317121,"lon":5.423936,"is_reserved":false,"is_disabled":false,"rental_uris":{"android":"levelo://app?vid=b96aa254-24de-41e1-8c05-b7d04ceb4118","ios":"levelo://app?vid=b96aa254-24de-41e1-8c05-b7d04ceb4118"},"vehicle_type_id":"4","last_reported":1701238187,"current_range_meters":29600,"station_id":"ce4bhp92rcd13ifvqhbg","pricing_plan_id":"free"},{"bike_id":"e91ddd9f-f57e-4e50-9717-c08f71624f1a","system_id":"levelo_inurba_marseille","lat":43.317121,"lon":5.423936,"is_reserved":false,"is_disabled":false,"rental_uris":{"android":"levelo://app?vid=e91ddd9f-f57e-4e50-9717-c08f71624f1a","ios":"levelo://app?vid=e91ddd9f-f57e-4e50-9717-c08f71624f1a"},"vehicle_type_id":"4","last_reported":1701238187,"current_range_meters":19600,"station_id":"ce4bhp92rcd13ifvqhbg","pricing_plan_id":"free"},{"bike_id":"0d2f8383-0939-4bbd-987a-b05def9a4f03","system_id":"levelo_inurba_marseille","lat":43.3108,"lon":5.4243,"is_reserved":false,"is_disabled":false,"rental_uris":{"android":"levelo://app?vid=0d2f8383-0939-4bbd-987a-b05def9a4f03","ios":"levelo://app?vid=0d2f8383-0939-4bbd-987a-b05def9a4f03"},"vehicle_type_id":"4","last_reported":1701238187,"current_range_meters":26400,"station_id":"ce4bhp92rcd13ifvqhag","pricing_plan_id":"free"},{"bike_id":"50f6c785-e5b1-4500-b4fa-fd0686dcadb4","system_id":"levelo_inurba_marseille","lat":43.273129,"lon":5.390725,"is_reserved":false,"is_disabled":false,"rental_uris":{"android":"levelo://app?vid=50f6c785-e5b1-4500-b4fa-fd0686dcadb4","ios":"levelo://app?vid=50f6c785-e5b1-4500-b4fa-fd0686dcadb4"},"vehicle_type_id":"4","last_reported":1701238187,"current_range_meters":25600,"station_id":"ce4bhgp2rcd13ifvqfe0","pricing_plan_id":"free"},{"bike_id":"208279bc-1d9d-4e42-be06-d13174c03725","system_id":"levelo_inurba_marseille","lat":43.274103,"lon":5.394016,"is_reserved":false,"is_disabled":false,"rental_uris":{"android":"levelo://app?vid=208279bc-1d9d-4e42-be06-d13174c03725","ios":"levelo://app?vid=208279bc-1d9d-4e42-be06-d13174c03725"},"vehicle_type_id":"4","last_reported":1701238187,"current_range_meters":27600,"station_id":"ce4bhdp2rcd13ifvqf20","pricing_plan_id":"free"},{"bike_id":"7d7043b5-0af9-4f8a-9945-a3a778c73f6d","system_id":"levelo_inurba_marseille","lat":43.304096,"lon":5.425385,"is_reserved":false,"is_disabled":false,"rental_uris":{"android":"levelo://app?vid=7d7043b5-0af9-4f8a-9945-a3a778c73f6d","ios":"levelo://app?vid=7d7043b5-0af9-4f8a-9945-a3a778c73f6d"},"vehicle_type_id":"4","last_reported":1701238187,"current_range_meters":21600,"station_id":"ce4bhoh2rcd13ifvqh6g","pricing_plan_id":"free"},{"bike_id":"ae0f6155-31e5-44f4-89ef-d2360e8a26c9","system_id":"levelo_inurba_marseille","lat":43.295511,"lon":5.422926,"is_reserved":false,"is_disabled":false,"rental_uris":{"android":"levelo://app?vid=ae0f6155-31e5-44f4-89ef-d2360e8a26c9","ios":"levelo://app?vid=ae0f6155-31e5-44f4-89ef-d2360e8a26c9"},"vehicle_type_id":"4","last_reported":1701238187,"current_range_meters":28400,"station_id":"ce4bhph2rcd13ifvqhdg","pricing_plan_id":"free"},{"bike_id":"8602d9c8-fd6b-4aa8-a389-2b99d8394dfc","system_id":"levelo_inurba_marseille","lat":43.295511,"lon":5.422926,"is_reserved":false,"is_disabled":false,"rental_uris":{"android":"levelo://app?vid=8602d9c8-fd6b-4aa8-a389-2b99d8394dfc","ios":"levelo://app?vid=8602d9c8-fd6b-4aa8-a389-2b99d8394dfc"},"vehicle_type_id":"4","last_reported":1701238187,"current_range_meters":28800,"station_id":"ce4bhph2rcd13ifvqhdg","pricing_plan_id":"free"},{"bike_id":"ba334ea1-b9a0-4c51-a6c5-0b53984e59f9","system_id":"levelo_inurba_marseille","lat":43.295523,"lon":5.422926,"is_reserved":false,"is_disabled":false,"rental_uris":{"android":"levelo://app?vid=ba334ea1-b9a0-4c51-a6c5-0b53984e59f9","ios":"levelo://app?vid=ba334ea1-b9a0-4c51-a6c5-0b53984e59f9"},"vehicle_type_id":"4","last_reported":1701238187,"current_range_meters":28000,"station_id":"ce4bhph2rcd13ifvqhdg","pricing_plan_id":"free"},{"bike_id":"62cfa572-51d4-4a04-9e45-ea785883caeb","system_id":"levelo_inurba_marseille","lat":43.272191,"lon":5.392562,"is_reserved":false,"is_disabled":false,"rental_uris":{"android":"levelo://app?vid=62cfa572-51d4-4a04-9e45-ea785883caeb","ios":"levelo://app?vid=62cfa572-51d4-4a04-9e45-ea785883caeb"},"vehicle_type_id":"4","last_reported":1701238187,"current_range_meters":14800,"station_id":"","pricing_plan_id":"free"},{"bike_id":"3225fb83-0680-4e47-b873-e4f092068a31","system_id":"levelo_inurba_marseille","lat":43.27812,"lon":5.40704,"is_reserved":false,"is_disabled":false,"rental_uris":{"android":"levelo://app?vid=3225fb83-0680-4e47-b873-e4f092068a31","ios":"levelo://app?vid=3225fb83-0680-4e47-b873-e4f092068a31"},"vehicle_type_id":"4","last_reported":1701238187,"current_range_meters":30400,"station_id":"ce4bhnh2rcd13ifvqgtg","pricing_plan_id":"free"},{"bike_id":"c9f8a0a6-16e5-4ff4-a061-6028550e1760","system_id":"levelo_inurba_marseille","lat":43.278128,"lon":5.407195,"is_reserved":false,"is_disabled":false,"rental_uris":{"android":"levelo://app?vid=c9f8a0a6-16e5-4ff4-a061-6028550e1760","ios":"levelo://app?vid=c9f8a0a6-16e5-4ff4-a061-6028550e1760"},"vehicle_type_id":"4","last_reported":1701238187,"current_range_meters":11600,"station_id":"ce4bhnh2rcd13ifvqgtg","pricing_plan_id":"free"},{"bike_id":"6747574f-fa5a-44b7-8985-92eff4b667b4","system_id":"levelo_inurba_marseille","lat":43.278128,"lon":5.407195,"is_reserved":false,"is_disabled":false,"rental_uris":{"android":"levelo://app?vid=6747574f-fa5a-44b7-8985-92eff4b667b4","ios":"levelo://app?vid=6747574f-fa5a-44b7-8985-92eff4b667b4"},"vehicle_type_id":"4","last_reported":1701238187,"current_range_meters":4000,"station_id":"ce4bhnh2rcd13ifvqgtg","pricing_plan_id":"free"},{"bike_id":"861ce127-c633-47c4-a541-50848c0dc844","system_id":"levelo_inurba_marseille","lat":43.278128,"lon":5.407195,"is_reserved":false,"is_disabled":false,"rental_uris":{"android":"levelo://app?vid=861ce127-c633-47c4-a541-50848c0dc844","ios":"levelo://app?vid=861ce127-c633-47c4-a541-50848c0dc844"},"vehicle_type_id":"4","last_reported":1701238187,"current_range_meters":26000,"station_id":"ce4bhnh2rcd13ifvqgtg","pricing_plan_id":"free"},{"bike_id":"39347131-f3f0-4227-aa2a-a16ec48c45a8","system_id":"levelo_inurba_marseille","lat":43.278128,"lon":5.407195,"is_reserved":false,"is_disabled":false,"rental_uris":{"android":"levelo://app?vid=39347131-f3f0-4227-aa2a-a16ec48c45a8","ios":"levelo://app?vid=39347131-f3f0-4227-aa2a-a16ec48c45a8"},"vehicle_type_id":"4","last_reported":1701238187,"current_range_meters":21200,"station_id":"ce4bhnh2rcd13ifvqgtg","pricing_plan_id":"free"},{"bike_id":"8b142e0b-7054-49c4-8717-843238b69b39","system_id":"levelo_inurba_marseille","lat":43.278128,"lon":5.407195,"is_reserved":false,"is_disabled":false,"rental_uris":{"android":"levelo://app?vid=8b142e0b-7054-49c4-8717-843238b69b39","ios":"levelo://app?vid=8b142e0b-7054-49c4-8717-843238b69b39"},"vehicle_type_id":"4","last_reported":1701238187,"current_range_meters":31200,"station_id":"ce4bhnh2rcd13ifvqgtg","pricing_plan_id":"free"},{"bike_id":"38f175ae-65e3-4441-bcec-8c3f494df2b3","system_id":"levelo_inurba_marseille","lat":43.278128,"lon":5.407195,"is_reserved":false,"is_disabled":false,"rental_uris":{"android":"levelo://app?vid=38f175ae-65e3-4441-bcec-8c3f494df2b3","ios":"levelo://app?vid=38f175ae-65e3-4441-bcec-8c3f494df2b3"},"vehicle_type_id":"4","last_reported":1701238187,"current_range_meters":31200,"station_id":"ce4bhnh2rcd13ifvqgtg","pricing_plan_id":"free"},{"bike_id":"7a4dcdfc-9a27-49ba-b9fb-f54a01f2d9b2","system_id":"levelo_inurba_marseille","lat":43.278128,"lon":5.407195,"is_reserved":false,"is_disabled":false,"rental_uris":{"android":"levelo://app?vid=7a4dcdfc-9a27-49ba-b9fb-f54a01f2d9b2","ios":"levelo://app?vid=7a4dcdfc-9a27-49ba-b9fb-f54a01f2d9b2"},"vehicle_type_id":"4","last_reported":1701238187,"current_range_meters":31200,"station_id":"ce4bhnh2rcd13ifvqgtg","pricing_plan_id":"free"},{"bike_id":"240f349e-a001-4d69-8c95-2efe70eb8564","system_id":"levelo_inurba_marseille","lat":43.26948,"lon":5.38641,"is_reserved":false,"is_disabled":false,"rental_uris":{"android":"levelo://app?vid=240f349e-a001-4d69-8c95-2efe70eb8564","ios":"levelo://app?vid=240f349e-a001-4d69-8c95-2efe70eb8564"},"vehicle_type_id":"4","last_reported":1701238187,"current_range_meters":24000,"station_id":"ce4bhh92rcd13ifvqfh0","pricing_plan_id":"free"},{"bike_id":"c7faed10-a6b1-49b6-903c-20f7d23207a5","system_id":"levelo_inurba_marseille","lat":43.279484,"lon":5.41043,"is_reserved":false,"is_disabled":false,"rental_uris":{"android":"levelo://app?vid=c7faed10-a6b1-49b6-903c-20f7d23207a5","ios":"levelo://app?vid=c7faed10-a6b1-49b6-903c-20f7d23207a5"},"vehicle_type_id":"4","last_reported":1701238187,"current_range_meters":30800,"station_id":"ce4bhnp2rcd13ifvqh0g","pricing_plan_id":"free"},{"bike_id":"b03619f6-ca8a-4037-965b-bd3be152d92a","system_id":"levelo_inurba_marseille","lat":43.27946,"lon":5.41047,"is_reserved":false,"is_disabled":false,"rental_uris":{"android":"levelo://app?vid=b03619f6-ca8a-4037-965b-bd3be152d92a","ios":"levelo://app?vid=b03619f6-ca8a-4037-965b-bd3be152d92a"},"vehicle_type_id":"4","last_reported":1701238187,"current_range_meters":2000,"station_id":"ce4bhnp2rcd13ifvqh0g","pricing_plan_id":"free"},{"bike_id":"e76073a7-9f92-4a0e-80b1-abf6a7b87121","system_id":"levelo_inurba_marseille","lat":43.279465,"lon":5.410561,"is_reserved":false,"is_disabled":false,"rental_uris":{"android":"levelo://app?vid=e76073a7-9f92-4a0e-80b1-abf6a7b87121","ios":"levelo://app?vid=e76073a7-9f92-4a0e-80b1-abf6a7b87121"},"vehicle_type_id":"4","last_reported":1701238187,"current_range_meters":21200,"station_id":"ce4bhnp2rcd13ifvqh0g","pricing_plan_id":"free"},{"bike_id":"fd6076a2-900b-45c7-a82d-f0f0875b7fad","system_id":"levelo_inurba_marseille","lat":43.279465,"lon":5.410561,"is_reserved":false,"is_disabled":false,"rental_uris":{"android":"levelo://app?vid=fd6076a2-900b-45c7-a82d-f0f0875b7fad","ios":"levelo://app?vid=fd6076a2-900b-45c7-a82d-f0f0875b7fad"},"vehicle_type_id":"4","last_reported":1701238187,"current_range_meters":22000,"station_id":"ce4bhnp2rcd13ifvqh0g","pricing_plan_id":"free"},{"bike_id":"abe0c636-2e32-4488-bd67-2f80076b347c","system_id":"levelo_inurba_marseille","lat":43.279925,"lon":5.41657,"is_reserved":false,"is_disabled":false,"rental_uris":{"android":"levelo://app?vid=abe0c636-2e32-4488-bd67-2f80076b347c","ios":"levelo://app?vid=abe0c636-2e32-4488-bd67-2f80076b347c"},"vehicle_type_id":"4","last_reported":1701238187,"current_range_meters":25200,"station_id":"ce4bho12rcd13ifvqh1g","pricing_plan_id":"free"},{"bike_id":"8049c51c-069c-4ea1-8b0b-97c2ca8cb022","system_id":"levelo_inurba_marseille","lat":43.279928,"lon":5.41662,"is_reserved":false,"is_disabled":false,"rental_uris":{"android":"levelo://app?vid=8049c51c-069c-4ea1-8b0b-97c2ca8cb022","ios":"levelo://app?vid=8049c51c-069c-4ea1-8b0b-97c2ca8cb022"},"vehicle_type_id":"4","last_reported":1701238187,"current_range_meters":25600,"station_id":"ce4bho12rcd13ifvqh1g","pricing_plan_id":"free"},{"bike_id":"804f196c-723b-4d76-82fa-87633ca52b1c","system_id":"levelo_inurba_marseille","lat":43.2799,"lon":5.41661,"is_reserved":false,"is_disabled":false,"rental_uris":{"android":"levelo://app?vid=804f196c-723b-4d76-82fa-87633ca52b1c","ios":"levelo://app?vid=804f196c-723b-4d76-82fa-87633ca52b1c"},"vehicle_type_id":"4","last_reported":1701238187,"current_range_meters":13200,"station_id":"ce4bho12rcd13ifvqh1g","pricing_plan_id":"free"},{"bike_id":"0cf37fc1-fb17-4753-98b0-f023620b59e4","system_id":"levelo_inurba_marseille","lat":43.27988,"lon":5.4166,"is_reserved":false,"is_disabled":false,"rental_uris":{"android":"levelo://app?vid=0cf37fc1-fb17-4753-98b0-f023620b59e4","ios":"levelo://app?vid=0cf37fc1-fb17-4753-98b0-f023620b59e4"},"vehicle_type_id":"4","last_reported":1701238187,"current_range_meters":22000,"station_id":"ce4bho12rcd13ifvqh1g","pricing_plan_id":"free"},{"bike_id":"30cb6e69-4de2-42ce-a046-ab1d25cd1698","system_id":"levelo_inurba_marseille","lat":43.27986,"lon":5.41663,"is_reserved":false,"is_disabled":false,"rental_uris":{"android":"levelo://app?vid=30cb6e69-4de2-42ce-a046-ab1d25cd1698","ios":"levelo://app?vid=30cb6e69-4de2-42ce-a046-ab1d25cd1698"},"vehicle_type_id":"4","last_reported":1701238187,"current_range_meters":25200,"station_id":"ce4bho12rcd13ifvqh1g","pricing_plan_id":"free"},{"bike_id":"23989d20-8a3e-42ec-be34-7eae04d446c8","system_id":"levelo_inurba_marseille","lat":43.308051,"lon":5.43527,"is_reserved":false,"is_disabled":false,"rental_uris":{"android":"levelo://app?vid=23989d20-8a3e-42ec-be34-7eae04d446c8","ios":"levelo://app?vid=23989d20-8a3e-42ec-be34-7eae04d446c8"},"vehicle_type_id":"4","last_reported":1701238187,"current_range_meters":27200,"station_id":"ce4bhph2rcd13ifvqheg","pricing_plan_id":"free"},{"bike_id":"7535fedc-74ac-474b-8a2d-12a425012ada","system_id":"levelo_inurba_marseille","lat":43.308051,"lon":5.43527,"is_reserved":false,"is_disabled":false,"rental_uris":{"android":"levelo://app?vid=7535fedc-74ac-474b-8a2d-12a425012ada","ios":"levelo://app?vid=7535fedc-74ac-474b-8a2d-12a425012ada"},"vehicle_type_id":"4","last_reported":1701238187,"current_range_meters":30400,"station_id":"ce4bhph2rcd13ifvqheg","pricing_plan_id":"free"},{"bike_id":"6f4cac7f-2e80-4ea3-a749-3ccef4b93cd3","system_id":"levelo_inurba_marseille","lat":43.26944,"lon":5.40248,"is_reserved":false,"is_disabled":false,"rental_uris":{"android":"levelo://app?vid=6f4cac7f-2e80-4ea3-a749-3ccef4b93cd3","ios":"levelo://app?vid=6f4cac7f-2e80-4ea3-a749-3ccef4b93cd3"},"vehicle_type_id":"4","last_reported":1701238187,"current_range_meters":20800,"station_id":"cjm6bp8fraef2m0cb0m0","pricing_plan_id":"free"},{"bike_id":"2cfd894b-595c-4bac-a01a-4d2673d809b1","system_id":"levelo_inurba_marseille","lat":43.261782,"lon":5.374515,"is_reserved":false,"is_disabled":false,"rental_uris":{"android":"levelo://app?vid=2cfd894b-595c-4bac-a01a-4d2673d809b1","ios":"levelo://app?vid=2cfd894b-595c-4bac-a01a-4d2673d809b1"},"vehicle_type_id":"4","last_reported":1701238187,"current_range_meters":31200,"station_id":"ce4bhgp2rcd13ifvqfc0","pricing_plan_id":"free"},{"bike_id":"15c55536-52f0-4f3a-86dc-582ca752b7e6","system_id":"levelo_inurba_marseille","lat":43.317104,"lon":5.436818,"is_reserved":false,"is_disabled":false,"rental_uris":{"android":"levelo://app?vid=15c55536-52f0-4f3a-86dc-582ca752b7e6","ios":"levelo://app?vid=15c55536-52f0-4f3a-86dc-582ca752b7e6"},"vehicle_type_id":"4","last_reported":1701238187,"current_range_meters":30800,"station_id":"ce4bhp92rcd13ifvqhcg","pricing_plan_id":"free"},{"bike_id":"3ee6d42b-be43-4558-85e1-d7d39f345c6b","system_id":"levelo_inurba_marseille","lat":43.317104,"lon":5.436818,"is_reserved":false,"is_disabled":false,"rental_uris":{"android":"levelo://app?vid=3ee6d42b-be43-4558-85e1-d7d39f345c6b","ios":"levelo://app?vid=3ee6d42b-be43-4558-85e1-d7d39f345c6b"},"vehicle_type_id":"4","last_reported":1701238187,"current_range_meters":31200,"station_id":"ce4bhp92rcd13ifvqhcg","pricing_plan_id":"free"},{"bike_id":"9d2d7e59-8bbc-4ed8-8840-d27f38a78f26","system_id":"levelo_inurba_marseille","lat":43.271852,"lon":5.409872,"is_reserved":false,"is_disabled":false,"rental_uris":{"android":"levelo://app?vid=9d2d7e59-8bbc-4ed8-8840-d27f38a78f26","ios":"levelo://app?vid=9d2d7e59-8bbc-4ed8-8840-d27f38a78f26"},"vehicle_type_id":"4","last_reported":1701238187,"current_range_meters":30400,"station_id":"ce4bhl12rcd13ifvqgf0","pricing_plan_id":"free"},{"bike_id":"db2e35b6-91ba-4b8a-b10b-c020bac1b56a","system_id":"levelo_inurba_marseille","lat":43.262012,"lon":5.379307,"is_reserved":false,"is_disabled":false,"rental_uris":{"android":"levelo://app?vid=db2e35b6-91ba-4b8a-b10b-c020bac1b56a","ios":"levelo://app?vid=db2e35b6-91ba-4b8a-b10b-c020bac1b56a"},"vehicle_type_id":"4","last_reported":1701238187,"current_range_meters":28000,"station_id":"ce4bhjp2rcd13ifvqg90","pricing_plan_id":"free"},{"bike_id":"d1711a6a-dce8-4800-9c2a-741d836b1e8f","system_id":"levelo_inurba_marseille","lat":43.27176,"lon":5.4098,"is_reserved":false,"is_disabled":false,"rental_uris":{"android":"levelo://app?vid=d1711a6a-dce8-4800-9c2a-741d836b1e8f","ios":"levelo://app?vid=d1711a6a-dce8-4800-9c2a-741d836b1e8f"},"vehicle_type_id":"4","last_reported":1701238187,"current_range_meters":11600,"station_id":"ce4bhl12rcd13ifvqgf0","pricing_plan_id":"free"},{"bike_id":"0a411095-3a8a-4221-843c-f3d98b94b3cb","system_id":"levelo_inurba_marseille","lat":43.27177,"lon":5.409884,"is_reserved":false,"is_disabled":false,"rental_uris":{"android":"levelo://app?vid=0a411095-3a8a-4221-843c-f3d98b94b3cb","ios":"levelo://app?vid=0a411095-3a8a-4221-843c-f3d98b94b3cb"},"vehicle_type_id":"4","last_reported":1701238187,"current_range_meters":28400,"station_id":"ce4bhl12rcd13ifvqgf0","pricing_plan_id":"free"},{"bike_id":"fa7abb30-4346-431c-b1fa-aef86f064968","system_id":"levelo_inurba_marseille","lat":43.26202,"lon":5.379299,"is_reserved":false,"is_disabled":false,"rental_uris":{"android":"levelo://app?vid=fa7abb30-4346-431c-b1fa-aef86f064968","ios":"levelo://app?vid=fa7abb30-4346-431c-b1fa-aef86f064968"},"vehicle_type_id":"4","last_reported":1701238187,"current_range_meters":8800,"station_id":"ce4bhjp2rcd13ifvqg90","pricing_plan_id":"free"},{"bike_id":"75ef75c1-d239-44ee-b568-8f31b3960974","system_id":"levelo_inurba_marseille","lat":43.27173,"lon":5.409841,"is_reserved":false,"is_disabled":false,"rental_uris":{"android":"levelo://app?vid=75ef75c1-d239-44ee-b568-8f31b3960974","ios":"levelo://app?vid=75ef75c1-d239-44ee-b568-8f31b3960974"},"vehicle_type_id":"4","last_reported":1701238187,"current_range_meters":29600,"station_id":"ce4bhl12rcd13ifvqgf0","pricing_plan_id":"free"},{"bike_id":"5edf4ffd-945c-46ca-853f-f4dc48bf88b7","system_id":"levelo_inurba_marseille","lat":43.26202,"lon":5.379299,"is_reserved":false,"is_disabled":false,"rental_uris":{"android":"levelo://app?vid=5edf4ffd-945c-46ca-853f-f4dc48bf88b7","ios":"levelo://app?vid=5edf4ffd-945c-46ca-853f-f4dc48bf88b7"},"vehicle_type_id":"4","last_reported":1701238187,"current_range_meters":31200,"station_id":"ce4bhjp2rcd13ifvqg90","pricing_plan_id":"free"},