{"last_updated":1770669071,"ttl":60,"version":"2.2","data":{"bikes":[{"bike_id":"d5242b4a-769b-48b8-8522-816e7c28d15b","system_id":"levelo_inurba_marseille","lat":43.262125,"lon":5.374413,"is_reserved":false,"is_disabled":false,"rental_uris":{"android":"levelo://app?vid=d5242b4a-769b-48b8-8522-816e7c28d15b","ios":"levelo://app?vid=d5242b4a-769b-48b8-8522-816e7c28d15b"},"vehicle_type_id":"4","last_reported":1770669072,"current_range_meters":2800,"station_id":"","pricing_plan_id":"cebpf4jnsgd1na2vs0mg"},{"bike_id":"9deb36d9-6993-4809-a790-3ced6886baec","system_id":"levelo_inurba_marseille","lat":43.29265,"lon":5.38419,"is_reserved":false,"is_disabled":false,"rental_uris":{"android":"levelo://app?vid=9deb36d9-6993-4809-a790-3ced6886baec","ios":"levelo://app?vid=9deb36d9-6993-4809-a790-3ced6886baec"},"vehicle_type_id":"4","last_reported":1770669072,"current_range_meters":2800,"station_id":"ce4bh692rcd13ifvqea0","pricing_plan_id":"cebpf4jnsgd1na2vs0mg"},{"bike_id":"62468bc0-7c46-4734-a9fc-6c79792208c6","system_id":"levelo_inurba_marseille","lat":43.275629,"lon":5.384192,"is_reserved":false,"is_disabled":false,"rental_uris":{"android":"levelo://app?vid=62468bc0-7c46-4734-a9fc-6c79792208c6","ios":"levelo://app?vid=62468bc0-7c46-4734-a9fc-6c79792208c6"},"vehicle_type_id":"4","last_reported":1770669072,"current_range_meters":2800,"station_id":"ce4bh0h2rcd13ifvqd60","pricing_plan_id":"cebpf4jnsgd1na2vs0mg"},{"bike_id":"be47d4e3-2289-4735-b882-955a4216eaf9","system_id":"levelo_inurba_marseille","lat":43.25481,"lon":5.3767,"is_reserved":false,"is_disabled":false,"rental_uris":{"android":"levelo://app?vid=be47d4e3-2289-4735-b882-955a4216eaf9","ios":"levelo://app?vid=be47d4e3-2289-4735-b882-955a4216eaf9"},"vehicle_type_id":"4","last_reported":1770669072,"current_range_meters":2800,"station_id":"ce4bhh12rcd13ifvqff0","pricing_plan_id":"cebpf4jnsgd1na2vs0mg"},{"bike_id":"a171a0f6-2916-42d1-9c62-22231d4595de","system_id":"levelo_inurba_marseille","lat":43.24476,"lon":5.4252,"is_reserved":false,"is_disabled":false,"rental_uris":{"android":"levelo://app?vid=a171a0f6-2916-42d1-9c62-22231d4595de","ios":"levelo://app?vid=a171a0f6-2916-42d1-9c62-22231d4595de"},"vehicle_type_id":"4","last_reported":1770669072,"current_range_meters":2800,"station_id":"st_d4a3vfp97mjs738cd8kg","pricing_plan_id":"cebpf4jnsgd1na2vs0mg"},{"bike_id":"7a540907-dca9-438e-a691-3d134c86af63","system_id":"levelo_inurba_marseille","lat":43.31058,"lon":5.38386,"is_reserved":false,"is_disabled":false,"rental_uris":{"android":"levelo://app?vid=7a540907-dca9-438e-a691-3d134c86af63","ios":"levelo://app?vid=7a540907-dca9-438e-a691-3d134c86af63"},"vehicle_type_id":"4","last_reported":1770669072,"current_range_meters":2800,"station_id":"ce4bgv92rcd13ifvqcr0","pricing_plan_id":"cebpf4jnsgd1na2vs0mg"},{"bike_id":"a31fc7e8-c033-49bd-b807-7cba43703f2f","system_id":"levelo_inurba_marseille","lat":43.30993,"lon":5.39287,"is_reserved":false,"is_disabled":false,"rental_uris":{"android":"levelo://app?vid=a31fc7e8-c033-49bd-b807-7cba43703f2f","ios":"levelo://app?vid=a31fc7e8-c033-49bd-b807-7cba43703f2f"},"vehicle_type_id":"4","last_reported":1770669072,"current_range_meters":2800,"station_id":"","pricing_plan_id":"cebpf4jnsgd1na2vs0mg"},{"bike_id":"c0a7673f-663b-4697-9cc9-b31f824de07c","system_id":"levelo_inurba_marseille","lat":43.279117,"lon":5.38012,"is_reserved":false,"is_disabled":false,"rental_uris":{"android":"levelo://app?vid=c0a7673f-663b-4697-9cc9-b31f824de07c","ios":"levelo://app?vid=c0a7673f-663b-4697-9cc9-b31f824de07c"},"vehicle_type_id":"4","last_reported":1770669072,"current_range_meters":3200,"station_id":"ce4bhf92rcd13ifvqf50","pricing_plan_id":"cebpf4jnsgd1na2vs0mg"},{"bike_id":"fb42dd14-8842-4c1b-bf3c-4ce250e467ea","system_id":"levelo_inurba_marseille","lat":43.25715,"lon":5.4114,"is_reserved":false,"is_disabled":false,"rental_uris":{"android":"levelo://app?vid=fb42dd14-8842-4c1b-bf3c-4ce250e467ea","ios":"levelo://app?vid=fb42dd14-8842-4c1b-bf3c-4ce250e467ea"},"vehicle_type_id":"4","last_reported":1770669072,"current_range_meters":3200,"station_id":"ce4bhkp2rcd13ifvqgd0","pricing_plan_id":"cebpf4jnsgd1na2vs0mg"},{"bike_id":"b8663278-1778-49c0-8ba5-f6067974b626","system_id":"levelo_inurba_marseille","lat":43.25584,"lon":5.38227,"is_reserved":false,"is_disabled":false,"rental_uris":{"android":"levelo://app?vid=b8663278-1778-49c0-8ba5-f6067974b626","ios":"levelo://app?vid=b8663278-1778-49c0-8ba5-f6067974b626"},"vehicle_type_id":"4","last_reported":1770669072,"current_range_meters":3200,"station_id":"ce4bhih2rcd13ifvqfs0","pricing_plan_id":"cebpf4jnsgd1na2vs0mg"},{"bike_id":"ffcfb0a6-be0d-4d3d-b9ec-3a4698a83e7b","system_id":"levelo_inurba_marseille","lat":43.259418,"lon":5.409045,"is_reserved":false,"is_disabled":false,"rental_uris":{"android":"levelo://app?vid=ffcfb0a6-be0d-4d3d-b9ec-3a4698a83e7b","ios":"levelo://app?vid=ffcfb0a6-be0d-4d3d-b9ec-3a4698a83e7b"},"vehicle_type_id":"4","last_reported":1770669072,"current_range_meters":3200,"station_id":"ce4bhm92rcd13ifvqglg","pricing_plan_id":"cebpf4jnsgd1na2vs0mg"},{"bike_id":"cb4e831c-6025-4234-bd44-dc892f6a6133","system_id":"levelo_inurba_marseille","lat":43.26574,"lon":5.4032,"is_reserved":false,"is_disabled":false,"rental_uris":{"android":"levelo://app?vid=cb4e831c-6025-4234-bd44-dc892f6a6133","ios":"levelo://app?vid=cb4e831c-6025-4234-bd44-dc892f6a6133"},"vehicle_type_id":"4","last_reported":1770669072,"current_range_meters":3200,"station_id":"ce4bhmp2rcd13ifvqgng","pricing_plan_id":"cebpf4jnsgd1na2vs0mg"},{"bike_id":"8d2458eb-c41d-49d0-bd3f-4a6e7cc39162","system_id":"levelo_inurba_marseille","lat":43.274902,"lon":5.41566,"is_reserved":false,"is_disabled":false,"rental_uris":{"android":"levelo://app?vid=8d2458eb-c41d-49d0-bd3f-4a6e7cc39162","ios":"levelo://app?vid=8d2458eb-c41d-49d0-bd3f-4a6e7cc39162"},"vehicle_type_id":"4","last_reported":1770669072,"current_range_meters":3200,"station_id":"","pricing_plan_id":"cebpf4jnsgd1na2vs0mg"},{"bike_id":"eb4f3087-f321-48ae-b659-58b78ed944bf","system_id":"levelo_inurba_marseille","lat":43.26203,"lon":5.37916,"is_reserved":false,"is_disabled":false,"rental_uris":{"android":"levelo://app?vid=eb4f3087-f321-48ae-b659-58b78ed944bf","ios":"levelo://app?vid=eb4f3087-f321-48ae-b659-58b78ed944bf"},"vehicle_type_id":"4","last_reported":1770669072,"current_range_meters":3200,"station_id":"ce4bhjp2rcd13ifvqg90","pricing_plan_id":"cebpf4jnsgd1na2vs0mg"},{"bike_id":"733294e4-f91f-4521-b232-9f24c48af8a6","system_id":"levelo_inurba_marseille","lat":43.246693,"lon":5.381555,"is_reserved":false,"is_disabled":false,"rental_uris":{"android":"levelo://app?vid=733294e4-f91f-4521-b232-9f24c48af8a6","ios":"levelo://app?vid=733294e4-f91f-4521-b232-9f24c48af8a6"},"vehicle_type_id":"4","last_reported":1770669072,"current_range_meters":3200,"station_id":"ce4bhih2rcd13ifvqfr0","pricing_plan_id":"cebpf4jnsgd1na2vs0mg"},{"bike_id":"86fe17ca-35f7-492f-908b-0f379e77c87d","system_id":"levelo_inurba_marseille","lat":43.2624,"lon":5.40441,"is_reserved":false,"is_disabled":false,"rental_uris":{"android":"levelo://app?vid=86fe17ca-35f7-492f-908b-0f379e77c87d","ios":"levelo://app?vid=86fe17ca-35f7-492f-908b-0f379e77c87d"},"vehicle_type_id":"4","last_reported":1770669072,"current_range_meters":3600,"station_id":"ce4bhmh2rcd13ifvqgmg","pricing_plan_id":"cebpf4jnsgd1na2vs0mg"},{"bike_id":"a0564ba2-0dc0-452c-a7b7-d5019328a88d","system_id":"levelo_inurba_marseille","lat":43.29517,"lon":5.38559,"is_reserved":false,"is_disabled":false,"rental_uris":{"android":"levelo://app?vid=a0564ba2-0dc0-452c-a7b7-d5019328a88d","ios":"levelo://app?vid=a0564ba2-0dc0-452c-a7b7-d5019328a88d"},"vehicle_type_id":"4","last_reported":1770669072,"current_range_meters":3600,"station_id":"ce4bgih2rcd13ifvqba0","pricing_plan_id":"cebpf4jnsgd1na2vs0mg"},{"bike_id":"c5bda3ec-f11e-41af-91ef-09185a91c481","system_id":"levelo_inurba_marseille","lat":43.29279,"lon":5.40132,"is_reserved":false,"is_disabled":false,"rental_uris":{"android":"levelo://app?vid=c5bda3ec-f11e-41af-91ef-09185a91c481","ios":"levelo://app?vid=c5bda3ec-f11e-41af-91ef-09185a91c481"},"vehicle_type_id":"4","last_reported":1770669072,"current_range_meters":3600,"station_id":"ce4bh312rcd13ifvqdk0","pricing_plan_id":"cebpf4jnsgd1na2vs0mg"},{"bike_id":"ef6ce157-048a-4fc1-8f31-c823377f5d47","system_id":"levelo_inurba_marseille","lat":43.24964,"lon":5.40484,"is_reserved":false,"is_disabled":false,"rental_uris":{"android":"levelo://app?vid=ef6ce157-048a-4fc1-8f31-c823377f5d47","ios":"levelo://app?vid=ef6ce157-048a-4fc1-8f31-c823377f5d47"},"vehicle_type_id":"4","last_reported":1770669072,"current_range_meters":3600,"station_id":"st_d2ngiaodas8pm72gd1h0","pricing_plan_id":"cebpf4jnsgd1na2vs0mg"},{"bike_id":"6e033c35-dbfc-4ffc-a036-eedd79c14d36","system_id":"levelo_inurba_marseille","lat":43.217521,"lon":5.346062,"is_reserved":false,"is_disabled":true,"rental_uris":{"android":"levelo://app?vid=6e033c35-dbfc-4ffc-a036-eedd79c14d36","ios":"levelo://app?vid=6e033c35-dbfc-4ffc-a036-eedd79c14d36"},"vehicle_type_id":"4","last_reported":1770669072,"current_range_meters":3600,"station_id":"st_cvj6r9ubvosntc0bgbag","pricing_plan_id":"cebpf4jnsgd1na2vs0mg"},{"bike_id":"fe026ef8-8a5f-4916-bf5d-cdd87a6b206a","system_id":"levelo_inurba_marseille","lat":43.27188,"lon":5.40991,"is_reserved":false,"is_disabled":false,"rental_uris":{"android":"levelo://app?vid=fe026ef8-8a5f-4916-bf5d-cdd87a6b206a","ios":"levelo://app?vid=fe026ef8-8a5f-4916-bf5d-cdd87a6b206a"},"vehicle_type_id":"4","last_reported":1770669072,"current_range_meters":3600,"station_id":"ce4bhl12rcd13ifvqgf0","pricing_plan_id":"cebpf4jnsgd1na2vs0mg"},{"bike_id":"7dd2d399-6383-4a0d-a881-e62efd3ea562","system_id":"levelo_inurba_marseille","lat":43.23218,"lon":5.3555,"is_reserved":false,"is_disabled":false,"rental_uris":{"android":"levelo://app?vid=7dd2d399-6383-4a0d-a881-e62efd3ea562","ios":"levelo://app?vid=7dd2d399-6383-4a0d-a881-e62efd3ea562"},"vehicle_type_id":"4","last_reported":1770669072,"current_range_meters":3600,"station_id":"ce4bhu92rcd13ifvqi70","pricing_plan_id":"cebpf4jnsgd1na2vs0mg"},{"bike_id":"247da1c9-e7a2-4c2a-8eaf-e2f0d137bc9f","system_id":"levelo_inurba_marseille","lat":43.26697,"lon":5.3824,"is_reserved":false,"is_disabled":false,"rental_uris":{"android":"levelo://app?vid=247da1c9-e7a2-4c2a-8eaf-e2f0d137bc9f","ios":"levelo://app?vid=247da1c9-e7a2-4c2a-8eaf-e2f0d137bc9f"},"vehicle_type_id":"4","last_reported":1770669072,"current_range_meters":4000,"station_id":"ce4bhg92rcd13ifvqf90","pricing_plan_id":"cebpf4jnsgd1na2vs0mg"},{"bike_id":"81f5a16d-a2f0-4cd2-a5c9-53e69bf4cd2c","system_id":"levelo_inurba_marseille","lat":43.29557,"lon":5.4226,"is_reserved":false,"is_disabled":false,"rental_uris":{"android":"levelo://app?vid=81f5a16d-a2f0-4cd2-a5c9-53e69bf4cd2c","ios":"levelo://app?vid=81f5a16d-a2f0-4cd2-a5c9-53e69bf4cd2c"},"vehicle_type_id":"4","last_reported":1770669072,"current_range_meters":4000,"station_id":"ce4bhph2rcd13ifvqhdg","pricing_plan_id":"cebpf4jnsgd1na2vs0mg"},{"bike_id":"0701605f-acab-4dda-968e-e578216034cb","system_id":"levelo_inurba_marseille","lat":43.26561,"lon":5.39028,"is_reserved":false,"is_disabled":false,"rental_uris":{"android":"levelo://app?vid=0701605f-acab-4dda-968e-e578216034cb","ios":"levelo://app?vid=0701605f-acab-4dda-968e-e578216034cb"},"vehicle_type_id":"4","last_reported":1770669072,"current_range_meters":4000,"station_id":"ce4bhe12rcd13ifvqf30","pricing_plan_id":"cebpf4jnsgd1na2vs0mg"},{"bike_id":"954ad3ab-df4d-45cd-a989-e4f125e5b154","system_id":"levelo_inurba_marseille","lat":43.25002,"lon":5.38923,"is_reserved":false,"is_disabled":false,"rental_uris":{"android":"levelo://app?vid=954ad3ab-df4d-45cd-a989-e4f125e5b154","ios":"levelo://app?vid=954ad3ab-df4d-45cd-a989-e4f125e5b154"},"vehicle_type_id":"4","last_reported":1770669072,"current_range_meters":4000,"station_id":"ce4bhgp2rcd13ifvqfd0","pricing_plan_id":"cebpf4jnsgd1na2vs0mg"},{"bike_id":"7793efe0-796a-47b9-b395-f00d6d2ba2f3","system_id":"levelo_inurba_marseille","lat":43.335402,"lon":5.374634,"is_reserved":false,"is_disabled":false,"rental_uris":{"android":"levelo://app?vid=7793efe0-796a-47b9-b395-f00d6d2ba2f3","ios":"levelo://app?vid=7793efe0-796a-47b9-b395-f00d6d2ba2f3"},"vehicle_type_id":"4","last_reported":1770669072,"current_range_meters":4000,"station_id":"st_d46tts09ee8s73dlu43g","pricing_plan_id":"cebpf4jnsgd1na2vs0mg"},{"bike_id":"eb4c876b-88dd-43ec-8628-44a384f402f0","system_id":"levelo_inurba_marseille","lat":43.3354,"lon":5.37477,"is_reserved":false,"is_disabled":false,"rental_uris":{"android":"levelo://app?vid=eb4c876b-88dd-43ec-8628-44a384f402f0","ios":"levelo://app?vid=eb4c876b-88dd-43ec-8628-44a384f402f0"},"vehicle_type_id":"4","last_reported":1770669072,"current_range_meters":4000,"station_id":"st_d46tts09ee8s73dlu43g","pricing_plan_id":"cebpf4jnsgd1na2vs0mg"},{"bike_id":"fa1a5c9f-b159-4236-90ad-40a34f906e00","system_id":"levelo_inurba_marseille","lat":43.24385,"lon":5.37044,"is_reserved":false,"is_disabled":false,"rental_uris":{"android":"levelo://app?vid=fa1a5c9f-b159-4236-90ad-40a34f906e00","ios":"levelo://app?vid=fa1a5c9f-b159-4236-90ad-40a34f906e00"},"vehicle_type_id":"4","last_reported":1770669072,"current_range_meters":4000,"station_id":"ce4bhhh2rcd13ifvqfk0","pricing_plan_id":"cebpf4jnsgd1na2vs0mg"},{"bike_id":"13330735-b7c7-4349-aca6-23356f8b21d6","system_id":"levelo_inurba_marseille","lat":43.26554,"lon":5.39023,"is_reserved":false,"is_disabled":false,"rental_uris":{"android":"levelo://app?vid=13330735-b7c7-4349-aca6-23356f8b21d6","ios":"levelo://app?vid=13330735-b7c7-4349-aca6-23356f8b21d6"},"vehicle_type_id":"4","last_reported":1770669072,"current_range_meters":4000,"station_id":"ce4bhe12rcd13ifvqf30","pricing_plan_id":"cebpf4jnsgd1na2vs0mg"},{"bike_id":"8c139d21-9d12-4792-a44d-13109cee3e0a","system_id":"levelo_inurba_marseille","lat":43.27036,"lon":5.4199,"is_reserved":false,"is_disabled":false,"rental_uris":{"android":"levelo://app?vid=8c139d21-9d12-4792-a44d-13109cee3e0a","ios":"levelo://app?vid=8c139d21-9d12-4792-a44d-13109cee3e0a"},"vehicle_type_id":"4","last_reported":1770669072,"current_range_meters":4000,"station_id":"","pricing_plan_id":"cebpf4jnsgd1na2vs0mg"},{"bike_id":"70519adb-911c-4120-b6a7-3660c44ac45b","system_id":"levelo_inurba_marseille","lat":43.24728,"lon":5.39287,"is_reserved":false,"is_disabled":false,"rental_uris":{"android":"levelo://app?vid=70519adb-911c-4120-b6a7-3660c44ac45b","ios":"levelo://app?vid=70519adb-911c-4120-b6a7-3660c44ac45b"},"vehicle_type_id":"4","last_reported":1770669072,"current_range_meters":4400,"station_id":"","pricing_plan_id":"cebpf4jnsgd1na2vs0mg"},{"bike_id":"5131b3a7-3dc7-4a73-8e49-b798c30f271b","system_id":"levelo_inurba_marseille","lat":43.30921,"lon":5.40174,"is_reserved":false,"is_disabled":false,"rental_uris":{"android":"levelo://app?vid=5131b3a7-3dc7-4a73-8e49-b798c30f271b","ios":"levelo://app?vid=5131b3a7-3dc7-4a73-8e49-b798c30f271b"},"vehicle_type_id":"4","last_reported":1770669072,"current_range_meters":4400,"station_id":"ce4bgvp2rcd13ifvqct0","pricing_plan_id":"cebpf4jnsgd1na2vs0mg"},{"bike_id":"cce409e3-e6c0-4194-832c-ffe927c88385","system_id":"levelo_inurba_marseille","lat":43.29556,"lon":5.42285,"is_reserved":false,"is_disabled":false,"rental_uris":{"android":"levelo://app?vid=cce409e3-e6c0-4194-832c-ffe927c88385","ios":"levelo://app?vid=cce409e3-e6c0-4194-832c-ffe927c88385"},"vehicle_type_id":"4","last_reported":1770669072,"current_range_meters":4400,"station_id":"ce4bhph2rcd13ifvqhdg","pricing_plan_id":"cebpf4jnsgd1na2vs0mg"},{"bike_id":"ac645712-adb7-427c-9a1d-bbc03b4ccac1","system_id":"levelo_inurba_marseille","lat":43.21185,"lon":5.35069,"is_reserved":false,"is_disabled":false,"rental_uris":{"android":"levelo://app?vid=ac645712-adb7-427c-9a1d-bbc03b4ccac1","ios":"levelo://app?vid=ac645712-adb7-427c-9a1d-bbc03b4ccac1"},"vehicle_type_id":"4","last_reported":1770669072,"current_range_meters":4400,"station_id":"st_cvj6sg6p6f1abm77japg","pricing_plan_id":"cebpf4jnsgd1na2vs0mg"},{"bike_id":"7f82acb8-924f-41f5-9119-b3d7e4dcf745","system_id":"levelo_inurba_marseille","lat":43.24368,"lon":5.37096,"is_reserved":false,"is_disabled":false,"rental_uris":{"android":"levelo://app?vid=7f82acb8-924f-41f5-9119-b3d7e4dcf745","ios":"levelo://app?vid=7f82acb8-924f-41f5-9119-b3d7e4dcf745"},"vehicle_type_id":"4","last_reported":1770669072,"current_range_meters":4400,"station_id":"ce4bhhh2rcd13ifvqfk0","pricing_plan_id":"cebpf4jnsgd1na2vs0mg"},{"bike_id":"db1f5296-3de1-4b52-b74c-024ba192e0a9","system_id":"levelo_inurba_marseille","lat":43.255787,"lon":5.382304,"is_reserved":false,"is_disabled":false,"rental_uris":{"android":"levelo://app?vid=db1f5296-3de1-4b52-b74c-024ba192e0a9","ios":"levelo://app?vid=db1f5296-3de1-4b52-b74c-024ba192e0a9"},"vehicle_type_id":"4","last_reported":1770669072,"current_range_meters":4400,"station_id":"ce4bhih2rcd13ifvqfs0","pricing_plan_id":"cebpf4jnsgd1na2vs0mg"},{"bike_id":"135e37bf-e788-40d7-8c14-f78f3c264d3f","system_id":"levelo_inurba_marseille","lat":43.341417,"lon":5.409045,"is_reserved":false,"is_disabled":false,"rental_uris":{"android":"levelo://app?vid=135e37bf-e788-40d7-8c14-f78f3c264d3f","ios":"levelo://app?vid=135e37bf-e788-40d7-8c14-f78f3c264d3f"},"vehicle_type_id":"4","last_reported":1770669072,"current_range_meters":4800,"station_id":"ce4bhqh2rcd13ifvqhlg","pricing_plan_id":"cebpf4jnsgd1na2vs0mg"},{"bike_id":"41c56df1-4a12-41aa-b1b3-97e3cd6db9f0","system_id":"levelo_inurba_marseille","lat":43.28148,"lon":5.427,"is_reserved":false,"is_disabled":false,"rental_uris":{"android":"levelo://app?vid=41c56df1-4a12-41aa-b1b3-97e3cd6db9f0","ios":"levelo://app?vid=41c56df1-4a12-41aa-b1b3-97e3cd6db9f0"},"vehicle_type_id":"4","last_reported":1770669072,"current_range_meters":4800,"station_id":"ce4bhnh2rcd13ifvqgug","pricing_plan_id":"cebpf4jnsgd1na2vs0mg"},{"bike_id":"707dd2c5-36da-401a-beac-91d3b45ec1bb","system_id":"levelo_inurba_marseille","lat":43.24662,"lon":5.38159,"is_reserved":false,"is_disabled":false,"rental_uris":{"android":"levelo://app?vid=707dd2c5-36da-401a-beac-91d3b45ec1bb","ios":"levelo://app?vid=707dd2c5-36da-401a-beac-91d3b45ec1bb"},"vehicle_type_id":"4","last_reported":1770669072,"current_range_meters":4800,"station_id":"ce4bhih2rcd13ifvqfr0","pricing_plan_id":"cebpf4jnsgd1na2vs0mg"},{"bike_id":"fe7bf099-873c-4474-90f4-045e7264e2ce","system_id":"levelo_inurba_marseille","lat":43.2954,"lon":5.38551,"is_reserved":false,"is_disabled":false,"rental_uris":{"android":"levelo://app?vid=fe7bf099-873c-4474-90f4-045e7264e2ce","ios":"levelo://app?vid=fe7bf099-873c-4474-90f4-045e7264e2ce"},"vehicle_type_id":"4","last_reported":1770669072,"current_range_meters":4800,"station_id":"ce4bgih2rcd13ifvqba0","pricing_plan_id":"cebpf4jnsgd1na2vs0mg"},{"bike_id":"1adcbe6f-803a-426b-a2c4-f29ead84fbe1","system_id":"levelo_inurba_marseille","lat":43.28688,"lon":5.36378,"is_reserved":false,"is_disabled":false,"rental_uris":{"android":"levelo://app?vid=1adcbe6f-803a-426b-a2c4-f29ead84fbe1","ios":"levelo://app?vid=1adcbe6f-803a-426b-a2c4-f29ead84fbe1"},"vehicle_type_id":"4","last_reported":1770669072,"current_range_meters":4800,"station_id":"ce4bhah2rcd13ifvqej0","pricing_plan_id":"cebpf4jnsgd1na2vs0mg"},{"bike_id":"7234e763-4518-492e-aa8c-ccf7818306a6","system_id":"levelo_inurba_marseille","lat":43.2961,"lon":5.38112,"is_reserved":false,"is_disabled":false,"rental_uris":{"android":"levelo://app?vid=7234e763-4518-492e-aa8c-ccf7818306a6","ios":"levelo://app?vid=7234e763-4518-492e-aa8c-ccf7818306a6"},"vehicle_type_id":"4","last_reported":1770669072,"current_range_meters":4800,"station_id":"ce4bgl12rcd13ifvqbo0","pricing_plan_id":"cebpf4jnsgd1na2vs0mg"},{"bike_id":"8f74c3fa-dc1b-41d7-a97b-a1645dde7e9b","system_id":"levelo_inurba_marseille","lat":43.28269,"lon":5.35067,"is_reserved":false,"is_disabled":false,"rental_uris":{"android":"levelo://app?vid=8f74c3fa-dc1b-41d7-a97b-a1645dde7e9b","ios":"levelo://app?vid=8f74c3fa-dc1b-41d7-a97b-a1645dde7e9b"},"vehicle_type_id":"4","last_reported":1770669072,"current_range_meters":5600,"station_id":"ce4bhbp2rcd13ifvqerg","pricing_plan_id":"cebpf4jnsgd1na2vs0mg"},{"bike_id":"c84e4d83-04e3-449f-9895-86dc4df2d6fd","system_id":"levelo_inurba_marseille","lat":43.28309,"lon":5.39452,"is_reserved":false,"is_disabled":false,"rental_uris":{"android":"levelo://app?vid=c84e4d83-04e3-449f-9895-86dc4df2d6fd","ios":"levelo://app?vid=c84e4d83-04e3-449f-9895-86dc4df2d6fd"},"vehicle_type_id":"4","last_reported":1770669072,"current_range_meters":5600,"station_id":"","pricing_plan_id":"cebpf4jnsgd1na2vs0mg"},{"bike_id":"ea048703-a9af-4966-9753-67b46180da67","system_id":"levelo_inurba_marseille","lat":43.30163,"lon":5.38788,"is_reserved":false,"is_disabled":false,"rental_uris":{"android":"levelo://app?vid=ea048703-a9af-4966-9753-67b46180da67","ios":"levelo://app?vid=ea048703-a9af-4966-9753-67b46180da67"},"vehicle_type_id":"4","last_reported":1770669072,"current_range_meters":5600,"station_id":"ce4bghh2rcd13ifvqb60","pricing_plan_id":"cebpf4jnsgd1na2vs0mg"},{"bike_id":"e261bb0b-89cd-4db4-a981-e239137e6052","system_id":"levelo_inurba_marseille","lat":43.32006,"lon":5.38147,"is_reserved":false,"is_disabled":false,"rental_uris":{"android":"levelo://app?vid=e261bb0b-89cd-4db4-a981-e239137e6052","ios":"levelo://app?vid=e261bb0b-89cd-4db4-a981-e239137e6052"},"vehicle_type_id":"4","last_reported":1770669072,"current_range_meters":5600,"station_id":"ce4bhr12rcd13ifvqhpg","pricing_plan_id":"cebpf4jnsgd1na2vs0mg"},{"bike_id":"552bb238-397d-46fd-bed5-90d0a96e0a3c","system_id":"levelo_inurba_marseille","lat":43.29818,"lon":5.38106,"is_reserved":false,"is_disabled":false,"rental_uris":{"android":"levelo://app?vid=552bb238-397d-46fd-bed5-90d0a96e0a3c","ios":"levelo://app?vid=552bb238-397d-46fd-bed5-90d0a96e0a3c"},"vehicle_type_id":"4","last_reported":1770669072,"current_range_meters":5600,"station_id":"ce4bgip2rcd13ifvqbb0","pricing_plan_id":"cebpf4jnsgd1na2vs0mg"},{"bike_id":"0443e993-9f5a-4259-8c74-9ebdf133e470","system_id":"levelo_inurba_marseille","lat":43.312703,"lon":5.40176,"is_reserved":false,"is_disabled":false,"rental_uris":{"android":"levelo://app?vid=0443e993-9f5a-4259-8c74-9ebdf133e470","ios":"levelo://app?vid=0443e993-9f5a-4259-8c74-9ebdf133e470"},"vehicle_type_id":"4","last_reported":1770669072,"current_range_meters":5600,"station_id":"ce4bh092rcd13ifvqd30","pricing_plan_id":"cebpf4jnsgd1na2vs0mg"},{"bike_id":"d14ace5a-186c-45f9-b6a2-20b407091f63","system_id":"levelo_inurba_marseille","lat":43.310743,"lon":5.383546,"is_reserved":false,"is_disabled":false,"rental_uris":{"android":"levelo://app?vid=d14ace5a-186c-45f9-b6a2-20b407091f63","ios":"levelo://app?vid=d14ace5a-186c-45f9-b6a2-20b407091f63"},"vehicle_type_id":"4","last_reported":1770669072,"current_range_meters":5600,"station_id":"ce4bgv92rcd13ifvqcr0","pricing_plan_id":"cebpf4jnsgd1na2vs0mg"},{"bike_id":"e2c3118e-ecc2-476a-9be9-aafebb10c1c9","system_id":"levelo_inurba_marseille","lat":43.246374,"lon":5.431464,"is_reserved":false,"is_disabled":false,"rental_uris":{"android":"levelo://app?vid=e2c3118e-ecc2-476a-9be9-aafebb10c1c9","ios":"levelo://app?vid=e2c3118e-ecc2-476a-9be9-aafebb10c1c9"},"vehicle_type_id":"4","last_reported":1770669072,"current_range_meters":5600,"station_id":"st_d2m6c4gdas8pm72e190g","pricing_plan_id":"cebpf4jnsgd1na2vs0mg"},{"bike_id":"d170295b-b012-4c46-b19c-e51dfc05c763","system_id":"levelo_inurba_marseille","lat":43.31171,"lon":5.38708,"is_reserved":false,"is_disabled":false,"rental_uris":{"android":"levelo://app?vid=d170295b-b012-4c46-b19c-e51dfc05c763","ios":"levelo://app?vid=d170295b-b012-4c46-b19c-e51dfc05c763"},"vehicle_type_id":"4","last_reported":1770669072,"current_range_meters":5600,"station_id":"ce4bgv12rcd13ifvqcp0","pricing_plan_id":"cebpf4jnsgd1na2vs0mg"},{"bike_id":"9f6686fa-6a64-4fb0-b355-40c440a1d791","system_id":"levelo_inurba_marseille","lat":43.26218,"lon":5.37923,"is_reserved":false,"is_disabled":true,"rental_uris":{"android":"levelo://app?vid=9f6686fa-6a64-4fb0-b355-40c440a1d791","ios":"levelo://app?vid=9f6686fa-6a64-4fb0-b355-40c440a1d791"},"vehicle_type_id":"4","last_reported":1770669072,"current_range_meters":5600,"station_id":"ce4bhjp2rcd13ifvqg90","pricing_plan_id":"cebpf4jnsgd1na2vs0mg"},{"bike_id":"08c0e2b6-3dfa-4628-9547-da5f46cb577c","system_id":"levelo_inurba_marseille","lat":43.31173,"lon":5.3874,"is_reserved":false,"is_disabled":false,"rental_uris":{"android":"levelo://app?vid=08c0e2b6-3dfa-4628-9547-da5f46cb577c","ios":"levelo://app?vid=08c0e2b6-3dfa-4628-9547-da5f46cb577c"},"vehicle_type_id":"4","last_reported":1770669072,"current_range_meters":5600,"station_id":"ce4bgv12rcd13ifvqcp0","pricing_plan_id":"cebpf4jnsgd1na2vs0mg"},{"bike_id":"fe05d899-f5d8-42e0-8baa-8f3bc91e6f50","system_id":"levelo_inurba_marseille","lat":43.30663,"lon":5.40066,"is_reserved":false,"is_disabled":false,"rental_uris":{"android":"levelo://app?vid=fe05d899-f5d8-42e0-8baa-8f3bc91e6f50","ios":"levelo://app?vid=fe05d899-f5d8-42e0-8baa-8f3bc91e6f50"},"vehicle_type_id":"4","last_reported":1770669072,"current_range_meters":5600,"station_id":"ce4bh112rcd13ifvqda0","pricing_plan_id":"cebpf4jnsgd1na2vs0mg"},{"bike_id":"7aa3c1d7-5233-4c89-906b-63a5ef63d8a0","system_id":"levelo_inurba_marseille","lat":43.31487,"lon":5.37293,"is_reserved":false,"is_disabled":false,"rental_uris":{"android":"levelo://app?vid=7aa3c1d7-5233-4c89-906b-63a5ef63d8a0","ios":"levelo://app?vid=7aa3c1d7-5233-4c89-906b-63a5ef63d8a0"},"vehicle_type_id":"4","last_reported":1770669072,"current_range_meters":5600,"station_id":"ce4bgt12rcd13ifvqcd0","pricing_plan_id":"cebpf4jnsgd1na2vs0mg"},{"bike_id":"6828c9e5-af26-4907-bb9b-628be302a8e3","system_id":"levelo_inurba_marseille","lat":43.28351,"lon":5.38125,"is_reserved":false,"is_disabled":false,"rental_uris":{"android":"levelo://app?vid=6828c9e5-af26-4907-bb9b-628be302a8e3","ios":"levelo://app?vid=6828c9e5-af26-4907-bb9b-628be302a8e3"},"vehicle_type_id":"4","last_reported":1770669072,"current_range_meters":5600,"station_id":"ce4bh412rcd13ifvqdr0","pricing_plan_id":"cebpf4jnsgd1na2vs0mg"},{"bike_id":"2a41a4e7-1277-4985-ba78-22bce5859488","system_id":"levelo_inurba_marseille","lat":43.25947,"lon":5.40909,"is_reserved":false,"is_disabled":false,"rental_uris":{"android":"levelo://app?vid=2a41a4e7-1277-4985-ba78-22bce5859488","ios":"levelo://app?vid=2a41a4e7-1277-4985-ba78-22bce5859488"},"vehicle_type_id":"4","last_reported":1770669072,"current_range_meters":5600,"station_id":"ce4bhm92rcd13ifvqglg","pricing_plan_id":"cebpf4jnsgd1na2vs0mg"},{"bike_id":"cf796cf9-e672-4248-b947-2e6cdf0b29fd","system_id":"levelo_inurba_marseille","lat":43.25005,"lon":5.38924,"is_reserved":false,"is_disabled":false,"rental_uris":{"android":"levelo://app?vid=cf796cf9-e672-4248-b947-2e6cdf0b29fd","ios":"levelo://app?vid=cf796cf9-e672-4248-b947-2e6cdf0b29fd"},"vehicle_type_id":"4","last_reported":1770669072,"current_range_meters":5600,"station_id":"ce4bhgp2rcd13ifvqfd0","pricing_plan_id":"cebpf4jnsgd1na2vs0mg"},{"bike_id":"6fd1b106-cb38-4f27-adba-35d8789ead8d","system_id":"levelo_inurba_marseille","lat":43.31172,"lon":5.38729,"is_reserved":false,"is_disabled":false,"rental_uris":{"android":"levelo://app?vid=6fd1b106-cb38-4f27-adba-35d8789ead8d","ios":"levelo://app?vid=6fd1b106-cb38-4f27-adba-35d8789ead8d"},"vehicle_type_id":"4","last_reported":1770669072,"current_range_meters":6000,"station_id":"ce4bgv12rcd13ifvqcp0","pricing_plan_id":"cebpf4jnsgd1na2vs0mg"},{"bike_id":"ac31f0e4-7ecc-4de5-8d2e-e0d8bdedf40f","system_id":"levelo_inurba_marseille","lat":43.2992,"lon":5.37469,"is_reserved":false,"is_disabled":false,"rental_uris":{"android":"levelo://app?vid=ac31f0e4-7ecc-4de5-8d2e-e0d8bdedf40f","ios":"levelo://app?vid=ac31f0e4-7ecc-4de5-8d2e-e0d8bdedf40f"},"vehicle_type_id":"4","last_reported":1770669072,"current_range_meters":6000,"station_id":"ce4bgjh2rcd13ifvqbg0","pricing_plan_id":"cebpf4jnsgd1na2vs0mg"},{"bike_id":"ea5b640c-f9cc-4437-aff2-20b9a17b6db1","system_id":"levelo_inurba_marseille","lat":43.25924,"lon":5.40906,"is_reserved":false,"is_disabled":false,"rental_uris":{"android":"levelo://app?vid=ea5b640c-f9cc-4437-aff2-20b9a17b6db1","ios":"levelo://app?vid=ea5b640c-f9cc-4437-aff2-20b9a17b6db1"},"vehicle_type_id":"4","last_reported":1770669072,"current_range_meters":6000,"station_id":"ce4bhm92rcd13ifvqglg","pricing_plan_id":"cebpf4jnsgd1na2vs0mg"},{"bike_id":"7b23c59a-e91f-4ebf-b287-e184212eaf2b","system_id":"levelo_inurba_marseille","lat":43.2462,"lon":5.38963,"is_reserved":false,"is_disabled":false,"rental_uris":{"android":"levelo://app?vid=7b23c59a-e91f-4ebf-b287-e184212eaf2b","ios":"levelo://app?vid=7b23c59a-e91f-4ebf-b287-e184212eaf2b"},"vehicle_type_id":"4","last_reported":1770669072,"current_range_meters":6000,"station_id":"ce4bhg12rcd13ifvqf60","pricing_plan_id":"cebpf4jnsgd1na2vs0mg"},{"bike_id":"9c356895-705a-449d-96cc-0eb6e80936bc","system_id":"levelo_inurba_marseille","lat":43.29162,"lon":5.38808,"is_reserved":false,"is_disabled":false,"rental_uris":{"android":"levelo://app?vid=9c356895-705a-449d-96cc-0eb6e80936bc","ios":"levelo://app?vid=9c356895-705a-449d-96cc-0eb6e80936bc"},"vehicle_type_id":"4","last_reported":1770669072,"current_range_meters":6000,"station_id":"","pricing_plan_id":"cebpf4jnsgd1na2vs0mg"},{"bike_id":"35e4b42f-0bd7-4ae5-bc45-bc469e5a67fb","system_id":"levelo_inurba_marseille","lat":43.27206,"lon":5.39185,"is_reserved":false,"is_disabled":false,"rental_uris":{"android":"levelo://app?vid=35e4b42f-0bd7-4ae5-bc45-bc469e5a67fb","ios":"levelo://app?vid=35e4b42f-0bd7-4ae5-bc45-bc469e5a67fb"},"vehicle_type_id":"4","last_reported":1770669072,"current_range_meters":6000,"station_id":"ce4bhhp2rcd13ifvqfm0","pricing_plan_id":"cebpf4jnsgd1na2vs0mg"},{"bike_id":"b65a7e72-9e74-4b3f-b167-e422d10fb3a2","system_id":"levelo_inurba_marseille","lat":43.29924,"lon":5.38536,"is_reserved":false,"is_disabled":false,"rental_uris":{"android":"levelo://app?vid=b65a7e72-9e74-4b3f-b167-e422d10fb3a2","ios":"levelo://app?vid=b65a7e72-9e74-4b3f-b167-e422d10fb3a2"},"vehicle_type_id":"4","last_reported":1770669072,"current_range_meters":6400,"station_id":"","pricing_plan_id":"cebpf4jnsgd1na2vs0mg"},{"bike_id":"11362055-2532-43bc-accf-dec1dfa873dc","system_id":"levelo_inurba_marseille","lat":43.235136,"lon":5.410949,"is_reserved":false,"is_disabled":false,"rental_uris":{"android":"levelo://app?vid=11362055-2532-43bc-accf-dec1dfa873dc","ios":"levelo://app?vid=11362055-2532-43bc-accf-dec1dfa873dc"},"vehicle_type_id":"4","last_reported":1770669072,"current_range_meters":6400,"station_id":"","pricing_plan_id":"cebpf4jnsgd1na2vs0mg"},{"bike_id":"b7373ee6-e145-4b05-80ed-3adb7fce0200","system_id":"levelo_inurba_marseille","lat":43.29671,"lon":5.3667,"is_reserved":false,"is_disabled":false,"rental_uris":{"android":"levelo://app?vid=b7373ee6-e145-4b05-80ed-3adb7fce0200","ios":"levelo://app?vid=b7373ee6-e145-4b05-80ed-3adb7fce0200"},"vehicle_type_id":"4","last_reported":1770669072,"current_range_meters":6400,"station_id":"","pricing_plan_id":"cebpf4jnsgd1na2vs0mg"},{"bike_id":"fc830711-c6c4-41fc-8c3c-a2ef4151426a","system_id":"levelo_inurba_marseille","lat":43.26811,"lon":5.40259,"is_reserved":false,"is_disabled":false,"rental_uris":{"android":"levelo://app?vid=fc830711-c6c4-41fc-8c3c-a2ef4151426a","ios":"levelo://app?vid=fc830711-c6c4-41fc-8c3c-a2ef4151426a"},"vehicle_type_id":"4","last_reported":1770669072,"current_range_meters":6400,"station_id":"ce501612rcd8frsf0b60","pricing_plan_id":"cebpf4jnsgd1na2vs0mg"},{"bike_id":"a5acbbd9-5f45-4e0f-9727-2ba8aeddbdbb","system_id":"levelo_inurba_marseille","lat":43.30734,"lon":5.42438,"is_reserved":false,"is_disabled":false,"rental_uris":{"android":"levelo://app?vid=a5acbbd9-5f45-4e0f-9727-2ba8aeddbdbb","ios":"levelo://app?vid=a5acbbd9-5f45-4e0f-9727-2ba8aeddbdbb"},"vehicle_type_id":"4","last_reported":1770669072,"current_range_meters":6400,"station_id":"st_cvj6ca6bvosntc0bfgr0","pricing_plan_id":"cebpf4jnsgd1na2vs0mg"},{"bike_id":"ade951fe-8fde-4fca-b8bd-34fd1a5c5b08","system_id":"levelo_inurba_marseille","lat":43.30546,"lon":5.36716,"is_reserved":false,"is_disabled":false,"rental_uris":{"android":"levelo://app?vid=ade951fe-8fde-4fca-b8bd-34fd1a5c5b08","ios":"levelo://app?vid=ade951fe-8fde-4fca-b8bd-34fd1a5c5b08"},"vehicle_type_id":"4","last_reported":1770669072,"current_range_meters":6400,"station_id":"","pricing_plan_id":"cebpf4jnsgd1na2vs0mg"},{"bike_id":"c0b6c3eb-4055-48c5-be4e-2f3633e2e95f","system_id":"levelo_inurba_marseille","lat":43.2255,"lon":5.41639,"is_reserved":false,"is_disabled":false,"rental_uris":{"android":"levelo://app?vid=c0b6c3eb-4055-48c5-be4e-2f3633e2e95f","ios":"levelo://app?vid=c0b6c3eb-4055-48c5-be4e-2f3633e2e95f"},"vehicle_type_id":"4","last_reported":1770669072,"current_range_meters":6400,"station_id":"st_d2o4gvlbi1j2169b742g","pricing_plan_id":"cebpf4jnsgd1na2vs0mg"},{"bike_id":"4ed74a89-631e-4f3d-9ffb-104dbcec7ce5","system_id":"levelo_inurba_marseille","lat":43.2799,"lon":5.40023,"is_reserved":false,"is_disabled":false,"rental_uris":{"android":"levelo://app?vid=4ed74a89-631e-4f3d-9ffb-104dbcec7ce5","ios":"levelo://app?vid=4ed74a89-631e-4f3d-9ffb-104dbcec7ce5"},"vehicle_type_id":"4","last_reported":1770669072,"current_range_meters":6400,"station_id":"ce4bho92rcd13ifvqh4g","pricing_plan_id":"cebpf4jnsgd1na2vs0mg"},{"bike_id":"714adb90-f1ac-4859-ab1e-d48f2b2680c0","system_id":"levelo_inurba_marseille","lat":43.248138,"lon":5.374598,"is_reserved":false,"is_disabled":false,"rental_uris":{"android":"levelo://app?vid=714adb90-f1ac-4859-ab1e-d48f2b2680c0","ios":"levelo://app?vid=714adb90-f1ac-4859-ab1e-d48f2b2680c0"},"vehicle_type_id":"4","last_reported":1770669072,"current_range_meters":6400,"station_id":"ce4bhgh2rcd13ifvqfb0","pricing_plan_id":"cebpf4jnsgd1na2vs0mg"},{"bike_id":"fc907f3f-e32f-4939-a497-0f14711e7e49","system_id":"levelo_inurba_marseille","lat":43.26957,"lon":5.38656,"is_reserved":false,"is_disabled":false,"rental_uris":{"android":"levelo://app?vid=fc907f3f-e32f-4939-a497-0f14711e7e49","ios":"levelo://app?vid=fc907f3f-e32f-4939-a497-0f14711e7e49"},"vehicle_type_id":"4","last_reported":1770669072,"current_range_meters":6400,"station_id":"ce4bhh92rcd13ifvqfh0","pricing_plan_id":"cebpf4jnsgd1na2vs0mg"},{"bike_id":"d5d0ae74-54fa-4b09-99f0-8e82e1b973d1","system_id":"levelo_inurba_marseille","lat":43.21747,"lon":5.34552,"is_reserved":false,"is_disabled":false,"rental_uris":{"android":"levelo://app?vid=d5d0ae74-54fa-4b09-99f0-8e82e1b973d1","ios":"levelo://app?vid=d5d0ae74-54fa-4b09-99f0-8e82e1b973d1"},"vehicle_type_id":"4","last_reported":1770669072,"current_range_meters":6400,"station_id":"","pricing_plan_id":"cebpf4jnsgd1na2vs0mg"},{"bike_id":"777f1f50-9ccf-46db-a1bf-cfe765ca1373","system_id":"levelo_inurba_marseille","lat":43.26073,"lon":5.39357,"is_reserved":false,"is_disabled":false,"rental_uris":{"android":"levelo://app?vid=777f1f50-9ccf-46db-a1bf-cfe765ca1373","ios":"levelo://app?vid=777f1f50-9ccf-46db-a1bf-cfe765ca1373"},"vehicle_type_id":"4","last_reported":1770669072,"current_range_meters":6400,"station_id":"ce4bhh92rcd13ifvqfj0","pricing_plan_id":"cebpf4jnsgd1na2vs0mg"},{"bike_id":"aa2bf0cd-9661-4d84-8b59-aed68b60696e","system_id":"levelo_inurba_marseille","lat":43.21806,"lon":5.34606,"is_reserved":false,"is_disabled":false,"rental_uris":{"android":"levelo://app?vid=aa2bf0cd-9661-4d84-8b59-aed68b60696e","ios":"levelo://app?vid=aa2bf0cd-9661-4d84-8b59-aed68b60696e"},"vehicle_type_id":"4","last_reported":1770669072,"current_range_meters":6400,"station_id":"","pricing_plan_id":"cebpf4jnsgd1na2vs0mg"},{"bike_id":"ed8676f0-40a0-4d98-a871-3be27e2c8c37","system_id":"levelo_inurba_marseille","lat":43.31527,"lon":5.39167,"is_reserved":false,"is_disabled":false,"rental_uris":{"android":"levelo://app?vid=ed8676f0-40a0-4d98-a871-3be27e2c8c37","ios":"levelo://app?vid=ed8676f0-40a0-4d98-a871-3be27e2c8c37"},"vehicle_type_id":"4","last_reported":1770669072,"current_range_meters":6400,"station_id":"","pricing_plan_id":"cebpf4jnsgd1na2vs0mg"},{"bike_id":"b0437b95-ba96-479d-b093-d1fdf30e7bf6","system_id":"levelo_inurba_marseille","lat":43.31447,"lon":5.40436,"is_reserved":false,"is_disabled":false,"rental_uris":{"android":"levelo://app?vid=b0437b95-ba96-479d-b093-d1fdf30e7bf6","ios":"levelo://app?vid=b0437b95-ba96-479d-b093-d1fdf30e7bf6"},"vehicle_type_id":"4","last_reported":1770669072,"current_range_meters":6400,"station_id":"","pricing_plan_id":"cebpf4jnsgd1na2vs0mg"},{"bike_id":"631ca18a-8f45-4674-bb51-5eec2347caad","system_id":"levelo_inurba_marseille","lat":43.24727,"lon":5.38195,"is_reserved":false,"is_disabled":false,"rental_uris":{"android":"levelo://app?vid=631ca18a-8f45-4674-bb51-5eec2347caad","ios":"levelo://app?vid=631ca18a-8f45-4674-bb51-5eec2347caad"},"vehicle_type_id":"4","last_reported":1770669072,"current_range_meters":6400,"station_id":"ce4bhih2rcd13ifvqfr0","pricing_plan_id":"cebpf4jnsgd1na2vs0mg"},{"bike_id":"245f3a00-5ae9-48cf-b7da-8774ff9b41ba","system_id":"levelo_inurba_marseille","lat":43.28478,"lon":5.484076,"is_reserved":false,"is_disabled":false,"rental_uris":{"android":"levelo://app?vid=245f3a00-5ae9-48cf-b7da-8774ff9b41ba","ios":"levelo://app?vid=245f3a00-5ae9-48cf-b7da-8774ff9b41ba"},"vehicle_type_id":"4","last_reported":1770669072,"current_range_meters":6800,"station_id":"st_d3svhcjqgbts73a3dn0g","pricing_plan_id":"cebpf4jnsgd1na2vs0mg"},{"bike_id":"16a1688f-c2f5-4bf5-96dc-0466fbc0522d","system_id":"levelo_inurba_marseille","lat":43.27962,"lon":5.38696,"is_reserved":false,"is_disabled":false,"rental_uris":{"android":"levelo://app?vid=16a1688f-c2f5-4bf5-96dc-0466fbc0522d","ios":"levelo://app?vid=16a1688f-c2f5-4bf5-96dc-0466fbc0522d"},"vehicle_type_id":"4","last_reported":1770669072,"current_range_meters":6800,"station_id":"ce4bhg12rcd13ifvqf80","pricing_plan_id":"cebpf4jnsgd1na2vs0mg"},{"bike_id":"7d59f1f1-2621-4853-91a8-34ee2eea3bf8","system_id":"levelo_inurba_marseille","lat":43.243996,"lon":5.370638,"is_reserved":false,"is_disabled":false,"rental_uris":{"android":"levelo://app?vid=7d59f1f1-2621-4853-91a8-34ee2eea3bf8","ios":"levelo://app?vid=7d59f1f1-2621-4853-91a8-34ee2eea3bf8"},"vehicle_type_id":"4","last_reported":1770669072,"current_range_meters":6800,"station_id":"ce4bhhh2rcd13ifvqfk0","pricing_plan_id":"cebpf4jnsgd1na2vs0mg"},{"bike_id":"52e2cb48-62c2-43dc-9272-88ebf0a70841","system_id":"levelo_inurba_marseille","lat":43.27072,"lon":5.42276,"is_reserved":false,"is_disabled":false,"rental_uris":{"android":"levelo://app?vid=52e2cb48-62c2-43dc-9272-88ebf0a70841","ios":"levelo://app?vid=52e2cb48-62c2-43dc-9272-88ebf0a70841"},"vehicle_type_id":"4","last_reported":1770669072,"current_range_meters":6800,"station_id":"ce4bhk92rcd13ifvqgb0","pricing_plan_id":"cebpf4jnsgd1na2vs0mg"},{"bike_id":"d621f5e7-8acc-4ff4-a69d-a1422860881c","system_id":"levelo_inurba_marseille","lat":43.295187,"lon":5.394035,"is_reserved":false,"is_disabled":false,"rental_uris":{"android":"levelo://app?vid=d621f5e7-8acc-4ff4-a69d-a1422860881c","ios":"levelo://app?vid=d621f5e7-8acc-4ff4-a69d-a1422860881c"},"vehicle_type_id":"4","last_reported":1770669072,"current_range_meters":6800,"station_id":"ce4bh292rcd13ifvqdf0","pricing_plan_id":"cebpf4jnsgd1na2vs0mg"},{"bike_id":"6051b31d-701e-49ad-8b8c-d5a67a21069c","system_id":"levelo_inurba_marseille","lat":43.279921,"lon":5.400215,"is_reserved":false,"is_disabled":false,"rental_uris":{"android":"levelo://app?vid=6051b31d-701e-49ad-8b8c-d5a67a21069c","ios":"levelo://app?vid=6051b31d-701e-49ad-8b8c-d5a67a21069c"},"vehicle_type_id":"4","last_reported":1770669072,"current_range_meters":6800,"station_id":"ce4bho92rcd13ifvqh4g","pricing_plan_id":"cebpf4jnsgd1na2vs0mg"},{"bike_id":"0460d08b-9eee-490e-a660-bbd5c5041233","system_id":"levelo_inurba_marseille","lat":43.250024,"lon":5.389322,"is_reserved":false,"is_disabled":false,"rental_uris":{"android":"levelo://app?vid=0460d08b-9eee-490e-a660-bbd5c5041233","ios":"levelo://app?vid=0460d08b-9eee-490e-a660-bbd5c5041233"},"vehicle_type_id":"4","last_reported":1770669072,"current_range_meters":6800,"station_id":"ce4bhgp2rcd13ifvqfd0","pricing_plan_id":"cebpf4jnsgd1na2vs0mg"},{"bike_id":"db2e5c22-9f82-4c32-b356-f06e3f0ce6ed","system_id":"levelo_inurba_marseille","lat":43.24066,"lon":5.37703,"is_reserved":false,"is_disabled":false,"rental_uris":{"android":"levelo://app?vid=db2e5c22-9f82-4c32-b356-f06e3f0ce6ed","ios":"levelo://app?vid=db2e5c22-9f82-4c32-b356-f06e3f0ce6ed"},"vehicle_type_id":"4","last_reported":1770669072,"current_range_meters":6800,"station_id":"ce4bhnp2rcd13ifvqgvg","pricing_plan_id":"cebpf4jnsgd1na2vs0mg"},{"bike_id":"d6e0f210-46b5-4d7e-8bfd-97815e82e64a","system_id":"levelo_inurba_marseille","lat":43.2867,"lon":5.363531,"is_reserved":false,"is_disabled":false,"rental_uris":{"android":"levelo://app?vid=d6e0f210-46b5-4d7e-8bfd-97815e82e64a","ios":"levelo://app?vid=d6e0f210-46b5-4d7e-8bfd-97815e82e64a"},"vehicle_type_id":"4","last_reported":1770669072,"current_range_meters":6800,"station_id":"ce4bhah2rcd13ifvqej0","pricing_plan_id":"cebpf4jnsgd1na2vs0mg"},{"bike_id":"ddb2c7a2-c954-413b-ae26-18c7aa93906a","system_id":"levelo_inurba_marseille","lat":43.28716,"lon":5.36117,"is_reserved":false,"is_disabled":false,"rental_uris":{"android":"levelo://app?vid=ddb2c7a2-c954-413b-ae26-18c7aa93906a","ios":"levelo://app?vid=ddb2c7a2-c954-413b-ae26-18c7aa93906a"},"vehicle_type_id":"4","last_reported":1770669072,"current_range_meters":6800,"station_id":"cki0cbj6b192h4jlfktg","pricing_plan_id":"cebpf4jnsgd1na2vs0mg"},{"bike_id":"7c82b533-62b6-42dd-8df3-6f68f234c486","system_id":"levelo_inurba_marseille","lat":43.269296,"lon":5.389242,"is_reserved":false,"is_disabled":false,"rental_uris":{"android":"levelo://app?vid=7c82b533-62b6-42dd-8df3-6f68f234c486","ios":"levelo://app?vid=7c82b533-62b6-42dd-8df3-6f68f234c486"},"vehicle_type_id":"4","last_reported":1770669072,"current_range_meters":6800,"station_id":"ce4bhhh2rcd13ifvqfl0","pricing_plan_id":"cebpf4jnsgd1na2vs0mg"},{"bike_id":"e392d9e4-679d-49ea-8209-6cc157225cab","system_id":"levelo_inurba_marseille","lat":43.25091,"lon":5.40396,"is_reserved":false,"is_disabled":false,"rental_uris":{"android":"levelo://app?vid=e392d9e4-679d-49ea-8209-6cc157225cab","ios":"levelo://app?vid=e392d9e4-679d-49ea-8209-6cc157225cab"},"vehicle_type_id":"4","last_reported":1770669072,"current_range_meters":6800,"station_id":"","pricing_plan_id":"cebpf4jnsgd1na2vs0mg"},{"bike_id":"e83d9e2f-7571-4d83-99bc-489b34ff4643","system_id":"levelo_inurba_marseille","lat":43.25343,"lon":5.4218,"is_reserved":false,"is_disabled":false,"rental_uris":{"android":"levelo://app?vid=e83d9e2f-7571-4d83-99bc-489b34ff4643","ios":"levelo://app?vid=e83d9e2f-7571-4d83-99bc-489b34ff4643"},"vehicle_type_id":"4","last_reported":1770669072,"current_range_meters":6800,"station_id":"st_d2m65c5bi1j21697t3ng","pricing_plan_id":"cebpf4jnsgd1na2vs0mg"},{"bike_id":"91fdd7ab-d339-4963-8616-9757378509a7","system_id":"levelo_inurba_marseille","lat":43.28613,"lon":5.37067,"is_reserved":false,"is_disabled":false,"rental_uris":{"android":"levelo://app?vid=91fdd7ab-d339-4963-8616-9757378509a7","ios":"levelo://app?vid=91fdd7ab-d339-4963-8616-9757378509a7"},"vehicle_type_id":"4","last_reported":1770669072,"current_range_meters":6800,"station_id":"ce4bht12rcd13ifvqi60","pricing_plan_id":"cebpf4jnsgd1na2vs0mg"},{"bike_id":"0c19d373-6eb2-4333-8212-205e194a0e67","system_id":"levelo_inurba_marseille","lat":43.24396,"lon":5.37076,"is_reserved":false,"is_disabled":false,"rental_uris":{"android":"levelo://app?vid=0c19d373-6eb2-4333-8212-205e194a0e67","ios":"levelo://app?vid=0c19d373-6eb2-4333-8212-205e194a0e67"},"vehicle_type_id":"4","last_reported":1770669072,"current_range_meters":6800,"station_id":"ce4bhhh2rcd13ifvqfk0","pricing_plan_id":"cebpf4jnsgd1na2vs0mg"},{"bike_id":"6e043c13-5a31-4e0d-9658-13d292ba1363","system_id":"levelo_inurba_marseille","lat":43.26231,"lon":5.37902,"is_reserved":false,"is_disabled":false,"rental_uris":{"android":"levelo://app?vid=6e043c13-5a31-4e0d-9658-13d292ba1363","ios":"levelo://app?vid=6e043c13-5a31-4e0d-9658-13d292ba1363"},"vehicle_type_id":"4","last_reported":1770669072,"current_range_meters":6800,"station_id":"ce4bhjp2rcd13ifvqg90","pricing_plan_id":"cebpf4jnsgd1na2vs0mg"},{"bike_id":"e1242b72-e1d7-481b-8195-5c5f6d9a0b11","system_id":"levelo_inurba_marseille","lat":43.246352,"lon":5.431411,"is_reserved":false,"is_disabled":false,"rental_uris":{"android":"levelo://app?vid=e1242b72-e1d7-481b-8195-5c5f6d9a0b11","ios":"levelo://app?vid=e1242b72-e1d7-481b-8195-5c5f6d9a0b11"},"vehicle_type_id":"4","last_reported":1770669072,"current_range_meters":6800,"station_id":"st_d2m6c4gdas8pm72e190g","pricing_plan_id":"cebpf4jnsgd1na2vs0mg"},{"bike_id":"7e01f57b-ade8-4cc3-81c3-76e88fac1321","system_id":"levelo_inurba_marseille","lat":43.28478,"lon":5.48417,"is_reserved":false,"is_disabled":false,"rental_uris":{"android":"levelo://app?vid=7e01f57b-ade8-4cc3-81c3-76e88fac1321","ios":"levelo://app?vid=7e01f57b-ade8-4cc3-81c3-76e88fac1321"},"vehicle_type_id":"4","last_reported":1770669072,"current_range_meters":6800,"station_id":"st_d3svhcjqgbts73a3dn0g","pricing_plan_id":"cebpf4jnsgd1na2vs0mg"},{"bike_id":"8bef53ea-8eaf-4178-b831-97fbd54144a8","system_id":"levelo_inurba_marseille","lat":43.2625,"lon":5.4045,"is_reserved":false,"is_disabled":false,"rental_uris":{"android":"levelo://app?vid=8bef53ea-8eaf-4178-b831-97fbd54144a8","ios":"levelo://app?vid=8bef53ea-8eaf-4178-b831-97fbd54144a8"},"vehicle_type_id":"4","last_reported":1770669072,"current_range_meters":6800,"station_id":"ce4bhmh2rcd13ifvqgmg","pricing_plan_id":"cebpf4jnsgd1na2vs0mg"},{"bike_id":"818c414c-c9b8-4b39-8f4c-622d1c0380f5","system_id":"levelo_inurba_marseille","lat":43.28852,"lon":5.39311,"is_reserved":false,"is_disabled":false,"rental_uris":{"android":"levelo://app?vid=818c414c-c9b8-4b39-8f4c-622d1c0380f5","ios":"levelo://app?vid=818c414c-c9b8-4b39-8f4c-622d1c0380f5"},"vehicle_type_id":"4","last_reported":1770669072,"current_range_meters":6800,"station_id":"ce4bh2p2rcd13ifvqdi0","pricing_plan_id":"cebpf4jnsgd1na2vs0mg"},{"bike_id":"40ca09fe-7866-480e-ac60-f7b7f539bb36","system_id":"levelo_inurba_marseille","lat":43.23413,"lon":5.41214,"is_reserved":false,"is_disabled":false,"rental_uris":{"android":"levelo://app?vid=40ca09fe-7866-480e-ac60-f7b7f539bb36","ios":"levelo://app?vid=40ca09fe-7866-480e-ac60-f7b7f539bb36"},"vehicle_type_id":"4","last_reported":1770669072,"current_range_meters":6800,"station_id":"","pricing_plan_id":"cebpf4jnsgd1na2vs0mg"},{"bike_id":"9a0a4f5b-d5f2-4be0-a4fa-450256499716","system_id":"levelo_inurba_marseille","lat":43.27087,"lon":5.39888,"is_reserved":false,"is_disabled":false,"rental_uris":{"android":"levelo://app?vid=9a0a4f5b-d5f2-4be0-a4fa-450256499716","ios":"levelo://app?vid=9a0a4f5b-d5f2-4be0-a4fa-450256499716"},"vehicle_type_id":"4","last_reported":1770669072,"current_range_meters":6800,"station_id":"","pricing_plan_id":"cebpf4jnsgd1na2vs0mg"},{"bike_id":"4f801ac8-7e18-4f4e-813d-e2c4b2346d28","system_id":"levelo_inurba_marseille","lat":43.2657,"lon":5.39014,"is_reserved":false,"is_disabled":false,"rental_uris":{"android":"levelo://app?vid=4f801ac8-7e18-4f4e-813d-e2c4b2346d28","ios":"levelo://app?vid=4f801ac8-7e18-4f4e-813d-e2c4b2346d28"},"vehicle_type_id":"4","last_reported":1770669072,"current_range_meters":6800,"station_id":"ce4bhe12rcd13ifvqf30","pricing_plan_id":"cebpf4jnsgd1na2vs0mg"},{"bike_id":"b5c12e16-c378-4baa-a0ce-934824ef03f9","system_id":"levelo_inurba_marseille","lat":43.29252,"lon":5.38449,"is_reserved":false,"is_disabled":false,"rental_uris":{"android":"levelo://app?vid=b5c12e16-c378-4baa-a0ce-934824ef03f9","ios":"levelo://app?vid=b5c12e16-c378-4baa-a0ce-934824ef03f9"},"vehicle_type_id":"4","last_reported":1770669072,"current_range_meters":6800,"station_id":"ce4bh692rcd13ifvqea0","pricing_plan_id":"cebpf4jnsgd1na2vs0mg"},{"bike_id":"54bd52e6-912c-41e4-90a6-85e5c05a7d3d","system_id":"levelo_inurba_marseille","lat":43.22579,"lon":5.41615,"is_reserved":false,"is_disabled":false,"rental_uris":{"android":"levelo://app?vid=54bd52e6-912c-41e4-90a6-85e5c05a7d3d","ios":"levelo://app?vid=54bd52e6-912c-41e4-90a6-85e5c05a7d3d"},"vehicle_type_id":"4","last_reported":1770669072,"current_range_meters":7200,"station_id":"st_d2o4gvlbi1j2169b742g","pricing_plan_id":"cebpf4jnsgd1na2vs0mg"},{"bike_id":"fd158031-c8ec-435b-b315-8360533800f5","system_id":"levelo_inurba_marseille","lat":43.26236,"lon":5.4045,"is_reserved":false,"is_disabled":true,"rental_uris":{"android":"levelo://app?vid=fd158031-c8ec-435b-b315-8360533800f5","ios":"levelo://app?vid=fd158031-c8ec-435b-b315-8360533800f5"},"vehicle_type_id":"4","last_reported":1770669072,"current_range_meters":7200,"station_id":"ce4bhmh2rcd13ifvqgmg","pricing_plan_id":"cebpf4jnsgd1na2vs0mg"},{"bike_id":"3063fa18-addf-4b6a-b22b-63fef0e879fe","system_id":"levelo_inurba_marseille","lat":43.30135,"lon":5.38788,"is_reserved":false,"is_disabled":false,"rental_uris":{"android":"levelo://app?vid=3063fa18-addf-4b6a-b22b-63fef0e879fe","ios":"levelo://app?vid=3063fa18-addf-4b6a-b22b-63fef0e879fe"},"vehicle_type_id":"4","last_reported":1770669072,"current_range_meters":7200,"station_id":"ce4bghh2rcd13ifvqb60","pricing_plan_id":"cebpf4jnsgd1na2vs0mg"},{"bike_id":"f23a5ea8-cccd-472e-abcc-91e4bbd449a7","system_id":"levelo_inurba_marseille","lat":43.30318,"lon":5.36918,"is_reserved":false,"is_disabled":true,"rental_uris":{"android":"levelo://app?vid=f23a5ea8-cccd-472e-abcc-91e4bbd449a7","ios":"levelo://app?vid=f23a5ea8-cccd-472e-abcc-91e4bbd449a7"},"vehicle_type_id":"4","last_reported":1770669072,"current_range_meters":7200,"station_id":"ce4bgqh2rcd13ifvqc5g","pricing_plan_id":"cebpf4jnsgd1na2vs0mg"},{"bike_id":"0d435044-39b2-4402-857a-610b31675306","system_id":"levelo_inurba_marseille","lat":43.31069,"lon":5.37475,"is_reserved":false,"is_disabled":false,"rental_uris":{"android":"levelo://app?vid=0d435044-39b2-4402-857a-610b31675306","ios":"levelo://app?vid=0d435044-39b2-4402-857a-610b31675306"},"vehicle_type_id":"4","last_reported":1770669072,"current_range_meters":7200,"station_id":"","pricing_plan_id":"cebpf4jnsgd1na2vs0mg"},{"bike_id":"fe6f8294-65ba-45f1-a4f6-c1ee0f12ef18","system_id":"levelo_inurba_marseille","lat":43.22589,"lon":5.41648,"is_reserved":false,"is_disabled":false,"rental_uris":{"android":"levelo://app?vid=fe6f8294-65ba-45f1-a4f6-c1ee0f12ef18","ios":"levelo://app?vid=fe6f8294-65ba-45f1-a4f6-c1ee0f12ef18"},"vehicle_type_id":"4","last_reported":1770669072,"current_range_meters":7200,"station_id":"st_d2o4gvlbi1j2169b742g","pricing_plan_id":"cebpf4jnsgd1na2vs0mg"},{"bike_id":"8d65ea59-159e-4e8e-8acb-244f43059bc9","system_id":"levelo_inurba_marseille","lat":43.24179,"lon":5.36387,"is_reserved":false,"is_disabled":false,"rental_uris":{"android":"levelo://app?vid=8d65ea59-159e-4e8e-8acb-244f43059bc9","ios":"levelo://app?vid=8d65ea59-159e-4e8e-8acb-244f43059bc9"},"vehicle_type_id":"4","last_reported":1770669072,"current_range_meters":7200,"station_id":"cpo36qri1sfpv3e86is0","pricing_plan_id":"cebpf4jnsgd1na2vs0mg"},{"bike_id":"36ac8fb1-1e6b-4c04-8e8e-9441a471d5f6","system_id":"levelo_inurba_marseille","lat":43.28478,"lon":5.48393,"is_reserved":false,"is_disabled":false,"rental_uris":{"android":"levelo://app?vid=36ac8fb1-1e6b-4c04-8e8e-9441a471d5f6","ios":"levelo://app?vid=36ac8fb1-1e6b-4c04-8e8e-9441a471d5f6"},"vehicle_type_id":"4","last_reported":1770669072,"current_range_meters":7200,"station_id":"","pricing_plan_id":"cebpf4jnsgd1na2vs0mg"},{"bike_id":"d917330e-8029-461a-95c3-ed551a62a88f","system_id":"levelo_inurba_marseille","lat":43.225617,"lon":5.416269,"is_reserved":false,"is_disabled":false,"rental_uris":{"android":"levelo://app?vid=d917330e-8029-461a-95c3-ed551a62a88f","ios":"levelo://app?vid=d917330e-8029-461a-95c3-ed551a62a88f"},"vehicle_type_id":"4","last_reported":1770669072,"current_range_meters":7200,"station_id":"st_d2o4gvlbi1j2169b742g","pricing_plan_id":"cebpf4jnsgd1na2vs0mg"},{"bike_id":"f62a384c-82ea-406f-b454-65dc89a8251e","system_id":"levelo_inurba_marseille","lat":43.27581,"lon":5.41737,"is_reserved":false,"is_disabled":false,"rental_uris":{"android":"levelo://app?vid=f62a384c-82ea-406f-b454-65dc89a8251e","ios":"levelo://app?vid=f62a384c-82ea-406f-b454-65dc89a8251e"},"vehicle_type_id":"4","last_reported":1770669072,"current_range_meters":7200,"station_id":"","pricing_plan_id":"cebpf4jnsgd1na2vs0mg"},{"bike_id":"286b6ff3-cad3-40cc-8457-9f3961da585f","system_id":"levelo_inurba_marseille","lat":43.26065,"lon":5.37548,"is_reserved":false,"is_disabled":false,"rental_uris":{"android":"levelo://app?vid=286b6ff3-cad3-40cc-8457-9f3961da585f","ios":"levelo://app?vid=286b6ff3-cad3-40cc-8457-9f3961da585f"},"vehicle_type_id":"4","last_reported":1770669072,"current_range_meters":7200,"station_id":"ce4bhgh2rcd13ifvqfa0","pricing_plan_id":"cebpf4jnsgd1na2vs0mg"},{"bike_id":"2deb45fa-cb82-48cc-9169-0ddc074570fe","system_id":"levelo_inurba_marseille","lat":43.311648,"lon":5.446746,"is_reserved":false,"is_disabled":false,"rental_uris":{"android":"levelo://app?vid=2deb45fa-cb82-48cc-9169-0ddc074570fe","ios":"levelo://app?vid=2deb45fa-cb82-48cc-9169-0ddc074570fe"},"vehicle_type_id":"4","last_reported":1770669072,"current_range_meters":7200,"station_id":"","pricing_plan_id":"cebpf4jnsgd1na2vs0mg"},{"bike_id":"6e79fd0f-9e8e-4459-8240-57d4fd86c647","system_id":"levelo_inurba_marseille","lat":43.297706,"lon":5.381341,"is_reserved":false,"is_disabled":false,"rental_uris":{"android":"levelo://app?vid=6e79fd0f-9e8e-4459-8240-57d4fd86c647","ios":"levelo://app?vid=6e79fd0f-9e8e-4459-8240-57d4fd86c647"},"vehicle_type_id":"4","last_reported":1770669072,"current_range_meters":7200,"station_id":"ce4bgip2rcd13ifvqbb0","pricing_plan_id":"cebpf4jnsgd1na2vs0mg"},{"bike_id":"3775b517-557e-418b-ae2d-2f69c8f310b9","system_id":"levelo_inurba_marseille","lat":43.29882,"lon":5.38929,"is_reserved":false,"is_disabled":false,"rental_uris":{"android":"levelo://app?vid=3775b517-557e-418b-ae2d-2f69c8f310b9","ios":"levelo://app?vid=3775b517-557e-418b-ae2d-2f69c8f310b9"},"vehicle_type_id":"4","last_reported":1770669072,"current_range_meters":7200,"station_id":"ce4bh392rcd13ifvqdl0","pricing_plan_id":"cebpf4jnsgd1na2vs0mg"},{"bike_id":"0bcc3703-c111-48ab-a4fd-1ed90546ea3f","system_id":"levelo_inurba_marseille","lat":43.31068,"lon":5.38345,"is_reserved":false,"is_disabled":false,"rental_uris":{"android":"levelo://app?vid=0bcc3703-c111-48ab-a4fd-1ed90546ea3f","ios":"levelo://app?vid=0bcc3703-c111-48ab-a4fd-1ed90546ea3f"},"vehicle_type_id":"4","last_reported":1770669072,"current_range_meters":7200,"station_id":"ce4bgv92rcd13ifvqcr0","pricing_plan_id":"cebpf4jnsgd1na2vs0mg"},{"bike_id":"6316a440-6079-4cd7-8710-8e12c6c0a2b7","system_id":"levelo_inurba_marseille","lat":43.298974,"lon":5.436648,"is_reserved":false,"is_disabled":false,"rental_uris":{"android":"levelo://app?vid=6316a440-6079-4cd7-8710-8e12c6c0a2b7","ios":"levelo://app?vid=6316a440-6079-4cd7-8710-8e12c6c0a2b7"},"vehicle_type_id":"4","last_reported":1770669072,"current_range_meters":7200,"station_id":"","pricing_plan_id":"cebpf4jnsgd1na2vs0mg"},{"bike_id":"78f7c85a-1171-4b2a-a3da-c9d84e61c9ce","system_id":"levelo_inurba_marseille","lat":43.29528,"lon":5.38547,"is_reserved":false,"is_disabled":false,"rental_uris":{"android":"levelo://app?vid=78f7c85a-1171-4b2a-a3da-c9d84e61c9ce","ios":"levelo://app?vid=78f7c85a-1171-4b2a-a3da-c9d84e61c9ce"},"vehicle_type_id":"4","last_reported":1770669072,"current_range_meters":7200,"station_id":"ce4bgih2rcd13ifvqba0","pricing_plan_id":"cebpf4jnsgd1na2vs0mg"},{"bike_id":"c47f9d06-e2e7-4f1a-9efa-21197e8b1082","system_id":"levelo_inurba_marseille","lat":43.28525,"lon":5.3851,"is_reserved":false,"is_disabled":false,"rental_uris":{"android":"levelo://app?vid=c47f9d06-e2e7-4f1a-9efa-21197e8b1082","ios":"levelo://app?vid=c47f9d06-e2e7-4f1a-9efa-21197e8b1082"},"vehicle_type_id":"4","last_reported":1770669072,"current_range_meters":7200,"station_id":"","pricing_plan_id":"cebpf4jnsgd1na2vs0mg"},{"bike_id":"fa616fa2-439d-4f1b-934d-4af8464be864","system_id":"levelo_inurba_marseille","lat":43.28669,"lon":5.3635,"is_reserved":false,"is_disabled":false,"rental_uris":{"android":"levelo://app?vid=fa616fa2-439d-4f1b-934d-4af8464be864","ios":"levelo://app?vid=fa616fa2-439d-4f1b-934d-4af8464be864"},"vehicle_type_id":"4","last_reported":1770669072,"current_range_meters":8000,"station_id":"ce4bhah2rcd13ifvqej0","pricing_plan_id":"cebpf4jnsgd1na2vs0mg"},{"bike_id":"73d40cef-8833-4f02-88bd-429ead79640e","system_id":"levelo_inurba_marseille","lat":43.278194,"lon":5.407179,"is_reserved":false,"is_disabled":false,"rental_uris":{"android":"levelo://app?vid=73d40cef-8833-4f02-88bd-429ead79640e","ios":"levelo://app?vid=73d40cef-8833-4f02-88bd-429ead79640e"},"vehicle_type_id":"4","last_reported":1770669072,"current_range_meters":8000,"station_id":"ce4bhnh2rcd13ifvqgtg","pricing_plan_id":"cebpf4jnsgd1na2vs0mg"},{"bike_id":"7f6ef8fc-1579-4912-b00d-edf7547220b9","system_id":"levelo_inurba_marseille","lat":43.27069,"lon":5.42272,"is_reserved":false,"is_disabled":false,"rental_uris":{"android":"levelo://app?vid=7f6ef8fc-1579-4912-b00d-edf7547220b9","ios":"levelo://app?vid=7f6ef8fc-1579-4912-b00d-edf7547220b9"},"vehicle_type_id":"4","last_reported":1770669072,"current_range_meters":8000,"station_id":"ce4bhk92rcd13ifvqgb0","pricing_plan_id":"cebpf4jnsgd1na2vs0mg"},{"bike_id":"b6e7db80-dac8-40f9-8cf1-f6855e3a14a3","system_id":"levelo_inurba_marseille","lat":43.29522,"lon":5.39048,"is_reserved":false,"is_disabled":false,"rental_uris":{"android":"levelo://app?vid=b6e7db80-dac8-40f9-8cf1-f6855e3a14a3","ios":"levelo://app?vid=b6e7db80-dac8-40f9-8cf1-f6855e3a14a3"},"vehicle_type_id":"4","last_reported":1770669072,"current_range_meters":8000,"station_id":"ce4bh3p2rcd13ifvqdp0","pricing_plan_id":"cebpf4jnsgd1na2vs0mg"},{"bike_id":"a07cd24c-7e73-437e-917a-60bdbc1072fc","system_id":"levelo_inurba_marseille","lat":43.243943,"lon":5.370775,"is_reserved":false,"is_disabled":false,"rental_uris":{"android":"levelo://app?vid=a07cd24c-7e73-437e-917a-60bdbc1072fc","ios":"levelo://app?vid=a07cd24c-7e73-437e-917a-60bdbc1072fc"},"vehicle_type_id":"4","last_reported":1770669072,"current_range_meters":8000,"station_id":"ce4bhhh2rcd13ifvqfk0","pricing_plan_id":"cebpf4jnsgd1na2vs0mg"},{"bike_id":"1867ef81-cf62-4e81-bfa8-83561c8efb53","system_id":"levelo_inurba_marseille","lat":43.3015,"lon":5.39877,"is_reserved":false,"is_disabled":false,"rental_uris":{"android":"levelo://app?vid=1867ef81-cf62-4e81-bfa8-83561c8efb53","ios":"levelo://app?vid=1867ef81-cf62-4e81-bfa8-83561c8efb53"},"vehicle_type_id":"4","last_reported":1770669072,"current_range_meters":8000,"station_id":"ce4bh0h2rcd13ifvqd40","pricing_plan_id":"cebpf4jnsgd1na2vs0mg"},{"bike_id":"9b51a2e6-7390-417b-8756-92f08ca0518f","system_id":"levelo_inurba_marseille","lat":43.31131,"lon":5.37762,"is_reserved":false,"is_disabled":false,"rental_uris":{"android":"levelo://app?vid=9b51a2e6-7390-417b-8756-92f08ca0518f","ios":"levelo://app?vid=9b51a2e6-7390-417b-8756-92f08ca0518f"},"vehicle_type_id":"4","last_reported":1770669072,"current_range_meters":8000,"station_id":"ce4bgt92rcd13ifvqcg0","pricing_plan_id":"cebpf4jnsgd1na2vs0mg"},{"bike_id":"c0753566-8312-488e-8b9c-2e80228c855b","system_id":"levelo_inurba_marseille","lat":43.26565,"lon":5.39018,"is_reserved":false,"is_disabled":false,"rental_uris":{"android":"levelo://app?vid=c0753566-8312-488e-8b9c-2e80228c855b","ios":"levelo://app?vid=c0753566-8312-488e-8b9c-2e80228c855b"},"vehicle_type_id":"4","last_reported":1770669072,"current_range_meters":8000,"station_id":"ce4bhe12rcd13ifvqf30","pricing_plan_id":"cebpf4jnsgd1na2vs0mg"},{"bike_id":"83062ade-c076-467d-b125-720c7e101dca","system_id":"levelo_inurba_marseille","lat":43.29606,"lon":5.37726,"is_reserved":false,"is_disabled":true,"rental_uris":{"android":"levelo://app?vid=83062ade-c076-467d-b125-720c7e101dca","ios":"levelo://app?vid=83062ade-c076-467d-b125-720c7e101dca"},"vehicle_type_id":"4","last_reported":1770669072,"current_range_meters":8000,"station_id":"ce4bgi92rcd13ifvqb90","pricing_plan_id":"cebpf4jnsgd1na2vs0mg"},{"bike_id":"1fa76a45-f289-437d-94cc-e8c22daeef5f","system_id":"levelo_inurba_marseille","lat":43.28865,"lon":5.425,"is_reserved":false,"is_disabled":false,"rental_uris":{"android":"levelo://app?vid=1fa76a45-f289-437d-94cc-e8c22daeef5f","ios":"levelo://app?vid=1fa76a45-f289-437d-94cc-e8c22daeef5f"},"vehicle_type_id":"4","last_reported":1770669072,"current_range_meters":8000,"station_id":"st_d3b462108ojc7389ooeg","pricing_plan_id":"cebpf4jnsgd1na2vs0mg"},{"bike_id":"b6c62c70-6878-46c9-8d0c-4f4873a6a803","system_id":"levelo_inurba_marseille","lat":43.28859,"lon":5.35838,"is_reserved":false,"is_disabled":false,"rental_uris":{"android":"levelo://app?vid=b6c62c70-6878-46c9-8d0c-4f4873a6a803","ios":"levelo://app?vid=b6c62c70-6878-46c9-8d0c-4f4873a6a803"},"vehicle_type_id":"4","last_reported":1770669072,"current_range_meters":8000,"station_id":"ce4bhb12rcd13ifvqem0","pricing_plan_id":"cebpf4jnsgd1na2vs0mg"},{"bike_id":"971b48dd-c7a4-4deb-8d64-56d2c1c381de","system_id":"levelo_inurba_marseille","lat":43.26372,"lon":5.41056,"is_reserved":false,"is_disabled":false,"rental_uris":{"android":"levelo://app?vid=971b48dd-c7a4-4deb-8d64-56d2c1c381de","ios":"levelo://app?vid=971b48dd-c7a4-4deb-8d64-56d2c1c381de"},"vehicle_type_id":"4","last_reported":1770669072,"current_range_meters":8000,"station_id":"st_d4e5ca6na9uc73bfl5fg","pricing_plan_id":"cebpf4jnsgd1na2vs0mg"},{"bike_id":"c41b8647-41d6-4ba7-800c-37f44d0edd6a","system_id":"levelo_inurba_marseille","lat":43.30099,"lon":5.39074,"is_reserved":false,"is_disabled":false,"rental_uris":{"android":"levelo://app?vid=c41b8647-41d6-4ba7-800c-37f44d0edd6a","ios":"levelo://app?vid=c41b8647-41d6-4ba7-800c-37f44d0edd6a"},"vehicle_type_id":"4","last_reported":1770669072,"current_range_meters":8000,"station_id":"ce4bh192rcd13ifvqdb0","pricing_plan_id":"cebpf4jnsgd1na2vs0mg"},{"bike_id":"8f91f29e-0897-43d8-a3cf-8b8240b92337","system_id":"levelo_inurba_marseille","lat":43.29891,"lon":5.43659,"is_reserved":false,"is_disabled":false,"rental_uris":{"android":"levelo://app?vid=8f91f29e-0897-43d8-a3cf-8b8240b92337","ios":"levelo://app?vid=8f91f29e-0897-43d8-a3cf-8b8240b92337"},"vehicle_type_id":"4","last_reported":1770669072,"current_range_meters":8000,"station_id":"ce4bhpp2rcd13ifvqhfg","pricing_plan_id":"cebpf4jnsgd1na2vs0mg"},{"bike_id":"9181861d-3c4b-4770-b545-363c30923e26","system_id":"levelo_inurba_marseille","lat":43.28478,"lon":5.48387,"is_reserved":false,"is_disabled":false,"rental_uris":{"android":"levelo://app?vid=9181861d-3c4b-4770-b545-363c30923e26","ios":"levelo://app?vid=9181861d-3c4b-4770-b545-363c30923e26"},"vehicle_type_id":"4","last_reported":1770669072,"current_range_meters":8000,"station_id":"","pricing_plan_id":"cebpf4jnsgd1na2vs0mg"},{"bike_id":"b6ef09ed-d357-4465-bd2f-ee587e4263cc","system_id":"levelo_inurba_marseille","lat":43.28471,"lon":5.40986,"is_reserved":false,"is_disabled":false,"rental_uris":{"android":"levelo://app?vid=b6ef09ed-d357-4465-bd2f-ee587e4263cc","ios":"levelo://app?vid=b6ef09ed-d357-4465-bd2f-ee587e4263cc"},"vehicle_type_id":"4","last_reported":1770669072,"current_range_meters":8000,"station_id":"","pricing_plan_id":"cebpf4jnsgd1na2vs0mg"},{"bike_id":"6a6be3b1-2cc5-4122-ab7b-f35f7d8664f5","system_id":"levelo_inurba_marseille","lat":43.30216,"lon":5.39473,"is_reserved":false,"is_disabled":false,"rental_uris":{"android":"levelo://app?vid=6a6be3b1-2cc5-4122-ab7b-f35f7d8664f5","ios":"levelo://app?vid=6a6be3b1-2cc5-4122-ab7b-f35f7d8664f5"},"vehicle_type_id":"4","last_reported":1770669072,"current_range_meters":8000,"station_id":"ce4bh0p2rcd13ifvqd70","pricing_plan_id":"cebpf4jnsgd1na2vs0mg"},{"bike_id":"af109b45-02d2-41f8-be4b-42b484fd3394","system_id":"levelo_inurba_marseille","lat":43.29918,"lon":5.43688,"is_reserved":false,"is_disabled":false,"rental_uris":{"android":"levelo://app?vid=af109b45-02d2-41f8-be4b-42b484fd3394","ios":"levelo://app?vid=af109b45-02d2-41f8-be4b-42b484fd3394"},"vehicle_type_id":"4","last_reported":1770669072,"current_range_meters":8000,"station_id":"","pricing_plan_id":"cebpf4jnsgd1na2vs0mg"},{"bike_id":"4240880d-88bf-48aa-91ea-700e773e4fa1","system_id":"levelo_inurba_marseille","lat":43.25568,"lon":5.38206,"is_reserved":false,"is_disabled":false,"rental_uris":{"android":"levelo://app?vid=4240880d-88bf-48aa-91ea-700e773e4fa1","ios":"levelo://app?vid=4240880d-88bf-48aa-91ea-700e773e4fa1"},"vehicle_type_id":"4","last_reported":1770669072,"current_range_meters":8400,"station_id":"ce4bhih2rcd13ifvqfs0","pricing_plan_id":"cebpf4jnsgd1na2vs0mg"},{"bike_id":"81089c31-0f23-400c-91cf-65461521d37b","system_id":"levelo_inurba_marseille","lat":43.25838,"lon":5.39416,"is_reserved":false,"is_disabled":false,"rental_uris":{"android":"levelo://app?vid=81089c31-0f23-400c-91cf-65461521d37b","ios":"levelo://app?vid=81089c31-0f23-400c-91cf-65461521d37b"},"vehicle_type_id":"4","last_reported":1770669072,"current_range_meters":8400,"station_id":"ce4bhip2rcd13ifvqft0","pricing_plan_id":"cebpf4jnsgd1na2vs0mg"},{"bike_id":"654a8c69-e34e-48fa-b792-a1983317de36","system_id":"levelo_inurba_marseille","lat":43.284847,"lon":5.48424,"is_reserved":false,"is_disabled":false,"rental_uris":{"android":"levelo://app?vid=654a8c69-e34e-48fa-b792-a1983317de36","ios":"levelo://app?vid=654a8c69-e34e-48fa-b792-a1983317de36"},"vehicle_type_id":"4","last_reported":1770669072,"current_range_meters":8400,"station_id":"st_d3svhcjqgbts73a3dn0g","pricing_plan_id":"cebpf4jnsgd1na2vs0mg"},{"bike_id":"c905e704-6f56-4fbe-8269-605a142ba243","system_id":"levelo_inurba_marseille","lat":43.24644,"lon":5.38897,"is_reserved":false,"is_disabled":true,"rental_uris":{"android":"levelo://app?vid=c905e704-6f56-4fbe-8269-605a142ba243","ios":"levelo://app?vid=c905e704-6f56-4fbe-8269-605a142ba243"},"vehicle_type_id":"4","last_reported":1770669072,"current_range_meters":8400,"station_id":"ce4bhg12rcd13ifvqf60","pricing_plan_id":"cebpf4jnsgd1na2vs0mg"},{"bike_id":"85dd1ff3-48fb-473b-a6b8-2f438c995677","system_id":"levelo_inurba_marseille","lat":43.29912,"lon":5.43692,"is_reserved":false,"is_disabled":false,"rental_uris":{"android":"levelo://app?vid=85dd1ff3-48fb-473b-a6b8-2f438c995677","ios":"levelo://app?vid=85dd1ff3-48fb-473b-a6b8-2f438c995677"},"vehicle_type_id":"4","last_reported":1770669072,"current_range_meters":8400,"station_id":"","pricing_plan_id":"cebpf4jnsgd1na2vs0mg"},{"bike_id":"05d628e9-781f-4f77-a9a7-087d759ed084","system_id":"levelo_inurba_marseille","lat":43.229276,"lon":5.353809,"is_reserved":false,"is_disabled":false,"rental_uris":{"android":"levelo://app?vid=05d628e9-781f-4f77-a9a7-087d759ed084","ios":"levelo://app?vid=05d628e9-781f-4f77-a9a7-087d759ed084"},"vehicle_type_id":"4","last_reported":1770669072,"current_range_meters":8400,"station_id":"cpo3532slgdg3j2ikp40","pricing_plan_id":"cebpf4jnsgd1na2vs0mg"},{"bike_id":"738ace95-69b5-422f-91a8-940bb61d6675","system_id":"levelo_inurba_marseille","lat":43.31852,"lon":5.37965,"is_reserved":false,"is_disabled":false,"rental_uris":{"android":"levelo://app?vid=738ace95-69b5-422f-91a8-940bb61d6675","ios":"levelo://app?vid=738ace95-69b5-422f-91a8-940bb61d6675"},"vehicle_type_id":"4","last_reported":1770669072,"current_range_meters":8400,"station_id":"","pricing_plan_id":"cebpf4jnsgd1na2vs0mg"},{"bike_id":"3b5567a6-efa3-498b-ad01-b9c12c6390c4","system_id":"levelo_inurba_marseille","lat":43.317164,"lon":5.424032,"is_reserved":false,"is_disabled":false,"rental_uris":{"android":"levelo://app?vid=3b5567a6-efa3-498b-ad01-b9c12c6390c4","ios":"levelo://app?vid=3b5567a6-efa3-498b-ad01-b9c12c6390c4"},"vehicle_type_id":"4","last_reported":1770669072,"current_range_meters":8400,"station_id":"ce4bhp92rcd13ifvqhbg","pricing_plan_id":"cebpf4jnsgd1na2vs0mg"},{"bike_id":"2714f080-7ada-4079-8d5a-6ebdb700a1d9","system_id":"levelo_inurba_marseille","lat":43.31083,"lon":5.38343,"is_reserved":false,"is_disabled":false,"rental_uris":{"android":"levelo://app?vid=2714f080-7ada-4079-8d5a-6ebdb700a1d9","ios":"levelo://app?vid=2714f080-7ada-4079-8d5a-6ebdb700a1d9"},"vehicle_type_id":"4","last_reported":1770669072,"current_range_meters":8400,"station_id":"ce4bgv92rcd13ifvqcr0","pricing_plan_id":"cebpf4jnsgd1na2vs0mg"},{"bike_id":"b4cb28a3-69b9-4830-bf82-d25cf98f86cd","system_id":"levelo_inurba_marseille","lat":43.28358,"lon":5.38105,"is_reserved":false,"is_disabled":false,"rental_uris":{"android":"levelo://app?vid=b4cb28a3-69b9-4830-bf82-d25cf98f86cd","ios":"levelo://app?vid=b4cb28a3-69b9-4830-bf82-d25cf98f86cd"},"vehicle_type_id":"4","last_reported":1770669072,"current_range_meters":8400,"station_id":"ce4bh412rcd13ifvqdr0","pricing_plan_id":"cebpf4jnsgd1na2vs0mg"},{"bike_id":"b1429378-b93e-4184-b373-85f0415c9919","system_id":"levelo_inurba_marseille","lat":43.246453,"lon":5.431238,"is_reserved":false,"is_disabled":false,"rental_uris":{"android":"levelo://app?vid=b1429378-b93e-4184-b373-85f0415c9919","ios":"levelo://app?vid=b1429378-b93e-4184-b373-85f0415c9919"},"vehicle_type_id":"4","last_reported":1770669072,"current_range_meters":8400,"station_id":"st_d2m6c4gdas8pm72e190g","pricing_plan_id":"cebpf4jnsgd1na2vs0mg"},{"bike_id":"7788277f-f0d4-470b-81fc-b0d1d6e05e4f","system_id":"levelo_inurba_marseille","lat":43.312788,"lon":5.40175,"is_reserved":false,"is_disabled":false,"rental_uris":{"android":"levelo://app?vid=7788277f-f0d4-470b-81fc-b0d1d6e05e4f","ios":"levelo://app?vid=7788277f-f0d4-470b-81fc-b0d1d6e05e4f"},"vehicle_type_id":"4","last_reported":1770669072,"current_range_meters":8400,"station_id":"ce4bh092rcd13ifvqd30","pricing_plan_id":"cebpf4jnsgd1na2vs0mg"},{"bike_id":"58727422-ac1d-461d-8326-ead3ab6a5bb0","system_id":"levelo_inurba_marseille","lat":43.25873,"lon":5.3991,"is_reserved":false,"is_disabled":false,"rental_uris":{"android":"levelo://app?vid=58727422-ac1d-461d-8326-ead3ab6a5bb0","ios":"levelo://app?vid=58727422-ac1d-461d-8326-ead3ab6a5bb0"},"vehicle_type_id":"4","last_reported":1770669072,"current_range_meters":8400,"station_id":"ce4bhl92rcd13ifvqghg","pricing_plan_id":"cebpf4jnsgd1na2vs0mg"},{"bike_id":"1e61639f-c5f0-4b96-889f-d51b510ad218","system_id":"levelo_inurba_marseille","lat":43.31694,"lon":5.37754,"is_reserved":false,"is_disabled":false,"rental_uris":{"android":"levelo://app?vid=1e61639f-c5f0-4b96-889f-d51b510ad218","ios":"levelo://app?vid=1e61639f-c5f0-4b96-889f-d51b510ad218"},"vehicle_type_id":"4","last_reported":1770669072,"current_range_meters":8400,"station_id":"ce4bgth2rcd13ifvqch0","pricing_plan_id":"cebpf4jnsgd1na2vs0mg"},{"bike_id":"a9ac6c0d-36d5-42cf-8a07-ff0a32d0781c","system_id":"levelo_inurba_marseille","lat":43.28686,"lon":5.37409,"is_reserved":false,"is_disabled":false,"rental_uris":{"android":"levelo://app?vid=a9ac6c0d-36d5-42cf-8a07-ff0a32d0781c","ios":"levelo://app?vid=a9ac6c0d-36d5-42cf-8a07-ff0a32d0781c"},"vehicle_type_id":"4","last_reported":1770669072,"current_range_meters":8400,"station_id":"ce4bh3p2rcd13ifvqdq0","pricing_plan_id":"cebpf4jnsgd1na2vs0mg"},{"bike_id":"e20506fc-81c8-45aa-af10-6b0aa01b93ce","system_id":"levelo_inurba_marseille","lat":43.255806,"lon":5.382272,"is_reserved":false,"is_disabled":false,"rental_uris":{"android":"levelo://app?vid=e20506fc-81c8-45aa-af10-6b0aa01b93ce","ios":"levelo://app?vid=e20506fc-81c8-45aa-af10-6b0aa01b93ce"},"vehicle_type_id":"4","last_reported":1770669072,"current_range_meters":8400,"station_id":"ce4bhih2rcd13ifvqfs0","pricing_plan_id":"cebpf4jnsgd1na2vs0mg"},{"bike_id":"3e1c1a76-0035-4af4-884d-43dbcb7bca0c","system_id":"levelo_inurba_marseille","lat":43.24057,"lon":5.37766,"is_reserved":false,"is_disabled":false,"rental_uris":{"android":"levelo://app?vid=3e1c1a76-0035-4af4-884d-43dbcb7bca0c","ios":"levelo://app?vid=3e1c1a76-0035-4af4-884d-43dbcb7bca0c"},"vehicle_type_id":"4","last_reported":1770669072,"current_range_meters":8400,"station_id":"ce4bhnp2rcd13ifvqgvg","pricing_plan_id":"cebpf4jnsgd1na2vs0mg"},{"bike_id":"c583560a-77a9-496f-bff4-8abe7a8e3cb2","system_id":"levelo_inurba_marseille","lat":43.302,"lon":5.36613,"is_reserved":false,"is_disabled":false,"rental_uris":{"android":"levelo://app?vid=c583560a-77a9-496f-bff4-8abe7a8e3cb2","ios":"levelo://app?vid=c583560a-77a9-496f-bff4-8abe7a8e3cb2"},"vehicle_type_id":"4","last_reported":1770669072,"current_range_meters":8400,"station_id":"ce4bgrh2rcd13ifvqc8g","pricing_plan_id":"cebpf4jnsgd1na2vs0mg"},{"bike_id":"30b3134b-ba74-4819-8947-e54b8db9bbcc","system_id":"levelo_inurba_marseille","lat":43.32005,"lon":5.38121,"is_reserved":false,"is_disabled":false,"rental_uris":{"android":"levelo://app?vid=30b3134b-ba74-4819-8947-e54b8db9bbcc","ios":"levelo://app?vid=30b3134b-ba74-4819-8947-e54b8db9bbcc"},"vehicle_type_id":"4","last_reported":1770669072,"current_range_meters":8400,"station_id":"ce4bhr12rcd13ifvqhpg","pricing_plan_id":"cebpf4jnsgd1na2vs0mg"},{"bike_id":"f3fcdd89-327e-4ac3-a791-371eabd3b54c","system_id":"levelo_inurba_marseille","lat":43.244,"lon":5.37051,"is_reserved":false,"is_disabled":false,"rental_uris":{"android":"levelo://app?vid=f3fcdd89-327e-4ac3-a791-371eabd3b54c","ios":"levelo://app?vid=f3fcdd89-327e-4ac3-a791-371eabd3b54c"},"vehicle_type_id":"4","last_reported":1770669072,"current_range_meters":8400,"station_id":"ce4bhhh2rcd13ifvqfk0","pricing_plan_id":"cebpf4jnsgd1na2vs0mg"},{"bike_id":"ca292b8d-7fe0-4666-9b81-5c680f81de00","system_id":"levelo_inurba_marseille","lat":43.31162,"lon":5.38582,"is_reserved":false,"is_disabled":false,"rental_uris":{"android":"levelo://app?vid=ca292b8d-7fe0-4666-9b81-5c680f81de00","ios":"levelo://app?vid=ca292b8d-7fe0-4666-9b81-5c680f81de00"},"vehicle_type_id":"4","last_reported":1770669072,"current_range_meters":8400,"station_id":"","pricing_plan_id":"cebpf4jnsgd1na2vs0mg"},{"bike_id":"ca6aa475-a706-4201-b880-332143dae191","system_id":"levelo_inurba_marseille","lat":43.28691,"lon":5.38668,"is_reserved":false,"is_disabled":false,"rental_uris":{"android":"levelo://app?vid=ca6aa475-a706-4201-b880-332143dae191","ios":"levelo://app?vid=ca6aa475-a706-4201-b880-332143dae191"},"vehicle_type_id":"4","last_reported":1770669072,"current_range_meters":8400,"station_id":"ce4bh492rcd13ifvqdug","pricing_plan_id":"cebpf4jnsgd1na2vs0mg"},{"bike_id":"8c4fa143-5387-41b5-b9e5-5e6155ee3567","system_id":"levelo_inurba_marseille","lat":43.28365,"lon":5.38632,"is_reserved":false,"is_disabled":false,"rental_uris":{"android":"levelo://app?vid=8c4fa143-5387-41b5-b9e5-5e6155ee3567","ios":"levelo://app?vid=8c4fa143-5387-41b5-b9e5-5e6155ee3567"},"vehicle_type_id":"4","last_reported":1770669072,"current_range_meters":8400,"station_id":"ce4bh492rcd13ifvqdvg","pricing_plan_id":"cebpf4jnsgd1na2vs0mg"},{"bike_id":"bfc07130-be47-4eef-8325-e33d6610d729","system_id":"levelo_inurba_marseille","lat":43.301227,"lon":5.431109,"is_reserved":false,"is_disabled":false,"rental_uris":{"android":"levelo://app?vid=bfc07130-be47-4eef-8325-e33d6610d729","ios":"levelo://app?vid=bfc07130-be47-4eef-8325-e33d6610d729"},"vehicle_type_id":"4","last_reported":1770669072,"current_range_meters":8800,"station_id":"st_d3js3co5814s73ftftug","pricing_plan_id":"cebpf4jnsgd1na2vs0mg"},{"bike_id":"dcffb64c-9bea-40cd-a5fe-c7eeb8475cd8","system_id":"levelo_inurba_marseille","lat":43.302918,"lon":5.376956,"is_reserved":false,"is_disabled":true,"rental_uris":{"android":"levelo://app?vid=dcffb64c-9bea-40cd-a5fe-c7eeb8475cd8","ios":"levelo://app?vid=dcffb64c-9bea-40cd-a5fe-c7eeb8475cd8"},"vehicle_type_id":"4","last_reported":1770669072,"current_range_meters":8800,"station_id":"ce4bguh2rcd13ifvqcj0","pricing_plan_id":"cebpf4jnsgd1na2vs0mg"},{"bike_id":"02e9af11-2912-44f7-be5c-e2ae093265ba","system_id":"levelo_inurba_marseille","lat":43.266807,"lon":5.382756,"is_reserved":false,"is_disabled":false,"rental_uris":{"android":"levelo://app?vid=02e9af11-2912-44f7-be5c-e2ae093265ba","ios":"levelo://app?vid=02e9af11-2912-44f7-be5c-e2ae093265ba"},"vehicle_type_id":"4","last_reported":1770669072,"current_range_meters":8800,"station_id":"ce4bhg92rcd13ifvqf90","pricing_plan_id":"cebpf4jnsgd1na2vs0mg"},{"bike_id":"dfc13d2e-d515-44e6-a436-bc92a97ce930","system_id":"levelo_inurba_marseille","lat":43.287007,"lon":5.399785,"is_reserved":false,"is_disabled":false,"rental_uris":{"android":"levelo://app?vid=dfc13d2e-d515-44e6-a436-bc92a97ce930","ios":"levelo://app?vid=dfc13d2e-d515-44e6-a436-bc92a97ce930"},"vehicle_type_id":"4","last_reported":1770669072,"current_range_meters":8800,"station_id":"ce4bho92rcd13ifvqh3g","pricing_plan_id":"cebpf4jnsgd1na2vs0mg"},{"bike_id":"6aa6da6f-1976-49d0-ac99-282daecf7451","system_id":"levelo_inurba_marseille","lat":43.24076,"lon":5.37752,"is_reserved":false,"is_disabled":false,"rental_uris":{"android":"levelo://app?vid=6aa6da6f-1976-49d0-ac99-282daecf7451","ios":"levelo://app?vid=6aa6da6f-1976-49d0-ac99-282daecf7451"},"vehicle_type_id":"4","last_reported":1770669072,"current_range_meters":8800,"station_id":"ce4bhnp2rcd13ifvqgvg","pricing_plan_id":"cebpf4jnsgd1na2vs0mg"},{"bike_id":"eb988073-8fe7-4bb4-897d-222ac9bc4a1f","system_id":"levelo_inurba_marseille","lat":43.258664,"lon":5.399105,"is_reserved":false,"is_disabled":false,"rental_uris":{"android":"levelo://app?vid=eb988073-8fe7-4bb4-897d-222ac9bc4a1f","ios":"levelo://app?vid=eb988073-8fe7-4bb4-897d-222ac9bc4a1f"},"vehicle_type_id":"4","last_reported":1770669072,"current_range_meters":8800,"station_id":"ce4bhl92rcd13ifvqghg","pricing_plan_id":"cebpf4jnsgd1na2vs0mg"},{"bike_id":"af84a49f-23f7-4364-8237-efe37baf2fcc","system_id":"levelo_inurba_marseille","lat":43.287,"lon":5.39982,"is_reserved":false,"is_disabled":false,"rental_uris":{"android":"levelo://app?vid=af84a49f-23f7-4364-8237-efe37baf2fcc","ios":"levelo://app?vid=af84a49f-23f7-4364-8237-efe37baf2fcc"},"vehicle_type_id":"4","last_reported":1770669072,"current_range_meters":8800,"station_id":"ce4bho92rcd13ifvqh3g","pricing_plan_id":"cebpf4jnsgd1na2vs0mg"},{"bike_id":"e3eb007c-77d1-4b8e-80b3-da8b3c09e4ff","system_id":"levelo_inurba_marseille","lat":43.2984,"lon":5.38038,"is_reserved":false,"is_disabled":false,"rental_uris":{"android":"levelo://app?vid=e3eb007c-77d1-4b8e-80b3-da8b3c09e4ff","ios":"levelo://app?vid=e3eb007c-77d1-4b8e-80b3-da8b3c09e4ff"},"vehicle_type_id":"4","last_reported":1770669072,"current_range_meters":8800,"station_id":"","pricing_plan_id":"cebpf4jnsgd1na2vs0mg"},{"bike_id":"98dbbf42-a04e-480b-a6bc-ae667caf1667","system_id":"levelo_inurba_marseille","lat":43.29303,"lon":5.37157,"is_reserved":false,"is_disabled":false,"rental_uris":{"android":"levelo://app?vid=98dbbf42-a04e-480b-a6bc-ae667caf1667","ios":"levelo://app?vid=98dbbf42-a04e-480b-a6bc-ae667caf1667"},"vehicle_type_id":"4","last_reported":1770669072,"current_range_meters":8800,"station_id":"ce4bgh92rcd13ifvqb40","pricing_plan_id":"cebpf4jnsgd1na2vs0mg"},{"bike_id":"91491a67-54f5-4dcc-9400-230b4a47f1fc","system_id":"levelo_inurba_marseille","lat":43.28406,"lon":5.37536,"is_reserved":false,"is_disabled":true,"rental_uris":{"android":"levelo://app?vid=91491a67-54f5-4dcc-9400-230b4a47f1fc","ios":"levelo://app?vid=91491a67-54f5-4dcc-9400-230b4a47f1fc"},"vehicle_type_id":"4","last_reported":1770669072,"current_range_meters":8800,"station_id":"ce4bh412rcd13ifvqds0","pricing_plan_id":"cebpf4jnsgd1na2vs0mg"},{"bike_id":"4bf6681a-e3b6-487c-9124-2e1e805c6af1","system_id":"levelo_inurba_marseille","lat":43.28459,"lon":5.35907,"is_reserved":false,"is_disabled":false,"rental_uris":{"android":"levelo://app?vid=4bf6681a-e3b6-487c-9124-2e1e805c6af1","ios":"levelo://app?vid=4bf6681a-e3b6-487c-9124-2e1e805c6af1"},"vehicle_type_id":"4","last_reported":1770669072,"current_range_meters":8800,"station_id":"ce4bhah2rcd13ifvqei0","pricing_plan_id":"cebpf4jnsgd1na2vs0mg"},{"bike_id":"0e4b7dd1-df8a-4919-8d1a-9562179c8c91","system_id":"levelo_inurba_marseille","lat":43.31662,"lon":5.38984,"is_reserved":false,"is_disabled":false,"rental_uris":{"android":"levelo://app?vid=0e4b7dd1-df8a-4919-8d1a-9562179c8c91","ios":"levelo://app?vid=0e4b7dd1-df8a-4919-8d1a-9562179c8c91"},"vehicle_type_id":"4","last_reported":1770669072,"current_range_meters":8800,"station_id":"","pricing_plan_id":"cebpf4jnsgd1na2vs0mg"},{"bike_id":"442cad98-e31e-464f-900e-9753ad71b9f5","system_id":"levelo_inurba_marseille","lat":43.31113,"lon":5.37785,"is_reserved":false,"is_disabled":false,"rental_uris":{"android":"levelo://app?vid=442cad98-e31e-464f-900e-9753ad71b9f5","ios":"levelo://app?vid=442cad98-e31e-464f-900e-9753ad71b9f5"},"vehicle_type_id":"4","last_reported":1770669072,"current_range_meters":8800,"station_id":"ce4bgt92rcd13ifvqcg0","pricing_plan_id":"cebpf4jnsgd1na2vs0mg"},{"bike_id":"de3c212d-0fb9-473a-a86c-66f8df44a604","system_id":"levelo_inurba_marseille","lat":43.24672,"lon":5.38128,"is_reserved":false,"is_disabled":false,"rental_uris":{"android":"levelo://app?vid=de3c212d-0fb9-473a-a86c-66f8df44a604","ios":"levelo://app?vid=de3c212d-0fb9-473a-a86c-66f8df44a604"},"vehicle_type_id":"4","last_reported":1770669072,"current_range_meters":8800,"station_id":"ce4bhih2rcd13ifvqfr0","pricing_plan_id":"cebpf4jnsgd1na2vs0mg"},{"bike_id":"f12f6f11-1feb-482e-8dc3-a79b8963e979","system_id":"levelo_inurba_marseille","lat":43.335459,"lon":5.37467,"is_reserved":false,"is_disabled":false,"rental_uris":{"android":"levelo://app?vid=f12f6f11-1feb-482e-8dc3-a79b8963e979","ios":"levelo://app?vid=f12f6f11-1feb-482e-8dc3-a79b8963e979"},"vehicle_type_id":"4","last_reported":1770669072,"current_range_meters":8800,"station_id":"st_d46tts09ee8s73dlu43g","pricing_plan_id":"cebpf4jnsgd1na2vs0mg"},{"bike_id":"0abe4996-163d-4d13-b219-313a23f0f613","system_id":"levelo_inurba_marseille","lat":43.246663,"lon":5.3816,"is_reserved":false,"is_disabled":false,"rental_uris":{"android":"levelo://app?vid=0abe4996-163d-4d13-b219-313a23f0f613","ios":"levelo://app?vid=0abe4996-163d-4d13-b219-313a23f0f613"},"vehicle_type_id":"4","last_reported":1770669072,"current_range_meters":8800,"station_id":"ce4bhih2rcd13ifvqfr0","pricing_plan_id":"cebpf4jnsgd1na2vs0mg"},{"bike_id":"4eb54f1f-5313-4f26-b9eb-330684f4688a","system_id":"levelo_inurba_marseille","lat":43.28571,"lon":5.39507,"is_reserved":false,"is_disabled":false,"rental_uris":{"android":"levelo://app?vid=4eb54f1f-5313-4f26-b9eb-330684f4688a","ios":"levelo://app?vid=4eb54f1f-5313-4f26-b9eb-330684f4688a"},"vehicle_type_id":"4","last_reported":1770669072,"current_range_meters":8800,"station_id":"ce4bh292rcd13ifvqdg0","pricing_plan_id":"cebpf4jnsgd1na2vs0mg"},{"bike_id":"65653ad0-a964-4762-8fd7-873f72cb3e9d","system_id":"levelo_inurba_marseille","lat":43.287169,"lon":5.379421,"is_reserved":false,"is_disabled":false,"rental_uris":{"android":"levelo://app?vid=65653ad0-a964-4762-8fd7-873f72cb3e9d","ios":"levelo://app?vid=65653ad0-a964-4762-8fd7-873f72cb3e9d"},"vehicle_type_id":"4","last_reported":1770669072,"current_range_meters":8800,"station_id":"ce4bh9p2rcd13ifvqec0","pricing_plan_id":"cebpf4jnsgd1na2vs0mg"},{"bike_id":"3e62a0fd-19ac-4f58-93af-6af710db8a94","system_id":"levelo_inurba_marseille","lat":43.22942,"lon":5.35354,"is_reserved":false,"is_disabled":false,"rental_uris":{"android":"levelo://app?vid=3e62a0fd-19ac-4f58-93af-6af710db8a94","ios":"levelo://app?vid=3e62a0fd-19ac-4f58-93af-6af710db8a94"},"vehicle_type_id":"4","last_reported":1770669072,"current_range_meters":8800,"station_id":"cpo3532slgdg3j2ikp40","pricing_plan_id":"cebpf4jnsgd1na2vs0mg"},{"bike_id":"50dd5c4d-4398-43b8-90de-000c6b8255c2","system_id":"levelo_inurba_marseille","lat":43.29419,"lon":5.41279,"is_reserved":false,"is_disabled":false,"rental_uris":{"android":"levelo://app?vid=50dd5c4d-4398-43b8-90de-000c6b8255c2","ios":"levelo://app?vid=50dd5c4d-4398-43b8-90de-000c6b8255c2"},"vehicle_type_id":"4","last_reported":1770669072,"current_range_meters":8800,"station_id":"","pricing_plan_id":"cebpf4jnsgd1na2vs0mg"},{"bike_id":"6e5c9ca6-75e1-44de-bf4f-fb0d2aecd29f","system_id":"levelo_inurba_marseille","lat":43.27215,"lon":5.39183,"is_reserved":false,"is_disabled":false,"rental_uris":{"android":"levelo://app?vid=6e5c9ca6-75e1-44de-bf4f-fb0d2aecd29f","ios":"levelo://app?vid=6e5c9ca6-75e1-44de-bf4f-fb0d2aecd29f"},"vehicle_type_id":"4","last_reported":1770669072,"current_range_meters":8800,"station_id":"ce4bhhp2rcd13ifvqfm0","pricing_plan_id":"cebpf4jnsgd1na2vs0mg"},{"bike_id":"4b7f60ce-37bb-4970-bfa8-24e7c63f9ac5","system_id":"levelo_inurba_marseille","lat":43.26557,"lon":5.39001,"is_reserved":false,"is_disabled":false,"rental_uris":{"android":"levelo://app?vid=4b7f60ce-37bb-4970-bfa8-24e7c63f9ac5","ios":"levelo://app?vid=4b7f60ce-37bb-4970-bfa8-24e7c63f9ac5"},"vehicle_type_id":"4","last_reported":1770669072,"current_range_meters":8800,"station_id":"ce4bhe12rcd13ifvqf30","pricing_plan_id":"cebpf4jnsgd1na2vs0mg"},{"bike_id":"718e8a6d-d151-4151-aaaf-154d54db698a","system_id":"levelo_inurba_marseille","lat":43.243872,"lon":5.370462,"is_reserved":false,"is_disabled":false,"rental_uris":{"android":"levelo://app?vid=718e8a6d-d151-4151-aaaf-154d54db698a","ios":"levelo://app?vid=718e8a6d-d151-4151-aaaf-154d54db698a"},"vehicle_type_id":"4","last_reported":1770669072,"current_range_meters":9200,"station_id":"ce4bhhh2rcd13ifvqfk0","pricing_plan_id":"cebpf4jnsgd1na2vs0mg"},{"bike_id":"8ae17b81-0000-4570-ac79-fe68f254c27c","system_id":"levelo_inurba_marseille","lat":43.29611,"lon":5.377065,"is_reserved":false,"is_disabled":true,"rental_uris":{"android":"levelo://app?vid=8ae17b81-0000-4570-ac79-fe68f254c27c","ios":"levelo://app?vid=8ae17b81-0000-4570-ac79-fe68f254c27c"},"vehicle_type_id":"4","last_reported":1770669072,"current_range_meters":9200,"station_id":"ce4bgi92rcd13ifvqb90","pricing_plan_id":"cebpf4jnsgd1na2vs0mg"},{"bike_id":"05abb5d5-7a0f-4692-a6b6-119f614f1bb6","system_id":"levelo_inurba_marseille","lat":43.255757,"lon":5.382444,"is_reserved":false,"is_disabled":false,"rental_uris":{"android":"levelo://app?vid=05abb5d5-7a0f-4692-a6b6-119f614f1bb6","ios":"levelo://app?vid=05abb5d5-7a0f-4692-a6b6-119f614f1bb6"},"vehicle_type_id":"4","last_reported":1770669072,"current_range_meters":9200,"station_id":"ce4bhih2rcd13ifvqfs0","pricing_plan_id":"cebpf4jnsgd1na2vs0mg"},{"bike_id":"56a2b693-a2d6-4b19-b89c-6c9b83fcbc42","system_id":"levelo_inurba_marseille","lat":43.25729,"lon":5.41091,"is_reserved":false,"is_disabled":false,"rental_uris":{"android":"levelo://app?vid=56a2b693-a2d6-4b19-b89c-6c9b83fcbc42","ios":"levelo://app?vid=56a2b693-a2d6-4b19-b89c-6c9b83fcbc42"},"vehicle_type_id":"4","last_reported":1770669072,"current_range_meters":9200,"station_id":"ce4bhkp2rcd13ifvqgd0","pricing_plan_id":"cebpf4jnsgd1na2vs0mg"},{"bike_id":"34d31835-d3b0-4be1-9854-181d6b3dfb61","system_id":"levelo_inurba_marseille","lat":43.29256,"lon":5.3845,"is_reserved":false,"is_disabled":false,"rental_uris":{"android":"levelo://app?vid=34d31835-d3b0-4be1-9854-181d6b3dfb61","ios":"levelo://app?vid=34d31835-d3b0-4be1-9854-181d6b3dfb61"},"vehicle_type_id":"4","last_reported":1770669072,"current_range_meters":9200,"station_id":"ce4bh692rcd13ifvqea0","pricing_plan_id":"cebpf4jnsgd1na2vs0mg"},{"bike_id":"0cad91d7-1079-467e-882f-8f8ec527c2c5","system_id":"levelo_inurba_marseille","lat":43.23199,"lon":5.39971,"is_reserved":false,"is_disabled":false,"rental_uris":{"android":"levelo://app?vid=0cad91d7-1079-467e-882f-8f8ec527c2c5","ios":"levelo://app?vid=0cad91d7-1079-467e-882f-8f8ec527c2c5"},"vehicle_type_id":"4","last_reported":1770669072,"current_range_meters":9200,"station_id":"ce4bhn12rcd13ifvqgqg","pricing_plan_id":"cebpf4jnsgd1na2vs0mg"},{"bike_id":"652029fd-7389-40d5-a0bd-e85f7aa43d7c","system_id":"levelo_inurba_marseille","lat":43.22562,"lon":5.4164,"is_reserved":false,"is_disabled":false,"rental_uris":{"android":"levelo://app?vid=652029fd-7389-40d5-a0bd-e85f7aa43d7c","ios":"levelo://app?vid=652029fd-7389-40d5-a0bd-e85f7aa43d7c"},"vehicle_type_id":"4","last_reported":1770669072,"current_range_meters":9200,"station_id":"st_d2o4gvlbi1j2169b742g","pricing_plan_id":"cebpf4jnsgd1na2vs0mg"},{"bike_id":"ee213b40-802c-442b-9390-5e22834db5df","system_id":"levelo_inurba_marseille","lat":43.24179,"lon":5.36456,"is_reserved":false,"is_disabled":false,"rental_uris":{"android":"levelo://app?vid=ee213b40-802c-442b-9390-5e22834db5df","ios":"levelo://app?vid=ee213b40-802c-442b-9390-5e22834db5df"},"vehicle_type_id":"4","last_reported":1770669072,"current_range_meters":9200,"station_id":"","pricing_plan_id":"cebpf4jnsgd1na2vs0mg"},{"bike_id":"b6f2af73-eadf-488e-be15-c42d402e2260","system_id":"levelo_inurba_marseille","lat":43.23184,"lon":5.3999,"is_reserved":false,"is_disabled":false,"rental_uris":{"android":"levelo://app?vid=b6f2af73-eadf-488e-be15-c42d402e2260","ios":"levelo://app?vid=b6f2af73-eadf-488e-be15-c42d402e2260"},"vehicle_type_id":"4","last_reported":1770669072,"current_range_meters":9200,"station_id":"ce4bhn12rcd13ifvqgqg","pricing_plan_id":"cebpf4jnsgd1na2vs0mg"},{"bike_id":"cc9d8b4e-9bda-47b4-8088-3f93b11014d1","system_id":"levelo_inurba_marseille","lat":43.25209,"lon":5.40698,"is_reserved":false,"is_disabled":false,"rental_uris":{"android":"levelo://app?vid=cc9d8b4e-9bda-47b4-8088-3f93b11014d1","ios":"levelo://app?vid=cc9d8b4e-9bda-47b4-8088-3f93b11014d1"},"vehicle_type_id":"4","last_reported":1770669072,"current_range_meters":9200,"station_id":"","pricing_plan_id":"cebpf4jnsgd1na2vs0mg"},{"bike_id":"5f7df976-2770-4b0d-bd16-1a5d3e4bd86a","system_id":"levelo_inurba_marseille","lat":43.26023,"lon":5.37552,"is_reserved":false,"is_disabled":false,"rental_uris":{"android":"levelo://app?vid=5f7df976-2770-4b0d-bd16-1a5d3e4bd86a","ios":"levelo://app?vid=5f7df976-2770-4b0d-bd16-1a5d3e4bd86a"},"vehicle_type_id":"4","last_reported":1770669072,"current_range_meters":9200,"station_id":"ce4bhgh2rcd13ifvqfa0","pricing_plan_id":"cebpf4jnsgd1na2vs0mg"},{"bike_id":"46b69bcd-f35a-433e-b9f1-16ab03d0ac0e","system_id":"levelo_inurba_marseille","lat":43.25849,"lon":5.39952,"is_reserved":false,"is_disabled":false,"rental_uris":{"android":"levelo://app?vid=46b69bcd-f35a-433e-b9f1-16ab03d0ac0e","ios":"levelo://app?vid=46b69bcd-f35a-433e-b9f1-16ab03d0ac0e"},"vehicle_type_id":"4","last_reported":1770669072,"current_range_meters":9200,"station_id":"","pricing_plan_id":"cebpf4jnsgd1na2vs0mg"},{"bike_id":"c9e1dfab-a295-4c94-9182-c8e248585a23","system_id":"levelo_inurba_marseille","lat":43.26535,"lon":5.40353,"is_reserved":false,"is_disabled":false,"rental_uris":{"android":"levelo://app?vid=c9e1dfab-a295-4c94-9182-c8e248585a23","ios":"levelo://app?vid=c9e1dfab-a295-4c94-9182-c8e248585a23"},"vehicle_type_id":"4","last_reported":1770669072,"current_range_meters":9200,"station_id":"ce4bhmp2rcd13ifvqgng","pricing_plan_id":"cebpf4jnsgd1na2vs0mg"},{"bike_id":"89446920-5bad-4011-b083-61088b42ddfa","system_id":"levelo_inurba_marseille","lat":43.248064,"lon":5.374579,"is_reserved":false,"is_disabled":false,"rental_uris":{"android":"levelo://app?vid=89446920-5bad-4011-b083-61088b42ddfa","ios":"levelo://app?vid=89446920-5bad-4011-b083-61088b42ddfa"},"vehicle_type_id":"4","last_reported":1770669072,"current_range_meters":9200,"station_id":"ce4bhgh2rcd13ifvqfb0","pricing_plan_id":"cebpf4jnsgd1na2vs0mg"},{"bike_id":"ab8ed30d-dd64-45c7-9d56-1700378f985a","system_id":"levelo_inurba_marseille","lat":43.255595,"lon":5.382258,"is_reserved":false,"is_disabled":false,"rental_uris":{"android":"levelo://app?vid=ab8ed30d-dd64-45c7-9d56-1700378f985a","ios":"levelo://app?vid=ab8ed30d-dd64-45c7-9d56-1700378f985a"},"vehicle_type_id":"4","last_reported":1770669072,"current_range_meters":9200,"station_id":"ce4bhih2rcd13ifvqfs0","pricing_plan_id":"cebpf4jnsgd1na2vs0mg"},{"bike_id":"7807558b-cd3e-48a4-b886-e8764e7295bf","system_id":"levelo_inurba_marseille","lat":43.24477,"lon":5.42509,"is_reserved":false,"is_disabled":false,"rental_uris":{"android":"levelo://app?vid=7807558b-cd3e-48a4-b886-e8764e7295bf","ios":"levelo://app?vid=7807558b-cd3e-48a4-b886-e8764e7295bf"},"vehicle_type_id":"4","last_reported":1770669072,"current_range_meters":9200,"station_id":"st_d4a3vfp97mjs738cd8kg","pricing_plan_id":"cebpf4jnsgd1na2vs0mg"},{"bike_id":"23faf02b-28d8-4a14-a292-ffbec7ab0604","system_id":"levelo_inurba_marseille","lat":43.26813,"lon":5.40259,"is_reserved":false,"is_disabled":false,"rental_uris":{"android":"levelo://app?vid=23faf02b-28d8-4a14-a292-ffbec7ab0604","ios":"levelo://app?vid=23faf02b-28d8-4a14-a292-ffbec7ab0604"},"vehicle_type_id":"4","last_reported":1770669072,"current_range_meters":9200,"station_id":"ce501612rcd8frsf0b60","pricing_plan_id":"cebpf4jnsgd1na2vs0mg"},{"bike_id":"b2b3c599-18d6-447e-baaa-6da6b96c2039","system_id":"levelo_inurba_marseille","lat":43.2895,"lon":5.36636,"is_reserved":false,"is_disabled":false,"rental_uris":{"android":"levelo://app?vid=b2b3c599-18d6-447e-baaa-6da6b96c2039","ios":"levelo://app?vid=b2b3c599-18d6-447e-baaa-6da6b96c2039"},"vehicle_type_id":"4","last_reported":1770669072,"current_range_meters":9200,"station_id":"ce4bhap2rcd13ifvqek0","pricing_plan_id":"cebpf4jnsgd1na2vs0mg"},{"bike_id":"cd5788e2-52df-4078-aae8-083196e29c75","system_id":"levelo_inurba_marseille","lat":43.28403,"lon":5.37525,"is_reserved":false,"is_disabled":false,"rental_uris":{"android":"levelo://app?vid=cd5788e2-52df-4078-aae8-083196e29c75","ios":"levelo://app?vid=cd5788e2-52df-4078-aae8-083196e29c75"},"vehicle_type_id":"4","last_reported":1770669072,"current_range_meters":9200,"station_id":"ce4bh412rcd13ifvqds0","pricing_plan_id":"cebpf4jnsgd1na2vs0mg"},{"bike_id":"a647ae6f-c0a1-4109-88aa-ccb20c935e5d","system_id":"levelo_inurba_marseille","lat":43.24659,"lon":5.38191,"is_reserved":false,"is_disabled":false,"rental_uris":{"android":"levelo://app?vid=a647ae6f-c0a1-4109-88aa-ccb20c935e5d","ios":"levelo://app?vid=a647ae6f-c0a1-4109-88aa-ccb20c935e5d"},"vehicle_type_id":"4","last_reported":1770669072,"current_range_meters":9200,"station_id":"ce4bhih2rcd13ifvqfr0","pricing_plan_id":"cebpf4jnsgd1na2vs0mg"},{"bike_id":"1d84a6a9-53dd-4546-9d02-4bb696d8451e","system_id":"levelo_inurba_marseille","lat":43.31718,"lon":5.37373,"is_reserved":false,"is_disabled":false,"rental_uris":{"android":"levelo://app?vid=1d84a6a9-53dd-4546-9d02-4bb696d8451e","ios":"levelo://app?vid=1d84a6a9-53dd-4546-9d02-4bb696d8451e"},"vehicle_type_id":"4","last_reported":1770669072,"current_range_meters":9200,"station_id":"","pricing_plan_id":"cebpf4jnsgd1na2vs0mg"},{"bike_id":"7da53b6e-af6b-42a2-b83b-ba7e16848b9a","system_id":"levelo_inurba_marseille","lat":43.31361,"lon":5.38497,"is_reserved":false,"is_disabled":true,"rental_uris":{"android":"levelo://app?vid=7da53b6e-af6b-42a2-b83b-ba7e16848b9a","ios":"levelo://app?vid=7da53b6e-af6b-42a2-b83b-ba7e16848b9a"},"vehicle_type_id":"4","last_reported":1770669072,"current_range_meters":9200,"station_id":"ce4bgt92rcd13ifvqcf0","pricing_plan_id":"cebpf4jnsgd1na2vs0mg"},{"bike_id":"a1a1e459-dc33-458a-a156-5735d4cb79a9","system_id":"levelo_inurba_marseille","lat":43.295649,"lon":5.423004,"is_reserved":false,"is_disabled":false,"rental_uris":{"android":"levelo://app?vid=a1a1e459-dc33-458a-a156-5735d4cb79a9","ios":"levelo://app?vid=a1a1e459-dc33-458a-a156-5735d4cb79a9"},"vehicle_type_id":"4","last_reported":1770669072,"current_range_meters":9600,"station_id":"ce4bhph2rcd13ifvqhdg","pricing_plan_id":"cebpf4jnsgd1na2vs0mg"},{"bike_id":"ffbe3718-fb64-481b-bbfe-6664f18f61cb","system_id":"levelo_inurba_marseille","lat":43.24647,"lon":5.4312,"is_reserved":false,"is_disabled":false,"rental_uris":{"android":"levelo://app?vid=ffbe3718-fb64-481b-bbfe-6664f18f61cb","ios":"levelo://app?vid=ffbe3718-fb64-481b-bbfe-6664f18f61cb"},"vehicle_type_id":"4","last_reported":1770669072,"current_range_meters":9600,"station_id":"st_d2m6c4gdas8pm72e190g","pricing_plan_id":"cebpf4jnsgd1na2vs0mg"},{"bike_id":"804c72c7-b156-4f59-bfd2-4c7beff1be08","system_id":"levelo_inurba_marseille","lat":43.25085,"lon":5.39505,"is_reserved":false,"is_disabled":false,"rental_uris":{"android":"levelo://app?vid=804c72c7-b156-4f59-bfd2-4c7beff1be08","ios":"levelo://app?vid=804c72c7-b156-4f59-bfd2-4c7beff1be08"},"vehicle_type_id":"4","last_reported":1770669072,"current_range_meters":9600,"station_id":"ce4bhm12rcd13ifvqgkg","pricing_plan_id":"cebpf4jnsgd1na2vs0mg"},{"bike_id":"75da2aea-6248-4c67-bb86-78489a20b772","system_id":"levelo_inurba_marseille","lat":43.311621,"lon":5.387246,"is_reserved":false,"is_disabled":false,"rental_uris":{"android":"levelo://app?vid=75da2aea-6248-4c67-bb86-78489a20b772","ios":"levelo://app?vid=75da2aea-6248-4c67-bb86-78489a20b772"},"vehicle_type_id":"4","last_reported":1770669072,"current_range_meters":9600,"station_id":"ce4bgv12rcd13ifvqcp0","pricing_plan_id":"cebpf4jnsgd1na2vs0mg"},{"bike_id":"c6bba051-2987-4068-9b3f-af263ee62dbf","system_id":"levelo_inurba_marseille","lat":43.26488,"lon":5.39576,"is_reserved":false,"is_disabled":false,"rental_uris":{"android":"levelo://app?vid=c6bba051-2987-4068-9b3f-af263ee62dbf","ios":"levelo://app?vid=c6bba051-2987-4068-9b3f-af263ee62dbf"},"vehicle_type_id":"4","last_reported":1770669072,"current_range_meters":9600,"station_id":"ce4bhi12rcd13ifvqfq0","pricing_plan_id":"cebpf4jnsgd1na2vs0mg"},{"bike_id":"6da7b2c8-ded6-41b1-b326-7acbfdccc073","system_id":"levelo_inurba_marseille","lat":43.29635,"lon":5.3803,"is_reserved":false,"is_disabled":false,"rental_uris":{"android":"levelo://app?vid=6da7b2c8-ded6-41b1-b326-7acbfdccc073","ios":"levelo://app?vid=6da7b2c8-ded6-41b1-b326-7acbfdccc073"},"vehicle_type_id":"4","last_reported":1770669072,"current_range_meters":9600,"station_id":"","pricing_plan_id":"cebpf4jnsgd1na2vs0mg"},{"bike_id":"b4e508dd-6d1a-4845-89d9-10b6afdd1538","system_id":"levelo_inurba_marseille","lat":43.28698,"lon":5.38683,"is_reserved":false,"is_disabled":false,"rental_uris":{"android":"levelo://app?vid=b4e508dd-6d1a-4845-89d9-10b6afdd1538","ios":"levelo://app?vid=b4e508dd-6d1a-4845-89d9-10b6afdd1538"},"vehicle_type_id":"4","last_reported":1770669072,"current_range_meters":9600,"station_id":"ce4bh492rcd13ifvqdug","pricing_plan_id":"cebpf4jnsgd1na2vs0mg"},{"bike_id":"bd239d9b-6cc9-4c5e-a035-5304acc98e83","system_id":"levelo_inurba_marseille","lat":43.2856,"lon":5.39493,"is_reserved":false,"is_disabled":false,"rental_uris":{"android":"levelo://app?vid=bd239d9b-6cc9-4c5e-a035-5304acc98e83","ios":"levelo://app?vid=bd239d9b-6cc9-4c5e-a035-5304acc98e83"},"vehicle_type_id":"4","last_reported":1770669072,"current_range_meters":9600,"station_id":"ce4bh292rcd13ifvqdg0","pricing_plan_id":"cebpf4jnsgd1na2vs0mg"},{"bike_id":"a5301ec3-a03f-48a9-8c89-d0f3e652c25a","system_id":"levelo_inurba_marseille","lat":43.29535,"lon":5.39026,"is_reserved":false,"is_disabled":false,"rental_uris":{"android":"levelo://app?vid=a5301ec3-a03f-48a9-8c89-d0f3e652c25a","ios":"levelo://app?vid=a5301ec3-a03f-48a9-8c89-d0f3e652c25a"},"vehicle_type_id":"4","last_reported":1770669072,"current_range_meters":9600,"station_id":"ce4bh3p2rcd13ifvqdp0","pricing_plan_id":"cebpf4jnsgd1na2vs0mg"},{"bike_id":"b0577ca1-afa8-48fa-be5c-f4673c1a2294","system_id":"levelo_inurba_marseille","lat":43.279914,"lon":5.413318,"is_reserved":false,"is_disabled":false,"rental_uris":{"android":"levelo://app?vid=b0577ca1-afa8-48fa-be5c-f4673c1a2294","ios":"levelo://app?vid=b0577ca1-afa8-48fa-be5c-f4673c1a2294"},"vehicle_type_id":"4","last_reported":1770669072,"current_range_meters":9600,"station_id":"","pricing_plan_id":"cebpf4jnsgd1na2vs0mg"},{"bike_id":"22d8d839-db4c-4efa-bd5d-d78efaca55ca","system_id":"levelo_inurba_marseille","lat":43.25576,"lon":5.38254,"is_reserved":false,"is_disabled":false,"rental_uris":{"android":"levelo://app?vid=22d8d839-db4c-4efa-bd5d-d78efaca55ca","ios":"levelo://app?vid=22d8d839-db4c-4efa-bd5d-d78efaca55ca"},"vehicle_type_id":"4","last_reported":1770669072,"current_range_meters":9600,"station_id":"ce4bhih2rcd13ifvqfs0","pricing_plan_id":"cebpf4jnsgd1na2vs0mg"},{"bike_id":"3ffc8ed0-24b7-49ec-b390-276a9dc78730","system_id":"levelo_inurba_marseille","lat":43.29494,"lon":5.43319,"is_reserved":false,"is_disabled":false,"rental_uris":{"android":"levelo://app?vid=3ffc8ed0-24b7-49ec-b390-276a9dc78730","ios":"levelo://app?vid=3ffc8ed0-24b7-49ec-b390-276a9dc78730"},"vehicle_type_id":"4","last_reported":1770669072,"current_range_meters":9600,"station_id":"st_d3j5ugp08ojc73fj9d10","pricing_plan_id":"cebpf4jnsgd1na2vs0mg"},