{"last_updated":1752131587,"ttl":60,"version":"2.2","data":{"bikes":[{"bike_id":"cd20cfea-2f2f-444d-a882-a49b6cf370eb","system_id":"levelo_inurba_marseille","lat":43.337444,"lon":5.374475,"is_reserved":false,"is_disabled":true,"rental_uris":{"android":"levelo://app?vid=cd20cfea-2f2f-444d-a882-a49b6cf370eb","ios":"levelo://app?vid=cd20cfea-2f2f-444d-a882-a49b6cf370eb"},"vehicle_type_id":"4","last_reported":1752131587,"current_range_meters":0,"station_id":"","pricing_plan_id":"cebpf4jnsgd1na2vs0mg"},{"bike_id":"3da29fb8-fc97-44c6-b9ac-31dd456b2fd4","system_id":"levelo_inurba_marseille","lat":43.33771,"lon":5.37424,"is_reserved":false,"is_disabled":true,"rental_uris":{"android":"levelo://app?vid=3da29fb8-fc97-44c6-b9ac-31dd456b2fd4","ios":"levelo://app?vid=3da29fb8-fc97-44c6-b9ac-31dd456b2fd4"},"vehicle_type_id":"4","last_reported":1752131587,"current_range_meters":0,"station_id":"","pricing_plan_id":"cebpf4jnsgd1na2vs0mg"},{"bike_id":"01861ad8-a8d7-4be6-816e-651927c87584","system_id":"levelo_inurba_marseille","lat":43.33751,"lon":5.37456,"is_reserved":false,"is_disabled":true,"rental_uris":{"android":"levelo://app?vid=01861ad8-a8d7-4be6-816e-651927c87584","ios":"levelo://app?vid=01861ad8-a8d7-4be6-816e-651927c87584"},"vehicle_type_id":"4","last_reported":1752131587,"current_range_meters":0,"station_id":"","pricing_plan_id":"cebpf4jnsgd1na2vs0mg"},{"bike_id":"24cb9089-93ac-4b36-9d4e-b77f1a42140d","system_id":"levelo_inurba_marseille","lat":43.31339,"lon":5.36781,"is_reserved":false,"is_disabled":true,"rental_uris":{"android":"levelo://app?vid=24cb9089-93ac-4b36-9d4e-b77f1a42140d","ios":"levelo://app?vid=24cb9089-93ac-4b36-9d4e-b77f1a42140d"},"vehicle_type_id":"4","last_reported":1752131587,"current_range_meters":0,"station_id":"","pricing_plan_id":"cebpf4jnsgd1na2vs0mg"},{"bike_id":"37f2becd-23f9-4f13-a711-38b8024eeec7","system_id":"levelo_inurba_marseille","lat":43.33768,"lon":5.37516,"is_reserved":false,"is_disabled":true,"rental_uris":{"android":"levelo://app?vid=37f2becd-23f9-4f13-a711-38b8024eeec7","ios":"levelo://app?vid=37f2becd-23f9-4f13-a711-38b8024eeec7"},"vehicle_type_id":"4","last_reported":1752131587,"current_range_meters":0,"station_id":"","pricing_plan_id":"cebpf4jnsgd1na2vs0mg"},{"bike_id":"b8fcd1b8-e383-4c4c-a466-f8393a965939","system_id":"levelo_inurba_marseille","lat":43.21745,"lon":5.34593,"is_reserved":false,"is_disabled":true,"rental_uris":{"android":"levelo://app?vid=b8fcd1b8-e383-4c4c-a466-f8393a965939","ios":"levelo://app?vid=b8fcd1b8-e383-4c4c-a466-f8393a965939"},"vehicle_type_id":"4","last_reported":1752131587,"current_range_meters":0,"station_id":"","pricing_plan_id":"cebpf4jnsgd1na2vs0mg"},{"bike_id":"53b1a31e-8ada-40c0-8d64-113a81233c84","system_id":"levelo_inurba_marseille","lat":43.36369,"lon":5.31986,"is_reserved":false,"is_disabled":true,"rental_uris":{"android":"levelo://app?vid=53b1a31e-8ada-40c0-8d64-113a81233c84","ios":"levelo://app?vid=53b1a31e-8ada-40c0-8d64-113a81233c84"},"vehicle_type_id":"4","last_reported":1752131587,"current_range_meters":0,"station_id":"","pricing_plan_id":"cebpf4jnsgd1na2vs0mg"},{"bike_id":"136321f9-9897-46d7-900e-322451ea1110","system_id":"levelo_inurba_marseille","lat":43.30266,"lon":5.36665,"is_reserved":false,"is_disabled":true,"rental_uris":{"android":"levelo://app?vid=136321f9-9897-46d7-900e-322451ea1110","ios":"levelo://app?vid=136321f9-9897-46d7-900e-322451ea1110"},"vehicle_type_id":"4","last_reported":1752131587,"current_range_meters":0,"station_id":"","pricing_plan_id":"cebpf4jnsgd1na2vs0mg"},{"bike_id":"8c0cacb6-e724-4873-a451-af728b9459a6","system_id":"levelo_inurba_marseille","lat":43.30973,"lon":5.390147,"is_reserved":false,"is_disabled":true,"rental_uris":{"android":"levelo://app?vid=8c0cacb6-e724-4873-a451-af728b9459a6","ios":"levelo://app?vid=8c0cacb6-e724-4873-a451-af728b9459a6"},"vehicle_type_id":"4","last_reported":1752131587,"current_range_meters":0,"station_id":"ce4bgup2rcd13ifvqco0","pricing_plan_id":"cebpf4jnsgd1na2vs0mg"},{"bike_id":"076931e2-e1e8-42f0-aa8e-bbcb17fc77f9","system_id":"levelo_inurba_marseille","lat":43.25001,"lon":5.38926,"is_reserved":false,"is_disabled":true,"rental_uris":{"android":"levelo://app?vid=076931e2-e1e8-42f0-aa8e-bbcb17fc77f9","ios":"levelo://app?vid=076931e2-e1e8-42f0-aa8e-bbcb17fc77f9"},"vehicle_type_id":"4","last_reported":1752131587,"current_range_meters":0,"station_id":"ce4bhgp2rcd13ifvqfd0","pricing_plan_id":"cebpf4jnsgd1na2vs0mg"},{"bike_id":"d0afdcac-61f9-451b-b809-cdf62d609c75","system_id":"levelo_inurba_marseille","lat":43.29554,"lon":5.42278,"is_reserved":false,"is_disabled":true,"rental_uris":{"android":"levelo://app?vid=d0afdcac-61f9-451b-b809-cdf62d609c75","ios":"levelo://app?vid=d0afdcac-61f9-451b-b809-cdf62d609c75"},"vehicle_type_id":"4","last_reported":1752131587,"current_range_meters":0,"station_id":"ce4bhph2rcd13ifvqhdg","pricing_plan_id":"cebpf4jnsgd1na2vs0mg"},{"bike_id":"b056ce9b-7b21-4183-8507-73b1a35e2dda","system_id":"levelo_inurba_marseille","lat":43.23206,"lon":5.35556,"is_reserved":false,"is_disabled":true,"rental_uris":{"android":"levelo://app?vid=b056ce9b-7b21-4183-8507-73b1a35e2dda","ios":"levelo://app?vid=b056ce9b-7b21-4183-8507-73b1a35e2dda"},"vehicle_type_id":"4","last_reported":1752131587,"current_range_meters":0,"station_id":"ce4bhu92rcd13ifvqi70","pricing_plan_id":"cebpf4jnsgd1na2vs0mg"},{"bike_id":"e562ad4e-a577-4b7b-a74e-7e00b9c0f52f","system_id":"levelo_inurba_marseille","lat":43.225027,"lon":5.347812,"is_reserved":false,"is_disabled":true,"rental_uris":{"android":"levelo://app?vid=e562ad4e-a577-4b7b-a74e-7e00b9c0f52f","ios":"levelo://app?vid=e562ad4e-a577-4b7b-a74e-7e00b9c0f52f"},"vehicle_type_id":"4","last_reported":1752131587,"current_range_meters":0,"station_id":"st_cvj5dfep6f1abm77gieg","pricing_plan_id":"cebpf4jnsgd1na2vs0mg"},{"bike_id":"9dbe87cc-21c9-4b6c-952c-c09e35887f80","system_id":"levelo_inurba_marseille","lat":43.217463,"lon":5.346103,"is_reserved":false,"is_disabled":true,"rental_uris":{"android":"levelo://app?vid=9dbe87cc-21c9-4b6c-952c-c09e35887f80","ios":"levelo://app?vid=9dbe87cc-21c9-4b6c-952c-c09e35887f80"},"vehicle_type_id":"4","last_reported":1752131587,"current_range_meters":0,"station_id":"st_cvj6r9ubvosntc0bgbag","pricing_plan_id":"cebpf4jnsgd1na2vs0mg"},{"bike_id":"5745f131-cd4a-4ac9-bdc2-7385b3c3e0a5","system_id":"levelo_inurba_marseille","lat":43.217586,"lon":5.345971,"is_reserved":false,"is_disabled":true,"rental_uris":{"android":"levelo://app?vid=5745f131-cd4a-4ac9-bdc2-7385b3c3e0a5","ios":"levelo://app?vid=5745f131-cd4a-4ac9-bdc2-7385b3c3e0a5"},"vehicle_type_id":"4","last_reported":1752131587,"current_range_meters":0,"station_id":"st_cvj6r9ubvosntc0bgbag","pricing_plan_id":"cebpf4jnsgd1na2vs0mg"},{"bike_id":"2581b7c5-1b42-4417-a9e6-cbdbedb7a2dd","system_id":"levelo_inurba_marseille","lat":43.217465,"lon":5.346028,"is_reserved":false,"is_disabled":true,"rental_uris":{"android":"levelo://app?vid=2581b7c5-1b42-4417-a9e6-cbdbedb7a2dd","ios":"levelo://app?vid=2581b7c5-1b42-4417-a9e6-cbdbedb7a2dd"},"vehicle_type_id":"4","last_reported":1752131587,"current_range_meters":0,"station_id":"st_cvj6r9ubvosntc0bgbag","pricing_plan_id":"cebpf4jnsgd1na2vs0mg"},{"bike_id":"336eaf6b-6955-4ef9-8dfa-abf06b057d2c","system_id":"levelo_inurba_marseille","lat":43.21185,"lon":5.3507,"is_reserved":false,"is_disabled":true,"rental_uris":{"android":"levelo://app?vid=336eaf6b-6955-4ef9-8dfa-abf06b057d2c","ios":"levelo://app?vid=336eaf6b-6955-4ef9-8dfa-abf06b057d2c"},"vehicle_type_id":"4","last_reported":1752131587,"current_range_meters":0,"station_id":"st_cvj6sg6p6f1abm77japg","pricing_plan_id":"cebpf4jnsgd1na2vs0mg"},{"bike_id":"6661cbd2-6ba2-4b46-b15e-1188df0f29d7","system_id":"levelo_inurba_marseille","lat":43.2119,"lon":5.35067,"is_reserved":false,"is_disabled":true,"rental_uris":{"android":"levelo://app?vid=6661cbd2-6ba2-4b46-b15e-1188df0f29d7","ios":"levelo://app?vid=6661cbd2-6ba2-4b46-b15e-1188df0f29d7"},"vehicle_type_id":"4","last_reported":1752131587,"current_range_meters":0,"station_id":"st_cvj6sg6p6f1abm77japg","pricing_plan_id":"cebpf4jnsgd1na2vs0mg"},{"bike_id":"b2391bd7-760e-4785-9b61-8fc659b712d2","system_id":"levelo_inurba_marseille","lat":43.24998,"lon":5.38929,"is_reserved":false,"is_disabled":true,"rental_uris":{"android":"levelo://app?vid=b2391bd7-760e-4785-9b61-8fc659b712d2","ios":"levelo://app?vid=b2391bd7-760e-4785-9b61-8fc659b712d2"},"vehicle_type_id":"4","last_reported":1752131587,"current_range_meters":400,"station_id":"ce4bhgp2rcd13ifvqfd0","pricing_plan_id":"cebpf4jnsgd1na2vs0mg"},{"bike_id":"0370af86-1f7f-460c-84dd-40499571acf7","system_id":"levelo_inurba_marseille","lat":43.2594,"lon":5.40901,"is_reserved":false,"is_disabled":true,"rental_uris":{"android":"levelo://app?vid=0370af86-1f7f-460c-84dd-40499571acf7","ios":"levelo://app?vid=0370af86-1f7f-460c-84dd-40499571acf7"},"vehicle_type_id":"4","last_reported":1752131587,"current_range_meters":400,"station_id":"ce4bhm92rcd13ifvqglg","pricing_plan_id":"cebpf4jnsgd1na2vs0mg"},{"bike_id":"981ae4e7-babd-4185-b04f-c95ceb550147","system_id":"levelo_inurba_marseille","lat":43.24179,"lon":5.39722,"is_reserved":false,"is_disabled":true,"rental_uris":{"android":"levelo://app?vid=981ae4e7-babd-4185-b04f-c95ceb550147","ios":"levelo://app?vid=981ae4e7-babd-4185-b04f-c95ceb550147"},"vehicle_type_id":"4","last_reported":1752131587,"current_range_meters":400,"station_id":"ce4bhn12rcd13ifvqgpg","pricing_plan_id":"cebpf4jnsgd1na2vs0mg"},{"bike_id":"387c94a7-abb5-45a8-ada8-f5c8b7e9159a","system_id":"levelo_inurba_marseille","lat":43.29848,"lon":5.36271,"is_reserved":false,"is_disabled":true,"rental_uris":{"android":"levelo://app?vid=387c94a7-abb5-45a8-ada8-f5c8b7e9159a","ios":"levelo://app?vid=387c94a7-abb5-45a8-ada8-f5c8b7e9159a"},"vehicle_type_id":"4","last_reported":1752131587,"current_range_meters":800,"station_id":"ce4bgpp2rcd13ifvqc3g","pricing_plan_id":"cebpf4jnsgd1na2vs0mg"},{"bike_id":"10ad044a-7180-4af7-90d0-eee977590b53","system_id":"levelo_inurba_marseille","lat":43.29837,"lon":5.362688,"is_reserved":false,"is_disabled":true,"rental_uris":{"android":"levelo://app?vid=10ad044a-7180-4af7-90d0-eee977590b53","ios":"levelo://app?vid=10ad044a-7180-4af7-90d0-eee977590b53"},"vehicle_type_id":"4","last_reported":1752131587,"current_range_meters":800,"station_id":"ce4bgpp2rcd13ifvqc3g","pricing_plan_id":"cebpf4jnsgd1na2vs0mg"},{"bike_id":"fdfc018c-89bf-484b-bff3-cbe2a60267dd","system_id":"levelo_inurba_marseille","lat":43.2923,"lon":5.36029,"is_reserved":false,"is_disabled":true,"rental_uris":{"android":"levelo://app?vid=fdfc018c-89bf-484b-bff3-cbe2a60267dd","ios":"levelo://app?vid=fdfc018c-89bf-484b-bff3-cbe2a60267dd"},"vehicle_type_id":"4","last_reported":1752131587,"current_range_meters":800,"station_id":"ce4bhbh2rcd13ifvqeqg","pricing_plan_id":"cebpf4jnsgd1na2vs0mg"},{"bike_id":"1ea07c30-7637-4836-8280-b70950b610b5","system_id":"levelo_inurba_marseille","lat":43.22518,"lon":5.3476,"is_reserved":false,"is_disabled":true,"rental_uris":{"android":"levelo://app?vid=1ea07c30-7637-4836-8280-b70950b610b5","ios":"levelo://app?vid=1ea07c30-7637-4836-8280-b70950b610b5"},"vehicle_type_id":"4","last_reported":1752131587,"current_range_meters":800,"station_id":"st_cvj5dfep6f1abm77gieg","pricing_plan_id":"cebpf4jnsgd1na2vs0mg"},{"bike_id":"db841109-9b56-4777-86e2-06fbf4ef1649","system_id":"levelo_inurba_marseille","lat":43.311189,"lon":5.397409,"is_reserved":false,"is_disabled":true,"rental_uris":{"android":"levelo://app?vid=db841109-9b56-4777-86e2-06fbf4ef1649","ios":"levelo://app?vid=db841109-9b56-4777-86e2-06fbf4ef1649"},"vehicle_type_id":"4","last_reported":1752131587,"current_range_meters":1200,"station_id":"","pricing_plan_id":"cebpf4jnsgd1na2vs0mg"},{"bike_id":"f31407d1-283f-462e-acd9-10af842059b4","system_id":"levelo_inurba_marseille","lat":43.302124,"lon":5.394638,"is_reserved":false,"is_disabled":true,"rental_uris":{"android":"levelo://app?vid=f31407d1-283f-462e-acd9-10af842059b4","ios":"levelo://app?vid=f31407d1-283f-462e-acd9-10af842059b4"},"vehicle_type_id":"4","last_reported":1752131587,"current_range_meters":1600,"station_id":"ce4bh0p2rcd13ifvqd70","pricing_plan_id":"cebpf4jnsgd1na2vs0mg"},{"bike_id":"0c8f92f0-34dd-4528-ac9a-218976babbcb","system_id":"levelo_inurba_marseille","lat":43.297057,"lon":5.376893,"is_reserved":false,"is_disabled":true,"rental_uris":{"android":"levelo://app?vid=0c8f92f0-34dd-4528-ac9a-218976babbcb","ios":"levelo://app?vid=0c8f92f0-34dd-4528-ac9a-218976babbcb"},"vehicle_type_id":"4","last_reported":1752131587,"current_range_meters":2000,"station_id":"ce4bgkh2rcd13ifvqbl0","pricing_plan_id":"cebpf4jnsgd1na2vs0mg"},{"bike_id":"dd0c385f-165a-4b43-b162-82c9b959f20d","system_id":"levelo_inurba_marseille","lat":43.3016,"lon":5.380787,"is_reserved":false,"is_disabled":false,"rental_uris":{"android":"levelo://app?vid=dd0c385f-165a-4b43-b162-82c9b959f20d","ios":"levelo://app?vid=dd0c385f-165a-4b43-b162-82c9b959f20d"},"vehicle_type_id":"4","last_reported":1752131587,"current_range_meters":2800,"station_id":"ce4bgjp2rcd13ifvqbh0","pricing_plan_id":"cebpf4jnsgd1na2vs0mg"},{"bike_id":"9faa8030-6d40-4f0e-9d13-df5a06c22d48","system_id":"levelo_inurba_marseille","lat":43.29599,"lon":5.38104,"is_reserved":false,"is_disabled":false,"rental_uris":{"android":"levelo://app?vid=9faa8030-6d40-4f0e-9d13-df5a06c22d48","ios":"levelo://app?vid=9faa8030-6d40-4f0e-9d13-df5a06c22d48"},"vehicle_type_id":"4","last_reported":1752131587,"current_range_meters":2800,"station_id":"ce4bgl12rcd13ifvqbo0","pricing_plan_id":"cebpf4jnsgd1na2vs0mg"},{"bike_id":"ccd262e4-6071-43e8-883e-4f56cf04a09c","system_id":"levelo_inurba_marseille","lat":43.269337,"lon":5.389282,"is_reserved":false,"is_disabled":false,"rental_uris":{"android":"levelo://app?vid=ccd262e4-6071-43e8-883e-4f56cf04a09c","ios":"levelo://app?vid=ccd262e4-6071-43e8-883e-4f56cf04a09c"},"vehicle_type_id":"4","last_reported":1752131587,"current_range_meters":2800,"station_id":"ce4bhhh2rcd13ifvqfl0","pricing_plan_id":"cebpf4jnsgd1na2vs0mg"},{"bike_id":"5a53e36c-41cf-44c6-8bd9-358c358529b6","system_id":"levelo_inurba_marseille","lat":43.26214,"lon":5.37439,"is_reserved":false,"is_disabled":false,"rental_uris":{"android":"levelo://app?vid=5a53e36c-41cf-44c6-8bd9-358c358529b6","ios":"levelo://app?vid=5a53e36c-41cf-44c6-8bd9-358c358529b6"},"vehicle_type_id":"4","last_reported":1752131587,"current_range_meters":3200,"station_id":"ce4bhgp2rcd13ifvqfc0","pricing_plan_id":"cebpf4jnsgd1na2vs0mg"},{"bike_id":"3a35dad5-0705-4cbf-98ec-ea1499198ab2","system_id":"levelo_inurba_marseille","lat":43.2799,"lon":5.40029,"is_reserved":false,"is_disabled":false,"rental_uris":{"android":"levelo://app?vid=3a35dad5-0705-4cbf-98ec-ea1499198ab2","ios":"levelo://app?vid=3a35dad5-0705-4cbf-98ec-ea1499198ab2"},"vehicle_type_id":"4","last_reported":1752131587,"current_range_meters":3200,"station_id":"ce4bho92rcd13ifvqh4g","pricing_plan_id":"cebpf4jnsgd1na2vs0mg"},{"bike_id":"888522e3-39b6-4ff3-ad74-ff6c6f771157","system_id":"levelo_inurba_marseille","lat":43.29482,"lon":5.40322,"is_reserved":false,"is_disabled":false,"rental_uris":{"android":"levelo://app?vid=888522e3-39b6-4ff3-ad74-ff6c6f771157","ios":"levelo://app?vid=888522e3-39b6-4ff3-ad74-ff6c6f771157"},"vehicle_type_id":"4","last_reported":1752131587,"current_range_meters":3600,"station_id":"","pricing_plan_id":"cebpf4jnsgd1na2vs0mg"},{"bike_id":"323b107d-22f0-4d8a-8cd0-c280dd2323e0","system_id":"levelo_inurba_marseille","lat":43.32358,"lon":5.36761,"is_reserved":false,"is_disabled":false,"rental_uris":{"android":"levelo://app?vid=323b107d-22f0-4d8a-8cd0-c280dd2323e0","ios":"levelo://app?vid=323b107d-22f0-4d8a-8cd0-c280dd2323e0"},"vehicle_type_id":"4","last_reported":1752131587,"current_range_meters":3600,"station_id":"ce4bhsh2rcd13ifvqi2g","pricing_plan_id":"cebpf4jnsgd1na2vs0mg"},{"bike_id":"e4f25fde-6bfa-4d4e-832a-8a27df98d447","system_id":"levelo_inurba_marseille","lat":43.29171,"lon":5.3751,"is_reserved":false,"is_disabled":false,"rental_uris":{"android":"levelo://app?vid=e4f25fde-6bfa-4d4e-832a-8a27df98d447","ios":"levelo://app?vid=e4f25fde-6bfa-4d4e-832a-8a27df98d447"},"vehicle_type_id":"4","last_reported":1752131587,"current_range_meters":4400,"station_id":"","pricing_plan_id":"cebpf4jnsgd1na2vs0mg"},{"bike_id":"4b9a50cd-99e2-459e-bbdb-0ee83572d80b","system_id":"levelo_inurba_marseille","lat":43.26058,"lon":5.39399,"is_reserved":false,"is_disabled":false,"rental_uris":{"android":"levelo://app?vid=4b9a50cd-99e2-459e-bbdb-0ee83572d80b","ios":"levelo://app?vid=4b9a50cd-99e2-459e-bbdb-0ee83572d80b"},"vehicle_type_id":"4","last_reported":1752131587,"current_range_meters":4400,"station_id":"ce4bhh92rcd13ifvqfj0","pricing_plan_id":"cebpf4jnsgd1na2vs0mg"},{"bike_id":"076ab7ad-88e9-48ca-bb08-d1e30bfed097","system_id":"levelo_inurba_marseille","lat":43.25574,"lon":5.38236,"is_reserved":false,"is_disabled":false,"rental_uris":{"android":"levelo://app?vid=076ab7ad-88e9-48ca-bb08-d1e30bfed097","ios":"levelo://app?vid=076ab7ad-88e9-48ca-bb08-d1e30bfed097"},"vehicle_type_id":"4","last_reported":1752131587,"current_range_meters":4400,"station_id":"ce4bhih2rcd13ifvqfs0","pricing_plan_id":"cebpf4jnsgd1na2vs0mg"},{"bike_id":"dfd3bc03-8b18-40aa-8821-8de46a301c4c","system_id":"levelo_inurba_marseille","lat":43.25938,"lon":5.40909,"is_reserved":false,"is_disabled":false,"rental_uris":{"android":"levelo://app?vid=dfd3bc03-8b18-40aa-8821-8de46a301c4c","ios":"levelo://app?vid=dfd3bc03-8b18-40aa-8821-8de46a301c4c"},"vehicle_type_id":"4","last_reported":1752131587,"current_range_meters":4400,"station_id":"ce4bhm92rcd13ifvqglg","pricing_plan_id":"cebpf4jnsgd1na2vs0mg"},{"bike_id":"e3701a7b-6034-4581-a54d-c3b07490a7d9","system_id":"levelo_inurba_marseille","lat":43.29037,"lon":5.39959,"is_reserved":false,"is_disabled":false,"rental_uris":{"android":"levelo://app?vid=e3701a7b-6034-4581-a54d-c3b07490a7d9","ios":"levelo://app?vid=e3701a7b-6034-4581-a54d-c3b07490a7d9"},"vehicle_type_id":"4","last_reported":1752131587,"current_range_meters":4800,"station_id":"ce4bh392rcd13ifvqdm0","pricing_plan_id":"cebpf4jnsgd1na2vs0mg"},{"bike_id":"21f9e3de-040f-4bf8-bb63-c366c0b621f8","system_id":"levelo_inurba_marseille","lat":43.33608,"lon":5.41031,"is_reserved":false,"is_disabled":false,"rental_uris":{"android":"levelo://app?vid=21f9e3de-040f-4bf8-bb63-c366c0b621f8","ios":"levelo://app?vid=21f9e3de-040f-4bf8-bb63-c366c0b621f8"},"vehicle_type_id":"4","last_reported":1752131587,"current_range_meters":4800,"station_id":"ce4bhqh2rcd13ifvqhmg","pricing_plan_id":"cebpf4jnsgd1na2vs0mg"},{"bike_id":"97b636d4-ce76-4469-91f2-cb71a35c75e9","system_id":"levelo_inurba_marseille","lat":43.29521,"lon":5.38672,"is_reserved":false,"is_disabled":false,"rental_uris":{"android":"levelo://app?vid=97b636d4-ce76-4469-91f2-cb71a35c75e9","ios":"levelo://app?vid=97b636d4-ce76-4469-91f2-cb71a35c75e9"},"vehicle_type_id":"4","last_reported":1752131587,"current_range_meters":5600,"station_id":"","pricing_plan_id":"cebpf4jnsgd1na2vs0mg"},{"bike_id":"79ffb254-2dd8-4e51-a2fc-8b38ea8a2117","system_id":"levelo_inurba_marseille","lat":43.29037,"lon":5.3996,"is_reserved":false,"is_disabled":false,"rental_uris":{"android":"levelo://app?vid=79ffb254-2dd8-4e51-a2fc-8b38ea8a2117","ios":"levelo://app?vid=79ffb254-2dd8-4e51-a2fc-8b38ea8a2117"},"vehicle_type_id":"4","last_reported":1752131587,"current_range_meters":5600,"station_id":"ce4bh392rcd13ifvqdm0","pricing_plan_id":"cebpf4jnsgd1na2vs0mg"},{"bike_id":"a3057c6e-819e-4cef-92f3-62ac29a368bf","system_id":"levelo_inurba_marseille","lat":43.25827,"lon":5.39437,"is_reserved":false,"is_disabled":false,"rental_uris":{"android":"levelo://app?vid=a3057c6e-819e-4cef-92f3-62ac29a368bf","ios":"levelo://app?vid=a3057c6e-819e-4cef-92f3-62ac29a368bf"},"vehicle_type_id":"4","last_reported":1752131587,"current_range_meters":5600,"station_id":"ce4bhip2rcd13ifvqft0","pricing_plan_id":"cebpf4jnsgd1na2vs0mg"},{"bike_id":"2086c6d6-150d-4033-bf89-75ff7e701662","system_id":"levelo_inurba_marseille","lat":43.25107,"lon":5.40327,"is_reserved":false,"is_disabled":false,"rental_uris":{"android":"levelo://app?vid=2086c6d6-150d-4033-bf89-75ff7e701662","ios":"levelo://app?vid=2086c6d6-150d-4033-bf89-75ff7e701662"},"vehicle_type_id":"4","last_reported":1752131587,"current_range_meters":5600,"station_id":"ce4bhlh2rcd13ifvqgig","pricing_plan_id":"cebpf4jnsgd1na2vs0mg"},{"bike_id":"88152b32-763b-497b-825e-a6add10d2119","system_id":"levelo_inurba_marseille","lat":43.23181,"lon":5.39984,"is_reserved":false,"is_disabled":false,"rental_uris":{"android":"levelo://app?vid=88152b32-763b-497b-825e-a6add10d2119","ios":"levelo://app?vid=88152b32-763b-497b-825e-a6add10d2119"},"vehicle_type_id":"4","last_reported":1752131587,"current_range_meters":5600,"station_id":"ce4bhn12rcd13ifvqgqg","pricing_plan_id":"cebpf4jnsgd1na2vs0mg"},{"bike_id":"ce09a6c7-b341-4488-a538-26468f87b477","system_id":"levelo_inurba_marseille","lat":43.32479,"lon":5.36582,"is_reserved":false,"is_disabled":false,"rental_uris":{"android":"levelo://app?vid=ce09a6c7-b341-4488-a538-26468f87b477","ios":"levelo://app?vid=ce09a6c7-b341-4488-a538-26468f87b477"},"vehicle_type_id":"4","last_reported":1752131587,"current_range_meters":5600,"station_id":"ce4bhs12rcd13ifvqhvg","pricing_plan_id":"cebpf4jnsgd1na2vs0mg"},{"bike_id":"8ae5b760-70ee-42ae-8fc1-3e8f610b675b","system_id":"levelo_inurba_marseille","lat":43.26787,"lon":5.39415,"is_reserved":false,"is_disabled":false,"rental_uris":{"android":"levelo://app?vid=8ae5b760-70ee-42ae-8fc1-3e8f610b675b","ios":"levelo://app?vid=8ae5b760-70ee-42ae-8fc1-3e8f610b675b"},"vehicle_type_id":"4","last_reported":1752131587,"current_range_meters":6000,"station_id":"ce4bhh12rcd13ifvqfg0","pricing_plan_id":"cebpf4jnsgd1na2vs0mg"},{"bike_id":"f3224df6-7d6e-4914-a649-9a3a4aeaeed8","system_id":"levelo_inurba_marseille","lat":43.30911,"lon":5.36855,"is_reserved":false,"is_disabled":false,"rental_uris":{"android":"levelo://app?vid=f3224df6-7d6e-4914-a649-9a3a4aeaeed8","ios":"levelo://app?vid=f3224df6-7d6e-4914-a649-9a3a4aeaeed8"},"vehicle_type_id":"4","last_reported":1752131587,"current_range_meters":6800,"station_id":"ce4bgn92rcd13ifvqbvg","pricing_plan_id":"cebpf4jnsgd1na2vs0mg"},{"bike_id":"5e8d18e2-764a-4fc5-9b62-9521e8b3009b","system_id":"levelo_inurba_marseille","lat":43.25939,"lon":5.40902,"is_reserved":false,"is_disabled":false,"rental_uris":{"android":"levelo://app?vid=5e8d18e2-764a-4fc5-9b62-9521e8b3009b","ios":"levelo://app?vid=5e8d18e2-764a-4fc5-9b62-9521e8b3009b"},"vehicle_type_id":"4","last_reported":1752131587,"current_range_meters":6800,"station_id":"ce4bhm92rcd13ifvqglg","pricing_plan_id":"cebpf4jnsgd1na2vs0mg"},{"bike_id":"6b6f65eb-ce38-4f32-94da-5b561c4f5694","system_id":"levelo_inurba_marseille","lat":43.32293,"lon":5.38268,"is_reserved":false,"is_disabled":false,"rental_uris":{"android":"levelo://app?vid=6b6f65eb-ce38-4f32-94da-5b561c4f5694","ios":"levelo://app?vid=6b6f65eb-ce38-4f32-94da-5b561c4f5694"},"vehicle_type_id":"4","last_reported":1752131587,"current_range_meters":7200,"station_id":"ce4bhr12rcd13ifvqhqg","pricing_plan_id":"cebpf4jnsgd1na2vs0mg"},{"bike_id":"5887f894-7aba-4976-a29d-671c98781994","system_id":"levelo_inurba_marseille","lat":43.290393,"lon":5.399775,"is_reserved":false,"is_disabled":false,"rental_uris":{"android":"levelo://app?vid=5887f894-7aba-4976-a29d-671c98781994","ios":"levelo://app?vid=5887f894-7aba-4976-a29d-671c98781994"},"vehicle_type_id":"4","last_reported":1752131587,"current_range_meters":8000,"station_id":"ce4bh392rcd13ifvqdm0","pricing_plan_id":"cebpf4jnsgd1na2vs0mg"},{"bike_id":"d5d88f1a-b041-431f-93f4-5dbdd6d4a907","system_id":"levelo_inurba_marseille","lat":43.28268,"lon":5.35069,"is_reserved":false,"is_disabled":false,"rental_uris":{"android":"levelo://app?vid=d5d88f1a-b041-431f-93f4-5dbdd6d4a907","ios":"levelo://app?vid=d5d88f1a-b041-431f-93f4-5dbdd6d4a907"},"vehicle_type_id":"4","last_reported":1752131587,"current_range_meters":8000,"station_id":"ce4bhbp2rcd13ifvqerg","pricing_plan_id":"cebpf4jnsgd1na2vs0mg"},{"bike_id":"4b13f0f2-3808-456a-b409-65e2d4ffb9c9","system_id":"levelo_inurba_marseille","lat":43.30531,"lon":5.36716,"is_reserved":false,"is_disabled":false,"rental_uris":{"android":"levelo://app?vid=4b13f0f2-3808-456a-b409-65e2d4ffb9c9","ios":"levelo://app?vid=4b13f0f2-3808-456a-b409-65e2d4ffb9c9"},"vehicle_type_id":"4","last_reported":1752131587,"current_range_meters":8800,"station_id":"ce4bgrp2rcd13ifvqc9g","pricing_plan_id":"cebpf4jnsgd1na2vs0mg"},{"bike_id":"d229c5ed-362a-4c88-8447-ac4fb77ea2c9","system_id":"levelo_inurba_marseille","lat":43.30554,"lon":5.36545,"is_reserved":false,"is_disabled":false,"rental_uris":{"android":"levelo://app?vid=d229c5ed-362a-4c88-8447-ac4fb77ea2c9","ios":"levelo://app?vid=d229c5ed-362a-4c88-8447-ac4fb77ea2c9"},"vehicle_type_id":"4","last_reported":1752131587,"current_range_meters":8800,"station_id":"ce4bgs12rcd13ifvqcag","pricing_plan_id":"cebpf4jnsgd1na2vs0mg"},{"bike_id":"2354f4ca-20d1-4b1b-b469-739d1656dff6","system_id":"levelo_inurba_marseille","lat":43.2903,"lon":5.37624,"is_reserved":false,"is_disabled":false,"rental_uris":{"android":"levelo://app?vid=2354f4ca-20d1-4b1b-b469-739d1656dff6","ios":"levelo://app?vid=2354f4ca-20d1-4b1b-b469-739d1656dff6"},"vehicle_type_id":"4","last_reported":1752131587,"current_range_meters":8800,"station_id":"ce4bh692rcd13ifvqe90","pricing_plan_id":"cebpf4jnsgd1na2vs0mg"},{"bike_id":"6ee17ce4-ce7e-4a69-82fc-213b3ed348a5","system_id":"levelo_inurba_marseille","lat":43.31649,"lon":5.40526,"is_reserved":false,"is_disabled":false,"rental_uris":{"android":"levelo://app?vid=6ee17ce4-ce7e-4a69-82fc-213b3ed348a5","ios":"levelo://app?vid=6ee17ce4-ce7e-4a69-82fc-213b3ed348a5"},"vehicle_type_id":"4","last_reported":1752131587,"current_range_meters":9200,"station_id":"","pricing_plan_id":"cebpf4jnsgd1na2vs0mg"},{"bike_id":"8c1b701f-0a02-4e6f-bdc3-458a660b1523","system_id":"levelo_inurba_marseille","lat":43.24389,"lon":5.370601,"is_reserved":false,"is_disabled":false,"rental_uris":{"android":"levelo://app?vid=8c1b701f-0a02-4e6f-bdc3-458a660b1523","ios":"levelo://app?vid=8c1b701f-0a02-4e6f-bdc3-458a660b1523"},"vehicle_type_id":"4","last_reported":1752131587,"current_range_meters":9200,"station_id":"ce4bhhh2rcd13ifvqfk0","pricing_plan_id":"cebpf4jnsgd1na2vs0mg"},{"bike_id":"3ed5cffb-5775-49c1-a07a-bbec5519275b","system_id":"levelo_inurba_marseille","lat":43.24184,"lon":5.39722,"is_reserved":false,"is_disabled":false,"rental_uris":{"android":"levelo://app?vid=3ed5cffb-5775-49c1-a07a-bbec5519275b","ios":"levelo://app?vid=3ed5cffb-5775-49c1-a07a-bbec5519275b"},"vehicle_type_id":"4","last_reported":1752131587,"current_range_meters":9200,"station_id":"ce4bhn12rcd13ifvqgpg","pricing_plan_id":"cebpf4jnsgd1na2vs0mg"},{"bike_id":"f573a8fb-f1f8-47c4-901e-ddf2739a5cca","system_id":"levelo_inurba_marseille","lat":43.36001,"lon":5.324803,"is_reserved":false,"is_disabled":false,"rental_uris":{"android":"levelo://app?vid=f573a8fb-f1f8-47c4-901e-ddf2739a5cca","ios":"levelo://app?vid=f573a8fb-f1f8-47c4-901e-ddf2739a5cca"},"vehicle_type_id":"4","last_reported":1752131587,"current_range_meters":9600,"station_id":"","pricing_plan_id":"cebpf4jnsgd1na2vs0mg"},{"bike_id":"01652994-7fb3-4ab4-9534-771ddec57a5c","system_id":"levelo_inurba_marseille","lat":43.30952,"lon":5.39044,"is_reserved":false,"is_disabled":false,"rental_uris":{"android":"levelo://app?vid=01652994-7fb3-4ab4-9534-771ddec57a5c","ios":"levelo://app?vid=01652994-7fb3-4ab4-9534-771ddec57a5c"},"vehicle_type_id":"4","last_reported":1752131587,"current_range_meters":9600,"station_id":"ce4bgup2rcd13ifvqco0","pricing_plan_id":"cebpf4jnsgd1na2vs0mg"},{"bike_id":"84e7e709-4e4f-4764-818c-af719435bfca","system_id":"levelo_inurba_marseille","lat":43.31987,"lon":5.37249,"is_reserved":false,"is_disabled":false,"rental_uris":{"android":"levelo://app?vid=84e7e709-4e4f-4764-818c-af719435bfca","ios":"levelo://app?vid=84e7e709-4e4f-4764-818c-af719435bfca"},"vehicle_type_id":"4","last_reported":1752131587,"current_range_meters":10000,"station_id":"","pricing_plan_id":"cebpf4jnsgd1na2vs0mg"},{"bike_id":"a5523e7d-67d9-4f78-957e-d64c4e3fdac9","system_id":"levelo_inurba_marseille","lat":43.29302,"lon":5.37177,"is_reserved":false,"is_disabled":false,"rental_uris":{"android":"levelo://app?vid=a5523e7d-67d9-4f78-957e-d64c4e3fdac9","ios":"levelo://app?vid=a5523e7d-67d9-4f78-957e-d64c4e3fdac9"},"vehicle_type_id":"4","last_reported":1752131587,"current_range_meters":10000,"station_id":"ce4bgh92rcd13ifvqb40","pricing_plan_id":"cebpf4jnsgd1na2vs0mg"},{"bike_id":"0b07bda2-c06c-4202-ab24-ce3dd3886b97","system_id":"levelo_inurba_marseille","lat":43.25488,"lon":5.37634,"is_reserved":false,"is_disabled":false,"rental_uris":{"android":"levelo://app?vid=0b07bda2-c06c-4202-ab24-ce3dd3886b97","ios":"levelo://app?vid=0b07bda2-c06c-4202-ab24-ce3dd3886b97"},"vehicle_type_id":"4","last_reported":1752131587,"current_range_meters":10000,"station_id":"ce4bhh12rcd13ifvqff0","pricing_plan_id":"cebpf4jnsgd1na2vs0mg"},{"bike_id":"c1112645-4afe-48f5-ad14-82e9f41607b0","system_id":"levelo_inurba_marseille","lat":43.25822,"lon":5.39435,"is_reserved":false,"is_disabled":false,"rental_uris":{"android":"levelo://app?vid=c1112645-4afe-48f5-ad14-82e9f41607b0","ios":"levelo://app?vid=c1112645-4afe-48f5-ad14-82e9f41607b0"},"vehicle_type_id":"4","last_reported":1752131587,"current_range_meters":10000,"station_id":"ce4bhip2rcd13ifvqft0","pricing_plan_id":"cebpf4jnsgd1na2vs0mg"},{"bike_id":"2d64afdf-b178-46a8-beda-f561b7aa30f5","system_id":"levelo_inurba_marseille","lat":43.27952,"lon":5.41042,"is_reserved":false,"is_disabled":false,"rental_uris":{"android":"levelo://app?vid=2d64afdf-b178-46a8-beda-f561b7aa30f5","ios":"levelo://app?vid=2d64afdf-b178-46a8-beda-f561b7aa30f5"},"vehicle_type_id":"4","last_reported":1752131587,"current_range_meters":10000,"station_id":"ce4bhnp2rcd13ifvqh0g","pricing_plan_id":"cebpf4jnsgd1na2vs0mg"},{"bike_id":"37d24ae8-ab60-4ff1-9d36-77e365c878e4","system_id":"levelo_inurba_marseille","lat":43.29842,"lon":5.36267,"is_reserved":false,"is_disabled":false,"rental_uris":{"android":"levelo://app?vid=37d24ae8-ab60-4ff1-9d36-77e365c878e4","ios":"levelo://app?vid=37d24ae8-ab60-4ff1-9d36-77e365c878e4"},"vehicle_type_id":"4","last_reported":1752131587,"current_range_meters":10800,"station_id":"ce4bgpp2rcd13ifvqc3g","pricing_plan_id":"cebpf4jnsgd1na2vs0mg"},{"bike_id":"866130cb-cfca-49b1-8b3a-b80ff3bcd209","system_id":"levelo_inurba_marseille","lat":43.29037,"lon":5.37567,"is_reserved":false,"is_disabled":false,"rental_uris":{"android":"levelo://app?vid=866130cb-cfca-49b1-8b3a-b80ff3bcd209","ios":"levelo://app?vid=866130cb-cfca-49b1-8b3a-b80ff3bcd209"},"vehicle_type_id":"4","last_reported":1752131587,"current_range_meters":10800,"station_id":"ce4bh692rcd13ifvqe90","pricing_plan_id":"cebpf4jnsgd1na2vs0mg"},{"bike_id":"48ef5e5a-9b48-44d9-b2f7-91feb1b91bd6","system_id":"levelo_inurba_marseille","lat":43.267945,"lon":5.394307,"is_reserved":false,"is_disabled":false,"rental_uris":{"android":"levelo://app?vid=48ef5e5a-9b48-44d9-b2f7-91feb1b91bd6","ios":"levelo://app?vid=48ef5e5a-9b48-44d9-b2f7-91feb1b91bd6"},"vehicle_type_id":"4","last_reported":1752131587,"current_range_meters":10800,"station_id":"ce4bhh12rcd13ifvqfg0","pricing_plan_id":"cebpf4jnsgd1na2vs0mg"},{"bike_id":"4975b22d-8c48-452f-bd19-7a9d3ed7c378","system_id":"levelo_inurba_marseille","lat":43.29676,"lon":5.37424,"is_reserved":false,"is_disabled":false,"rental_uris":{"android":"levelo://app?vid=4975b22d-8c48-452f-bd19-7a9d3ed7c378","ios":"levelo://app?vid=4975b22d-8c48-452f-bd19-7a9d3ed7c378"},"vehicle_type_id":"4","last_reported":1752131587,"current_range_meters":11200,"station_id":"","pricing_plan_id":"cebpf4jnsgd1na2vs0mg"},{"bike_id":"bdb37748-54d8-49be-851c-eabf3e079174","system_id":"levelo_inurba_marseille","lat":43.27944,"lon":5.41056,"is_reserved":false,"is_disabled":false,"rental_uris":{"android":"levelo://app?vid=bdb37748-54d8-49be-851c-eabf3e079174","ios":"levelo://app?vid=bdb37748-54d8-49be-851c-eabf3e079174"},"vehicle_type_id":"4","last_reported":1752131587,"current_range_meters":11200,"station_id":"ce4bhnp2rcd13ifvqh0g","pricing_plan_id":"cebpf4jnsgd1na2vs0mg"},{"bike_id":"d2191847-bfce-41b3-a3bd-67bae65b9b15","system_id":"levelo_inurba_marseille","lat":43.33718,"lon":5.39186,"is_reserved":false,"is_disabled":false,"rental_uris":{"android":"levelo://app?vid=d2191847-bfce-41b3-a3bd-67bae65b9b15","ios":"levelo://app?vid=d2191847-bfce-41b3-a3bd-67bae65b9b15"},"vehicle_type_id":"4","last_reported":1752131587,"current_range_meters":11200,"station_id":"ce4bhr92rcd13ifvqhsg","pricing_plan_id":"cebpf4jnsgd1na2vs0mg"},{"bike_id":"63b42577-c8b2-41d0-af77-a317978faa91","system_id":"levelo_inurba_marseille","lat":43.3248,"lon":5.36564,"is_reserved":false,"is_disabled":false,"rental_uris":{"android":"levelo://app?vid=63b42577-c8b2-41d0-af77-a317978faa91","ios":"levelo://app?vid=63b42577-c8b2-41d0-af77-a317978faa91"},"vehicle_type_id":"4","last_reported":1752131587,"current_range_meters":11200,"station_id":"ce4bhs12rcd13ifvqhvg","pricing_plan_id":"cebpf4jnsgd1na2vs0mg"},{"bike_id":"833f97ec-e704-4051-ab3b-2e9eb58f71d0","system_id":"levelo_inurba_marseille","lat":43.3027,"lon":5.37526,"is_reserved":false,"is_disabled":false,"rental_uris":{"android":"levelo://app?vid=833f97ec-e704-4051-ab3b-2e9eb58f71d0","ios":"levelo://app?vid=833f97ec-e704-4051-ab3b-2e9eb58f71d0"},"vehicle_type_id":"4","last_reported":1752131587,"current_range_meters":11600,"station_id":"","pricing_plan_id":"cebpf4jnsgd1na2vs0mg"},{"bike_id":"f5c16f07-bc6f-4121-91a7-5ad90eec4f34","system_id":"levelo_inurba_marseille","lat":43.312039,"lon":5.373245,"is_reserved":false,"is_disabled":false,"rental_uris":{"android":"levelo://app?vid=f5c16f07-bc6f-4121-91a7-5ad90eec4f34","ios":"levelo://app?vid=f5c16f07-bc6f-4121-91a7-5ad90eec4f34"},"vehicle_type_id":"4","last_reported":1752131587,"current_range_meters":11600,"station_id":"","pricing_plan_id":"cebpf4jnsgd1na2vs0mg"},{"bike_id":"09336cd1-7b2f-46b8-ac6e-85b310d42b0a","system_id":"levelo_inurba_marseille","lat":43.29367,"lon":5.40877,"is_reserved":false,"is_disabled":false,"rental_uris":{"android":"levelo://app?vid=09336cd1-7b2f-46b8-ac6e-85b310d42b0a","ios":"levelo://app?vid=09336cd1-7b2f-46b8-ac6e-85b310d42b0a"},"vehicle_type_id":"4","last_reported":1752131587,"current_range_meters":11600,"station_id":"","pricing_plan_id":"cebpf4jnsgd1na2vs0mg"},{"bike_id":"10c590a8-f9a6-461b-bb6c-d4e1492dd051","system_id":"levelo_inurba_marseille","lat":43.295747,"lon":5.375007,"is_reserved":false,"is_disabled":false,"rental_uris":{"android":"levelo://app?vid=10c590a8-f9a6-461b-bb6c-d4e1492dd051","ios":"levelo://app?vid=10c590a8-f9a6-461b-bb6c-d4e1492dd051"},"vehicle_type_id":"4","last_reported":1752131587,"current_range_meters":11600,"station_id":"ce4bgh92rcd13ifvqb50","pricing_plan_id":"cebpf4jnsgd1na2vs0mg"},{"bike_id":"690c7b89-2076-4033-bf09-8e7aace2d8d0","system_id":"levelo_inurba_marseille","lat":43.31221,"lon":5.36849,"is_reserved":false,"is_disabled":false,"rental_uris":{"android":"levelo://app?vid=690c7b89-2076-4033-bf09-8e7aace2d8d0","ios":"levelo://app?vid=690c7b89-2076-4033-bf09-8e7aace2d8d0"},"vehicle_type_id":"4","last_reported":1752131587,"current_range_meters":11600,"station_id":"ce4bgl92rcd13ifvqbq0","pricing_plan_id":"cebpf4jnsgd1na2vs0mg"},{"bike_id":"40410b54-d0dc-4bcd-9e15-3289fa653ebf","system_id":"levelo_inurba_marseille","lat":43.25936,"lon":5.40896,"is_reserved":false,"is_disabled":false,"rental_uris":{"android":"levelo://app?vid=40410b54-d0dc-4bcd-9e15-3289fa653ebf","ios":"levelo://app?vid=40410b54-d0dc-4bcd-9e15-3289fa653ebf"},"vehicle_type_id":"4","last_reported":1752131587,"current_range_meters":11600,"station_id":"ce4bhm92rcd13ifvqglg","pricing_plan_id":"cebpf4jnsgd1na2vs0mg"},{"bike_id":"6e5c2657-ccb8-4153-8b94-2143bc427a03","system_id":"levelo_inurba_marseille","lat":43.22489,"lon":5.34768,"is_reserved":false,"is_disabled":false,"rental_uris":{"android":"levelo://app?vid=6e5c2657-ccb8-4153-8b94-2143bc427a03","ios":"levelo://app?vid=6e5c2657-ccb8-4153-8b94-2143bc427a03"},"vehicle_type_id":"4","last_reported":1752131587,"current_range_meters":11600,"station_id":"st_cvj5dfep6f1abm77gieg","pricing_plan_id":"cebpf4jnsgd1na2vs0mg"},{"bike_id":"b757ffbb-2b71-4330-9f60-5f8a9d46d16e","system_id":"levelo_inurba_marseille","lat":43.2968,"lon":5.37128,"is_reserved":false,"is_disabled":false,"rental_uris":{"android":"levelo://app?vid=b757ffbb-2b71-4330-9f60-5f8a9d46d16e","ios":"levelo://app?vid=b757ffbb-2b71-4330-9f60-5f8a9d46d16e"},"vehicle_type_id":"4","last_reported":1752131587,"current_range_meters":12000,"station_id":"","pricing_plan_id":"cebpf4jnsgd1na2vs0mg"},{"bike_id":"b2caa530-bb19-4cc6-a6bd-61e3e1d7432e","system_id":"levelo_inurba_marseille","lat":43.33763,"lon":5.37461,"is_reserved":false,"is_disabled":false,"rental_uris":{"android":"levelo://app?vid=b2caa530-bb19-4cc6-a6bd-61e3e1d7432e","ios":"levelo://app?vid=b2caa530-bb19-4cc6-a6bd-61e3e1d7432e"},"vehicle_type_id":"4","last_reported":1752131587,"current_range_meters":12000,"station_id":"","pricing_plan_id":"cebpf4jnsgd1na2vs0mg"},{"bike_id":"6ef5f3ea-45a5-4129-a8bc-9005968550f8","system_id":"levelo_inurba_marseille","lat":43.30413,"lon":5.36861,"is_reserved":false,"is_disabled":false,"rental_uris":{"android":"levelo://app?vid=6ef5f3ea-45a5-4129-a8bc-9005968550f8","ios":"levelo://app?vid=6ef5f3ea-45a5-4129-a8bc-9005968550f8"},"vehicle_type_id":"4","last_reported":1752131587,"current_range_meters":12000,"station_id":"","pricing_plan_id":"cebpf4jnsgd1na2vs0mg"},{"bike_id":"c4e27960-38b9-4506-942a-a90a18501230","system_id":"levelo_inurba_marseille","lat":43.25817,"lon":5.39441,"is_reserved":false,"is_disabled":false,"rental_uris":{"android":"levelo://app?vid=c4e27960-38b9-4506-942a-a90a18501230","ios":"levelo://app?vid=c4e27960-38b9-4506-942a-a90a18501230"},"vehicle_type_id":"4","last_reported":1752131587,"current_range_meters":12000,"station_id":"ce4bhip2rcd13ifvqft0","pricing_plan_id":"cebpf4jnsgd1na2vs0mg"},{"bike_id":"66164e95-a44b-4a59-9659-8b86bc2d5c59","system_id":"levelo_inurba_marseille","lat":43.30371,"lon":5.42489,"is_reserved":false,"is_disabled":false,"rental_uris":{"android":"levelo://app?vid=66164e95-a44b-4a59-9659-8b86bc2d5c59","ios":"levelo://app?vid=66164e95-a44b-4a59-9659-8b86bc2d5c59"},"vehicle_type_id":"4","last_reported":1752131587,"current_range_meters":12000,"station_id":"ce4bhoh2rcd13ifvqh6g","pricing_plan_id":"cebpf4jnsgd1na2vs0mg"},{"bike_id":"b6d9b946-f66a-4c6f-96e5-5d23e176360c","system_id":"levelo_inurba_marseille","lat":43.31315,"lon":5.38172,"is_reserved":false,"is_disabled":false,"rental_uris":{"android":"levelo://app?vid=b6d9b946-f66a-4c6f-96e5-5d23e176360c","ios":"levelo://app?vid=b6d9b946-f66a-4c6f-96e5-5d23e176360c"},"vehicle_type_id":"4","last_reported":1752131587,"current_range_meters":12400,"station_id":"","pricing_plan_id":"cebpf4jnsgd1na2vs0mg"},{"bike_id":"833d3f83-00f4-4656-8d54-523c544842c8","system_id":"levelo_inurba_marseille","lat":43.25935,"lon":5.40901,"is_reserved":false,"is_disabled":false,"rental_uris":{"android":"levelo://app?vid=833d3f83-00f4-4656-8d54-523c544842c8","ios":"levelo://app?vid=833d3f83-00f4-4656-8d54-523c544842c8"},"vehicle_type_id":"4","last_reported":1752131587,"current_range_meters":12400,"station_id":"ce4bhm92rcd13ifvqglg","pricing_plan_id":"cebpf4jnsgd1na2vs0mg"},{"bike_id":"94d97b97-ef86-4757-8595-b16d362c8a9a","system_id":"levelo_inurba_marseille","lat":43.32042,"lon":5.41543,"is_reserved":false,"is_disabled":false,"rental_uris":{"android":"levelo://app?vid=94d97b97-ef86-4757-8595-b16d362c8a9a","ios":"levelo://app?vid=94d97b97-ef86-4757-8595-b16d362c8a9a"},"vehicle_type_id":"4","last_reported":1752131587,"current_range_meters":12400,"station_id":"ce4bhq92rcd13ifvqhkg","pricing_plan_id":"cebpf4jnsgd1na2vs0mg"},{"bike_id":"1be39311-cfa5-4cbb-b93d-fb0870d6e611","system_id":"levelo_inurba_marseille","lat":43.211916,"lon":5.350709,"is_reserved":false,"is_disabled":false,"rental_uris":{"android":"levelo://app?vid=1be39311-cfa5-4cbb-b93d-fb0870d6e611","ios":"levelo://app?vid=1be39311-cfa5-4cbb-b93d-fb0870d6e611"},"vehicle_type_id":"4","last_reported":1752131587,"current_range_meters":12400,"station_id":"st_cvj6sg6p6f1abm77japg","pricing_plan_id":"cebpf4jnsgd1na2vs0mg"},{"bike_id":"320f2a33-deaa-4e0a-a3d5-c39ce8ad680a","system_id":"levelo_inurba_marseille","lat":43.31574,"lon":5.37439,"is_reserved":false,"is_disabled":false,"rental_uris":{"android":"levelo://app?vid=320f2a33-deaa-4e0a-a3d5-c39ce8ad680a","ios":"levelo://app?vid=320f2a33-deaa-4e0a-a3d5-c39ce8ad680a"},"vehicle_type_id":"4","last_reported":1752131587,"current_range_meters":12800,"station_id":"","pricing_plan_id":"cebpf4jnsgd1na2vs0mg"},{"bike_id":"2a2c2ba3-f4e7-4476-b21e-559d75857b71","system_id":"levelo_inurba_marseille","lat":43.27077,"lon":5.42282,"is_reserved":false,"is_disabled":false,"rental_uris":{"android":"levelo://app?vid=2a2c2ba3-f4e7-4476-b21e-559d75857b71","ios":"levelo://app?vid=2a2c2ba3-f4e7-4476-b21e-559d75857b71"},"vehicle_type_id":"4","last_reported":1752131587,"current_range_meters":12800,"station_id":"ce4bhk92rcd13ifvqgb0","pricing_plan_id":"cebpf4jnsgd1na2vs0mg"},{"bike_id":"48d244b1-15a4-41aa-8fa0-959eaa2ee251","system_id":"levelo_inurba_marseille","lat":43.23178,"lon":5.39987,"is_reserved":false,"is_disabled":false,"rental_uris":{"android":"levelo://app?vid=48d244b1-15a4-41aa-8fa0-959eaa2ee251","ios":"levelo://app?vid=48d244b1-15a4-41aa-8fa0-959eaa2ee251"},"vehicle_type_id":"4","last_reported":1752131587,"current_range_meters":12800,"station_id":"ce4bhn12rcd13ifvqgqg","pricing_plan_id":"cebpf4jnsgd1na2vs0mg"},{"bike_id":"0da2e50b-e3ab-44cb-b548-ef7fa1e4a8e0","system_id":"levelo_inurba_marseille","lat":43.27936,"lon":5.41047,"is_reserved":false,"is_disabled":false,"rental_uris":{"android":"levelo://app?vid=0da2e50b-e3ab-44cb-b548-ef7fa1e4a8e0","ios":"levelo://app?vid=0da2e50b-e3ab-44cb-b548-ef7fa1e4a8e0"},"vehicle_type_id":"4","last_reported":1752131587,"current_range_meters":12800,"station_id":"ce4bhnp2rcd13ifvqh0g","pricing_plan_id":"cebpf4jnsgd1na2vs0mg"},{"bike_id":"ab7e1523-906d-4c39-a0d1-64bfa3e9b4f3","system_id":"levelo_inurba_marseille","lat":43.28698,"lon":5.40024,"is_reserved":false,"is_disabled":false,"rental_uris":{"android":"levelo://app?vid=ab7e1523-906d-4c39-a0d1-64bfa3e9b4f3","ios":"levelo://app?vid=ab7e1523-906d-4c39-a0d1-64bfa3e9b4f3"},"vehicle_type_id":"4","last_reported":1752131587,"current_range_meters":12800,"station_id":"ce4bho92rcd13ifvqh3g","pricing_plan_id":"cebpf4jnsgd1na2vs0mg"},{"bike_id":"f332e000-93b0-43bc-9c83-504d0a1a53c4","system_id":"levelo_inurba_marseille","lat":43.30541,"lon":5.36707,"is_reserved":false,"is_disabled":false,"rental_uris":{"android":"levelo://app?vid=f332e000-93b0-43bc-9c83-504d0a1a53c4","ios":"levelo://app?vid=f332e000-93b0-43bc-9c83-504d0a1a53c4"},"vehicle_type_id":"4","last_reported":1752131587,"current_range_meters":13600,"station_id":"ce4bgrp2rcd13ifvqc9g","pricing_plan_id":"cebpf4jnsgd1na2vs0mg"},{"bike_id":"6e93340a-10fb-42ac-b2a9-fb75920a6378","system_id":"levelo_inurba_marseille","lat":43.30889,"lon":5.37201,"is_reserved":false,"is_disabled":false,"rental_uris":{"android":"levelo://app?vid=6e93340a-10fb-42ac-b2a9-fb75920a6378","ios":"levelo://app?vid=6e93340a-10fb-42ac-b2a9-fb75920a6378"},"vehicle_type_id":"4","last_reported":1752131587,"current_range_meters":13600,"station_id":"ce4bguh2rcd13ifvqckg","pricing_plan_id":"cebpf4jnsgd1na2vs0mg"},{"bike_id":"8acdb9dc-21c6-48a7-b3bd-b27bcbed7a95","system_id":"levelo_inurba_marseille","lat":43.29041,"lon":5.39951,"is_reserved":false,"is_disabled":false,"rental_uris":{"android":"levelo://app?vid=8acdb9dc-21c6-48a7-b3bd-b27bcbed7a95","ios":"levelo://app?vid=8acdb9dc-21c6-48a7-b3bd-b27bcbed7a95"},"vehicle_type_id":"4","last_reported":1752131587,"current_range_meters":13600,"station_id":"ce4bh392rcd13ifvqdm0","pricing_plan_id":"cebpf4jnsgd1na2vs0mg"},{"bike_id":"5bcdf73e-ccd6-4100-9c8c-fafedda18047","system_id":"levelo_inurba_marseille","lat":43.2594,"lon":5.40902,"is_reserved":false,"is_disabled":false,"rental_uris":{"android":"levelo://app?vid=5bcdf73e-ccd6-4100-9c8c-fafedda18047","ios":"levelo://app?vid=5bcdf73e-ccd6-4100-9c8c-fafedda18047"},"vehicle_type_id":"4","last_reported":1752131587,"current_range_meters":13600,"station_id":"ce4bhm92rcd13ifvqglg","pricing_plan_id":"cebpf4jnsgd1na2vs0mg"},{"bike_id":"df65b34d-3a38-443a-92d6-077a6115de9f","system_id":"levelo_inurba_marseille","lat":43.2417,"lon":5.36393,"is_reserved":false,"is_disabled":false,"rental_uris":{"android":"levelo://app?vid=df65b34d-3a38-443a-92d6-077a6115de9f","ios":"levelo://app?vid=df65b34d-3a38-443a-92d6-077a6115de9f"},"vehicle_type_id":"4","last_reported":1752131587,"current_range_meters":13600,"station_id":"cpo36qri1sfpv3e86is0","pricing_plan_id":"cebpf4jnsgd1na2vs0mg"},{"bike_id":"3a7ebaa5-6bea-427a-aab6-01e63b5da9a6","system_id":"levelo_inurba_marseille","lat":43.27971,"lon":5.38731,"is_reserved":false,"is_disabled":false,"rental_uris":{"android":"levelo://app?vid=3a7ebaa5-6bea-427a-aab6-01e63b5da9a6","ios":"levelo://app?vid=3a7ebaa5-6bea-427a-aab6-01e63b5da9a6"},"vehicle_type_id":"4","last_reported":1752131587,"current_range_meters":14000,"station_id":"ce4bhg12rcd13ifvqf80","pricing_plan_id":"cebpf4jnsgd1na2vs0mg"},{"bike_id":"449ed129-2f06-47da-936f-6e63a3609258","system_id":"levelo_inurba_marseille","lat":43.23191,"lon":5.35545,"is_reserved":false,"is_disabled":false,"rental_uris":{"android":"levelo://app?vid=449ed129-2f06-47da-936f-6e63a3609258","ios":"levelo://app?vid=449ed129-2f06-47da-936f-6e63a3609258"},"vehicle_type_id":"4","last_reported":1752131587,"current_range_meters":14000,"station_id":"ce4bhu92rcd13ifvqi70","pricing_plan_id":"cebpf4jnsgd1na2vs0mg"},{"bike_id":"515924d6-a6cc-4a36-ae6a-7b046338b2fb","system_id":"levelo_inurba_marseille","lat":43.25116,"lon":5.40336,"is_reserved":false,"is_disabled":false,"rental_uris":{"android":"levelo://app?vid=515924d6-a6cc-4a36-ae6a-7b046338b2fb","ios":"levelo://app?vid=515924d6-a6cc-4a36-ae6a-7b046338b2fb"},"vehicle_type_id":"4","last_reported":1752131587,"current_range_meters":14400,"station_id":"ce4bhlh2rcd13ifvqgig","pricing_plan_id":"cebpf4jnsgd1na2vs0mg"},{"bike_id":"a2d7369c-25ee-4e77-9dea-d1b3bb57b8c0","system_id":"levelo_inurba_marseille","lat":43.28706,"lon":5.39995,"is_reserved":false,"is_disabled":false,"rental_uris":{"android":"levelo://app?vid=a2d7369c-25ee-4e77-9dea-d1b3bb57b8c0","ios":"levelo://app?vid=a2d7369c-25ee-4e77-9dea-d1b3bb57b8c0"},"vehicle_type_id":"4","last_reported":1752131587,"current_range_meters":14400,"station_id":"ce4bho92rcd13ifvqh3g","pricing_plan_id":"cebpf4jnsgd1na2vs0mg"},{"bike_id":"36c387ea-be50-4028-8ecc-21605fe3e879","system_id":"levelo_inurba_marseille","lat":43.293453,"lon":5.428174,"is_reserved":false,"is_disabled":false,"rental_uris":{"android":"levelo://app?vid=36c387ea-be50-4028-8ecc-21605fe3e879","ios":"levelo://app?vid=36c387ea-be50-4028-8ecc-21605fe3e879"},"vehicle_type_id":"4","last_reported":1752131587,"current_range_meters":14800,"station_id":"","pricing_plan_id":"cebpf4jnsgd1na2vs0mg"},{"bike_id":"bf9e85a4-d185-43c1-ad21-f42cf123275c","system_id":"levelo_inurba_marseille","lat":43.240725,"lon":5.377505,"is_reserved":false,"is_disabled":false,"rental_uris":{"android":"levelo://app?vid=bf9e85a4-d185-43c1-ad21-f42cf123275c","ios":"levelo://app?vid=bf9e85a4-d185-43c1-ad21-f42cf123275c"},"vehicle_type_id":"4","last_reported":1752131587,"current_range_meters":14800,"station_id":"ce4bhnp2rcd13ifvqgvg","pricing_plan_id":"cebpf4jnsgd1na2vs0mg"},{"bike_id":"8469f67b-5dff-42f1-9d24-0a69a7c8f643","system_id":"levelo_inurba_marseille","lat":43.32281,"lon":5.38277,"is_reserved":false,"is_disabled":false,"rental_uris":{"android":"levelo://app?vid=8469f67b-5dff-42f1-9d24-0a69a7c8f643","ios":"levelo://app?vid=8469f67b-5dff-42f1-9d24-0a69a7c8f643"},"vehicle_type_id":"4","last_reported":1752131587,"current_range_meters":14800,"station_id":"ce4bhr12rcd13ifvqhqg","pricing_plan_id":"cebpf4jnsgd1na2vs0mg"},{"bike_id":"73fe94e8-74f9-41f0-85e9-7d8c52adf2fc","system_id":"levelo_inurba_marseille","lat":43.212672,"lon":5.352898,"is_reserved":false,"is_disabled":false,"rental_uris":{"android":"levelo://app?vid=73fe94e8-74f9-41f0-85e9-7d8c52adf2fc","ios":"levelo://app?vid=73fe94e8-74f9-41f0-85e9-7d8c52adf2fc"},"vehicle_type_id":"4","last_reported":1752131587,"current_range_meters":15200,"station_id":"","pricing_plan_id":"cebpf4jnsgd1na2vs0mg"},{"bike_id":"8ca45c74-f4f4-45f6-a663-ab15559414b1","system_id":"levelo_inurba_marseille","lat":43.27619,"lon":5.36107,"is_reserved":false,"is_disabled":false,"rental_uris":{"android":"levelo://app?vid=8ca45c74-f4f4-45f6-a663-ab15559414b1","ios":"levelo://app?vid=8ca45c74-f4f4-45f6-a663-ab15559414b1"},"vehicle_type_id":"4","last_reported":1752131587,"current_range_meters":15200,"station_id":"ce4bgj92rcd13ifvqbe0","pricing_plan_id":"cebpf4jnsgd1na2vs0mg"},{"bike_id":"b540a757-5018-4045-a161-7dd9642cea96","system_id":"levelo_inurba_marseille","lat":43.31336,"lon":5.36721,"is_reserved":false,"is_disabled":false,"rental_uris":{"android":"levelo://app?vid=b540a757-5018-4045-a161-7dd9642cea96","ios":"levelo://app?vid=b540a757-5018-4045-a161-7dd9642cea96"},"vehicle_type_id":"4","last_reported":1752131587,"current_range_meters":15200,"station_id":"ce4bgr92rcd13ifvqc6g","pricing_plan_id":"cebpf4jnsgd1na2vs0mg"},{"bike_id":"7b5cd6ce-df57-4328-854d-cb2d1407ab18","system_id":"levelo_inurba_marseille","lat":43.33021,"lon":5.39071,"is_reserved":false,"is_disabled":false,"rental_uris":{"android":"levelo://app?vid=7b5cd6ce-df57-4328-854d-cb2d1407ab18","ios":"levelo://app?vid=7b5cd6ce-df57-4328-854d-cb2d1407ab18"},"vehicle_type_id":"4","last_reported":1752131587,"current_range_meters":15200,"station_id":"ce4bhr92rcd13ifvqhrg","pricing_plan_id":"cebpf4jnsgd1na2vs0mg"},{"bike_id":"87d13c3c-9453-4492-8a8f-f2b4c8e828c6","system_id":"levelo_inurba_marseille","lat":43.26177,"lon":5.37049,"is_reserved":false,"is_disabled":false,"rental_uris":{"android":"levelo://app?vid=87d13c3c-9453-4492-8a8f-f2b4c8e828c6","ios":"levelo://app?vid=87d13c3c-9453-4492-8a8f-f2b4c8e828c6"},"vehicle_type_id":"4","last_reported":1752131587,"current_range_meters":16000,"station_id":"","pricing_plan_id":"cebpf4jnsgd1na2vs0mg"},{"bike_id":"feaa7e3a-cbe4-4489-be11-8a12d7eec173","system_id":"levelo_inurba_marseille","lat":43.25167,"lon":5.42471,"is_reserved":false,"is_disabled":false,"rental_uris":{"android":"levelo://app?vid=feaa7e3a-cbe4-4489-be11-8a12d7eec173","ios":"levelo://app?vid=feaa7e3a-cbe4-4489-be11-8a12d7eec173"},"vehicle_type_id":"4","last_reported":1752131587,"current_range_meters":16000,"station_id":"","pricing_plan_id":"cebpf4jnsgd1na2vs0mg"},{"bike_id":"d3e8264f-5e78-41b8-b5b0-557e389e6623","system_id":"levelo_inurba_marseille","lat":43.31371,"lon":5.37159,"is_reserved":false,"is_disabled":false,"rental_uris":{"android":"levelo://app?vid=d3e8264f-5e78-41b8-b5b0-557e389e6623","ios":"levelo://app?vid=d3e8264f-5e78-41b8-b5b0-557e389e6623"},"vehicle_type_id":"4","last_reported":1752131587,"current_range_meters":16000,"station_id":"","pricing_plan_id":"cebpf4jnsgd1na2vs0mg"},{"bike_id":"173c3f1b-49ba-4b24-8f5e-0c0f92cf127b","system_id":"levelo_inurba_marseille","lat":43.28,"lon":5.4001,"is_reserved":false,"is_disabled":false,"rental_uris":{"android":"levelo://app?vid=173c3f1b-49ba-4b24-8f5e-0c0f92cf127b","ios":"levelo://app?vid=173c3f1b-49ba-4b24-8f5e-0c0f92cf127b"},"vehicle_type_id":"4","last_reported":1752131587,"current_range_meters":16000,"station_id":"ce4bho92rcd13ifvqh4g","pricing_plan_id":"cebpf4jnsgd1na2vs0mg"},{"bike_id":"07e23da8-1aab-44d7-8d40-309109ee0205","system_id":"levelo_inurba_marseille","lat":43.32353,"lon":5.36748,"is_reserved":false,"is_disabled":false,"rental_uris":{"android":"levelo://app?vid=07e23da8-1aab-44d7-8d40-309109ee0205","ios":"levelo://app?vid=07e23da8-1aab-44d7-8d40-309109ee0205"},"vehicle_type_id":"4","last_reported":1752131587,"current_range_meters":16000,"station_id":"ce4bhsh2rcd13ifvqi2g","pricing_plan_id":"cebpf4jnsgd1na2vs0mg"},{"bike_id":"069759f3-8488-4973-b337-5e447fc27e24","system_id":"levelo_inurba_marseille","lat":43.211935,"lon":5.350684,"is_reserved":false,"is_disabled":false,"rental_uris":{"android":"levelo://app?vid=069759f3-8488-4973-b337-5e447fc27e24","ios":"levelo://app?vid=069759f3-8488-4973-b337-5e447fc27e24"},"vehicle_type_id":"4","last_reported":1752131587,"current_range_meters":16000,"station_id":"st_cvj6sg6p6f1abm77japg","pricing_plan_id":"cebpf4jnsgd1na2vs0mg"},{"bike_id":"4c36c8b2-241f-4b9f-8864-958ca40e2121","system_id":"levelo_inurba_marseille","lat":43.295787,"lon":5.3749,"is_reserved":false,"is_disabled":false,"rental_uris":{"android":"levelo://app?vid=4c36c8b2-241f-4b9f-8864-958ca40e2121","ios":"levelo://app?vid=4c36c8b2-241f-4b9f-8864-958ca40e2121"},"vehicle_type_id":"4","last_reported":1752131587,"current_range_meters":16400,"station_id":"ce4bgh92rcd13ifvqb50","pricing_plan_id":"cebpf4jnsgd1na2vs0mg"},{"bike_id":"c81bc423-63d5-4db4-a425-18a065cb481d","system_id":"levelo_inurba_marseille","lat":43.29781,"lon":5.37069,"is_reserved":false,"is_disabled":false,"rental_uris":{"android":"levelo://app?vid=c81bc423-63d5-4db4-a425-18a065cb481d","ios":"levelo://app?vid=c81bc423-63d5-4db4-a425-18a065cb481d"},"vehicle_type_id":"4","last_reported":1752131587,"current_range_meters":16400,"station_id":"ce4bgop2rcd13ifvqc1g","pricing_plan_id":"cebpf4jnsgd1na2vs0mg"},{"bike_id":"1e421ed6-4fd2-444a-9fe9-6e933b537944","system_id":"levelo_inurba_marseille","lat":43.3149,"lon":5.37301,"is_reserved":false,"is_disabled":false,"rental_uris":{"android":"levelo://app?vid=1e421ed6-4fd2-444a-9fe9-6e933b537944","ios":"levelo://app?vid=1e421ed6-4fd2-444a-9fe9-6e933b537944"},"vehicle_type_id":"4","last_reported":1752131587,"current_range_meters":16400,"station_id":"ce4bgt12rcd13ifvqcd0","pricing_plan_id":"cebpf4jnsgd1na2vs0mg"},{"bike_id":"52e4db9b-1eef-4d6a-8a35-9863bea33b78","system_id":"levelo_inurba_marseille","lat":43.26495,"lon":5.39546,"is_reserved":false,"is_disabled":false,"rental_uris":{"android":"levelo://app?vid=52e4db9b-1eef-4d6a-8a35-9863bea33b78","ios":"levelo://app?vid=52e4db9b-1eef-4d6a-8a35-9863bea33b78"},"vehicle_type_id":"4","last_reported":1752131587,"current_range_meters":16400,"station_id":"ce4bhi12rcd13ifvqfq0","pricing_plan_id":"cebpf4jnsgd1na2vs0mg"},{"bike_id":"faaab940-0be7-4848-b168-5dee72a7f61d","system_id":"levelo_inurba_marseille","lat":43.30424,"lon":5.41278,"is_reserved":false,"is_disabled":false,"rental_uris":{"android":"levelo://app?vid=faaab940-0be7-4848-b168-5dee72a7f61d","ios":"levelo://app?vid=faaab940-0be7-4848-b168-5dee72a7f61d"},"vehicle_type_id":"4","last_reported":1752131587,"current_range_meters":16400,"station_id":"ce4bhop2rcd13ifvqh8g","pricing_plan_id":"cebpf4jnsgd1na2vs0mg"},{"bike_id":"f373e4a8-33e3-4f72-ae8e-e7ab386910f4","system_id":"levelo_inurba_marseille","lat":43.22516,"lon":5.34775,"is_reserved":false,"is_disabled":false,"rental_uris":{"android":"levelo://app?vid=f373e4a8-33e3-4f72-ae8e-e7ab386910f4","ios":"levelo://app?vid=f373e4a8-33e3-4f72-ae8e-e7ab386910f4"},"vehicle_type_id":"4","last_reported":1752131587,"current_range_meters":16400,"station_id":"st_cvj5dfep6f1abm77gieg","pricing_plan_id":"cebpf4jnsgd1na2vs0mg"},{"bike_id":"9f5e74ce-2459-4c6f-a171-f6d1e8a1ed83","system_id":"levelo_inurba_marseille","lat":43.318564,"lon":5.37561,"is_reserved":false,"is_disabled":false,"rental_uris":{"android":"levelo://app?vid=9f5e74ce-2459-4c6f-a171-f6d1e8a1ed83","ios":"levelo://app?vid=9f5e74ce-2459-4c6f-a171-f6d1e8a1ed83"},"vehicle_type_id":"4","last_reported":1752131587,"current_range_meters":16800,"station_id":"","pricing_plan_id":"cebpf4jnsgd1na2vs0mg"},{"bike_id":"2c64ba4a-afe6-4331-bd5a-f8a563f672ee","system_id":"levelo_inurba_marseille","lat":43.29851,"lon":5.36282,"is_reserved":false,"is_disabled":false,"rental_uris":{"android":"levelo://app?vid=2c64ba4a-afe6-4331-bd5a-f8a563f672ee","ios":"levelo://app?vid=2c64ba4a-afe6-4331-bd5a-f8a563f672ee"},"vehicle_type_id":"4","last_reported":1752131587,"current_range_meters":16800,"station_id":"ce4bgpp2rcd13ifvqc3g","pricing_plan_id":"cebpf4jnsgd1na2vs0mg"},{"bike_id":"94c094f4-edea-46bf-a462-8e637801e43c","system_id":"levelo_inurba_marseille","lat":43.30426,"lon":5.4129,"is_reserved":false,"is_disabled":false,"rental_uris":{"android":"levelo://app?vid=94c094f4-edea-46bf-a462-8e637801e43c","ios":"levelo://app?vid=94c094f4-edea-46bf-a462-8e637801e43c"},"vehicle_type_id":"4","last_reported":1752131587,"current_range_meters":16800,"station_id":"ce4bhop2rcd13ifvqh8g","pricing_plan_id":"cebpf4jnsgd1na2vs0mg"},{"bike_id":"185afeba-d808-4e02-a0a9-f1c6681a8cc4","system_id":"levelo_inurba_marseille","lat":43.31762,"lon":5.39028,"is_reserved":false,"is_disabled":false,"rental_uris":{"android":"levelo://app?vid=185afeba-d808-4e02-a0a9-f1c6681a8cc4","ios":"levelo://app?vid=185afeba-d808-4e02-a0a9-f1c6681a8cc4"},"vehicle_type_id":"4","last_reported":1752131587,"current_range_meters":16800,"station_id":"ce4bhqp2rcd13ifvqhng","pricing_plan_id":"cebpf4jnsgd1na2vs0mg"},{"bike_id":"fa87fcb5-aacb-41a1-a789-0296bbd02085","system_id":"levelo_inurba_marseille","lat":43.245823,"lon":5.373777,"is_reserved":false,"is_disabled":false,"rental_uris":{"android":"levelo://app?vid=fa87fcb5-aacb-41a1-a789-0296bbd02085","ios":"levelo://app?vid=fa87fcb5-aacb-41a1-a789-0296bbd02085"},"vehicle_type_id":"4","last_reported":1752131587,"current_range_meters":17200,"station_id":"","pricing_plan_id":"cebpf4jnsgd1na2vs0mg"},{"bike_id":"4e209b0c-855f-4b51-8120-2faef8673853","system_id":"levelo_inurba_marseille","lat":43.30629,"lon":5.36897,"is_reserved":false,"is_disabled":false,"rental_uris":{"android":"levelo://app?vid=4e209b0c-855f-4b51-8120-2faef8673853","ios":"levelo://app?vid=4e209b0c-855f-4b51-8120-2faef8673853"},"vehicle_type_id":"4","last_reported":1752131587,"current_range_meters":17200,"station_id":"","pricing_plan_id":"cebpf4jnsgd1na2vs0mg"},{"bike_id":"876b58a3-c315-4f79-800c-f84083bcbaed","system_id":"levelo_inurba_marseille","lat":43.30554,"lon":5.36557,"is_reserved":false,"is_disabled":false,"rental_uris":{"android":"levelo://app?vid=876b58a3-c315-4f79-800c-f84083bcbaed","ios":"levelo://app?vid=876b58a3-c315-4f79-800c-f84083bcbaed"},"vehicle_type_id":"4","last_reported":1752131587,"current_range_meters":17200,"station_id":"ce4bgs12rcd13ifvqcag","pricing_plan_id":"cebpf4jnsgd1na2vs0mg"},{"bike_id":"682e84a6-d01b-4532-8111-d4f82d7c4244","system_id":"levelo_inurba_marseille","lat":43.30949,"lon":5.39037,"is_reserved":false,"is_disabled":false,"rental_uris":{"android":"levelo://app?vid=682e84a6-d01b-4532-8111-d4f82d7c4244","ios":"levelo://app?vid=682e84a6-d01b-4532-8111-d4f82d7c4244"},"vehicle_type_id":"4","last_reported":1752131587,"current_range_meters":17200,"station_id":"ce4bgup2rcd13ifvqco0","pricing_plan_id":"cebpf4jnsgd1na2vs0mg"},{"bike_id":"02f35ba9-8e3f-474c-9606-66376e7acff4","system_id":"levelo_inurba_marseille","lat":43.26787,"lon":5.39417,"is_reserved":false,"is_disabled":false,"rental_uris":{"android":"levelo://app?vid=02f35ba9-8e3f-474c-9606-66376e7acff4","ios":"levelo://app?vid=02f35ba9-8e3f-474c-9606-66376e7acff4"},"vehicle_type_id":"4","last_reported":1752131587,"current_range_meters":17200,"station_id":"ce4bhh12rcd13ifvqfg0","pricing_plan_id":"cebpf4jnsgd1na2vs0mg"},{"bike_id":"7dd4258d-8fe1-466b-bba8-036a896c4262","system_id":"levelo_inurba_marseille","lat":43.2324,"lon":5.35484,"is_reserved":false,"is_disabled":false,"rental_uris":{"android":"levelo://app?vid=7dd4258d-8fe1-466b-bba8-036a896c4262","ios":"levelo://app?vid=7dd4258d-8fe1-466b-bba8-036a896c4262"},"vehicle_type_id":"4","last_reported":1752131587,"current_range_meters":17200,"station_id":"ce4bhu92rcd13ifvqi70","pricing_plan_id":"cebpf4jnsgd1na2vs0mg"},{"bike_id":"f0a2192f-8d3a-482d-a043-32b763a8959f","system_id":"levelo_inurba_marseille","lat":43.25451,"lon":5.37946,"is_reserved":false,"is_disabled":false,"rental_uris":{"android":"levelo://app?vid=f0a2192f-8d3a-482d-a043-32b763a8959f","ios":"levelo://app?vid=f0a2192f-8d3a-482d-a043-32b763a8959f"},"vehicle_type_id":"4","last_reported":1752131587,"current_range_meters":17600,"station_id":"","pricing_plan_id":"cebpf4jnsgd1na2vs0mg"},{"bike_id":"c7bc0b85-c966-4913-8908-15a71d65944b","system_id":"levelo_inurba_marseille","lat":43.35467,"lon":5.35746,"is_reserved":false,"is_disabled":false,"rental_uris":{"android":"levelo://app?vid=c7bc0b85-c966-4913-8908-15a71d65944b","ios":"levelo://app?vid=c7bc0b85-c966-4913-8908-15a71d65944b"},"vehicle_type_id":"4","last_reported":1752131587,"current_range_meters":17600,"station_id":"","pricing_plan_id":"cebpf4jnsgd1na2vs0mg"},{"bike_id":"bd5228ab-002e-4f81-bbd3-2baf5452f591","system_id":"levelo_inurba_marseille","lat":43.278133,"lon":5.414478,"is_reserved":false,"is_disabled":false,"rental_uris":{"android":"levelo://app?vid=bd5228ab-002e-4f81-bbd3-2baf5452f591","ios":"levelo://app?vid=bd5228ab-002e-4f81-bbd3-2baf5452f591"},"vehicle_type_id":"4","last_reported":1752131587,"current_range_meters":17600,"station_id":"","pricing_plan_id":"cebpf4jnsgd1na2vs0mg"},{"bike_id":"25fe57e6-54c4-47ed-83f2-52afb97f1a19","system_id":"levelo_inurba_marseille","lat":43.29605,"lon":5.38106,"is_reserved":false,"is_disabled":false,"rental_uris":{"android":"levelo://app?vid=25fe57e6-54c4-47ed-83f2-52afb97f1a19","ios":"levelo://app?vid=25fe57e6-54c4-47ed-83f2-52afb97f1a19"},"vehicle_type_id":"4","last_reported":1752131587,"current_range_meters":17600,"station_id":"ce4bgl12rcd13ifvqbo0","pricing_plan_id":"cebpf4jnsgd1na2vs0mg"},{"bike_id":"a8ffd811-9e5f-44f4-ad89-760ba78ca1c6","system_id":"levelo_inurba_marseille","lat":43.30888,"lon":5.37197,"is_reserved":false,"is_disabled":false,"rental_uris":{"android":"levelo://app?vid=a8ffd811-9e5f-44f4-ad89-760ba78ca1c6","ios":"levelo://app?vid=a8ffd811-9e5f-44f4-ad89-760ba78ca1c6"},"vehicle_type_id":"4","last_reported":1752131587,"current_range_meters":17600,"station_id":"ce4bguh2rcd13ifvqckg","pricing_plan_id":"cebpf4jnsgd1na2vs0mg"},{"bike_id":"61482c09-8f41-4aa6-9288-4c51e2fa526f","system_id":"levelo_inurba_marseille","lat":43.30947,"lon":5.39036,"is_reserved":false,"is_disabled":false,"rental_uris":{"android":"levelo://app?vid=61482c09-8f41-4aa6-9288-4c51e2fa526f","ios":"levelo://app?vid=61482c09-8f41-4aa6-9288-4c51e2fa526f"},"vehicle_type_id":"4","last_reported":1752131587,"current_range_meters":17600,"station_id":"ce4bgup2rcd13ifvqco0","pricing_plan_id":"cebpf4jnsgd1na2vs0mg"},{"bike_id":"b75fb033-0939-4068-92f3-9a2dd8b24a31","system_id":"levelo_inurba_marseille","lat":43.29053,"lon":5.37706,"is_reserved":false,"is_disabled":false,"rental_uris":{"android":"levelo://app?vid=b75fb033-0939-4068-92f3-9a2dd8b24a31","ios":"levelo://app?vid=b75fb033-0939-4068-92f3-9a2dd8b24a31"},"vehicle_type_id":"4","last_reported":1752131587,"current_range_meters":17600,"station_id":"ce4bh692rcd13ifvqe90","pricing_plan_id":"cebpf4jnsgd1na2vs0mg"},{"bike_id":"aea8d665-2d91-46d6-a00b-d6caf3043c90","system_id":"levelo_inurba_marseille","lat":43.2593,"lon":5.40891,"is_reserved":false,"is_disabled":false,"rental_uris":{"android":"levelo://app?vid=aea8d665-2d91-46d6-a00b-d6caf3043c90","ios":"levelo://app?vid=aea8d665-2d91-46d6-a00b-d6caf3043c90"},"vehicle_type_id":"4","last_reported":1752131587,"current_range_meters":17600,"station_id":"ce4bhm92rcd13ifvqglg","pricing_plan_id":"cebpf4jnsgd1na2vs0mg"},{"bike_id":"a5a6c2c1-2d48-4581-8647-6eab6c0bbb54","system_id":"levelo_inurba_marseille","lat":43.263554,"lon":5.373803,"is_reserved":false,"is_disabled":false,"rental_uris":{"android":"levelo://app?vid=a5a6c2c1-2d48-4581-8647-6eab6c0bbb54","ios":"levelo://app?vid=a5a6c2c1-2d48-4581-8647-6eab6c0bbb54"},"vehicle_type_id":"4","last_reported":1752131587,"current_range_meters":18000,"station_id":"","pricing_plan_id":"cebpf4jnsgd1na2vs0mg"},{"bike_id":"24b17f7b-dff1-4936-b27a-7c2c6813a894","system_id":"levelo_inurba_marseille","lat":43.24577,"lon":5.37377,"is_reserved":false,"is_disabled":false,"rental_uris":{"android":"levelo://app?vid=24b17f7b-dff1-4936-b27a-7c2c6813a894","ios":"levelo://app?vid=24b17f7b-dff1-4936-b27a-7c2c6813a894"},"vehicle_type_id":"4","last_reported":1752131587,"current_range_meters":18000,"station_id":"","pricing_plan_id":"cebpf4jnsgd1na2vs0mg"},{"bike_id":"55eb3ee3-207d-45c9-a356-7e275a6ee08e","system_id":"levelo_inurba_marseille","lat":43.322208,"lon":5.407363,"is_reserved":false,"is_disabled":false,"rental_uris":{"android":"levelo://app?vid=55eb3ee3-207d-45c9-a356-7e275a6ee08e","ios":"levelo://app?vid=55eb3ee3-207d-45c9-a356-7e275a6ee08e"},"vehicle_type_id":"4","last_reported":1752131587,"current_range_meters":18000,"station_id":"ce4bh092rcd13ifvqd30","pricing_plan_id":"cebpf4jnsgd1na2vs0mg"},{"bike_id":"fe910ec4-e73b-42a2-b416-c150717d4aa4","system_id":"levelo_inurba_marseille","lat":43.28951,"lon":5.39637,"is_reserved":false,"is_disabled":false,"rental_uris":{"android":"levelo://app?vid=fe910ec4-e73b-42a2-b416-c150717d4aa4","ios":"levelo://app?vid=fe910ec4-e73b-42a2-b416-c150717d4aa4"},"vehicle_type_id":"4","last_reported":1752131587,"current_range_meters":18000,"station_id":"ce4bh3h2rcd13ifvqdn0","pricing_plan_id":"cebpf4jnsgd1na2vs0mg"},{"bike_id":"4ec54698-7b32-44e8-97e0-9b665fec46b3","system_id":"levelo_inurba_marseille","lat":43.27839,"lon":5.392,"is_reserved":false,"is_disabled":false,"rental_uris":{"android":"levelo://app?vid=4ec54698-7b32-44e8-97e0-9b665fec46b3","ios":"levelo://app?vid=4ec54698-7b32-44e8-97e0-9b665fec46b3"},"vehicle_type_id":"4","last_reported":1752131587,"current_range_meters":18000,"station_id":"ce4bhjp2rcd13ifvqga0","pricing_plan_id":"cebpf4jnsgd1na2vs0mg"},{"bike_id":"885a4f7a-b630-4979-8079-f23273e8b02f","system_id":"levelo_inurba_marseille","lat":43.241757,"lon":5.397261,"is_reserved":false,"is_disabled":false,"rental_uris":{"android":"levelo://app?vid=885a4f7a-b630-4979-8079-f23273e8b02f","ios":"levelo://app?vid=885a4f7a-b630-4979-8079-f23273e8b02f"},"vehicle_type_id":"4","last_reported":1752131587,"current_range_meters":18000,"station_id":"ce4bhn12rcd13ifvqgpg","pricing_plan_id":"cebpf4jnsgd1na2vs0mg"},{"bike_id":"8f89e4f3-495a-4317-bd6d-37a19186d65b","system_id":"levelo_inurba_marseille","lat":43.337279,"lon":5.39192,"is_reserved":false,"is_disabled":false,"rental_uris":{"android":"levelo://app?vid=8f89e4f3-495a-4317-bd6d-37a19186d65b","ios":"levelo://app?vid=8f89e4f3-495a-4317-bd6d-37a19186d65b"},"vehicle_type_id":"4","last_reported":1752131587,"current_range_meters":18000,"station_id":"ce4bhr92rcd13ifvqhsg","pricing_plan_id":"cebpf4jnsgd1na2vs0mg"},{"bike_id":"1eadb67a-553f-4268-a33e-3500524f5528","system_id":"levelo_inurba_marseille","lat":43.30737,"lon":5.4243,"is_reserved":false,"is_disabled":false,"rental_uris":{"android":"levelo://app?vid=1eadb67a-553f-4268-a33e-3500524f5528","ios":"levelo://app?vid=1eadb67a-553f-4268-a33e-3500524f5528"},"vehicle_type_id":"4","last_reported":1752131587,"current_range_meters":18000,"station_id":"st_cvj6ca6bvosntc0bfgr0","pricing_plan_id":"cebpf4jnsgd1na2vs0mg"},{"bike_id":"ee1ac907-8623-4d00-ac01-d41dd90be9fe","system_id":"levelo_inurba_marseille","lat":43.211929,"lon":5.350705,"is_reserved":false,"is_disabled":false,"rental_uris":{"android":"levelo://app?vid=ee1ac907-8623-4d00-ac01-d41dd90be9fe","ios":"levelo://app?vid=ee1ac907-8623-4d00-ac01-d41dd90be9fe"},"vehicle_type_id":"4","last_reported":1752131587,"current_range_meters":18000,"station_id":"st_cvj6sg6p6f1abm77japg","pricing_plan_id":"cebpf4jnsgd1na2vs0mg"},{"bike_id":"5126538c-e379-41f9-b8aa-b60309da16d4","system_id":"levelo_inurba_marseille","lat":43.29851,"lon":5.36278,"is_reserved":false,"is_disabled":false,"rental_uris":{"android":"levelo://app?vid=5126538c-e379-41f9-b8aa-b60309da16d4","ios":"levelo://app?vid=5126538c-e379-41f9-b8aa-b60309da16d4"},"vehicle_type_id":"4","last_reported":1752131587,"current_range_meters":18800,"station_id":"ce4bgpp2rcd13ifvqc3g","pricing_plan_id":"cebpf4jnsgd1na2vs0mg"},{"bike_id":"cccf4131-c60a-4535-b8ba-ad36ea8514fd","system_id":"levelo_inurba_marseille","lat":43.31356,"lon":5.36715,"is_reserved":false,"is_disabled":false,"rental_uris":{"android":"levelo://app?vid=cccf4131-c60a-4535-b8ba-ad36ea8514fd","ios":"levelo://app?vid=cccf4131-c60a-4535-b8ba-ad36ea8514fd"},"vehicle_type_id":"4","last_reported":1752131587,"current_range_meters":18800,"station_id":"ce4bgr92rcd13ifvqc6g","pricing_plan_id":"cebpf4jnsgd1na2vs0mg"},{"bike_id":"3c3dc6e9-98ad-44f1-bfbf-ee6f463dbb10","system_id":"levelo_inurba_marseille","lat":43.30631,"lon":5.40088,"is_reserved":false,"is_disabled":false,"rental_uris":{"android":"levelo://app?vid=3c3dc6e9-98ad-44f1-bfbf-ee6f463dbb10","ios":"levelo://app?vid=3c3dc6e9-98ad-44f1-bfbf-ee6f463dbb10"},"vehicle_type_id":"4","last_reported":1752131587,"current_range_meters":18800,"station_id":"ce4bh112rcd13ifvqda0","pricing_plan_id":"cebpf4jnsgd1na2vs0mg"},{"bike_id":"02fc3601-39c5-4918-8dbf-9e66a3baeb77","system_id":"levelo_inurba_marseille","lat":43.271733,"lon":5.409973,"is_reserved":false,"is_disabled":false,"rental_uris":{"android":"levelo://app?vid=02fc3601-39c5-4918-8dbf-9e66a3baeb77","ios":"levelo://app?vid=02fc3601-39c5-4918-8dbf-9e66a3baeb77"},"vehicle_type_id":"4","last_reported":1752131587,"current_range_meters":18800,"station_id":"ce4bhl12rcd13ifvqgf0","pricing_plan_id":"cebpf4jnsgd1na2vs0mg"},{"bike_id":"d39178c4-b7be-4d48-9ac4-b9c12a67227c","system_id":"levelo_inurba_marseille","lat":43.25943,"lon":5.40903,"is_reserved":false,"is_disabled":false,"rental_uris":{"android":"levelo://app?vid=d39178c4-b7be-4d48-9ac4-b9c12a67227c","ios":"levelo://app?vid=d39178c4-b7be-4d48-9ac4-b9c12a67227c"},"vehicle_type_id":"4","last_reported":1752131587,"current_range_meters":18800,"station_id":"ce4bhm92rcd13ifvqglg","pricing_plan_id":"cebpf4jnsgd1na2vs0mg"},{"bike_id":"386ac6c9-5fc7-4a38-b181-1cf955b205b5","system_id":"levelo_inurba_marseille","lat":43.25934,"lon":5.4091,"is_reserved":false,"is_disabled":false,"rental_uris":{"android":"levelo://app?vid=386ac6c9-5fc7-4a38-b181-1cf955b205b5","ios":"levelo://app?vid=386ac6c9-5fc7-4a38-b181-1cf955b205b5"},"vehicle_type_id":"4","last_reported":1752131587,"current_range_meters":18800,"station_id":"ce4bhm92rcd13ifvqglg","pricing_plan_id":"cebpf4jnsgd1na2vs0mg"},{"bike_id":"cc91f022-5f4f-478d-8287-995a3efb66d1","system_id":"levelo_inurba_marseille","lat":43.262266,"lon":5.404533,"is_reserved":false,"is_disabled":false,"rental_uris":{"android":"levelo://app?vid=cc91f022-5f4f-478d-8287-995a3efb66d1","ios":"levelo://app?vid=cc91f022-5f4f-478d-8287-995a3efb66d1"},"vehicle_type_id":"4","last_reported":1752131587,"current_range_meters":18800,"station_id":"ce4bhmh2rcd13ifvqgmg","pricing_plan_id":"cebpf4jnsgd1na2vs0mg"},{"bike_id":"06149d83-500e-45ca-8e61-eff77bde7f9b","system_id":"levelo_inurba_marseille","lat":43.24183,"lon":5.39741,"is_reserved":false,"is_disabled":false,"rental_uris":{"android":"levelo://app?vid=06149d83-500e-45ca-8e61-eff77bde7f9b","ios":"levelo://app?vid=06149d83-500e-45ca-8e61-eff77bde7f9b"},"vehicle_type_id":"4","last_reported":1752131587,"current_range_meters":18800,"station_id":"ce4bhn12rcd13ifvqgpg","pricing_plan_id":"cebpf4jnsgd1na2vs0mg"},{"bike_id":"f693f630-d17c-46a9-b035-05e472a084af","system_id":"levelo_inurba_marseille","lat":43.31917,"lon":5.3732,"is_reserved":false,"is_disabled":false,"rental_uris":{"android":"levelo://app?vid=f693f630-d17c-46a9-b035-05e472a084af","ios":"levelo://app?vid=f693f630-d17c-46a9-b035-05e472a084af"},"vehicle_type_id":"4","last_reported":1752131587,"current_range_meters":19200,"station_id":"","pricing_plan_id":"cebpf4jnsgd1na2vs0mg"},{"bike_id":"88f769ff-a100-4dbb-af44-987642627754","system_id":"levelo_inurba_marseille","lat":43.30747,"lon":5.39994,"is_reserved":false,"is_disabled":false,"rental_uris":{"android":"levelo://app?vid=88f769ff-a100-4dbb-af44-987642627754","ios":"levelo://app?vid=88f769ff-a100-4dbb-af44-987642627754"},"vehicle_type_id":"4","last_reported":1752131587,"current_range_meters":19200,"station_id":"","pricing_plan_id":"cebpf4jnsgd1na2vs0mg"},{"bike_id":"968ef1e2-bd6f-4990-a4d5-72aa74f46d29","system_id":"levelo_inurba_marseille","lat":43.29301,"lon":5.37169,"is_reserved":false,"is_disabled":false,"rental_uris":{"android":"levelo://app?vid=968ef1e2-bd6f-4990-a4d5-72aa74f46d29","ios":"levelo://app?vid=968ef1e2-bd6f-4990-a4d5-72aa74f46d29"},"vehicle_type_id":"4","last_reported":1752131587,"current_range_meters":19200,"station_id":"ce4bgh92rcd13ifvqb40","pricing_plan_id":"cebpf4jnsgd1na2vs0mg"},{"bike_id":"a0419746-6e10-4f26-9315-4e5e1d9cd1d2","system_id":"levelo_inurba_marseille","lat":43.24388,"lon":5.37058,"is_reserved":false,"is_disabled":false,"rental_uris":{"android":"levelo://app?vid=a0419746-6e10-4f26-9315-4e5e1d9cd1d2","ios":"levelo://app?vid=a0419746-6e10-4f26-9315-4e5e1d9cd1d2"},"vehicle_type_id":"4","last_reported":1752131587,"current_range_meters":19200,"station_id":"ce4bhhh2rcd13ifvqfk0","pricing_plan_id":"cebpf4jnsgd1na2vs0mg"},{"bike_id":"a37c81c5-d096-4e6d-b1b3-5bbb8251fbd0","system_id":"levelo_inurba_marseille","lat":43.24382,"lon":5.37062,"is_reserved":false,"is_disabled":false,"rental_uris":{"android":"levelo://app?vid=a37c81c5-d096-4e6d-b1b3-5bbb8251fbd0","ios":"levelo://app?vid=a37c81c5-d096-4e6d-b1b3-5bbb8251fbd0"},"vehicle_type_id":"4","last_reported":1752131587,"current_range_meters":19200,"station_id":"ce4bhhh2rcd13ifvqfk0","pricing_plan_id":"cebpf4jnsgd1na2vs0mg"},{"bike_id":"a772997c-52b4-4655-afac-b63fc06c4a2e","system_id":"levelo_inurba_marseille","lat":43.285709,"lon":5.394975,"is_reserved":false,"is_disabled":false,"rental_uris":{"android":"levelo://app?vid=a772997c-52b4-4655-afac-b63fc06c4a2e","ios":"levelo://app?vid=a772997c-52b4-4655-afac-b63fc06c4a2e"},"vehicle_type_id":"4","last_reported":1752131587,"current_range_meters":19200,"station_id":"ce4bho12rcd13ifvqh2g","pricing_plan_id":"cebpf4jnsgd1na2vs0mg"},{"bike_id":"a3d06fdd-d90f-4da8-9200-8f61c005f0a2","system_id":"levelo_inurba_marseille","lat":43.22493,"lon":5.34764,"is_reserved":false,"is_disabled":false,"rental_uris":{"android":"levelo://app?vid=a3d06fdd-d90f-4da8-9200-8f61c005f0a2","ios":"levelo://app?vid=a3d06fdd-d90f-4da8-9200-8f61c005f0a2"},"vehicle_type_id":"4","last_reported":1752131587,"current_range_meters":19200,"station_id":"st_cvj5dfep6f1abm77gieg","pricing_plan_id":"cebpf4jnsgd1na2vs0mg"},{"bike_id":"4c20d321-0bc9-42d0-9308-79703d497ae9","system_id":"levelo_inurba_marseille","lat":43.284789,"lon":5.384169,"is_reserved":false,"is_disabled":false,"rental_uris":{"android":"levelo://app?vid=4c20d321-0bc9-42d0-9308-79703d497ae9","ios":"levelo://app?vid=4c20d321-0bc9-42d0-9308-79703d497ae9"},"vehicle_type_id":"4","last_reported":1752131587,"current_range_meters":19600,"station_id":"","pricing_plan_id":"cebpf4jnsgd1na2vs0mg"},{"bike_id":"192f87fb-a40e-42b6-8e72-2aa016633a35","system_id":"levelo_inurba_marseille","lat":43.29852,"lon":5.3628,"is_reserved":false,"is_disabled":false,"rental_uris":{"android":"levelo://app?vid=192f87fb-a40e-42b6-8e72-2aa016633a35","ios":"levelo://app?vid=192f87fb-a40e-42b6-8e72-2aa016633a35"},"vehicle_type_id":"4","last_reported":1752131587,"current_range_meters":19600,"station_id":"ce4bgpp2rcd13ifvqc3g","pricing_plan_id":"cebpf4jnsgd1na2vs0mg"},{"bike_id":"8d49e044-a43d-414c-a0fb-33c307b6d6e4","system_id":"levelo_inurba_marseille","lat":43.30142,"lon":5.37405,"is_reserved":false,"is_disabled":false,"rental_uris":{"android":"levelo://app?vid=8d49e044-a43d-414c-a0fb-33c307b6d6e4","ios":"levelo://app?vid=8d49e044-a43d-414c-a0fb-33c307b6d6e4"},"vehicle_type_id":"4","last_reported":1752131587,"current_range_meters":19600,"station_id":"ce4bgs92rcd13ifvqcc0","pricing_plan_id":"cebpf4jnsgd1na2vs0mg"},{"bike_id":"849676d6-b573-40d8-942a-11f45b203e43","system_id":"levelo_inurba_marseille","lat":43.30987,"lon":5.39023,"is_reserved":false,"is_disabled":false,"rental_uris":{"android":"levelo://app?vid=849676d6-b573-40d8-942a-11f45b203e43","ios":"levelo://app?vid=849676d6-b573-40d8-942a-11f45b203e43"},"vehicle_type_id":"4","last_reported":1752131587,"current_range_meters":19600,"station_id":"ce4bgup2rcd13ifvqco0","pricing_plan_id":"cebpf4jnsgd1na2vs0mg"},{"bike_id":"5fed4a51-b2c3-4531-bad4-91560fd34df4","system_id":"levelo_inurba_marseille","lat":43.28271,"lon":5.35046,"is_reserved":false,"is_disabled":false,"rental_uris":{"android":"levelo://app?vid=5fed4a51-b2c3-4531-bad4-91560fd34df4","ios":"levelo://app?vid=5fed4a51-b2c3-4531-bad4-91560fd34df4"},"vehicle_type_id":"4","last_reported":1752131587,"current_range_meters":19600,"station_id":"ce4bhbp2rcd13ifvqerg","pricing_plan_id":"cebpf4jnsgd1na2vs0mg"},{"bike_id":"b8cd50f2-4dd9-415d-9ee4-6aec216879f2","system_id":"levelo_inurba_marseille","lat":43.26685,"lon":5.38268,"is_reserved":false,"is_disabled":false,"rental_uris":{"android":"levelo://app?vid=b8cd50f2-4dd9-415d-9ee4-6aec216879f2","ios":"levelo://app?vid=b8cd50f2-4dd9-415d-9ee4-6aec216879f2"},"vehicle_type_id":"4","last_reported":1752131587,"current_range_meters":19600,"station_id":"ce4bhg92rcd13ifvqf90","pricing_plan_id":"cebpf4jnsgd1na2vs0mg"},{"bike_id":"29a0a180-d29f-4a4e-a71b-d1d9d42cb217","system_id":"levelo_inurba_marseille","lat":43.211908,"lon":5.350729,"is_reserved":false,"is_disabled":false,"rental_uris":{"android":"levelo://app?vid=29a0a180-d29f-4a4e-a71b-d1d9d42cb217","ios":"levelo://app?vid=29a0a180-d29f-4a4e-a71b-d1d9d42cb217"},"vehicle_type_id":"4","last_reported":1752131587,"current_range_meters":19600,"station_id":"st_cvj6sg6p6f1abm77japg","pricing_plan_id":"cebpf4jnsgd1na2vs0mg"},{"bike_id":"595e9351-a7ce-45de-8995-771f7d9fe86e","system_id":"levelo_inurba_marseille","lat":43.309243,"lon":5.378088,"is_reserved":false,"is_disabled":false,"rental_uris":{"android":"levelo://app?vid=595e9351-a7ce-45de-8995-771f7d9fe86e","ios":"levelo://app?vid=595e9351-a7ce-45de-8995-771f7d9fe86e"},"vehicle_type_id":"4","last_reported":1752131587,"current_range_meters":20000,"station_id":"","pricing_plan_id":"cebpf4jnsgd1na2vs0mg"},{"bike_id":"459b1709-f0d9-4318-b979-4c28c66c145d","system_id":"levelo_inurba_marseille","lat":43.29175,"lon":5.37147,"is_reserved":false,"is_disabled":false,"rental_uris":{"android":"levelo://app?vid=459b1709-f0d9-4318-b979-4c28c66c145d","ios":"levelo://app?vid=459b1709-f0d9-4318-b979-4c28c66c145d"},"vehicle_type_id":"4","last_reported":1752131587,"current_range_meters":20000,"station_id":"ce4bha92rcd13ifvqeh0","pricing_plan_id":"cebpf4jnsgd1na2vs0mg"},{"bike_id":"d30caf52-2397-4e7f-8fa4-abe2a7db27b2","system_id":"levelo_inurba_marseille","lat":43.25941,"lon":5.40896,"is_reserved":false,"is_disabled":false,"rental_uris":{"android":"levelo://app?vid=d30caf52-2397-4e7f-8fa4-abe2a7db27b2","ios":"levelo://app?vid=d30caf52-2397-4e7f-8fa4-abe2a7db27b2"},"vehicle_type_id":"4","last_reported":1752131587,"current_range_meters":20000,"station_id":"ce4bhm92rcd13ifvqglg","pricing_plan_id":"cebpf4jnsgd1na2vs0mg"},{"bike_id":"e3a75ee9-c614-467b-8cc2-f813bcef2ab1","system_id":"levelo_inurba_marseille","lat":43.33743,"lon":5.3919,"is_reserved":false,"is_disabled":false,"rental_uris":{"android":"levelo://app?vid=e3a75ee9-c614-467b-8cc2-f813bcef2ab1","ios":"levelo://app?vid=e3a75ee9-c614-467b-8cc2-f813bcef2ab1"},"vehicle_type_id":"4","last_reported":1752131587,"current_range_meters":20000,"station_id":"ce4bhr92rcd13ifvqhsg","pricing_plan_id":"cebpf4jnsgd1na2vs0mg"},{"bike_id":"cb8db05c-7ef4-4fcf-b321-cdc13d7cccad","system_id":"levelo_inurba_marseille","lat":43.29075,"lon":5.35585,"is_reserved":false,"is_disabled":false,"rental_uris":{"android":"levelo://app?vid=cb8db05c-7ef4-4fcf-b321-cdc13d7cccad","ios":"levelo://app?vid=cb8db05c-7ef4-4fcf-b321-cdc13d7cccad"},"vehicle_type_id":"4","last_reported":1752131587,"current_range_meters":20400,"station_id":"","pricing_plan_id":"cebpf4jnsgd1na2vs0mg"},{"bike_id":"de97fd03-7096-4dd6-afbf-d905dff46da8","system_id":"levelo_inurba_marseille","lat":43.31222,"lon":5.36851,"is_reserved":false,"is_disabled":false,"rental_uris":{"android":"levelo://app?vid=de97fd03-7096-4dd6-afbf-d905dff46da8","ios":"levelo://app?vid=de97fd03-7096-4dd6-afbf-d905dff46da8"},"vehicle_type_id":"4","last_reported":1752131587,"current_range_meters":20400,"station_id":"ce4bgl92rcd13ifvqbq0","pricing_plan_id":"cebpf4jnsgd1na2vs0mg"},{"bike_id":"23b37642-b108-4776-9368-34aa0142bdf9","system_id":"levelo_inurba_marseille","lat":43.29845,"lon":5.36265,"is_reserved":false,"is_disabled":false,"rental_uris":{"android":"levelo://app?vid=23b37642-b108-4776-9368-34aa0142bdf9","ios":"levelo://app?vid=23b37642-b108-4776-9368-34aa0142bdf9"},"vehicle_type_id":"4","last_reported":1752131587,"current_range_meters":20400,"station_id":"ce4bgpp2rcd13ifvqc3g","pricing_plan_id":"cebpf4jnsgd1na2vs0mg"},{"bike_id":"ccae9937-1437-4203-b13c-94454cbc75f5","system_id":"levelo_inurba_marseille","lat":43.30187,"lon":5.36611,"is_reserved":false,"is_disabled":false,"rental_uris":{"android":"levelo://app?vid=ccae9937-1437-4203-b13c-94454cbc75f5","ios":"levelo://app?vid=ccae9937-1437-4203-b13c-94454cbc75f5"},"vehicle_type_id":"4","last_reported":1752131587,"current_range_meters":20400,"station_id":"ce4bgrh2rcd13ifvqc8g","pricing_plan_id":"cebpf4jnsgd1na2vs0mg"},{"bike_id":"b2a55f02-973f-49c9-9266-ba38089660e4","system_id":"levelo_inurba_marseille","lat":43.29074,"lon":5.37162,"is_reserved":false,"is_disabled":false,"rental_uris":{"android":"levelo://app?vid=b2a55f02-973f-49c9-9266-ba38089660e4","ios":"levelo://app?vid=b2a55f02-973f-49c9-9266-ba38089660e4"},"vehicle_type_id":"4","last_reported":1752131587,"current_range_meters":20400,"station_id":"ce4bh5p2rcd13ifvqe4g","pricing_plan_id":"cebpf4jnsgd1na2vs0mg"},{"bike_id":"181e061d-f350-46f9-a095-1918b644028c","system_id":"levelo_inurba_marseille","lat":43.265281,"lon":5.395326,"is_reserved":false,"is_disabled":false,"rental_uris":{"android":"levelo://app?vid=181e061d-f350-46f9-a095-1918b644028c","ios":"levelo://app?vid=181e061d-f350-46f9-a095-1918b644028c"},"vehicle_type_id":"4","last_reported":1752131587,"current_range_meters":20400,"station_id":"ce4bhkp2rcd13ifvqgd0","pricing_plan_id":"cebpf4jnsgd1na2vs0mg"},{"bike_id":"9f3c5f2e-d4be-4bd4-9865-c7acb5e49047","system_id":"levelo_inurba_marseille","lat":43.30347,"lon":5.42544,"is_reserved":false,"is_disabled":false,"rental_uris":{"android":"levelo://app?vid=9f3c5f2e-d4be-4bd4-9865-c7acb5e49047","ios":"levelo://app?vid=9f3c5f2e-d4be-4bd4-9865-c7acb5e49047"},"vehicle_type_id":"4","last_reported":1752131587,"current_range_meters":20400,"station_id":"ce4bhoh2rcd13ifvqh6g","pricing_plan_id":"cebpf4jnsgd1na2vs0mg"},{"bike_id":"bc63cf6a-5655-40c0-b618-b45846f8e9aa","system_id":"levelo_inurba_marseille","lat":43.32133,"lon":5.36751,"is_reserved":false,"is_disabled":false,"rental_uris":{"android":"levelo://app?vid=bc63cf6a-5655-40c0-b618-b45846f8e9aa","ios":"levelo://app?vid=bc63cf6a-5655-40c0-b618-b45846f8e9aa"},"vehicle_type_id":"4","last_reported":1752131587,"current_range_meters":20400,"station_id":"ce4bhrh2rcd13ifvqhug","pricing_plan_id":"cebpf4jnsgd1na2vs0mg"},{"bike_id":"06107457-d3a9-4443-bb79-0f45694fd027","system_id":"levelo_inurba_marseille","lat":43.26161,"lon":5.37468,"is_reserved":false,"is_disabled":false,"rental_uris":{"android":"levelo://app?vid=06107457-d3a9-4443-bb79-0f45694fd027","ios":"levelo://app?vid=06107457-d3a9-4443-bb79-0f45694fd027"},"vehicle_type_id":"4","last_reported":1752131587,"current_range_meters":20800,"station_id":"","pricing_plan_id":"cebpf4jnsgd1na2vs0mg"},{"bike_id":"fde530d0-eeed-4692-bb9c-2c65ba0cdd9f","system_id":"levelo_inurba_marseille","lat":43.30848,"lon":5.42579,"is_reserved":false,"is_disabled":false,"rental_uris":{"android":"levelo://app?vid=fde530d0-eeed-4692-bb9c-2c65ba0cdd9f","ios":"levelo://app?vid=fde530d0-eeed-4692-bb9c-2c65ba0cdd9f"},"vehicle_type_id":"4","last_reported":1752131587,"current_range_meters":20800,"station_id":"","pricing_plan_id":"cebpf4jnsgd1na2vs0mg"},{"bike_id":"a4ec11bb-3564-4bcb-a741-9a9daab4a909","system_id":"levelo_inurba_marseille","lat":43.30477,"lon":5.38196,"is_reserved":false,"is_disabled":false,"rental_uris":{"android":"levelo://app?vid=a4ec11bb-3564-4bcb-a741-9a9daab4a909","ios":"levelo://app?vid=a4ec11bb-3564-4bcb-a741-9a9daab4a909"},"vehicle_type_id":"4","last_reported":1752131587,"current_range_meters":20800,"station_id":"","pricing_plan_id":"cebpf4jnsgd1na2vs0mg"},{"bike_id":"47fbd77a-5f24-4c82-91be-c38791e63574","system_id":"levelo_inurba_marseille","lat":43.29534,"lon":5.37504,"is_reserved":false,"is_disabled":false,"rental_uris":{"android":"levelo://app?vid=47fbd77a-5f24-4c82-91be-c38791e63574","ios":"levelo://app?vid=47fbd77a-5f24-4c82-91be-c38791e63574"},"vehicle_type_id":"4","last_reported":1752131587,"current_range_meters":20800,"station_id":"ce4bgkp2rcd13ifvqbmg","pricing_plan_id":"cebpf4jnsgd1na2vs0mg"},{"bike_id":"6d35335c-0458-4681-bddb-9633fac008bf","system_id":"levelo_inurba_marseille","lat":43.29762,"lon":5.37092,"is_reserved":false,"is_disabled":false,"rental_uris":{"android":"levelo://app?vid=6d35335c-0458-4681-bddb-9633fac008bf","ios":"levelo://app?vid=6d35335c-0458-4681-bddb-9633fac008bf"},"vehicle_type_id":"4","last_reported":1752131587,"current_range_meters":20800,"station_id":"ce4bgop2rcd13ifvqc1g","pricing_plan_id":"cebpf4jnsgd1na2vs0mg"},{"bike_id":"baded31f-14f6-420b-848e-602cf108c48b","system_id":"levelo_inurba_marseille","lat":43.27951,"lon":5.38703,"is_reserved":false,"is_disabled":false,"rental_uris":{"android":"levelo://app?vid=baded31f-14f6-420b-848e-602cf108c48b","ios":"levelo://app?vid=baded31f-14f6-420b-848e-602cf108c48b"},"vehicle_type_id":"4","last_reported":1752131587,"current_range_meters":20800,"station_id":"ce4bhg12rcd13ifvqf80","pricing_plan_id":"cebpf4jnsgd1na2vs0mg"},{"bike_id":"0c4830d2-d2c5-4eac-863b-4cf596a4936e","system_id":"levelo_inurba_marseille","lat":43.31757,"lon":5.39011,"is_reserved":false,"is_disabled":false,"rental_uris":{"android":"levelo://app?vid=0c4830d2-d2c5-4eac-863b-4cf596a4936e","ios":"levelo://app?vid=0c4830d2-d2c5-4eac-863b-4cf596a4936e"},"vehicle_type_id":"4","last_reported":1752131587,"current_range_meters":20800,"station_id":"ce4bhqp2rcd13ifvqhng","pricing_plan_id":"cebpf4jnsgd1na2vs0mg"},{"bike_id":"5e4bb725-0a7c-42b6-8717-a55d114feeb5","system_id":"levelo_inurba_marseille","lat":43.32474,"lon":5.36572,"is_reserved":false,"is_disabled":false,"rental_uris":{"android":"levelo://app?vid=5e4bb725-0a7c-42b6-8717-a55d114feeb5","ios":"levelo://app?vid=5e4bb725-0a7c-42b6-8717-a55d114feeb5"},"vehicle_type_id":"4","last_reported":1752131587,"current_range_meters":20800,"station_id":"ce4bhs12rcd13ifvqhvg","pricing_plan_id":"cebpf4jnsgd1na2vs0mg"},{"bike_id":"495b42e7-c480-4c9f-af1d-45f0e83f40b6","system_id":"levelo_inurba_marseille","lat":43.21746,"lon":5.34607,"is_reserved":false,"is_disabled":false,"rental_uris":{"android":"levelo://app?vid=495b42e7-c480-4c9f-af1d-45f0e83f40b6","ios":"levelo://app?vid=495b42e7-c480-4c9f-af1d-45f0e83f40b6"},"vehicle_type_id":"4","last_reported":1752131587,"current_range_meters":20800,"station_id":"st_cvj6r9ubvosntc0bgbag","pricing_plan_id":"cebpf4jnsgd1na2vs0mg"},{"bike_id":"4815b314-c033-4fee-a572-9b632b2e1b95","system_id":"levelo_inurba_marseille","lat":43.31225,"lon":5.36866,"is_reserved":false,"is_disabled":false,"rental_uris":{"android":"levelo://app?vid=4815b314-c033-4fee-a572-9b632b2e1b95","ios":"levelo://app?vid=4815b314-c033-4fee-a572-9b632b2e1b95"},"vehicle_type_id":"4","last_reported":1752131587,"current_range_meters":21600,"station_id":"ce4bgl92rcd13ifvqbq0","pricing_plan_id":"cebpf4jnsgd1na2vs0mg"},{"bike_id":"a5090234-21f4-4fee-9ce8-93a7776cea60","system_id":"levelo_inurba_marseille","lat":43.30898,"lon":5.36839,"is_reserved":false,"is_disabled":false,"rental_uris":{"android":"levelo://app?vid=a5090234-21f4-4fee-9ce8-93a7776cea60","ios":"levelo://app?vid=a5090234-21f4-4fee-9ce8-93a7776cea60"},"vehicle_type_id":"4","last_reported":1752131587,"current_range_meters":21600,"station_id":"ce4bgn92rcd13ifvqbvg","pricing_plan_id":"cebpf4jnsgd1na2vs0mg"},{"bike_id":"689923f6-0025-4a77-9cd7-69a1db5dac68","system_id":"levelo_inurba_marseille","lat":43.30951,"lon":5.39026,"is_reserved":false,"is_disabled":false,"rental_uris":{"android":"levelo://app?vid=689923f6-0025-4a77-9cd7-69a1db5dac68","ios":"levelo://app?vid=689923f6-0025-4a77-9cd7-69a1db5dac68"},"vehicle_type_id":"4","last_reported":1752131587,"current_range_meters":21600,"station_id":"ce4bgup2rcd13ifvqco0","pricing_plan_id":"cebpf4jnsgd1na2vs0mg"},{"bike_id":"800f3b4e-7d0c-45cf-8eb2-da850abe107f","system_id":"levelo_inurba_marseille","lat":43.26681,"lon":5.38272,"is_reserved":false,"is_disabled":false,"rental_uris":{"android":"levelo://app?vid=800f3b4e-7d0c-45cf-8eb2-da850abe107f","ios":"levelo://app?vid=800f3b4e-7d0c-45cf-8eb2-da850abe107f"},"vehicle_type_id":"4","last_reported":1752131587,"current_range_meters":21600,"station_id":"ce4bhg92rcd13ifvqf90","pricing_plan_id":"cebpf4jnsgd1na2vs0mg"},{"bike_id":"64f10ec8-b23a-4bf1-ae67-d220a1529eb7","system_id":"levelo_inurba_marseille","lat":43.27314,"lon":5.39102,"is_reserved":false,"is_disabled":false,"rental_uris":{"android":"levelo://app?vid=64f10ec8-b23a-4bf1-ae67-d220a1529eb7","ios":"levelo://app?vid=64f10ec8-b23a-4bf1-ae67-d220a1529eb7"},"vehicle_type_id":"4","last_reported":1752131587,"current_range_meters":21600,"station_id":"ce4bhgp2rcd13ifvqfe0","pricing_plan_id":"cebpf4jnsgd1na2vs0mg"},{"bike_id":"4dedeff5-4509-46ab-bf62-420e936a7c51","system_id":"levelo_inurba_marseille","lat":43.29548,"lon":5.4229,"is_reserved":false,"is_disabled":false,"rental_uris":{"android":"levelo://app?vid=4dedeff5-4509-46ab-bf62-420e936a7c51","ios":"levelo://app?vid=4dedeff5-4509-46ab-bf62-420e936a7c51"},"vehicle_type_id":"4","last_reported":1752131587,"current_range_meters":21600,"station_id":"ce4bhph2rcd13ifvqhdg","pricing_plan_id":"cebpf4jnsgd1na2vs0mg"},{"bike_id":"db181be6-3f41-44e4-afce-8de4f71bc786","system_id":"levelo_inurba_marseille","lat":43.32333,"lon":5.4062,"is_reserved":false,"is_disabled":false,"rental_uris":{"android":"levelo://app?vid=db181be6-3f41-44e4-afce-8de4f71bc786","ios":"levelo://app?vid=db181be6-3f41-44e4-afce-8de4f71bc786"},"vehicle_type_id":"4","last_reported":1752131587,"current_range_meters":21600,"station_id":"ce4bhq92rcd13ifvqhjg","pricing_plan_id":"cebpf4jnsgd1na2vs0mg"},{"bike_id":"1e41aa5c-bba0-457f-978e-c89116d30194","system_id":"levelo_inurba_marseille","lat":43.32481,"lon":5.36555,"is_reserved":false,"is_disabled":false,"rental_uris":{"android":"levelo://app?vid=1e41aa5c-bba0-457f-978e-c89116d30194","ios":"levelo://app?vid=1e41aa5c-bba0-457f-978e-c89116d30194"},"vehicle_type_id":"4","last_reported":1752131587,"current_range_meters":21600,"station_id":"ce4bhs12rcd13ifvqhvg","pricing_plan_id":"cebpf4jnsgd1na2vs0mg"},{"bike_id":"5fa281ea-b2b7-4806-a59d-87d02c76b268","system_id":"levelo_inurba_marseille","lat":43.25928,"lon":5.40908,"is_reserved":false,"is_disabled":false,"rental_uris":{"android":"levelo://app?vid=5fa281ea-b2b7-4806-a59d-87d02c76b268","ios":"levelo://app?vid=5fa281ea-b2b7-4806-a59d-87d02c76b268"},"vehicle_type_id":"4","last_reported":1752131587,"current_range_meters":22000,"station_id":"ce4bhm92rcd13ifvqglg","pricing_plan_id":"cebpf4jnsgd1na2vs0mg"},{"bike_id":"5d4651d4-2117-4d34-a914-225a1b6c949d","system_id":"levelo_inurba_marseille","lat":43.24178,"lon":5.39727,"is_reserved":false,"is_disabled":false,"rental_uris":{"android":"levelo://app?vid=5d4651d4-2117-4d34-a914-225a1b6c949d","ios":"levelo://app?vid=5d4651d4-2117-4d34-a914-225a1b6c949d"},"vehicle_type_id":"4","last_reported":1752131587,"current_range_meters":22000,"station_id":"ce4bhn12rcd13ifvqgpg","pricing_plan_id":"cebpf4jnsgd1na2vs0mg"},{"bike_id":"044b81af-86d1-4c4c-a4cd-b9c6534fb01a","system_id":"levelo_inurba_marseille","lat":43.32031,"lon":5.41574,"is_reserved":false,"is_disabled":false,"rental_uris":{"android":"levelo://app?vid=044b81af-86d1-4c4c-a4cd-b9c6534fb01a","ios":"levelo://app?vid=044b81af-86d1-4c4c-a4cd-b9c6534fb01a"},"vehicle_type_id":"4","last_reported":1752131587,"current_range_meters":22000,"station_id":"ce4bhq92rcd13ifvqhkg","pricing_plan_id":"cebpf4jnsgd1na2vs0mg"},{"bike_id":"06ec5e73-7c37-4d7d-9933-e904369ec74e","system_id":"levelo_inurba_marseille","lat":43.32348,"lon":5.36752,"is_reserved":false,"is_disabled":false,"rental_uris":{"android":"levelo://app?vid=06ec5e73-7c37-4d7d-9933-e904369ec74e","ios":"levelo://app?vid=06ec5e73-7c37-4d7d-9933-e904369ec74e"},"vehicle_type_id":"4","last_reported":1752131587,"current_range_meters":22000,"station_id":"ce4bhsh2rcd13ifvqi2g","pricing_plan_id":"cebpf4jnsgd1na2vs0mg"},{"bike_id":"dafa5a87-b26d-4379-9a6b-1f02133b78a6","system_id":"levelo_inurba_marseille","lat":43.211899,"lon":5.350699,"is_reserved":false,"is_disabled":false,"rental_uris":{"android":"levelo://app?vid=dafa5a87-b26d-4379-9a6b-1f02133b78a6","ios":"levelo://app?vid=dafa5a87-b26d-4379-9a6b-1f02133b78a6"},"vehicle_type_id":"4","last_reported":1752131587,"current_range_meters":22000,"station_id":"st_cvj6sg6p6f1abm77japg","pricing_plan_id":"cebpf4jnsgd1na2vs0mg"},{"bike_id":"37b84a38-055a-4a6e-a56a-8ff3d0c1b2ec","system_id":"levelo_inurba_marseille","lat":43.211921,"lon":5.350757,"is_reserved":false,"is_disabled":false,"rental_uris":{"android":"levelo://app?vid=37b84a38-055a-4a6e-a56a-8ff3d0c1b2ec","ios":"levelo://app?vid=37b84a38-055a-4a6e-a56a-8ff3d0c1b2ec"},"vehicle_type_id":"4","last_reported":1752131587,"current_range_meters":22000,"station_id":"st_cvj6sg6p6f1abm77japg","pricing_plan_id":"cebpf4jnsgd1na2vs0mg"},{"bike_id":"0fdbfa71-2a8e-49c7-9f88-38b5ed6ae89d","system_id":"levelo_inurba_marseille","lat":43.28125,"lon":5.38903,"is_reserved":false,"is_disabled":false,"rental_uris":{"android":"levelo://app?vid=0fdbfa71-2a8e-49c7-9f88-38b5ed6ae89d","ios":"levelo://app?vid=0fdbfa71-2a8e-49c7-9f88-38b5ed6ae89d"},"vehicle_type_id":"4","last_reported":1752131587,"current_range_meters":22400,"station_id":"","pricing_plan_id":"cebpf4jnsgd1na2vs0mg"},{"bike_id":"dc71cfe7-dd5b-4120-8a55-db3cfcbd08fa","system_id":"levelo_inurba_marseille","lat":43.278559,"lon":5.374307,"is_reserved":false,"is_disabled":false,"rental_uris":{"android":"levelo://app?vid=dc71cfe7-dd5b-4120-8a55-db3cfcbd08fa","ios":"levelo://app?vid=dc71cfe7-dd5b-4120-8a55-db3cfcbd08fa"},"vehicle_type_id":"4","last_reported":1752131587,"current_range_meters":22400,"station_id":"","pricing_plan_id":"cebpf4jnsgd1na2vs0mg"},{"bike_id":"b2d69925-c073-4c4a-b56d-a91a0856b591","system_id":"levelo_inurba_marseille","lat":43.29903,"lon":5.37465,"is_reserved":false,"is_disabled":false,"rental_uris":{"android":"levelo://app?vid=b2d69925-c073-4c4a-b56d-a91a0856b591","ios":"levelo://app?vid=b2d69925-c073-4c4a-b56d-a91a0856b591"},"vehicle_type_id":"4","last_reported":1752131587,"current_range_meters":22400,"station_id":"ce4bgjh2rcd13ifvqbg0","pricing_plan_id":"cebpf4jnsgd1na2vs0mg"},{"bike_id":"6d3b76e4-25c9-4ac0-990f-d7df6ef2a00a","system_id":"levelo_inurba_marseille","lat":43.31221,"lon":5.3686,"is_reserved":false,"is_disabled":false,"rental_uris":{"android":"levelo://app?vid=6d3b76e4-25c9-4ac0-990f-d7df6ef2a00a","ios":"levelo://app?vid=6d3b76e4-25c9-4ac0-990f-d7df6ef2a00a"},"vehicle_type_id":"4","last_reported":1752131587,"current_range_meters":22400,"station_id":"ce4bgl92rcd13ifvqbq0","pricing_plan_id":"cebpf4jnsgd1na2vs0mg"},{"bike_id":"bd6197ab-2ab0-4419-a279-14e5524c959c","system_id":"levelo_inurba_marseille","lat":43.30547,"lon":5.36709,"is_reserved":false,"is_disabled":false,"rental_uris":{"android":"levelo://app?vid=bd6197ab-2ab0-4419-a279-14e5524c959c","ios":"levelo://app?vid=bd6197ab-2ab0-4419-a279-14e5524c959c"},"vehicle_type_id":"4","last_reported":1752131587,"current_range_meters":22400,"station_id":"ce4bgrp2rcd13ifvqc9g","pricing_plan_id":"cebpf4jnsgd1na2vs0mg"},{"bike_id":"dbba3321-20c7-4989-a7b5-ea9ab2c4b3e8","system_id":"levelo_inurba_marseille","lat":43.261935,"lon":5.374477,"is_reserved":false,"is_disabled":false,"rental_uris":{"android":"levelo://app?vid=dbba3321-20c7-4989-a7b5-ea9ab2c4b3e8","ios":"levelo://app?vid=dbba3321-20c7-4989-a7b5-ea9ab2c4b3e8"},"vehicle_type_id":"4","last_reported":1752131587,"current_range_meters":22400,"station_id":"ce4bhgp2rcd13ifvqfc0","pricing_plan_id":"cebpf4jnsgd1na2vs0mg"},{"bike_id":"4354f9ac-0605-4662-9e17-6e65d855f11d","system_id":"levelo_inurba_marseille","lat":43.2651,"lon":5.39534,"is_reserved":false,"is_disabled":false,"rental_uris":{"android":"levelo://app?vid=4354f9ac-0605-4662-9e17-6e65d855f11d","ios":"levelo://app?vid=4354f9ac-0605-4662-9e17-6e65d855f11d"},"vehicle_type_id":"4","last_reported":1752131587,"current_range_meters":22400,"station_id":"ce4bhi12rcd13ifvqfq0","pricing_plan_id":"cebpf4jnsgd1na2vs0mg"},{"bike_id":"fc2f2fc1-dfd7-4df0-a884-3f73196a2b3e","system_id":"levelo_inurba_marseille","lat":43.25921,"lon":5.40904,"is_reserved":false,"is_disabled":false,"rental_uris":{"android":"levelo://app?vid=fc2f2fc1-dfd7-4df0-a884-3f73196a2b3e","ios":"levelo://app?vid=fc2f2fc1-dfd7-4df0-a884-3f73196a2b3e"},"vehicle_type_id":"4","last_reported":1752131587,"current_range_meters":22400,"station_id":"ce4bhm92rcd13ifvqglg","pricing_plan_id":"cebpf4jnsgd1na2vs0mg"},{"bike_id":"65c6d2d7-a7dc-45ec-9f2f-fb7430e6281d","system_id":"levelo_inurba_marseille","lat":43.32363,"lon":5.36748,"is_reserved":false,"is_disabled":false,"rental_uris":{"android":"levelo://app?vid=65c6d2d7-a7dc-45ec-9f2f-fb7430e6281d","ios":"levelo://app?vid=65c6d2d7-a7dc-45ec-9f2f-fb7430e6281d"},"vehicle_type_id":"4","last_reported":1752131587,"current_range_meters":22400,"station_id":"ce4bhsh2rcd13ifvqi2g","pricing_plan_id":"cebpf4jnsgd1na2vs0mg"},{"bike_id":"5f9facdb-d1e1-40e1-8ceb-766e4b9ac193","system_id":"levelo_inurba_marseille","lat":43.21754,"lon":5.345992,"is_reserved":false,"is_disabled":false,"rental_uris":{"android":"levelo://app?vid=5f9facdb-d1e1-40e1-8ceb-766e4b9ac193","ios":"levelo://app?vid=5f9facdb-d1e1-40e1-8ceb-766e4b9ac193"},"vehicle_type_id":"4","last_reported":1752131587,"current_range_meters":22800,"station_id":"","pricing_plan_id":"cebpf4jnsgd1na2vs0mg"},{"bike_id":"43b90c82-97e0-4fa7-8b67-2448f07d529e","system_id":"levelo_inurba_marseille","lat":43.211903,"lon":5.350701,"is_reserved":false,"is_disabled":false,"rental_uris":{"android":"levelo://app?vid=43b90c82-97e0-4fa7-8b67-2448f07d529e","ios":"levelo://app?vid=43b90c82-97e0-4fa7-8b67-2448f07d529e"},"vehicle_type_id":"4","last_reported":1752131587,"current_range_meters":22800,"station_id":"","pricing_plan_id":"cebpf4jnsgd1na2vs0mg"},{"bike_id":"046fa2a0-9fb2-4690-9995-70f0621686d6","system_id":"levelo_inurba_marseille","lat":43.259435,"lon":5.409033,"is_reserved":false,"is_disabled":false,"rental_uris":{"android":"levelo://app?vid=046fa2a0-9fb2-4690-9995-70f0621686d6","ios":"levelo://app?vid=046fa2a0-9fb2-4690-9995-70f0621686d6"},"vehicle_type_id":"4","last_reported":1752131587,"current_range_meters":22800,"station_id":"","pricing_plan_id":"cebpf4jnsgd1na2vs0mg"},{"bike_id":"f23223a4-7058-4b7e-95f6-ed0cd2cc115b","system_id":"levelo_inurba_marseille","lat":43.30921,"lon":5.36845,"is_reserved":false,"is_disabled":false,"rental_uris":{"android":"levelo://app?vid=f23223a4-7058-4b7e-95f6-ed0cd2cc115b","ios":"levelo://app?vid=f23223a4-7058-4b7e-95f6-ed0cd2cc115b"},"vehicle_type_id":"4","last_reported":1752131587,"current_range_meters":22800,"station_id":"ce4bgn92rcd13ifvqbvg","pricing_plan_id":"cebpf4jnsgd1na2vs0mg"},{"bike_id":"c0c0996d-af0b-4798-9448-ec0515fd1145","system_id":"levelo_inurba_marseille","lat":43.30912,"lon":5.36846,"is_reserved":false,"is_disabled":false,"rental_uris":{"android":"levelo://app?vid=c0c0996d-af0b-4798-9448-ec0515fd1145","ios":"levelo://app?vid=c0c0996d-af0b-4798-9448-ec0515fd1145"},"vehicle_type_id":"4","last_reported":1752131587,"current_range_meters":22800,"station_id":"ce4bgn92rcd13ifvqbvg","pricing_plan_id":"cebpf4jnsgd1na2vs0mg"},{"bike_id":"7ddd4526-994b-4e1c-b38b-424a12e2b41a","system_id":"levelo_inurba_marseille","lat":43.29781,"lon":5.37088,"is_reserved":false,"is_disabled":false,"rental_uris":{"android":"levelo://app?vid=7ddd4526-994b-4e1c-b38b-424a12e2b41a","ios":"levelo://app?vid=7ddd4526-994b-4e1c-b38b-424a12e2b41a"},