{"last_updated":1777138175,"ttl":60,"version":"2.2","data":{"bikes":[{"bike_id":"90038cc0-e2e3-4a36-9d21-681eb5e5c3f9","system_id":"levelo_inurba_marseille","lat":43.29277,"lon":5.40116,"is_reserved":false,"is_disabled":false,"rental_uris":{"android":"levelo://app?vid=90038cc0-e2e3-4a36-9d21-681eb5e5c3f9","ios":"levelo://app?vid=90038cc0-e2e3-4a36-9d21-681eb5e5c3f9"},"vehicle_type_id":"4","last_reported":1777138176,"current_range_meters":2800,"station_id":"ce4bh312rcd13ifvqdk0","pricing_plan_id":"cebpf4jnsgd1na2vs0mg"},{"bike_id":"d5d75c47-4c00-46b6-a3df-924cb9442612","system_id":"levelo_inurba_marseille","lat":43.24463,"lon":5.42537,"is_reserved":false,"is_disabled":false,"rental_uris":{"android":"levelo://app?vid=d5d75c47-4c00-46b6-a3df-924cb9442612","ios":"levelo://app?vid=d5d75c47-4c00-46b6-a3df-924cb9442612"},"vehicle_type_id":"4","last_reported":1777138176,"current_range_meters":2800,"station_id":"st_d4a3vfp97mjs738cd8kg","pricing_plan_id":"cebpf4jnsgd1na2vs0mg"},{"bike_id":"f1298ba6-300d-41d6-86f7-b2df13b1d535","system_id":"levelo_inurba_marseille","lat":43.30951,"lon":5.3904,"is_reserved":false,"is_disabled":false,"rental_uris":{"android":"levelo://app?vid=f1298ba6-300d-41d6-86f7-b2df13b1d535","ios":"levelo://app?vid=f1298ba6-300d-41d6-86f7-b2df13b1d535"},"vehicle_type_id":"4","last_reported":1777138176,"current_range_meters":2800,"station_id":"ce4bgup2rcd13ifvqco0","pricing_plan_id":"cebpf4jnsgd1na2vs0mg"},{"bike_id":"cd4981c7-6d98-4f89-b8f0-d466f8f9a1e1","system_id":"levelo_inurba_marseille","lat":43.30447,"lon":5.38885,"is_reserved":false,"is_disabled":false,"rental_uris":{"android":"levelo://app?vid=cd4981c7-6d98-4f89-b8f0-d466f8f9a1e1","ios":"levelo://app?vid=cd4981c7-6d98-4f89-b8f0-d466f8f9a1e1"},"vehicle_type_id":"4","last_reported":1777138176,"current_range_meters":2800,"station_id":"ce4bgk12rcd13ifvqbi0","pricing_plan_id":"cebpf4jnsgd1na2vs0mg"},{"bike_id":"3762a15a-49a2-4fc6-b2e6-a79b5f91a12f","system_id":"levelo_inurba_marseille","lat":43.28474,"lon":5.4839,"is_reserved":false,"is_disabled":false,"rental_uris":{"android":"levelo://app?vid=3762a15a-49a2-4fc6-b2e6-a79b5f91a12f","ios":"levelo://app?vid=3762a15a-49a2-4fc6-b2e6-a79b5f91a12f"},"vehicle_type_id":"4","last_reported":1777138176,"current_range_meters":2800,"station_id":"","pricing_plan_id":"cebpf4jnsgd1na2vs0mg"},{"bike_id":"dbc318d7-b942-49fe-9ff2-9f2803384071","system_id":"levelo_inurba_marseille","lat":43.28434,"lon":5.39205,"is_reserved":false,"is_disabled":false,"rental_uris":{"android":"levelo://app?vid=dbc318d7-b942-49fe-9ff2-9f2803384071","ios":"levelo://app?vid=dbc318d7-b942-49fe-9ff2-9f2803384071"},"vehicle_type_id":"4","last_reported":1777138176,"current_range_meters":2800,"station_id":"ce4bhoh2rcd13ifvqh5g","pricing_plan_id":"cebpf4jnsgd1na2vs0mg"},{"bike_id":"7dd94a07-afd0-40f5-9ba4-e17607477200","system_id":"levelo_inurba_marseille","lat":43.26221,"lon":5.37466,"is_reserved":false,"is_disabled":false,"rental_uris":{"android":"levelo://app?vid=7dd94a07-afd0-40f5-9ba4-e17607477200","ios":"levelo://app?vid=7dd94a07-afd0-40f5-9ba4-e17607477200"},"vehicle_type_id":"4","last_reported":1777138176,"current_range_meters":2800,"station_id":"ce4bhgp2rcd13ifvqfc0","pricing_plan_id":"cebpf4jnsgd1na2vs0mg"},{"bike_id":"2813910b-bfe0-425f-a483-9778de4facfb","system_id":"levelo_inurba_marseille","lat":43.30252,"lon":5.44957,"is_reserved":false,"is_disabled":false,"rental_uris":{"android":"levelo://app?vid=2813910b-bfe0-425f-a483-9778de4facfb","ios":"levelo://app?vid=2813910b-bfe0-425f-a483-9778de4facfb"},"vehicle_type_id":"4","last_reported":1777138176,"current_range_meters":2800,"station_id":"","pricing_plan_id":"cebpf4jnsgd1na2vs0mg"},{"bike_id":"8dfae100-60d0-4ed6-8820-0dde8bd8bcb1","system_id":"levelo_inurba_marseille","lat":43.28453,"lon":5.35894,"is_reserved":false,"is_disabled":false,"rental_uris":{"android":"levelo://app?vid=8dfae100-60d0-4ed6-8820-0dde8bd8bcb1","ios":"levelo://app?vid=8dfae100-60d0-4ed6-8820-0dde8bd8bcb1"},"vehicle_type_id":"4","last_reported":1777138176,"current_range_meters":2800,"station_id":"ce4bhah2rcd13ifvqei0","pricing_plan_id":"cebpf4jnsgd1na2vs0mg"},{"bike_id":"18709e59-9fc5-47cf-b491-d562930675aa","system_id":"levelo_inurba_marseille","lat":43.27577,"lon":5.38432,"is_reserved":false,"is_disabled":false,"rental_uris":{"android":"levelo://app?vid=18709e59-9fc5-47cf-b491-d562930675aa","ios":"levelo://app?vid=18709e59-9fc5-47cf-b491-d562930675aa"},"vehicle_type_id":"4","last_reported":1777138176,"current_range_meters":2800,"station_id":"ce4bhh92rcd13ifvqfi0","pricing_plan_id":"cebpf4jnsgd1na2vs0mg"},{"bike_id":"c2cf8898-e563-4eca-8255-6d7086f1310e","system_id":"levelo_inurba_marseille","lat":43.296954,"lon":5.365977,"is_reserved":false,"is_disabled":false,"rental_uris":{"android":"levelo://app?vid=c2cf8898-e563-4eca-8255-6d7086f1310e","ios":"levelo://app?vid=c2cf8898-e563-4eca-8255-6d7086f1310e"},"vehicle_type_id":"4","last_reported":1777138176,"current_range_meters":2800,"station_id":"ce4bgn12rcd13ifvqbt0","pricing_plan_id":"cebpf4jnsgd1na2vs0mg"},{"bike_id":"a915d5e0-f835-401d-8f7c-60acb3cb1a96","system_id":"levelo_inurba_marseille","lat":43.28479,"lon":5.370611,"is_reserved":false,"is_disabled":false,"rental_uris":{"android":"levelo://app?vid=a915d5e0-f835-401d-8f7c-60acb3cb1a96","ios":"levelo://app?vid=a915d5e0-f835-401d-8f7c-60acb3cb1a96"},"vehicle_type_id":"4","last_reported":1777138176,"current_range_meters":2800,"station_id":"ce4bh412rcd13ifvqds0","pricing_plan_id":"cebpf4jnsgd1na2vs0mg"},{"bike_id":"df386e57-448e-4704-ac08-a5b75efa584b","system_id":"levelo_inurba_marseille","lat":43.29813,"lon":5.38103,"is_reserved":false,"is_disabled":false,"rental_uris":{"android":"levelo://app?vid=df386e57-448e-4704-ac08-a5b75efa584b","ios":"levelo://app?vid=df386e57-448e-4704-ac08-a5b75efa584b"},"vehicle_type_id":"4","last_reported":1777138176,"current_range_meters":2800,"station_id":"ce4bgip2rcd13ifvqbb0","pricing_plan_id":"cebpf4jnsgd1na2vs0mg"},{"bike_id":"a038bb6e-e19e-4ff9-b2db-b8fc7e72513b","system_id":"levelo_inurba_marseille","lat":43.29515,"lon":5.39023,"is_reserved":false,"is_disabled":false,"rental_uris":{"android":"levelo://app?vid=a038bb6e-e19e-4ff9-b2db-b8fc7e72513b","ios":"levelo://app?vid=a038bb6e-e19e-4ff9-b2db-b8fc7e72513b"},"vehicle_type_id":"4","last_reported":1777138176,"current_range_meters":3200,"station_id":"ce4bh3p2rcd13ifvqdp0","pricing_plan_id":"cebpf4jnsgd1na2vs0mg"},{"bike_id":"c35ef435-7351-4292-8bd0-8be9078d3a7d","system_id":"levelo_inurba_marseille","lat":43.309491,"lon":5.390253,"is_reserved":false,"is_disabled":false,"rental_uris":{"android":"levelo://app?vid=c35ef435-7351-4292-8bd0-8be9078d3a7d","ios":"levelo://app?vid=c35ef435-7351-4292-8bd0-8be9078d3a7d"},"vehicle_type_id":"4","last_reported":1777138176,"current_range_meters":3200,"station_id":"ce4bgup2rcd13ifvqco0","pricing_plan_id":"cebpf4jnsgd1na2vs0mg"},{"bike_id":"0fb20b22-105a-49c6-b3c4-7ef833992223","system_id":"levelo_inurba_marseille","lat":43.31696,"lon":5.40455,"is_reserved":false,"is_disabled":false,"rental_uris":{"android":"levelo://app?vid=0fb20b22-105a-49c6-b3c4-7ef833992223","ios":"levelo://app?vid=0fb20b22-105a-49c6-b3c4-7ef833992223"},"vehicle_type_id":"4","last_reported":1777138176,"current_range_meters":3200,"station_id":"ce4bh012rcd13ifvqd00","pricing_plan_id":"cebpf4jnsgd1na2vs0mg"},{"bike_id":"b1d03093-fb46-4945-a64c-e0e4b0b3ce61","system_id":"levelo_inurba_marseille","lat":43.28704,"lon":5.37354,"is_reserved":false,"is_disabled":false,"rental_uris":{"android":"levelo://app?vid=b1d03093-fb46-4945-a64c-e0e4b0b3ce61","ios":"levelo://app?vid=b1d03093-fb46-4945-a64c-e0e4b0b3ce61"},"vehicle_type_id":"4","last_reported":1777138176,"current_range_meters":3200,"station_id":"ce4bh3p2rcd13ifvqdq0","pricing_plan_id":"cebpf4jnsgd1na2vs0mg"},{"bike_id":"fcff5e19-702e-4fb9-88ab-eea4572e1175","system_id":"levelo_inurba_marseille","lat":43.2587,"lon":5.39895,"is_reserved":false,"is_disabled":false,"rental_uris":{"android":"levelo://app?vid=fcff5e19-702e-4fb9-88ab-eea4572e1175","ios":"levelo://app?vid=fcff5e19-702e-4fb9-88ab-eea4572e1175"},"vehicle_type_id":"4","last_reported":1777138176,"current_range_meters":3200,"station_id":"ce4bhl92rcd13ifvqghg","pricing_plan_id":"cebpf4jnsgd1na2vs0mg"},{"bike_id":"b38d89b8-c3c9-4fae-b6f2-09980d89f2e9","system_id":"levelo_inurba_marseille","lat":43.28485,"lon":5.48398,"is_reserved":false,"is_disabled":false,"rental_uris":{"android":"levelo://app?vid=b38d89b8-c3c9-4fae-b6f2-09980d89f2e9","ios":"levelo://app?vid=b38d89b8-c3c9-4fae-b6f2-09980d89f2e9"},"vehicle_type_id":"4","last_reported":1777138176,"current_range_meters":3200,"station_id":"","pricing_plan_id":"cebpf4jnsgd1na2vs0mg"},{"bike_id":"c6172422-6b0d-4c06-97ab-4b8888528f97","system_id":"levelo_inurba_marseille","lat":43.28603,"lon":5.38085,"is_reserved":false,"is_disabled":false,"rental_uris":{"android":"levelo://app?vid=c6172422-6b0d-4c06-97ab-4b8888528f97","ios":"levelo://app?vid=c6172422-6b0d-4c06-97ab-4b8888528f97"},"vehicle_type_id":"4","last_reported":1777138176,"current_range_meters":3200,"station_id":"","pricing_plan_id":"cebpf4jnsgd1na2vs0mg"},{"bike_id":"676f4845-6b49-4773-b82f-ef4c6a0d7c2d","system_id":"levelo_inurba_marseille","lat":43.26113,"lon":5.37504,"is_reserved":false,"is_disabled":false,"rental_uris":{"android":"levelo://app?vid=676f4845-6b49-4773-b82f-ef4c6a0d7c2d","ios":"levelo://app?vid=676f4845-6b49-4773-b82f-ef4c6a0d7c2d"},"vehicle_type_id":"4","last_reported":1777138176,"current_range_meters":3200,"station_id":"","pricing_plan_id":"cebpf4jnsgd1na2vs0mg"},{"bike_id":"96a610c7-72f5-4132-aec5-aa45a7223fd1","system_id":"levelo_inurba_marseille","lat":43.28401,"lon":5.37508,"is_reserved":false,"is_disabled":false,"rental_uris":{"android":"levelo://app?vid=96a610c7-72f5-4132-aec5-aa45a7223fd1","ios":"levelo://app?vid=96a610c7-72f5-4132-aec5-aa45a7223fd1"},"vehicle_type_id":"4","last_reported":1777138176,"current_range_meters":3200,"station_id":"ce4bh412rcd13ifvqds0","pricing_plan_id":"cebpf4jnsgd1na2vs0mg"},{"bike_id":"789b03ec-b464-434c-bd00-bad5c674ec91","system_id":"levelo_inurba_marseille","lat":43.305463,"lon":5.36714,"is_reserved":false,"is_disabled":false,"rental_uris":{"android":"levelo://app?vid=789b03ec-b464-434c-bd00-bad5c674ec91","ios":"levelo://app?vid=789b03ec-b464-434c-bd00-bad5c674ec91"},"vehicle_type_id":"4","last_reported":1777138176,"current_range_meters":3200,"station_id":"ce4bgrp2rcd13ifvqc9g","pricing_plan_id":"cebpf4jnsgd1na2vs0mg"},{"bike_id":"fc46409f-654a-4d91-8d2f-388b14763f24","system_id":"levelo_inurba_marseille","lat":43.29198,"lon":5.35802,"is_reserved":false,"is_disabled":false,"rental_uris":{"android":"levelo://app?vid=fc46409f-654a-4d91-8d2f-388b14763f24","ios":"levelo://app?vid=fc46409f-654a-4d91-8d2f-388b14763f24"},"vehicle_type_id":"4","last_reported":1777138176,"current_range_meters":3200,"station_id":"ce4bhb12rcd13ifvqel0","pricing_plan_id":"cebpf4jnsgd1na2vs0mg"},{"bike_id":"5f8cdfbc-37c6-486e-8a09-9620e14e43ce","system_id":"levelo_inurba_marseille","lat":43.23908,"lon":5.37457,"is_reserved":false,"is_disabled":true,"rental_uris":{"android":"levelo://app?vid=5f8cdfbc-37c6-486e-8a09-9620e14e43ce","ios":"levelo://app?vid=5f8cdfbc-37c6-486e-8a09-9620e14e43ce"},"vehicle_type_id":"4","last_reported":1777138176,"current_range_meters":3200,"station_id":"st_d6sm7csbq4hs73f8fpjg","pricing_plan_id":"cebpf4jnsgd1na2vs0mg"},{"bike_id":"32f32c3f-4df8-42a3-a76d-2e2f3796480f","system_id":"levelo_inurba_marseille","lat":43.2738,"lon":5.36262,"is_reserved":false,"is_disabled":false,"rental_uris":{"android":"levelo://app?vid=32f32c3f-4df8-42a3-a76d-2e2f3796480f","ios":"levelo://app?vid=32f32c3f-4df8-42a3-a76d-2e2f3796480f"},"vehicle_type_id":"4","last_reported":1777138176,"current_range_meters":3200,"station_id":"ce4bhbh2rcd13ifvqeo0","pricing_plan_id":"cebpf4jnsgd1na2vs0mg"},{"bike_id":"eb5e2c76-35f3-4d25-b80b-4c84d4f1d0c2","system_id":"levelo_inurba_marseille","lat":43.29815,"lon":5.44061,"is_reserved":false,"is_disabled":false,"rental_uris":{"android":"levelo://app?vid=eb5e2c76-35f3-4d25-b80b-4c84d4f1d0c2","ios":"levelo://app?vid=eb5e2c76-35f3-4d25-b80b-4c84d4f1d0c2"},"vehicle_type_id":"4","last_reported":1777138176,"current_range_meters":3200,"station_id":"st_d3jp68qikq2c7381ktn0","pricing_plan_id":"cebpf4jnsgd1na2vs0mg"},{"bike_id":"284bb20f-7bbf-450c-9c94-2dc57069e2bf","system_id":"levelo_inurba_marseille","lat":43.27071,"lon":5.42281,"is_reserved":false,"is_disabled":false,"rental_uris":{"android":"levelo://app?vid=284bb20f-7bbf-450c-9c94-2dc57069e2bf","ios":"levelo://app?vid=284bb20f-7bbf-450c-9c94-2dc57069e2bf"},"vehicle_type_id":"4","last_reported":1777138176,"current_range_meters":3200,"station_id":"ce4bhk92rcd13ifvqgb0","pricing_plan_id":"cebpf4jnsgd1na2vs0mg"},{"bike_id":"38ee7da5-65e7-4997-97cb-9531b47e81d6","system_id":"levelo_inurba_marseille","lat":43.26575,"lon":5.39046,"is_reserved":false,"is_disabled":false,"rental_uris":{"android":"levelo://app?vid=38ee7da5-65e7-4997-97cb-9531b47e81d6","ios":"levelo://app?vid=38ee7da5-65e7-4997-97cb-9531b47e81d6"},"vehicle_type_id":"4","last_reported":1777138176,"current_range_meters":3200,"station_id":"ce4bhe12rcd13ifvqf30","pricing_plan_id":"cebpf4jnsgd1na2vs0mg"},{"bike_id":"7a7fb447-a817-4fe9-90a8-8aedbdace695","system_id":"levelo_inurba_marseille","lat":43.30799,"lon":5.38153,"is_reserved":false,"is_disabled":false,"rental_uris":{"android":"levelo://app?vid=7a7fb447-a817-4fe9-90a8-8aedbdace695","ios":"levelo://app?vid=7a7fb447-a817-4fe9-90a8-8aedbdace695"},"vehicle_type_id":"4","last_reported":1777138176,"current_range_meters":3200,"station_id":"ce4bgt12rcd13ifvqce0","pricing_plan_id":"cebpf4jnsgd1na2vs0mg"},{"bike_id":"64ffe781-2b04-4852-ab70-84386d4c1a40","system_id":"levelo_inurba_marseille","lat":43.28836,"lon":5.393217,"is_reserved":false,"is_disabled":false,"rental_uris":{"android":"levelo://app?vid=64ffe781-2b04-4852-ab70-84386d4c1a40","ios":"levelo://app?vid=64ffe781-2b04-4852-ab70-84386d4c1a40"},"vehicle_type_id":"4","last_reported":1777138176,"current_range_meters":3600,"station_id":"ce4bh2p2rcd13ifvqdi0","pricing_plan_id":"cebpf4jnsgd1na2vs0mg"},{"bike_id":"53f0bfc3-8586-4d2b-b4ed-4f2341a1122c","system_id":"levelo_inurba_marseille","lat":43.3088,"lon":5.37193,"is_reserved":false,"is_disabled":false,"rental_uris":{"android":"levelo://app?vid=53f0bfc3-8586-4d2b-b4ed-4f2341a1122c","ios":"levelo://app?vid=53f0bfc3-8586-4d2b-b4ed-4f2341a1122c"},"vehicle_type_id":"4","last_reported":1777138176,"current_range_meters":3600,"station_id":"ce4bguh2rcd13ifvqckg","pricing_plan_id":"cebpf4jnsgd1na2vs0mg"},{"bike_id":"0497ac00-2cc0-4df8-b95f-bc88f49a3b26","system_id":"levelo_inurba_marseille","lat":43.3091,"lon":5.37227,"is_reserved":false,"is_disabled":false,"rental_uris":{"android":"levelo://app?vid=0497ac00-2cc0-4df8-b95f-bc88f49a3b26","ios":"levelo://app?vid=0497ac00-2cc0-4df8-b95f-bc88f49a3b26"},"vehicle_type_id":"4","last_reported":1777138176,"current_range_meters":3600,"station_id":"ce4bguh2rcd13ifvqckg","pricing_plan_id":"cebpf4jnsgd1na2vs0mg"},{"bike_id":"168b5534-ff13-4dc9-af35-5eae8b61ed60","system_id":"levelo_inurba_marseille","lat":43.22585,"lon":5.41577,"is_reserved":false,"is_disabled":false,"rental_uris":{"android":"levelo://app?vid=168b5534-ff13-4dc9-af35-5eae8b61ed60","ios":"levelo://app?vid=168b5534-ff13-4dc9-af35-5eae8b61ed60"},"vehicle_type_id":"4","last_reported":1777138176,"current_range_meters":3600,"station_id":"st_d2o4gvlbi1j2169b742g","pricing_plan_id":"cebpf4jnsgd1na2vs0mg"},{"bike_id":"c6bf70cc-7126-4d5a-92db-b69fc80396df","system_id":"levelo_inurba_marseille","lat":43.29258,"lon":5.40897,"is_reserved":false,"is_disabled":false,"rental_uris":{"android":"levelo://app?vid=c6bf70cc-7126-4d5a-92db-b69fc80396df","ios":"levelo://app?vid=c6bf70cc-7126-4d5a-92db-b69fc80396df"},"vehicle_type_id":"4","last_reported":1777138176,"current_range_meters":3600,"station_id":"ce4bh192rcd13ifvqdc0","pricing_plan_id":"cebpf4jnsgd1na2vs0mg"},{"bike_id":"616ae45d-d641-4a69-8d81-2261107b5285","system_id":"levelo_inurba_marseille","lat":43.23968,"lon":5.36618,"is_reserved":false,"is_disabled":false,"rental_uris":{"android":"levelo://app?vid=616ae45d-d641-4a69-8d81-2261107b5285","ios":"levelo://app?vid=616ae45d-d641-4a69-8d81-2261107b5285"},"vehicle_type_id":"4","last_reported":1777138176,"current_range_meters":3600,"station_id":"ce4bhi12rcd13ifvqfp0","pricing_plan_id":"cebpf4jnsgd1na2vs0mg"},{"bike_id":"0a264ef0-754d-480a-917c-15d28c7c0af1","system_id":"levelo_inurba_marseille","lat":43.30137,"lon":5.39878,"is_reserved":false,"is_disabled":false,"rental_uris":{"android":"levelo://app?vid=0a264ef0-754d-480a-917c-15d28c7c0af1","ios":"levelo://app?vid=0a264ef0-754d-480a-917c-15d28c7c0af1"},"vehicle_type_id":"4","last_reported":1777138176,"current_range_meters":3600,"station_id":"ce4bh0h2rcd13ifvqd40","pricing_plan_id":"cebpf4jnsgd1na2vs0mg"},{"bike_id":"28b5ca88-2be1-43a9-ab52-3a77eadd6b29","system_id":"levelo_inurba_marseille","lat":43.29868,"lon":5.39722,"is_reserved":false,"is_disabled":false,"rental_uris":{"android":"levelo://app?vid=28b5ca88-2be1-43a9-ab52-3a77eadd6b29","ios":"levelo://app?vid=28b5ca88-2be1-43a9-ab52-3a77eadd6b29"},"vehicle_type_id":"4","last_reported":1777138176,"current_range_meters":3600,"station_id":"ce4bh0h2rcd13ifvqd50","pricing_plan_id":"cebpf4jnsgd1na2vs0mg"},{"bike_id":"71e6dbe8-b0bd-4270-bdb1-78bb4b4f9ee2","system_id":"levelo_inurba_marseille","lat":43.24546,"lon":5.39519,"is_reserved":false,"is_disabled":false,"rental_uris":{"android":"levelo://app?vid=71e6dbe8-b0bd-4270-bdb1-78bb4b4f9ee2","ios":"levelo://app?vid=71e6dbe8-b0bd-4270-bdb1-78bb4b4f9ee2"},"vehicle_type_id":"4","last_reported":1777138176,"current_range_meters":3600,"station_id":"ce4bhlp2rcd13ifvqgjg","pricing_plan_id":"cebpf4jnsgd1na2vs0mg"},{"bike_id":"fedcbb46-f19c-4c6c-8fbf-c4078786a23f","system_id":"levelo_inurba_marseille","lat":43.29094,"lon":5.3813,"is_reserved":false,"is_disabled":false,"rental_uris":{"android":"levelo://app?vid=fedcbb46-f19c-4c6c-8fbf-c4078786a23f","ios":"levelo://app?vid=fedcbb46-f19c-4c6c-8fbf-c4078786a23f"},"vehicle_type_id":"4","last_reported":1777138176,"current_range_meters":3600,"station_id":"ce4bh512rcd13ifvqe2g","pricing_plan_id":"cebpf4jnsgd1na2vs0mg"},{"bike_id":"7ab9e9d2-55c6-492f-8e60-126c7a6965ab","system_id":"levelo_inurba_marseille","lat":43.27971,"lon":5.37079,"is_reserved":false,"is_disabled":false,"rental_uris":{"android":"levelo://app?vid=7ab9e9d2-55c6-492f-8e60-126c7a6965ab","ios":"levelo://app?vid=7ab9e9d2-55c6-492f-8e60-126c7a6965ab"},"vehicle_type_id":"4","last_reported":1777138176,"current_range_meters":3600,"station_id":"","pricing_plan_id":"cebpf4jnsgd1na2vs0mg"},{"bike_id":"30ae163a-44ad-49ad-bf51-c1f54df5559c","system_id":"levelo_inurba_marseille","lat":43.28871,"lon":5.42501,"is_reserved":false,"is_disabled":false,"rental_uris":{"android":"levelo://app?vid=30ae163a-44ad-49ad-bf51-c1f54df5559c","ios":"levelo://app?vid=30ae163a-44ad-49ad-bf51-c1f54df5559c"},"vehicle_type_id":"4","last_reported":1777138176,"current_range_meters":3600,"station_id":"st_d3b462108ojc7389ooeg","pricing_plan_id":"cebpf4jnsgd1na2vs0mg"},{"bike_id":"665c1c12-8da2-40f4-8807-e5c9fec58ba1","system_id":"levelo_inurba_marseille","lat":43.26944,"lon":5.38635,"is_reserved":false,"is_disabled":false,"rental_uris":{"android":"levelo://app?vid=665c1c12-8da2-40f4-8807-e5c9fec58ba1","ios":"levelo://app?vid=665c1c12-8da2-40f4-8807-e5c9fec58ba1"},"vehicle_type_id":"4","last_reported":1777138176,"current_range_meters":3600,"station_id":"ce4bhh92rcd13ifvqfh0","pricing_plan_id":"cebpf4jnsgd1na2vs0mg"},{"bike_id":"4058c81d-18db-40d8-8768-a3f8a9880210","system_id":"levelo_inurba_marseille","lat":43.29883,"lon":5.38886,"is_reserved":false,"is_disabled":false,"rental_uris":{"android":"levelo://app?vid=4058c81d-18db-40d8-8768-a3f8a9880210","ios":"levelo://app?vid=4058c81d-18db-40d8-8768-a3f8a9880210"},"vehicle_type_id":"4","last_reported":1777138176,"current_range_meters":3600,"station_id":"ce4bh392rcd13ifvqdl0","pricing_plan_id":"cebpf4jnsgd1na2vs0mg"},{"bike_id":"4af5f932-71ad-4954-ac3b-fecb2a352994","system_id":"levelo_inurba_marseille","lat":43.32378,"lon":5.36759,"is_reserved":false,"is_disabled":false,"rental_uris":{"android":"levelo://app?vid=4af5f932-71ad-4954-ac3b-fecb2a352994","ios":"levelo://app?vid=4af5f932-71ad-4954-ac3b-fecb2a352994"},"vehicle_type_id":"4","last_reported":1777138176,"current_range_meters":4000,"station_id":"ce4bhsh2rcd13ifvqi2g","pricing_plan_id":"cebpf4jnsgd1na2vs0mg"},{"bike_id":"c6ea3ed5-fb6e-4c05-a310-d0f7bdf97735","system_id":"levelo_inurba_marseille","lat":43.30647,"lon":5.40079,"is_reserved":false,"is_disabled":false,"rental_uris":{"android":"levelo://app?vid=c6ea3ed5-fb6e-4c05-a310-d0f7bdf97735","ios":"levelo://app?vid=c6ea3ed5-fb6e-4c05-a310-d0f7bdf97735"},"vehicle_type_id":"4","last_reported":1777138176,"current_range_meters":4000,"station_id":"ce4bh112rcd13ifvqda0","pricing_plan_id":"cebpf4jnsgd1na2vs0mg"},{"bike_id":"afe4aa57-660b-4c23-a593-83742b009a9d","system_id":"levelo_inurba_marseille","lat":43.29204,"lon":5.36065,"is_reserved":false,"is_disabled":false,"rental_uris":{"android":"levelo://app?vid=afe4aa57-660b-4c23-a593-83742b009a9d","ios":"levelo://app?vid=afe4aa57-660b-4c23-a593-83742b009a9d"},"vehicle_type_id":"4","last_reported":1777138176,"current_range_meters":4000,"station_id":"ce4bhbh2rcd13ifvqeqg","pricing_plan_id":"cebpf4jnsgd1na2vs0mg"},{"bike_id":"dafc4c6f-3e7f-4e31-91d5-62f3da7dfeaa","system_id":"levelo_inurba_marseille","lat":43.24157,"lon":5.36404,"is_reserved":false,"is_disabled":false,"rental_uris":{"android":"levelo://app?vid=dafc4c6f-3e7f-4e31-91d5-62f3da7dfeaa","ios":"levelo://app?vid=dafc4c6f-3e7f-4e31-91d5-62f3da7dfeaa"},"vehicle_type_id":"4","last_reported":1777138176,"current_range_meters":4000,"station_id":"cpo36qri1sfpv3e86is0","pricing_plan_id":"cebpf4jnsgd1na2vs0mg"},{"bike_id":"ec91c01b-63b1-4278-b8de-9dad76b76c9c","system_id":"levelo_inurba_marseille","lat":43.31883,"lon":5.39989,"is_reserved":false,"is_disabled":false,"rental_uris":{"android":"levelo://app?vid=ec91c01b-63b1-4278-b8de-9dad76b76c9c","ios":"levelo://app?vid=ec91c01b-63b1-4278-b8de-9dad76b76c9c"},"vehicle_type_id":"4","last_reported":1777138176,"current_range_meters":4000,"station_id":"","pricing_plan_id":"cebpf4jnsgd1na2vs0mg"},{"bike_id":"26209853-d527-47ab-ac56-d1c2607daa2d","system_id":"levelo_inurba_marseille","lat":43.26192,"lon":5.37448,"is_reserved":false,"is_disabled":true,"rental_uris":{"android":"levelo://app?vid=26209853-d527-47ab-ac56-d1c2607daa2d","ios":"levelo://app?vid=26209853-d527-47ab-ac56-d1c2607daa2d"},"vehicle_type_id":"4","last_reported":1777138176,"current_range_meters":4000,"station_id":"ce4bhgp2rcd13ifvqfc0","pricing_plan_id":"cebpf4jnsgd1na2vs0mg"},{"bike_id":"ddc8fe37-eed6-4afe-b6fe-6520dd99550d","system_id":"levelo_inurba_marseille","lat":43.2903,"lon":5.38651,"is_reserved":false,"is_disabled":false,"rental_uris":{"android":"levelo://app?vid=ddc8fe37-eed6-4afe-b6fe-6520dd99550d","ios":"levelo://app?vid=ddc8fe37-eed6-4afe-b6fe-6520dd99550d"},"vehicle_type_id":"4","last_reported":1777138176,"current_range_meters":4000,"station_id":"ce4bh4p2rcd13ifvqe0g","pricing_plan_id":"cebpf4jnsgd1na2vs0mg"},{"bike_id":"646fb12b-ee29-42bc-8938-92ea12560c47","system_id":"levelo_inurba_marseille","lat":43.283679,"lon":5.386315,"is_reserved":false,"is_disabled":false,"rental_uris":{"android":"levelo://app?vid=646fb12b-ee29-42bc-8938-92ea12560c47","ios":"levelo://app?vid=646fb12b-ee29-42bc-8938-92ea12560c47"},"vehicle_type_id":"4","last_reported":1777138176,"current_range_meters":4000,"station_id":"ce4bh492rcd13ifvqdvg","pricing_plan_id":"cebpf4jnsgd1na2vs0mg"},{"bike_id":"26805ef2-493c-45b6-b843-ad5b2b198d6d","system_id":"levelo_inurba_marseille","lat":43.30434,"lon":5.38892,"is_reserved":false,"is_disabled":false,"rental_uris":{"android":"levelo://app?vid=26805ef2-493c-45b6-b843-ad5b2b198d6d","ios":"levelo://app?vid=26805ef2-493c-45b6-b843-ad5b2b198d6d"},"vehicle_type_id":"4","last_reported":1777138176,"current_range_meters":4000,"station_id":"ce4bgk12rcd13ifvqbi0","pricing_plan_id":"cebpf4jnsgd1na2vs0mg"},{"bike_id":"c7ac0306-6afc-4781-8692-f962ddfe1a23","system_id":"levelo_inurba_marseille","lat":43.32353,"lon":5.36749,"is_reserved":false,"is_disabled":false,"rental_uris":{"android":"levelo://app?vid=c7ac0306-6afc-4781-8692-f962ddfe1a23","ios":"levelo://app?vid=c7ac0306-6afc-4781-8692-f962ddfe1a23"},"vehicle_type_id":"4","last_reported":1777138176,"current_range_meters":4000,"station_id":"ce4bhsh2rcd13ifvqi2g","pricing_plan_id":"cebpf4jnsgd1na2vs0mg"},{"bike_id":"c6048fe3-04b4-4158-8406-c54eeae6cf72","system_id":"levelo_inurba_marseille","lat":43.28725,"lon":5.39977,"is_reserved":false,"is_disabled":false,"rental_uris":{"android":"levelo://app?vid=c6048fe3-04b4-4158-8406-c54eeae6cf72","ios":"levelo://app?vid=c6048fe3-04b4-4158-8406-c54eeae6cf72"},"vehicle_type_id":"4","last_reported":1777138176,"current_range_meters":4000,"station_id":"ce4bho92rcd13ifvqh3g","pricing_plan_id":"cebpf4jnsgd1na2vs0mg"},{"bike_id":"55dac262-ace3-4cc5-8f16-1d2a791e13d8","system_id":"levelo_inurba_marseille","lat":43.273136,"lon":5.390831,"is_reserved":false,"is_disabled":false,"rental_uris":{"android":"levelo://app?vid=55dac262-ace3-4cc5-8f16-1d2a791e13d8","ios":"levelo://app?vid=55dac262-ace3-4cc5-8f16-1d2a791e13d8"},"vehicle_type_id":"4","last_reported":1777138176,"current_range_meters":4400,"station_id":"ce4bhgp2rcd13ifvqfe0","pricing_plan_id":"cebpf4jnsgd1na2vs0mg"},{"bike_id":"42b6250b-918b-4ff5-b702-2077f83eb12d","system_id":"levelo_inurba_marseille","lat":43.29177,"lon":5.37152,"is_reserved":false,"is_disabled":false,"rental_uris":{"android":"levelo://app?vid=42b6250b-918b-4ff5-b702-2077f83eb12d","ios":"levelo://app?vid=42b6250b-918b-4ff5-b702-2077f83eb12d"},"vehicle_type_id":"4","last_reported":1777138176,"current_range_meters":4400,"station_id":"ce4bha92rcd13ifvqeh0","pricing_plan_id":"cebpf4jnsgd1na2vs0mg"},{"bike_id":"62d63ba1-f166-46fe-8328-f06136796a83","system_id":"levelo_inurba_marseille","lat":43.283604,"lon":5.386327,"is_reserved":false,"is_disabled":false,"rental_uris":{"android":"levelo://app?vid=62d63ba1-f166-46fe-8328-f06136796a83","ios":"levelo://app?vid=62d63ba1-f166-46fe-8328-f06136796a83"},"vehicle_type_id":"4","last_reported":1777138176,"current_range_meters":4400,"station_id":"ce4bhap2rcd13ifvqek0","pricing_plan_id":"cebpf4jnsgd1na2vs0mg"},{"bike_id":"6753dad5-4f65-43a5-b942-85e898c11906","system_id":"levelo_inurba_marseille","lat":43.24828,"lon":5.37437,"is_reserved":false,"is_disabled":false,"rental_uris":{"android":"levelo://app?vid=6753dad5-4f65-43a5-b942-85e898c11906","ios":"levelo://app?vid=6753dad5-4f65-43a5-b942-85e898c11906"},"vehicle_type_id":"4","last_reported":1777138176,"current_range_meters":4400,"station_id":"ce4bhgh2rcd13ifvqfb0","pricing_plan_id":"cebpf4jnsgd1na2vs0mg"},{"bike_id":"1370c3f0-6074-43de-a93b-f7f87c829b3b","system_id":"levelo_inurba_marseille","lat":43.2912,"lon":5.39985,"is_reserved":false,"is_disabled":false,"rental_uris":{"android":"levelo://app?vid=1370c3f0-6074-43de-a93b-f7f87c829b3b","ios":"levelo://app?vid=1370c3f0-6074-43de-a93b-f7f87c829b3b"},"vehicle_type_id":"4","last_reported":1777138176,"current_range_meters":4400,"station_id":"","pricing_plan_id":"cebpf4jnsgd1na2vs0mg"},{"bike_id":"5e24b500-6d09-48a3-8de7-51c8a68ea398","system_id":"levelo_inurba_marseille","lat":43.29293,"lon":5.37154,"is_reserved":false,"is_disabled":false,"rental_uris":{"android":"levelo://app?vid=5e24b500-6d09-48a3-8de7-51c8a68ea398","ios":"levelo://app?vid=5e24b500-6d09-48a3-8de7-51c8a68ea398"},"vehicle_type_id":"4","last_reported":1777138176,"current_range_meters":4400,"station_id":"ce4bgh92rcd13ifvqb40","pricing_plan_id":"cebpf4jnsgd1na2vs0mg"},{"bike_id":"0c100986-02f9-4102-8756-1b6fd6c3f2a7","system_id":"levelo_inurba_marseille","lat":43.26228,"lon":5.40455,"is_reserved":false,"is_disabled":false,"rental_uris":{"android":"levelo://app?vid=0c100986-02f9-4102-8756-1b6fd6c3f2a7","ios":"levelo://app?vid=0c100986-02f9-4102-8756-1b6fd6c3f2a7"},"vehicle_type_id":"4","last_reported":1777138176,"current_range_meters":4400,"station_id":"ce4bhmh2rcd13ifvqgmg","pricing_plan_id":"cebpf4jnsgd1na2vs0mg"},{"bike_id":"68ca845d-8604-44a8-ad8d-44704f6a12dd","system_id":"levelo_inurba_marseille","lat":43.25334,"lon":5.42178,"is_reserved":false,"is_disabled":false,"rental_uris":{"android":"levelo://app?vid=68ca845d-8604-44a8-ad8d-44704f6a12dd","ios":"levelo://app?vid=68ca845d-8604-44a8-ad8d-44704f6a12dd"},"vehicle_type_id":"4","last_reported":1777138176,"current_range_meters":4400,"station_id":"st_d2m65c5bi1j21697t3ng","pricing_plan_id":"cebpf4jnsgd1na2vs0mg"},{"bike_id":"12e3170c-3401-42a8-b7fb-4950b48d21a8","system_id":"levelo_inurba_marseille","lat":43.24165,"lon":5.36393,"is_reserved":false,"is_disabled":false,"rental_uris":{"android":"levelo://app?vid=12e3170c-3401-42a8-b7fb-4950b48d21a8","ios":"levelo://app?vid=12e3170c-3401-42a8-b7fb-4950b48d21a8"},"vehicle_type_id":"4","last_reported":1777138176,"current_range_meters":4400,"station_id":"cpo36qri1sfpv3e86is0","pricing_plan_id":"cebpf4jnsgd1na2vs0mg"},{"bike_id":"31c03ed6-2b0c-4a38-b68c-930b3f6b9976","system_id":"levelo_inurba_marseille","lat":43.26209,"lon":5.37424,"is_reserved":false,"is_disabled":false,"rental_uris":{"android":"levelo://app?vid=31c03ed6-2b0c-4a38-b68c-930b3f6b9976","ios":"levelo://app?vid=31c03ed6-2b0c-4a38-b68c-930b3f6b9976"},"vehicle_type_id":"4","last_reported":1777138176,"current_range_meters":4400,"station_id":"ce4bhgp2rcd13ifvqfc0","pricing_plan_id":"cebpf4jnsgd1na2vs0mg"},{"bike_id":"4d5b4915-5fc0-4782-a3a4-e445cc2cf470","system_id":"levelo_inurba_marseille","lat":43.29871,"lon":5.42101,"is_reserved":false,"is_disabled":false,"rental_uris":{"android":"levelo://app?vid=4d5b4915-5fc0-4782-a3a4-e445cc2cf470","ios":"levelo://app?vid=4d5b4915-5fc0-4782-a3a4-e445cc2cf470"},"vehicle_type_id":"4","last_reported":1777138176,"current_range_meters":4400,"station_id":"st_d6tc004otcvc738tfe70","pricing_plan_id":"cebpf4jnsgd1na2vs0mg"},{"bike_id":"372e3606-a46b-451e-9031-bdede728f8ec","system_id":"levelo_inurba_marseille","lat":43.281,"lon":5.37833,"is_reserved":false,"is_disabled":false,"rental_uris":{"android":"levelo://app?vid=372e3606-a46b-451e-9031-bdede728f8ec","ios":"levelo://app?vid=372e3606-a46b-451e-9031-bdede728f8ec"},"vehicle_type_id":"4","last_reported":1777138176,"current_range_meters":4400,"station_id":"ce4bha12rcd13ifvqee0","pricing_plan_id":"cebpf4jnsgd1na2vs0mg"},{"bike_id":"e4c05550-3c8b-465b-9688-1aee4c05f542","system_id":"levelo_inurba_marseille","lat":43.24394,"lon":5.37063,"is_reserved":false,"is_disabled":false,"rental_uris":{"android":"levelo://app?vid=e4c05550-3c8b-465b-9688-1aee4c05f542","ios":"levelo://app?vid=e4c05550-3c8b-465b-9688-1aee4c05f542"},"vehicle_type_id":"4","last_reported":1777138176,"current_range_meters":4400,"station_id":"ce4bhhh2rcd13ifvqfk0","pricing_plan_id":"cebpf4jnsgd1na2vs0mg"},{"bike_id":"261b4d20-3fce-4a9a-b1df-f7d9447249df","system_id":"levelo_inurba_marseille","lat":43.28497,"lon":5.48413,"is_reserved":false,"is_disabled":false,"rental_uris":{"android":"levelo://app?vid=261b4d20-3fce-4a9a-b1df-f7d9447249df","ios":"levelo://app?vid=261b4d20-3fce-4a9a-b1df-f7d9447249df"},"vehicle_type_id":"4","last_reported":1777138176,"current_range_meters":4400,"station_id":"st_d3svhcjqgbts73a3dn0g","pricing_plan_id":"cebpf4jnsgd1na2vs0mg"},{"bike_id":"e81bc0e6-a1b2-4ace-857b-fedca986f18e","system_id":"levelo_inurba_marseille","lat":43.295246,"lon":5.385389,"is_reserved":false,"is_disabled":false,"rental_uris":{"android":"levelo://app?vid=e81bc0e6-a1b2-4ace-857b-fedca986f18e","ios":"levelo://app?vid=e81bc0e6-a1b2-4ace-857b-fedca986f18e"},"vehicle_type_id":"4","last_reported":1777138176,"current_range_meters":4400,"station_id":"ce4bgih2rcd13ifvqba0","pricing_plan_id":"cebpf4jnsgd1na2vs0mg"},{"bike_id":"6b9ce698-2455-40c2-a58e-a679b50d7f03","system_id":"levelo_inurba_marseille","lat":43.25581,"lon":5.38237,"is_reserved":false,"is_disabled":false,"rental_uris":{"android":"levelo://app?vid=6b9ce698-2455-40c2-a58e-a679b50d7f03","ios":"levelo://app?vid=6b9ce698-2455-40c2-a58e-a679b50d7f03"},"vehicle_type_id":"4","last_reported":1777138176,"current_range_meters":4400,"station_id":"ce4bhih2rcd13ifvqfs0","pricing_plan_id":"cebpf4jnsgd1na2vs0mg"},{"bike_id":"f8b71621-9ee0-4284-b9b2-be8fa047ba8a","system_id":"levelo_inurba_marseille","lat":43.30136,"lon":5.43112,"is_reserved":false,"is_disabled":false,"rental_uris":{"android":"levelo://app?vid=f8b71621-9ee0-4284-b9b2-be8fa047ba8a","ios":"levelo://app?vid=f8b71621-9ee0-4284-b9b2-be8fa047ba8a"},"vehicle_type_id":"4","last_reported":1777138176,"current_range_meters":4400,"station_id":"st_d3js3co5814s73ftftug","pricing_plan_id":"cebpf4jnsgd1na2vs0mg"},{"bike_id":"3da24b70-751d-44cb-9572-cf8e3d4aa057","system_id":"levelo_inurba_marseille","lat":43.27578,"lon":5.38419,"is_reserved":false,"is_disabled":false,"rental_uris":{"android":"levelo://app?vid=3da24b70-751d-44cb-9572-cf8e3d4aa057","ios":"levelo://app?vid=3da24b70-751d-44cb-9572-cf8e3d4aa057"},"vehicle_type_id":"4","last_reported":1777138176,"current_range_meters":4400,"station_id":"ce4bhh92rcd13ifvqfi0","pricing_plan_id":"cebpf4jnsgd1na2vs0mg"},{"bike_id":"dac749a0-ac7d-464f-816a-89a0b30a0560","system_id":"levelo_inurba_marseille","lat":43.28948,"lon":5.36401,"is_reserved":false,"is_disabled":false,"rental_uris":{"android":"levelo://app?vid=dac749a0-ac7d-464f-816a-89a0b30a0560","ios":"levelo://app?vid=dac749a0-ac7d-464f-816a-89a0b30a0560"},"vehicle_type_id":"4","last_reported":1777138176,"current_range_meters":4800,"station_id":"ce4bhc92rcd13ifvqetg","pricing_plan_id":"cebpf4jnsgd1na2vs0mg"},{"bike_id":"41afb01d-d585-4ee9-8740-39c9f312ea1d","system_id":"levelo_inurba_marseille","lat":43.29034,"lon":5.39964,"is_reserved":false,"is_disabled":false,"rental_uris":{"android":"levelo://app?vid=41afb01d-d585-4ee9-8740-39c9f312ea1d","ios":"levelo://app?vid=41afb01d-d585-4ee9-8740-39c9f312ea1d"},"vehicle_type_id":"4","last_reported":1777138176,"current_range_meters":4800,"station_id":"ce4bh392rcd13ifvqdm0","pricing_plan_id":"cebpf4jnsgd1na2vs0mg"},{"bike_id":"aad0e96d-6d45-44c2-b98b-48e38cff661b","system_id":"levelo_inurba_marseille","lat":43.29023,"lon":5.39988,"is_reserved":false,"is_disabled":false,"rental_uris":{"android":"levelo://app?vid=aad0e96d-6d45-44c2-b98b-48e38cff661b","ios":"levelo://app?vid=aad0e96d-6d45-44c2-b98b-48e38cff661b"},"vehicle_type_id":"4","last_reported":1777138176,"current_range_meters":4800,"station_id":"ce4bh392rcd13ifvqdm0","pricing_plan_id":"cebpf4jnsgd1na2vs0mg"},{"bike_id":"1d368fe1-0c8f-4a40-864c-b54082c58fa1","system_id":"levelo_inurba_marseille","lat":43.3354,"lon":5.37467,"is_reserved":false,"is_disabled":false,"rental_uris":{"android":"levelo://app?vid=1d368fe1-0c8f-4a40-864c-b54082c58fa1","ios":"levelo://app?vid=1d368fe1-0c8f-4a40-864c-b54082c58fa1"},"vehicle_type_id":"4","last_reported":1777138176,"current_range_meters":4800,"station_id":"st_d46tts09ee8s73dlu43g","pricing_plan_id":"cebpf4jnsgd1na2vs0mg"},{"bike_id":"5be0883e-9142-4b71-9b48-50fc24227f7d","system_id":"levelo_inurba_marseille","lat":43.24169,"lon":5.36402,"is_reserved":false,"is_disabled":false,"rental_uris":{"android":"levelo://app?vid=5be0883e-9142-4b71-9b48-50fc24227f7d","ios":"levelo://app?vid=5be0883e-9142-4b71-9b48-50fc24227f7d"},"vehicle_type_id":"4","last_reported":1777138176,"current_range_meters":4800,"station_id":"cpo36qri1sfpv3e86is0","pricing_plan_id":"cebpf4jnsgd1na2vs0mg"},{"bike_id":"09dca68d-a96e-4c7c-8c93-084a9274aaf6","system_id":"levelo_inurba_marseille","lat":43.22526,"lon":5.34827,"is_reserved":false,"is_disabled":false,"rental_uris":{"android":"levelo://app?vid=09dca68d-a96e-4c7c-8c93-084a9274aaf6","ios":"levelo://app?vid=09dca68d-a96e-4c7c-8c93-084a9274aaf6"},"vehicle_type_id":"4","last_reported":1777138176,"current_range_meters":4800,"station_id":"st_cvj5dfep6f1abm77gieg","pricing_plan_id":"cebpf4jnsgd1na2vs0mg"},{"bike_id":"42999373-795e-41e8-90da-6073593ebf06","system_id":"levelo_inurba_marseille","lat":43.28418,"lon":5.34976,"is_reserved":false,"is_disabled":false,"rental_uris":{"android":"levelo://app?vid=42999373-795e-41e8-90da-6073593ebf06","ios":"levelo://app?vid=42999373-795e-41e8-90da-6073593ebf06"},"vehicle_type_id":"4","last_reported":1777138176,"current_range_meters":4800,"station_id":"ce4bhbh2rcd13ifvqepg","pricing_plan_id":"cebpf4jnsgd1na2vs0mg"},{"bike_id":"6269d934-4a0b-4c5b-af4e-3df38cdc6875","system_id":"levelo_inurba_marseille","lat":43.299744,"lon":5.384885,"is_reserved":false,"is_disabled":false,"rental_uris":{"android":"levelo://app?vid=6269d934-4a0b-4c5b-af4e-3df38cdc6875","ios":"levelo://app?vid=6269d934-4a0b-4c5b-af4e-3df38cdc6875"},"vehicle_type_id":"4","last_reported":1777138176,"current_range_meters":4800,"station_id":"ce4bgj92rcd13ifvqbd0","pricing_plan_id":"cebpf4jnsgd1na2vs0mg"},{"bike_id":"57ab186c-55e8-4e52-9235-658c0fec672f","system_id":"levelo_inurba_marseille","lat":43.29967,"lon":5.38501,"is_reserved":false,"is_disabled":false,"rental_uris":{"android":"levelo://app?vid=57ab186c-55e8-4e52-9235-658c0fec672f","ios":"levelo://app?vid=57ab186c-55e8-4e52-9235-658c0fec672f"},"vehicle_type_id":"4","last_reported":1777138176,"current_range_meters":4800,"station_id":"ce4bgj92rcd13ifvqbd0","pricing_plan_id":"cebpf4jnsgd1na2vs0mg"},{"bike_id":"98b0a414-d402-45ae-b1cd-1ef53b975591","system_id":"levelo_inurba_marseille","lat":43.2293,"lon":5.35374,"is_reserved":false,"is_disabled":false,"rental_uris":{"android":"levelo://app?vid=98b0a414-d402-45ae-b1cd-1ef53b975591","ios":"levelo://app?vid=98b0a414-d402-45ae-b1cd-1ef53b975591"},"vehicle_type_id":"4","last_reported":1777138176,"current_range_meters":4800,"station_id":"cpo3532slgdg3j2ikp40","pricing_plan_id":"cebpf4jnsgd1na2vs0mg"},{"bike_id":"8c8d3a1e-3e2c-407c-b8ad-af868cc54226","system_id":"levelo_inurba_marseille","lat":43.294882,"lon":5.393907,"is_reserved":false,"is_disabled":false,"rental_uris":{"android":"levelo://app?vid=8c8d3a1e-3e2c-407c-b8ad-af868cc54226","ios":"levelo://app?vid=8c8d3a1e-3e2c-407c-b8ad-af868cc54226"},"vehicle_type_id":"4","last_reported":1777138176,"current_range_meters":5600,"station_id":"","pricing_plan_id":"cebpf4jnsgd1na2vs0mg"},{"bike_id":"f645e30b-5616-45b3-a17d-faf4a49d971d","system_id":"levelo_inurba_marseille","lat":43.31,"lon":5.37533,"is_reserved":false,"is_disabled":false,"rental_uris":{"android":"levelo://app?vid=f645e30b-5616-45b3-a17d-faf4a49d971d","ios":"levelo://app?vid=f645e30b-5616-45b3-a17d-faf4a49d971d"},"vehicle_type_id":"4","last_reported":1777138176,"current_range_meters":5600,"station_id":"","pricing_plan_id":"cebpf4jnsgd1na2vs0mg"},{"bike_id":"baf5e93f-baa0-4776-9800-afea43e9329e","system_id":"levelo_inurba_marseille","lat":43.23215,"lon":5.35563,"is_reserved":false,"is_disabled":false,"rental_uris":{"android":"levelo://app?vid=baf5e93f-baa0-4776-9800-afea43e9329e","ios":"levelo://app?vid=baf5e93f-baa0-4776-9800-afea43e9329e"},"vehicle_type_id":"4","last_reported":1777138176,"current_range_meters":5600,"station_id":"ce4bhu92rcd13ifvqi70","pricing_plan_id":"cebpf4jnsgd1na2vs0mg"},{"bike_id":"45ad0d0e-efdd-4c05-bbcd-19b309dc3892","system_id":"levelo_inurba_marseille","lat":43.27999,"lon":5.41654,"is_reserved":false,"is_disabled":false,"rental_uris":{"android":"levelo://app?vid=45ad0d0e-efdd-4c05-bbcd-19b309dc3892","ios":"levelo://app?vid=45ad0d0e-efdd-4c05-bbcd-19b309dc3892"},"vehicle_type_id":"4","last_reported":1777138176,"current_range_meters":5600,"station_id":"ce4bho12rcd13ifvqh1g","pricing_plan_id":"cebpf4jnsgd1na2vs0mg"},{"bike_id":"229e4557-384d-4a68-9d9c-a426b264692f","system_id":"levelo_inurba_marseille","lat":43.26022,"lon":5.37574,"is_reserved":false,"is_disabled":false,"rental_uris":{"android":"levelo://app?vid=229e4557-384d-4a68-9d9c-a426b264692f","ios":"levelo://app?vid=229e4557-384d-4a68-9d9c-a426b264692f"},"vehicle_type_id":"4","last_reported":1777138176,"current_range_meters":5600,"station_id":"ce4bhgh2rcd13ifvqfa0","pricing_plan_id":"cebpf4jnsgd1na2vs0mg"},{"bike_id":"a3dee876-3af2-46d4-9131-1dd0997e500a","system_id":"levelo_inurba_marseille","lat":43.24409,"lon":5.37066,"is_reserved":false,"is_disabled":true,"rental_uris":{"android":"levelo://app?vid=a3dee876-3af2-46d4-9131-1dd0997e500a","ios":"levelo://app?vid=a3dee876-3af2-46d4-9131-1dd0997e500a"},"vehicle_type_id":"4","last_reported":1777138176,"current_range_meters":5600,"station_id":"ce4bhhh2rcd13ifvqfk0","pricing_plan_id":"cebpf4jnsgd1na2vs0mg"},{"bike_id":"9551b7f8-7ec6-44ce-b417-c7266eba15be","system_id":"levelo_inurba_marseille","lat":43.29264,"lon":5.3844,"is_reserved":false,"is_disabled":false,"rental_uris":{"android":"levelo://app?vid=9551b7f8-7ec6-44ce-b417-c7266eba15be","ios":"levelo://app?vid=9551b7f8-7ec6-44ce-b417-c7266eba15be"},"vehicle_type_id":"4","last_reported":1777138176,"current_range_meters":5600,"station_id":"ce4bh692rcd13ifvqea0","pricing_plan_id":"cebpf4jnsgd1na2vs0mg"},{"bike_id":"807adc29-d73c-47ad-9be4-e4d12dcf2748","system_id":"levelo_inurba_marseille","lat":43.29879,"lon":5.38903,"is_reserved":false,"is_disabled":false,"rental_uris":{"android":"levelo://app?vid=807adc29-d73c-47ad-9be4-e4d12dcf2748","ios":"levelo://app?vid=807adc29-d73c-47ad-9be4-e4d12dcf2748"},"vehicle_type_id":"4","last_reported":1777138176,"current_range_meters":5600,"station_id":"ce4bh392rcd13ifvqdl0","pricing_plan_id":"cebpf4jnsgd1na2vs0mg"},{"bike_id":"75471a09-e4ee-4438-b4e9-ebcc3c66f359","system_id":"levelo_inurba_marseille","lat":43.2119,"lon":5.35205,"is_reserved":false,"is_disabled":false,"rental_uris":{"android":"levelo://app?vid=75471a09-e4ee-4438-b4e9-ebcc3c66f359","ios":"levelo://app?vid=75471a09-e4ee-4438-b4e9-ebcc3c66f359"},"vehicle_type_id":"4","last_reported":1777138176,"current_range_meters":5600,"station_id":"","pricing_plan_id":"cebpf4jnsgd1na2vs0mg"},{"bike_id":"ad8d5739-50ee-4aa2-9bf4-9b69299e4bf5","system_id":"levelo_inurba_marseille","lat":43.30437,"lon":5.38879,"is_reserved":false,"is_disabled":false,"rental_uris":{"android":"levelo://app?vid=ad8d5739-50ee-4aa2-9bf4-9b69299e4bf5","ios":"levelo://app?vid=ad8d5739-50ee-4aa2-9bf4-9b69299e4bf5"},"vehicle_type_id":"4","last_reported":1777138176,"current_range_meters":5600,"station_id":"ce4bgk12rcd13ifvqbi0","pricing_plan_id":"cebpf4jnsgd1na2vs0mg"},{"bike_id":"62a20b6e-e98d-4cc9-b298-e865d7184b00","system_id":"levelo_inurba_marseille","lat":43.25517,"lon":5.37621,"is_reserved":false,"is_disabled":false,"rental_uris":{"android":"levelo://app?vid=62a20b6e-e98d-4cc9-b298-e865d7184b00","ios":"levelo://app?vid=62a20b6e-e98d-4cc9-b298-e865d7184b00"},"vehicle_type_id":"4","last_reported":1777138176,"current_range_meters":5600,"station_id":"ce4bhh12rcd13ifvqff0","pricing_plan_id":"cebpf4jnsgd1na2vs0mg"},{"bike_id":"4f81052a-376c-4dec-a1c7-95196629e642","system_id":"levelo_inurba_marseille","lat":43.3096,"lon":5.3905,"is_reserved":false,"is_disabled":false,"rental_uris":{"android":"levelo://app?vid=4f81052a-376c-4dec-a1c7-95196629e642","ios":"levelo://app?vid=4f81052a-376c-4dec-a1c7-95196629e642"},"vehicle_type_id":"4","last_reported":1777138176,"current_range_meters":5600,"station_id":"ce4bgup2rcd13ifvqco0","pricing_plan_id":"cebpf4jnsgd1na2vs0mg"},{"bike_id":"6b498e23-233c-44e7-bdf2-4e8481886ee3","system_id":"levelo_inurba_marseille","lat":43.25509,"lon":5.37647,"is_reserved":false,"is_disabled":false,"rental_uris":{"android":"levelo://app?vid=6b498e23-233c-44e7-bdf2-4e8481886ee3","ios":"levelo://app?vid=6b498e23-233c-44e7-bdf2-4e8481886ee3"},"vehicle_type_id":"4","last_reported":1777138176,"current_range_meters":5600,"station_id":"ce4bhh12rcd13ifvqff0","pricing_plan_id":"cebpf4jnsgd1na2vs0mg"},{"bike_id":"9e736a24-151b-4861-9d3c-68515cd11e0f","system_id":"levelo_inurba_marseille","lat":43.32087,"lon":5.36776,"is_reserved":false,"is_disabled":false,"rental_uris":{"android":"levelo://app?vid=9e736a24-151b-4861-9d3c-68515cd11e0f","ios":"levelo://app?vid=9e736a24-151b-4861-9d3c-68515cd11e0f"},"vehicle_type_id":"4","last_reported":1777138176,"current_range_meters":5600,"station_id":"ce4bhrh2rcd13ifvqhug","pricing_plan_id":"cebpf4jnsgd1na2vs0mg"},{"bike_id":"80309c2f-0b13-485c-b34e-7aea28fc6c2e","system_id":"levelo_inurba_marseille","lat":43.30949,"lon":5.3903,"is_reserved":false,"is_disabled":false,"rental_uris":{"android":"levelo://app?vid=80309c2f-0b13-485c-b34e-7aea28fc6c2e","ios":"levelo://app?vid=80309c2f-0b13-485c-b34e-7aea28fc6c2e"},"vehicle_type_id":"4","last_reported":1777138176,"current_range_meters":5600,"station_id":"ce4bgup2rcd13ifvqco0","pricing_plan_id":"cebpf4jnsgd1na2vs0mg"},{"bike_id":"8102a99f-dad7-4e53-934b-bbdd50547b9e","system_id":"levelo_inurba_marseille","lat":43.28226,"lon":5.39071,"is_reserved":false,"is_disabled":false,"rental_uris":{"android":"levelo://app?vid=8102a99f-dad7-4e53-934b-bbdd50547b9e","ios":"levelo://app?vid=8102a99f-dad7-4e53-934b-bbdd50547b9e"},"vehicle_type_id":"4","last_reported":1777138176,"current_range_meters":5600,"station_id":"ce4bhn92rcd13ifvqgsg","pricing_plan_id":"cebpf4jnsgd1na2vs0mg"},{"bike_id":"d54ba243-3fa7-4f57-81a5-dd9699270ba4","system_id":"levelo_inurba_marseille","lat":43.27493,"lon":5.42449,"is_reserved":false,"is_disabled":false,"rental_uris":{"android":"levelo://app?vid=d54ba243-3fa7-4f57-81a5-dd9699270ba4","ios":"levelo://app?vid=d54ba243-3fa7-4f57-81a5-dd9699270ba4"},"vehicle_type_id":"4","last_reported":1777138176,"current_range_meters":5600,"station_id":"ce4bhn92rcd13ifvqgrg","pricing_plan_id":"cebpf4jnsgd1na2vs0mg"},{"bike_id":"69a06c23-bb5b-4390-81da-6cd9c1b1f2cc","system_id":"levelo_inurba_marseille","lat":43.29521,"lon":5.39044,"is_reserved":false,"is_disabled":false,"rental_uris":{"android":"levelo://app?vid=69a06c23-bb5b-4390-81da-6cd9c1b1f2cc","ios":"levelo://app?vid=69a06c23-bb5b-4390-81da-6cd9c1b1f2cc"},"vehicle_type_id":"4","last_reported":1777138176,"current_range_meters":5600,"station_id":"ce4bh3p2rcd13ifvqdp0","pricing_plan_id":"cebpf4jnsgd1na2vs0mg"},{"bike_id":"0ce641a1-ca62-4f05-b894-4a72f77b98f2","system_id":"levelo_inurba_marseille","lat":43.32355,"lon":5.36728,"is_reserved":false,"is_disabled":false,"rental_uris":{"android":"levelo://app?vid=0ce641a1-ca62-4f05-b894-4a72f77b98f2","ios":"levelo://app?vid=0ce641a1-ca62-4f05-b894-4a72f77b98f2"},"vehicle_type_id":"4","last_reported":1777138176,"current_range_meters":6000,"station_id":"ce4bhsh2rcd13ifvqi2g","pricing_plan_id":"cebpf4jnsgd1na2vs0mg"},{"bike_id":"7c7a6e62-e130-431f-b3ec-a07feec308d8","system_id":"levelo_inurba_marseille","lat":43.22703,"lon":5.34817,"is_reserved":false,"is_disabled":false,"rental_uris":{"android":"levelo://app?vid=7c7a6e62-e130-431f-b3ec-a07feec308d8","ios":"levelo://app?vid=7c7a6e62-e130-431f-b3ec-a07feec308d8"},"vehicle_type_id":"4","last_reported":1777138176,"current_range_meters":6000,"station_id":"","pricing_plan_id":"cebpf4jnsgd1na2vs0mg"},{"bike_id":"1da117f2-f893-4ac3-99f7-852c0750949e","system_id":"levelo_inurba_marseille","lat":43.27645,"lon":5.36117,"is_reserved":false,"is_disabled":false,"rental_uris":{"android":"levelo://app?vid=1da117f2-f893-4ac3-99f7-852c0750949e","ios":"levelo://app?vid=1da117f2-f893-4ac3-99f7-852c0750949e"},"vehicle_type_id":"4","last_reported":1777138176,"current_range_meters":6000,"station_id":"ce4bgj92rcd13ifvqbe0","pricing_plan_id":"cebpf4jnsgd1na2vs0mg"},{"bike_id":"9278db47-07ec-490b-96cb-556e160c5c2f","system_id":"levelo_inurba_marseille","lat":43.29696,"lon":5.38042,"is_reserved":false,"is_disabled":false,"rental_uris":{"android":"levelo://app?vid=9278db47-07ec-490b-96cb-556e160c5c2f","ios":"levelo://app?vid=9278db47-07ec-490b-96cb-556e160c5c2f"},"vehicle_type_id":"4","last_reported":1777138176,"current_range_meters":6000,"station_id":"","pricing_plan_id":"cebpf4jnsgd1na2vs0mg"},{"bike_id":"7c0b243d-10f5-4250-910b-ba2fd78421a5","system_id":"levelo_inurba_marseille","lat":43.3095,"lon":5.39027,"is_reserved":false,"is_disabled":false,"rental_uris":{"android":"levelo://app?vid=7c0b243d-10f5-4250-910b-ba2fd78421a5","ios":"levelo://app?vid=7c0b243d-10f5-4250-910b-ba2fd78421a5"},"vehicle_type_id":"4","last_reported":1777138176,"current_range_meters":6000,"station_id":"ce4bgup2rcd13ifvqco0","pricing_plan_id":"cebpf4jnsgd1na2vs0mg"},{"bike_id":"fb53971c-3bb6-4bf0-a704-387e6d4235bb","system_id":"levelo_inurba_marseille","lat":43.29909,"lon":5.37475,"is_reserved":false,"is_disabled":false,"rental_uris":{"android":"levelo://app?vid=fb53971c-3bb6-4bf0-a704-387e6d4235bb","ios":"levelo://app?vid=fb53971c-3bb6-4bf0-a704-387e6d4235bb"},"vehicle_type_id":"4","last_reported":1777138176,"current_range_meters":6000,"station_id":"ce4bgjh2rcd13ifvqbg0","pricing_plan_id":"cebpf4jnsgd1na2vs0mg"},{"bike_id":"021c3599-d960-4255-bf18-8b3b47549997","system_id":"levelo_inurba_marseille","lat":43.30198,"lon":5.43083,"is_reserved":false,"is_disabled":false,"rental_uris":{"android":"levelo://app?vid=021c3599-d960-4255-bf18-8b3b47549997","ios":"levelo://app?vid=021c3599-d960-4255-bf18-8b3b47549997"},"vehicle_type_id":"4","last_reported":1777138176,"current_range_meters":6000,"station_id":"st_d3js3co5814s73ftftug","pricing_plan_id":"cebpf4jnsgd1na2vs0mg"},{"bike_id":"3cc37908-32a6-4dbb-bca1-e1b546196cc1","system_id":"levelo_inurba_marseille","lat":43.29265,"lon":5.3844,"is_reserved":false,"is_disabled":false,"rental_uris":{"android":"levelo://app?vid=3cc37908-32a6-4dbb-bca1-e1b546196cc1","ios":"levelo://app?vid=3cc37908-32a6-4dbb-bca1-e1b546196cc1"},"vehicle_type_id":"4","last_reported":1777138176,"current_range_meters":6000,"station_id":"ce4bh692rcd13ifvqea0","pricing_plan_id":"cebpf4jnsgd1na2vs0mg"},{"bike_id":"318b0f19-64fa-4af9-92a2-6b5d9e2e4a7b","system_id":"levelo_inurba_marseille","lat":43.21186,"lon":5.35081,"is_reserved":false,"is_disabled":false,"rental_uris":{"android":"levelo://app?vid=318b0f19-64fa-4af9-92a2-6b5d9e2e4a7b","ios":"levelo://app?vid=318b0f19-64fa-4af9-92a2-6b5d9e2e4a7b"},"vehicle_type_id":"4","last_reported":1777138176,"current_range_meters":6000,"station_id":"st_cvj6sg6p6f1abm77japg","pricing_plan_id":"cebpf4jnsgd1na2vs0mg"},{"bike_id":"e8b7ee86-4397-4318-9a40-b486d24d4d6b","system_id":"levelo_inurba_marseille","lat":43.27376,"lon":5.3626,"is_reserved":false,"is_disabled":false,"rental_uris":{"android":"levelo://app?vid=e8b7ee86-4397-4318-9a40-b486d24d4d6b","ios":"levelo://app?vid=e8b7ee86-4397-4318-9a40-b486d24d4d6b"},"vehicle_type_id":"4","last_reported":1777138176,"current_range_meters":6000,"station_id":"ce4bhbh2rcd13ifvqeo0","pricing_plan_id":"cebpf4jnsgd1na2vs0mg"},{"bike_id":"5091d3df-140a-4a96-ba1e-f44ab742c57b","system_id":"levelo_inurba_marseille","lat":43.23183,"lon":5.3999,"is_reserved":false,"is_disabled":true,"rental_uris":{"android":"levelo://app?vid=5091d3df-140a-4a96-ba1e-f44ab742c57b","ios":"levelo://app?vid=5091d3df-140a-4a96-ba1e-f44ab742c57b"},"vehicle_type_id":"4","last_reported":1777138176,"current_range_meters":6000,"station_id":"ce4bhn12rcd13ifvqgqg","pricing_plan_id":"cebpf4jnsgd1na2vs0mg"},{"bike_id":"8d2416c6-0199-4fcb-a785-67215789425c","system_id":"levelo_inurba_marseille","lat":43.22933,"lon":5.35378,"is_reserved":false,"is_disabled":false,"rental_uris":{"android":"levelo://app?vid=8d2416c6-0199-4fcb-a785-67215789425c","ios":"levelo://app?vid=8d2416c6-0199-4fcb-a785-67215789425c"},"vehicle_type_id":"4","last_reported":1777138176,"current_range_meters":6000,"station_id":"cpo3532slgdg3j2ikp40","pricing_plan_id":"cebpf4jnsgd1na2vs0mg"},{"bike_id":"98f1fc7c-3881-475c-a827-154ee202cd6e","system_id":"levelo_inurba_marseille","lat":43.28543,"lon":5.44087,"is_reserved":false,"is_disabled":false,"rental_uris":{"android":"levelo://app?vid=98f1fc7c-3881-475c-a827-154ee202cd6e","ios":"levelo://app?vid=98f1fc7c-3881-475c-a827-154ee202cd6e"},"vehicle_type_id":"4","last_reported":1777138176,"current_range_meters":6000,"station_id":"st_d3j3df2ikq2c7380ej80","pricing_plan_id":"cebpf4jnsgd1na2vs0mg"},{"bike_id":"071eb1fd-1dcf-4e3a-a611-a7bf2415e8af","system_id":"levelo_inurba_marseille","lat":43.26034,"lon":5.37554,"is_reserved":false,"is_disabled":false,"rental_uris":{"android":"levelo://app?vid=071eb1fd-1dcf-4e3a-a611-a7bf2415e8af","ios":"levelo://app?vid=071eb1fd-1dcf-4e3a-a611-a7bf2415e8af"},"vehicle_type_id":"4","last_reported":1777138176,"current_range_meters":6400,"station_id":"ce4bhgh2rcd13ifvqfa0","pricing_plan_id":"cebpf4jnsgd1na2vs0mg"},{"bike_id":"54dd0309-49d2-49f6-bbb2-520a1e5622f4","system_id":"levelo_inurba_marseille","lat":43.24182,"lon":5.36411,"is_reserved":false,"is_disabled":false,"rental_uris":{"android":"levelo://app?vid=54dd0309-49d2-49f6-bbb2-520a1e5622f4","ios":"levelo://app?vid=54dd0309-49d2-49f6-bbb2-520a1e5622f4"},"vehicle_type_id":"4","last_reported":1777138176,"current_range_meters":6400,"station_id":"cpo36qri1sfpv3e86is0","pricing_plan_id":"cebpf4jnsgd1na2vs0mg"},{"bike_id":"c0126e79-e455-4033-aa6f-9cd2537e8b04","system_id":"levelo_inurba_marseille","lat":43.2869,"lon":5.46681,"is_reserved":false,"is_disabled":false,"rental_uris":{"android":"levelo://app?vid=c0126e79-e455-4033-aa6f-9cd2537e8b04","ios":"levelo://app?vid=c0126e79-e455-4033-aa6f-9cd2537e8b04"},"vehicle_type_id":"4","last_reported":1777138176,"current_range_meters":6400,"station_id":"st_d6tc3vkotcvc738tfjhg","pricing_plan_id":"cebpf4jnsgd1na2vs0mg"},{"bike_id":"64448080-9e2b-4a6e-a5eb-fd7381764743","system_id":"levelo_inurba_marseille","lat":43.24826,"lon":5.37448,"is_reserved":false,"is_disabled":false,"rental_uris":{"android":"levelo://app?vid=64448080-9e2b-4a6e-a5eb-fd7381764743","ios":"levelo://app?vid=64448080-9e2b-4a6e-a5eb-fd7381764743"},"vehicle_type_id":"4","last_reported":1777138176,"current_range_meters":6400,"station_id":"ce4bhgh2rcd13ifvqfb0","pricing_plan_id":"cebpf4jnsgd1na2vs0mg"},{"bike_id":"9bcb5bad-dbb2-431c-9005-5d79941461cd","system_id":"levelo_inurba_marseille","lat":43.24407,"lon":5.37059,"is_reserved":false,"is_disabled":false,"rental_uris":{"android":"levelo://app?vid=9bcb5bad-dbb2-431c-9005-5d79941461cd","ios":"levelo://app?vid=9bcb5bad-dbb2-431c-9005-5d79941461cd"},"vehicle_type_id":"4","last_reported":1777138176,"current_range_meters":6400,"station_id":"ce4bhhh2rcd13ifvqfk0","pricing_plan_id":"cebpf4jnsgd1na2vs0mg"},{"bike_id":"47cdfd85-c850-4193-aaa5-b5a23a2b2f3d","system_id":"levelo_inurba_marseille","lat":43.31096,"lon":5.37235,"is_reserved":false,"is_disabled":false,"rental_uris":{"android":"levelo://app?vid=47cdfd85-c850-4193-aaa5-b5a23a2b2f3d","ios":"levelo://app?vid=47cdfd85-c850-4193-aaa5-b5a23a2b2f3d"},"vehicle_type_id":"4","last_reported":1777138176,"current_range_meters":6400,"station_id":"st_d4kl2rp97mjs73e7tdfg","pricing_plan_id":"cebpf4jnsgd1na2vs0mg"},{"bike_id":"3c21f0ef-7f78-49a9-8bbf-12a3b7f18f2e","system_id":"levelo_inurba_marseille","lat":43.27495,"lon":5.42454,"is_reserved":false,"is_disabled":false,"rental_uris":{"android":"levelo://app?vid=3c21f0ef-7f78-49a9-8bbf-12a3b7f18f2e","ios":"levelo://app?vid=3c21f0ef-7f78-49a9-8bbf-12a3b7f18f2e"},"vehicle_type_id":"4","last_reported":1777138176,"current_range_meters":6400,"station_id":"ce4bhn92rcd13ifvqgrg","pricing_plan_id":"cebpf4jnsgd1na2vs0mg"},{"bike_id":"b14c6416-724a-4ae0-8e0d-0a861e3a9f05","system_id":"levelo_inurba_marseille","lat":43.262151,"lon":5.374409,"is_reserved":false,"is_disabled":false,"rental_uris":{"android":"levelo://app?vid=b14c6416-724a-4ae0-8e0d-0a861e3a9f05","ios":"levelo://app?vid=b14c6416-724a-4ae0-8e0d-0a861e3a9f05"},"vehicle_type_id":"4","last_reported":1777138176,"current_range_meters":6400,"station_id":"ce4bhgp2rcd13ifvqfc0","pricing_plan_id":"cebpf4jnsgd1na2vs0mg"},{"bike_id":"eced2d8a-55b2-4fa1-bae2-34b0b3ba95d2","system_id":"levelo_inurba_marseille","lat":43.26687,"lon":5.38265,"is_reserved":false,"is_disabled":false,"rental_uris":{"android":"levelo://app?vid=eced2d8a-55b2-4fa1-bae2-34b0b3ba95d2","ios":"levelo://app?vid=eced2d8a-55b2-4fa1-bae2-34b0b3ba95d2"},"vehicle_type_id":"4","last_reported":1777138176,"current_range_meters":6400,"station_id":"ce4bhg92rcd13ifvqf90","pricing_plan_id":"cebpf4jnsgd1na2vs0mg"},{"bike_id":"5379bf98-c912-401d-b7f8-09078293453e","system_id":"levelo_inurba_marseille","lat":43.292262,"lon":5.360589,"is_reserved":false,"is_disabled":false,"rental_uris":{"android":"levelo://app?vid=5379bf98-c912-401d-b7f8-09078293453e","ios":"levelo://app?vid=5379bf98-c912-401d-b7f8-09078293453e"},"vehicle_type_id":"4","last_reported":1777138176,"current_range_meters":6400,"station_id":"ce4bhbh2rcd13ifvqeqg","pricing_plan_id":"cebpf4jnsgd1na2vs0mg"},{"bike_id":"f33f5abc-50e1-4a83-bd94-8844a7c0ac3e","system_id":"levelo_inurba_marseille","lat":43.27813,"lon":5.40717,"is_reserved":false,"is_disabled":false,"rental_uris":{"android":"levelo://app?vid=f33f5abc-50e1-4a83-bd94-8844a7c0ac3e","ios":"levelo://app?vid=f33f5abc-50e1-4a83-bd94-8844a7c0ac3e"},"vehicle_type_id":"4","last_reported":1777138176,"current_range_meters":6400,"station_id":"ce4bhnh2rcd13ifvqgtg","pricing_plan_id":"cebpf4jnsgd1na2vs0mg"},{"bike_id":"a3271aed-3b32-4bf6-90ca-f2b8d085efc0","system_id":"levelo_inurba_marseille","lat":43.24835,"lon":5.37445,"is_reserved":false,"is_disabled":false,"rental_uris":{"android":"levelo://app?vid=a3271aed-3b32-4bf6-90ca-f2b8d085efc0","ios":"levelo://app?vid=a3271aed-3b32-4bf6-90ca-f2b8d085efc0"},"vehicle_type_id":"4","last_reported":1777138176,"current_range_meters":6400,"station_id":"","pricing_plan_id":"cebpf4jnsgd1na2vs0mg"},{"bike_id":"07944769-47f5-4f05-b655-c0baf88bd212","system_id":"levelo_inurba_marseille","lat":43.2919,"lon":5.39336,"is_reserved":false,"is_disabled":false,"rental_uris":{"android":"levelo://app?vid=07944769-47f5-4f05-b655-c0baf88bd212","ios":"levelo://app?vid=07944769-47f5-4f05-b655-c0baf88bd212"},"vehicle_type_id":"4","last_reported":1777138176,"current_range_meters":6400,"station_id":"ce4bh192rcd13ifvqdd0","pricing_plan_id":"cebpf4jnsgd1na2vs0mg"},{"bike_id":"da151389-e78f-4a80-84fe-4e4e4914dbe6","system_id":"levelo_inurba_marseille","lat":43.26539,"lon":5.37317,"is_reserved":false,"is_disabled":false,"rental_uris":{"android":"levelo://app?vid=da151389-e78f-4a80-84fe-4e4e4914dbe6","ios":"levelo://app?vid=da151389-e78f-4a80-84fe-4e4e4914dbe6"},"vehicle_type_id":"4","last_reported":1777138176,"current_range_meters":6800,"station_id":"ce4bhg12rcd13ifvqf70","pricing_plan_id":"cebpf4jnsgd1na2vs0mg"},{"bike_id":"c639e9dd-379a-46f8-b469-b2b3bc25eac4","system_id":"levelo_inurba_marseille","lat":43.290082,"lon":5.356105,"is_reserved":false,"is_disabled":true,"rental_uris":{"android":"levelo://app?vid=c639e9dd-379a-46f8-b469-b2b3bc25eac4","ios":"levelo://app?vid=c639e9dd-379a-46f8-b469-b2b3bc25eac4"},"vehicle_type_id":"4","last_reported":1777138176,"current_range_meters":6800,"station_id":"ce4bhb92rcd13ifvqen0","pricing_plan_id":"cebpf4jnsgd1na2vs0mg"},{"bike_id":"4bbbb14a-8fcc-43d3-a29a-3f8be7e2f321","system_id":"levelo_inurba_marseille","lat":43.29322,"lon":5.37207,"is_reserved":false,"is_disabled":false,"rental_uris":{"android":"levelo://app?vid=4bbbb14a-8fcc-43d3-a29a-3f8be7e2f321","ios":"levelo://app?vid=4bbbb14a-8fcc-43d3-a29a-3f8be7e2f321"},"vehicle_type_id":"4","last_reported":1777138176,"current_range_meters":6800,"station_id":"ce4bgh92rcd13ifvqb40","pricing_plan_id":"cebpf4jnsgd1na2vs0mg"},{"bike_id":"7f9c7866-7a82-4c4f-9dd2-565a29b0b183","system_id":"levelo_inurba_marseille","lat":43.30951,"lon":5.39041,"is_reserved":false,"is_disabled":false,"rental_uris":{"android":"levelo://app?vid=7f9c7866-7a82-4c4f-9dd2-565a29b0b183","ios":"levelo://app?vid=7f9c7866-7a82-4c4f-9dd2-565a29b0b183"},"vehicle_type_id":"4","last_reported":1777138176,"current_range_meters":6800,"station_id":"ce4bgup2rcd13ifvqco0","pricing_plan_id":"cebpf4jnsgd1na2vs0mg"},{"bike_id":"90610949-5042-40f1-8252-076aeddd7d81","system_id":"levelo_inurba_marseille","lat":43.31869,"lon":5.36866,"is_reserved":false,"is_disabled":false,"rental_uris":{"android":"levelo://app?vid=90610949-5042-40f1-8252-076aeddd7d81","ios":"levelo://app?vid=90610949-5042-40f1-8252-076aeddd7d81"},"vehicle_type_id":"4","last_reported":1777138176,"current_range_meters":6800,"station_id":"","pricing_plan_id":"cebpf4jnsgd1na2vs0mg"},{"bike_id":"085eefc3-42b6-4e5f-8fa3-5e096f60ac23","system_id":"levelo_inurba_marseille","lat":43.21759,"lon":5.34587,"is_reserved":false,"is_disabled":true,"rental_uris":{"android":"levelo://app?vid=085eefc3-42b6-4e5f-8fa3-5e096f60ac23","ios":"levelo://app?vid=085eefc3-42b6-4e5f-8fa3-5e096f60ac23"},"vehicle_type_id":"4","last_reported":1777138176,"current_range_meters":6800,"station_id":"st_cvj6r9ubvosntc0bgbag","pricing_plan_id":"cebpf4jnsgd1na2vs0mg"},{"bike_id":"36fe2575-22d8-45fc-b110-398032622606","system_id":"levelo_inurba_marseille","lat":43.28463,"lon":5.38433,"is_reserved":false,"is_disabled":true,"rental_uris":{"android":"levelo://app?vid=36fe2575-22d8-45fc-b110-398032622606","ios":"levelo://app?vid=36fe2575-22d8-45fc-b110-398032622606"},"vehicle_type_id":"4","last_reported":1777138176,"current_range_meters":6800,"station_id":"ce4bh512rcd13ifvqe3g","pricing_plan_id":"cebpf4jnsgd1na2vs0mg"},{"bike_id":"b7808ecd-7c49-495a-ae8b-eadddd23df3d","system_id":"levelo_inurba_marseille","lat":43.29064,"lon":5.37119,"is_reserved":false,"is_disabled":false,"rental_uris":{"android":"levelo://app?vid=b7808ecd-7c49-495a-ae8b-eadddd23df3d","ios":"levelo://app?vid=b7808ecd-7c49-495a-ae8b-eadddd23df3d"},"vehicle_type_id":"4","last_reported":1777138176,"current_range_meters":6800,"station_id":"ce4bh5p2rcd13ifvqe4g","pricing_plan_id":"cebpf4jnsgd1na2vs0mg"},{"bike_id":"40d69b45-a292-4d7d-b8e6-837b8b5a9d0c","system_id":"levelo_inurba_marseille","lat":43.28469,"lon":5.48402,"is_reserved":false,"is_disabled":false,"rental_uris":{"android":"levelo://app?vid=40d69b45-a292-4d7d-b8e6-837b8b5a9d0c","ios":"levelo://app?vid=40d69b45-a292-4d7d-b8e6-837b8b5a9d0c"},"vehicle_type_id":"4","last_reported":1777138176,"current_range_meters":6800,"station_id":"","pricing_plan_id":"cebpf4jnsgd1na2vs0mg"},{"bike_id":"bacc0d56-63de-4bff-99f3-083d7d33217b","system_id":"levelo_inurba_marseille","lat":43.29629,"lon":5.40596,"is_reserved":false,"is_disabled":false,"rental_uris":{"android":"levelo://app?vid=bacc0d56-63de-4bff-99f3-083d7d33217b","ios":"levelo://app?vid=bacc0d56-63de-4bff-99f3-083d7d33217b"},"vehicle_type_id":"4","last_reported":1777138176,"current_range_meters":6800,"station_id":"ce4bh0h2rcd13ifvqd60","pricing_plan_id":"cebpf4jnsgd1na2vs0mg"},{"bike_id":"1b220113-281c-47e6-acd7-9d49e8223553","system_id":"levelo_inurba_marseille","lat":43.26012,"lon":5.37568,"is_reserved":false,"is_disabled":false,"rental_uris":{"android":"levelo://app?vid=1b220113-281c-47e6-acd7-9d49e8223553","ios":"levelo://app?vid=1b220113-281c-47e6-acd7-9d49e8223553"},"vehicle_type_id":"4","last_reported":1777138176,"current_range_meters":6800,"station_id":"ce4bhgh2rcd13ifvqfa0","pricing_plan_id":"cebpf4jnsgd1na2vs0mg"},{"bike_id":"de7cf9af-9dac-47af-85c9-3ec349a7a553","system_id":"levelo_inurba_marseille","lat":43.29297,"lon":5.3744,"is_reserved":false,"is_disabled":false,"rental_uris":{"android":"levelo://app?vid=de7cf9af-9dac-47af-85c9-3ec349a7a553","ios":"levelo://app?vid=de7cf9af-9dac-47af-85c9-3ec349a7a553"},"vehicle_type_id":"4","last_reported":1777138176,"current_range_meters":6800,"station_id":"ce4bgi12rcd13ifvqb70","pricing_plan_id":"cebpf4jnsgd1na2vs0mg"},{"bike_id":"74eab2f2-b53a-4b0b-aa7a-4858d4383032","system_id":"levelo_inurba_marseille","lat":43.29811,"lon":5.404,"is_reserved":false,"is_disabled":false,"rental_uris":{"android":"levelo://app?vid=74eab2f2-b53a-4b0b-aa7a-4858d4383032","ios":"levelo://app?vid=74eab2f2-b53a-4b0b-aa7a-4858d4383032"},"vehicle_type_id":"4","last_reported":1777138176,"current_range_meters":6800,"station_id":"ce4bh112rcd13ifvqd90","pricing_plan_id":"cebpf4jnsgd1na2vs0mg"},{"bike_id":"8b7c62ad-8abe-465b-915b-910b5410de34","system_id":"levelo_inurba_marseille","lat":43.27601,"lon":5.36179,"is_reserved":false,"is_disabled":false,"rental_uris":{"android":"levelo://app?vid=8b7c62ad-8abe-465b-915b-910b5410de34","ios":"levelo://app?vid=8b7c62ad-8abe-465b-915b-910b5410de34"},"vehicle_type_id":"4","last_reported":1777138176,"current_range_meters":6800,"station_id":"","pricing_plan_id":"cebpf4jnsgd1na2vs0mg"},{"bike_id":"541dbded-315f-4ca8-ac49-47fcb4294bb7","system_id":"levelo_inurba_marseille","lat":43.33514,"lon":5.37468,"is_reserved":false,"is_disabled":false,"rental_uris":{"android":"levelo://app?vid=541dbded-315f-4ca8-ac49-47fcb4294bb7","ios":"levelo://app?vid=541dbded-315f-4ca8-ac49-47fcb4294bb7"},"vehicle_type_id":"4","last_reported":1777138176,"current_range_meters":6800,"station_id":"st_d46tts09ee8s73dlu43g","pricing_plan_id":"cebpf4jnsgd1na2vs0mg"},{"bike_id":"cbcbd634-69ed-49bc-81eb-165a7febf562","system_id":"levelo_inurba_marseille","lat":43.29034,"lon":5.38653,"is_reserved":false,"is_disabled":false,"rental_uris":{"android":"levelo://app?vid=cbcbd634-69ed-49bc-81eb-165a7febf562","ios":"levelo://app?vid=cbcbd634-69ed-49bc-81eb-165a7febf562"},"vehicle_type_id":"4","last_reported":1777138176,"current_range_meters":6800,"station_id":"ce4bh4p2rcd13ifvqe0g","pricing_plan_id":"cebpf4jnsgd1na2vs0mg"},{"bike_id":"d2dc1a36-51f9-4423-a54f-f3a7a5fdf737","system_id":"levelo_inurba_marseille","lat":43.23782,"lon":5.36624,"is_reserved":false,"is_disabled":false,"rental_uris":{"android":"levelo://app?vid=d2dc1a36-51f9-4423-a54f-f3a7a5fdf737","ios":"levelo://app?vid=d2dc1a36-51f9-4423-a54f-f3a7a5fdf737"},"vehicle_type_id":"4","last_reported":1777138176,"current_range_meters":6800,"station_id":"st_d3nk18o9ro0c73en2l3g","pricing_plan_id":"cebpf4jnsgd1na2vs0mg"},{"bike_id":"cef37a99-2821-49b3-9903-5b5b367f6ffb","system_id":"levelo_inurba_marseille","lat":43.30934,"lon":5.40133,"is_reserved":false,"is_disabled":false,"rental_uris":{"android":"levelo://app?vid=cef37a99-2821-49b3-9903-5b5b367f6ffb","ios":"levelo://app?vid=cef37a99-2821-49b3-9903-5b5b367f6ffb"},"vehicle_type_id":"4","last_reported":1777138176,"current_range_meters":6800,"station_id":"ce4bgvp2rcd13ifvqct0","pricing_plan_id":"cebpf4jnsgd1na2vs0mg"},{"bike_id":"19f5c62d-54a9-4774-a543-a0306aeefca9","system_id":"levelo_inurba_marseille","lat":43.28926,"lon":5.38404,"is_reserved":false,"is_disabled":false,"rental_uris":{"android":"levelo://app?vid=19f5c62d-54a9-4774-a543-a0306aeefca9","ios":"levelo://app?vid=19f5c62d-54a9-4774-a543-a0306aeefca9"},"vehicle_type_id":"4","last_reported":1777138176,"current_range_meters":6800,"station_id":"ce4bh612rcd13ifvqe6g","pricing_plan_id":"cebpf4jnsgd1na2vs0mg"},{"bike_id":"a40210db-7320-4d26-9e7f-43470ffb7ab8","system_id":"levelo_inurba_marseille","lat":43.24379,"lon":5.37044,"is_reserved":false,"is_disabled":false,"rental_uris":{"android":"levelo://app?vid=a40210db-7320-4d26-9e7f-43470ffb7ab8","ios":"levelo://app?vid=a40210db-7320-4d26-9e7f-43470ffb7ab8"},"vehicle_type_id":"4","last_reported":1777138176,"current_range_meters":7200,"station_id":"ce4bhhh2rcd13ifvqfk0","pricing_plan_id":"cebpf4jnsgd1na2vs0mg"},{"bike_id":"19ca21ff-92f3-46a1-b1dc-c5d64c8d102f","system_id":"levelo_inurba_marseille","lat":43.23964,"lon":5.36632,"is_reserved":false,"is_disabled":false,"rental_uris":{"android":"levelo://app?vid=19ca21ff-92f3-46a1-b1dc-c5d64c8d102f","ios":"levelo://app?vid=19ca21ff-92f3-46a1-b1dc-c5d64c8d102f"},"vehicle_type_id":"4","last_reported":1777138176,"current_range_meters":7200,"station_id":"ce4bhi12rcd13ifvqfp0","pricing_plan_id":"cebpf4jnsgd1na2vs0mg"},{"bike_id":"8d715502-1f4d-495a-aba7-e255ad4122f8","system_id":"levelo_inurba_marseille","lat":43.23959,"lon":5.36624,"is_reserved":false,"is_disabled":false,"rental_uris":{"android":"levelo://app?vid=8d715502-1f4d-495a-aba7-e255ad4122f8","ios":"levelo://app?vid=8d715502-1f4d-495a-aba7-e255ad4122f8"},"vehicle_type_id":"4","last_reported":1777138176,"current_range_meters":7200,"station_id":"ce4bhi12rcd13ifvqfp0","pricing_plan_id":"cebpf4jnsgd1na2vs0mg"},{"bike_id":"4e4de723-c17e-4146-ae2c-25fc3ae9e87e","system_id":"levelo_inurba_marseille","lat":43.29036,"lon":5.39953,"is_reserved":false,"is_disabled":false,"rental_uris":{"android":"levelo://app?vid=4e4de723-c17e-4146-ae2c-25fc3ae9e87e","ios":"levelo://app?vid=4e4de723-c17e-4146-ae2c-25fc3ae9e87e"},"vehicle_type_id":"4","last_reported":1777138176,"current_range_meters":7200,"station_id":"ce4bh392rcd13ifvqdm0","pricing_plan_id":"cebpf4jnsgd1na2vs0mg"},{"bike_id":"f01250b1-9203-46e5-b023-fcf08a9aeae0","system_id":"levelo_inurba_marseille","lat":43.31365,"lon":5.38489,"is_reserved":false,"is_disabled":false,"rental_uris":{"android":"levelo://app?vid=f01250b1-9203-46e5-b023-fcf08a9aeae0","ios":"levelo://app?vid=f01250b1-9203-46e5-b023-fcf08a9aeae0"},"vehicle_type_id":"4","last_reported":1777138176,"current_range_meters":7200,"station_id":"ce4bgt92rcd13ifvqcf0","pricing_plan_id":"cebpf4jnsgd1na2vs0mg"},{"bike_id":"e5bab3d4-51df-40f4-acb7-898a38cfd436","system_id":"levelo_inurba_marseille","lat":43.212,"lon":5.35079,"is_reserved":false,"is_disabled":false,"rental_uris":{"android":"levelo://app?vid=e5bab3d4-51df-40f4-acb7-898a38cfd436","ios":"levelo://app?vid=e5bab3d4-51df-40f4-acb7-898a38cfd436"},"vehicle_type_id":"4","last_reported":1777138176,"current_range_meters":7200,"station_id":"st_cvj6sg6p6f1abm77japg","pricing_plan_id":"cebpf4jnsgd1na2vs0mg"},{"bike_id":"1823dd80-66c9-4c11-ad32-e6f7bdcd63dd","system_id":"levelo_inurba_marseille","lat":43.30945,"lon":5.39047,"is_reserved":false,"is_disabled":false,"rental_uris":{"android":"levelo://app?vid=1823dd80-66c9-4c11-ad32-e6f7bdcd63dd","ios":"levelo://app?vid=1823dd80-66c9-4c11-ad32-e6f7bdcd63dd"},"vehicle_type_id":"4","last_reported":1777138176,"current_range_meters":7200,"station_id":"ce4bgup2rcd13ifvqco0","pricing_plan_id":"cebpf4jnsgd1na2vs0mg"},{"bike_id":"548e4a82-32b2-49d2-a8d0-a6b1676f8a48","system_id":"levelo_inurba_marseille","lat":43.32452,"lon":5.36569,"is_reserved":false,"is_disabled":false,"rental_uris":{"android":"levelo://app?vid=548e4a82-32b2-49d2-a8d0-a6b1676f8a48","ios":"levelo://app?vid=548e4a82-32b2-49d2-a8d0-a6b1676f8a48"},"vehicle_type_id":"4","last_reported":1777138176,"current_range_meters":7200,"station_id":"ce4bhs12rcd13ifvqhvg","pricing_plan_id":"cebpf4jnsgd1na2vs0mg"},{"bike_id":"d54b6218-6c6f-400b-a3dc-71229e199219","system_id":"levelo_inurba_marseille","lat":43.24549,"lon":5.39519,"is_reserved":false,"is_disabled":false,"rental_uris":{"android":"levelo://app?vid=d54b6218-6c6f-400b-a3dc-71229e199219","ios":"levelo://app?vid=d54b6218-6c6f-400b-a3dc-71229e199219"},"vehicle_type_id":"4","last_reported":1777138176,"current_range_meters":7200,"station_id":"ce4bhlp2rcd13ifvqgjg","pricing_plan_id":"cebpf4jnsgd1na2vs0mg"},{"bike_id":"3bdc6f77-0f56-4858-b4a7-a4c2b8b55a42","system_id":"levelo_inurba_marseille","lat":43.24809,"lon":5.37463,"is_reserved":false,"is_disabled":false,"rental_uris":{"android":"levelo://app?vid=3bdc6f77-0f56-4858-b4a7-a4c2b8b55a42","ios":"levelo://app?vid=3bdc6f77-0f56-4858-b4a7-a4c2b8b55a42"},"vehicle_type_id":"4","last_reported":1777138176,"current_range_meters":7200,"station_id":"ce4bhgh2rcd13ifvqfb0","pricing_plan_id":"cebpf4jnsgd1na2vs0mg"},{"bike_id":"00cadce8-7903-4092-8b5c-5695ce27b5b2","system_id":"levelo_inurba_marseille","lat":43.29524,"lon":5.38547,"is_reserved":false,"is_disabled":true,"rental_uris":{"android":"levelo://app?vid=00cadce8-7903-4092-8b5c-5695ce27b5b2","ios":"levelo://app?vid=00cadce8-7903-4092-8b5c-5695ce27b5b2"},"vehicle_type_id":"4","last_reported":1777138176,"current_range_meters":7200,"station_id":"ce4bgih2rcd13ifvqba0","pricing_plan_id":"cebpf4jnsgd1na2vs0mg"},{"bike_id":"f86f8c18-a73c-41ff-b670-a5d257f01b66","system_id":"levelo_inurba_marseille","lat":43.305898,"lon":5.393691,"is_reserved":false,"is_disabled":false,"rental_uris":{"android":"levelo://app?vid=f86f8c18-a73c-41ff-b670-a5d257f01b66","ios":"levelo://app?vid=f86f8c18-a73c-41ff-b670-a5d257f01b66"},"vehicle_type_id":"4","last_reported":1777138176,"current_range_meters":7200,"station_id":"ce4bh0p2rcd13ifvqd80","pricing_plan_id":"cebpf4jnsgd1na2vs0mg"},{"bike_id":"85e28e2a-2421-4551-a813-382122811cec","system_id":"levelo_inurba_marseille","lat":43.31901,"lon":5.36803,"is_reserved":false,"is_disabled":false,"rental_uris":{"android":"levelo://app?vid=85e28e2a-2421-4551-a813-382122811cec","ios":"levelo://app?vid=85e28e2a-2421-4551-a813-382122811cec"},"vehicle_type_id":"4","last_reported":1777138176,"current_range_meters":7200,"station_id":"st_d6o2h0d0559c73evc1b0","pricing_plan_id":"cebpf4jnsgd1na2vs0mg"},{"bike_id":"73ddeb50-d326-489a-98fe-0d6ca689734e","system_id":"levelo_inurba_marseille","lat":43.28927,"lon":5.38411,"is_reserved":false,"is_disabled":false,"rental_uris":{"android":"levelo://app?vid=73ddeb50-d326-489a-98fe-0d6ca689734e","ios":"levelo://app?vid=73ddeb50-d326-489a-98fe-0d6ca689734e"},"vehicle_type_id":"4","last_reported":1777138176,"current_range_meters":7200,"station_id":"ce4bh612rcd13ifvqe6g","pricing_plan_id":"cebpf4jnsgd1na2vs0mg"},{"bike_id":"4834b671-dcd9-47ee-874f-5a770ecd7078","system_id":"levelo_inurba_marseille","lat":43.30926,"lon":5.40138,"is_reserved":false,"is_disabled":false,"rental_uris":{"android":"levelo://app?vid=4834b671-dcd9-47ee-874f-5a770ecd7078","ios":"levelo://app?vid=4834b671-dcd9-47ee-874f-5a770ecd7078"},"vehicle_type_id":"4","last_reported":1777138176,"current_range_meters":7200,"station_id":"ce4bgvp2rcd13ifvqct0","pricing_plan_id":"cebpf4jnsgd1na2vs0mg"},{"bike_id":"90fac789-06e9-4c33-94b9-e82543e03c21","system_id":"levelo_inurba_marseille","lat":43.2258,"lon":5.41649,"is_reserved":false,"is_disabled":true,"rental_uris":{"android":"levelo://app?vid=90fac789-06e9-4c33-94b9-e82543e03c21","ios":"levelo://app?vid=90fac789-06e9-4c33-94b9-e82543e03c21"},"vehicle_type_id":"4","last_reported":1777138176,"current_range_meters":7200,"station_id":"st_d2o4gvlbi1j2169b742g","pricing_plan_id":"cebpf4jnsgd1na2vs0mg"},{"bike_id":"3486a57b-9c10-4394-80aa-73cb1cc2385d","system_id":"levelo_inurba_marseille","lat":43.28613,"lon":5.35102,"is_reserved":false,"is_disabled":false,"rental_uris":{"android":"levelo://app?vid=3486a57b-9c10-4394-80aa-73cb1cc2385d","ios":"levelo://app?vid=3486a57b-9c10-4394-80aa-73cb1cc2385d"},"vehicle_type_id":"4","last_reported":1777138176,"current_range_meters":7200,"station_id":"ce4bhch2rcd13ifvqeug","pricing_plan_id":"cebpf4jnsgd1na2vs0mg"},{"bike_id":"9645e670-fb9f-4999-b4bf-9d697e42d913","system_id":"levelo_inurba_marseille","lat":43.30141,"lon":5.3878,"is_reserved":false,"is_disabled":false,"rental_uris":{"android":"levelo://app?vid=9645e670-fb9f-4999-b4bf-9d697e42d913","ios":"levelo://app?vid=9645e670-fb9f-4999-b4bf-9d697e42d913"},"vehicle_type_id":"4","last_reported":1777138176,"current_range_meters":7200,"station_id":"ce4bghh2rcd13ifvqb60","pricing_plan_id":"cebpf4jnsgd1na2vs0mg"},{"bike_id":"0a58102a-2708-4449-a652-cef706edc64f","system_id":"levelo_inurba_marseille","lat":43.2764,"lon":5.36106,"is_reserved":false,"is_disabled":false,"rental_uris":{"android":"levelo://app?vid=0a58102a-2708-4449-a652-cef706edc64f","ios":"levelo://app?vid=0a58102a-2708-4449-a652-cef706edc64f"},"vehicle_type_id":"4","last_reported":1777138176,"current_range_meters":7200,"station_id":"ce4bgj92rcd13ifvqbe0","pricing_plan_id":"cebpf4jnsgd1na2vs0mg"},{"bike_id":"c0dfbb45-f1b0-458a-ac6e-40ddaa666c83","system_id":"levelo_inurba_marseille","lat":43.308897,"lon":5.396629,"is_reserved":false,"is_disabled":false,"rental_uris":{"android":"levelo://app?vid=c0dfbb45-f1b0-458a-ac6e-40ddaa666c83","ios":"levelo://app?vid=c0dfbb45-f1b0-458a-ac6e-40ddaa666c83"},"vehicle_type_id":"4","last_reported":1777138176,"current_range_meters":7200,"station_id":"ce4bh012rcd13ifvqcv0","pricing_plan_id":"cebpf4jnsgd1na2vs0mg"},{"bike_id":"db77ba08-7b2f-4b74-b915-514ee67e9c6d","system_id":"levelo_inurba_marseille","lat":43.29196,"lon":5.358054,"is_reserved":false,"is_disabled":false,"rental_uris":{"android":"levelo://app?vid=db77ba08-7b2f-4b74-b915-514ee67e9c6d","ios":"levelo://app?vid=db77ba08-7b2f-4b74-b915-514ee67e9c6d"},"vehicle_type_id":"4","last_reported":1777138176,"current_range_meters":7200,"station_id":"ce4bhb12rcd13ifvqel0","pricing_plan_id":"cebpf4jnsgd1na2vs0mg"},{"bike_id":"7b0609df-209b-461d-bc69-1302dcb88d66","system_id":"levelo_inurba_marseille","lat":43.24801,"lon":5.37454,"is_reserved":false,"is_disabled":false,"rental_uris":{"android":"levelo://app?vid=7b0609df-209b-461d-bc69-1302dcb88d66","ios":"levelo://app?vid=7b0609df-209b-461d-bc69-1302dcb88d66"},"vehicle_type_id":"4","last_reported":1777138176,"current_range_meters":8000,"station_id":"ce4bhgh2rcd13ifvqfb0","pricing_plan_id":"cebpf4jnsgd1na2vs0mg"},{"bike_id":"ce623c81-dc1c-4ae2-aa58-8c858543d57e","system_id":"levelo_inurba_marseille","lat":43.26223,"lon":5.40449,"is_reserved":false,"is_disabled":false,"rental_uris":{"android":"levelo://app?vid=ce623c81-dc1c-4ae2-aa58-8c858543d57e","ios":"levelo://app?vid=ce623c81-dc1c-4ae2-aa58-8c858543d57e"},"vehicle_type_id":"4","last_reported":1777138176,"current_range_meters":8000,"station_id":"ce4bhmh2rcd13ifvqgmg","pricing_plan_id":"cebpf4jnsgd1na2vs0mg"},{"bike_id":"4e09535f-a46c-4fd9-8c4a-595683209474","system_id":"levelo_inurba_marseille","lat":43.23967,"lon":5.36631,"is_reserved":false,"is_disabled":false,"rental_uris":{"android":"levelo://app?vid=4e09535f-a46c-4fd9-8c4a-595683209474","ios":"levelo://app?vid=4e09535f-a46c-4fd9-8c4a-595683209474"},"vehicle_type_id":"4","last_reported":1777138176,"current_range_meters":8000,"station_id":"ce4bhi12rcd13ifvqfp0","pricing_plan_id":"cebpf4jnsgd1na2vs0mg"},{"bike_id":"413e4623-e4a6-44c0-8fe0-f06c3e224af8","system_id":"levelo_inurba_marseille","lat":43.31911,"lon":5.3679,"is_reserved":false,"is_disabled":false,"rental_uris":{"android":"levelo://app?vid=413e4623-e4a6-44c0-8fe0-f06c3e224af8","ios":"levelo://app?vid=413e4623-e4a6-44c0-8fe0-f06c3e224af8"},"vehicle_type_id":"4","last_reported":1777138176,"current_range_meters":8000,"station_id":"st_d6o2h0d0559c73evc1b0","pricing_plan_id":"cebpf4jnsgd1na2vs0mg"},{"bike_id":"308f68c0-c326-4383-b2d4-3d5ce68f7df6","system_id":"levelo_inurba_marseille","lat":43.28002,"lon":5.36387,"is_reserved":false,"is_disabled":false,"rental_uris":{"android":"levelo://app?vid=308f68c0-c326-4383-b2d4-3d5ce68f7df6","ios":"levelo://app?vid=308f68c0-c326-4383-b2d4-3d5ce68f7df6"},"vehicle_type_id":"4","last_reported":1777138176,"current_range_meters":8000,"station_id":"","pricing_plan_id":"cebpf4jnsgd1na2vs0mg"},{"bike_id":"27cd71a7-0940-4415-a67f-21597fbf1cd9","system_id":"levelo_inurba_marseille","lat":43.33823,"lon":5.39246,"is_reserved":false,"is_disabled":false,"rental_uris":{"android":"levelo://app?vid=27cd71a7-0940-4415-a67f-21597fbf1cd9","ios":"levelo://app?vid=27cd71a7-0940-4415-a67f-21597fbf1cd9"},"vehicle_type_id":"4","last_reported":1777138176,"current_range_meters":8000,"station_id":"","pricing_plan_id":"cebpf4jnsgd1na2vs0mg"},{"bike_id":"044ce3d4-5f89-49a7-a22e-6dad240318c7","system_id":"levelo_inurba_marseille","lat":43.31283,"lon":5.40173,"is_reserved":false,"is_disabled":false,"rental_uris":{"android":"levelo://app?vid=044ce3d4-5f89-49a7-a22e-6dad240318c7","ios":"levelo://app?vid=044ce3d4-5f89-49a7-a22e-6dad240318c7"},"vehicle_type_id":"4","last_reported":1777138176,"current_range_meters":8000,"station_id":"ce4bh092rcd13ifvqd30","pricing_plan_id":"cebpf4jnsgd1na2vs0mg"},{"bike_id":"bf79c585-92c4-4180-bf4d-de82ff559306","system_id":"levelo_inurba_marseille","lat":43.30593,"lon":5.39353,"is_reserved":false,"is_disabled":false,"rental_uris":{"android":"levelo://app?vid=bf79c585-92c4-4180-bf4d-de82ff559306","ios":"levelo://app?vid=bf79c585-92c4-4180-bf4d-de82ff559306"},"vehicle_type_id":"4","last_reported":1777138176,"current_range_meters":8000,"station_id":"ce4bh0p2rcd13ifvqd80","pricing_plan_id":"cebpf4jnsgd1na2vs0mg"},{"bike_id":"4318aeb7-422b-47ec-98d3-6a75deabe224","system_id":"levelo_inurba_marseille","lat":43.26548,"lon":5.37296,"is_reserved":false,"is_disabled":false,"rental_uris":{"android":"levelo://app?vid=4318aeb7-422b-47ec-98d3-6a75deabe224","ios":"levelo://app?vid=4318aeb7-422b-47ec-98d3-6a75deabe224"},"vehicle_type_id":"4","last_reported":1777138176,"current_range_meters":8000,"station_id":"ce4bhg12rcd13ifvqf70","pricing_plan_id":"cebpf4jnsgd1na2vs0mg"},{"bike_id":"c86280e2-fb71-4be2-a17c-18b8ee193b73","system_id":"levelo_inurba_marseille","lat":43.29574,"lon":5.39966,"is_reserved":false,"is_disabled":false,"rental_uris":{"android":"levelo://app?vid=c86280e2-fb71-4be2-a17c-18b8ee193b73","ios":"levelo://app?vid=c86280e2-fb71-4be2-a17c-18b8ee193b73"},"vehicle_type_id":"4","last_reported":1777138176,"current_range_meters":8000,"station_id":"ce4bh312rcd13ifvqdj0","pricing_plan_id":"cebpf4jnsgd1na2vs0mg"},{"bike_id":"2f1a0d04-a5f5-4744-adca-bf7f7122e34a","system_id":"levelo_inurba_marseille","lat":43.31212,"lon":5.36843,"is_reserved":false,"is_disabled":false,"rental_uris":{"android":"levelo://app?vid=2f1a0d04-a5f5-4744-adca-bf7f7122e34a","ios":"levelo://app?vid=2f1a0d04-a5f5-4744-adca-bf7f7122e34a"},"vehicle_type_id":"4","last_reported":1777138176,"current_range_meters":8000,"station_id":"ce4bgl92rcd13ifvqbq0","pricing_plan_id":"cebpf4jnsgd1na2vs0mg"},{"bike_id":"17fe3f56-b486-40dd-ac6a-710ede14c97d","system_id":"levelo_inurba_marseille","lat":43.314869,"lon":5.373029,"is_reserved":false,"is_disabled":false,"rental_uris":{"android":"levelo://app?vid=17fe3f56-b486-40dd-ac6a-710ede14c97d","ios":"levelo://app?vid=17fe3f56-b486-40dd-ac6a-710ede14c97d"},"vehicle_type_id":"4","last_reported":1777138176,"current_range_meters":8000,"station_id":"","pricing_plan_id":"cebpf4jnsgd1na2vs0mg"},{"bike_id":"a4b333a0-7fa7-42c6-a7d4-7b2b56a0efa1","system_id":"levelo_inurba_marseille","lat":43.29028,"lon":5.38652,"is_reserved":false,"is_disabled":false,"rental_uris":{"android":"levelo://app?vid=a4b333a0-7fa7-42c6-a7d4-7b2b56a0efa1","ios":"levelo://app?vid=a4b333a0-7fa7-42c6-a7d4-7b2b56a0efa1"},"vehicle_type_id":"4","last_reported":1777138176,"current_range_meters":8000,"station_id":"ce4bh4p2rcd13ifvqe0g","pricing_plan_id":"cebpf4jnsgd1na2vs0mg"},{"bike_id":"d1d5c7cf-8e64-4123-ad8a-ccd792fc4d10","system_id":"levelo_inurba_marseille","lat":43.29345,"lon":5.39861,"is_reserved":false,"is_disabled":false,"rental_uris":{"android":"levelo://app?vid=d1d5c7cf-8e64-4123-ad8a-ccd792fc4d10","ios":"levelo://app?vid=d1d5c7cf-8e64-4123-ad8a-ccd792fc4d10"},"vehicle_type_id":"4","last_reported":1777138176,"current_range_meters":8000,"station_id":"","pricing_plan_id":"cebpf4jnsgd1na2vs0mg"},{"bike_id":"33005905-c6c7-4446-8343-79abec92c7e3","system_id":"levelo_inurba_marseille","lat":43.27377,"lon":5.36252,"is_reserved":false,"is_disabled":false,"rental_uris":{"android":"levelo://app?vid=33005905-c6c7-4446-8343-79abec92c7e3","ios":"levelo://app?vid=33005905-c6c7-4446-8343-79abec92c7e3"},"vehicle_type_id":"4","last_reported":1777138176,"current_range_meters":8000,"station_id":"ce4bhbh2rcd13ifvqeo0","pricing_plan_id":"cebpf4jnsgd1na2vs0mg"},{"bike_id":"7f14f307-ed9b-4bde-a995-2c9126a5e681","system_id":"levelo_inurba_marseille","lat":43.30459,"lon":5.37894,"is_reserved":false,"is_disabled":true,"rental_uris":{"android":"levelo://app?vid=7f14f307-ed9b-4bde-a995-2c9126a5e681","ios":"levelo://app?vid=7f14f307-ed9b-4bde-a995-2c9126a5e681"},"vehicle_type_id":"4","last_reported":1777138176,"current_range_meters":8000,"station_id":"ce4bgup2rcd13ifvqcn0","pricing_plan_id":"cebpf4jnsgd1na2vs0mg"},{"bike_id":"73b29586-6035-4b17-8f89-10c778399a16","system_id":"levelo_inurba_marseille","lat":43.31988,"lon":5.38137,"is_reserved":false,"is_disabled":false,"rental_uris":{"android":"levelo://app?vid=73b29586-6035-4b17-8f89-10c778399a16","ios":"levelo://app?vid=73b29586-6035-4b17-8f89-10c778399a16"},"vehicle_type_id":"4","last_reported":1777138176,"current_range_meters":8000,"station_id":"ce4bhr12rcd13ifvqhpg","pricing_plan_id":"cebpf4jnsgd1na2vs0mg"},{"bike_id":"f6ac597a-61b1-4c9e-bb51-567c193419f4","system_id":"levelo_inurba_marseille","lat":43.29947,"lon":5.36544,"is_reserved":false,"is_disabled":false,"rental_uris":{"android":"levelo://app?vid=f6ac597a-61b1-4c9e-bb51-567c193419f4","ios":"levelo://app?vid=f6ac597a-61b1-4c9e-bb51-567c193419f4"},"vehicle_type_id":"4","last_reported":1777138176,"current_range_meters":8000,"station_id":"ce4bgm92rcd13ifvqbr0","pricing_plan_id":"cebpf4jnsgd1na2vs0mg"},{"bike_id":"af6b4829-7b34-4d4b-93b1-1259266ff671","system_id":"levelo_inurba_marseille","lat":43.24668,"lon":5.38165,"is_reserved":false,"is_disabled":false,"rental_uris":{"android":"levelo://app?vid=af6b4829-7b34-4d4b-93b1-1259266ff671","ios":"levelo://app?vid=af6b4829-7b34-4d4b-93b1-1259266ff671"},"vehicle_type_id":"4","last_reported":1777138176,"current_range_meters":8000,"station_id":"ce4bhih2rcd13ifvqfr0","pricing_plan_id":"cebpf4jnsgd1na2vs0mg"},{"bike_id":"3deb095f-0346-4d9f-aae1-8d59d80b3d6e","system_id":"levelo_inurba_marseille","lat":43.24396,"lon":5.37073,"is_reserved":false,"is_disabled":false,"rental_uris":{"android":"levelo://app?vid=3deb095f-0346-4d9f-aae1-8d59d80b3d6e","ios":"levelo://app?vid=3deb095f-0346-4d9f-aae1-8d59d80b3d6e"},"vehicle_type_id":"4","last_reported":1777138176,"current_range_meters":8000,"station_id":"ce4bhhh2rcd13ifvqfk0","pricing_plan_id":"cebpf4jnsgd1na2vs0mg"},{"bike_id":"750ba035-e919-4be6-a829-cfaab2f5d2ed","system_id":"levelo_inurba_marseille","lat":43.28103,"lon":5.37835,"is_reserved":false,"is_disabled":false,"rental_uris":{"android":"levelo://app?vid=750ba035-e919-4be6-a829-cfaab2f5d2ed","ios":"levelo://app?vid=750ba035-e919-4be6-a829-cfaab2f5d2ed"},"vehicle_type_id":"4","last_reported":1777138176,"current_range_meters":8000,"station_id":"ce4bha12rcd13ifvqee0","pricing_plan_id":"cebpf4jnsgd1na2vs0mg"},{"bike_id":"0cd2fd7c-6402-466e-aa1b-fa186d7a7ed3","system_id":"levelo_inurba_marseille","lat":43.33194,"lon":5.37792,"is_reserved":false,"is_disabled":false,"rental_uris":{"android":"levelo://app?vid=0cd2fd7c-6402-466e-aa1b-fa186d7a7ed3","ios":"levelo://app?vid=0cd2fd7c-6402-466e-aa1b-fa186d7a7ed3"},"vehicle_type_id":"4","last_reported":1777138176,"current_range_meters":8400,"station_id":"","pricing_plan_id":"cebpf4jnsgd1na2vs0mg"},{"bike_id":"14fb6572-c823-498b-bea2-03eb3402f8ee","system_id":"levelo_inurba_marseille","lat":43.27623,"lon":5.36159,"is_reserved":false,"is_disabled":false,"rental_uris":{"android":"levelo://app?vid=14fb6572-c823-498b-bea2-03eb3402f8ee","ios":"levelo://app?vid=14fb6572-c823-498b-bea2-03eb3402f8ee"},"vehicle_type_id":"4","last_reported":1777138176,"current_range_meters":8400,"station_id":"ce4bgj92rcd13ifvqbe0","pricing_plan_id":"cebpf4jnsgd1na2vs0mg"},{"bike_id":"9a7c39d8-ef30-4694-b180-b6fe0a089530","system_id":"levelo_inurba_marseille","lat":43.30119,"lon":5.43117,"is_reserved":false,"is_disabled":false,"rental_uris":{"android":"levelo://app?vid=9a7c39d8-ef30-4694-b180-b6fe0a089530","ios":"levelo://app?vid=9a7c39d8-ef30-4694-b180-b6fe0a089530"},"vehicle_type_id":"4","last_reported":1777138176,"current_range_meters":8400,"station_id":"st_d3js3co5814s73ftftug","pricing_plan_id":"cebpf4jnsgd1na2vs0mg"},{"bike_id":"cd5ae753-0ce4-45ab-886c-3f79fabdb3b1","system_id":"levelo_inurba_marseille","lat":43.24801,"lon":5.37461,"is_reserved":false,"is_disabled":false,"rental_uris":{"android":"levelo://app?vid=cd5ae753-0ce4-45ab-886c-3f79fabdb3b1","ios":"levelo://app?vid=cd5ae753-0ce4-45ab-886c-3f79fabdb3b1"},"vehicle_type_id":"4","last_reported":1777138176,"current_range_meters":8400,"station_id":"ce4bhgh2rcd13ifvqfb0","pricing_plan_id":"cebpf4jnsgd1na2vs0mg"},{"bike_id":"7ac59c81-01df-4b8e-9807-86f926b0041a","system_id":"levelo_inurba_marseille","lat":43.28084,"lon":5.39137,"is_reserved":false,"is_disabled":false,"rental_uris":{"android":"levelo://app?vid=7ac59c81-01df-4b8e-9807-86f926b0041a","ios":"levelo://app?vid=7ac59c81-01df-4b8e-9807-86f926b0041a"},"vehicle_type_id":"4","last_reported":1777138176,"current_range_meters":8400,"station_id":"","pricing_plan_id":"cebpf4jnsgd1na2vs0mg"},{"bike_id":"a03ce919-3949-4c06-bbb8-c0f13ba943b2","system_id":"levelo_inurba_marseille","lat":43.25507,"lon":5.37689,"is_reserved":false,"is_disabled":true,"rental_uris":{"android":"levelo://app?vid=a03ce919-3949-4c06-bbb8-c0f13ba943b2","ios":"levelo://app?vid=a03ce919-3949-4c06-bbb8-c0f13ba943b2"},"vehicle_type_id":"4","last_reported":1777138176,"current_range_meters":8400,"station_id":"ce4bhh12rcd13ifvqff0","pricing_plan_id":"cebpf4jnsgd1na2vs0mg"},{"bike_id":"f1986b7d-1c9a-4323-bf87-5e9576d20808","system_id":"levelo_inurba_marseille","lat":43.30953,"lon":5.39031,"is_reserved":false,"is_disabled":false,"rental_uris":{"android":"levelo://app?vid=f1986b7d-1c9a-4323-bf87-5e9576d20808","ios":"levelo://app?vid=f1986b7d-1c9a-4323-bf87-5e9576d20808"},"vehicle_type_id":"4","last_reported":1777138176,"current_range_meters":8400,"station_id":"ce4bgup2rcd13ifvqco0","pricing_plan_id":"cebpf4jnsgd1na2vs0mg"},{"bike_id":"ace34436-51fe-4536-a1f6-cfa009f56977","system_id":"levelo_inurba_marseille","lat":43.33532,"lon":5.37452,"is_reserved":false,"is_disabled":false,"rental_uris":{"android":"levelo://app?vid=ace34436-51fe-4536-a1f6-cfa009f56977","ios":"levelo://app?vid=ace34436-51fe-4536-a1f6-cfa009f56977"},"vehicle_type_id":"4","last_reported":1777138176,"current_range_meters":8400,"station_id":"st_d46tts09ee8s73dlu43g","pricing_plan_id":"cebpf4jnsgd1na2vs0mg"},{"bike_id":"5d3fd44c-b59d-41d4-a478-9d5eb2e2ef58","system_id":"levelo_inurba_marseille","lat":43.30374,"lon":5.42485,"is_reserved":false,"is_disabled":false,"rental_uris":{"android":"levelo://app?vid=5d3fd44c-b59d-41d4-a478-9d5eb2e2ef58","ios":"levelo://app?vid=5d3fd44c-b59d-41d4-a478-9d5eb2e2ef58"},"vehicle_type_id":"4","last_reported":1777138176,"current_range_meters":8400,"station_id":"ce4bhoh2rcd13ifvqh6g","pricing_plan_id":"cebpf4jnsgd1na2vs0mg"},{"bike_id":"5687bcf3-d7dc-457c-91e4-c37491638fcd","system_id":"levelo_inurba_marseille","lat":43.24164,"lon":5.36393,"is_reserved":false,"is_disabled":false,"rental_uris":{"android":"levelo://app?vid=5687bcf3-d7dc-457c-91e4-c37491638fcd","ios":"levelo://app?vid=5687bcf3-d7dc-457c-91e4-c37491638fcd"},"vehicle_type_id":"4","last_reported":1777138176,"current_range_meters":8400,"station_id":"cpo36qri1sfpv3e86is0","pricing_plan_id":"cebpf4jnsgd1na2vs0mg"},{"bike_id":"7ed384a2-ac0b-41bf-9fc7-e10f73ff1d76","system_id":"levelo_inurba_marseille","lat":43.3093,"lon":5.4014,"is_reserved":false,"is_disabled":false,"rental_uris":{"android":"levelo://app?vid=7ed384a2-ac0b-41bf-9fc7-e10f73ff1d76","ios":"levelo://app?vid=7ed384a2-ac0b-41bf-9fc7-e10f73ff1d76"},"vehicle_type_id":"4","last_reported":1777138176,"current_range_meters":8400,"station_id":"ce4bgvp2rcd13ifvqct0","pricing_plan_id":"cebpf4jnsgd1na2vs0mg"},{"bike_id":"70c7e508-dee8-4c48-84ef-dd92c8416275","system_id":"levelo_inurba_marseille","lat":43.24173,"lon":5.36392,"is_reserved":false,"is_disabled":false,"rental_uris":{"android":"levelo://app?vid=70c7e508-dee8-4c48-84ef-dd92c8416275","ios":"levelo://app?vid=70c7e508-dee8-4c48-84ef-dd92c8416275"},"vehicle_type_id":"4","last_reported":1777138176,"current_range_meters":8400,"station_id":"cpo36qri1sfpv3e86is0","pricing_plan_id":"cebpf4jnsgd1na2vs0mg"},{"bike_id":"06558e5b-846f-4e20-b375-c8972d75dc5a","system_id":"levelo_inurba_marseille","lat":43.27345,"lon":5.43105,"is_reserved":false,"is_disabled":false,"rental_uris":{"android":"levelo://app?vid=06558e5b-846f-4e20-b375-c8972d75dc5a","ios":"levelo://app?vid=06558e5b-846f-4e20-b375-c8972d75dc5a"},"vehicle_type_id":"4","last_reported":1777138176,"current_range_meters":8400,"station_id":"","pricing_plan_id":"cebpf4jnsgd1na2vs0mg"},{"bike_id":"bc95e858-0052-4522-b45e-ee9ac0087636","system_id":"levelo_inurba_marseille","lat":43.28204,"lon":5.39078,"is_reserved":false,"is_disabled":false,"rental_uris":{"android":"levelo://app?vid=bc95e858-0052-4522-b45e-ee9ac0087636","ios":"levelo://app?vid=bc95e858-0052-4522-b45e-ee9ac0087636"},"vehicle_type_id":"4","last_reported":1777138176,"current_range_meters":8400,"station_id":"ce4bhn92rcd13ifvqgsg","pricing_plan_id":"cebpf4jnsgd1na2vs0mg"},{"bike_id":"78793549-4a1d-458c-a885-87bcd65d3d99","system_id":"levelo_inurba_marseille","lat":43.308392,"lon":5.372288,"is_reserved":false,"is_disabled":false,"rental_uris":{"android":"levelo://app?vid=78793549-4a1d-458c-a885-87bcd65d3d99","ios":"levelo://app?vid=78793549-4a1d-458c-a885-87bcd65d3d99"},"vehicle_type_id":"4","last_reported":1777138176,"current_range_meters":8400,"station_id":"ce4bguh2rcd13ifvqckg","pricing_plan_id":"cebpf4jnsgd1na2vs0mg"},{"bike_id":"fea5a28c-0167-4a62-9062-e629ed9b3e8f","system_id":"levelo_inurba_marseille","lat":43.28474,"lon":5.48407,"is_reserved":false,"is_disabled":false,"rental_uris":{"android":"levelo://app?vid=fea5a28c-0167-4a62-9062-e629ed9b3e8f","ios":"levelo://app?vid=fea5a28c-0167-4a62-9062-e629ed9b3e8f"},"vehicle_type_id":"4","last_reported":1777138176,"current_range_meters":8400,"station_id":"st_d3svhcjqgbts73a3dn0g","pricing_plan_id":"cebpf4jnsgd1na2vs0mg"},{"bike_id":"abfba4e2-b055-4ef1-8ec5-8200b3cc8d11","system_id":"levelo_inurba_marseille","lat":43.30328,"lon":5.40434,"is_reserved":false,"is_disabled":false,"rental_uris":{"android":"levelo://app?vid=abfba4e2-b055-4ef1-8ec5-8200b3cc8d11","ios":"levelo://app?vid=abfba4e2-b055-4ef1-8ec5-8200b3cc8d11"},"vehicle_type_id":"4","last_reported":1777138176,"current_range_meters":8400,"station_id":"ce4bh012rcd13ifvqd10","pricing_plan_id":"cebpf4jnsgd1na2vs0mg"},{"bike_id":"fab68545-8a99-4211-9b72-72c08a1e9a9c","system_id":"levelo_inurba_marseille","lat":43.29205,"lon":5.36072,"is_reserved":false,"is_disabled":false,"rental_uris":{"android":"levelo://app?vid=fab68545-8a99-4211-9b72-72c08a1e9a9c","ios":"levelo://app?vid=fab68545-8a99-4211-9b72-72c08a1e9a9c"},"vehicle_type_id":"4","last_reported":1777138176,"current_range_meters":8400,"station_id":"ce4bhbh2rcd13ifvqeqg","pricing_plan_id":"cebpf4jnsgd1na2vs0mg"},{"bike_id":"07b7e725-5d96-4944-8c86-6a6fbd0b1639","system_id":"levelo_inurba_marseille","lat":43.25007,"lon":5.38922,"is_reserved":false,"is_disabled":false,"rental_uris":{"android":"levelo://app?vid=07b7e725-5d96-4944-8c86-6a6fbd0b1639","ios":"levelo://app?vid=07b7e725-5d96-4944-8c86-6a6fbd0b1639"},"vehicle_type_id":"4","last_reported":1777138176,"current_range_meters":8400,"station_id":"ce4bhgp2rcd13ifvqfd0","pricing_plan_id":"cebpf4jnsgd1na2vs0mg"},{"bike_id":"648bc781-8e68-4ccd-aedc-987a153e904f","system_id":"levelo_inurba_marseille","lat":43.29265,"lon":5.38457,"is_reserved":false,"is_disabled":false,"rental_uris":{"android":"levelo://app?vid=648bc781-8e68-4ccd-aedc-987a153e904f","ios":"levelo://app?vid=648bc781-8e68-4ccd-aedc-987a153e904f"},"vehicle_type_id":"4","last_reported":1777138176,"current_range_meters":8400,"station_id":"ce4bh692rcd13ifvqea0","pricing_plan_id":"cebpf4jnsgd1na2vs0mg"},{"bike_id":"2b011dfd-b31a-42cc-be3f-96f7ba6133ca","system_id":"levelo_inurba_marseille","lat":43.30942,"lon":5.39046,"is_reserved":false,"is_disabled":false,"rental_uris":{"android":"levelo://app?vid=2b011dfd-b31a-42cc-be3f-96f7ba6133ca","ios":"levelo://app?vid=2b011dfd-b31a-42cc-be3f-96f7ba6133ca"},"vehicle_type_id":"4","last_reported":1777138176,"current_range_meters":8400,"station_id":"ce4bgup2rcd13ifvqco0","pricing_plan_id":"cebpf4jnsgd1na2vs0mg"},{"bike_id":"f9abfc14-4984-4633-bfe0-edc7f68db5b6","system_id":"levelo_inurba_marseille","lat":43.29294,"lon":5.37445,"is_reserved":false,"is_disabled":false,"rental_uris":{"android":"levelo://app?vid=f9abfc14-4984-4633-bfe0-edc7f68db5b6","ios":"levelo://app?vid=f9abfc14-4984-4633-bfe0-edc7f68db5b6"},"vehicle_type_id":"4","last_reported":1777138176,"current_range_meters":8400,"station_id":"ce4bgi12rcd13ifvqb70","pricing_plan_id":"cebpf4jnsgd1na2vs0mg"},{"bike_id":"70fdbf99-5ae2-42d5-b0cb-e384ca74fc87","system_id":"levelo_inurba_marseille","lat":43.27857,"lon":5.38306,"is_reserved":false,"is_disabled":false,"rental_uris":{"android":"levelo://app?vid=70fdbf99-5ae2-42d5-b0cb-e384ca74fc87","ios":"levelo://app?vid=70fdbf99-5ae2-42d5-b0cb-e384ca74fc87"},"vehicle_type_id":"4","last_reported":1777138176,"current_range_meters":8400,"station_id":"","pricing_plan_id":"cebpf4jnsgd1na2vs0mg"},{"bike_id":"e5a36497-12fd-45d2-802b-852a8b8f2f74","system_id":"levelo_inurba_marseille","lat":43.26027,"lon":5.37551,"is_reserved":false,"is_disabled":false,"rental_uris":{"android":"levelo://app?vid=e5a36497-12fd-45d2-802b-852a8b8f2f74","ios":"levelo://app?vid=e5a36497-12fd-45d2-802b-852a8b8f2f74"},"vehicle_type_id":"4","last_reported":1777138176,"current_range_meters":8400,"station_id":"ce4bhgh2rcd13ifvqfa0","pricing_plan_id":"cebpf4jnsgd1na2vs0mg"},{"bike_id":"d2843ab5-0be0-4d42-872d-bfce9b5b5ebd","system_id":"levelo_inurba_marseille","lat":43.27173,"lon":5.41009,"is_reserved":false,"is_disabled":false,"rental_uris":{"android":"levelo://app?vid=d2843ab5-0be0-4d42-872d-bfce9b5b5ebd","ios":"levelo://app?vid=d2843ab5-0be0-4d42-872d-bfce9b5b5ebd"},"vehicle_type_id":"4","last_reported":1777138176,"current_range_meters":8400,"station_id":"ce4bhl12rcd13ifvqgf0","pricing_plan_id":"cebpf4jnsgd1na2vs0mg"},{"bike_id":"2450965d-0026-445f-9653-fd6eeb1f24e9","system_id":"levelo_inurba_marseille","lat":43.29979,"lon":5.38494,"is_reserved":false,"is_disabled":false,"rental_uris":{"android":"levelo://app?vid=2450965d-0026-445f-9653-fd6eeb1f24e9","ios":"levelo://app?vid=2450965d-0026-445f-9653-fd6eeb1f24e9"},"vehicle_type_id":"4","last_reported":1777138176,"current_range_meters":8800,"station_id":"ce4bgj92rcd13ifvqbd0","pricing_plan_id":"cebpf4jnsgd1na2vs0mg"},{"bike_id":"bfa7c1d6-71d5-4139-8708-a911840c9801","system_id":"levelo_inurba_marseille","lat":43.28474,"lon":5.38517,"is_reserved":false,"is_disabled":true,"rental_uris":{"android":"levelo://app?vid=bfa7c1d6-71d5-4139-8708-a911840c9801","ios":"levelo://app?vid=bfa7c1d6-71d5-4139-8708-a911840c9801"},"vehicle_type_id":"4","last_reported":1777138176,"current_range_meters":8800,"station_id":"ce4bh8p2rcd13ifvqeb0","pricing_plan_id":"cebpf4jnsgd1na2vs0mg"},{"bike_id":"82b06605-ada5-4464-8b3b-5155c57b36db","system_id":"levelo_inurba_marseille","lat":43.28672,"lon":5.38656,"is_reserved":false,"is_disabled":false,"rental_uris":{"android":"levelo://app?vid=82b06605-ada5-4464-8b3b-5155c57b36db","ios":"levelo://app?vid=82b06605-ada5-4464-8b3b-5155c57b36db"},"vehicle_type_id":"4","last_reported":1777138176,"current_range_meters":8800,"station_id":"ce4bh492rcd13ifvqdug","pricing_plan_id":"cebpf4jnsgd1na2vs0mg"},{"bike_id":"adc6061c-7968-465f-b141-f084abd57b66","system_id":"levelo_inurba_marseille","lat":43.2255,"lon":5.34816,"is_reserved":false,"is_disabled":false,"rental_uris":{"android":"levelo://app?vid=adc6061c-7968-465f-b141-f084abd57b66","ios":"levelo://app?vid=adc6061c-7968-465f-b141-f084abd57b66"},"vehicle_type_id":"4","last_reported":1777138176,"current_range_meters":8800,"station_id":"st_cvj5dfep6f1abm77gieg","pricing_plan_id":"cebpf4jnsgd1na2vs0mg"},{"bike_id":"ae0c631d-cd89-4be0-bc2a-a2a6fdecd3df","system_id":"levelo_inurba_marseille","lat":43.29264,"lon":5.38426,"is_reserved":false,"is_disabled":false,"rental_uris":{"android":"levelo://app?vid=ae0c631d-cd89-4be0-bc2a-a2a6fdecd3df","ios":"levelo://app?vid=ae0c631d-cd89-4be0-bc2a-a2a6fdecd3df"},"vehicle_type_id":"4","last_reported":1777138176,"current_range_meters":8800,"station_id":"ce4bh692rcd13ifvqea0","pricing_plan_id":"cebpf4jnsgd1na2vs0mg"},{"bike_id":"e7760414-c99e-4edb-8d77-254918982c51","system_id":"levelo_inurba_marseille","lat":43.280813,"lon":5.396654,"is_reserved":false,"is_disabled":false,"rental_uris":{"android":"levelo://app?vid=e7760414-c99e-4edb-8d77-254918982c51","ios":"levelo://app?vid=e7760414-c99e-4edb-8d77-254918982c51"},"vehicle_type_id":"4","last_reported":1777138176,"current_range_meters":8800,"station_id":"ce4bho12rcd13ifvqh2g","pricing_plan_id":"cebpf4jnsgd1na2vs0mg"},{"bike_id":"b25adf6a-97d7-4526-ba5e-914dd61c2992","system_id":"levelo_inurba_marseille","lat":43.30549,"lon":5.3653,"is_reserved":false,"is_disabled":false,"rental_uris":{"android":"levelo://app?vid=b25adf6a-97d7-4526-ba5e-914dd61c2992","ios":"levelo://app?vid=b25adf6a-97d7-4526-ba5e-914dd61c2992"},"vehicle_type_id":"4","last_reported":1777138176,"current_range_meters":8800,"station_id":"ce4bgs12rcd13ifvqcag","pricing_plan_id":"cebpf4jnsgd1na2vs0mg"},