{"last_updated":1732997377,"ttl":60,"version":"2.2","data":{"bikes":[{"bike_id":"d0adae0d-5139-4c37-b759-c780aa93d035","system_id":"levelo_inurba_marseille","lat":43.31528,"lon":5.38029,"is_reserved":false,"is_disabled":false,"rental_uris":{"android":"levelo://app?vid=d0adae0d-5139-4c37-b759-c780aa93d035","ios":"levelo://app?vid=d0adae0d-5139-4c37-b759-c780aa93d035"},"vehicle_type_id":"4","last_reported":1732997377,"current_range_meters":34800,"station_id":"ce4bhsp2rcd13ifvqi50","pricing_plan_id":"cebpf4jnsgd1na2vs0mg"},{"bike_id":"b9bdf160-a27e-4fd3-9d11-3ac9357cf88d","system_id":"levelo_inurba_marseille","lat":43.28412,"lon":5.37509,"is_reserved":false,"is_disabled":false,"rental_uris":{"android":"levelo://app?vid=b9bdf160-a27e-4fd3-9d11-3ac9357cf88d","ios":"levelo://app?vid=b9bdf160-a27e-4fd3-9d11-3ac9357cf88d"},"vehicle_type_id":"4","last_reported":1732997377,"current_range_meters":9200,"station_id":"ce4bh412rcd13ifvqds0","pricing_plan_id":"cebpf4jnsgd1na2vs0mg"},{"bike_id":"3a80df05-e0e0-40a4-9a54-c058f2d2b089","system_id":"levelo_inurba_marseille","lat":43.28268,"lon":5.35077,"is_reserved":false,"is_disabled":false,"rental_uris":{"android":"levelo://app?vid=3a80df05-e0e0-40a4-9a54-c058f2d2b089","ios":"levelo://app?vid=3a80df05-e0e0-40a4-9a54-c058f2d2b089"},"vehicle_type_id":"4","last_reported":1732997377,"current_range_meters":3600,"station_id":"ce4bhbp2rcd13ifvqerg","pricing_plan_id":"cebpf4jnsgd1na2vs0mg"},{"bike_id":"6f553c0d-587b-47d4-9476-7914e18fccb2","system_id":"levelo_inurba_marseille","lat":43.29574,"lon":5.3997,"is_reserved":false,"is_disabled":true,"rental_uris":{"android":"levelo://app?vid=6f553c0d-587b-47d4-9476-7914e18fccb2","ios":"levelo://app?vid=6f553c0d-587b-47d4-9476-7914e18fccb2"},"vehicle_type_id":"4","last_reported":1732997377,"current_range_meters":0,"station_id":"ce4bh312rcd13ifvqdj0","pricing_plan_id":"cebpf4jnsgd1na2vs0mg"},{"bike_id":"b856c8b4-412d-4c25-bdd4-e6b29aed04cb","system_id":"levelo_inurba_marseille","lat":43.22933,"lon":5.35379,"is_reserved":false,"is_disabled":false,"rental_uris":{"android":"levelo://app?vid=b856c8b4-412d-4c25-bdd4-e6b29aed04cb","ios":"levelo://app?vid=b856c8b4-412d-4c25-bdd4-e6b29aed04cb"},"vehicle_type_id":"4","last_reported":1732997377,"current_range_meters":40000,"station_id":"cpo3532slgdg3j2ikp40","pricing_plan_id":"cebpf4jnsgd1na2vs0mg"},{"bike_id":"6322a6f8-4d80-4ee7-bb76-393e223f3b00","system_id":"levelo_inurba_marseille","lat":43.26952,"lon":5.38617,"is_reserved":false,"is_disabled":false,"rental_uris":{"android":"levelo://app?vid=6322a6f8-4d80-4ee7-bb76-393e223f3b00","ios":"levelo://app?vid=6322a6f8-4d80-4ee7-bb76-393e223f3b00"},"vehicle_type_id":"4","last_reported":1732997377,"current_range_meters":35200,"station_id":"ce4bhh92rcd13ifvqfh0","pricing_plan_id":"cebpf4jnsgd1na2vs0mg"},{"bike_id":"4d5c7536-550d-484c-b6fa-8276eca6a585","system_id":"levelo_inurba_marseille","lat":43.29417,"lon":5.38607,"is_reserved":false,"is_disabled":false,"rental_uris":{"android":"levelo://app?vid=4d5c7536-550d-484c-b6fa-8276eca6a585","ios":"levelo://app?vid=4d5c7536-550d-484c-b6fa-8276eca6a585"},"vehicle_type_id":"4","last_reported":1732997377,"current_range_meters":32000,"station_id":"ce4bh2h2rcd13ifvqdh0","pricing_plan_id":"cebpf4jnsgd1na2vs0mg"},{"bike_id":"50efb275-1e56-489c-89df-09b6ae131a4c","system_id":"levelo_inurba_marseille","lat":43.2668,"lon":5.38266,"is_reserved":false,"is_disabled":false,"rental_uris":{"android":"levelo://app?vid=50efb275-1e56-489c-89df-09b6ae131a4c","ios":"levelo://app?vid=50efb275-1e56-489c-89df-09b6ae131a4c"},"vehicle_type_id":"4","last_reported":1732997377,"current_range_meters":34800,"station_id":"ce4bhg92rcd13ifvqf90","pricing_plan_id":"cebpf4jnsgd1na2vs0mg"},{"bike_id":"2148e6a3-988d-4b5a-a8ac-60f83b84f795","system_id":"levelo_inurba_marseille","lat":43.29584,"lon":5.36741,"is_reserved":false,"is_disabled":false,"rental_uris":{"android":"levelo://app?vid=2148e6a3-988d-4b5a-a8ac-60f83b84f795","ios":"levelo://app?vid=2148e6a3-988d-4b5a-a8ac-60f83b84f795"},"vehicle_type_id":"4","last_reported":1732997377,"current_range_meters":14000,"station_id":"ce4bgph2rcd13ifvqc2g","pricing_plan_id":"cebpf4jnsgd1na2vs0mg"},{"bike_id":"24b58811-c922-45fc-9bd8-9af52b722bc3","system_id":"levelo_inurba_marseille","lat":43.32481,"lon":5.36568,"is_reserved":false,"is_disabled":false,"rental_uris":{"android":"levelo://app?vid=24b58811-c922-45fc-9bd8-9af52b722bc3","ios":"levelo://app?vid=24b58811-c922-45fc-9bd8-9af52b722bc3"},"vehicle_type_id":"4","last_reported":1732997377,"current_range_meters":26000,"station_id":"ce4bhs12rcd13ifvqhvg","pricing_plan_id":"cebpf4jnsgd1na2vs0mg"},{"bike_id":"5b811d3a-cae0-4f12-9af9-b5fb1f651755","system_id":"levelo_inurba_marseille","lat":43.25111,"lon":5.40343,"is_reserved":false,"is_disabled":false,"rental_uris":{"android":"levelo://app?vid=5b811d3a-cae0-4f12-9af9-b5fb1f651755","ios":"levelo://app?vid=5b811d3a-cae0-4f12-9af9-b5fb1f651755"},"vehicle_type_id":"4","last_reported":1732997377,"current_range_meters":38800,"station_id":"ce4bhlh2rcd13ifvqgig","pricing_plan_id":"cebpf4jnsgd1na2vs0mg"},{"bike_id":"ff52c5ff-92a3-452f-957f-842e170d941a","system_id":"levelo_inurba_marseille","lat":43.33024,"lon":5.39031,"is_reserved":false,"is_disabled":false,"rental_uris":{"android":"levelo://app?vid=ff52c5ff-92a3-452f-957f-842e170d941a","ios":"levelo://app?vid=ff52c5ff-92a3-452f-957f-842e170d941a"},"vehicle_type_id":"4","last_reported":1732997377,"current_range_meters":38000,"station_id":"ce4bhr92rcd13ifvqhrg","pricing_plan_id":"cebpf4jnsgd1na2vs0mg"},{"bike_id":"69ec607c-bcf3-48cd-8635-b3639e40b437","system_id":"levelo_inurba_marseille","lat":43.29705,"lon":5.37712,"is_reserved":false,"is_disabled":false,"rental_uris":{"android":"levelo://app?vid=69ec607c-bcf3-48cd-8635-b3639e40b437","ios":"levelo://app?vid=69ec607c-bcf3-48cd-8635-b3639e40b437"},"vehicle_type_id":"4","last_reported":1732997377,"current_range_meters":37600,"station_id":"ce4bgkh2rcd13ifvqbl0","pricing_plan_id":"cebpf4jnsgd1na2vs0mg"},{"bike_id":"966791e8-cdff-4838-a42b-c9b609a533a7","system_id":"levelo_inurba_marseille","lat":43.27088,"lon":5.39962,"is_reserved":false,"is_disabled":true,"rental_uris":{"android":"levelo://app?vid=966791e8-cdff-4838-a42b-c9b609a533a7","ios":"levelo://app?vid=966791e8-cdff-4838-a42b-c9b609a533a7"},"vehicle_type_id":"4","last_reported":1732997377,"current_range_meters":0,"station_id":"","pricing_plan_id":"cebpf4jnsgd1na2vs0mg"},{"bike_id":"9ebf6602-7b36-48d4-8060-2ac580fa326b","system_id":"levelo_inurba_marseille","lat":43.29258,"lon":5.40895,"is_reserved":false,"is_disabled":false,"rental_uris":{"android":"levelo://app?vid=9ebf6602-7b36-48d4-8060-2ac580fa326b","ios":"levelo://app?vid=9ebf6602-7b36-48d4-8060-2ac580fa326b"},"vehicle_type_id":"4","last_reported":1732997377,"current_range_meters":37600,"station_id":"ce4bh192rcd13ifvqdc0","pricing_plan_id":"cebpf4jnsgd1na2vs0mg"},{"bike_id":"7974306f-50f1-4979-96e6-42a3a669c81a","system_id":"levelo_inurba_marseille","lat":43.31997,"lon":5.38149,"is_reserved":false,"is_disabled":false,"rental_uris":{"android":"levelo://app?vid=7974306f-50f1-4979-96e6-42a3a669c81a","ios":"levelo://app?vid=7974306f-50f1-4979-96e6-42a3a669c81a"},"vehicle_type_id":"4","last_reported":1732997377,"current_range_meters":9200,"station_id":"ce4bhr12rcd13ifvqhpg","pricing_plan_id":"cebpf4jnsgd1na2vs0mg"},{"bike_id":"1f4ab6db-1391-49c4-ba42-a4fde7741a86","system_id":"levelo_inurba_marseille","lat":43.29263,"lon":5.3843,"is_reserved":false,"is_disabled":false,"rental_uris":{"android":"levelo://app?vid=1f4ab6db-1391-49c4-ba42-a4fde7741a86","ios":"levelo://app?vid=1f4ab6db-1391-49c4-ba42-a4fde7741a86"},"vehicle_type_id":"4","last_reported":1732997377,"current_range_meters":24000,"station_id":"ce4bh692rcd13ifvqea0","pricing_plan_id":"cebpf4jnsgd1na2vs0mg"},{"bike_id":"69a0975e-1cf0-42a6-939b-4ee9c71f9026","system_id":"levelo_inurba_marseille","lat":43.32296,"lon":5.38276,"is_reserved":false,"is_disabled":false,"rental_uris":{"android":"levelo://app?vid=69a0975e-1cf0-42a6-939b-4ee9c71f9026","ios":"levelo://app?vid=69a0975e-1cf0-42a6-939b-4ee9c71f9026"},"vehicle_type_id":"4","last_reported":1732997377,"current_range_meters":14000,"station_id":"ce4bhr12rcd13ifvqhqg","pricing_plan_id":"cebpf4jnsgd1na2vs0mg"},{"bike_id":"ee3c4318-4146-4fe4-86b0-fc0b9ce70693","system_id":"levelo_inurba_marseille","lat":43.23068,"lon":5.35487,"is_reserved":false,"is_disabled":false,"rental_uris":{"android":"levelo://app?vid=ee3c4318-4146-4fe4-86b0-fc0b9ce70693","ios":"levelo://app?vid=ee3c4318-4146-4fe4-86b0-fc0b9ce70693"},"vehicle_type_id":"4","last_reported":1732997377,"current_range_meters":34000,"station_id":"cpo3342slgdg3j2ifvpg","pricing_plan_id":"cebpf4jnsgd1na2vs0mg"},{"bike_id":"124f06fb-64b7-451d-bd38-84866709eeee","system_id":"levelo_inurba_marseille","lat":43.24066,"lon":5.37763,"is_reserved":false,"is_disabled":false,"rental_uris":{"android":"levelo://app?vid=124f06fb-64b7-451d-bd38-84866709eeee","ios":"levelo://app?vid=124f06fb-64b7-451d-bd38-84866709eeee"},"vehicle_type_id":"4","last_reported":1732997377,"current_range_meters":3200,"station_id":"ce4bhnp2rcd13ifvqgvg","pricing_plan_id":"cebpf4jnsgd1na2vs0mg"},{"bike_id":"3338b2df-3c9a-4bc3-a095-51c352877623","system_id":"levelo_inurba_marseille","lat":43.29031,"lon":5.38639,"is_reserved":false,"is_disabled":false,"rental_uris":{"android":"levelo://app?vid=3338b2df-3c9a-4bc3-a095-51c352877623","ios":"levelo://app?vid=3338b2df-3c9a-4bc3-a095-51c352877623"},"vehicle_type_id":"4","last_reported":1732997377,"current_range_meters":32000,"station_id":"ce4bh4p2rcd13ifvqe0g","pricing_plan_id":"cebpf4jnsgd1na2vs0mg"},{"bike_id":"835d82ec-8886-4952-80b0-4820a09a8d3d","system_id":"levelo_inurba_marseille","lat":43.29254,"lon":5.38444,"is_reserved":false,"is_disabled":false,"rental_uris":{"android":"levelo://app?vid=835d82ec-8886-4952-80b0-4820a09a8d3d","ios":"levelo://app?vid=835d82ec-8886-4952-80b0-4820a09a8d3d"},"vehicle_type_id":"4","last_reported":1732997377,"current_range_meters":27600,"station_id":"ce4bh692rcd13ifvqea0","pricing_plan_id":"cebpf4jnsgd1na2vs0mg"},{"bike_id":"ab5c3199-354b-46c9-956c-6ade915a1809","system_id":"levelo_inurba_marseille","lat":43.31102,"lon":5.37776,"is_reserved":false,"is_disabled":false,"rental_uris":{"android":"levelo://app?vid=ab5c3199-354b-46c9-956c-6ade915a1809","ios":"levelo://app?vid=ab5c3199-354b-46c9-956c-6ade915a1809"},"vehicle_type_id":"4","last_reported":1732997377,"current_range_meters":38800,"station_id":"ce4bgt92rcd13ifvqcg0","pricing_plan_id":"cebpf4jnsgd1na2vs0mg"},{"bike_id":"c7124f38-3d56-473c-9e8b-76061f1c5a09","system_id":"levelo_inurba_marseille","lat":43.27069,"lon":5.42275,"is_reserved":false,"is_disabled":true,"rental_uris":{"android":"levelo://app?vid=c7124f38-3d56-473c-9e8b-76061f1c5a09","ios":"levelo://app?vid=c7124f38-3d56-473c-9e8b-76061f1c5a09"},"vehicle_type_id":"4","last_reported":1732997377,"current_range_meters":0,"station_id":"ce4bhk92rcd13ifvqgb0","pricing_plan_id":"cebpf4jnsgd1na2vs0mg"},{"bike_id":"457d6633-ac84-40ac-8a93-4a310cc9a79a","system_id":"levelo_inurba_marseille","lat":43.29632,"lon":5.40592,"is_reserved":false,"is_disabled":true,"rental_uris":{"android":"levelo://app?vid=457d6633-ac84-40ac-8a93-4a310cc9a79a","ios":"levelo://app?vid=457d6633-ac84-40ac-8a93-4a310cc9a79a"},"vehicle_type_id":"4","last_reported":1732997377,"current_range_meters":800,"station_id":"ce4bh0h2rcd13ifvqd60","pricing_plan_id":"cebpf4jnsgd1na2vs0mg"},{"bike_id":"bc349d87-33fa-417a-b576-c9e08ccf7a4b","system_id":"levelo_inurba_marseille","lat":43.30953,"lon":5.39036,"is_reserved":false,"is_disabled":true,"rental_uris":{"android":"levelo://app?vid=bc349d87-33fa-417a-b576-c9e08ccf7a4b","ios":"levelo://app?vid=bc349d87-33fa-417a-b576-c9e08ccf7a4b"},"vehicle_type_id":"4","last_reported":1732997377,"current_range_meters":0,"station_id":"ce4bgup2rcd13ifvqco0","pricing_plan_id":"cebpf4jnsgd1na2vs0mg"},{"bike_id":"b0bd4cdf-7308-45f0-8e99-a0d5811907ff","system_id":"levelo_inurba_marseille","lat":43.25441,"lon":5.38162,"is_reserved":false,"is_disabled":true,"rental_uris":{"android":"levelo://app?vid=b0bd4cdf-7308-45f0-8e99-a0d5811907ff","ios":"levelo://app?vid=b0bd4cdf-7308-45f0-8e99-a0d5811907ff"},"vehicle_type_id":"4","last_reported":1732997377,"current_range_meters":0,"station_id":"","pricing_plan_id":"cebpf4jnsgd1na2vs0mg"},{"bike_id":"c593dfd4-4ae3-41ca-96b4-88fea2aa536d","system_id":"levelo_inurba_marseille","lat":43.33724,"lon":5.39185,"is_reserved":false,"is_disabled":true,"rental_uris":{"android":"levelo://app?vid=c593dfd4-4ae3-41ca-96b4-88fea2aa536d","ios":"levelo://app?vid=c593dfd4-4ae3-41ca-96b4-88fea2aa536d"},"vehicle_type_id":"4","last_reported":1732997377,"current_range_meters":8000,"station_id":"ce4bhr92rcd13ifvqhsg","pricing_plan_id":"cebpf4jnsgd1na2vs0mg"},{"bike_id":"2b934695-b4e9-4969-8beb-09d4426506f4","system_id":"levelo_inurba_marseille","lat":43.29265,"lon":5.38441,"is_reserved":false,"is_disabled":false,"rental_uris":{"android":"levelo://app?vid=2b934695-b4e9-4969-8beb-09d4426506f4","ios":"levelo://app?vid=2b934695-b4e9-4969-8beb-09d4426506f4"},"vehicle_type_id":"4","last_reported":1732997377,"current_range_meters":38800,"station_id":"ce4bh692rcd13ifvqea0","pricing_plan_id":"cebpf4jnsgd1na2vs0mg"},{"bike_id":"f0ca66be-c5fa-4f1d-8e2b-9450ca0243d7","system_id":"levelo_inurba_marseille","lat":43.301609,"lon":5.380794,"is_reserved":false,"is_disabled":true,"rental_uris":{"android":"levelo://app?vid=f0ca66be-c5fa-4f1d-8e2b-9450ca0243d7","ios":"levelo://app?vid=f0ca66be-c5fa-4f1d-8e2b-9450ca0243d7"},"vehicle_type_id":"4","last_reported":1732997377,"current_range_meters":36400,"station_id":"ce4bgjp2rcd13ifvqbh0","pricing_plan_id":"cebpf4jnsgd1na2vs0mg"},{"bike_id":"efdfdc72-5aef-4350-a69b-293e64119427","system_id":"levelo_inurba_marseille","lat":43.29556,"lon":5.42294,"is_reserved":false,"is_disabled":false,"rental_uris":{"android":"levelo://app?vid=efdfdc72-5aef-4350-a69b-293e64119427","ios":"levelo://app?vid=efdfdc72-5aef-4350-a69b-293e64119427"},"vehicle_type_id":"4","last_reported":1732997377,"current_range_meters":8000,"station_id":"ce4bhph2rcd13ifvqhdg","pricing_plan_id":"cebpf4jnsgd1na2vs0mg"},{"bike_id":"6f7949e1-de87-4a49-8620-fec27e04447f","system_id":"levelo_inurba_marseille","lat":43.33734,"lon":5.39178,"is_reserved":false,"is_disabled":false,"rental_uris":{"android":"levelo://app?vid=6f7949e1-de87-4a49-8620-fec27e04447f","ios":"levelo://app?vid=6f7949e1-de87-4a49-8620-fec27e04447f"},"vehicle_type_id":"4","last_reported":1732997377,"current_range_meters":26800,"station_id":"ce4bhr92rcd13ifvqhsg","pricing_plan_id":"cebpf4jnsgd1na2vs0mg"},{"bike_id":"ba118096-107c-4e25-b425-83780bb1b025","system_id":"levelo_inurba_marseille","lat":43.30254,"lon":5.40078,"is_reserved":false,"is_disabled":true,"rental_uris":{"android":"levelo://app?vid=ba118096-107c-4e25-b425-83780bb1b025","ios":"levelo://app?vid=ba118096-107c-4e25-b425-83780bb1b025"},"vehicle_type_id":"4","last_reported":1732997377,"current_range_meters":0,"station_id":"ce4bgvh2rcd13ifvqcs0","pricing_plan_id":"cebpf4jnsgd1na2vs0mg"},{"bike_id":"1d22cd2e-4a7d-439e-8959-ed344fed697b","system_id":"levelo_inurba_marseille","lat":43.29025,"lon":5.38637,"is_reserved":false,"is_disabled":false,"rental_uris":{"android":"levelo://app?vid=1d22cd2e-4a7d-439e-8959-ed344fed697b","ios":"levelo://app?vid=1d22cd2e-4a7d-439e-8959-ed344fed697b"},"vehicle_type_id":"4","last_reported":1732997377,"current_range_meters":37600,"station_id":"ce4bh4p2rcd13ifvqe0g","pricing_plan_id":"cebpf4jnsgd1na2vs0mg"},{"bike_id":"7066298c-8444-4dbb-8e5a-afa45f0890f5","system_id":"levelo_inurba_marseille","lat":43.28857,"lon":5.3931,"is_reserved":false,"is_disabled":true,"rental_uris":{"android":"levelo://app?vid=7066298c-8444-4dbb-8e5a-afa45f0890f5","ios":"levelo://app?vid=7066298c-8444-4dbb-8e5a-afa45f0890f5"},"vehicle_type_id":"4","last_reported":1732997377,"current_range_meters":10800,"station_id":"ce4bh2p2rcd13ifvqdi0","pricing_plan_id":"cebpf4jnsgd1na2vs0mg"},{"bike_id":"79da6e11-068f-4f85-891a-bf5d6033ae1b","system_id":"levelo_inurba_marseille","lat":43.29195,"lon":5.39312,"is_reserved":false,"is_disabled":true,"rental_uris":{"android":"levelo://app?vid=79da6e11-068f-4f85-891a-bf5d6033ae1b","ios":"levelo://app?vid=79da6e11-068f-4f85-891a-bf5d6033ae1b"},"vehicle_type_id":"4","last_reported":1732997377,"current_range_meters":23200,"station_id":"ce4bh192rcd13ifvqdd0","pricing_plan_id":"cebpf4jnsgd1na2vs0mg"},{"bike_id":"67219899-4fb3-4a00-86a5-7ea8a29fdefe","system_id":"levelo_inurba_marseille","lat":43.30437,"lon":5.38888,"is_reserved":false,"is_disabled":false,"rental_uris":{"android":"levelo://app?vid=67219899-4fb3-4a00-86a5-7ea8a29fdefe","ios":"levelo://app?vid=67219899-4fb3-4a00-86a5-7ea8a29fdefe"},"vehicle_type_id":"4","last_reported":1732997377,"current_range_meters":3600,"station_id":"ce4bgk12rcd13ifvqbi0","pricing_plan_id":"cebpf4jnsgd1na2vs0mg"},{"bike_id":"60b56983-4dd0-4c43-a512-0e9952841805","system_id":"levelo_inurba_marseille","lat":43.32373,"lon":5.38867,"is_reserved":false,"is_disabled":false,"rental_uris":{"android":"levelo://app?vid=60b56983-4dd0-4c43-a512-0e9952841805","ios":"levelo://app?vid=60b56983-4dd0-4c43-a512-0e9952841805"},"vehicle_type_id":"4","last_reported":1732997377,"current_range_meters":17600,"station_id":"ce4bhqp2rcd13ifvqhog","pricing_plan_id":"cebpf4jnsgd1na2vs0mg"},{"bike_id":"9d3f3ce6-1853-41ee-bda9-aa5a9ec58b4e","system_id":"levelo_inurba_marseille","lat":43.29786,"lon":5.39328,"is_reserved":false,"is_disabled":true,"rental_uris":{"android":"levelo://app?vid=9d3f3ce6-1853-41ee-bda9-aa5a9ec58b4e","ios":"levelo://app?vid=9d3f3ce6-1853-41ee-bda9-aa5a9ec58b4e"},"vehicle_type_id":"4","last_reported":1732997377,"current_range_meters":0,"station_id":"chh1huq6cuj3fo74tm60","pricing_plan_id":"cebpf4jnsgd1na2vs0mg"},{"bike_id":"37039fb6-7a59-474d-ba85-256ac33e1187","system_id":"levelo_inurba_marseille","lat":43.30884,"lon":5.39656,"is_reserved":false,"is_disabled":true,"rental_uris":{"android":"levelo://app?vid=37039fb6-7a59-474d-ba85-256ac33e1187","ios":"levelo://app?vid=37039fb6-7a59-474d-ba85-256ac33e1187"},"vehicle_type_id":"4","last_reported":1732997377,"current_range_meters":800,"station_id":"ce4bh012rcd13ifvqcv0","pricing_plan_id":"cebpf4jnsgd1na2vs0mg"},{"bike_id":"114e0915-573b-4faa-a468-a394c2bf69cb","system_id":"levelo_inurba_marseille","lat":43.32658,"lon":5.40991,"is_reserved":false,"is_disabled":false,"rental_uris":{"android":"levelo://app?vid=114e0915-573b-4faa-a468-a394c2bf69cb","ios":"levelo://app?vid=114e0915-573b-4faa-a468-a394c2bf69cb"},"vehicle_type_id":"4","last_reported":1732997377,"current_range_meters":19600,"station_id":"ce4bhpp2rcd13ifvqhgg","pricing_plan_id":"cebpf4jnsgd1na2vs0mg"},{"bike_id":"0c7b00e7-2217-4725-862c-8b0a23c11129","system_id":"levelo_inurba_marseille","lat":43.30634,"lon":5.40091,"is_reserved":false,"is_disabled":false,"rental_uris":{"android":"levelo://app?vid=0c7b00e7-2217-4725-862c-8b0a23c11129","ios":"levelo://app?vid=0c7b00e7-2217-4725-862c-8b0a23c11129"},"vehicle_type_id":"4","last_reported":1732997377,"current_range_meters":30000,"station_id":"ce4bh112rcd13ifvqda0","pricing_plan_id":"cebpf4jnsgd1na2vs0mg"},{"bike_id":"ec327e20-ccd1-43e6-893e-7bf5fb3ffa7f","system_id":"levelo_inurba_marseille","lat":43.29004,"lon":5.35607,"is_reserved":false,"is_disabled":false,"rental_uris":{"android":"levelo://app?vid=ec327e20-ccd1-43e6-893e-7bf5fb3ffa7f","ios":"levelo://app?vid=ec327e20-ccd1-43e6-893e-7bf5fb3ffa7f"},"vehicle_type_id":"4","last_reported":1732997377,"current_range_meters":26800,"station_id":"ce4bhb92rcd13ifvqen0","pricing_plan_id":"cebpf4jnsgd1na2vs0mg"},{"bike_id":"f78b1fc5-057d-435e-95d1-6e834ef411b7","system_id":"levelo_inurba_marseille","lat":43.25118,"lon":5.40316,"is_reserved":false,"is_disabled":false,"rental_uris":{"android":"levelo://app?vid=f78b1fc5-057d-435e-95d1-6e834ef411b7","ios":"levelo://app?vid=f78b1fc5-057d-435e-95d1-6e834ef411b7"},"vehicle_type_id":"4","last_reported":1732997377,"current_range_meters":12000,"station_id":"ce4bhlh2rcd13ifvqgig","pricing_plan_id":"cebpf4jnsgd1na2vs0mg"},{"bike_id":"4cd0fae9-9b96-4c08-80a7-0987ebb39a57","system_id":"levelo_inurba_marseille","lat":43.29007,"lon":5.35611,"is_reserved":false,"is_disabled":false,"rental_uris":{"android":"levelo://app?vid=4cd0fae9-9b96-4c08-80a7-0987ebb39a57","ios":"levelo://app?vid=4cd0fae9-9b96-4c08-80a7-0987ebb39a57"},"vehicle_type_id":"4","last_reported":1732997377,"current_range_meters":38800,"station_id":"ce4bhb92rcd13ifvqen0","pricing_plan_id":"cebpf4jnsgd1na2vs0mg"},{"bike_id":"98037c3a-9b2c-4fc3-b5c9-984ee3607601","system_id":"levelo_inurba_marseille","lat":43.32363,"lon":5.36756,"is_reserved":false,"is_disabled":false,"rental_uris":{"android":"levelo://app?vid=98037c3a-9b2c-4fc3-b5c9-984ee3607601","ios":"levelo://app?vid=98037c3a-9b2c-4fc3-b5c9-984ee3607601"},"vehicle_type_id":"4","last_reported":1732997377,"current_range_meters":6800,"station_id":"ce4bhsh2rcd13ifvqi2g","pricing_plan_id":"cebpf4jnsgd1na2vs0mg"},{"bike_id":"7ed2229e-6e77-42d8-826e-e15ec9f33077","system_id":"levelo_inurba_marseille","lat":43.26686,"lon":5.38273,"is_reserved":false,"is_disabled":true,"rental_uris":{"android":"levelo://app?vid=7ed2229e-6e77-42d8-826e-e15ec9f33077","ios":"levelo://app?vid=7ed2229e-6e77-42d8-826e-e15ec9f33077"},"vehicle_type_id":"4","last_reported":1732997377,"current_range_meters":20400,"station_id":"ce4bhg92rcd13ifvqf90","pricing_plan_id":"cebpf4jnsgd1na2vs0mg"},{"bike_id":"9e1cc2f7-fec4-43fb-bc6c-2762d5ca5aa9","system_id":"levelo_inurba_marseille","lat":43.29798,"lon":5.38103,"is_reserved":false,"is_disabled":false,"rental_uris":{"android":"levelo://app?vid=9e1cc2f7-fec4-43fb-bc6c-2762d5ca5aa9","ios":"levelo://app?vid=9e1cc2f7-fec4-43fb-bc6c-2762d5ca5aa9"},"vehicle_type_id":"4","last_reported":1732997377,"current_range_meters":38800,"station_id":"ce4bgip2rcd13ifvqbb0","pricing_plan_id":"cebpf4jnsgd1na2vs0mg"},{"bike_id":"1b2b4708-5ee4-4823-977c-84984405e651","system_id":"levelo_inurba_marseille","lat":43.29894,"lon":5.3814,"is_reserved":false,"is_disabled":false,"rental_uris":{"android":"levelo://app?vid=1b2b4708-5ee4-4823-977c-84984405e651","ios":"levelo://app?vid=1b2b4708-5ee4-4823-977c-84984405e651"},"vehicle_type_id":"4","last_reported":1732997377,"current_range_meters":28400,"station_id":"ce4bgj12rcd13ifvqbc0","pricing_plan_id":"cebpf4jnsgd1na2vs0mg"},{"bike_id":"64cbfd6a-4a4e-4d37-982c-18402a201eee","system_id":"levelo_inurba_marseille","lat":43.28657,"lon":5.36343,"is_reserved":false,"is_disabled":true,"rental_uris":{"android":"levelo://app?vid=64cbfd6a-4a4e-4d37-982c-18402a201eee","ios":"levelo://app?vid=64cbfd6a-4a4e-4d37-982c-18402a201eee"},"vehicle_type_id":"4","last_reported":1732997377,"current_range_meters":20000,"station_id":"ce4bhah2rcd13ifvqej0","pricing_plan_id":"cebpf4jnsgd1na2vs0mg"},{"bike_id":"c0054edb-5a8c-4cde-93a6-194d063ea63c","system_id":"levelo_inurba_marseille","lat":43.262,"lon":5.37933,"is_reserved":false,"is_disabled":true,"rental_uris":{"android":"levelo://app?vid=c0054edb-5a8c-4cde-93a6-194d063ea63c","ios":"levelo://app?vid=c0054edb-5a8c-4cde-93a6-194d063ea63c"},"vehicle_type_id":"4","last_reported":1732997377,"current_range_meters":1200,"station_id":"ce4bhjp2rcd13ifvqg90","pricing_plan_id":"cebpf4jnsgd1na2vs0mg"},{"bike_id":"8d6b7aa4-684a-4c74-80e4-7e65c155980c","system_id":"levelo_inurba_marseille","lat":43.30414,"lon":5.41273,"is_reserved":false,"is_disabled":false,"rental_uris":{"android":"levelo://app?vid=8d6b7aa4-684a-4c74-80e4-7e65c155980c","ios":"levelo://app?vid=8d6b7aa4-684a-4c74-80e4-7e65c155980c"},"vehicle_type_id":"4","last_reported":1732997377,"current_range_meters":36000,"station_id":"ce4bhop2rcd13ifvqh8g","pricing_plan_id":"cebpf4jnsgd1na2vs0mg"},{"bike_id":"dbcbccc5-ea1d-4716-ac6c-1325d31bb553","system_id":"levelo_inurba_marseille","lat":43.29295,"lon":5.36831,"is_reserved":false,"is_disabled":false,"rental_uris":{"android":"levelo://app?vid=dbcbccc5-ea1d-4716-ac6c-1325d31bb553","ios":"levelo://app?vid=dbcbccc5-ea1d-4716-ac6c-1325d31bb553"},"vehicle_type_id":"4","last_reported":1732997377,"current_range_meters":38800,"station_id":"ce4bhbp2rcd13ifvqesg","pricing_plan_id":"cebpf4jnsgd1na2vs0mg"},{"bike_id":"3ab4c64b-a573-471d-9dc1-aa13385ed60a","system_id":"levelo_inurba_marseille","lat":43.32665,"lon":5.40977,"is_reserved":false,"is_disabled":false,"rental_uris":{"android":"levelo://app?vid=3ab4c64b-a573-471d-9dc1-aa13385ed60a","ios":"levelo://app?vid=3ab4c64b-a573-471d-9dc1-aa13385ed60a"},"vehicle_type_id":"4","last_reported":1732997377,"current_range_meters":38000,"station_id":"ce4bhpp2rcd13ifvqhgg","pricing_plan_id":"cebpf4jnsgd1na2vs0mg"},{"bike_id":"1aa61925-f4ba-4fd5-b1de-08db522586c3","system_id":"levelo_inurba_marseille","lat":43.2706,"lon":5.40262,"is_reserved":false,"is_disabled":true,"rental_uris":{"android":"levelo://app?vid=1aa61925-f4ba-4fd5-b1de-08db522586c3","ios":"levelo://app?vid=1aa61925-f4ba-4fd5-b1de-08db522586c3"},"vehicle_type_id":"4","last_reported":1732997377,"current_range_meters":0,"station_id":"ce4bhk92rcd13ifvqgc0","pricing_plan_id":"cebpf4jnsgd1na2vs0mg"},{"bike_id":"af43c361-a812-4eb3-b270-baaea05f752e","system_id":"levelo_inurba_marseille","lat":43.2841,"lon":5.37507,"is_reserved":false,"is_disabled":false,"rental_uris":{"android":"levelo://app?vid=af43c361-a812-4eb3-b270-baaea05f752e","ios":"levelo://app?vid=af43c361-a812-4eb3-b270-baaea05f752e"},"vehicle_type_id":"4","last_reported":1732997377,"current_range_meters":36800,"station_id":"ce4bh412rcd13ifvqds0","pricing_plan_id":"cebpf4jnsgd1na2vs0mg"},{"bike_id":"694ada16-62be-4cd2-822e-a4599887121c","system_id":"levelo_inurba_marseille","lat":43.23191,"lon":5.35557,"is_reserved":false,"is_disabled":false,"rental_uris":{"android":"levelo://app?vid=694ada16-62be-4cd2-822e-a4599887121c","ios":"levelo://app?vid=694ada16-62be-4cd2-822e-a4599887121c"},"vehicle_type_id":"4","last_reported":1732997377,"current_range_meters":35200,"station_id":"ce4bhu92rcd13ifvqi70","pricing_plan_id":"cebpf4jnsgd1na2vs0mg"},{"bike_id":"1a17b60d-2755-4a31-8fe5-e93f284b6823","system_id":"levelo_inurba_marseille","lat":43.28925,"lon":5.38393,"is_reserved":false,"is_disabled":false,"rental_uris":{"android":"levelo://app?vid=1a17b60d-2755-4a31-8fe5-e93f284b6823","ios":"levelo://app?vid=1a17b60d-2755-4a31-8fe5-e93f284b6823"},"vehicle_type_id":"4","last_reported":1732997377,"current_range_meters":28400,"station_id":"ce4bh612rcd13ifvqe6g","pricing_plan_id":"cebpf4jnsgd1na2vs0mg"},{"bike_id":"67fa2a9e-eed8-4ed6-bdd8-7d1023a52b4e","system_id":"levelo_inurba_marseille","lat":43.26937,"lon":5.38925,"is_reserved":false,"is_disabled":true,"rental_uris":{"android":"levelo://app?vid=67fa2a9e-eed8-4ed6-bdd8-7d1023a52b4e","ios":"levelo://app?vid=67fa2a9e-eed8-4ed6-bdd8-7d1023a52b4e"},"vehicle_type_id":"4","last_reported":1732997377,"current_range_meters":8800,"station_id":"ce4bhhh2rcd13ifvqfl0","pricing_plan_id":"cebpf4jnsgd1na2vs0mg"},{"bike_id":"60e78a32-4ec8-4664-a2fe-ca882325512d","system_id":"levelo_inurba_marseille","lat":43.29795,"lon":5.39335,"is_reserved":false,"is_disabled":false,"rental_uris":{"android":"levelo://app?vid=60e78a32-4ec8-4664-a2fe-ca882325512d","ios":"levelo://app?vid=60e78a32-4ec8-4664-a2fe-ca882325512d"},"vehicle_type_id":"4","last_reported":1732997377,"current_range_meters":21600,"station_id":"chh1huq6cuj3fo74tm60","pricing_plan_id":"cebpf4jnsgd1na2vs0mg"},{"bike_id":"9c9c5672-c6e7-45e1-959b-b71d1baf0224","system_id":"levelo_inurba_marseille","lat":43.273158,"lon":5.390881,"is_reserved":false,"is_disabled":false,"rental_uris":{"android":"levelo://app?vid=9c9c5672-c6e7-45e1-959b-b71d1baf0224","ios":"levelo://app?vid=9c9c5672-c6e7-45e1-959b-b71d1baf0224"},"vehicle_type_id":"4","last_reported":1732997377,"current_range_meters":32000,"station_id":"ce4bhgp2rcd13ifvqfe0","pricing_plan_id":"cebpf4jnsgd1na2vs0mg"},{"bike_id":"f453dc37-c945-448b-80e2-38bae3f013a5","system_id":"levelo_inurba_marseille","lat":43.31994,"lon":5.38158,"is_reserved":false,"is_disabled":false,"rental_uris":{"android":"levelo://app?vid=f453dc37-c945-448b-80e2-38bae3f013a5","ios":"levelo://app?vid=f453dc37-c945-448b-80e2-38bae3f013a5"},"vehicle_type_id":"4","last_reported":1732997377,"current_range_meters":32800,"station_id":"ce4bhr12rcd13ifvqhpg","pricing_plan_id":"cebpf4jnsgd1na2vs0mg"},{"bike_id":"161f1967-f9eb-42cf-ac98-c0e9ac0708f1","system_id":"levelo_inurba_marseille","lat":43.33026,"lon":5.39039,"is_reserved":false,"is_disabled":false,"rental_uris":{"android":"levelo://app?vid=161f1967-f9eb-42cf-ac98-c0e9ac0708f1","ios":"levelo://app?vid=161f1967-f9eb-42cf-ac98-c0e9ac0708f1"},"vehicle_type_id":"4","last_reported":1732997377,"current_range_meters":14800,"station_id":"ce4bhr92rcd13ifvqhrg","pricing_plan_id":"cebpf4jnsgd1na2vs0mg"},{"bike_id":"db859837-cb21-41ca-b64b-3ebed09d2649","system_id":"levelo_inurba_marseille","lat":43.26689,"lon":5.38275,"is_reserved":false,"is_disabled":false,"rental_uris":{"android":"levelo://app?vid=db859837-cb21-41ca-b64b-3ebed09d2649","ios":"levelo://app?vid=db859837-cb21-41ca-b64b-3ebed09d2649"},"vehicle_type_id":"4","last_reported":1732997377,"current_range_meters":38800,"station_id":"ce4bhg92rcd13ifvqf90","pricing_plan_id":"cebpf4jnsgd1na2vs0mg"},{"bike_id":"4e42b3b7-bef8-43c2-9895-e26fbd7961f2","system_id":"levelo_inurba_marseille","lat":43.29894,"lon":5.43671,"is_reserved":false,"is_disabled":false,"rental_uris":{"android":"levelo://app?vid=4e42b3b7-bef8-43c2-9895-e26fbd7961f2","ios":"levelo://app?vid=4e42b3b7-bef8-43c2-9895-e26fbd7961f2"},"vehicle_type_id":"4","last_reported":1732997377,"current_range_meters":6400,"station_id":"ce4bhpp2rcd13ifvqhfg","pricing_plan_id":"cebpf4jnsgd1na2vs0mg"},{"bike_id":"f8968860-9ebe-425f-866f-a253a48101dd","system_id":"levelo_inurba_marseille","lat":43.28461,"lon":5.35891,"is_reserved":false,"is_disabled":true,"rental_uris":{"android":"levelo://app?vid=f8968860-9ebe-425f-866f-a253a48101dd","ios":"levelo://app?vid=f8968860-9ebe-425f-866f-a253a48101dd"},"vehicle_type_id":"4","last_reported":1732997377,"current_range_meters":3600,"station_id":"ce4bhah2rcd13ifvqei0","pricing_plan_id":"cebpf4jnsgd1na2vs0mg"},{"bike_id":"bc749360-3ce4-4dd6-a0ac-83aa82c323a7","system_id":"levelo_inurba_marseille","lat":43.28153,"lon":5.42639,"is_reserved":false,"is_disabled":true,"rental_uris":{"android":"levelo://app?vid=bc749360-3ce4-4dd6-a0ac-83aa82c323a7","ios":"levelo://app?vid=bc749360-3ce4-4dd6-a0ac-83aa82c323a7"},"vehicle_type_id":"4","last_reported":1732997377,"current_range_meters":33600,"station_id":"ce4bhnh2rcd13ifvqgug","pricing_plan_id":"cebpf4jnsgd1na2vs0mg"},{"bike_id":"1eaa8eb8-3e87-4864-93e4-a2ffda1eacc8","system_id":"levelo_inurba_marseille","lat":43.28422,"lon":5.34996,"is_reserved":false,"is_disabled":false,"rental_uris":{"android":"levelo://app?vid=1eaa8eb8-3e87-4864-93e4-a2ffda1eacc8","ios":"levelo://app?vid=1eaa8eb8-3e87-4864-93e4-a2ffda1eacc8"},"vehicle_type_id":"4","last_reported":1732997377,"current_range_meters":25200,"station_id":"ce4bhbh2rcd13ifvqepg","pricing_plan_id":"cebpf4jnsgd1na2vs0mg"},{"bike_id":"e0c5943b-3e49-415b-9013-1e7e3c2aa3b4","system_id":"levelo_inurba_marseille","lat":43.24803,"lon":5.37455,"is_reserved":false,"is_disabled":false,"rental_uris":{"android":"levelo://app?vid=e0c5943b-3e49-415b-9013-1e7e3c2aa3b4","ios":"levelo://app?vid=e0c5943b-3e49-415b-9013-1e7e3c2aa3b4"},"vehicle_type_id":"4","last_reported":1732997377,"current_range_meters":38800,"station_id":"ce4bhgh2rcd13ifvqfb0","pricing_plan_id":"cebpf4jnsgd1na2vs0mg"},{"bike_id":"4d4c884f-6933-49c0-8899-f9856d90f44d","system_id":"levelo_inurba_marseille","lat":43.29748,"lon":5.37971,"is_reserved":false,"is_disabled":true,"rental_uris":{"android":"levelo://app?vid=4d4c884f-6933-49c0-8899-f9856d90f44d","ios":"levelo://app?vid=4d4c884f-6933-49c0-8899-f9856d90f44d"},"vehicle_type_id":"4","last_reported":1732997377,"current_range_meters":0,"station_id":"","pricing_plan_id":"cebpf4jnsgd1na2vs0mg"},{"bike_id":"49383f8c-5e0c-4bb5-aa2b-e1c81f4536f3","system_id":"levelo_inurba_marseille","lat":43.32293,"lon":5.38269,"is_reserved":false,"is_disabled":false,"rental_uris":{"android":"levelo://app?vid=49383f8c-5e0c-4bb5-aa2b-e1c81f4536f3","ios":"levelo://app?vid=49383f8c-5e0c-4bb5-aa2b-e1c81f4536f3"},"vehicle_type_id":"4","last_reported":1732997377,"current_range_meters":28800,"station_id":"ce4bhr12rcd13ifvqhqg","pricing_plan_id":"cebpf4jnsgd1na2vs0mg"},{"bike_id":"e3b3fc25-4265-4821-a916-b18c18fe72ba","system_id":"levelo_inurba_marseille","lat":43.29176,"lon":5.37153,"is_reserved":false,"is_disabled":false,"rental_uris":{"android":"levelo://app?vid=e3b3fc25-4265-4821-a916-b18c18fe72ba","ios":"levelo://app?vid=e3b3fc25-4265-4821-a916-b18c18fe72ba"},"vehicle_type_id":"4","last_reported":1732997377,"current_range_meters":36800,"station_id":"ce4bha92rcd13ifvqeh0","pricing_plan_id":"cebpf4jnsgd1na2vs0mg"},{"bike_id":"ab8a41e0-586c-49f9-8a95-dd9a92cdba7e","system_id":"levelo_inurba_marseille","lat":43.29927,"lon":5.3655,"is_reserved":false,"is_disabled":false,"rental_uris":{"android":"levelo://app?vid=ab8a41e0-586c-49f9-8a95-dd9a92cdba7e","ios":"levelo://app?vid=ab8a41e0-586c-49f9-8a95-dd9a92cdba7e"},"vehicle_type_id":"4","last_reported":1732997377,"current_range_meters":36400,"station_id":"ce4bgm92rcd13ifvqbr0","pricing_plan_id":"cebpf4jnsgd1na2vs0mg"},{"bike_id":"9009be37-c6b1-406b-b0a8-fbab355f715e","system_id":"levelo_inurba_marseille","lat":43.33763,"lon":5.37495,"is_reserved":false,"is_disabled":false,"rental_uris":{"android":"levelo://app?vid=9009be37-c6b1-406b-b0a8-fbab355f715e","ios":"levelo://app?vid=9009be37-c6b1-406b-b0a8-fbab355f715e"},"vehicle_type_id":"4","last_reported":1732997377,"current_range_meters":35200,"station_id":"","pricing_plan_id":"cebpf4jnsgd1na2vs0mg"},{"bike_id":"efa653b5-43fd-4b91-8569-3dba08e0d696","system_id":"levelo_inurba_marseille","lat":43.30427,"lon":5.39744,"is_reserved":false,"is_disabled":true,"rental_uris":{"android":"levelo://app?vid=efa653b5-43fd-4b91-8569-3dba08e0d696","ios":"levelo://app?vid=efa653b5-43fd-4b91-8569-3dba08e0d696"},"vehicle_type_id":"4","last_reported":1732997377,"current_range_meters":0,"station_id":"ce4bh092rcd13ifvqd20","pricing_plan_id":"cebpf4jnsgd1na2vs0mg"},{"bike_id":"b7b33697-14a7-4110-9b8b-4194e6ef5f3f","system_id":"levelo_inurba_marseille","lat":43.27282,"lon":5.39217,"is_reserved":false,"is_disabled":true,"rental_uris":{"android":"levelo://app?vid=b7b33697-14a7-4110-9b8b-4194e6ef5f3f","ios":"levelo://app?vid=b7b33697-14a7-4110-9b8b-4194e6ef5f3f"},"vehicle_type_id":"4","last_reported":1732997377,"current_range_meters":0,"station_id":"","pricing_plan_id":"cebpf4jnsgd1na2vs0mg"},{"bike_id":"ac49fba4-30df-4893-b052-7d9d76fd86a2","system_id":"levelo_inurba_marseille","lat":43.29258,"lon":5.38421,"is_reserved":false,"is_disabled":true,"rental_uris":{"android":"levelo://app?vid=ac49fba4-30df-4893-b052-7d9d76fd86a2","ios":"levelo://app?vid=ac49fba4-30df-4893-b052-7d9d76fd86a2"},"vehicle_type_id":"4","last_reported":1732997377,"current_range_meters":16400,"station_id":"ce4bh692rcd13ifvqea0","pricing_plan_id":"cebpf4jnsgd1na2vs0mg"},{"bike_id":"df006567-8975-4a7c-8a0e-ca3b196630bf","system_id":"levelo_inurba_marseille","lat":43.29529,"lon":5.38551,"is_reserved":false,"is_disabled":false,"rental_uris":{"android":"levelo://app?vid=df006567-8975-4a7c-8a0e-ca3b196630bf","ios":"levelo://app?vid=df006567-8975-4a7c-8a0e-ca3b196630bf"},"vehicle_type_id":"4","last_reported":1732997377,"current_range_meters":28800,"station_id":"ce4bgih2rcd13ifvqba0","pricing_plan_id":"cebpf4jnsgd1na2vs0mg"},{"bike_id":"f8c96851-0afb-4e76-963e-6a283010bcce","system_id":"levelo_inurba_marseille","lat":43.25728,"lon":5.41111,"is_reserved":false,"is_disabled":false,"rental_uris":{"android":"levelo://app?vid=f8c96851-0afb-4e76-963e-6a283010bcce","ios":"levelo://app?vid=f8c96851-0afb-4e76-963e-6a283010bcce"},"vehicle_type_id":"4","last_reported":1732997377,"current_range_meters":14000,"station_id":"ce4bhkp2rcd13ifvqgd0","pricing_plan_id":"cebpf4jnsgd1na2vs0mg"},{"bike_id":"1fb99aec-d059-4eb5-8cc6-daa42da797cd","system_id":"levelo_inurba_marseille","lat":43.28404,"lon":5.37522,"is_reserved":false,"is_disabled":true,"rental_uris":{"android":"levelo://app?vid=1fb99aec-d059-4eb5-8cc6-daa42da797cd","ios":"levelo://app?vid=1fb99aec-d059-4eb5-8cc6-daa42da797cd"},"vehicle_type_id":"4","last_reported":1732997377,"current_range_meters":0,"station_id":"ce4bh412rcd13ifvqds0","pricing_plan_id":"cebpf4jnsgd1na2vs0mg"},{"bike_id":"3abdb507-aca9-41cf-ab5c-c13fb795c3a0","system_id":"levelo_inurba_marseille","lat":43.284054,"lon":5.349836,"is_reserved":false,"is_disabled":true,"rental_uris":{"android":"levelo://app?vid=3abdb507-aca9-41cf-ab5c-c13fb795c3a0","ios":"levelo://app?vid=3abdb507-aca9-41cf-ab5c-c13fb795c3a0"},"vehicle_type_id":"4","last_reported":1732997377,"current_range_meters":38400,"station_id":"ce4bhbh2rcd13ifvqepg","pricing_plan_id":"cebpf4jnsgd1na2vs0mg"},{"bike_id":"cc2b3d18-a038-4bc3-86be-7bfa09c84b01","system_id":"levelo_inurba_marseille","lat":43.3255,"lon":5.41438,"is_reserved":false,"is_disabled":false,"rental_uris":{"android":"levelo://app?vid=cc2b3d18-a038-4bc3-86be-7bfa09c84b01","ios":"levelo://app?vid=cc2b3d18-a038-4bc3-86be-7bfa09c84b01"},"vehicle_type_id":"4","last_reported":1732997377,"current_range_meters":38800,"station_id":"ce4bhq12rcd13ifvqhhg","pricing_plan_id":"cebpf4jnsgd1na2vs0mg"},{"bike_id":"7fda7038-d61c-405a-a660-6de6859d9497","system_id":"levelo_inurba_marseille","lat":43.32658,"lon":5.40988,"is_reserved":false,"is_disabled":false,"rental_uris":{"android":"levelo://app?vid=7fda7038-d61c-405a-a660-6de6859d9497","ios":"levelo://app?vid=7fda7038-d61c-405a-a660-6de6859d9497"},"vehicle_type_id":"4","last_reported":1732997377,"current_range_meters":38000,"station_id":"ce4bhpp2rcd13ifvqhgg","pricing_plan_id":"cebpf4jnsgd1na2vs0mg"},{"bike_id":"c767aca6-3146-4c5c-a815-7bf184bdc9eb","system_id":"levelo_inurba_marseille","lat":43.30128,"lon":5.39874,"is_reserved":false,"is_disabled":true,"rental_uris":{"android":"levelo://app?vid=c767aca6-3146-4c5c-a815-7bf184bdc9eb","ios":"levelo://app?vid=c767aca6-3146-4c5c-a815-7bf184bdc9eb"},"vehicle_type_id":"4","last_reported":1732997377,"current_range_meters":36400,"station_id":"ce4bh0h2rcd13ifvqd40","pricing_plan_id":"cebpf4jnsgd1na2vs0mg"},{"bike_id":"97b35c0e-7e77-4f0a-83fa-58fbc99a2959","system_id":"levelo_inurba_marseille","lat":43.337444,"lon":5.374475,"is_reserved":false,"is_disabled":false,"rental_uris":{"android":"levelo://app?vid=97b35c0e-7e77-4f0a-83fa-58fbc99a2959","ios":"levelo://app?vid=97b35c0e-7e77-4f0a-83fa-58fbc99a2959"},"vehicle_type_id":"4","last_reported":1732997377,"current_range_meters":34000,"station_id":"","pricing_plan_id":"cebpf4jnsgd1na2vs0mg"},{"bike_id":"90e6624d-f15b-40a9-aa21-66d0047fb8c0","system_id":"levelo_inurba_marseille","lat":43.33738,"lon":5.37462,"is_reserved":false,"is_disabled":false,"rental_uris":{"android":"levelo://app?vid=90e6624d-f15b-40a9-aa21-66d0047fb8c0","ios":"levelo://app?vid=90e6624d-f15b-40a9-aa21-66d0047fb8c0"},"vehicle_type_id":"4","last_reported":1732997377,"current_range_meters":8400,"station_id":"","pricing_plan_id":"cebpf4jnsgd1na2vs0mg"},{"bike_id":"72c0fb51-f055-497e-a47e-0a5e516e854f","system_id":"levelo_inurba_marseille","lat":43.30784,"lon":5.37647,"is_reserved":false,"is_disabled":false,"rental_uris":{"android":"levelo://app?vid=72c0fb51-f055-497e-a47e-0a5e516e854f","ios":"levelo://app?vid=72c0fb51-f055-497e-a47e-0a5e516e854f"},"vehicle_type_id":"4","last_reported":1732997377,"current_range_meters":28400,"station_id":"ce4bgv92rcd13ifvqcq0","pricing_plan_id":"cebpf4jnsgd1na2vs0mg"},{"bike_id":"314d1365-c0f9-4b36-8299-e279909a774d","system_id":"levelo_inurba_marseille","lat":43.31214,"lon":5.36859,"is_reserved":false,"is_disabled":true,"rental_uris":{"android":"levelo://app?vid=314d1365-c0f9-4b36-8299-e279909a774d","ios":"levelo://app?vid=314d1365-c0f9-4b36-8299-e279909a774d"},"vehicle_type_id":"4","last_reported":1732997377,"current_range_meters":1200,"station_id":"ce4bgl92rcd13ifvqbq0","pricing_plan_id":"cebpf4jnsgd1na2vs0mg"},{"bike_id":"e84a94b6-ec01-4cd3-81b8-7994bec59b2d","system_id":"levelo_inurba_marseille","lat":43.29002,"lon":5.35606,"is_reserved":false,"is_disabled":false,"rental_uris":{"android":"levelo://app?vid=e84a94b6-ec01-4cd3-81b8-7994bec59b2d","ios":"levelo://app?vid=e84a94b6-ec01-4cd3-81b8-7994bec59b2d"},"vehicle_type_id":"4","last_reported":1732997377,"current_range_meters":20400,"station_id":"ce4bhb92rcd13ifvqen0","pricing_plan_id":"cebpf4jnsgd1na2vs0mg"},{"bike_id":"c460178b-6df6-4478-98a9-6104412c9c24","system_id":"levelo_inurba_marseille","lat":43.28517,"lon":5.40442,"is_reserved":false,"is_disabled":false,"rental_uris":{"android":"levelo://app?vid=c460178b-6df6-4478-98a9-6104412c9c24","ios":"levelo://app?vid=c460178b-6df6-4478-98a9-6104412c9c24"},"vehicle_type_id":"4","last_reported":1732997377,"current_range_meters":6800,"station_id":"","pricing_plan_id":"cebpf4jnsgd1na2vs0mg"},{"bike_id":"92879836-b925-4a9b-98cc-84c99cb7a07e","system_id":"levelo_inurba_marseille","lat":43.29573,"lon":5.37522,"is_reserved":false,"is_disabled":false,"rental_uris":{"android":"levelo://app?vid=92879836-b925-4a9b-98cc-84c99cb7a07e","ios":"levelo://app?vid=92879836-b925-4a9b-98cc-84c99cb7a07e"},"vehicle_type_id":"4","last_reported":1732997377,"current_range_meters":30000,"station_id":"ce4bgh92rcd13ifvqb50","pricing_plan_id":"cebpf4jnsgd1na2vs0mg"},{"bike_id":"256ed7b4-aff1-4687-9338-98ca1590cf7b","system_id":"levelo_inurba_marseille","lat":43.33745,"lon":5.37465,"is_reserved":false,"is_disabled":false,"rental_uris":{"android":"levelo://app?vid=256ed7b4-aff1-4687-9338-98ca1590cf7b","ios":"levelo://app?vid=256ed7b4-aff1-4687-9338-98ca1590cf7b"},"vehicle_type_id":"4","last_reported":1732997377,"current_range_meters":22000,"station_id":"","pricing_plan_id":"cebpf4jnsgd1na2vs0mg"},{"bike_id":"e17db25a-841b-40cd-be11-66da52aef662","system_id":"levelo_inurba_marseille","lat":43.24806,"lon":5.37455,"is_reserved":false,"is_disabled":false,"rental_uris":{"android":"levelo://app?vid=e17db25a-841b-40cd-be11-66da52aef662","ios":"levelo://app?vid=e17db25a-841b-40cd-be11-66da52aef662"},"vehicle_type_id":"4","last_reported":1732997377,"current_range_meters":38800,"station_id":"ce4bhgh2rcd13ifvqfb0","pricing_plan_id":"cebpf4jnsgd1na2vs0mg"},{"bike_id":"064861a6-5a15-4e22-bc40-26ea165590ab","system_id":"levelo_inurba_marseille","lat":43.29203,"lon":5.39316,"is_reserved":false,"is_disabled":true,"rental_uris":{"android":"levelo://app?vid=064861a6-5a15-4e22-bc40-26ea165590ab","ios":"levelo://app?vid=064861a6-5a15-4e22-bc40-26ea165590ab"},"vehicle_type_id":"4","last_reported":1732997377,"current_range_meters":27200,"station_id":"ce4bh192rcd13ifvqdd0","pricing_plan_id":"cebpf4jnsgd1na2vs0mg"},{"bike_id":"46452842-0c51-442a-8e4b-06549ec6f0d5","system_id":"levelo_inurba_marseille","lat":43.26561,"lon":5.37283,"is_reserved":false,"is_disabled":false,"rental_uris":{"android":"levelo://app?vid=46452842-0c51-442a-8e4b-06549ec6f0d5","ios":"levelo://app?vid=46452842-0c51-442a-8e4b-06549ec6f0d5"},"vehicle_type_id":"4","last_reported":1732997377,"current_range_meters":30400,"station_id":"ce4bhg12rcd13ifvqf70","pricing_plan_id":"cebpf4jnsgd1na2vs0mg"},{"bike_id":"b5d3404f-7621-45c5-abd4-7ec54a936a43","system_id":"levelo_inurba_marseille","lat":43.29169,"lon":5.37153,"is_reserved":false,"is_disabled":false,"rental_uris":{"android":"levelo://app?vid=b5d3404f-7621-45c5-abd4-7ec54a936a43","ios":"levelo://app?vid=b5d3404f-7621-45c5-abd4-7ec54a936a43"},"vehicle_type_id":"4","last_reported":1732997377,"current_range_meters":40000,"station_id":"ce4bha92rcd13ifvqeh0","pricing_plan_id":"cebpf4jnsgd1na2vs0mg"},{"bike_id":"e8fa7be1-2407-41a7-b843-e7c70f1917ef","system_id":"levelo_inurba_marseille","lat":43.27611,"lon":5.36109,"is_reserved":false,"is_disabled":true,"rental_uris":{"android":"levelo://app?vid=e8fa7be1-2407-41a7-b843-e7c70f1917ef","ios":"levelo://app?vid=e8fa7be1-2407-41a7-b843-e7c70f1917ef"},"vehicle_type_id":"4","last_reported":1732997377,"current_range_meters":0,"station_id":"ce4bgj92rcd13ifvqbe0","pricing_plan_id":"cebpf4jnsgd1na2vs0mg"},{"bike_id":"e7747886-c53c-4cbf-9bb1-8e8e07baed16","system_id":"levelo_inurba_marseille","lat":43.30209,"lon":5.39463,"is_reserved":false,"is_disabled":false,"rental_uris":{"android":"levelo://app?vid=e7747886-c53c-4cbf-9bb1-8e8e07baed16","ios":"levelo://app?vid=e7747886-c53c-4cbf-9bb1-8e8e07baed16"},"vehicle_type_id":"4","last_reported":1732997377,"current_range_meters":24400,"station_id":"ce4bh0p2rcd13ifvqd70","pricing_plan_id":"cebpf4jnsgd1na2vs0mg"},{"bike_id":"c5fc2cda-1a81-4e72-950f-b2ae923acedd","system_id":"levelo_inurba_marseille","lat":43.27557,"lon":5.38432,"is_reserved":false,"is_disabled":false,"rental_uris":{"android":"levelo://app?vid=c5fc2cda-1a81-4e72-950f-b2ae923acedd","ios":"levelo://app?vid=c5fc2cda-1a81-4e72-950f-b2ae923acedd"},"vehicle_type_id":"4","last_reported":1732997377,"current_range_meters":20400,"station_id":"ce4bhh92rcd13ifvqfi0","pricing_plan_id":"cebpf4jnsgd1na2vs0mg"},{"bike_id":"a4404dac-00c5-4861-a1ae-6d042a4030f1","system_id":"levelo_inurba_marseille","lat":43.33735,"lon":5.37467,"is_reserved":false,"is_disabled":false,"rental_uris":{"android":"levelo://app?vid=a4404dac-00c5-4861-a1ae-6d042a4030f1","ios":"levelo://app?vid=a4404dac-00c5-4861-a1ae-6d042a4030f1"},"vehicle_type_id":"4","last_reported":1732997377,"current_range_meters":6800,"station_id":"","pricing_plan_id":"cebpf4jnsgd1na2vs0mg"},{"bike_id":"f26ea1e5-518f-4702-b976-ccc14f5d1059","system_id":"levelo_inurba_marseille","lat":43.29247,"lon":5.38449,"is_reserved":false,"is_disabled":false,"rental_uris":{"android":"levelo://app?vid=f26ea1e5-518f-4702-b976-ccc14f5d1059","ios":"levelo://app?vid=f26ea1e5-518f-4702-b976-ccc14f5d1059"},"vehicle_type_id":"4","last_reported":1732997377,"current_range_meters":28000,"station_id":"ce4bh692rcd13ifvqea0","pricing_plan_id":"cebpf4jnsgd1na2vs0mg"},{"bike_id":"eeba65c3-0177-431e-b55f-7bd6ceb05b0d","system_id":"levelo_inurba_marseille","lat":43.30208,"lon":5.39478,"is_reserved":false,"is_disabled":true,"rental_uris":{"android":"levelo://app?vid=eeba65c3-0177-431e-b55f-7bd6ceb05b0d","ios":"levelo://app?vid=eeba65c3-0177-431e-b55f-7bd6ceb05b0d"},"vehicle_type_id":"4","last_reported":1732997377,"current_range_meters":1600,"station_id":"ce4bh0p2rcd13ifvqd70","pricing_plan_id":"cebpf4jnsgd1na2vs0mg"},{"bike_id":"ae110baa-6fa5-463d-9c19-2aa3237d6213","system_id":"levelo_inurba_marseille","lat":43.23197,"lon":5.3556,"is_reserved":false,"is_disabled":false,"rental_uris":{"android":"levelo://app?vid=ae110baa-6fa5-463d-9c19-2aa3237d6213","ios":"levelo://app?vid=ae110baa-6fa5-463d-9c19-2aa3237d6213"},"vehicle_type_id":"4","last_reported":1732997377,"current_range_meters":24400,"station_id":"ce4bhu92rcd13ifvqi70","pricing_plan_id":"cebpf4jnsgd1na2vs0mg"},{"bike_id":"9700beae-0fbf-4e58-beda-d02b6fed27fe","system_id":"levelo_inurba_marseille","lat":43.337444,"lon":5.374475,"is_reserved":false,"is_disabled":false,"rental_uris":{"android":"levelo://app?vid=9700beae-0fbf-4e58-beda-d02b6fed27fe","ios":"levelo://app?vid=9700beae-0fbf-4e58-beda-d02b6fed27fe"},"vehicle_type_id":"4","last_reported":1732997377,"current_range_meters":36800,"station_id":"","pricing_plan_id":"cebpf4jnsgd1na2vs0mg"},{"bike_id":"a3239f7a-5811-45ee-a06a-24fca205e6da","system_id":"levelo_inurba_marseille","lat":43.27437,"lon":5.394,"is_reserved":false,"is_disabled":false,"rental_uris":{"android":"levelo://app?vid=a3239f7a-5811-45ee-a06a-24fca205e6da","ios":"levelo://app?vid=a3239f7a-5811-45ee-a06a-24fca205e6da"},"vehicle_type_id":"4","last_reported":1732997377,"current_range_meters":19200,"station_id":"ce4bhdp2rcd13ifvqf20","pricing_plan_id":"cebpf4jnsgd1na2vs0mg"},{"bike_id":"af12a5f9-720e-4019-987d-3779fe2b91a2","system_id":"levelo_inurba_marseille","lat":43.30821,"lon":5.3741,"is_reserved":false,"is_disabled":false,"rental_uris":{"android":"levelo://app?vid=af12a5f9-720e-4019-987d-3779fe2b91a2","ios":"levelo://app?vid=af12a5f9-720e-4019-987d-3779fe2b91a2"},"vehicle_type_id":"4","last_reported":1732997377,"current_range_meters":4800,"station_id":"","pricing_plan_id":"cebpf4jnsgd1na2vs0mg"},{"bike_id":"4bd76d49-9a7e-4446-b865-7892a0ed3a5e","system_id":"levelo_inurba_marseille","lat":43.29529,"lon":5.38542,"is_reserved":false,"is_disabled":false,"rental_uris":{"android":"levelo://app?vid=4bd76d49-9a7e-4446-b865-7892a0ed3a5e","ios":"levelo://app?vid=4bd76d49-9a7e-4446-b865-7892a0ed3a5e"},"vehicle_type_id":"4","last_reported":1732997377,"current_range_meters":30400,"station_id":"ce4bgih2rcd13ifvqba0","pricing_plan_id":"cebpf4jnsgd1na2vs0mg"},{"bike_id":"c652ec98-1ae3-4c97-b469-304376df0642","system_id":"levelo_inurba_marseille","lat":43.28676,"lon":5.38673,"is_reserved":false,"is_disabled":false,"rental_uris":{"android":"levelo://app?vid=c652ec98-1ae3-4c97-b469-304376df0642","ios":"levelo://app?vid=c652ec98-1ae3-4c97-b469-304376df0642"},"vehicle_type_id":"4","last_reported":1732997377,"current_range_meters":30400,"station_id":"ce4bh492rcd13ifvqdug","pricing_plan_id":"cebpf4jnsgd1na2vs0mg"},{"bike_id":"fb83408f-3dff-4038-95c5-15a16584c94a","system_id":"levelo_inurba_marseille","lat":43.32286,"lon":5.38257,"is_reserved":false,"is_disabled":false,"rental_uris":{"android":"levelo://app?vid=fb83408f-3dff-4038-95c5-15a16584c94a","ios":"levelo://app?vid=fb83408f-3dff-4038-95c5-15a16584c94a"},"vehicle_type_id":"4","last_reported":1732997377,"current_range_meters":17200,"station_id":"ce4bhr12rcd13ifvqhqg","pricing_plan_id":"cebpf4jnsgd1na2vs0mg"},{"bike_id":"fc37f78d-1bdc-4ba8-a83c-2a665bc41d23","system_id":"levelo_inurba_marseille","lat":43.27425,"lon":5.39417,"is_reserved":false,"is_disabled":false,"rental_uris":{"android":"levelo://app?vid=fc37f78d-1bdc-4ba8-a83c-2a665bc41d23","ios":"levelo://app?vid=fc37f78d-1bdc-4ba8-a83c-2a665bc41d23"},"vehicle_type_id":"4","last_reported":1732997377,"current_range_meters":38800,"station_id":"ce4bhdp2rcd13ifvqf20","pricing_plan_id":"cebpf4jnsgd1na2vs0mg"},{"bike_id":"a81f0370-9437-4c42-a8c8-3783fbcc99f5","system_id":"levelo_inurba_marseille","lat":43.26058,"lon":5.39396,"is_reserved":false,"is_disabled":false,"rental_uris":{"android":"levelo://app?vid=a81f0370-9437-4c42-a8c8-3783fbcc99f5","ios":"levelo://app?vid=a81f0370-9437-4c42-a8c8-3783fbcc99f5"},"vehicle_type_id":"4","last_reported":1732997377,"current_range_meters":27600,"station_id":"ce4bhh92rcd13ifvqfj0","pricing_plan_id":"cebpf4jnsgd1na2vs0mg"},{"bike_id":"a6782153-94e2-4979-8471-c42bcbb607c2","system_id":"levelo_inurba_marseille","lat":43.29306,"lon":5.37469,"is_reserved":false,"is_disabled":false,"rental_uris":{"android":"levelo://app?vid=a6782153-94e2-4979-8471-c42bcbb607c2","ios":"levelo://app?vid=a6782153-94e2-4979-8471-c42bcbb607c2"},"vehicle_type_id":"4","last_reported":1732997377,"current_range_meters":33600,"station_id":"ce4bgi12rcd13ifvqb70","pricing_plan_id":"cebpf4jnsgd1na2vs0mg"},{"bike_id":"4a2be555-d056-454c-bed3-fe781ba86f8e","system_id":"levelo_inurba_marseille","lat":43.25886,"lon":5.39954,"is_reserved":false,"is_disabled":true,"rental_uris":{"android":"levelo://app?vid=4a2be555-d056-454c-bed3-fe781ba86f8e","ios":"levelo://app?vid=4a2be555-d056-454c-bed3-fe781ba86f8e"},"vehicle_type_id":"4","last_reported":1732997377,"current_range_meters":0,"station_id":"","pricing_plan_id":"cebpf4jnsgd1na2vs0mg"},{"bike_id":"0762035b-11a6-43b1-906c-953817361917","system_id":"levelo_inurba_marseille","lat":43.324834,"lon":5.365594,"is_reserved":false,"is_disabled":false,"rental_uris":{"android":"levelo://app?vid=0762035b-11a6-43b1-906c-953817361917","ios":"levelo://app?vid=0762035b-11a6-43b1-906c-953817361917"},"vehicle_type_id":"4","last_reported":1732997377,"current_range_meters":39200,"station_id":"ce4bhs12rcd13ifvqhvg","pricing_plan_id":"cebpf4jnsgd1na2vs0mg"},{"bike_id":"528ad689-7efc-4938-ad2c-67cafb3ee308","system_id":"levelo_inurba_marseille","lat":43.28015,"lon":5.36951,"is_reserved":false,"is_disabled":false,"rental_uris":{"android":"levelo://app?vid=528ad689-7efc-4938-ad2c-67cafb3ee308","ios":"levelo://app?vid=528ad689-7efc-4938-ad2c-67cafb3ee308"},"vehicle_type_id":"4","last_reported":1732997377,"current_range_meters":38000,"station_id":"ce4bha12rcd13ifvqef0","pricing_plan_id":"cebpf4jnsgd1na2vs0mg"},{"bike_id":"200c0fd4-50a0-4b7c-82c1-3726e857e8d9","system_id":"levelo_inurba_marseille","lat":43.26954,"lon":5.38636,"is_reserved":false,"is_disabled":false,"rental_uris":{"android":"levelo://app?vid=200c0fd4-50a0-4b7c-82c1-3726e857e8d9","ios":"levelo://app?vid=200c0fd4-50a0-4b7c-82c1-3726e857e8d9"},"vehicle_type_id":"4","last_reported":1732997377,"current_range_meters":24000,"station_id":"ce4bhh92rcd13ifvqfh0","pricing_plan_id":"cebpf4jnsgd1na2vs0mg"},{"bike_id":"41329919-d8a6-4529-9c36-e6723e50ee60","system_id":"levelo_inurba_marseille","lat":43.30311,"lon":5.39217,"is_reserved":false,"is_disabled":true,"rental_uris":{"android":"levelo://app?vid=41329919-d8a6-4529-9c36-e6723e50ee60","ios":"levelo://app?vid=41329919-d8a6-4529-9c36-e6723e50ee60"},"vehicle_type_id":"4","last_reported":1732997377,"current_range_meters":34000,"station_id":"ce4bgkh2rcd13ifvqbk0","pricing_plan_id":"cebpf4jnsgd1na2vs0mg"},{"bike_id":"8f025b02-2d18-4ec5-9e94-2294f63c13b9","system_id":"levelo_inurba_marseille","lat":43.27196,"lon":5.39187,"is_reserved":false,"is_disabled":false,"rental_uris":{"android":"levelo://app?vid=8f025b02-2d18-4ec5-9e94-2294f63c13b9","ios":"levelo://app?vid=8f025b02-2d18-4ec5-9e94-2294f63c13b9"},"vehicle_type_id":"4","last_reported":1732997377,"current_range_meters":6800,"station_id":"ce4bhhp2rcd13ifvqfm0","pricing_plan_id":"cebpf4jnsgd1na2vs0mg"},{"bike_id":"d8c01208-bed9-46e9-bd62-67737a6788cf","system_id":"levelo_inurba_marseille","lat":43.3211,"lon":5.36771,"is_reserved":false,"is_disabled":false,"rental_uris":{"android":"levelo://app?vid=d8c01208-bed9-46e9-bd62-67737a6788cf","ios":"levelo://app?vid=d8c01208-bed9-46e9-bd62-67737a6788cf"},"vehicle_type_id":"4","last_reported":1732997377,"current_range_meters":8400,"station_id":"ce4bhrh2rcd13ifvqhug","pricing_plan_id":"cebpf4jnsgd1na2vs0mg"},{"bike_id":"a7e9f52c-57b2-4f0b-9bb4-80093d9cc253","system_id":"levelo_inurba_marseille","lat":43.26488,"lon":5.39547,"is_reserved":false,"is_disabled":false,"rental_uris":{"android":"levelo://app?vid=a7e9f52c-57b2-4f0b-9bb4-80093d9cc253","ios":"levelo://app?vid=a7e9f52c-57b2-4f0b-9bb4-80093d9cc253"},"vehicle_type_id":"4","last_reported":1732997377,"current_range_meters":24000,"station_id":"ce4bhi12rcd13ifvqfq0","pricing_plan_id":"cebpf4jnsgd1na2vs0mg"},{"bike_id":"000b518d-442b-4752-8b9a-e2fc3654d286","system_id":"levelo_inurba_marseille","lat":43.29445,"lon":5.39765,"is_reserved":false,"is_disabled":true,"rental_uris":{"android":"levelo://app?vid=000b518d-442b-4752-8b9a-e2fc3654d286","ios":"levelo://app?vid=000b518d-442b-4752-8b9a-e2fc3654d286"},"vehicle_type_id":"4","last_reported":1732997377,"current_range_meters":20800,"station_id":"ce4bh3h2rcd13ifvqdo0","pricing_plan_id":"cebpf4jnsgd1na2vs0mg"},{"bike_id":"60fce107-d1e8-4c35-b800-132747357ae8","system_id":"levelo_inurba_marseille","lat":43.29539,"lon":5.38552,"is_reserved":false,"is_disabled":false,"rental_uris":{"android":"levelo://app?vid=60fce107-d1e8-4c35-b800-132747357ae8","ios":"levelo://app?vid=60fce107-d1e8-4c35-b800-132747357ae8"},"vehicle_type_id":"4","last_reported":1732997377,"current_range_meters":20400,"station_id":"ce4bgih2rcd13ifvqba0","pricing_plan_id":"cebpf4jnsgd1na2vs0mg"},{"bike_id":"0f87cd88-4544-4bea-8a03-96998f957fbe","system_id":"levelo_inurba_marseille","lat":43.30423,"lon":5.38882,"is_reserved":false,"is_disabled":false,"rental_uris":{"android":"levelo://app?vid=0f87cd88-4544-4bea-8a03-96998f957fbe","ios":"levelo://app?vid=0f87cd88-4544-4bea-8a03-96998f957fbe"},"vehicle_type_id":"4","last_reported":1732997377,"current_range_meters":8400,"station_id":"ce4bgk12rcd13ifvqbi0","pricing_plan_id":"cebpf4jnsgd1na2vs0mg"},{"bike_id":"a5c041d9-48dc-43b1-a56d-28c4253f4014","system_id":"levelo_inurba_marseille","lat":43.30332,"lon":5.40427,"is_reserved":false,"is_disabled":false,"rental_uris":{"android":"levelo://app?vid=a5c041d9-48dc-43b1-a56d-28c4253f4014","ios":"levelo://app?vid=a5c041d9-48dc-43b1-a56d-28c4253f4014"},"vehicle_type_id":"4","last_reported":1732997377,"current_range_meters":20800,"station_id":"ce4bh012rcd13ifvqd10","pricing_plan_id":"cebpf4jnsgd1na2vs0mg"},{"bike_id":"1970df36-42f5-46c7-be26-9b4a6027e7d4","system_id":"levelo_inurba_marseille","lat":43.29527,"lon":5.38535,"is_reserved":false,"is_disabled":false,"rental_uris":{"android":"levelo://app?vid=1970df36-42f5-46c7-be26-9b4a6027e7d4","ios":"levelo://app?vid=1970df36-42f5-46c7-be26-9b4a6027e7d4"},"vehicle_type_id":"4","last_reported":1732997377,"current_range_meters":38000,"station_id":"ce4bgih2rcd13ifvqba0","pricing_plan_id":"cebpf4jnsgd1na2vs0mg"},{"bike_id":"489fc078-53ba-46cd-9b33-a7c9c289306b","system_id":"levelo_inurba_marseille","lat":43.2695,"lon":5.4024,"is_reserved":false,"is_disabled":true,"rental_uris":{"android":"levelo://app?vid=489fc078-53ba-46cd-9b33-a7c9c289306b","ios":"levelo://app?vid=489fc078-53ba-46cd-9b33-a7c9c289306b"},"vehicle_type_id":"4","last_reported":1732997377,"current_range_meters":0,"station_id":"cjm6bp8fraef2m0cb0m0","pricing_plan_id":"cebpf4jnsgd1na2vs0mg"},{"bike_id":"0e000be0-ee23-4ad8-b001-a8ea24a5e117","system_id":"levelo_inurba_marseille","lat":43.32364,"lon":5.38874,"is_reserved":false,"is_disabled":false,"rental_uris":{"android":"levelo://app?vid=0e000be0-ee23-4ad8-b001-a8ea24a5e117","ios":"levelo://app?vid=0e000be0-ee23-4ad8-b001-a8ea24a5e117"},"vehicle_type_id":"4","last_reported":1732997377,"current_range_meters":28800,"station_id":"ce4bhqp2rcd13ifvqhog","pricing_plan_id":"cebpf4jnsgd1na2vs0mg"},{"bike_id":"4691b678-f604-46b2-bff5-4e3b3a69a693","system_id":"levelo_inurba_marseille","lat":43.29266,"lon":5.38444,"is_reserved":false,"is_disabled":false,"rental_uris":{"android":"levelo://app?vid=4691b678-f604-46b2-bff5-4e3b3a69a693","ios":"levelo://app?vid=4691b678-f604-46b2-bff5-4e3b3a69a693"},"vehicle_type_id":"4","last_reported":1732997377,"current_range_meters":38800,"station_id":"ce4bh692rcd13ifvqea0","pricing_plan_id":"cebpf4jnsgd1na2vs0mg"},{"bike_id":"7b3a5874-5964-4856-81ab-b5b849a10e46","system_id":"levelo_inurba_marseille","lat":43.29301,"lon":5.37458,"is_reserved":false,"is_disabled":false,"rental_uris":{"android":"levelo://app?vid=7b3a5874-5964-4856-81ab-b5b849a10e46","ios":"levelo://app?vid=7b3a5874-5964-4856-81ab-b5b849a10e46"},"vehicle_type_id":"4","last_reported":1732997377,"current_range_meters":36000,"station_id":"ce4bgi12rcd13ifvqb70","pricing_plan_id":"cebpf4jnsgd1na2vs0mg"},{"bike_id":"b535dfd0-ec01-4a13-996f-71245b6113cc","system_id":"levelo_inurba_marseille","lat":43.27978,"lon":5.41229,"is_reserved":false,"is_disabled":true,"rental_uris":{"android":"levelo://app?vid=b535dfd0-ec01-4a13-996f-71245b6113cc","ios":"levelo://app?vid=b535dfd0-ec01-4a13-996f-71245b6113cc"},"vehicle_type_id":"4","last_reported":1732997377,"current_range_meters":800,"station_id":"","pricing_plan_id":"cebpf4jnsgd1na2vs0mg"},{"bike_id":"f343e1c0-7ac7-47e7-a6b2-bc168efbc13b","system_id":"levelo_inurba_marseille","lat":43.30883,"lon":5.39653,"is_reserved":false,"is_disabled":false,"rental_uris":{"android":"levelo://app?vid=f343e1c0-7ac7-47e7-a6b2-bc168efbc13b","ios":"levelo://app?vid=f343e1c0-7ac7-47e7-a6b2-bc168efbc13b"},"vehicle_type_id":"4","last_reported":1732997377,"current_range_meters":18000,"station_id":"ce4bh012rcd13ifvqcv0","pricing_plan_id":"cebpf4jnsgd1na2vs0mg"},{"bike_id":"63fc94a8-2956-4d4f-a954-b80045e7d364","system_id":"levelo_inurba_marseille","lat":43.28928,"lon":5.38398,"is_reserved":false,"is_disabled":false,"rental_uris":{"android":"levelo://app?vid=63fc94a8-2956-4d4f-a954-b80045e7d364","ios":"levelo://app?vid=63fc94a8-2956-4d4f-a954-b80045e7d364"},"vehicle_type_id":"4","last_reported":1732997377,"current_range_meters":8000,"station_id":"ce4bh612rcd13ifvqe6g","pricing_plan_id":"cebpf4jnsgd1na2vs0mg"},{"bike_id":"a9536cf9-1546-4fa9-b064-a4f2cd515fd5","system_id":"levelo_inurba_marseille","lat":43.27565,"lon":5.38403,"is_reserved":false,"is_disabled":false,"rental_uris":{"android":"levelo://app?vid=a9536cf9-1546-4fa9-b064-a4f2cd515fd5","ios":"levelo://app?vid=a9536cf9-1546-4fa9-b064-a4f2cd515fd5"},"vehicle_type_id":"4","last_reported":1732997377,"current_range_meters":7200,"station_id":"ce4bhh92rcd13ifvqfi0","pricing_plan_id":"cebpf4jnsgd1na2vs0mg"},{"bike_id":"b642d79a-bd2c-495a-acdd-099583f67bf5","system_id":"levelo_inurba_marseille","lat":43.32289,"lon":5.38265,"is_reserved":false,"is_disabled":false,"rental_uris":{"android":"levelo://app?vid=b642d79a-bd2c-495a-acdd-099583f67bf5","ios":"levelo://app?vid=b642d79a-bd2c-495a-acdd-099583f67bf5"},"vehicle_type_id":"4","last_reported":1732997377,"current_range_meters":30000,"station_id":"ce4bhr12rcd13ifvqhqg","pricing_plan_id":"cebpf4jnsgd1na2vs0mg"},{"bike_id":"a52167db-f125-4082-b65e-e45e7d869308","system_id":"levelo_inurba_marseille","lat":43.27558,"lon":5.38419,"is_reserved":false,"is_disabled":false,"rental_uris":{"android":"levelo://app?vid=a52167db-f125-4082-b65e-e45e7d869308","ios":"levelo://app?vid=a52167db-f125-4082-b65e-e45e7d869308"},"vehicle_type_id":"4","last_reported":1732997377,"current_range_meters":24400,"station_id":"ce4bhh92rcd13ifvqfi0","pricing_plan_id":"cebpf4jnsgd1na2vs0mg"},{"bike_id":"18952e85-1208-403b-b913-12507e1daa79","system_id":"levelo_inurba_marseille","lat":43.27208,"lon":5.39182,"is_reserved":false,"is_disabled":false,"rental_uris":{"android":"levelo://app?vid=18952e85-1208-403b-b913-12507e1daa79","ios":"levelo://app?vid=18952e85-1208-403b-b913-12507e1daa79"},"vehicle_type_id":"4","last_reported":1732997377,"current_range_meters":39200,"station_id":"ce4bhhp2rcd13ifvqfm0","pricing_plan_id":"cebpf4jnsgd1na2vs0mg"},{"bike_id":"5b9d6f48-f6d1-42ec-91ce-2705b20346f7","system_id":"levelo_inurba_marseille","lat":43.27611,"lon":5.36123,"is_reserved":false,"is_disabled":true,"rental_uris":{"android":"levelo://app?vid=5b9d6f48-f6d1-42ec-91ce-2705b20346f7","ios":"levelo://app?vid=5b9d6f48-f6d1-42ec-91ce-2705b20346f7"},"vehicle_type_id":"4","last_reported":1732997377,"current_range_meters":400,"station_id":"ce4bgj92rcd13ifvqbe0","pricing_plan_id":"cebpf4jnsgd1na2vs0mg"},{"bike_id":"0174841e-8011-4a7b-bd18-480101bee765","system_id":"levelo_inurba_marseille","lat":43.239614,"lon":5.366311,"is_reserved":false,"is_disabled":true,"rental_uris":{"android":"levelo://app?vid=0174841e-8011-4a7b-bd18-480101bee765","ios":"levelo://app?vid=0174841e-8011-4a7b-bd18-480101bee765"},"vehicle_type_id":"4","last_reported":1732997377,"current_range_meters":0,"station_id":"ce4bhi12rcd13ifvqfp0","pricing_plan_id":"cebpf4jnsgd1na2vs0mg"},{"bike_id":"fdf4b4b1-50cb-4460-a037-c0bc014af866","system_id":"levelo_inurba_marseille","lat":43.266175,"lon":5.382861,"is_reserved":false,"is_disabled":false,"rental_uris":{"android":"levelo://app?vid=fdf4b4b1-50cb-4460-a037-c0bc014af866","ios":"levelo://app?vid=fdf4b4b1-50cb-4460-a037-c0bc014af866"},"vehicle_type_id":"4","last_reported":1732997377,"current_range_meters":8400,"station_id":"ce4bhg92rcd13ifvqf90","pricing_plan_id":"cebpf4jnsgd1na2vs0mg"},{"bike_id":"34bd77ea-fe76-406f-8465-2d7a2d42ff0e","system_id":"levelo_inurba_marseille","lat":43.26807,"lon":5.40269,"is_reserved":false,"is_disabled":false,"rental_uris":{"android":"levelo://app?vid=34bd77ea-fe76-406f-8465-2d7a2d42ff0e","ios":"levelo://app?vid=34bd77ea-fe76-406f-8465-2d7a2d42ff0e"},"vehicle_type_id":"4","last_reported":1732997377,"current_range_meters":39200,"station_id":"ce501612rcd8frsf0b60","pricing_plan_id":"cebpf4jnsgd1na2vs0mg"},{"bike_id":"d411e918-2ea8-47ec-9252-75c609f87ac3","system_id":"levelo_inurba_marseille","lat":43.29868,"lon":5.39731,"is_reserved":false,"is_disabled":false,"rental_uris":{"android":"levelo://app?vid=d411e918-2ea8-47ec-9252-75c609f87ac3","ios":"levelo://app?vid=d411e918-2ea8-47ec-9252-75c609f87ac3"},"vehicle_type_id":"4","last_reported":1732997377,"current_range_meters":38000,"station_id":"ce4bh0h2rcd13ifvqd50","pricing_plan_id":"cebpf4jnsgd1na2vs0mg"},{"bike_id":"ddb39d7d-5fd0-4176-adec-13b7366995d3","system_id":"levelo_inurba_marseille","lat":43.24664,"lon":5.38162,"is_reserved":false,"is_disabled":false,"rental_uris":{"android":"levelo://app?vid=ddb39d7d-5fd0-4176-adec-13b7366995d3","ios":"levelo://app?vid=ddb39d7d-5fd0-4176-adec-13b7366995d3"},"vehicle_type_id":"4","last_reported":1732997377,"current_range_meters":34000,"station_id":"ce4bhih2rcd13ifvqfr0","pricing_plan_id":"cebpf4jnsgd1na2vs0mg"},{"bike_id":"a233b25b-869e-422b-bf5e-63d3d8ff686f","system_id":"levelo_inurba_marseille","lat":43.30924,"lon":5.40137,"is_reserved":false,"is_disabled":true,"rental_uris":{"android":"levelo://app?vid=a233b25b-869e-422b-bf5e-63d3d8ff686f","ios":"levelo://app?vid=a233b25b-869e-422b-bf5e-63d3d8ff686f"},"vehicle_type_id":"4","last_reported":1732997377,"current_range_meters":23200,"station_id":"ce4bgvp2rcd13ifvqct0","pricing_plan_id":"cebpf4jnsgd1na2vs0mg"},{"bike_id":"14603f7c-e634-431b-90ff-f1d3547e5a2e","system_id":"levelo_inurba_marseille","lat":43.29266,"lon":5.38451,"is_reserved":false,"is_disabled":false,"rental_uris":{"android":"levelo://app?vid=14603f7c-e634-431b-90ff-f1d3547e5a2e","ios":"levelo://app?vid=14603f7c-e634-431b-90ff-f1d3547e5a2e"},"vehicle_type_id":"4","last_reported":1732997377,"current_range_meters":38800,"station_id":"ce4bh692rcd13ifvqea0","pricing_plan_id":"cebpf4jnsgd1na2vs0mg"},{"bike_id":"beedd42b-11d1-4bd9-a3b7-2b7ebaf524b2","system_id":"levelo_inurba_marseille","lat":43.31712,"lon":5.37743,"is_reserved":false,"is_disabled":false,"rental_uris":{"android":"levelo://app?vid=beedd42b-11d1-4bd9-a3b7-2b7ebaf524b2","ios":"levelo://app?vid=beedd42b-11d1-4bd9-a3b7-2b7ebaf524b2"},"vehicle_type_id":"4","last_reported":1732997377,"current_range_meters":37600,"station_id":"ce4bgth2rcd13ifvqch0","pricing_plan_id":"cebpf4jnsgd1na2vs0mg"},{"bike_id":"7db095fe-335f-455d-9456-2582bbc72d93","system_id":"levelo_inurba_marseille","lat":43.29892,"lon":5.43662,"is_reserved":false,"is_disabled":false,"rental_uris":{"android":"levelo://app?vid=7db095fe-335f-455d-9456-2582bbc72d93","ios":"levelo://app?vid=7db095fe-335f-455d-9456-2582bbc72d93"},"vehicle_type_id":"4","last_reported":1732997377,"current_range_meters":21600,"station_id":"ce4bhpp2rcd13ifvqhfg","pricing_plan_id":"cebpf4jnsgd1na2vs0mg"},{"bike_id":"9177218d-5240-4aa3-8870-7dddb631e88a","system_id":"levelo_inurba_marseille","lat":43.29212,"lon":5.36045,"is_reserved":false,"is_disabled":false,"rental_uris":{"android":"levelo://app?vid=9177218d-5240-4aa3-8870-7dddb631e88a","ios":"levelo://app?vid=9177218d-5240-4aa3-8870-7dddb631e88a"},"vehicle_type_id":"4","last_reported":1732997377,"current_range_meters":38800,"station_id":"ce4bhbh2rcd13ifvqeqg","pricing_plan_id":"cebpf4jnsgd1na2vs0mg"},{"bike_id":"f7f0ed35-25dd-420d-8c75-fe4f3f632d46","system_id":"levelo_inurba_marseille","lat":43.25002,"lon":5.38928,"is_reserved":false,"is_disabled":false,"rental_uris":{"android":"levelo://app?vid=f7f0ed35-25dd-420d-8c75-fe4f3f632d46","ios":"levelo://app?vid=f7f0ed35-25dd-420d-8c75-fe4f3f632d46"},"vehicle_type_id":"4","last_reported":1732997377,"current_range_meters":24000,"station_id":"ce4bhgp2rcd13ifvqfd0","pricing_plan_id":"cebpf4jnsgd1na2vs0mg"},{"bike_id":"bf6d0bd3-84ba-458e-a49b-93952bf61900","system_id":"levelo_inurba_marseille","lat":43.31169,"lon":5.3871,"is_reserved":false,"is_disabled":false,"rental_uris":{"android":"levelo://app?vid=bf6d0bd3-84ba-458e-a49b-93952bf61900","ios":"levelo://app?vid=bf6d0bd3-84ba-458e-a49b-93952bf61900"},"vehicle_type_id":"4","last_reported":1732997377,"current_range_meters":8800,"station_id":"ce4bgv12rcd13ifvqcp0","pricing_plan_id":"cebpf4jnsgd1na2vs0mg"},{"bike_id":"4298aa24-56c0-48fa-91f9-efd7910b0134","system_id":"levelo_inurba_marseille","lat":43.28473,"lon":5.38413,"is_reserved":false,"is_disabled":false,"rental_uris":{"android":"levelo://app?vid=4298aa24-56c0-48fa-91f9-efd7910b0134","ios":"levelo://app?vid=4298aa24-56c0-48fa-91f9-efd7910b0134"},"vehicle_type_id":"4","last_reported":1732997377,"current_range_meters":28000,"station_id":"ce4bh512rcd13ifvqe3g","pricing_plan_id":"cebpf4jnsgd1na2vs0mg"},{"bike_id":"06c01458-fd2a-4692-b2b7-5d3fe22390fa","system_id":"levelo_inurba_marseille","lat":43.29973,"lon":5.38487,"is_reserved":false,"is_disabled":false,"rental_uris":{"android":"levelo://app?vid=06c01458-fd2a-4692-b2b7-5d3fe22390fa","ios":"levelo://app?vid=06c01458-fd2a-4692-b2b7-5d3fe22390fa"},"vehicle_type_id":"4","last_reported":1732997377,"current_range_meters":38800,"station_id":"ce4bgj92rcd13ifvqbd0","pricing_plan_id":"cebpf4jnsgd1na2vs0mg"},{"bike_id":"27d13c7a-6338-48dc-81dd-618b3e4ff60b","system_id":"levelo_inurba_marseille","lat":43.28348,"lon":5.38631,"is_reserved":false,"is_disabled":true,"rental_uris":{"android":"levelo://app?vid=27d13c7a-6338-48dc-81dd-618b3e4ff60b","ios":"levelo://app?vid=27d13c7a-6338-48dc-81dd-618b3e4ff60b"},"vehicle_type_id":"4","last_reported":1732997377,"current_range_meters":38000,"station_id":"ce4bh492rcd13ifvqdvg","pricing_plan_id":"cebpf4jnsgd1na2vs0mg"},{"bike_id":"381e77d5-bc1b-4311-9123-77d6b6950daa","system_id":"levelo_inurba_marseille","lat":43.26065,"lon":5.39376,"is_reserved":false,"is_disabled":false,"rental_uris":{"android":"levelo://app?vid=381e77d5-bc1b-4311-9123-77d6b6950daa","ios":"levelo://app?vid=381e77d5-bc1b-4311-9123-77d6b6950daa"},"vehicle_type_id":"4","last_reported":1732997377,"current_range_meters":9600,"station_id":"ce4bhh92rcd13ifvqfj0","pricing_plan_id":"cebpf4jnsgd1na2vs0mg"},{"bike_id":"13151158-c4ba-49c7-a920-9a61c5dd56f2","system_id":"levelo_inurba_marseille","lat":43.23967,"lon":5.36616,"is_reserved":false,"is_disabled":true,"rental_uris":{"android":"levelo://app?vid=13151158-c4ba-49c7-a920-9a61c5dd56f2","ios":"levelo://app?vid=13151158-c4ba-49c7-a920-9a61c5dd56f2"},"vehicle_type_id":"4","last_reported":1732997377,"current_range_meters":0,"station_id":"ce4bhi12rcd13ifvqfp0","pricing_plan_id":"cebpf4jnsgd1na2vs0mg"},{"bike_id":"e502fc10-dbeb-4500-b5bc-dc1e5782cfb9","system_id":"levelo_inurba_marseille","lat":43.30192,"lon":5.36623,"is_reserved":false,"is_disabled":false,"rental_uris":{"android":"levelo://app?vid=e502fc10-dbeb-4500-b5bc-dc1e5782cfb9","ios":"levelo://app?vid=e502fc10-dbeb-4500-b5bc-dc1e5782cfb9"},"vehicle_type_id":"4","last_reported":1732997377,"current_range_meters":23200,"station_id":"ce4bgrh2rcd13ifvqc8g","pricing_plan_id":"cebpf4jnsgd1na2vs0mg"},{"bike_id":"709fba4f-cca8-4e5a-ae0a-a636f0e935fd","system_id":"levelo_inurba_marseille","lat":43.26953,"lon":5.38638,"is_reserved":false,"is_disabled":false,"rental_uris":{"android":"levelo://app?vid=709fba4f-cca8-4e5a-ae0a-a636f0e935fd","ios":"levelo://app?vid=709fba4f-cca8-4e5a-ae0a-a636f0e935fd"},"vehicle_type_id":"4","last_reported":1732997377,"current_range_meters":38000,"station_id":"ce4bhh92rcd13ifvqfh0","pricing_plan_id":"cebpf4jnsgd1na2vs0mg"},{"bike_id":"acf4a756-d86a-4aba-99d9-8148b7db3378","system_id":"levelo_inurba_marseille","lat":43.27995,"lon":5.39995,"is_reserved":false,"is_disabled":true,"rental_uris":{"android":"levelo://app?vid=acf4a756-d86a-4aba-99d9-8148b7db3378","ios":"levelo://app?vid=acf4a756-d86a-4aba-99d9-8148b7db3378"},"vehicle_type_id":"4","last_reported":1732997377,"current_range_meters":0,"station_id":"ce4bho92rcd13ifvqh4g","pricing_plan_id":"cebpf4jnsgd1na2vs0mg"},{"bike_id":"4018fb8f-45f3-45d0-a054-90a03257f3a3","system_id":"levelo_inurba_marseille","lat":43.28453,"lon":5.39206,"is_reserved":false,"is_disabled":true,"rental_uris":{"android":"levelo://app?vid=4018fb8f-45f3-45d0-a054-90a03257f3a3","ios":"levelo://app?vid=4018fb8f-45f3-45d0-a054-90a03257f3a3"},"vehicle_type_id":"4","last_reported":1732997377,"current_range_meters":800,"station_id":"ce4bhoh2rcd13ifvqh5g","pricing_plan_id":"cebpf4jnsgd1na2vs0mg"},{"bike_id":"5d8ac796-00fe-4b0f-86ef-725cd53ba5c7","system_id":"levelo_inurba_marseille","lat":43.29419,"lon":5.38621,"is_reserved":false,"is_disabled":false,"rental_uris":{"android":"levelo://app?vid=5d8ac796-00fe-4b0f-86ef-725cd53ba5c7","ios":"levelo://app?vid=5d8ac796-00fe-4b0f-86ef-725cd53ba5c7"},"vehicle_type_id":"4","last_reported":1732997377,"current_range_meters":17200,"station_id":"ce4bh2h2rcd13ifvqdh0","pricing_plan_id":"cebpf4jnsgd1na2vs0mg"},{"bike_id":"3b6d3a08-0c6b-4fa7-8f46-b69c22f3b403","system_id":"levelo_inurba_marseille","lat":43.2997,"lon":5.38501,"is_reserved":false,"is_disabled":false,"rental_uris":{"android":"levelo://app?vid=3b6d3a08-0c6b-4fa7-8f46-b69c22f3b403","ios":"levelo://app?vid=3b6d3a08-0c6b-4fa7-8f46-b69c22f3b403"},"vehicle_type_id":"4","last_reported":1732997377,"current_range_meters":25200,"station_id":"ce4bgj92rcd13ifvqbd0","pricing_plan_id":"cebpf4jnsgd1na2vs0mg"},{"bike_id":"8a44f3ef-d742-4151-ad91-69ef5de2f428","system_id":"levelo_inurba_marseille","lat":43.30421,"lon":5.41291,"is_reserved":false,"is_disabled":false,"rental_uris":{"android":"levelo://app?vid=8a44f3ef-d742-4151-ad91-69ef5de2f428","ios":"levelo://app?vid=8a44f3ef-d742-4151-ad91-69ef5de2f428"},"vehicle_type_id":"4","last_reported":1732997377,"current_range_meters":38800,"station_id":"ce4bhop2rcd13ifvqh8g","pricing_plan_id":"cebpf4jnsgd1na2vs0mg"},{"bike_id":"cf9f3a3f-ec66-4a92-abcd-f016e9c0310b","system_id":"levelo_inurba_marseille","lat":43.33022,"lon":5.39039,"is_reserved":false,"is_disabled":false,"rental_uris":{"android":"levelo://app?vid=cf9f3a3f-ec66-4a92-abcd-f016e9c0310b","ios":"levelo://app?vid=cf9f3a3f-ec66-4a92-abcd-f016e9c0310b"},"vehicle_type_id":"4","last_reported":1732997377,"current_range_meters":40000,"station_id":"ce4bhr92rcd13ifvqhrg","pricing_plan_id":"cebpf4jnsgd1na2vs0mg"},{"bike_id":"e0161261-fd33-45e3-8038-51d77778a6b0","system_id":"levelo_inurba_marseille","lat":43.30651,"lon":5.40079,"is_reserved":false,"is_disabled":true,"rental_uris":{"android":"levelo://app?vid=e0161261-fd33-45e3-8038-51d77778a6b0","ios":"levelo://app?vid=e0161261-fd33-45e3-8038-51d77778a6b0"},"vehicle_type_id":"4","last_reported":1732997377,"current_range_meters":38800,"station_id":"ce4bh112rcd13ifvqda0","pricing_plan_id":"cebpf4jnsgd1na2vs0mg"},{"bike_id":"f4d19859-dbfb-4982-b796-c8007145699f","system_id":"levelo_inurba_marseille","lat":43.28616,"lon":5.35098,"is_reserved":false,"is_disabled":true,"rental_uris":{"android":"levelo://app?vid=f4d19859-dbfb-4982-b796-c8007145699f","ios":"levelo://app?vid=f4d19859-dbfb-4982-b796-c8007145699f"},"vehicle_type_id":"4","last_reported":1732997377,"current_range_meters":21600,"station_id":"ce4bhch2rcd13ifvqeug","pricing_plan_id":"cebpf4jnsgd1na2vs0mg"},{"bike_id":"4c25ff91-0b6e-4531-b459-bb09a080425a","system_id":"levelo_inurba_marseille","lat":43.30298,"lon":5.39214,"is_reserved":false,"is_disabled":false,"rental_uris":{"android":"levelo://app?vid=4c25ff91-0b6e-4531-b459-bb09a080425a","ios":"levelo://app?vid=4c25ff91-0b6e-4531-b459-bb09a080425a"},"vehicle_type_id":"4","last_reported":1732997377,"current_range_meters":35200,"station_id":"ce4bgkh2rcd13ifvqbk0","pricing_plan_id":"cebpf4jnsgd1na2vs0mg"},{"bike_id":"bfb856cf-7615-4aa7-a7e4-859a62ce8248","system_id":"levelo_inurba_marseille","lat":43.33741,"lon":5.37463,"is_reserved":false,"is_disabled":false,"rental_uris":{"android":"levelo://app?vid=bfb856cf-7615-4aa7-a7e4-859a62ce8248","ios":"levelo://app?vid=bfb856cf-7615-4aa7-a7e4-859a62ce8248"},"vehicle_type_id":"4","last_reported":1732997377,"current_range_meters":14800,"station_id":"","pricing_plan_id":"cebpf4jnsgd1na2vs0mg"},{"bike_id":"4ad9f279-b6a6-4efa-a4ef-4f325669478c","system_id":"levelo_inurba_marseille","lat":43.27613,"lon":5.36103,"is_reserved":false,"is_disabled":false,"rental_uris":{"android":"levelo://app?vid=4ad9f279-b6a6-4efa-a4ef-4f325669478c","ios":"levelo://app?vid=4ad9f279-b6a6-4efa-a4ef-4f325669478c"},"vehicle_type_id":"4","last_reported":1732997377,"current_range_meters":34800,"station_id":"ce4bgj92rcd13ifvqbe0","pricing_plan_id":"cebpf4jnsgd1na2vs0mg"},{"bike_id":"78b9af08-e38e-45c8-98c5-70e8ed8a0104","system_id":"levelo_inurba_marseille","lat":43.29579,"lon":5.37522,"is_reserved":false,"is_disabled":false,"rental_uris":{"android":"levelo://app?vid=78b9af08-e38e-45c8-98c5-70e8ed8a0104","ios":"levelo://app?vid=78b9af08-e38e-45c8-98c5-70e8ed8a0104"},"vehicle_type_id":"4","last_reported":1732997377,"current_range_meters":33600,"station_id":"ce4bgh92rcd13ifvqb50","pricing_plan_id":"cebpf4jnsgd1na2vs0mg"},{"bike_id":"73bc946f-2c71-4665-9dc2-46ce8c8fae1e","system_id":"levelo_inurba_marseille","lat":43.29784,"lon":5.38104,"is_reserved":false,"is_disabled":false,"rental_uris":{"android":"levelo://app?vid=73bc946f-2c71-4665-9dc2-46ce8c8fae1e","ios":"levelo://app?vid=73bc946f-2c71-4665-9dc2-46ce8c8fae1e"},"vehicle_type_id":"4","last_reported":1732997377,"current_range_meters":22400,"station_id":"ce4bgip2rcd13ifvqbb0","pricing_plan_id":"cebpf4jnsgd1na2vs0mg"},{"bike_id":"4abebe2b-dec7-442c-a6a0-da33deb742de","system_id":"levelo_inurba_marseille","lat":43.3214,"lon":5.36771,"is_reserved":false,"is_disabled":false,"rental_uris":{"android":"levelo://app?vid=4abebe2b-dec7-442c-a6a0-da33deb742de","ios":"levelo://app?vid=4abebe2b-dec7-442c-a6a0-da33deb742de"},"vehicle_type_id":"4","last_reported":1732997377,"current_range_meters":36000,"station_id":"","pricing_plan_id":"cebpf4jnsgd1na2vs0mg"},{"bike_id":"ce20c844-7914-4b0b-b70c-e7bdec0d808d","system_id":"levelo_inurba_marseille","lat":43.25933,"lon":5.40904,"is_reserved":false,"is_disabled":false,"rental_uris":{"android":"levelo://app?vid=ce20c844-7914-4b0b-b70c-e7bdec0d808d","ios":"levelo://app?vid=ce20c844-7914-4b0b-b70c-e7bdec0d808d"},"vehicle_type_id":"4","last_reported":1732997377,"current_range_meters":16400,"station_id":"ce4bhm92rcd13ifvqglg","pricing_plan_id":"cebpf4jnsgd1na2vs0mg"},{"bike_id":"6f285d8f-f130-478b-971b-5879d84e5a87","system_id":"levelo_inurba_marseille","lat":43.30309,"lon":5.36909,"is_reserved":false,"is_disabled":false,"rental_uris":{"android":"levelo://app?vid=6f285d8f-f130-478b-971b-5879d84e5a87","ios":"levelo://app?vid=6f285d8f-f130-478b-971b-5879d84e5a87"},"vehicle_type_id":"4","last_reported":1732997377,"current_range_meters":4000,"station_id":"ce4bgqh2rcd13ifvqc5g","pricing_plan_id":"cebpf4jnsgd1na2vs0mg"},{"bike_id":"5a611c5d-797f-4bfd-8428-57f80dec50e7","system_id":"levelo_inurba_marseille","lat":43.26957,"lon":5.38623,"is_reserved":false,"is_disabled":false,"rental_uris":{"android":"levelo://app?vid=5a611c5d-797f-4bfd-8428-57f80dec50e7","ios":"levelo://app?vid=5a611c5d-797f-4bfd-8428-57f80dec50e7"},"vehicle_type_id":"4","last_reported":1732997377,"current_range_meters":23200,"station_id":"ce4bhh92rcd13ifvqfh0","pricing_plan_id":"cebpf4jnsgd1na2vs0mg"},{"bike_id":"58f5d99c-c01f-4bd1-ac20-b06556b13d63","system_id":"levelo_inurba_marseille","lat":43.30798,"lon":5.43521,"is_reserved":false,"is_disabled":false,"rental_uris":{"android":"levelo://app?vid=58f5d99c-c01f-4bd1-ac20-b06556b13d63","ios":"levelo://app?vid=58f5d99c-c01f-4bd1-ac20-b06556b13d63"},"vehicle_type_id":"4","last_reported":1732997377,"current_range_meters":16000,"station_id":"ce4bhph2rcd13ifvqheg","pricing_plan_id":"cebpf4jnsgd1na2vs0mg"},{"bike_id":"f5cbc756-20f5-4dd4-aa1e-cc272ed4dfcd","system_id":"levelo_inurba_marseille","lat":43.33023,"lon":5.39032,"is_reserved":false,"is_disabled":false,"rental_uris":{"android":"levelo://app?vid=f5cbc756-20f5-4dd4-aa1e-cc272ed4dfcd","ios":"levelo://app?vid=f5cbc756-20f5-4dd4-aa1e-cc272ed4dfcd"},"vehicle_type_id":"4","last_reported":1732997377,"current_range_meters":8000,"station_id":"ce4bhr92rcd13ifvqhrg","pricing_plan_id":"cebpf4jnsgd1na2vs0mg"},{"bike_id":"5d312bd0-3348-47c0-9380-6be6bb663da6","system_id":"levelo_inurba_marseille","lat":43.2841,"lon":5.37509,"is_reserved":false,"is_disabled":false,"rental_uris":{"android":"levelo://app?vid=5d312bd0-3348-47c0-9380-6be6bb663da6","ios":"levelo://app?vid=5d312bd0-3348-47c0-9380-6be6bb663da6"},"vehicle_type_id":"4","last_reported":1732997377,"current_range_meters":33600,"station_id":"ce4bh412rcd13ifvqds0","pricing_plan_id":"cebpf4jnsgd1na2vs0mg"},{"bike_id":"0aaba650-bab1-4d4e-8d3c-a662b07cdf2d","system_id":"levelo_inurba_marseille","lat":43.28932,"lon":5.38382,"is_reserved":false,"is_disabled":false,"rental_uris":{"android":"levelo://app?vid=0aaba650-bab1-4d4e-8d3c-a662b07cdf2d","ios":"levelo://app?vid=0aaba650-bab1-4d4e-8d3c-a662b07cdf2d"},"vehicle_type_id":"4","last_reported":1732997377,"current_range_meters":11200,"station_id":"ce4bh612rcd13ifvqe6g","pricing_plan_id":"cebpf4jnsgd1na2vs0mg"},{"bike_id":"7dc2caec-37b5-482a-abad-d1d2f62e7e82","system_id":"levelo_inurba_marseille","lat":43.3128,"lon":5.37029,"is_reserved":false,"is_disabled":true,"rental_uris":{"android":"levelo://app?vid=7dc2caec-37b5-482a-abad-d1d2f62e7e82","ios":"levelo://app?vid=7dc2caec-37b5-482a-abad-d1d2f62e7e82"},"vehicle_type_id":"4","last_reported":1732997377,"current_range_meters":0,"station_id":"","pricing_plan_id":"cebpf4jnsgd1na2vs0mg"},{"bike_id":"2b1be631-65b9-4693-9308-20c536459012","system_id":"levelo_inurba_marseille","lat":43.29258,"lon":5.38433,"is_reserved":false,"is_disabled":false,"rental_uris":{"android":"levelo://app?vid=2b1be631-65b9-4693-9308-20c536459012","ios":"levelo://app?vid=2b1be631-65b9-4693-9308-20c536459012"},"vehicle_type_id":"4","last_reported":1732997377,"current_range_meters":9600,"station_id":"ce4bh692rcd13ifvqea0","pricing_plan_id":"cebpf4jnsgd1na2vs0mg"},{"bike_id":"e060cf60-5403-4767-be51-0209ce5c2657","system_id":"levelo_inurba_marseille","lat":43.29026,"lon":5.38661,"is_reserved":false,"is_disabled":false,"rental_uris":{"android":"levelo://app?vid=e060cf60-5403-4767-be51-0209ce5c2657","ios":"levelo://app?vid=e060cf60-5403-4767-be51-0209ce5c2657"},"vehicle_type_id":"4","last_reported":1732997377,"current_range_meters":38800,"station_id":"ce4bh4p2rcd13ifvqe0g","pricing_plan_id":"cebpf4jnsgd1na2vs0mg"},{"bike_id":"3827724b-70b8-46a7-a092-6a54537f09ff","system_id":"levelo_inurba_marseille","lat":43.24993,"lon":5.38921,"is_reserved":false,"is_disabled":false,"rental_uris":{"android":"levelo://app?vid=3827724b-70b8-46a7-a092-6a54537f09ff","ios":"levelo://app?vid=3827724b-70b8-46a7-a092-6a54537f09ff"},"vehicle_type_id":"4","last_reported":1732997377,"current_range_meters":36000,"station_id":"ce4bhgp2rcd13ifvqfd0","pricing_plan_id":"cebpf4jnsgd1na2vs0mg"},{"bike_id":"9dd1fc98-a89e-437a-b707-6eb8b3c899e8","system_id":"levelo_inurba_marseille","lat":43.290357,"lon":5.359157,"is_reserved":false,"is_disabled":false,"rental_uris":{"android":"levelo://app?vid=9dd1fc98-a89e-437a-b707-6eb8b3c899e8","ios":"levelo://app?vid=9dd1fc98-a89e-437a-b707-6eb8b3c899e8"},"vehicle_type_id":"4","last_reported":1732997377,"current_range_meters":38800,"station_id":"ce4bha92rcd13ifvqeg0","pricing_plan_id":"cebpf4jnsgd1na2vs0mg"},{"bike_id":"aea6b7a8-fa3c-4842-89c6-693b08a99724","system_id":"levelo_inurba_marseille","lat":43.33752,"lon":5.37428,"is_reserved":false,"is_disabled":false,"rental_uris":{"android":"levelo://app?vid=aea6b7a8-fa3c-4842-89c6-693b08a99724","ios":"levelo://app?vid=aea6b7a8-fa3c-4842-89c6-693b08a99724"},"vehicle_type_id":"4","last_reported":1732997377,"current_range_meters":37600,"station_id":"","pricing_plan_id":"cebpf4jnsgd1na2vs0mg"},{"bike_id":"9ce56183-3d35-4d42-b429-9cf930202d18","system_id":"levelo_inurba_marseille","lat":43.293015,"lon":5.374612,"is_reserved":false,"is_disabled":false,"rental_uris":{"android":"levelo://app?vid=9ce56183-3d35-4d42-b429-9cf930202d18","ios":"levelo://app?vid=9ce56183-3d35-4d42-b429-9cf930202d18"},"vehicle_type_id":"4","last_reported":1732997377,"current_range_meters":28800,"station_id":"ce4bgi12rcd13ifvqb70","pricing_plan_id":"cebpf4jnsgd1na2vs0mg"},{"bike_id":"22d5e251-98e2-4944-8d36-ca18e334a855","system_id":"levelo_inurba_marseille","lat":43.28844,"lon":5.35852,"is_reserved":false,"is_disabled":false,"rental_uris":{"android":"levelo://app?vid=22d5e251-98e2-4944-8d36-ca18e334a855","ios":"levelo://app?vid=22d5e251-98e2-4944-8d36-ca18e334a855"},"vehicle_type_id":"4","last_reported":1732997377,"current_range_meters":23200,"station_id":"ce4bhb12rcd13ifvqem0","pricing_plan_id":"cebpf4jnsgd1na2vs0mg"},{"bike_id":"65b9545c-19a7-45ce-84af-2a51b53f322c","system_id":"levelo_inurba_marseille","lat":43.32472,"lon":5.36559,"is_reserved":false,"is_disabled":false,"rental_uris":{"android":"levelo://app?vid=65b9545c-19a7-45ce-84af-2a51b53f322c","ios":"levelo://app?vid=65b9545c-19a7-45ce-84af-2a51b53f322c"},"vehicle_type_id":"4","last_reported":1732997377,"current_range_meters":7200,"station_id":"ce4bhs12rcd13ifvqhvg","pricing_plan_id":"cebpf4jnsgd1na2vs0mg"},{"bike_id":"1b4091b4-9da5-4e08-a623-15bd0eb83e75","system_id":"levelo_inurba_marseille","lat":43.29304,"lon":5.37165,"is_reserved":false,"is_disabled":true,"rental_uris":{"android":"levelo://app?vid=1b4091b4-9da5-4e08-a623-15bd0eb83e75","ios":"levelo://app?vid=1b4091b4-9da5-4e08-a623-15bd0eb83e75"},"vehicle_type_id":"4","last_reported":1732997377,"current_range_meters":9600,"station_id":"ce4bgh92rcd13ifvqb40","pricing_plan_id":"cebpf4jnsgd1na2vs0mg"},{"bike_id":"36dd1aa3-562a-4591-954a-e9733ce1644a","system_id":"levelo_inurba_marseille","lat":43.28473,"lon":5.38406,"is_reserved":false,"is_disabled":false,"rental_uris":{"android":"levelo://app?vid=36dd1aa3-562a-4591-954a-e9733ce1644a","ios":"levelo://app?vid=36dd1aa3-562a-4591-954a-e9733ce1644a"},"vehicle_type_id":"4","last_reported":1732997377,"current_range_meters":38400,"station_id":"ce4bh512rcd13ifvqe3g","pricing_plan_id":"cebpf4jnsgd1na2vs0mg"},{"bike_id":"01dd0f6c-5d7c-4e63-a161-668f65657b81","system_id":"levelo_inurba_marseille","lat":43.2293,"lon":5.35376,"is_reserved":false,"is_disabled":false,"rental_uris":{"android":"levelo://app?vid=01dd0f6c-5d7c-4e63-a161-668f65657b81","ios":"levelo://app?vid=01dd0f6c-5d7c-4e63-a161-668f65657b81"},"vehicle_type_id":"4","last_reported":1732997377,"current_range_meters":38800,"station_id":"cpo3532slgdg3j2ikp40","pricing_plan_id":"cebpf4jnsgd1na2vs0mg"},{"bike_id":"b87e5c3d-9f14-4668-95f8-f8c690a83148","system_id":"levelo_inurba_marseille","lat":43.29266,"lon":5.38444,"is_reserved":false,"is_disabled":false,"rental_uris":{"android":"levelo://app?vid=b87e5c3d-9f14-4668-95f8-f8c690a83148","ios":"levelo://app?vid=b87e5c3d-9f14-4668-95f8-f8c690a83148"},"vehicle_type_id":"4","last_reported":1732997377,"current_range_meters":3600,"station_id":"ce4bh692rcd13ifvqea0","pricing_plan_id":"cebpf4jnsgd1na2vs0mg"},{"bike_id":"85025086-bbad-4372-b9d1-71856ed57213","system_id":"levelo_inurba_marseille","lat":43.30246,"lon":5.40068,"is_reserved":false,"is_disabled":false,"rental_uris":{"android":"levelo://app?vid=85025086-bbad-4372-b9d1-71856ed57213","ios":"levelo://app?vid=85025086-bbad-4372-b9d1-71856ed57213"},"vehicle_type_id":"4","last_reported":1732997377,"current_range_meters":38000,"station_id":"ce4bgvh2rcd13ifvqcs0","pricing_plan_id":"cebpf4jnsgd1na2vs0mg"},{"bike_id":"48629df8-8397-429c-8255-b6a41a786769","system_id":"levelo_inurba_marseille","lat":43.293,"lon":5.37471,"is_reserved":false,"is_disabled":false,"rental_uris":{"android":"levelo://app?vid=48629df8-8397-429c-8255-b6a41a786769","ios":"levelo://app?vid=48629df8-8397-429c-8255-b6a41a786769"},"vehicle_type_id":"4","last_reported":1732997377,"current_range_meters":27200,"station_id":"ce4bgi12rcd13ifvqb70","pricing_plan_id":"cebpf4jnsgd1na2vs0mg"},{"bike_id":"512cdee4-e367-45d9-bb45-4449d459a49f","system_id":"levelo_inurba_marseille","lat":43.24547,"lon":5.39533,"is_reserved":false,"is_disabled":false,"rental_uris":{"android":"levelo://app?vid=512cdee4-e367-45d9-bb45-4449d459a49f","ios":"levelo://app?vid=512cdee4-e367-45d9-bb45-4449d459a49f"},"vehicle_type_id":"4","last_reported":1732997377,"current_range_meters":24400,"station_id":"ce4bhlp2rcd13ifvqgjg","pricing_plan_id":"cebpf4jnsgd1na2vs0mg"},{"bike_id":"e5951ee3-4a5a-4ebb-b469-096c5188dfa3","system_id":"levelo_inurba_marseille","lat":43.23192,"lon":5.35555,"is_reserved":false,"is_disabled":false,"rental_uris":{"android":"levelo://app?vid=e5951ee3-4a5a-4ebb-b469-096c5188dfa3","ios":"levelo://app?vid=e5951ee3-4a5a-4ebb-b469-096c5188dfa3"},"vehicle_type_id":"4","last_reported":1732997377,"current_range_meters":16800,"station_id":"ce4bhu92rcd13ifvqi70","pricing_plan_id":"cebpf4jnsgd1na2vs0mg"},{"bike_id":"f9a63393-5401-4f98-ae5a-dfbb8291ab6d","system_id":"levelo_inurba_marseille","lat":43.3004,"lon":5.37551,"is_reserved":false,"is_disabled":true,"rental_uris":{"android":"levelo://app?vid=f9a63393-5401-4f98-ae5a-dfbb8291ab6d","ios":"levelo://app?vid=f9a63393-5401-4f98-ae5a-dfbb8291ab6d"},"vehicle_type_id":"4","last_reported":1732997377,"current_range_meters":0,"station_id":"","pricing_plan_id":"cebpf4jnsgd1na2vs0mg"},{"bike_id":"b38c09bb-a215-4e8b-b764-0091f548550c","system_id":"levelo_inurba_marseille","lat":43.22932,"lon":5.35381,"is_reserved":false,"is_disabled":false,"rental_uris":{"android":"levelo://app?vid=b38c09bb-a215-4e8b-b764-0091f548550c","ios":"levelo://app?vid=b38c09bb-a215-4e8b-b764-0091f548550c"},"vehicle_type_id":"4","last_reported":1732997377,"current_range_meters":40000,"station_id":"cpo3532slgdg3j2ikp40","pricing_plan_id":"cebpf4jnsgd1na2vs0mg"},{"bike_id":"42a17353-f194-4b7e-9764-9b7d67967d63","system_id":"levelo_inurba_marseille","lat":43.29609,"lon":5.37726,"is_reserved":false,"is_disabled":false,"rental_uris":{"android":"levelo://app?vid=42a17353-f194-4b7e-9764-9b7d67967d63","ios":"levelo://app?vid=42a17353-f194-4b7e-9764-9b7d67967d63"},"vehicle_type_id":"4","last_reported":1732997377,"current_range_meters":34800,"station_id":"ce4bgi92rcd13ifvqb90","pricing_plan_id":"cebpf4jnsgd1na2vs0mg"},{"bike_id":"4615f4ac-3813-4c43-b4a0-5043910fa243","system_id":"levelo_inurba_marseille","lat":43.30798,"lon":5.38165,"is_reserved":false,"is_disabled":false,"rental_uris":{"android":"levelo://app?vid=4615f4ac-3813-4c43-b4a0-5043910fa243","ios":"levelo://app?vid=4615f4ac-3813-4c43-b4a0-5043910fa243"},"vehicle_type_id":"4","last_reported":1732997377,"current_range_meters":17200,"station_id":"ce4bgt12rcd13ifvqce0","pricing_plan_id":"cebpf4jnsgd1na2vs0mg"},{"bike_id":"209edce5-94bd-42b7-894c-233f806592a5","system_id":"levelo_inurba_marseille","lat":43.32358,"lon":5.36753,"is_reserved":false,"is_disabled":false,"rental_uris":{"android":"levelo://app?vid=209edce5-94bd-42b7-894c-233f806592a5","ios":"levelo://app?vid=209edce5-94bd-42b7-894c-233f806592a5"},"vehicle_type_id":"4","last_reported":1732997377,"current_range_meters":27200,"station_id":"ce4bhsh2rcd13ifvqi2g","pricing_plan_id":"cebpf4jnsgd1na2vs0mg"},{"bike_id":"ea461fa6-489e-4de7-89c7-2f448445227c","system_id":"levelo_inurba_marseille","lat":43.29311,"lon":5.37184,"is_reserved":false,"is_disabled":true,"rental_uris":{"android":"levelo://app?vid=ea461fa6-489e-4de7-89c7-2f448445227c","ios":"levelo://app?vid=ea461fa6-489e-4de7-89c7-2f448445227c"},"vehicle_type_id":"4","last_reported":1732997377,"current_range_meters":38800,"station_id":"ce4bgh92rcd13ifvqb40","pricing_plan_id":"cebpf4jnsgd1na2vs0mg"},{"bike_id":"b0bda3a0-8d9d-4bd3-a5b8-75ccdf39fdf3","system_id":"levelo_inurba_marseille","lat":43.29442,"lon":5.3976,"is_reserved":false,"is_disabled":true,"rental_uris":{"android":"levelo://app?vid=b0bda3a0-8d9d-4bd3-a5b8-75ccdf39fdf3","ios":"levelo://app?vid=b0bda3a0-8d9d-4bd3-a5b8-75ccdf39fdf3"},"vehicle_type_id":"4","last_reported":1732997377,"current_range_meters":27600,"station_id":"ce4bh3h2rcd13ifvqdo0","pricing_plan_id":"cebpf4jnsgd1na2vs0mg"},{"bike_id":"04791269-9bad-451a-a252-9b63a8db9660","system_id":"levelo_inurba_marseille","lat":43.28036,"lon":5.36942,"is_reserved":false,"is_disabled":false,"rental_uris":{"android":"levelo://app?vid=04791269-9bad-451a-a252-9b63a8db9660","ios":"levelo://app?vid=04791269-9bad-451a-a252-9b63a8db9660"},"vehicle_type_id":"4","last_reported":1732997377,"current_range_meters":6400,"station_id":"ce4bha12rcd13ifvqef0","pricing_plan_id":"cebpf4jnsgd1na2vs0mg"},{"bike_id":"8dbab541-a5f6-408b-8d39-2a9487141a0c","system_id":"levelo_inurba_marseille","lat":43.28432,"lon":5.39191,"is_reserved":false,"is_disabled":false,"rental_uris":{"android":"levelo://app?vid=8dbab541-a5f6-408b-8d39-2a9487141a0c","ios":"levelo://app?vid=8dbab541-a5f6-408b-8d39-2a9487141a0c"},"vehicle_type_id":"4","last_reported":1732997377,"current_range_meters":38000,"station_id":"ce4bhoh2rcd13ifvqh5g","pricing_plan_id":"cebpf4jnsgd1na2vs0mg"},{"bike_id":"ffee92d3-4119-470f-811e-5a167fe07917","system_id":"levelo_inurba_marseille","lat":43.33024,"lon":5.39039,"is_reserved":false,"is_disabled":false,"rental_uris":{"android":"levelo://app?vid=ffee92d3-4119-470f-811e-5a167fe07917","ios":"levelo://app?vid=ffee92d3-4119-470f-811e-5a167fe07917"},"vehicle_type_id":"4","last_reported":1732997377,"current_range_meters":40000,"station_id":"ce4bhr92rcd13ifvqhrg","pricing_plan_id":"cebpf4jnsgd1na2vs0mg"},{"bike_id":"c53032eb-a66a-4b13-9ab8-378e0eda7d9c","system_id":"levelo_inurba_marseille","lat":43.28151,"lon":5.42642,"is_reserved":false,"is_disabled":false,"rental_uris":{"android":"levelo://app?vid=c53032eb-a66a-4b13-9ab8-378e0eda7d9c","ios":"levelo://app?vid=c53032eb-a66a-4b13-9ab8-378e0eda7d9c"},"vehicle_type_id":"4","last_reported":1732997377,"current_range_meters":24800,"station_id":"ce4bhnh2rcd13ifvqgug","pricing_plan_id":"cebpf4jnsgd1na2vs0mg"},{"bike_id":"4f7d45ef-7d61-41e4-93ae-e39543ce3066","system_id":"levelo_inurba_marseille","lat":43.28034,"lon":5.36935,"is_reserved":false,"is_disabled":false,"rental_uris":{"android":"levelo://app?vid=4f7d45ef-7d61-41e4-93ae-e39543ce3066","ios":"levelo://app?vid=4f7d45ef-7d61-41e4-93ae-e39543ce3066"},"vehicle_type_id":"4","last_reported":1732997377,"current_range_meters":36000,"station_id":"ce4bha12rcd13ifvqef0","pricing_plan_id":"cebpf4jnsgd1na2vs0mg"},{"bike_id":"6482d51d-e270-416e-8906-ed6ef99518e8","system_id":"levelo_inurba_marseille","lat":43.28703,"lon":5.38735,"is_reserved":false,"is_disabled":false,"rental_uris":{"android":"levelo://app?vid=6482d51d-e270-416e-8906-ed6ef99518e8","ios":"levelo://app?vid=6482d51d-e270-416e-8906-ed6ef99518e8"},"vehicle_type_id":"4","last_reported":1732997377,"current_range_meters":14000,"station_id":"","pricing_plan_id":"cebpf4jnsgd1na2vs0mg"},{"bike_id":"8c05a29e-728a-4b29-80bd-40718114c6e8","system_id":"levelo_inurba_marseille","lat":43.30296,"lon":5.37695,"is_reserved":false,"is_disabled":false,"rental_uris":{"android":"levelo://app?vid=8c05a29e-728a-4b29-80bd-40718114c6e8","ios":"levelo://app?vid=8c05a29e-728a-4b29-80bd-40718114c6e8"},"vehicle_type_id":"4","last_reported":1732997377,"current_range_meters":35600,"station_id":"ce4bguh2rcd13ifvqcj0","pricing_plan_id":"cebpf4jnsgd1na2vs0mg"},{"bike_id":"ed151763-9b18-498c-894b-855dfd42d28d","system_id":"levelo_inurba_marseille","lat":43.26033,"lon":5.37545,"is_reserved":false,"is_disabled":true,"rental_uris":{"android":"levelo://app?vid=ed151763-9b18-498c-894b-855dfd42d28d","ios":"levelo://app?vid=ed151763-9b18-498c-894b-855dfd42d28d"},"vehicle_type_id":"4","last_reported":1732997377,"current_range_meters":0,"station_id":"ce4bhgh2rcd13ifvqfa0","pricing_plan_id":"cebpf4jnsgd1na2vs0mg"},{"bike_id":"26d86e22-f429-4851-b9db-b2441dae68bc","system_id":"levelo_inurba_marseille","lat":43.31171,"lon":5.38714,"is_reserved":false,"is_disabled":false,"rental_uris":{"android":"levelo://app?vid=26d86e22-f429-4851-b9db-b2441dae68bc","ios":"levelo://app?vid=26d86e22-f429-4851-b9db-b2441dae68bc"},"vehicle_type_id":"4","last_reported":1732997377,"current_range_meters":38800,"station_id":"ce4bgv12rcd13ifvqcp0","pricing_plan_id":"cebpf4jnsgd1na2vs0mg"},{"bike_id":"70f9d3b1-e8ac-42df-9309-ec783cc19058","system_id":"levelo_inurba_marseille","lat":43.27493,"lon":5.42452,"is_reserved":false,"is_disabled":false,"rental_uris":{"android":"levelo://app?vid=70f9d3b1-e8ac-42df-9309-ec783cc19058","ios":"levelo://app?vid=70f9d3b1-e8ac-42df-9309-ec783cc19058"},"vehicle_type_id":"4","last_reported":1732997377,"current_range_meters":7200,"station_id":"ce4bhn92rcd13ifvqgrg","pricing_plan_id":"cebpf4jnsgd1na2vs0mg"},{"bike_id":"96b27800-f11c-44a0-a1c4-be400e11057c","system_id":"levelo_inurba_marseille","lat":43.28802,"lon":5.37328,"is_reserved":false,"is_disabled":false,"rental_uris":{"android":"levelo://app?vid=96b27800-f11c-44a0-a1c4-be400e11057c","ios":"levelo://app?vid=96b27800-f11c-44a0-a1c4-be400e11057c"},"vehicle_type_id":"4","last_reported":1732997377,"current_range_meters":38800,"station_id":"","pricing_plan_id":"cebpf4jnsgd1na2vs0mg"},{"bike_id":"05f9d312-735f-4378-9793-89956ac95dc4","system_id":"levelo_inurba_marseille","lat":43.33022,"lon":5.39027,"is_reserved":false,"is_disabled":false,"rental_uris":{"android":"levelo://app?vid=05f9d312-735f-4378-9793-89956ac95dc4","ios":"levelo://app?vid=05f9d312-735f-4378-9793-89956ac95dc4"},"vehicle_type_id":"4","last_reported":1732997377,"current_range_meters":18000,"station_id":"ce4bhr92rcd13ifvqhrg","pricing_plan_id":"cebpf4jnsgd1na2vs0mg"},{"bike_id":"7c4c64e1-7ffa-41e3-bc6a-0b0a37f95c15","system_id":"levelo_inurba_marseille","lat":43.29261,"lon":5.40904,"is_reserved":false,"is_disabled":false,"rental_uris":{"android":"levelo://app?vid=7c4c64e1-7ffa-41e3-bc6a-0b0a37f95c15","ios":"levelo://app?vid=7c4c64e1-7ffa-41e3-bc6a-0b0a37f95c15"},"vehicle_type_id":"4","last_reported":1732997377,"current_range_meters":6400,"station_id":"ce4bh192rcd13ifvqdc0","pricing_plan_id":"cebpf4jnsgd1na2vs0mg"},{"bike_id":"43746d86-8a13-4845-9faf-ae69b548d714","system_id":"levelo_inurba_marseille","lat":43.29459,"lon":5.37917,"is_reserved":false,"is_disabled":true,"rental_uris":{"android":"levelo://app?vid=43746d86-8a13-4845-9faf-ae69b548d714","ios":"levelo://app?vid=43746d86-8a13-4845-9faf-ae69b548d714"},"vehicle_type_id":"4","last_reported":1732997377,"current_range_meters":0,"station_id":"","pricing_plan_id":"cebpf4jnsgd1na2vs0mg"},{"bike_id":"37bfdd84-f025-4c42-a3c4-08ae117bf1e8","system_id":"levelo_inurba_marseille","lat":43.29418,"lon":5.38634,"is_reserved":false,"is_disabled":false,"rental_uris":{"android":"levelo://app?vid=37bfdd84-f025-4c42-a3c4-08ae117bf1e8","ios":"levelo://app?vid=37bfdd84-f025-4c42-a3c4-08ae117bf1e8"},"vehicle_type_id":"4","last_reported":1732997377,"current_range_meters":38800,"station_id":"ce4bh2h2rcd13ifvqdh0","pricing_plan_id":"cebpf4jnsgd1na2vs0mg"},{"bike_id":"dffbe3ad-2c45-4712-9f37-8790b69df2e4","system_id":"levelo_inurba_marseille","lat":43.28405,"lon":5.37521,"is_reserved":false,"is_disabled":true,"rental_uris":{"android":"levelo://app?vid=dffbe3ad-2c45-4712-9f37-8790b69df2e4","ios":"levelo://app?vid=dffbe3ad-2c45-4712-9f37-8790b69df2e4"},"vehicle_type_id":"4","last_reported":1732997377,"current_range_meters":400,"station_id":"ce4bh412rcd13ifvqds0","pricing_plan_id":"cebpf4jnsgd1na2vs0mg"},{"bike_id":"fe48b4b1-012c-4163-9909-fb6b5220c692","system_id":"levelo_inurba_marseille","lat":43.29526,"lon":5.39395,"is_reserved":false,"is_disabled":false,"rental_uris":{"android":"levelo://app?vid=fe48b4b1-012c-4163-9909-fb6b5220c692","ios":"levelo://app?vid=fe48b4b1-012c-4163-9909-fb6b5220c692"},"vehicle_type_id":"4","last_reported":1732997377,"current_range_meters":38800,"station_id":"ce4bh292rcd13ifvqdf0","pricing_plan_id":"cebpf4jnsgd1na2vs0mg"},{"bike_id":"766d833d-7611-45cc-8bd9-d13107762dcf","system_id":"levelo_inurba_marseille","lat":43.30261,"lon":5.40077,"is_reserved":false,"is_disabled":false,"rental_uris":{"android":"levelo://app?vid=766d833d-7611-45cc-8bd9-d13107762dcf","ios":"levelo://app?vid=766d833d-7611-45cc-8bd9-d13107762dcf"},"vehicle_type_id":"4","last_reported":1732997377,"current_range_meters":34000,"station_id":"ce4bgvh2rcd13ifvqcs0","pricing_plan_id":"cebpf4jnsgd1na2vs0mg"},{"bike_id":"05796312-eeeb-40fa-96d8-a855ecf8d712","system_id":"levelo_inurba_marseille","lat":43.2762,"lon":5.361,"is_reserved":false,"is_disabled":false,"rental_uris":{"android":"levelo://app?vid=05796312-eeeb-40fa-96d8-a855ecf8d712","ios":"levelo://app?vid=05796312-eeeb-40fa-96d8-a855ecf8d712"},"vehicle_type_id":"4","last_reported":1732997377,"current_range_meters":12400,"station_id":"ce4bgj92rcd13ifvqbe0","pricing_plan_id":"cebpf4jnsgd1na2vs0mg"},