{"last_updated":1770049500,"ttl":60,"version":"2.2","data":{"bikes":[{"bike_id":"1d38c5ef-3b7f-4420-a188-9645b478f8d9","system_id":"levelo_inurba_marseille","lat":43.25584,"lon":5.38226,"is_reserved":false,"is_disabled":false,"rental_uris":{"android":"levelo://app?vid=1d38c5ef-3b7f-4420-a188-9645b478f8d9","ios":"levelo://app?vid=1d38c5ef-3b7f-4420-a188-9645b478f8d9"},"vehicle_type_id":"4","last_reported":1770049501,"current_range_meters":2800,"station_id":"ce4bhih2rcd13ifvqfs0","pricing_plan_id":"cebpf4jnsgd1na2vs0mg"},{"bike_id":"be7ab9e4-5622-445b-9f21-82284cb93ec1","system_id":"levelo_inurba_marseille","lat":43.26566,"lon":5.40319,"is_reserved":false,"is_disabled":true,"rental_uris":{"android":"levelo://app?vid=be7ab9e4-5622-445b-9f21-82284cb93ec1","ios":"levelo://app?vid=be7ab9e4-5622-445b-9f21-82284cb93ec1"},"vehicle_type_id":"4","last_reported":1770049501,"current_range_meters":2800,"station_id":"ce4bhmp2rcd13ifvqgng","pricing_plan_id":"cebpf4jnsgd1na2vs0mg"},{"bike_id":"04213df7-be1c-45ce-bf51-8b2cb7ae6140","system_id":"levelo_inurba_marseille","lat":43.24079,"lon":5.3777,"is_reserved":false,"is_disabled":false,"rental_uris":{"android":"levelo://app?vid=04213df7-be1c-45ce-bf51-8b2cb7ae6140","ios":"levelo://app?vid=04213df7-be1c-45ce-bf51-8b2cb7ae6140"},"vehicle_type_id":"4","last_reported":1770049501,"current_range_meters":2800,"station_id":"ce4bhnp2rcd13ifvqgvg","pricing_plan_id":"cebpf4jnsgd1na2vs0mg"},{"bike_id":"28449bcc-6120-470d-8caf-28ba1534bc7e","system_id":"levelo_inurba_marseille","lat":43.31244,"lon":5.36865,"is_reserved":false,"is_disabled":false,"rental_uris":{"android":"levelo://app?vid=28449bcc-6120-470d-8caf-28ba1534bc7e","ios":"levelo://app?vid=28449bcc-6120-470d-8caf-28ba1534bc7e"},"vehicle_type_id":"4","last_reported":1770049501,"current_range_meters":2800,"station_id":"ce4bgl92rcd13ifvqbq0","pricing_plan_id":"cebpf4jnsgd1na2vs0mg"},{"bike_id":"42ecb532-f5c3-4ec0-8230-24a6cd041e87","system_id":"levelo_inurba_marseille","lat":43.2656,"lon":5.40318,"is_reserved":false,"is_disabled":false,"rental_uris":{"android":"levelo://app?vid=42ecb532-f5c3-4ec0-8230-24a6cd041e87","ios":"levelo://app?vid=42ecb532-f5c3-4ec0-8230-24a6cd041e87"},"vehicle_type_id":"4","last_reported":1770049501,"current_range_meters":2800,"station_id":"ce4bhmp2rcd13ifvqgng","pricing_plan_id":"cebpf4jnsgd1na2vs0mg"},{"bike_id":"81cddbe1-5b72-48ed-a7a4-1031532f66af","system_id":"levelo_inurba_marseille","lat":43.24808,"lon":5.37452,"is_reserved":false,"is_disabled":false,"rental_uris":{"android":"levelo://app?vid=81cddbe1-5b72-48ed-a7a4-1031532f66af","ios":"levelo://app?vid=81cddbe1-5b72-48ed-a7a4-1031532f66af"},"vehicle_type_id":"4","last_reported":1770049501,"current_range_meters":3200,"station_id":"ce4bhgh2rcd13ifvqfb0","pricing_plan_id":"cebpf4jnsgd1na2vs0mg"},{"bike_id":"d7bb52bf-9888-4e53-9c7d-d39210203af0","system_id":"levelo_inurba_marseille","lat":43.260596,"lon":5.393997,"is_reserved":false,"is_disabled":false,"rental_uris":{"android":"levelo://app?vid=d7bb52bf-9888-4e53-9c7d-d39210203af0","ios":"levelo://app?vid=d7bb52bf-9888-4e53-9c7d-d39210203af0"},"vehicle_type_id":"4","last_reported":1770049501,"current_range_meters":3200,"station_id":"ce4bhh92rcd13ifvqfj0","pricing_plan_id":"cebpf4jnsgd1na2vs0mg"},{"bike_id":"fe96b3e6-31d2-4dd0-93a5-43e5f652f8f8","system_id":"levelo_inurba_marseille","lat":43.26228,"lon":5.40459,"is_reserved":false,"is_disabled":false,"rental_uris":{"android":"levelo://app?vid=fe96b3e6-31d2-4dd0-93a5-43e5f652f8f8","ios":"levelo://app?vid=fe96b3e6-31d2-4dd0-93a5-43e5f652f8f8"},"vehicle_type_id":"4","last_reported":1770049501,"current_range_meters":3200,"station_id":"ce4bhmh2rcd13ifvqgmg","pricing_plan_id":"cebpf4jnsgd1na2vs0mg"},{"bike_id":"72489c9e-01d3-484c-a253-4279fe296b12","system_id":"levelo_inurba_marseille","lat":43.23198,"lon":5.35545,"is_reserved":false,"is_disabled":false,"rental_uris":{"android":"levelo://app?vid=72489c9e-01d3-484c-a253-4279fe296b12","ios":"levelo://app?vid=72489c9e-01d3-484c-a253-4279fe296b12"},"vehicle_type_id":"4","last_reported":1770049501,"current_range_meters":3200,"station_id":"ce4bhu92rcd13ifvqi70","pricing_plan_id":"cebpf4jnsgd1na2vs0mg"},{"bike_id":"3c2ee58d-ed3d-4824-9a14-92f3a186f959","system_id":"levelo_inurba_marseille","lat":43.29079,"lon":5.37184,"is_reserved":false,"is_disabled":false,"rental_uris":{"android":"levelo://app?vid=3c2ee58d-ed3d-4824-9a14-92f3a186f959","ios":"levelo://app?vid=3c2ee58d-ed3d-4824-9a14-92f3a186f959"},"vehicle_type_id":"4","last_reported":1770049501,"current_range_meters":3200,"station_id":"ce4bh5p2rcd13ifvqe4g","pricing_plan_id":"cebpf4jnsgd1na2vs0mg"},{"bike_id":"815932e9-3490-41c8-9f18-17529b2fcd92","system_id":"levelo_inurba_marseille","lat":43.23149,"lon":5.43722,"is_reserved":false,"is_disabled":false,"rental_uris":{"android":"levelo://app?vid=815932e9-3490-41c8-9f18-17529b2fcd92","ios":"levelo://app?vid=815932e9-3490-41c8-9f18-17529b2fcd92"},"vehicle_type_id":"4","last_reported":1770049501,"current_range_meters":3200,"station_id":"ce4bhmp2rcd13ifvqgog","pricing_plan_id":"cebpf4jnsgd1na2vs0mg"},{"bike_id":"5bff3515-a705-40c8-b65b-c11d89c6d400","system_id":"levelo_inurba_marseille","lat":43.24163,"lon":5.39713,"is_reserved":false,"is_disabled":false,"rental_uris":{"android":"levelo://app?vid=5bff3515-a705-40c8-b65b-c11d89c6d400","ios":"levelo://app?vid=5bff3515-a705-40c8-b65b-c11d89c6d400"},"vehicle_type_id":"4","last_reported":1770049501,"current_range_meters":3600,"station_id":"ce4bhn12rcd13ifvqgpg","pricing_plan_id":"cebpf4jnsgd1na2vs0mg"},{"bike_id":"0398f9ac-4213-4f68-b419-f7bff731c5c6","system_id":"levelo_inurba_marseille","lat":43.33368,"lon":5.43149,"is_reserved":false,"is_disabled":false,"rental_uris":{"android":"levelo://app?vid=0398f9ac-4213-4f68-b419-f7bff731c5c6","ios":"levelo://app?vid=0398f9ac-4213-4f68-b419-f7bff731c5c6"},"vehicle_type_id":"4","last_reported":1770049501,"current_range_meters":3600,"station_id":"","pricing_plan_id":"cebpf4jnsgd1na2vs0mg"},{"bike_id":"ff940f9e-99eb-4f15-85f2-21b193a1af01","system_id":"levelo_inurba_marseille","lat":43.29619,"lon":5.37734,"is_reserved":false,"is_disabled":false,"rental_uris":{"android":"levelo://app?vid=ff940f9e-99eb-4f15-85f2-21b193a1af01","ios":"levelo://app?vid=ff940f9e-99eb-4f15-85f2-21b193a1af01"},"vehicle_type_id":"4","last_reported":1770049501,"current_range_meters":3600,"station_id":"ce4bgi92rcd13ifvqb90","pricing_plan_id":"cebpf4jnsgd1na2vs0mg"},{"bike_id":"637b915d-60b9-4796-9bb5-f9845c8d4a81","system_id":"levelo_inurba_marseille","lat":43.23029,"lon":5.35501,"is_reserved":false,"is_disabled":false,"rental_uris":{"android":"levelo://app?vid=637b915d-60b9-4796-9bb5-f9845c8d4a81","ios":"levelo://app?vid=637b915d-60b9-4796-9bb5-f9845c8d4a81"},"vehicle_type_id":"4","last_reported":1770049501,"current_range_meters":3600,"station_id":"cpo3342slgdg3j2ifvpg","pricing_plan_id":"cebpf4jnsgd1na2vs0mg"},{"bike_id":"d0ce876f-4532-462c-9c29-e674a02453f0","system_id":"levelo_inurba_marseille","lat":43.27374,"lon":5.36226,"is_reserved":false,"is_disabled":false,"rental_uris":{"android":"levelo://app?vid=d0ce876f-4532-462c-9c29-e674a02453f0","ios":"levelo://app?vid=d0ce876f-4532-462c-9c29-e674a02453f0"},"vehicle_type_id":"4","last_reported":1770049501,"current_range_meters":3600,"station_id":"ce4bhbh2rcd13ifvqeo0","pricing_plan_id":"cebpf4jnsgd1na2vs0mg"},{"bike_id":"f9d88a3b-520d-4dec-94f9-4819179415a1","system_id":"levelo_inurba_marseille","lat":43.23965,"lon":5.3665,"is_reserved":false,"is_disabled":false,"rental_uris":{"android":"levelo://app?vid=f9d88a3b-520d-4dec-94f9-4819179415a1","ios":"levelo://app?vid=f9d88a3b-520d-4dec-94f9-4819179415a1"},"vehicle_type_id":"4","last_reported":1770049501,"current_range_meters":3600,"station_id":"ce4bhi12rcd13ifvqfp0","pricing_plan_id":"cebpf4jnsgd1na2vs0mg"},{"bike_id":"64342d69-ab30-4801-8539-fc98ba700298","system_id":"levelo_inurba_marseille","lat":43.24798,"lon":5.3745,"is_reserved":false,"is_disabled":false,"rental_uris":{"android":"levelo://app?vid=64342d69-ab30-4801-8539-fc98ba700298","ios":"levelo://app?vid=64342d69-ab30-4801-8539-fc98ba700298"},"vehicle_type_id":"4","last_reported":1770049501,"current_range_meters":4000,"station_id":"ce4bhgh2rcd13ifvqfb0","pricing_plan_id":"cebpf4jnsgd1na2vs0mg"},{"bike_id":"70aad063-ceac-4b3b-8a1d-80471a1d623b","system_id":"levelo_inurba_marseille","lat":43.23061,"lon":5.35499,"is_reserved":false,"is_disabled":false,"rental_uris":{"android":"levelo://app?vid=70aad063-ceac-4b3b-8a1d-80471a1d623b","ios":"levelo://app?vid=70aad063-ceac-4b3b-8a1d-80471a1d623b"},"vehicle_type_id":"4","last_reported":1770049501,"current_range_meters":4000,"station_id":"cpo3342slgdg3j2ifvpg","pricing_plan_id":"cebpf4jnsgd1na2vs0mg"},{"bike_id":"871c9e40-4061-4bfd-9bb0-0d52106bae15","system_id":"levelo_inurba_marseille","lat":43.29277,"lon":5.40125,"is_reserved":false,"is_disabled":false,"rental_uris":{"android":"levelo://app?vid=871c9e40-4061-4bfd-9bb0-0d52106bae15","ios":"levelo://app?vid=871c9e40-4061-4bfd-9bb0-0d52106bae15"},"vehicle_type_id":"4","last_reported":1770049501,"current_range_meters":4000,"station_id":"ce4bh312rcd13ifvqdk0","pricing_plan_id":"cebpf4jnsgd1na2vs0mg"},{"bike_id":"3145bee7-9947-4048-a6c8-4a6751fb3e81","system_id":"levelo_inurba_marseille","lat":43.255138,"lon":5.376594,"is_reserved":false,"is_disabled":false,"rental_uris":{"android":"levelo://app?vid=3145bee7-9947-4048-a6c8-4a6751fb3e81","ios":"levelo://app?vid=3145bee7-9947-4048-a6c8-4a6751fb3e81"},"vehicle_type_id":"4","last_reported":1770049501,"current_range_meters":4000,"station_id":"ce4bhh12rcd13ifvqff0","pricing_plan_id":"cebpf4jnsgd1na2vs0mg"},{"bike_id":"b327d0f9-e910-4cd3-a345-f7ea449db020","system_id":"levelo_inurba_marseille","lat":43.24398,"lon":5.37066,"is_reserved":false,"is_disabled":false,"rental_uris":{"android":"levelo://app?vid=b327d0f9-e910-4cd3-a345-f7ea449db020","ios":"levelo://app?vid=b327d0f9-e910-4cd3-a345-f7ea449db020"},"vehicle_type_id":"4","last_reported":1770049501,"current_range_meters":4000,"station_id":"ce4bhhh2rcd13ifvqfk0","pricing_plan_id":"cebpf4jnsgd1na2vs0mg"},{"bike_id":"985d8a1f-46ff-45cc-8341-2e3cb5d988f0","system_id":"levelo_inurba_marseille","lat":43.270705,"lon":5.422768,"is_reserved":false,"is_disabled":false,"rental_uris":{"android":"levelo://app?vid=985d8a1f-46ff-45cc-8341-2e3cb5d988f0","ios":"levelo://app?vid=985d8a1f-46ff-45cc-8341-2e3cb5d988f0"},"vehicle_type_id":"4","last_reported":1770049501,"current_range_meters":4000,"station_id":"ce4bhk92rcd13ifvqgb0","pricing_plan_id":"cebpf4jnsgd1na2vs0mg"},{"bike_id":"20f8dacb-5cfb-411b-aac6-04b0743b3a2b","system_id":"levelo_inurba_marseille","lat":43.25662,"lon":5.37633,"is_reserved":false,"is_disabled":false,"rental_uris":{"android":"levelo://app?vid=20f8dacb-5cfb-411b-aac6-04b0743b3a2b","ios":"levelo://app?vid=20f8dacb-5cfb-411b-aac6-04b0743b3a2b"},"vehicle_type_id":"4","last_reported":1770049501,"current_range_meters":4000,"station_id":"","pricing_plan_id":"cebpf4jnsgd1na2vs0mg"},{"bike_id":"8dbcb872-c448-4799-82fc-c68a10ceeb1a","system_id":"levelo_inurba_marseille","lat":43.2708,"lon":5.42279,"is_reserved":false,"is_disabled":false,"rental_uris":{"android":"levelo://app?vid=8dbcb872-c448-4799-82fc-c68a10ceeb1a","ios":"levelo://app?vid=8dbcb872-c448-4799-82fc-c68a10ceeb1a"},"vehicle_type_id":"4","last_reported":1770049501,"current_range_meters":4000,"station_id":"ce4bhk92rcd13ifvqgb0","pricing_plan_id":"cebpf4jnsgd1na2vs0mg"},{"bike_id":"376232b5-fd9d-4a27-a8c8-b8a78b760878","system_id":"levelo_inurba_marseille","lat":43.24176,"lon":5.39743,"is_reserved":false,"is_disabled":false,"rental_uris":{"android":"levelo://app?vid=376232b5-fd9d-4a27-a8c8-b8a78b760878","ios":"levelo://app?vid=376232b5-fd9d-4a27-a8c8-b8a78b760878"},"vehicle_type_id":"4","last_reported":1770049501,"current_range_meters":4400,"station_id":"ce4bhn12rcd13ifvqgpg","pricing_plan_id":"cebpf4jnsgd1na2vs0mg"},{"bike_id":"e76b3d8e-b3d4-4100-9a39-297c53b12c01","system_id":"levelo_inurba_marseille","lat":43.29532,"lon":5.375,"is_reserved":false,"is_disabled":false,"rental_uris":{"android":"levelo://app?vid=e76b3d8e-b3d4-4100-9a39-297c53b12c01","ios":"levelo://app?vid=e76b3d8e-b3d4-4100-9a39-297c53b12c01"},"vehicle_type_id":"4","last_reported":1770049501,"current_range_meters":4400,"station_id":"ce4bgkp2rcd13ifvqbmg","pricing_plan_id":"cebpf4jnsgd1na2vs0mg"},{"bike_id":"a1f01d0e-daec-4baf-acde-adf9612a1a61","system_id":"levelo_inurba_marseille","lat":43.265825,"lon":5.390315,"is_reserved":false,"is_disabled":false,"rental_uris":{"android":"levelo://app?vid=a1f01d0e-daec-4baf-acde-adf9612a1a61","ios":"levelo://app?vid=a1f01d0e-daec-4baf-acde-adf9612a1a61"},"vehicle_type_id":"4","last_reported":1770049501,"current_range_meters":4400,"station_id":"ce4bhe12rcd13ifvqf30","pricing_plan_id":"cebpf4jnsgd1na2vs0mg"},{"bike_id":"a6ab1dbd-7d2f-441a-88b2-8e2bc94dc087","system_id":"levelo_inurba_marseille","lat":43.24986,"lon":5.38961,"is_reserved":false,"is_disabled":false,"rental_uris":{"android":"levelo://app?vid=a6ab1dbd-7d2f-441a-88b2-8e2bc94dc087","ios":"levelo://app?vid=a6ab1dbd-7d2f-441a-88b2-8e2bc94dc087"},"vehicle_type_id":"4","last_reported":1770049501,"current_range_meters":4400,"station_id":"ce4bhgp2rcd13ifvqfd0","pricing_plan_id":"cebpf4jnsgd1na2vs0mg"},{"bike_id":"1f26521f-96c7-4695-a6b6-cd40543db4db","system_id":"levelo_inurba_marseille","lat":43.24024,"lon":5.37787,"is_reserved":false,"is_disabled":true,"rental_uris":{"android":"levelo://app?vid=1f26521f-96c7-4695-a6b6-cd40543db4db","ios":"levelo://app?vid=1f26521f-96c7-4695-a6b6-cd40543db4db"},"vehicle_type_id":"4","last_reported":1770049501,"current_range_meters":4400,"station_id":"ce4bhnp2rcd13ifvqgvg","pricing_plan_id":"cebpf4jnsgd1na2vs0mg"},{"bike_id":"79812d79-066c-4d3c-91f1-ee83530e917c","system_id":"levelo_inurba_marseille","lat":43.24081,"lon":5.37731,"is_reserved":false,"is_disabled":false,"rental_uris":{"android":"levelo://app?vid=79812d79-066c-4d3c-91f1-ee83530e917c","ios":"levelo://app?vid=79812d79-066c-4d3c-91f1-ee83530e917c"},"vehicle_type_id":"4","last_reported":1770049501,"current_range_meters":4400,"station_id":"ce4bhnp2rcd13ifvqgvg","pricing_plan_id":"cebpf4jnsgd1na2vs0mg"},{"bike_id":"15e6d019-3403-4dba-a8b7-1ced23eb3314","system_id":"levelo_inurba_marseille","lat":43.30144,"lon":5.38134,"is_reserved":false,"is_disabled":false,"rental_uris":{"android":"levelo://app?vid=15e6d019-3403-4dba-a8b7-1ced23eb3314","ios":"levelo://app?vid=15e6d019-3403-4dba-a8b7-1ced23eb3314"},"vehicle_type_id":"4","last_reported":1770049501,"current_range_meters":4400,"station_id":"ce4bgjp2rcd13ifvqbh0","pricing_plan_id":"cebpf4jnsgd1na2vs0mg"},{"bike_id":"11a4253c-c87d-43fc-b4fa-6f18163ba935","system_id":"levelo_inurba_marseille","lat":43.28498,"lon":5.48377,"is_reserved":false,"is_disabled":false,"rental_uris":{"android":"levelo://app?vid=11a4253c-c87d-43fc-b4fa-6f18163ba935","ios":"levelo://app?vid=11a4253c-c87d-43fc-b4fa-6f18163ba935"},"vehicle_type_id":"4","last_reported":1770049501,"current_range_meters":4400,"station_id":"st_d3svhcjqgbts73a3dn0g","pricing_plan_id":"cebpf4jnsgd1na2vs0mg"},{"bike_id":"768f9509-0c5e-4bbb-8d87-02aae8a1cda6","system_id":"levelo_inurba_marseille","lat":43.27998,"lon":5.40013,"is_reserved":false,"is_disabled":false,"rental_uris":{"android":"levelo://app?vid=768f9509-0c5e-4bbb-8d87-02aae8a1cda6","ios":"levelo://app?vid=768f9509-0c5e-4bbb-8d87-02aae8a1cda6"},"vehicle_type_id":"4","last_reported":1770049501,"current_range_meters":4800,"station_id":"ce4bho92rcd13ifvqh4g","pricing_plan_id":"cebpf4jnsgd1na2vs0mg"},{"bike_id":"dcb091f3-e36e-4bdb-aafe-e88b34e670d1","system_id":"levelo_inurba_marseille","lat":43.29968,"lon":5.37165,"is_reserved":false,"is_disabled":false,"rental_uris":{"android":"levelo://app?vid=dcb091f3-e36e-4bdb-aafe-e88b34e670d1","ios":"levelo://app?vid=dcb091f3-e36e-4bdb-aafe-e88b34e670d1"},"vehicle_type_id":"4","last_reported":1770049501,"current_range_meters":4800,"station_id":"ce4bgr92rcd13ifvqc7g","pricing_plan_id":"cebpf4jnsgd1na2vs0mg"},{"bike_id":"15285b76-e89c-4253-a87a-a7346641cc09","system_id":"levelo_inurba_marseille","lat":43.255793,"lon":5.382363,"is_reserved":false,"is_disabled":false,"rental_uris":{"android":"levelo://app?vid=15285b76-e89c-4253-a87a-a7346641cc09","ios":"levelo://app?vid=15285b76-e89c-4253-a87a-a7346641cc09"},"vehicle_type_id":"4","last_reported":1770049501,"current_range_meters":4800,"station_id":"ce4bhih2rcd13ifvqfs0","pricing_plan_id":"cebpf4jnsgd1na2vs0mg"},{"bike_id":"61d232a6-c72b-43f7-8d84-c786e5f463d1","system_id":"levelo_inurba_marseille","lat":43.25931,"lon":5.40898,"is_reserved":false,"is_disabled":false,"rental_uris":{"android":"levelo://app?vid=61d232a6-c72b-43f7-8d84-c786e5f463d1","ios":"levelo://app?vid=61d232a6-c72b-43f7-8d84-c786e5f463d1"},"vehicle_type_id":"4","last_reported":1770049501,"current_range_meters":4800,"station_id":"ce4bhm92rcd13ifvqglg","pricing_plan_id":"cebpf4jnsgd1na2vs0mg"},{"bike_id":"f92823b8-4fef-4833-b634-08b82223de18","system_id":"levelo_inurba_marseille","lat":43.23184,"lon":5.4,"is_reserved":false,"is_disabled":false,"rental_uris":{"android":"levelo://app?vid=f92823b8-4fef-4833-b634-08b82223de18","ios":"levelo://app?vid=f92823b8-4fef-4833-b634-08b82223de18"},"vehicle_type_id":"4","last_reported":1770049501,"current_range_meters":4800,"station_id":"ce4bhn12rcd13ifvqgqg","pricing_plan_id":"cebpf4jnsgd1na2vs0mg"},{"bike_id":"6d4ac9d4-af8e-4046-bd58-59535834f4bf","system_id":"levelo_inurba_marseille","lat":43.292664,"lon":5.384413,"is_reserved":false,"is_disabled":false,"rental_uris":{"android":"levelo://app?vid=6d4ac9d4-af8e-4046-bd58-59535834f4bf","ios":"levelo://app?vid=6d4ac9d4-af8e-4046-bd58-59535834f4bf"},"vehicle_type_id":"4","last_reported":1770049501,"current_range_meters":4800,"station_id":"ce4bh692rcd13ifvqea0","pricing_plan_id":"cebpf4jnsgd1na2vs0mg"},{"bike_id":"e96133eb-f771-40b1-ae3b-574adab8fad6","system_id":"levelo_inurba_marseille","lat":43.27989,"lon":5.40009,"is_reserved":false,"is_disabled":false,"rental_uris":{"android":"levelo://app?vid=e96133eb-f771-40b1-ae3b-574adab8fad6","ios":"levelo://app?vid=e96133eb-f771-40b1-ae3b-574adab8fad6"},"vehicle_type_id":"4","last_reported":1770049501,"current_range_meters":4800,"station_id":"ce4bho92rcd13ifvqh4g","pricing_plan_id":"cebpf4jnsgd1na2vs0mg"},{"bike_id":"b99b10f6-8e3e-4388-ba1e-ff0fbb9d307c","system_id":"levelo_inurba_marseille","lat":43.29267,"lon":5.38431,"is_reserved":false,"is_disabled":false,"rental_uris":{"android":"levelo://app?vid=b99b10f6-8e3e-4388-ba1e-ff0fbb9d307c","ios":"levelo://app?vid=b99b10f6-8e3e-4388-ba1e-ff0fbb9d307c"},"vehicle_type_id":"4","last_reported":1770049501,"current_range_meters":4800,"station_id":"ce4bh692rcd13ifvqea0","pricing_plan_id":"cebpf4jnsgd1na2vs0mg"},{"bike_id":"a745f489-a7bf-40f7-81de-9106d9232223","system_id":"levelo_inurba_marseille","lat":43.24659,"lon":5.38161,"is_reserved":false,"is_disabled":false,"rental_uris":{"android":"levelo://app?vid=a745f489-a7bf-40f7-81de-9106d9232223","ios":"levelo://app?vid=a745f489-a7bf-40f7-81de-9106d9232223"},"vehicle_type_id":"4","last_reported":1770049501,"current_range_meters":4800,"station_id":"ce4bhih2rcd13ifvqfr0","pricing_plan_id":"cebpf4jnsgd1na2vs0mg"},{"bike_id":"edb2a38a-0f7b-4f75-8317-5929dc8c23b3","system_id":"levelo_inurba_marseille","lat":43.30434,"lon":5.38893,"is_reserved":false,"is_disabled":false,"rental_uris":{"android":"levelo://app?vid=edb2a38a-0f7b-4f75-8317-5929dc8c23b3","ios":"levelo://app?vid=edb2a38a-0f7b-4f75-8317-5929dc8c23b3"},"vehicle_type_id":"4","last_reported":1770049501,"current_range_meters":4800,"station_id":"ce4bgk12rcd13ifvqbi0","pricing_plan_id":"cebpf4jnsgd1na2vs0mg"},{"bike_id":"316d01e5-5402-4cbf-b1de-c33a11a130eb","system_id":"levelo_inurba_marseille","lat":43.24546,"lon":5.39525,"is_reserved":false,"is_disabled":false,"rental_uris":{"android":"levelo://app?vid=316d01e5-5402-4cbf-b1de-c33a11a130eb","ios":"levelo://app?vid=316d01e5-5402-4cbf-b1de-c33a11a130eb"},"vehicle_type_id":"4","last_reported":1770049501,"current_range_meters":4800,"station_id":"ce4bhlp2rcd13ifvqgjg","pricing_plan_id":"cebpf4jnsgd1na2vs0mg"},{"bike_id":"b551279e-3d11-4a8f-9fcb-4f7542054fbd","system_id":"levelo_inurba_marseille","lat":43.30933,"lon":5.40148,"is_reserved":false,"is_disabled":false,"rental_uris":{"android":"levelo://app?vid=b551279e-3d11-4a8f-9fcb-4f7542054fbd","ios":"levelo://app?vid=b551279e-3d11-4a8f-9fcb-4f7542054fbd"},"vehicle_type_id":"4","last_reported":1770049501,"current_range_meters":4800,"station_id":"ce4bgvp2rcd13ifvqct0","pricing_plan_id":"cebpf4jnsgd1na2vs0mg"},{"bike_id":"0830e9a7-a744-43b1-8872-2a8033326e31","system_id":"levelo_inurba_marseille","lat":43.24043,"lon":5.37682,"is_reserved":false,"is_disabled":false,"rental_uris":{"android":"levelo://app?vid=0830e9a7-a744-43b1-8872-2a8033326e31","ios":"levelo://app?vid=0830e9a7-a744-43b1-8872-2a8033326e31"},"vehicle_type_id":"4","last_reported":1770049501,"current_range_meters":5600,"station_id":"","pricing_plan_id":"cebpf4jnsgd1na2vs0mg"},{"bike_id":"7dc2a1e8-974b-463d-a338-e81bb99bcbab","system_id":"levelo_inurba_marseille","lat":43.29555,"lon":5.42298,"is_reserved":false,"is_disabled":false,"rental_uris":{"android":"levelo://app?vid=7dc2a1e8-974b-463d-a338-e81bb99bcbab","ios":"levelo://app?vid=7dc2a1e8-974b-463d-a338-e81bb99bcbab"},"vehicle_type_id":"4","last_reported":1770049501,"current_range_meters":5600,"station_id":"ce4bhph2rcd13ifvqhdg","pricing_plan_id":"cebpf4jnsgd1na2vs0mg"},{"bike_id":"caec583a-6768-49bf-a58a-63877e3b3870","system_id":"levelo_inurba_marseille","lat":43.24068,"lon":5.36374,"is_reserved":false,"is_disabled":false,"rental_uris":{"android":"levelo://app?vid=caec583a-6768-49bf-a58a-63877e3b3870","ios":"levelo://app?vid=caec583a-6768-49bf-a58a-63877e3b3870"},"vehicle_type_id":"4","last_reported":1770049501,"current_range_meters":5600,"station_id":"","pricing_plan_id":"cebpf4jnsgd1na2vs0mg"},{"bike_id":"33cfd768-2ed8-4c90-a060-322f7c560d2a","system_id":"levelo_inurba_marseille","lat":43.24817,"lon":5.38466,"is_reserved":false,"is_disabled":false,"rental_uris":{"android":"levelo://app?vid=33cfd768-2ed8-4c90-a060-322f7c560d2a","ios":"levelo://app?vid=33cfd768-2ed8-4c90-a060-322f7c560d2a"},"vehicle_type_id":"4","last_reported":1770049501,"current_range_meters":5600,"station_id":"","pricing_plan_id":"cebpf4jnsgd1na2vs0mg"},{"bike_id":"c20ed702-3481-4da1-8980-6cf2971f3757","system_id":"levelo_inurba_marseille","lat":43.28476,"lon":5.48398,"is_reserved":false,"is_disabled":false,"rental_uris":{"android":"levelo://app?vid=c20ed702-3481-4da1-8980-6cf2971f3757","ios":"levelo://app?vid=c20ed702-3481-4da1-8980-6cf2971f3757"},"vehicle_type_id":"4","last_reported":1770049501,"current_range_meters":5600,"station_id":"st_d3svhcjqgbts73a3dn0g","pricing_plan_id":"cebpf4jnsgd1na2vs0mg"},{"bike_id":"f8b90001-ffd3-489f-9646-3ea4d3953b76","system_id":"levelo_inurba_marseille","lat":43.27812,"lon":5.4072,"is_reserved":false,"is_disabled":false,"rental_uris":{"android":"levelo://app?vid=f8b90001-ffd3-489f-9646-3ea4d3953b76","ios":"levelo://app?vid=f8b90001-ffd3-489f-9646-3ea4d3953b76"},"vehicle_type_id":"4","last_reported":1770049501,"current_range_meters":5600,"station_id":"ce4bhnh2rcd13ifvqgtg","pricing_plan_id":"cebpf4jnsgd1na2vs0mg"},{"bike_id":"c08fb5ce-410b-4e3b-bd2b-37b604cc356e","system_id":"levelo_inurba_marseille","lat":43.309307,"lon":5.401413,"is_reserved":false,"is_disabled":false,"rental_uris":{"android":"levelo://app?vid=c08fb5ce-410b-4e3b-bd2b-37b604cc356e","ios":"levelo://app?vid=c08fb5ce-410b-4e3b-bd2b-37b604cc356e"},"vehicle_type_id":"4","last_reported":1770049501,"current_range_meters":5600,"station_id":"","pricing_plan_id":"cebpf4jnsgd1na2vs0mg"},{"bike_id":"0fbb3e48-8fb8-4e34-92ba-1d9d357af618","system_id":"levelo_inurba_marseille","lat":43.300967,"lon":5.390741,"is_reserved":false,"is_disabled":false,"rental_uris":{"android":"levelo://app?vid=0fbb3e48-8fb8-4e34-92ba-1d9d357af618","ios":"levelo://app?vid=0fbb3e48-8fb8-4e34-92ba-1d9d357af618"},"vehicle_type_id":"4","last_reported":1770049501,"current_range_meters":5600,"station_id":"ce4bh192rcd13ifvqdb0","pricing_plan_id":"cebpf4jnsgd1na2vs0mg"},{"bike_id":"8627f7e3-95b0-48aa-8d02-4dad162dfa1b","system_id":"levelo_inurba_marseille","lat":43.26557,"lon":5.37295,"is_reserved":false,"is_disabled":false,"rental_uris":{"android":"levelo://app?vid=8627f7e3-95b0-48aa-8d02-4dad162dfa1b","ios":"levelo://app?vid=8627f7e3-95b0-48aa-8d02-4dad162dfa1b"},"vehicle_type_id":"4","last_reported":1770049501,"current_range_meters":5600,"station_id":"ce4bhg12rcd13ifvqf70","pricing_plan_id":"cebpf4jnsgd1na2vs0mg"},{"bike_id":"f9dfcac1-eeee-44a9-84ce-d1427d4e1c1f","system_id":"levelo_inurba_marseille","lat":43.26777,"lon":5.39421,"is_reserved":false,"is_disabled":false,"rental_uris":{"android":"levelo://app?vid=f9dfcac1-eeee-44a9-84ce-d1427d4e1c1f","ios":"levelo://app?vid=f9dfcac1-eeee-44a9-84ce-d1427d4e1c1f"},"vehicle_type_id":"4","last_reported":1770049501,"current_range_meters":5600,"station_id":"ce4bhh12rcd13ifvqfg0","pricing_plan_id":"cebpf4jnsgd1na2vs0mg"},{"bike_id":"41cb7f17-2a96-4bf8-95f4-668658df83d5","system_id":"levelo_inurba_marseille","lat":43.28927,"lon":5.38388,"is_reserved":false,"is_disabled":false,"rental_uris":{"android":"levelo://app?vid=41cb7f17-2a96-4bf8-95f4-668658df83d5","ios":"levelo://app?vid=41cb7f17-2a96-4bf8-95f4-668658df83d5"},"vehicle_type_id":"4","last_reported":1770049501,"current_range_meters":5600,"station_id":"ce4bh612rcd13ifvqe6g","pricing_plan_id":"cebpf4jnsgd1na2vs0mg"},{"bike_id":"a688c20c-c1fc-427b-95f8-09d787e81d38","system_id":"levelo_inurba_marseille","lat":43.23159,"lon":5.4371,"is_reserved":false,"is_disabled":false,"rental_uris":{"android":"levelo://app?vid=a688c20c-c1fc-427b-95f8-09d787e81d38","ios":"levelo://app?vid=a688c20c-c1fc-427b-95f8-09d787e81d38"},"vehicle_type_id":"4","last_reported":1770049501,"current_range_meters":5600,"station_id":"ce4bhmp2rcd13ifvqgog","pricing_plan_id":"cebpf4jnsgd1na2vs0mg"},{"bike_id":"a11da527-e2ca-400d-9dd3-5e4bdf369646","system_id":"levelo_inurba_marseille","lat":43.28095,"lon":5.37841,"is_reserved":false,"is_disabled":false,"rental_uris":{"android":"levelo://app?vid=a11da527-e2ca-400d-9dd3-5e4bdf369646","ios":"levelo://app?vid=a11da527-e2ca-400d-9dd3-5e4bdf369646"},"vehicle_type_id":"4","last_reported":1770049501,"current_range_meters":5600,"station_id":"ce4bha12rcd13ifvqee0","pricing_plan_id":"cebpf4jnsgd1na2vs0mg"},{"bike_id":"079547f6-9ece-4634-a325-d80c601692e4","system_id":"levelo_inurba_marseille","lat":43.27368,"lon":5.36264,"is_reserved":false,"is_disabled":false,"rental_uris":{"android":"levelo://app?vid=079547f6-9ece-4634-a325-d80c601692e4","ios":"levelo://app?vid=079547f6-9ece-4634-a325-d80c601692e4"},"vehicle_type_id":"4","last_reported":1770049501,"current_range_meters":5600,"station_id":"ce4bhbh2rcd13ifvqeo0","pricing_plan_id":"cebpf4jnsgd1na2vs0mg"},{"bike_id":"c266ef69-6db6-403b-bc66-e28d169430e3","system_id":"levelo_inurba_marseille","lat":43.24391,"lon":5.37077,"is_reserved":false,"is_disabled":false,"rental_uris":{"android":"levelo://app?vid=c266ef69-6db6-403b-bc66-e28d169430e3","ios":"levelo://app?vid=c266ef69-6db6-403b-bc66-e28d169430e3"},"vehicle_type_id":"4","last_reported":1770049501,"current_range_meters":5600,"station_id":"ce4bhhh2rcd13ifvqfk0","pricing_plan_id":"cebpf4jnsgd1na2vs0mg"},{"bike_id":"7e8ce13a-d5d2-43d6-b821-ba3c9c440f78","system_id":"levelo_inurba_marseille","lat":43.31365,"lon":5.36706,"is_reserved":false,"is_disabled":false,"rental_uris":{"android":"levelo://app?vid=7e8ce13a-d5d2-43d6-b821-ba3c9c440f78","ios":"levelo://app?vid=7e8ce13a-d5d2-43d6-b821-ba3c9c440f78"},"vehicle_type_id":"4","last_reported":1770049501,"current_range_meters":6000,"station_id":"ce4bgr92rcd13ifvqc6g","pricing_plan_id":"cebpf4jnsgd1na2vs0mg"},{"bike_id":"1b204181-222d-4067-86e4-48096500f801","system_id":"levelo_inurba_marseille","lat":43.29284,"lon":5.37139,"is_reserved":false,"is_disabled":false,"rental_uris":{"android":"levelo://app?vid=1b204181-222d-4067-86e4-48096500f801","ios":"levelo://app?vid=1b204181-222d-4067-86e4-48096500f801"},"vehicle_type_id":"4","last_reported":1770049501,"current_range_meters":6000,"station_id":"ce4bgh92rcd13ifvqb40","pricing_plan_id":"cebpf4jnsgd1na2vs0mg"},{"bike_id":"3b2a0495-d056-4726-ad48-0a57214f6b42","system_id":"levelo_inurba_marseille","lat":43.3123,"lon":5.36846,"is_reserved":false,"is_disabled":false,"rental_uris":{"android":"levelo://app?vid=3b2a0495-d056-4726-ad48-0a57214f6b42","ios":"levelo://app?vid=3b2a0495-d056-4726-ad48-0a57214f6b42"},"vehicle_type_id":"4","last_reported":1770049501,"current_range_meters":6000,"station_id":"ce4bgl92rcd13ifvqbq0","pricing_plan_id":"cebpf4jnsgd1na2vs0mg"},{"bike_id":"e9aa3b92-3aba-4ae3-8119-395c95a0d91b","system_id":"levelo_inurba_marseille","lat":43.24397,"lon":5.37073,"is_reserved":false,"is_disabled":false,"rental_uris":{"android":"levelo://app?vid=e9aa3b92-3aba-4ae3-8119-395c95a0d91b","ios":"levelo://app?vid=e9aa3b92-3aba-4ae3-8119-395c95a0d91b"},"vehicle_type_id":"4","last_reported":1770049501,"current_range_meters":6000,"station_id":"ce4bhhh2rcd13ifvqfk0","pricing_plan_id":"cebpf4jnsgd1na2vs0mg"},{"bike_id":"e22e1f26-0b48-4184-a7ce-d50ac63de7a5","system_id":"levelo_inurba_marseille","lat":43.22559,"lon":5.41632,"is_reserved":false,"is_disabled":false,"rental_uris":{"android":"levelo://app?vid=e22e1f26-0b48-4184-a7ce-d50ac63de7a5","ios":"levelo://app?vid=e22e1f26-0b48-4184-a7ce-d50ac63de7a5"},"vehicle_type_id":"4","last_reported":1770049501,"current_range_meters":6000,"station_id":"st_d2o4gvlbi1j2169b742g","pricing_plan_id":"cebpf4jnsgd1na2vs0mg"},{"bike_id":"8cb17e9d-6956-4db9-870e-851f50514412","system_id":"levelo_inurba_marseille","lat":43.32119,"lon":5.36756,"is_reserved":false,"is_disabled":false,"rental_uris":{"android":"levelo://app?vid=8cb17e9d-6956-4db9-870e-851f50514412","ios":"levelo://app?vid=8cb17e9d-6956-4db9-870e-851f50514412"},"vehicle_type_id":"4","last_reported":1770049501,"current_range_meters":6000,"station_id":"ce4bhrh2rcd13ifvqhug","pricing_plan_id":"cebpf4jnsgd1na2vs0mg"},{"bike_id":"56a4d0be-bbc8-4231-9fe6-eff4b0a1d827","system_id":"levelo_inurba_marseille","lat":43.2721,"lon":5.39185,"is_reserved":false,"is_disabled":false,"rental_uris":{"android":"levelo://app?vid=56a4d0be-bbc8-4231-9fe6-eff4b0a1d827","ios":"levelo://app?vid=56a4d0be-bbc8-4231-9fe6-eff4b0a1d827"},"vehicle_type_id":"4","last_reported":1770049501,"current_range_meters":6000,"station_id":"ce4bhhp2rcd13ifvqfm0","pricing_plan_id":"cebpf4jnsgd1na2vs0mg"},{"bike_id":"56421f3f-ab50-4688-9d91-461a5a4dc039","system_id":"levelo_inurba_marseille","lat":43.29938,"lon":5.36549,"is_reserved":false,"is_disabled":false,"rental_uris":{"android":"levelo://app?vid=56421f3f-ab50-4688-9d91-461a5a4dc039","ios":"levelo://app?vid=56421f3f-ab50-4688-9d91-461a5a4dc039"},"vehicle_type_id":"4","last_reported":1770049501,"current_range_meters":6000,"station_id":"ce4bgm92rcd13ifvqbr0","pricing_plan_id":"cebpf4jnsgd1na2vs0mg"},{"bike_id":"0c37f209-4da2-456d-badb-27f46c6c7d3c","system_id":"levelo_inurba_marseille","lat":43.303125,"lon":5.368973,"is_reserved":false,"is_disabled":false,"rental_uris":{"android":"levelo://app?vid=0c37f209-4da2-456d-badb-27f46c6c7d3c","ios":"levelo://app?vid=0c37f209-4da2-456d-badb-27f46c6c7d3c"},"vehicle_type_id":"4","last_reported":1770049501,"current_range_meters":6000,"station_id":"ce4bgqh2rcd13ifvqc5g","pricing_plan_id":"cebpf4jnsgd1na2vs0mg"},{"bike_id":"424d0d3d-de1c-4125-82ac-0faa3cd4c48d","system_id":"levelo_inurba_marseille","lat":43.30878,"lon":5.37144,"is_reserved":false,"is_disabled":false,"rental_uris":{"android":"levelo://app?vid=424d0d3d-de1c-4125-82ac-0faa3cd4c48d","ios":"levelo://app?vid=424d0d3d-de1c-4125-82ac-0faa3cd4c48d"},"vehicle_type_id":"4","last_reported":1770049501,"current_range_meters":6000,"station_id":"ce4bguh2rcd13ifvqckg","pricing_plan_id":"cebpf4jnsgd1na2vs0mg"},{"bike_id":"cbe5f632-f95e-4ffb-9f92-e743ffab6e3e","system_id":"levelo_inurba_marseille","lat":43.28867,"lon":5.42515,"is_reserved":false,"is_disabled":false,"rental_uris":{"android":"levelo://app?vid=cbe5f632-f95e-4ffb-9f92-e743ffab6e3e","ios":"levelo://app?vid=cbe5f632-f95e-4ffb-9f92-e743ffab6e3e"},"vehicle_type_id":"4","last_reported":1770049501,"current_range_meters":6000,"station_id":"st_d3b462108ojc7389ooeg","pricing_plan_id":"cebpf4jnsgd1na2vs0mg"},{"bike_id":"ea661064-3ae5-4d6b-a32a-51c2bc3bcb30","system_id":"levelo_inurba_marseille","lat":43.32495,"lon":5.38303,"is_reserved":false,"is_disabled":false,"rental_uris":{"android":"levelo://app?vid=ea661064-3ae5-4d6b-a32a-51c2bc3bcb30","ios":"levelo://app?vid=ea661064-3ae5-4d6b-a32a-51c2bc3bcb30"},"vehicle_type_id":"4","last_reported":1770049501,"current_range_meters":6400,"station_id":"st_d4asgbiv49dc73anf9m0","pricing_plan_id":"cebpf4jnsgd1na2vs0mg"},{"bike_id":"e9a8ad83-a2d5-4795-8073-fda176633ed6","system_id":"levelo_inurba_marseille","lat":43.26696,"lon":5.3827,"is_reserved":false,"is_disabled":false,"rental_uris":{"android":"levelo://app?vid=e9a8ad83-a2d5-4795-8073-fda176633ed6","ios":"levelo://app?vid=e9a8ad83-a2d5-4795-8073-fda176633ed6"},"vehicle_type_id":"4","last_reported":1770049501,"current_range_meters":6400,"station_id":"ce4bhg92rcd13ifvqf90","pricing_plan_id":"cebpf4jnsgd1na2vs0mg"},{"bike_id":"886d4339-cd62-4942-9dfe-c188edbba93b","system_id":"levelo_inurba_marseille","lat":43.30127,"lon":5.37399,"is_reserved":false,"is_disabled":false,"rental_uris":{"android":"levelo://app?vid=886d4339-cd62-4942-9dfe-c188edbba93b","ios":"levelo://app?vid=886d4339-cd62-4942-9dfe-c188edbba93b"},"vehicle_type_id":"4","last_reported":1770049501,"current_range_meters":6400,"station_id":"ce4bgs92rcd13ifvqcc0","pricing_plan_id":"cebpf4jnsgd1na2vs0mg"},{"bike_id":"ccb5d46a-ecff-465a-9ac7-27ecb353316f","system_id":"levelo_inurba_marseille","lat":43.30536,"lon":5.36533,"is_reserved":false,"is_disabled":false,"rental_uris":{"android":"levelo://app?vid=ccb5d46a-ecff-465a-9ac7-27ecb353316f","ios":"levelo://app?vid=ccb5d46a-ecff-465a-9ac7-27ecb353316f"},"vehicle_type_id":"4","last_reported":1770049501,"current_range_meters":6400,"station_id":"ce4bgs12rcd13ifvqcag","pricing_plan_id":"cebpf4jnsgd1na2vs0mg"},{"bike_id":"188acf9b-b4f8-4561-a983-bf06deab80cd","system_id":"levelo_inurba_marseille","lat":43.2844,"lon":5.39208,"is_reserved":false,"is_disabled":false,"rental_uris":{"android":"levelo://app?vid=188acf9b-b4f8-4561-a983-bf06deab80cd","ios":"levelo://app?vid=188acf9b-b4f8-4561-a983-bf06deab80cd"},"vehicle_type_id":"4","last_reported":1770049501,"current_range_meters":6400,"station_id":"ce4bhoh2rcd13ifvqh5g","pricing_plan_id":"cebpf4jnsgd1na2vs0mg"},{"bike_id":"437958b3-1fc1-421f-a410-c2cb6fec2333","system_id":"levelo_inurba_marseille","lat":43.248048,"lon":5.374524,"is_reserved":false,"is_disabled":false,"rental_uris":{"android":"levelo://app?vid=437958b3-1fc1-421f-a410-c2cb6fec2333","ios":"levelo://app?vid=437958b3-1fc1-421f-a410-c2cb6fec2333"},"vehicle_type_id":"4","last_reported":1770049501,"current_range_meters":6400,"station_id":"ce4bhgh2rcd13ifvqfb0","pricing_plan_id":"cebpf4jnsgd1na2vs0mg"},{"bike_id":"e25162d3-4d5d-419d-b20d-2ec1bcdee6fb","system_id":"levelo_inurba_marseille","lat":43.310571,"lon":5.37182,"is_reserved":false,"is_disabled":false,"rental_uris":{"android":"levelo://app?vid=e25162d3-4d5d-419d-b20d-2ec1bcdee6fb","ios":"levelo://app?vid=e25162d3-4d5d-419d-b20d-2ec1bcdee6fb"},"vehicle_type_id":"4","last_reported":1770049501,"current_range_meters":6400,"station_id":"st_d4kl2rp97mjs73e7tdfg","pricing_plan_id":"cebpf4jnsgd1na2vs0mg"},{"bike_id":"fda17309-67c6-493d-a11a-fed18f5561b2","system_id":"levelo_inurba_marseille","lat":43.25002,"lon":5.38934,"is_reserved":false,"is_disabled":false,"rental_uris":{"android":"levelo://app?vid=fda17309-67c6-493d-a11a-fed18f5561b2","ios":"levelo://app?vid=fda17309-67c6-493d-a11a-fed18f5561b2"},"vehicle_type_id":"4","last_reported":1770049501,"current_range_meters":6400,"station_id":"ce4bhgp2rcd13ifvqfd0","pricing_plan_id":"cebpf4jnsgd1na2vs0mg"},{"bike_id":"dc8b8f8d-3b68-40cb-9565-8f7614c37d7f","system_id":"levelo_inurba_marseille","lat":43.255774,"lon":5.382299,"is_reserved":false,"is_disabled":false,"rental_uris":{"android":"levelo://app?vid=dc8b8f8d-3b68-40cb-9565-8f7614c37d7f","ios":"levelo://app?vid=dc8b8f8d-3b68-40cb-9565-8f7614c37d7f"},"vehicle_type_id":"4","last_reported":1770049501,"current_range_meters":6400,"station_id":"ce4bhih2rcd13ifvqfs0","pricing_plan_id":"cebpf4jnsgd1na2vs0mg"},{"bike_id":"9670f546-c2d1-40b6-bcbf-3e4dd6699e99","system_id":"levelo_inurba_marseille","lat":43.249973,"lon":5.38931,"is_reserved":false,"is_disabled":false,"rental_uris":{"android":"levelo://app?vid=9670f546-c2d1-40b6-bcbf-3e4dd6699e99","ios":"levelo://app?vid=9670f546-c2d1-40b6-bcbf-3e4dd6699e99"},"vehicle_type_id":"4","last_reported":1770049501,"current_range_meters":6400,"station_id":"ce4bhgp2rcd13ifvqfd0","pricing_plan_id":"cebpf4jnsgd1na2vs0mg"},{"bike_id":"be01af6e-dc7b-4da1-a322-51dbdb358b73","system_id":"levelo_inurba_marseille","lat":43.29628,"lon":5.40629,"is_reserved":false,"is_disabled":false,"rental_uris":{"android":"levelo://app?vid=be01af6e-dc7b-4da1-a322-51dbdb358b73","ios":"levelo://app?vid=be01af6e-dc7b-4da1-a322-51dbdb358b73"},"vehicle_type_id":"4","last_reported":1770049501,"current_range_meters":6400,"station_id":"ce4bh0h2rcd13ifvqd60","pricing_plan_id":"cebpf4jnsgd1na2vs0mg"},{"bike_id":"b3a54eab-b946-460c-8d1b-dbc0ce5bc3c5","system_id":"levelo_inurba_marseille","lat":43.28158,"lon":5.42638,"is_reserved":false,"is_disabled":false,"rental_uris":{"android":"levelo://app?vid=b3a54eab-b946-460c-8d1b-dbc0ce5bc3c5","ios":"levelo://app?vid=b3a54eab-b946-460c-8d1b-dbc0ce5bc3c5"},"vehicle_type_id":"4","last_reported":1770049501,"current_range_meters":6400,"station_id":"ce4bhnh2rcd13ifvqgug","pricing_plan_id":"cebpf4jnsgd1na2vs0mg"},{"bike_id":"325d9984-4029-4d00-8c76-8002734e01d5","system_id":"levelo_inurba_marseille","lat":43.28044,"lon":5.36964,"is_reserved":false,"is_disabled":false,"rental_uris":{"android":"levelo://app?vid=325d9984-4029-4d00-8c76-8002734e01d5","ios":"levelo://app?vid=325d9984-4029-4d00-8c76-8002734e01d5"},"vehicle_type_id":"4","last_reported":1770049501,"current_range_meters":6800,"station_id":"ce4bha12rcd13ifvqef0","pricing_plan_id":"cebpf4jnsgd1na2vs0mg"},{"bike_id":"81675ce0-40e0-484f-b5d0-d332c2114be4","system_id":"levelo_inurba_marseille","lat":43.26775,"lon":5.39424,"is_reserved":false,"is_disabled":false,"rental_uris":{"android":"levelo://app?vid=81675ce0-40e0-484f-b5d0-d332c2114be4","ios":"levelo://app?vid=81675ce0-40e0-484f-b5d0-d332c2114be4"},"vehicle_type_id":"4","last_reported":1770049501,"current_range_meters":6800,"station_id":"ce4bhh12rcd13ifvqfg0","pricing_plan_id":"cebpf4jnsgd1na2vs0mg"},{"bike_id":"65360463-eb01-4022-ae2d-b7068f89f497","system_id":"levelo_inurba_marseille","lat":43.30141,"lon":5.38784,"is_reserved":false,"is_disabled":false,"rental_uris":{"android":"levelo://app?vid=65360463-eb01-4022-ae2d-b7068f89f497","ios":"levelo://app?vid=65360463-eb01-4022-ae2d-b7068f89f497"},"vehicle_type_id":"4","last_reported":1770049501,"current_range_meters":6800,"station_id":"ce4bghh2rcd13ifvqb60","pricing_plan_id":"cebpf4jnsgd1na2vs0mg"},{"bike_id":"498925b7-5c1b-4bf1-a053-60e9a71a743b","system_id":"levelo_inurba_marseille","lat":43.29524,"lon":5.3751,"is_reserved":false,"is_disabled":false,"rental_uris":{"android":"levelo://app?vid=498925b7-5c1b-4bf1-a053-60e9a71a743b","ios":"levelo://app?vid=498925b7-5c1b-4bf1-a053-60e9a71a743b"},"vehicle_type_id":"4","last_reported":1770049501,"current_range_meters":6800,"station_id":"ce4bgkp2rcd13ifvqbmg","pricing_plan_id":"cebpf4jnsgd1na2vs0mg"},{"bike_id":"20ab15c6-cd2b-4147-ad23-6e4e82e00a52","system_id":"levelo_inurba_marseille","lat":43.26542,"lon":5.3732,"is_reserved":false,"is_disabled":false,"rental_uris":{"android":"levelo://app?vid=20ab15c6-cd2b-4147-ad23-6e4e82e00a52","ios":"levelo://app?vid=20ab15c6-cd2b-4147-ad23-6e4e82e00a52"},"vehicle_type_id":"4","last_reported":1770049501,"current_range_meters":6800,"station_id":"ce4bhg12rcd13ifvqf70","pricing_plan_id":"cebpf4jnsgd1na2vs0mg"},{"bike_id":"27c2ee02-095b-4efa-aefc-348543972b6e","system_id":"levelo_inurba_marseille","lat":43.30097,"lon":5.39092,"is_reserved":false,"is_disabled":true,"rental_uris":{"android":"levelo://app?vid=27c2ee02-095b-4efa-aefc-348543972b6e","ios":"levelo://app?vid=27c2ee02-095b-4efa-aefc-348543972b6e"},"vehicle_type_id":"4","last_reported":1770049501,"current_range_meters":6800,"station_id":"ce4bh192rcd13ifvqdb0","pricing_plan_id":"cebpf4jnsgd1na2vs0mg"},{"bike_id":"a408d5d2-5427-46e8-87f7-6b2377b7fcd5","system_id":"levelo_inurba_marseille","lat":43.25937,"lon":5.409,"is_reserved":false,"is_disabled":false,"rental_uris":{"android":"levelo://app?vid=a408d5d2-5427-46e8-87f7-6b2377b7fcd5","ios":"levelo://app?vid=a408d5d2-5427-46e8-87f7-6b2377b7fcd5"},"vehicle_type_id":"4","last_reported":1770049501,"current_range_meters":6800,"station_id":"ce4bhm92rcd13ifvqglg","pricing_plan_id":"cebpf4jnsgd1na2vs0mg"},{"bike_id":"04b51904-c5b4-44cd-8294-eb71740e98db","system_id":"levelo_inurba_marseille","lat":43.26953,"lon":5.38632,"is_reserved":false,"is_disabled":false,"rental_uris":{"android":"levelo://app?vid=04b51904-c5b4-44cd-8294-eb71740e98db","ios":"levelo://app?vid=04b51904-c5b4-44cd-8294-eb71740e98db"},"vehicle_type_id":"4","last_reported":1770049501,"current_range_meters":6800,"station_id":"ce4bhh92rcd13ifvqfh0","pricing_plan_id":"cebpf4jnsgd1na2vs0mg"},{"bike_id":"723d9126-4c66-4f1b-af60-3d009a055011","system_id":"levelo_inurba_marseille","lat":43.28078,"lon":5.39636,"is_reserved":false,"is_disabled":false,"rental_uris":{"android":"levelo://app?vid=723d9126-4c66-4f1b-af60-3d009a055011","ios":"levelo://app?vid=723d9126-4c66-4f1b-af60-3d009a055011"},"vehicle_type_id":"4","last_reported":1770049501,"current_range_meters":6800,"station_id":"ce4bho12rcd13ifvqh2g","pricing_plan_id":"cebpf4jnsgd1na2vs0mg"},{"bike_id":"dfb7cc79-8510-46d4-921c-b52269205d9c","system_id":"levelo_inurba_marseille","lat":43.28471,"lon":5.38433,"is_reserved":false,"is_disabled":false,"rental_uris":{"android":"levelo://app?vid=dfb7cc79-8510-46d4-921c-b52269205d9c","ios":"levelo://app?vid=dfb7cc79-8510-46d4-921c-b52269205d9c"},"vehicle_type_id":"4","last_reported":1770049501,"current_range_meters":6800,"station_id":"ce4bh512rcd13ifvqe3g","pricing_plan_id":"cebpf4jnsgd1na2vs0mg"},{"bike_id":"8e17897f-aa86-4517-a1e7-41bb2cad72b6","system_id":"levelo_inurba_marseille","lat":43.30148,"lon":5.38104,"is_reserved":false,"is_disabled":false,"rental_uris":{"android":"levelo://app?vid=8e17897f-aa86-4517-a1e7-41bb2cad72b6","ios":"levelo://app?vid=8e17897f-aa86-4517-a1e7-41bb2cad72b6"},"vehicle_type_id":"4","last_reported":1770049501,"current_range_meters":6800,"station_id":"ce4bgjp2rcd13ifvqbh0","pricing_plan_id":"cebpf4jnsgd1na2vs0mg"},{"bike_id":"966a8ff8-5a79-46f0-8f3c-c2d11ddde5d2","system_id":"levelo_inurba_marseille","lat":43.27373,"lon":5.36253,"is_reserved":false,"is_disabled":false,"rental_uris":{"android":"levelo://app?vid=966a8ff8-5a79-46f0-8f3c-c2d11ddde5d2","ios":"levelo://app?vid=966a8ff8-5a79-46f0-8f3c-c2d11ddde5d2"},"vehicle_type_id":"4","last_reported":1770049501,"current_range_meters":7200,"station_id":"ce4bhbh2rcd13ifvqeo0","pricing_plan_id":"cebpf4jnsgd1na2vs0mg"},{"bike_id":"a8b33ee5-98b1-4b91-a976-d816491fae12","system_id":"levelo_inurba_marseille","lat":43.26785,"lon":5.39416,"is_reserved":false,"is_disabled":true,"rental_uris":{"android":"levelo://app?vid=a8b33ee5-98b1-4b91-a976-d816491fae12","ios":"levelo://app?vid=a8b33ee5-98b1-4b91-a976-d816491fae12"},"vehicle_type_id":"4","last_reported":1770049501,"current_range_meters":7200,"station_id":"ce4bhh12rcd13ifvqfg0","pricing_plan_id":"cebpf4jnsgd1na2vs0mg"},{"bike_id":"c6b8722f-e0b0-47b1-9ccd-5aaf4af2f2ea","system_id":"levelo_inurba_marseille","lat":43.29626,"lon":5.37719,"is_reserved":false,"is_disabled":false,"rental_uris":{"android":"levelo://app?vid=c6b8722f-e0b0-47b1-9ccd-5aaf4af2f2ea","ios":"levelo://app?vid=c6b8722f-e0b0-47b1-9ccd-5aaf4af2f2ea"},"vehicle_type_id":"4","last_reported":1770049501,"current_range_meters":7200,"station_id":"ce4bgi92rcd13ifvqb90","pricing_plan_id":"cebpf4jnsgd1na2vs0mg"},{"bike_id":"fa4c8fe2-be53-41f3-8e22-e1517f70e2a6","system_id":"levelo_inurba_marseille","lat":43.29254,"lon":5.38437,"is_reserved":false,"is_disabled":false,"rental_uris":{"android":"levelo://app?vid=fa4c8fe2-be53-41f3-8e22-e1517f70e2a6","ios":"levelo://app?vid=fa4c8fe2-be53-41f3-8e22-e1517f70e2a6"},"vehicle_type_id":"4","last_reported":1770049501,"current_range_meters":7200,"station_id":"ce4bh692rcd13ifvqea0","pricing_plan_id":"cebpf4jnsgd1na2vs0mg"},{"bike_id":"132c2e4f-f164-4506-8200-75a72b5316b3","system_id":"levelo_inurba_marseille","lat":43.22565,"lon":5.41633,"is_reserved":false,"is_disabled":false,"rental_uris":{"android":"levelo://app?vid=132c2e4f-f164-4506-8200-75a72b5316b3","ios":"levelo://app?vid=132c2e4f-f164-4506-8200-75a72b5316b3"},"vehicle_type_id":"4","last_reported":1770049501,"current_range_meters":7200,"station_id":"st_d2o4gvlbi1j2169b742g","pricing_plan_id":"cebpf4jnsgd1na2vs0mg"},{"bike_id":"b163a954-4c36-4104-b455-807b6fc9d458","system_id":"levelo_inurba_marseille","lat":43.26205,"lon":5.37437,"is_reserved":false,"is_disabled":false,"rental_uris":{"android":"levelo://app?vid=b163a954-4c36-4104-b455-807b6fc9d458","ios":"levelo://app?vid=b163a954-4c36-4104-b455-807b6fc9d458"},"vehicle_type_id":"4","last_reported":1770049501,"current_range_meters":7200,"station_id":"ce4bhgp2rcd13ifvqfc0","pricing_plan_id":"cebpf4jnsgd1na2vs0mg"},{"bike_id":"0b29bd96-af36-409b-85f4-994b381fba73","system_id":"levelo_inurba_marseille","lat":43.29906,"lon":5.38429,"is_reserved":false,"is_disabled":false,"rental_uris":{"android":"levelo://app?vid=0b29bd96-af36-409b-85f4-994b381fba73","ios":"levelo://app?vid=0b29bd96-af36-409b-85f4-994b381fba73"},"vehicle_type_id":"4","last_reported":1770049501,"current_range_meters":7200,"station_id":"","pricing_plan_id":"cebpf4jnsgd1na2vs0mg"},{"bike_id":"7e7cded1-d7df-4b4d-9ff3-49738118bd9d","system_id":"levelo_inurba_marseille","lat":43.25327,"lon":5.42149,"is_reserved":false,"is_disabled":false,"rental_uris":{"android":"levelo://app?vid=7e7cded1-d7df-4b4d-9ff3-49738118bd9d","ios":"levelo://app?vid=7e7cded1-d7df-4b4d-9ff3-49738118bd9d"},"vehicle_type_id":"4","last_reported":1770049501,"current_range_meters":7200,"station_id":"st_d2m65c5bi1j21697t3ng","pricing_plan_id":"cebpf4jnsgd1na2vs0mg"},{"bike_id":"f8b088f0-ca1a-438b-b5e9-6417de7330aa","system_id":"levelo_inurba_marseille","lat":43.29181,"lon":5.37154,"is_reserved":false,"is_disabled":false,"rental_uris":{"android":"levelo://app?vid=f8b088f0-ca1a-438b-b5e9-6417de7330aa","ios":"levelo://app?vid=f8b088f0-ca1a-438b-b5e9-6417de7330aa"},"vehicle_type_id":"4","last_reported":1770049501,"current_range_meters":7200,"station_id":"ce4bha92rcd13ifvqeh0","pricing_plan_id":"cebpf4jnsgd1na2vs0mg"},{"bike_id":"b4b49109-c680-49e7-b78f-0963342a85a5","system_id":"levelo_inurba_marseille","lat":43.30545,"lon":5.36537,"is_reserved":false,"is_disabled":false,"rental_uris":{"android":"levelo://app?vid=b4b49109-c680-49e7-b78f-0963342a85a5","ios":"levelo://app?vid=b4b49109-c680-49e7-b78f-0963342a85a5"},"vehicle_type_id":"4","last_reported":1770049501,"current_range_meters":7200,"station_id":"ce4bgs12rcd13ifvqcag","pricing_plan_id":"cebpf4jnsgd1na2vs0mg"},{"bike_id":"ea5a711f-2b73-4543-828e-0dd0db27a325","system_id":"levelo_inurba_marseille","lat":43.28223,"lon":5.3907,"is_reserved":false,"is_disabled":false,"rental_uris":{"android":"levelo://app?vid=ea5a711f-2b73-4543-828e-0dd0db27a325","ios":"levelo://app?vid=ea5a711f-2b73-4543-828e-0dd0db27a325"},"vehicle_type_id":"4","last_reported":1770049501,"current_range_meters":7200,"station_id":"ce4bhn92rcd13ifvqgsg","pricing_plan_id":"cebpf4jnsgd1na2vs0mg"},{"bike_id":"764761b9-278c-4d08-b55b-f04ca1fe51e8","system_id":"levelo_inurba_marseille","lat":43.29253,"lon":5.37619,"is_reserved":false,"is_disabled":false,"rental_uris":{"android":"levelo://app?vid=764761b9-278c-4d08-b55b-f04ca1fe51e8","ios":"levelo://app?vid=764761b9-278c-4d08-b55b-f04ca1fe51e8"},"vehicle_type_id":"4","last_reported":1770049501,"current_range_meters":7200,"station_id":"ce4bgi12rcd13ifvqb80","pricing_plan_id":"cebpf4jnsgd1na2vs0mg"},{"bike_id":"225e9d09-83ee-4f1c-a930-a97429c83cb7","system_id":"levelo_inurba_marseille","lat":43.23195,"lon":5.35552,"is_reserved":false,"is_disabled":false,"rental_uris":{"android":"levelo://app?vid=225e9d09-83ee-4f1c-a930-a97429c83cb7","ios":"levelo://app?vid=225e9d09-83ee-4f1c-a930-a97429c83cb7"},"vehicle_type_id":"4","last_reported":1770049501,"current_range_meters":7200,"station_id":"ce4bhu92rcd13ifvqi70","pricing_plan_id":"cebpf4jnsgd1na2vs0mg"},{"bike_id":"4e76b930-c99b-455d-a70d-d6617dc2d534","system_id":"levelo_inurba_marseille","lat":43.30444,"lon":5.389057,"is_reserved":false,"is_disabled":false,"rental_uris":{"android":"levelo://app?vid=4e76b930-c99b-455d-a70d-d6617dc2d534","ios":"levelo://app?vid=4e76b930-c99b-455d-a70d-d6617dc2d534"},"vehicle_type_id":"4","last_reported":1770049501,"current_range_meters":7200,"station_id":"ce4bgk12rcd13ifvqbi0","pricing_plan_id":"cebpf4jnsgd1na2vs0mg"},{"bike_id":"6a131f0d-6128-445c-99a5-319bcf3a622a","system_id":"levelo_inurba_marseille","lat":43.28487,"lon":5.48363,"is_reserved":false,"is_disabled":false,"rental_uris":{"android":"levelo://app?vid=6a131f0d-6128-445c-99a5-319bcf3a622a","ios":"levelo://app?vid=6a131f0d-6128-445c-99a5-319bcf3a622a"},"vehicle_type_id":"4","last_reported":1770049501,"current_range_meters":7200,"station_id":"st_d3svhcjqgbts73a3dn0g","pricing_plan_id":"cebpf4jnsgd1na2vs0mg"},{"bike_id":"91604460-68c0-4492-894c-a238619d1f72","system_id":"levelo_inurba_marseille","lat":43.23194,"lon":5.35534,"is_reserved":false,"is_disabled":false,"rental_uris":{"android":"levelo://app?vid=91604460-68c0-4492-894c-a238619d1f72","ios":"levelo://app?vid=91604460-68c0-4492-894c-a238619d1f72"},"vehicle_type_id":"4","last_reported":1770049501,"current_range_meters":7200,"station_id":"ce4bhu92rcd13ifvqi70","pricing_plan_id":"cebpf4jnsgd1na2vs0mg"},{"bike_id":"6e11a266-36e7-4957-9519-66b62e07609e","system_id":"levelo_inurba_marseille","lat":43.2721,"lon":5.39201,"is_reserved":false,"is_disabled":false,"rental_uris":{"android":"levelo://app?vid=6e11a266-36e7-4957-9519-66b62e07609e","ios":"levelo://app?vid=6e11a266-36e7-4957-9519-66b62e07609e"},"vehicle_type_id":"4","last_reported":1770049501,"current_range_meters":8000,"station_id":"ce4bhhp2rcd13ifvqfm0","pricing_plan_id":"cebpf4jnsgd1na2vs0mg"},{"bike_id":"448aac68-1f9e-4017-99cd-3bab5b285023","system_id":"levelo_inurba_marseille","lat":43.27387,"lon":5.36262,"is_reserved":false,"is_disabled":false,"rental_uris":{"android":"levelo://app?vid=448aac68-1f9e-4017-99cd-3bab5b285023","ios":"levelo://app?vid=448aac68-1f9e-4017-99cd-3bab5b285023"},"vehicle_type_id":"4","last_reported":1770049501,"current_range_meters":8000,"station_id":"ce4bhbh2rcd13ifvqeo0","pricing_plan_id":"cebpf4jnsgd1na2vs0mg"},{"bike_id":"f7afa49a-b1af-43b1-a893-9b4a888896f8","system_id":"levelo_inurba_marseille","lat":43.29071,"lon":5.39918,"is_reserved":false,"is_disabled":false,"rental_uris":{"android":"levelo://app?vid=f7afa49a-b1af-43b1-a893-9b4a888896f8","ios":"levelo://app?vid=f7afa49a-b1af-43b1-a893-9b4a888896f8"},"vehicle_type_id":"4","last_reported":1770049501,"current_range_meters":8000,"station_id":"ce4bh392rcd13ifvqdm0","pricing_plan_id":"cebpf4jnsgd1na2vs0mg"},{"bike_id":"ac5f5327-6dc4-4762-ba9a-a9c381172cf2","system_id":"levelo_inurba_marseille","lat":43.294652,"lon":5.40139,"is_reserved":false,"is_disabled":false,"rental_uris":{"android":"levelo://app?vid=ac5f5327-6dc4-4762-ba9a-a9c381172cf2","ios":"levelo://app?vid=ac5f5327-6dc4-4762-ba9a-a9c381172cf2"},"vehicle_type_id":"4","last_reported":1770049501,"current_range_meters":8000,"station_id":"ce4bho92rcd13ifvqh3g","pricing_plan_id":"cebpf4jnsgd1na2vs0mg"},{"bike_id":"89dacfb9-9707-42fe-a9c8-524d3751d080","system_id":"levelo_inurba_marseille","lat":43.2313,"lon":5.43739,"is_reserved":false,"is_disabled":false,"rental_uris":{"android":"levelo://app?vid=89dacfb9-9707-42fe-a9c8-524d3751d080","ios":"levelo://app?vid=89dacfb9-9707-42fe-a9c8-524d3751d080"},"vehicle_type_id":"4","last_reported":1770049501,"current_range_meters":8000,"station_id":"ce4bhmp2rcd13ifvqgog","pricing_plan_id":"cebpf4jnsgd1na2vs0mg"},{"bike_id":"d6ff0c2e-1b73-4afa-8f0f-7ada026e25d1","system_id":"levelo_inurba_marseille","lat":43.29479,"lon":5.37625,"is_reserved":false,"is_disabled":false,"rental_uris":{"android":"levelo://app?vid=d6ff0c2e-1b73-4afa-8f0f-7ada026e25d1","ios":"levelo://app?vid=d6ff0c2e-1b73-4afa-8f0f-7ada026e25d1"},"vehicle_type_id":"4","last_reported":1770049501,"current_range_meters":8000,"station_id":"","pricing_plan_id":"cebpf4jnsgd1na2vs0mg"},{"bike_id":"638126b7-d21d-4523-bc6e-9c4bb78dba88","system_id":"levelo_inurba_marseille","lat":43.27808,"lon":5.40717,"is_reserved":false,"is_disabled":false,"rental_uris":{"android":"levelo://app?vid=638126b7-d21d-4523-bc6e-9c4bb78dba88","ios":"levelo://app?vid=638126b7-d21d-4523-bc6e-9c4bb78dba88"},"vehicle_type_id":"4","last_reported":1770049501,"current_range_meters":8000,"station_id":"ce4bhnh2rcd13ifvqgtg","pricing_plan_id":"cebpf4jnsgd1na2vs0mg"},{"bike_id":"9cbcf585-a58e-4938-b69e-d4c3022c57ef","system_id":"levelo_inurba_marseille","lat":43.24049,"lon":5.37787,"is_reserved":false,"is_disabled":false,"rental_uris":{"android":"levelo://app?vid=9cbcf585-a58e-4938-b69e-d4c3022c57ef","ios":"levelo://app?vid=9cbcf585-a58e-4938-b69e-d4c3022c57ef"},"vehicle_type_id":"4","last_reported":1770049501,"current_range_meters":8000,"station_id":"ce4bhnp2rcd13ifvqgvg","pricing_plan_id":"cebpf4jnsgd1na2vs0mg"},{"bike_id":"2d936841-4888-41f5-8bc5-c0a8ed45869c","system_id":"levelo_inurba_marseille","lat":43.25937,"lon":5.40912,"is_reserved":false,"is_disabled":false,"rental_uris":{"android":"levelo://app?vid=2d936841-4888-41f5-8bc5-c0a8ed45869c","ios":"levelo://app?vid=2d936841-4888-41f5-8bc5-c0a8ed45869c"},"vehicle_type_id":"4","last_reported":1770049501,"current_range_meters":8000,"station_id":"ce4bhm92rcd13ifvqglg","pricing_plan_id":"cebpf4jnsgd1na2vs0mg"},{"bike_id":"6dcbafdd-a1b9-4d04-af91-285dc70eef9b","system_id":"levelo_inurba_marseille","lat":43.21749,"lon":5.34623,"is_reserved":false,"is_disabled":false,"rental_uris":{"android":"levelo://app?vid=6dcbafdd-a1b9-4d04-af91-285dc70eef9b","ios":"levelo://app?vid=6dcbafdd-a1b9-4d04-af91-285dc70eef9b"},"vehicle_type_id":"4","last_reported":1770049501,"current_range_meters":8400,"station_id":"","pricing_plan_id":"cebpf4jnsgd1na2vs0mg"},{"bike_id":"7ee77ff4-0867-4555-ac11-6d6cead61ce3","system_id":"levelo_inurba_marseille","lat":43.24387,"lon":5.37068,"is_reserved":false,"is_disabled":false,"rental_uris":{"android":"levelo://app?vid=7ee77ff4-0867-4555-ac11-6d6cead61ce3","ios":"levelo://app?vid=7ee77ff4-0867-4555-ac11-6d6cead61ce3"},"vehicle_type_id":"4","last_reported":1770049501,"current_range_meters":8400,"station_id":"ce4bhhh2rcd13ifvqfk0","pricing_plan_id":"cebpf4jnsgd1na2vs0mg"},{"bike_id":"02b06200-6f0c-4fbe-a288-f34e85c983a1","system_id":"levelo_inurba_marseille","lat":43.23767,"lon":5.36637,"is_reserved":false,"is_disabled":false,"rental_uris":{"android":"levelo://app?vid=02b06200-6f0c-4fbe-a288-f34e85c983a1","ios":"levelo://app?vid=02b06200-6f0c-4fbe-a288-f34e85c983a1"},"vehicle_type_id":"4","last_reported":1770049501,"current_range_meters":8400,"station_id":"st_d3nk18o9ro0c73en2l3g","pricing_plan_id":"cebpf4jnsgd1na2vs0mg"},{"bike_id":"f40b24a5-bf74-4433-adfa-9cc7e924510b","system_id":"levelo_inurba_marseille","lat":43.29745,"lon":5.37853,"is_reserved":false,"is_disabled":false,"rental_uris":{"android":"levelo://app?vid=f40b24a5-bf74-4433-adfa-9cc7e924510b","ios":"levelo://app?vid=f40b24a5-bf74-4433-adfa-9cc7e924510b"},"vehicle_type_id":"4","last_reported":1770049501,"current_range_meters":8400,"station_id":"","pricing_plan_id":"cebpf4jnsgd1na2vs0mg"},{"bike_id":"23af0394-5a4b-41c7-a956-1b9443f015ff","system_id":"levelo_inurba_marseille","lat":43.331569,"lon":5.376903,"is_reserved":false,"is_disabled":false,"rental_uris":{"android":"levelo://app?vid=23af0394-5a4b-41c7-a956-1b9443f015ff","ios":"levelo://app?vid=23af0394-5a4b-41c7-a956-1b9443f015ff"},"vehicle_type_id":"4","last_reported":1770049501,"current_range_meters":8400,"station_id":"st_d46cu089ee8s73dldbu0","pricing_plan_id":"cebpf4jnsgd1na2vs0mg"},{"bike_id":"a200a8ed-3dd0-49dc-81c6-83fcad90050c","system_id":"levelo_inurba_marseille","lat":43.25874,"lon":5.39891,"is_reserved":false,"is_disabled":false,"rental_uris":{"android":"levelo://app?vid=a200a8ed-3dd0-49dc-81c6-83fcad90050c","ios":"levelo://app?vid=a200a8ed-3dd0-49dc-81c6-83fcad90050c"},"vehicle_type_id":"4","last_reported":1770049501,"current_range_meters":8400,"station_id":"ce4bhl92rcd13ifvqghg","pricing_plan_id":"cebpf4jnsgd1na2vs0mg"},{"bike_id":"9436c3fb-a74e-4fd5-8b2a-988e84b82382","system_id":"levelo_inurba_marseille","lat":43.2418,"lon":5.39734,"is_reserved":false,"is_disabled":false,"rental_uris":{"android":"levelo://app?vid=9436c3fb-a74e-4fd5-8b2a-988e84b82382","ios":"levelo://app?vid=9436c3fb-a74e-4fd5-8b2a-988e84b82382"},"vehicle_type_id":"4","last_reported":1770049501,"current_range_meters":8400,"station_id":"ce4bhn12rcd13ifvqgpg","pricing_plan_id":"cebpf4jnsgd1na2vs0mg"},{"bike_id":"666fe0ba-7059-4036-966c-707260bcf29b","system_id":"levelo_inurba_marseille","lat":43.30476,"lon":5.37903,"is_reserved":false,"is_disabled":false,"rental_uris":{"android":"levelo://app?vid=666fe0ba-7059-4036-966c-707260bcf29b","ios":"levelo://app?vid=666fe0ba-7059-4036-966c-707260bcf29b"},"vehicle_type_id":"4","last_reported":1770049501,"current_range_meters":8400,"station_id":"ce4bgup2rcd13ifvqcn0","pricing_plan_id":"cebpf4jnsgd1na2vs0mg"},{"bike_id":"76154380-766b-4767-81b3-83dc44f40b7b","system_id":"levelo_inurba_marseille","lat":43.33543,"lon":5.37454,"is_reserved":false,"is_disabled":false,"rental_uris":{"android":"levelo://app?vid=76154380-766b-4767-81b3-83dc44f40b7b","ios":"levelo://app?vid=76154380-766b-4767-81b3-83dc44f40b7b"},"vehicle_type_id":"4","last_reported":1770049501,"current_range_meters":8400,"station_id":"st_d46tts09ee8s73dlu43g","pricing_plan_id":"cebpf4jnsgd1na2vs0mg"},{"bike_id":"ed02cb4c-388a-4f26-a459-0831f95c479b","system_id":"levelo_inurba_marseille","lat":43.29866,"lon":5.43665,"is_reserved":false,"is_disabled":false,"rental_uris":{"android":"levelo://app?vid=ed02cb4c-388a-4f26-a459-0831f95c479b","ios":"levelo://app?vid=ed02cb4c-388a-4f26-a459-0831f95c479b"},"vehicle_type_id":"4","last_reported":1770049501,"current_range_meters":8400,"station_id":"ce4bhpp2rcd13ifvqhfg","pricing_plan_id":"cebpf4jnsgd1na2vs0mg"},{"bike_id":"3b8f8a57-2a4f-4ae3-a27d-d9fd8186bfe7","system_id":"levelo_inurba_marseille","lat":43.295182,"lon":5.37506,"is_reserved":false,"is_disabled":false,"rental_uris":{"android":"levelo://app?vid=3b8f8a57-2a4f-4ae3-a27d-d9fd8186bfe7","ios":"levelo://app?vid=3b8f8a57-2a4f-4ae3-a27d-d9fd8186bfe7"},"vehicle_type_id":"4","last_reported":1770049501,"current_range_meters":8400,"station_id":"ce4bgkp2rcd13ifvqbmg","pricing_plan_id":"cebpf4jnsgd1na2vs0mg"},{"bike_id":"b0d93303-81f2-4939-a8a5-d433286e13fa","system_id":"levelo_inurba_marseille","lat":43.27061,"lon":5.38322,"is_reserved":false,"is_disabled":false,"rental_uris":{"android":"levelo://app?vid=b0d93303-81f2-4939-a8a5-d433286e13fa","ios":"levelo://app?vid=b0d93303-81f2-4939-a8a5-d433286e13fa"},"vehicle_type_id":"4","last_reported":1770049501,"current_range_meters":8400,"station_id":"st_d3n2fo6cfp8s73cte1j0","pricing_plan_id":"cebpf4jnsgd1na2vs0mg"},{"bike_id":"dd789ece-b6e4-4c2e-b0c1-877c84b17297","system_id":"levelo_inurba_marseille","lat":43.21175,"lon":5.35098,"is_reserved":false,"is_disabled":false,"rental_uris":{"android":"levelo://app?vid=dd789ece-b6e4-4c2e-b0c1-877c84b17297","ios":"levelo://app?vid=dd789ece-b6e4-4c2e-b0c1-877c84b17297"},"vehicle_type_id":"4","last_reported":1770049501,"current_range_meters":8400,"station_id":"st_cvj6sg6p6f1abm77japg","pricing_plan_id":"cebpf4jnsgd1na2vs0mg"},{"bike_id":"dd31698a-3042-473a-bd53-ac0632646f44","system_id":"levelo_inurba_marseille","lat":43.24463,"lon":5.42545,"is_reserved":false,"is_disabled":false,"rental_uris":{"android":"levelo://app?vid=dd31698a-3042-473a-bd53-ac0632646f44","ios":"levelo://app?vid=dd31698a-3042-473a-bd53-ac0632646f44"},"vehicle_type_id":"4","last_reported":1770049501,"current_range_meters":8400,"station_id":"st_d4a3vfp97mjs738cd8kg","pricing_plan_id":"cebpf4jnsgd1na2vs0mg"},{"bike_id":"8ebf614d-89a7-4fb1-9206-a14df9f673f3","system_id":"levelo_inurba_marseille","lat":43.26943,"lon":5.38908,"is_reserved":false,"is_disabled":false,"rental_uris":{"android":"levelo://app?vid=8ebf614d-89a7-4fb1-9206-a14df9f673f3","ios":"levelo://app?vid=8ebf614d-89a7-4fb1-9206-a14df9f673f3"},"vehicle_type_id":"4","last_reported":1770049501,"current_range_meters":8400,"station_id":"ce4bhhh2rcd13ifvqfl0","pricing_plan_id":"cebpf4jnsgd1na2vs0mg"},{"bike_id":"66f7b0ee-1ff1-4347-a9d6-8c7cc4ec28cb","system_id":"levelo_inurba_marseille","lat":43.273414,"lon":5.390756,"is_reserved":false,"is_disabled":false,"rental_uris":{"android":"levelo://app?vid=66f7b0ee-1ff1-4347-a9d6-8c7cc4ec28cb","ios":"levelo://app?vid=66f7b0ee-1ff1-4347-a9d6-8c7cc4ec28cb"},"vehicle_type_id":"4","last_reported":1770049501,"current_range_meters":8400,"station_id":"ce4bhgp2rcd13ifvqfe0","pricing_plan_id":"cebpf4jnsgd1na2vs0mg"},{"bike_id":"d1786d71-cdac-413b-898f-401144ede37d","system_id":"levelo_inurba_marseille","lat":43.25334,"lon":5.42177,"is_reserved":false,"is_disabled":false,"rental_uris":{"android":"levelo://app?vid=d1786d71-cdac-413b-898f-401144ede37d","ios":"levelo://app?vid=d1786d71-cdac-413b-898f-401144ede37d"},"vehicle_type_id":"4","last_reported":1770049501,"current_range_meters":8400,"station_id":"st_d2m65c5bi1j21697t3ng","pricing_plan_id":"cebpf4jnsgd1na2vs0mg"},{"bike_id":"470018ba-fff8-469f-9668-6826b13591b4","system_id":"levelo_inurba_marseille","lat":43.26563,"lon":5.3901,"is_reserved":false,"is_disabled":false,"rental_uris":{"android":"levelo://app?vid=470018ba-fff8-469f-9668-6826b13591b4","ios":"levelo://app?vid=470018ba-fff8-469f-9668-6826b13591b4"},"vehicle_type_id":"4","last_reported":1770049501,"current_range_meters":8400,"station_id":"ce4bhe12rcd13ifvqf30","pricing_plan_id":"cebpf4jnsgd1na2vs0mg"},{"bike_id":"5dae8e7a-771c-417a-921b-2f019b85b891","system_id":"levelo_inurba_marseille","lat":43.29897,"lon":5.43689,"is_reserved":false,"is_disabled":false,"rental_uris":{"android":"levelo://app?vid=5dae8e7a-771c-417a-921b-2f019b85b891","ios":"levelo://app?vid=5dae8e7a-771c-417a-921b-2f019b85b891"},"vehicle_type_id":"4","last_reported":1770049501,"current_range_meters":8400,"station_id":"ce4bhpp2rcd13ifvqhfg","pricing_plan_id":"cebpf4jnsgd1na2vs0mg"},{"bike_id":"bd4832ab-4826-48ba-b8bd-4c736bb28b7b","system_id":"levelo_inurba_marseille","lat":43.254306,"lon":5.420654,"is_reserved":false,"is_disabled":false,"rental_uris":{"android":"levelo://app?vid=bd4832ab-4826-48ba-b8bd-4c736bb28b7b","ios":"levelo://app?vid=bd4832ab-4826-48ba-b8bd-4c736bb28b7b"},"vehicle_type_id":"4","last_reported":1770049501,"current_range_meters":8400,"station_id":"st_d2m65c5bi1j21697t3ng","pricing_plan_id":"cebpf4jnsgd1na2vs0mg"},{"bike_id":"fb6d0c92-aa07-41c5-bb64-ff22908e7b14","system_id":"levelo_inurba_marseille","lat":43.335371,"lon":5.374704,"is_reserved":false,"is_disabled":false,"rental_uris":{"android":"levelo://app?vid=fb6d0c92-aa07-41c5-bb64-ff22908e7b14","ios":"levelo://app?vid=fb6d0c92-aa07-41c5-bb64-ff22908e7b14"},"vehicle_type_id":"4","last_reported":1770049501,"current_range_meters":8400,"station_id":"st_d46tts09ee8s73dlu43g","pricing_plan_id":"cebpf4jnsgd1na2vs0mg"},{"bike_id":"4e6b93e4-ee39-4999-bfda-7b5048ef544e","system_id":"levelo_inurba_marseille","lat":43.29792,"lon":5.38094,"is_reserved":false,"is_disabled":false,"rental_uris":{"android":"levelo://app?vid=4e6b93e4-ee39-4999-bfda-7b5048ef544e","ios":"levelo://app?vid=4e6b93e4-ee39-4999-bfda-7b5048ef544e"},"vehicle_type_id":"4","last_reported":1770049501,"current_range_meters":8800,"station_id":"ce4bgip2rcd13ifvqbb0","pricing_plan_id":"cebpf4jnsgd1na2vs0mg"},{"bike_id":"cef9edb7-4d2e-4ab7-9675-6b816e961933","system_id":"levelo_inurba_marseille","lat":43.241852,"lon":5.39738,"is_reserved":false,"is_disabled":false,"rental_uris":{"android":"levelo://app?vid=cef9edb7-4d2e-4ab7-9675-6b816e961933","ios":"levelo://app?vid=cef9edb7-4d2e-4ab7-9675-6b816e961933"},"vehicle_type_id":"4","last_reported":1770049501,"current_range_meters":8800,"station_id":"ce4bhn12rcd13ifvqgpg","pricing_plan_id":"cebpf4jnsgd1na2vs0mg"},{"bike_id":"33155caa-8021-4913-a666-e828c4426fe1","system_id":"levelo_inurba_marseille","lat":43.23197,"lon":5.35548,"is_reserved":false,"is_disabled":false,"rental_uris":{"android":"levelo://app?vid=33155caa-8021-4913-a666-e828c4426fe1","ios":"levelo://app?vid=33155caa-8021-4913-a666-e828c4426fe1"},"vehicle_type_id":"4","last_reported":1770049501,"current_range_meters":8800,"station_id":"ce4bhu92rcd13ifvqi70","pricing_plan_id":"cebpf4jnsgd1na2vs0mg"},{"bike_id":"d7f6560f-1c84-4d0c-956e-7387285ba227","system_id":"levelo_inurba_marseille","lat":43.28613,"lon":5.35104,"is_reserved":false,"is_disabled":false,"rental_uris":{"android":"levelo://app?vid=d7f6560f-1c84-4d0c-956e-7387285ba227","ios":"levelo://app?vid=d7f6560f-1c84-4d0c-956e-7387285ba227"},"vehicle_type_id":"4","last_reported":1770049501,"current_range_meters":8800,"station_id":"ce4bhch2rcd13ifvqeug","pricing_plan_id":"cebpf4jnsgd1na2vs0mg"},{"bike_id":"6da72cdc-500c-4ba3-95a0-693b1fd985c5","system_id":"levelo_inurba_marseille","lat":43.31023,"lon":5.37173,"is_reserved":false,"is_disabled":false,"rental_uris":{"android":"levelo://app?vid=6da72cdc-500c-4ba3-95a0-693b1fd985c5","ios":"levelo://app?vid=6da72cdc-500c-4ba3-95a0-693b1fd985c5"},"vehicle_type_id":"4","last_reported":1770049501,"current_range_meters":8800,"station_id":"st_d4kl2rp97mjs73e7tdfg","pricing_plan_id":"cebpf4jnsgd1na2vs0mg"},{"bike_id":"110f2eb6-bc3d-4e45-bf15-9e4ed959a9b6","system_id":"levelo_inurba_marseille","lat":43.27056,"lon":5.40287,"is_reserved":false,"is_disabled":false,"rental_uris":{"android":"levelo://app?vid=110f2eb6-bc3d-4e45-bf15-9e4ed959a9b6","ios":"levelo://app?vid=110f2eb6-bc3d-4e45-bf15-9e4ed959a9b6"},"vehicle_type_id":"4","last_reported":1770049501,"current_range_meters":8800,"station_id":"ce4bhk92rcd13ifvqgc0","pricing_plan_id":"cebpf4jnsgd1na2vs0mg"},{"bike_id":"e5039c56-5199-4176-914c-6032a6fc6ed3","system_id":"levelo_inurba_marseille","lat":43.24804,"lon":5.37454,"is_reserved":false,"is_disabled":false,"rental_uris":{"android":"levelo://app?vid=e5039c56-5199-4176-914c-6032a6fc6ed3","ios":"levelo://app?vid=e5039c56-5199-4176-914c-6032a6fc6ed3"},"vehicle_type_id":"4","last_reported":1770049501,"current_range_meters":8800,"station_id":"ce4bhgh2rcd13ifvqfb0","pricing_plan_id":"cebpf4jnsgd1na2vs0mg"},{"bike_id":"39e34071-1f76-445c-91f2-187764720849","system_id":"levelo_inurba_marseille","lat":43.21751,"lon":5.34591,"is_reserved":false,"is_disabled":false,"rental_uris":{"android":"levelo://app?vid=39e34071-1f76-445c-91f2-187764720849","ios":"levelo://app?vid=39e34071-1f76-445c-91f2-187764720849"},"vehicle_type_id":"4","last_reported":1770049501,"current_range_meters":8800,"station_id":"","pricing_plan_id":"cebpf4jnsgd1na2vs0mg"},{"bike_id":"4dd6841e-e470-4207-bb73-65a47c0e81c5","system_id":"levelo_inurba_marseille","lat":43.31179,"lon":5.38026,"is_reserved":false,"is_disabled":false,"rental_uris":{"android":"levelo://app?vid=4dd6841e-e470-4207-bb73-65a47c0e81c5","ios":"levelo://app?vid=4dd6841e-e470-4207-bb73-65a47c0e81c5"},"vehicle_type_id":"4","last_reported":1770049501,"current_range_meters":8800,"station_id":"","pricing_plan_id":"cebpf4jnsgd1na2vs0mg"},{"bike_id":"222db6d2-88ff-479f-9abb-5dc93feec713","system_id":"levelo_inurba_marseille","lat":43.31274,"lon":5.37778,"is_reserved":false,"is_disabled":false,"rental_uris":{"android":"levelo://app?vid=222db6d2-88ff-479f-9abb-5dc93feec713","ios":"levelo://app?vid=222db6d2-88ff-479f-9abb-5dc93feec713"},"vehicle_type_id":"4","last_reported":1770049501,"current_range_meters":8800,"station_id":"","pricing_plan_id":"cebpf4jnsgd1na2vs0mg"},{"bike_id":"9ede7f02-b7e5-4592-92c0-07143ca08c00","system_id":"levelo_inurba_marseille","lat":43.31307,"lon":5.36844,"is_reserved":false,"is_disabled":false,"rental_uris":{"android":"levelo://app?vid=9ede7f02-b7e5-4592-92c0-07143ca08c00","ios":"levelo://app?vid=9ede7f02-b7e5-4592-92c0-07143ca08c00"},"vehicle_type_id":"4","last_reported":1770049501,"current_range_meters":8800,"station_id":"","pricing_plan_id":"cebpf4jnsgd1na2vs0mg"},{"bike_id":"23aa10f2-ced9-4cc9-b468-7f0d30263b76","system_id":"levelo_inurba_marseille","lat":43.305363,"lon":5.365442,"is_reserved":false,"is_disabled":false,"rental_uris":{"android":"levelo://app?vid=23aa10f2-ced9-4cc9-b468-7f0d30263b76","ios":"levelo://app?vid=23aa10f2-ced9-4cc9-b468-7f0d30263b76"},"vehicle_type_id":"4","last_reported":1770049501,"current_range_meters":8800,"station_id":"ce4bgs12rcd13ifvqcag","pricing_plan_id":"cebpf4jnsgd1na2vs0mg"},{"bike_id":"f8e7e4d9-f87a-42a2-9144-b6886b943f25","system_id":"levelo_inurba_marseille","lat":43.249984,"lon":5.38934,"is_reserved":false,"is_disabled":false,"rental_uris":{"android":"levelo://app?vid=f8e7e4d9-f87a-42a2-9144-b6886b943f25","ios":"levelo://app?vid=f8e7e4d9-f87a-42a2-9144-b6886b943f25"},"vehicle_type_id":"4","last_reported":1770049501,"current_range_meters":9200,"station_id":"ce4bhgp2rcd13ifvqfd0","pricing_plan_id":"cebpf4jnsgd1na2vs0mg"},{"bike_id":"f29c9eca-7f54-4755-b637-531b69f02ad6","system_id":"levelo_inurba_marseille","lat":43.26288,"lon":5.39857,"is_reserved":false,"is_disabled":false,"rental_uris":{"android":"levelo://app?vid=f29c9eca-7f54-4755-b637-531b69f02ad6","ios":"levelo://app?vid=f29c9eca-7f54-4755-b637-531b69f02ad6"},"vehicle_type_id":"4","last_reported":1770049501,"current_range_meters":9200,"station_id":"","pricing_plan_id":"cebpf4jnsgd1na2vs0mg"},{"bike_id":"6b9396ac-cc81-45e0-ae3e-d5c56db5ca0b","system_id":"levelo_inurba_marseille","lat":43.24075,"lon":5.37754,"is_reserved":false,"is_disabled":false,"rental_uris":{"android":"levelo://app?vid=6b9396ac-cc81-45e0-ae3e-d5c56db5ca0b","ios":"levelo://app?vid=6b9396ac-cc81-45e0-ae3e-d5c56db5ca0b"},"vehicle_type_id":"4","last_reported":1770049501,"current_range_meters":9200,"station_id":"ce4bhnp2rcd13ifvqgvg","pricing_plan_id":"cebpf4jnsgd1na2vs0mg"},{"bike_id":"9c2508a9-b968-4bec-819a-5127bc67b58d","system_id":"levelo_inurba_marseille","lat":43.28423,"lon":5.37515,"is_reserved":false,"is_disabled":true,"rental_uris":{"android":"levelo://app?vid=9c2508a9-b968-4bec-819a-5127bc67b58d","ios":"levelo://app?vid=9c2508a9-b968-4bec-819a-5127bc67b58d"},"vehicle_type_id":"4","last_reported":1770049501,"current_range_meters":9200,"station_id":"ce4bh412rcd13ifvqds0","pricing_plan_id":"cebpf4jnsgd1na2vs0mg"},{"bike_id":"8d9d214d-16a2-4854-91bf-d2caaadf9f42","system_id":"levelo_inurba_marseille","lat":43.23155,"lon":5.43713,"is_reserved":false,"is_disabled":false,"rental_uris":{"android":"levelo://app?vid=8d9d214d-16a2-4854-91bf-d2caaadf9f42","ios":"levelo://app?vid=8d9d214d-16a2-4854-91bf-d2caaadf9f42"},"vehicle_type_id":"4","last_reported":1770049501,"current_range_meters":9200,"station_id":"ce4bhmp2rcd13ifvqgog","pricing_plan_id":"cebpf4jnsgd1na2vs0mg"},{"bike_id":"e9c5afc7-c303-4df3-a0d1-811595814b02","system_id":"levelo_inurba_marseille","lat":43.24075,"lon":5.37751,"is_reserved":false,"is_disabled":false,"rental_uris":{"android":"levelo://app?vid=e9c5afc7-c303-4df3-a0d1-811595814b02","ios":"levelo://app?vid=e9c5afc7-c303-4df3-a0d1-811595814b02"},"vehicle_type_id":"4","last_reported":1770049501,"current_range_meters":9200,"station_id":"ce4bhnp2rcd13ifvqgvg","pricing_plan_id":"cebpf4jnsgd1na2vs0mg"},{"bike_id":"53547880-1d53-45a5-bb5f-da3863195742","system_id":"levelo_inurba_marseille","lat":43.29559,"lon":5.3753,"is_reserved":false,"is_disabled":false,"rental_uris":{"android":"levelo://app?vid=53547880-1d53-45a5-bb5f-da3863195742","ios":"levelo://app?vid=53547880-1d53-45a5-bb5f-da3863195742"},"vehicle_type_id":"4","last_reported":1770049501,"current_range_meters":9200,"station_id":"ce4bgh92rcd13ifvqb50","pricing_plan_id":"cebpf4jnsgd1na2vs0mg"},{"bike_id":"f779ac71-fee7-4efb-8b80-c4c65078430e","system_id":"levelo_inurba_marseille","lat":43.30658,"lon":5.40114,"is_reserved":false,"is_disabled":false,"rental_uris":{"android":"levelo://app?vid=f779ac71-fee7-4efb-8b80-c4c65078430e","ios":"levelo://app?vid=f779ac71-fee7-4efb-8b80-c4c65078430e"},"vehicle_type_id":"4","last_reported":1770049501,"current_range_meters":9200,"station_id":"ce4bh112rcd13ifvqda0","pricing_plan_id":"cebpf4jnsgd1na2vs0mg"},{"bike_id":"ad601413-a38b-4c55-b3a7-e45a929d33e1","system_id":"levelo_inurba_marseille","lat":43.26929,"lon":5.3891,"is_reserved":false,"is_disabled":false,"rental_uris":{"android":"levelo://app?vid=ad601413-a38b-4c55-b3a7-e45a929d33e1","ios":"levelo://app?vid=ad601413-a38b-4c55-b3a7-e45a929d33e1"},"vehicle_type_id":"4","last_reported":1770049501,"current_range_meters":9200,"station_id":"ce4bhhh2rcd13ifvqfl0","pricing_plan_id":"cebpf4jnsgd1na2vs0mg"},{"bike_id":"e1e72a87-79b2-4727-ab3b-747e4a3fa96f","system_id":"levelo_inurba_marseille","lat":43.300852,"lon":5.374261,"is_reserved":false,"is_disabled":false,"rental_uris":{"android":"levelo://app?vid=e1e72a87-79b2-4727-ab3b-747e4a3fa96f","ios":"levelo://app?vid=e1e72a87-79b2-4727-ab3b-747e4a3fa96f"},"vehicle_type_id":"4","last_reported":1770049501,"current_range_meters":9200,"station_id":"","pricing_plan_id":"cebpf4jnsgd1na2vs0mg"},{"bike_id":"a7eeed40-5f65-4c3e-a8d9-15ac39a8e2db","system_id":"levelo_inurba_marseille","lat":43.29037,"lon":5.38644,"is_reserved":false,"is_disabled":false,"rental_uris":{"android":"levelo://app?vid=a7eeed40-5f65-4c3e-a8d9-15ac39a8e2db","ios":"levelo://app?vid=a7eeed40-5f65-4c3e-a8d9-15ac39a8e2db"},"vehicle_type_id":"4","last_reported":1770049501,"current_range_meters":9200,"station_id":"ce4bh4p2rcd13ifvqe0g","pricing_plan_id":"cebpf4jnsgd1na2vs0mg"},{"bike_id":"f64e49a8-d0af-456c-89c9-d9f0e9850c7d","system_id":"levelo_inurba_marseille","lat":43.31751,"lon":5.3902,"is_reserved":false,"is_disabled":false,"rental_uris":{"android":"levelo://app?vid=f64e49a8-d0af-456c-89c9-d9f0e9850c7d","ios":"levelo://app?vid=f64e49a8-d0af-456c-89c9-d9f0e9850c7d"},"vehicle_type_id":"4","last_reported":1770049501,"current_range_meters":9200,"station_id":"ce4bhqp2rcd13ifvqhng","pricing_plan_id":"cebpf4jnsgd1na2vs0mg"},{"bike_id":"79534d48-e26f-4999-a98b-9bc2adced944","system_id":"levelo_inurba_marseille","lat":43.29431,"lon":5.42889,"is_reserved":false,"is_disabled":false,"rental_uris":{"android":"levelo://app?vid=79534d48-e26f-4999-a98b-9bc2adced944","ios":"levelo://app?vid=79534d48-e26f-4999-a98b-9bc2adced944"},"vehicle_type_id":"4","last_reported":1770049501,"current_range_meters":9600,"station_id":"","pricing_plan_id":"cebpf4jnsgd1na2vs0mg"},{"bike_id":"eee54609-a6c8-4bc7-a936-6a1b442519d3","system_id":"levelo_inurba_marseille","lat":43.31052,"lon":5.37162,"is_reserved":false,"is_disabled":false,"rental_uris":{"android":"levelo://app?vid=eee54609-a6c8-4bc7-a936-6a1b442519d3","ios":"levelo://app?vid=eee54609-a6c8-4bc7-a936-6a1b442519d3"},"vehicle_type_id":"4","last_reported":1770049501,"current_range_meters":9600,"station_id":"st_d4kl2rp97mjs73e7tdfg","pricing_plan_id":"cebpf4jnsgd1na2vs0mg"},{"bike_id":"0f78a893-7295-43c0-9469-42114b409f44","system_id":"levelo_inurba_marseille","lat":43.28463,"lon":5.35877,"is_reserved":false,"is_disabled":false,"rental_uris":{"android":"levelo://app?vid=0f78a893-7295-43c0-9469-42114b409f44","ios":"levelo://app?vid=0f78a893-7295-43c0-9469-42114b409f44"},"vehicle_type_id":"4","last_reported":1770049501,"current_range_meters":9600,"station_id":"ce4bhah2rcd13ifvqei0","pricing_plan_id":"cebpf4jnsgd1na2vs0mg"},{"bike_id":"62e27a91-d1f4-4b1a-b2a6-3405a804b362","system_id":"levelo_inurba_marseille","lat":43.27073,"lon":5.42284,"is_reserved":false,"is_disabled":false,"rental_uris":{"android":"levelo://app?vid=62e27a91-d1f4-4b1a-b2a6-3405a804b362","ios":"levelo://app?vid=62e27a91-d1f4-4b1a-b2a6-3405a804b362"},"vehicle_type_id":"4","last_reported":1770049501,"current_range_meters":9600,"station_id":"ce4bhk92rcd13ifvqgb0","pricing_plan_id":"cebpf4jnsgd1na2vs0mg"},{"bike_id":"1d567b04-d4f6-4239-98d7-929537b34c88","system_id":"levelo_inurba_marseille","lat":43.29191,"lon":5.37132,"is_reserved":false,"is_disabled":false,"rental_uris":{"android":"levelo://app?vid=1d567b04-d4f6-4239-98d7-929537b34c88","ios":"levelo://app?vid=1d567b04-d4f6-4239-98d7-929537b34c88"},"vehicle_type_id":"4","last_reported":1770049501,"current_range_meters":9600,"station_id":"ce4bha92rcd13ifvqeh0","pricing_plan_id":"cebpf4jnsgd1na2vs0mg"},{"bike_id":"d4392431-c253-40ef-a0d5-dd4ab6a1f20c","system_id":"levelo_inurba_marseille","lat":43.24081,"lon":5.37759,"is_reserved":false,"is_disabled":false,"rental_uris":{"android":"levelo://app?vid=d4392431-c253-40ef-a0d5-dd4ab6a1f20c","ios":"levelo://app?vid=d4392431-c253-40ef-a0d5-dd4ab6a1f20c"},"vehicle_type_id":"4","last_reported":1770049501,"current_range_meters":9600,"station_id":"ce4bhnp2rcd13ifvqgvg","pricing_plan_id":"cebpf4jnsgd1na2vs0mg"},{"bike_id":"51cbf713-f79b-4c2d-9d8b-9a1117324cc6","system_id":"levelo_inurba_marseille","lat":43.29001,"lon":5.35602,"is_reserved":false,"is_disabled":false,"rental_uris":{"android":"levelo://app?vid=51cbf713-f79b-4c2d-9d8b-9a1117324cc6","ios":"levelo://app?vid=51cbf713-f79b-4c2d-9d8b-9a1117324cc6"},"vehicle_type_id":"4","last_reported":1770049501,"current_range_meters":9600,"station_id":"ce4bhb92rcd13ifvqen0","pricing_plan_id":"cebpf4jnsgd1na2vs0mg"},{"bike_id":"6ddf7e79-fc33-436a-9f2e-0297899e5607","system_id":"levelo_inurba_marseille","lat":43.28478,"lon":5.48377,"is_reserved":false,"is_disabled":false,"rental_uris":{"android":"levelo://app?vid=6ddf7e79-fc33-436a-9f2e-0297899e5607","ios":"levelo://app?vid=6ddf7e79-fc33-436a-9f2e-0297899e5607"},"vehicle_type_id":"4","last_reported":1770049501,"current_range_meters":9600,"station_id":"st_d3svhcjqgbts73a3dn0g","pricing_plan_id":"cebpf4jnsgd1na2vs0mg"},{"bike_id":"00240eac-eb5a-4753-8bff-ad9a2f383ba9","system_id":"levelo_inurba_marseille","lat":43.27054,"lon":5.40265,"is_reserved":false,"is_disabled":false,"rental_uris":{"android":"levelo://app?vid=00240eac-eb5a-4753-8bff-ad9a2f383ba9","ios":"levelo://app?vid=00240eac-eb5a-4753-8bff-ad9a2f383ba9"},"vehicle_type_id":"4","last_reported":1770049501,"current_range_meters":9600,"station_id":"ce4bhk92rcd13ifvqgc0","pricing_plan_id":"cebpf4jnsgd1na2vs0mg"},{"bike_id":"e13e4fd6-69c7-424a-a277-aa3fe3ab93cc","system_id":"levelo_inurba_marseille","lat":43.31178,"lon":5.38708,"is_reserved":false,"is_disabled":false,"rental_uris":{"android":"levelo://app?vid=e13e4fd6-69c7-424a-a277-aa3fe3ab93cc","ios":"levelo://app?vid=e13e4fd6-69c7-424a-a277-aa3fe3ab93cc"},"vehicle_type_id":"4","last_reported":1770049501,"current_range_meters":9600,"station_id":"ce4bgv12rcd13ifvqcp0","pricing_plan_id":"cebpf4jnsgd1na2vs0mg"},{"bike_id":"67d94700-218b-4e1b-9b09-f23953a1fdd8","system_id":"levelo_inurba_marseille","lat":43.26218,"lon":5.40441,"is_reserved":false,"is_disabled":false,"rental_uris":{"android":"levelo://app?vid=67d94700-218b-4e1b-9b09-f23953a1fdd8","ios":"levelo://app?vid=67d94700-218b-4e1b-9b09-f23953a1fdd8"},"vehicle_type_id":"4","last_reported":1770049501,"current_range_meters":9600,"station_id":"ce4bhmh2rcd13ifvqgmg","pricing_plan_id":"cebpf4jnsgd1na2vs0mg"},{"bike_id":"94df161b-0ecb-44ae-8fb0-8997ac070984","system_id":"levelo_inurba_marseille","lat":43.31371,"lon":5.36689,"is_reserved":false,"is_disabled":false,"rental_uris":{"android":"levelo://app?vid=94df161b-0ecb-44ae-8fb0-8997ac070984","ios":"levelo://app?vid=94df161b-0ecb-44ae-8fb0-8997ac070984"},"vehicle_type_id":"4","last_reported":1770049501,"current_range_meters":9600,"station_id":"ce4bgr92rcd13ifvqc6g","pricing_plan_id":"cebpf4jnsgd1na2vs0mg"},{"bike_id":"405ea4a7-897c-4c33-b952-8c30fed84872","system_id":"levelo_inurba_marseille","lat":43.28487,"lon":5.3842,"is_reserved":false,"is_disabled":false,"rental_uris":{"android":"levelo://app?vid=405ea4a7-897c-4c33-b952-8c30fed84872","ios":"levelo://app?vid=405ea4a7-897c-4c33-b952-8c30fed84872"},"vehicle_type_id":"4","last_reported":1770049501,"current_range_meters":9600,"station_id":"ce4bh512rcd13ifvqe3g","pricing_plan_id":"cebpf4jnsgd1na2vs0mg"},{"bike_id":"032d1622-f10e-4e31-9323-899def03e537","system_id":"levelo_inurba_marseille","lat":43.310607,"lon":5.371893,"is_reserved":false,"is_disabled":true,"rental_uris":{"android":"levelo://app?vid=032d1622-f10e-4e31-9323-899def03e537","ios":"levelo://app?vid=032d1622-f10e-4e31-9323-899def03e537"},"vehicle_type_id":"4","last_reported":1770049501,"current_range_meters":9600,"station_id":"st_d4kl2rp97mjs73e7tdfg","pricing_plan_id":"cebpf4jnsgd1na2vs0mg"},{"bike_id":"8300bb2e-96f4-4e9e-92a9-a4d1e04694a4","system_id":"levelo_inurba_marseille","lat":43.23142,"lon":5.43719,"is_reserved":false,"is_disabled":false,"rental_uris":{"android":"levelo://app?vid=8300bb2e-96f4-4e9e-92a9-a4d1e04694a4","ios":"levelo://app?vid=8300bb2e-96f4-4e9e-92a9-a4d1e04694a4"},"vehicle_type_id":"4","last_reported":1770049501,"current_range_meters":10000,"station_id":"ce4bhmp2rcd13ifvqgog","pricing_plan_id":"cebpf4jnsgd1na2vs0mg"},{"bike_id":"fd4003f9-ae57-43d9-af54-09e855d38b22","system_id":"levelo_inurba_marseille","lat":43.28527,"lon":5.44103,"is_reserved":false,"is_disabled":false,"rental_uris":{"android":"levelo://app?vid=fd4003f9-ae57-43d9-af54-09e855d38b22","ios":"levelo://app?vid=fd4003f9-ae57-43d9-af54-09e855d38b22"},"vehicle_type_id":"4","last_reported":1770049501,"current_range_meters":10000,"station_id":"st_d3j3df2ikq2c7380ej80","pricing_plan_id":"cebpf4jnsgd1na2vs0mg"},{"bike_id":"67949cb0-ad73-42aa-8494-c2a7d6735f87","system_id":"levelo_inurba_marseille","lat":43.31225,"lon":5.36873,"is_reserved":false,"is_disabled":false,"rental_uris":{"android":"levelo://app?vid=67949cb0-ad73-42aa-8494-c2a7d6735f87","ios":"levelo://app?vid=67949cb0-ad73-42aa-8494-c2a7d6735f87"},"vehicle_type_id":"4","last_reported":1770049501,"current_range_meters":10000,"station_id":"ce4bgl92rcd13ifvqbq0","pricing_plan_id":"cebpf4jnsgd1na2vs0mg"},{"bike_id":"eacab8c5-ae8d-4933-89ca-bb8acaba05e8","system_id":"levelo_inurba_marseille","lat":43.24802,"lon":5.37455,"is_reserved":false,"is_disabled":false,"rental_uris":{"android":"levelo://app?vid=eacab8c5-ae8d-4933-89ca-bb8acaba05e8","ios":"levelo://app?vid=eacab8c5-ae8d-4933-89ca-bb8acaba05e8"},"vehicle_type_id":"4","last_reported":1770049501,"current_range_meters":10000,"station_id":"ce4bhgh2rcd13ifvqfb0","pricing_plan_id":"cebpf4jnsgd1na2vs0mg"},{"bike_id":"2c0bc4db-f557-470b-bd8a-9520318620b0","system_id":"levelo_inurba_marseille","lat":43.28423,"lon":5.34982,"is_reserved":false,"is_disabled":false,"rental_uris":{"android":"levelo://app?vid=2c0bc4db-f557-470b-bd8a-9520318620b0","ios":"levelo://app?vid=2c0bc4db-f557-470b-bd8a-9520318620b0"},"vehicle_type_id":"4","last_reported":1770049501,"current_range_meters":10000,"station_id":"ce4bhbh2rcd13ifvqepg","pricing_plan_id":"cebpf4jnsgd1na2vs0mg"},{"bike_id":"68d2a9d1-2044-4f9c-8e7b-e4d9640d90af","system_id":"levelo_inurba_marseille","lat":43.2971,"lon":5.37957,"is_reserved":false,"is_disabled":false,"rental_uris":{"android":"levelo://app?vid=68d2a9d1-2044-4f9c-8e7b-e4d9640d90af","ios":"levelo://app?vid=68d2a9d1-2044-4f9c-8e7b-e4d9640d90af"},"vehicle_type_id":"4","last_reported":1770049501,"current_range_meters":10000,"station_id":"","pricing_plan_id":"cebpf4jnsgd1na2vs0mg"},{"bike_id":"8cf72915-f34d-4e7f-94a6-cf327e8c2836","system_id":"levelo_inurba_marseille","lat":43.28488,"lon":5.38422,"is_reserved":false,"is_disabled":false,"rental_uris":{"android":"levelo://app?vid=8cf72915-f34d-4e7f-94a6-cf327e8c2836","ios":"levelo://app?vid=8cf72915-f34d-4e7f-94a6-cf327e8c2836"},"vehicle_type_id":"4","last_reported":1770049501,"current_range_meters":10000,"station_id":"ce4bh512rcd13ifvqe3g","pricing_plan_id":"cebpf4jnsgd1na2vs0mg"},{"bike_id":"3ce871a0-823d-47d6-87f8-8ef4cc2a6659","system_id":"levelo_inurba_marseille","lat":43.26372,"lon":5.41087,"is_reserved":false,"is_disabled":false,"rental_uris":{"android":"levelo://app?vid=3ce871a0-823d-47d6-87f8-8ef4cc2a6659","ios":"levelo://app?vid=3ce871a0-823d-47d6-87f8-8ef4cc2a6659"},"vehicle_type_id":"4","last_reported":1770049501,"current_range_meters":10000,"station_id":"st_d4e5ca6na9uc73bfl5fg","pricing_plan_id":"cebpf4jnsgd1na2vs0mg"},{"bike_id":"be616c8a-7d9f-44f2-9914-b719781dfdee","system_id":"levelo_inurba_marseille","lat":43.2397,"lon":5.36637,"is_reserved":false,"is_disabled":false,"rental_uris":{"android":"levelo://app?vid=be616c8a-7d9f-44f2-9914-b719781dfdee","ios":"levelo://app?vid=be616c8a-7d9f-44f2-9914-b719781dfdee"},"vehicle_type_id":"4","last_reported":1770049501,"current_range_meters":10000,"station_id":"ce4bhi12rcd13ifvqfp0","pricing_plan_id":"cebpf4jnsgd1na2vs0mg"},{"bike_id":"549d637b-91c5-48ec-83fa-865a463b6a4b","system_id":"levelo_inurba_marseille","lat":43.23196,"lon":5.35549,"is_reserved":false,"is_disabled":false,"rental_uris":{"android":"levelo://app?vid=549d637b-91c5-48ec-83fa-865a463b6a4b","ios":"levelo://app?vid=549d637b-91c5-48ec-83fa-865a463b6a4b"},"vehicle_type_id":"4","last_reported":1770049501,"current_range_meters":10000,"station_id":"ce4bhu92rcd13ifvqi70","pricing_plan_id":"cebpf4jnsgd1na2vs0mg"},{"bike_id":"fc6ff5e6-a1aa-4afa-aac4-d7e57837b3f3","system_id":"levelo_inurba_marseille","lat":43.28461,"lon":5.35888,"is_reserved":false,"is_disabled":false,"rental_uris":{"android":"levelo://app?vid=fc6ff5e6-a1aa-4afa-aac4-d7e57837b3f3","ios":"levelo://app?vid=fc6ff5e6-a1aa-4afa-aac4-d7e57837b3f3"},"vehicle_type_id":"4","last_reported":1770049501,"current_range_meters":10000,"station_id":"ce4bhah2rcd13ifvqei0","pricing_plan_id":"cebpf4jnsgd1na2vs0mg"},{"bike_id":"5b3811ef-5681-4c18-aac4-a62920f9a85c","system_id":"levelo_inurba_marseille","lat":43.28475,"lon":5.51488,"is_reserved":false,"is_disabled":false,"rental_uris":{"android":"levelo://app?vid=5b3811ef-5681-4c18-aac4-a62920f9a85c","ios":"levelo://app?vid=5b3811ef-5681-4c18-aac4-a62920f9a85c"},"vehicle_type_id":"4","last_reported":1770049501,"current_range_meters":10000,"station_id":"","pricing_plan_id":"cebpf4jnsgd1na2vs0mg"},{"bike_id":"1bff195f-878b-4a6e-8675-61979ef9dcf7","system_id":"levelo_inurba_marseille","lat":43.23202,"lon":5.35525,"is_reserved":false,"is_disabled":false,"rental_uris":{"android":"levelo://app?vid=1bff195f-878b-4a6e-8675-61979ef9dcf7","ios":"levelo://app?vid=1bff195f-878b-4a6e-8675-61979ef9dcf7"},"vehicle_type_id":"4","last_reported":1770049501,"current_range_meters":10000,"station_id":"ce4bhu92rcd13ifvqi70","pricing_plan_id":"cebpf4jnsgd1na2vs0mg"},{"bike_id":"deb9e4eb-a481-4dbd-9838-7e21c4114a77","system_id":"levelo_inurba_marseille","lat":43.24627,"lon":5.38909,"is_reserved":false,"is_disabled":false,"rental_uris":{"android":"levelo://app?vid=deb9e4eb-a481-4dbd-9838-7e21c4114a77","ios":"levelo://app?vid=deb9e4eb-a481-4dbd-9838-7e21c4114a77"},"vehicle_type_id":"4","last_reported":1770049501,"current_range_meters":10000,"station_id":"ce4bhg12rcd13ifvqf60","pricing_plan_id":"cebpf4jnsgd1na2vs0mg"},{"bike_id":"6648b726-248a-4235-8962-e02d3f57c3f3","system_id":"levelo_inurba_marseille","lat":43.25001,"lon":5.38933,"is_reserved":false,"is_disabled":false,"rental_uris":{"android":"levelo://app?vid=6648b726-248a-4235-8962-e02d3f57c3f3","ios":"levelo://app?vid=6648b726-248a-4235-8962-e02d3f57c3f3"},"vehicle_type_id":"4","last_reported":1770049501,"current_range_meters":10000,"station_id":"ce4bhgp2rcd13ifvqfd0","pricing_plan_id":"cebpf4jnsgd1na2vs0mg"},{"bike_id":"74bc821c-bedd-4b49-af18-08ce5d9e5f36","system_id":"levelo_inurba_marseille","lat":43.28923,"lon":5.38394,"is_reserved":false,"is_disabled":false,"rental_uris":{"android":"levelo://app?vid=74bc821c-bedd-4b49-af18-08ce5d9e5f36","ios":"levelo://app?vid=74bc821c-bedd-4b49-af18-08ce5d9e5f36"},"vehicle_type_id":"4","last_reported":1770049501,"current_range_meters":10000,"station_id":"ce4bh612rcd13ifvqe6g","pricing_plan_id":"cebpf4jnsgd1na2vs0mg"},{"bike_id":"b8af6f6f-8508-454d-bbbf-c97767b0ab8b","system_id":"levelo_inurba_marseille","lat":43.279661,"lon":5.398298,"is_reserved":false,"is_disabled":false,"rental_uris":{"android":"levelo://app?vid=b8af6f6f-8508-454d-bbbf-c97767b0ab8b","ios":"levelo://app?vid=b8af6f6f-8508-454d-bbbf-c97767b0ab8b"},"vehicle_type_id":"4","last_reported":1770049501,"current_range_meters":10000,"station_id":"ce4bho12rcd13ifvqh2g","pricing_plan_id":"cebpf4jnsgd1na2vs0mg"},{"bike_id":"90cafb22-43f6-47bb-9e80-c8fa9891709f","system_id":"levelo_inurba_marseille","lat":43.262065,"lon":5.379197,"is_reserved":false,"is_disabled":false,"rental_uris":{"android":"levelo://app?vid=90cafb22-43f6-47bb-9e80-c8fa9891709f","ios":"levelo://app?vid=90cafb22-43f6-47bb-9e80-c8fa9891709f"},"vehicle_type_id":"4","last_reported":1770049501,"current_range_meters":10800,"station_id":"ce4bhjp2rcd13ifvqg90","pricing_plan_id":"cebpf4jnsgd1na2vs0mg"},{"bike_id":"c3ba0fed-3d29-4191-b8a3-c899b1e9e5ad","system_id":"levelo_inurba_marseille","lat":43.25583,"lon":5.38231,"is_reserved":false,"is_disabled":false,"rental_uris":{"android":"levelo://app?vid=c3ba0fed-3d29-4191-b8a3-c899b1e9e5ad","ios":"levelo://app?vid=c3ba0fed-3d29-4191-b8a3-c899b1e9e5ad"},"vehicle_type_id":"4","last_reported":1770049501,"current_range_meters":10800,"station_id":"ce4bhih2rcd13ifvqfs0","pricing_plan_id":"cebpf4jnsgd1na2vs0mg"},{"bike_id":"cc7be9e8-a1a0-4f68-8d42-c70d6cdd5d6b","system_id":"levelo_inurba_marseille","lat":43.29555,"lon":5.42303,"is_reserved":false,"is_disabled":false,"rental_uris":{"android":"levelo://app?vid=cc7be9e8-a1a0-4f68-8d42-c70d6cdd5d6b","ios":"levelo://app?vid=cc7be9e8-a1a0-4f68-8d42-c70d6cdd5d6b"},"vehicle_type_id":"4","last_reported":1770049501,"current_range_meters":10800,"station_id":"ce4bhph2rcd13ifvqhdg","pricing_plan_id":"cebpf4jnsgd1na2vs0mg"},{"bike_id":"8549a1d1-68eb-4349-9b09-4c0cf211ff20","system_id":"levelo_inurba_marseille","lat":43.29941,"lon":5.36552,"is_reserved":false,"is_disabled":false,"rental_uris":{"android":"levelo://app?vid=8549a1d1-68eb-4349-9b09-4c0cf211ff20","ios":"levelo://app?vid=8549a1d1-68eb-4349-9b09-4c0cf211ff20"},"vehicle_type_id":"4","last_reported":1770049501,"current_range_meters":10800,"station_id":"ce4bgm92rcd13ifvqbr0","pricing_plan_id":"cebpf4jnsgd1na2vs0mg"},{"bike_id":"18d1a03c-71f9-47bc-804b-7e0c3eef0ad0","system_id":"levelo_inurba_marseille","lat":43.30138,"lon":5.43115,"is_reserved":false,"is_disabled":false,"rental_uris":{"android":"levelo://app?vid=18d1a03c-71f9-47bc-804b-7e0c3eef0ad0","ios":"levelo://app?vid=18d1a03c-71f9-47bc-804b-7e0c3eef0ad0"},"vehicle_type_id":"4","last_reported":1770049501,"current_range_meters":10800,"station_id":"st_d3js3co5814s73ftftug","pricing_plan_id":"cebpf4jnsgd1na2vs0mg"},{"bike_id":"454ec198-d273-438b-b7dc-8d61915cb03a","system_id":"levelo_inurba_marseille","lat":43.23142,"lon":5.43699,"is_reserved":false,"is_disabled":false,"rental_uris":{"android":"levelo://app?vid=454ec198-d273-438b-b7dc-8d61915cb03a","ios":"levelo://app?vid=454ec198-d273-438b-b7dc-8d61915cb03a"},"vehicle_type_id":"4","last_reported":1770049501,"current_range_meters":10800,"station_id":"ce4bhmp2rcd13ifvqgog","pricing_plan_id":"cebpf4jnsgd1na2vs0mg"},{"bike_id":"b886faeb-2ae5-4849-a4c7-c906741f8bf1","system_id":"levelo_inurba_marseille","lat":43.26561,"lon":5.40317,"is_reserved":false,"is_disabled":false,"rental_uris":{"android":"levelo://app?vid=b886faeb-2ae5-4849-a4c7-c906741f8bf1","ios":"levelo://app?vid=b886faeb-2ae5-4849-a4c7-c906741f8bf1"},"vehicle_type_id":"4","last_reported":1770049501,"current_range_meters":10800,"station_id":"ce4bhmp2rcd13ifvqgng","pricing_plan_id":"cebpf4jnsgd1na2vs0mg"},{"bike_id":"db2ab0f1-6ab6-4fcf-bf0c-47adcb722970","system_id":"levelo_inurba_marseille","lat":43.26363,"lon":5.41132,"is_reserved":false,"is_disabled":false,"rental_uris":{"android":"levelo://app?vid=db2ab0f1-6ab6-4fcf-bf0c-47adcb722970","ios":"levelo://app?vid=db2ab0f1-6ab6-4fcf-bf0c-47adcb722970"},"vehicle_type_id":"4","last_reported":1770049501,"current_range_meters":10800,"station_id":"st_d4e5ca6na9uc73bfl5fg","pricing_plan_id":"cebpf4jnsgd1na2vs0mg"},{"bike_id":"1e18de4d-43f8-4d9b-8e22-41974ddf36d0","system_id":"levelo_inurba_marseille","lat":43.3354,"lon":5.37485,"is_reserved":false,"is_disabled":false,"rental_uris":{"android":"levelo://app?vid=1e18de4d-43f8-4d9b-8e22-41974ddf36d0","ios":"levelo://app?vid=1e18de4d-43f8-4d9b-8e22-41974ddf36d0"},"vehicle_type_id":"4","last_reported":1770049501,"current_range_meters":10800,"station_id":"st_d46tts09ee8s73dlu43g","pricing_plan_id":"cebpf4jnsgd1na2vs0mg"},{"bike_id":"c04d02e9-4522-4664-80d1-72f19e30f66b","system_id":"levelo_inurba_marseille","lat":43.25308,"lon":5.38595,"is_reserved":false,"is_disabled":false,"rental_uris":{"android":"levelo://app?vid=c04d02e9-4522-4664-80d1-72f19e30f66b","ios":"levelo://app?vid=c04d02e9-4522-4664-80d1-72f19e30f66b"},"vehicle_type_id":"4","last_reported":1770049501,"current_range_meters":10800,"station_id":"","pricing_plan_id":"cebpf4jnsgd1na2vs0mg"},{"bike_id":"7bc3df38-9791-4650-8af3-6c26288c972c","system_id":"levelo_inurba_marseille","lat":43.30508,"lon":5.39796,"is_reserved":false,"is_disabled":false,"rental_uris":{"android":"levelo://app?vid=7bc3df38-9791-4650-8af3-6c26288c972c","ios":"levelo://app?vid=7bc3df38-9791-4650-8af3-6c26288c972c"},"vehicle_type_id":"4","last_reported":1770049501,"current_range_meters":10800,"station_id":"","pricing_plan_id":"cebpf4jnsgd1na2vs0mg"},{"bike_id":"98fce53e-2f71-43cb-b9de-a1e78e7dc72e","system_id":"levelo_inurba_marseille","lat":43.23189,"lon":5.39977,"is_reserved":false,"is_disabled":false,"rental_uris":{"android":"levelo://app?vid=98fce53e-2f71-43cb-b9de-a1e78e7dc72e","ios":"levelo://app?vid=98fce53e-2f71-43cb-b9de-a1e78e7dc72e"},"vehicle_type_id":"4","last_reported":1770049501,"current_range_meters":11200,"station_id":"ce4bhn12rcd13ifvqgqg","pricing_plan_id":"cebpf4jnsgd1na2vs0mg"},{"bike_id":"d546fffc-a24b-47f2-83bb-918a57fc3fa5","system_id":"levelo_inurba_marseille","lat":43.29777,"lon":5.38108,"is_reserved":false,"is_disabled":false,"rental_uris":{"android":"levelo://app?vid=d546fffc-a24b-47f2-83bb-918a57fc3fa5","ios":"levelo://app?vid=d546fffc-a24b-47f2-83bb-918a57fc3fa5"},"vehicle_type_id":"4","last_reported":1770049501,"current_range_meters":11200,"station_id":"ce4bgip2rcd13ifvqbb0","pricing_plan_id":"cebpf4jnsgd1na2vs0mg"},{"bike_id":"ba3390f5-14ed-4160-abcf-8bea19885613","system_id":"levelo_inurba_marseille","lat":43.28489,"lon":5.48394,"is_reserved":false,"is_disabled":false,"rental_uris":{"android":"levelo://app?vid=ba3390f5-14ed-4160-abcf-8bea19885613","ios":"levelo://app?vid=ba3390f5-14ed-4160-abcf-8bea19885613"},"vehicle_type_id":"4","last_reported":1770049501,"current_range_meters":11200,"station_id":"st_d3svhcjqgbts73a3dn0g","pricing_plan_id":"cebpf4jnsgd1na2vs0mg"},{"bike_id":"ef30bb24-f45f-400c-9967-a2a3b2da1488","system_id":"levelo_inurba_marseille","lat":43.28298,"lon":5.39434,"is_reserved":false,"is_disabled":false,"rental_uris":{"android":"levelo://app?vid=ef30bb24-f45f-400c-9967-a2a3b2da1488","ios":"levelo://app?vid=ef30bb24-f45f-400c-9967-a2a3b2da1488"},"vehicle_type_id":"4","last_reported":1770049501,"current_range_meters":11200,"station_id":"","pricing_plan_id":"cebpf4jnsgd1na2vs0mg"},{"bike_id":"fba83296-cf08-4ba9-8267-d1dc13133a44","system_id":"levelo_inurba_marseille","lat":43.262241,"lon":5.404467,"is_reserved":false,"is_disabled":false,"rental_uris":{"android":"levelo://app?vid=fba83296-cf08-4ba9-8267-d1dc13133a44","ios":"levelo://app?vid=fba83296-cf08-4ba9-8267-d1dc13133a44"},"vehicle_type_id":"4","last_reported":1770049501,"current_range_meters":11200,"station_id":"ce4bhmh2rcd13ifvqgmg","pricing_plan_id":"cebpf4jnsgd1na2vs0mg"},{"bike_id":"444b7964-d637-4bc2-bbcf-ca0cd5725763","system_id":"levelo_inurba_marseille","lat":43.27327,"lon":5.39107,"is_reserved":false,"is_disabled":true,"rental_uris":{"android":"levelo://app?vid=444b7964-d637-4bc2-bbcf-ca0cd5725763","ios":"levelo://app?vid=444b7964-d637-4bc2-bbcf-ca0cd5725763"},"vehicle_type_id":"4","last_reported":1770049501,"current_range_meters":11200,"station_id":"ce4bhgp2rcd13ifvqfe0","pricing_plan_id":"cebpf4jnsgd1na2vs0mg"},{"bike_id":"53ffb5c2-3e2a-4a17-b03a-29d28fb95024","system_id":"levelo_inurba_marseille","lat":43.29903,"lon":5.43659,"is_reserved":false,"is_disabled":false,"rental_uris":{"android":"levelo://app?vid=53ffb5c2-3e2a-4a17-b03a-29d28fb95024","ios":"levelo://app?vid=53ffb5c2-3e2a-4a17-b03a-29d28fb95024"},"vehicle_type_id":"4","last_reported":1770049501,"current_range_meters":11200,"station_id":"ce4bhpp2rcd13ifvqhfg","pricing_plan_id":"cebpf4jnsgd1na2vs0mg"},{"bike_id":"5ffc162c-3876-4a49-af02-3661f44effbb","system_id":"levelo_inurba_marseille","lat":43.28476,"lon":5.48388,"is_reserved":false,"is_disabled":false,"rental_uris":{"android":"levelo://app?vid=5ffc162c-3876-4a49-af02-3661f44effbb","ios":"levelo://app?vid=5ffc162c-3876-4a49-af02-3661f44effbb"},"vehicle_type_id":"4","last_reported":1770049501,"current_range_meters":11200,"station_id":"st_d3svhcjqgbts73a3dn0g","pricing_plan_id":"cebpf4jnsgd1na2vs0mg"},{"bike_id":"151047fe-b117-41cf-9416-4f91d0d3c1a9","system_id":"levelo_inurba_marseille","lat":43.31856,"lon":5.36908,"is_reserved":false,"is_disabled":false,"rental_uris":{"android":"levelo://app?vid=151047fe-b117-41cf-9416-4f91d0d3c1a9","ios":"levelo://app?vid=151047fe-b117-41cf-9416-4f91d0d3c1a9"},"vehicle_type_id":"4","last_reported":1770049501,"current_range_meters":11600,"station_id":"","pricing_plan_id":"cebpf4jnsgd1na2vs0mg"},{"bike_id":"d8f75e99-ba00-40c8-80cf-c176d6cf7eca","system_id":"levelo_inurba_marseille","lat":43.253393,"lon":5.421621,"is_reserved":false,"is_disabled":false,"rental_uris":{"android":"levelo://app?vid=d8f75e99-ba00-40c8-80cf-c176d6cf7eca","ios":"levelo://app?vid=d8f75e99-ba00-40c8-80cf-c176d6cf7eca"},"vehicle_type_id":"4","last_reported":1770049501,"current_range_meters":11600,"station_id":"st_d2m65c5bi1j21697t3ng","pricing_plan_id":"cebpf4jnsgd1na2vs0mg"},{"bike_id":"242256f5-f0bd-4204-9565-2087ceacdda5","system_id":"levelo_inurba_marseille","lat":43.22565,"lon":5.41615,"is_reserved":false,"is_disabled":false,"rental_uris":{"android":"levelo://app?vid=242256f5-f0bd-4204-9565-2087ceacdda5","ios":"levelo://app?vid=242256f5-f0bd-4204-9565-2087ceacdda5"},"vehicle_type_id":"4","last_reported":1770049501,"current_range_meters":11600,"station_id":"st_d2o4gvlbi1j2169b742g","pricing_plan_id":"cebpf4jnsgd1na2vs0mg"},{"bike_id":"d8713cd3-8269-4863-9601-8c0f629eacef","system_id":"levelo_inurba_marseille","lat":43.24665,"lon":5.38167,"is_reserved":false,"is_disabled":false,"rental_uris":{"android":"levelo://app?vid=d8713cd3-8269-4863-9601-8c0f629eacef","ios":"levelo://app?vid=d8713cd3-8269-4863-9601-8c0f629eacef"},"vehicle_type_id":"4","last_reported":1770049501,"current_range_meters":11600,"station_id":"ce4bhih2rcd13ifvqfr0","pricing_plan_id":"cebpf4jnsgd1na2vs0mg"},{"bike_id":"7f77f6a6-911c-44cf-97f5-71224b3633e0","system_id":"levelo_inurba_marseille","lat":43.252315,"lon":5.38015,"is_reserved":false,"is_disabled":false,"rental_uris":{"android":"levelo://app?vid=7f77f6a6-911c-44cf-97f5-71224b3633e0","ios":"levelo://app?vid=7f77f6a6-911c-44cf-97f5-71224b3633e0"},"vehicle_type_id":"4","last_reported":1770049501,"current_range_meters":11600,"station_id":"","pricing_plan_id":"cebpf4jnsgd1na2vs0mg"},{"bike_id":"658d0b20-6292-4d6c-85b2-b3938e69fd12","system_id":"levelo_inurba_marseille","lat":43.28266,"lon":5.38577,"is_reserved":false,"is_disabled":false,"rental_uris":{"android":"levelo://app?vid=658d0b20-6292-4d6c-85b2-b3938e69fd12","ios":"levelo://app?vid=658d0b20-6292-4d6c-85b2-b3938e69fd12"},