{"last_updated":1687280752,"ttl":30,"version":"2.2","data":{"bikes":[{"bike_id":"6e4fd040-1866-4783-872c-dd21a7ae18af","system_id":"levelo_inurba_marseille","lat":43.31365,"lon":5.37062,"is_reserved":false,"is_disabled":false,"rental_uris":{"android":"levelo://app?vid=6e4fd040-1866-4783-872c-dd21a7ae18af","ios":"levelo://app?vid=6e4fd040-1866-4783-872c-dd21a7ae18af"},"vehicle_type_id":"4","last_reported":1687280752,"current_range_meters":14000,"station_id":"","pricing_plan_id":"free"},{"bike_id":"6b1f9149-f415-4e7f-a6fb-dcfa4df1a197","system_id":"levelo_inurba_marseille","lat":43.314811,"lon":5.373103,"is_reserved":false,"is_disabled":false,"rental_uris":{"android":"levelo://app?vid=6b1f9149-f415-4e7f-a6fb-dcfa4df1a197","ios":"levelo://app?vid=6b1f9149-f415-4e7f-a6fb-dcfa4df1a197"},"vehicle_type_id":"4","last_reported":1687280752,"current_range_meters":10000,"station_id":"ce4bgt12rcd13ifvqcd0","pricing_plan_id":"free"},{"bike_id":"3da540aa-5929-4d4a-8397-46574265df24","system_id":"levelo_inurba_marseille","lat":43.30778,"lon":5.36744,"is_reserved":false,"is_disabled":false,"rental_uris":{"android":"levelo://app?vid=3da540aa-5929-4d4a-8397-46574265df24","ios":"levelo://app?vid=3da540aa-5929-4d4a-8397-46574265df24"},"vehicle_type_id":"4","last_reported":1687280752,"current_range_meters":17200,"station_id":"","pricing_plan_id":"free"},{"bike_id":"80b168de-518a-4631-93c1-a46b6ef9310b","system_id":"levelo_inurba_marseille","lat":43.305989,"lon":5.37225,"is_reserved":false,"is_disabled":false,"rental_uris":{"android":"levelo://app?vid=80b168de-518a-4631-93c1-a46b6ef9310b","ios":"levelo://app?vid=80b168de-518a-4631-93c1-a46b6ef9310b"},"vehicle_type_id":"4","last_reported":1687280752,"current_range_meters":1600,"station_id":"ce4bgqh2rcd13ifvqc4g","pricing_plan_id":"free"},{"bike_id":"fc788131-452f-4b41-ba68-4abb0cdfca0c","system_id":"levelo_inurba_marseille","lat":43.311131,"lon":5.377651,"is_reserved":false,"is_disabled":false,"rental_uris":{"android":"levelo://app?vid=fc788131-452f-4b41-ba68-4abb0cdfca0c","ios":"levelo://app?vid=fc788131-452f-4b41-ba68-4abb0cdfca0c"},"vehicle_type_id":"4","last_reported":1687280752,"current_range_meters":1200,"station_id":"ce4bgt92rcd13ifvqcg0","pricing_plan_id":"free"},{"bike_id":"8c5a65e0-8341-4563-857a-95cc49aadc1e","system_id":"levelo_inurba_marseille","lat":43.311131,"lon":5.377651,"is_reserved":false,"is_disabled":false,"rental_uris":{"android":"levelo://app?vid=8c5a65e0-8341-4563-857a-95cc49aadc1e","ios":"levelo://app?vid=8c5a65e0-8341-4563-857a-95cc49aadc1e"},"vehicle_type_id":"4","last_reported":1687280752,"current_range_meters":16800,"station_id":"ce4bgt92rcd13ifvqcg0","pricing_plan_id":"free"},{"bike_id":"071c1dd0-65ff-49f3-9a30-c6c1afc6ca61","system_id":"levelo_inurba_marseille","lat":43.31524,"lon":5.38037,"is_reserved":false,"is_disabled":false,"rental_uris":{"android":"levelo://app?vid=071c1dd0-65ff-49f3-9a30-c6c1afc6ca61","ios":"levelo://app?vid=071c1dd0-65ff-49f3-9a30-c6c1afc6ca61"},"vehicle_type_id":"4","last_reported":1687280752,"current_range_meters":7200,"station_id":"ce4bhsp2rcd13ifvqi50","pricing_plan_id":"free"},{"bike_id":"ae33307b-fcd5-479b-9ae1-9002ed226c6e","system_id":"levelo_inurba_marseille","lat":43.308012,"lon":5.381511,"is_reserved":false,"is_disabled":false,"rental_uris":{"android":"levelo://app?vid=ae33307b-fcd5-479b-9ae1-9002ed226c6e","ios":"levelo://app?vid=ae33307b-fcd5-479b-9ae1-9002ed226c6e"},"vehicle_type_id":"4","last_reported":1687280752,"current_range_meters":19600,"station_id":"ce4bgt12rcd13ifvqce0","pricing_plan_id":"free"},{"bike_id":"43fc693e-f2a9-4aec-8fd9-d094bb02cb70","system_id":"levelo_inurba_marseille","lat":43.304606,"lon":5.379026,"is_reserved":false,"is_disabled":false,"rental_uris":{"android":"levelo://app?vid=43fc693e-f2a9-4aec-8fd9-d094bb02cb70","ios":"levelo://app?vid=43fc693e-f2a9-4aec-8fd9-d094bb02cb70"},"vehicle_type_id":"4","last_reported":1687280752,"current_range_meters":9200,"station_id":"ce4bgup2rcd13ifvqcn0","pricing_plan_id":"free"},{"bike_id":"b17ec670-80b9-4e21-8a4d-37b1f48e5024","system_id":"levelo_inurba_marseille","lat":43.302784,"lon":5.377158,"is_reserved":false,"is_disabled":false,"rental_uris":{"android":"levelo://app?vid=b17ec670-80b9-4e21-8a4d-37b1f48e5024","ios":"levelo://app?vid=b17ec670-80b9-4e21-8a4d-37b1f48e5024"},"vehicle_type_id":"4","last_reported":1687280752,"current_range_meters":18000,"station_id":"ce4bguh2rcd13ifvqcj0","pricing_plan_id":"free"},{"bike_id":"34600b07-1c86-4864-8531-47385b992e57","system_id":"levelo_inurba_marseille","lat":43.302784,"lon":5.377158,"is_reserved":false,"is_disabled":false,"rental_uris":{"android":"levelo://app?vid=34600b07-1c86-4864-8531-47385b992e57","ios":"levelo://app?vid=34600b07-1c86-4864-8531-47385b992e57"},"vehicle_type_id":"4","last_reported":1687280752,"current_range_meters":23200,"station_id":"ce4bguh2rcd13ifvqcj0","pricing_plan_id":"free"},{"bike_id":"2a00a9c0-b9a8-415d-8d43-823e122988ef","system_id":"levelo_inurba_marseille","lat":43.313571,"lon":5.384829,"is_reserved":false,"is_disabled":false,"rental_uris":{"android":"levelo://app?vid=2a00a9c0-b9a8-415d-8d43-823e122988ef","ios":"levelo://app?vid=2a00a9c0-b9a8-415d-8d43-823e122988ef"},"vehicle_type_id":"4","last_reported":1687280752,"current_range_meters":5200,"station_id":"ce4bgt92rcd13ifvqcf0","pricing_plan_id":"free"},{"bike_id":"14b157fe-e4f7-451f-b82a-aa66f692fb70","system_id":"levelo_inurba_marseille","lat":43.29933,"lon":5.37464,"is_reserved":false,"is_disabled":false,"rental_uris":{"android":"levelo://app?vid=14b157fe-e4f7-451f-b82a-aa66f692fb70","ios":"levelo://app?vid=14b157fe-e4f7-451f-b82a-aa66f692fb70"},"vehicle_type_id":"4","last_reported":1687280752,"current_range_meters":13600,"station_id":"","pricing_plan_id":"free"},{"bike_id":"e8e50549-4f14-4a79-8e01-73f4b2c3ac89","system_id":"levelo_inurba_marseille","lat":43.32197,"lon":5.38296,"is_reserved":false,"is_disabled":false,"rental_uris":{"android":"levelo://app?vid=e8e50549-4f14-4a79-8e01-73f4b2c3ac89","ios":"levelo://app?vid=e8e50549-4f14-4a79-8e01-73f4b2c3ac89"},"vehicle_type_id":"4","last_reported":1687280752,"current_range_meters":12000,"station_id":"","pricing_plan_id":"free"},{"bike_id":"cf711208-de3f-42ad-9cf0-a880a26b74e6","system_id":"levelo_inurba_marseille","lat":43.32647,"lon":5.37508,"is_reserved":false,"is_disabled":false,"rental_uris":{"android":"levelo://app?vid=cf711208-de3f-42ad-9cf0-a880a26b74e6","ios":"levelo://app?vid=cf711208-de3f-42ad-9cf0-a880a26b74e6"},"vehicle_type_id":"4","last_reported":1687280752,"current_range_meters":0,"station_id":"","pricing_plan_id":"free"},{"bike_id":"2f9dead5-7eb0-4b24-95b8-437e8bf4cd6d","system_id":"levelo_inurba_marseille","lat":43.297794,"lon":5.370888,"is_reserved":false,"is_disabled":false,"rental_uris":{"android":"levelo://app?vid=2f9dead5-7eb0-4b24-95b8-437e8bf4cd6d","ios":"levelo://app?vid=2f9dead5-7eb0-4b24-95b8-437e8bf4cd6d"},"vehicle_type_id":"4","last_reported":1687280752,"current_range_meters":12800,"station_id":"ce4bgop2rcd13ifvqc1g","pricing_plan_id":"free"},{"bike_id":"408cdbd3-920b-45b4-ab4e-0217d7cee4ab","system_id":"levelo_inurba_marseille","lat":43.32824,"lon":5.36694,"is_reserved":false,"is_disabled":false,"rental_uris":{"android":"levelo://app?vid=408cdbd3-920b-45b4-ab4e-0217d7cee4ab","ios":"levelo://app?vid=408cdbd3-920b-45b4-ab4e-0217d7cee4ab"},"vehicle_type_id":"4","last_reported":1687280752,"current_range_meters":10800,"station_id":"ce4bhs92rcd13ifvqi0g","pricing_plan_id":"free"},{"bike_id":"db4e72b2-ad08-4787-8cc1-d917696a4d8b","system_id":"levelo_inurba_marseille","lat":43.328371,"lon":5.366909,"is_reserved":false,"is_disabled":false,"rental_uris":{"android":"levelo://app?vid=db4e72b2-ad08-4787-8cc1-d917696a4d8b","ios":"levelo://app?vid=db4e72b2-ad08-4787-8cc1-d917696a4d8b"},"vehicle_type_id":"4","last_reported":1687280752,"current_range_meters":30400,"station_id":"ce4bhs92rcd13ifvqi0g","pricing_plan_id":"free"},{"bike_id":"b4ea75e9-eca7-4ccc-91f9-d0cb06a4a0a6","system_id":"levelo_inurba_marseille","lat":43.328371,"lon":5.366912,"is_reserved":false,"is_disabled":false,"rental_uris":{"android":"levelo://app?vid=b4ea75e9-eca7-4ccc-91f9-d0cb06a4a0a6","ios":"levelo://app?vid=b4ea75e9-eca7-4ccc-91f9-d0cb06a4a0a6"},"vehicle_type_id":"4","last_reported":1687280752,"current_range_meters":30000,"station_id":"ce4bhs92rcd13ifvqi0g","pricing_plan_id":"free"},{"bike_id":"832e1273-fa14-42aa-b411-4f520f45589b","system_id":"levelo_inurba_marseille","lat":43.328371,"lon":5.366912,"is_reserved":false,"is_disabled":false,"rental_uris":{"android":"levelo://app?vid=832e1273-fa14-42aa-b411-4f520f45589b","ios":"levelo://app?vid=832e1273-fa14-42aa-b411-4f520f45589b"},"vehicle_type_id":"4","last_reported":1687280752,"current_range_meters":31200,"station_id":"ce4bhs92rcd13ifvqi0g","pricing_plan_id":"free"},{"bike_id":"f9f1a296-c401-40a0-b431-7544da14c26f","system_id":"levelo_inurba_marseille","lat":43.328371,"lon":5.366909,"is_reserved":false,"is_disabled":false,"rental_uris":{"android":"levelo://app?vid=f9f1a296-c401-40a0-b431-7544da14c26f","ios":"levelo://app?vid=f9f1a296-c401-40a0-b431-7544da14c26f"},"vehicle_type_id":"4","last_reported":1687280752,"current_range_meters":24400,"station_id":"ce4bhs92rcd13ifvqi0g","pricing_plan_id":"free"},{"bike_id":"176f4894-d7fc-460e-aa5d-7c8c1e206dc3","system_id":"levelo_inurba_marseille","lat":43.29705,"lon":5.36612,"is_reserved":false,"is_disabled":false,"rental_uris":{"android":"levelo://app?vid=176f4894-d7fc-460e-aa5d-7c8c1e206dc3","ios":"levelo://app?vid=176f4894-d7fc-460e-aa5d-7c8c1e206dc3"},"vehicle_type_id":"4","last_reported":1687280752,"current_range_meters":23600,"station_id":"ce4bgn12rcd13ifvqbt0","pricing_plan_id":"free"},{"bike_id":"99db6d18-a47b-4355-88d9-a1a05a39c68a","system_id":"levelo_inurba_marseille","lat":43.297163,"lon":5.365866,"is_reserved":false,"is_disabled":false,"rental_uris":{"android":"levelo://app?vid=99db6d18-a47b-4355-88d9-a1a05a39c68a","ios":"levelo://app?vid=99db6d18-a47b-4355-88d9-a1a05a39c68a"},"vehicle_type_id":"4","last_reported":1687280752,"current_range_meters":0,"station_id":"ce4bgn12rcd13ifvqbt0","pricing_plan_id":"free"},{"bike_id":"86a45d75-afc5-4fef-b715-bca9ed023b1a","system_id":"levelo_inurba_marseille","lat":43.297163,"lon":5.365866,"is_reserved":false,"is_disabled":false,"rental_uris":{"android":"levelo://app?vid=86a45d75-afc5-4fef-b715-bca9ed023b1a","ios":"levelo://app?vid=86a45d75-afc5-4fef-b715-bca9ed023b1a"},"vehicle_type_id":"4","last_reported":1687280752,"current_range_meters":6400,"station_id":"ce4bgn12rcd13ifvqbt0","pricing_plan_id":"free"},{"bike_id":"24f41ca5-b432-4feb-a0c8-a15026b97306","system_id":"levelo_inurba_marseille","lat":43.296131,"lon":5.370773,"is_reserved":false,"is_disabled":false,"rental_uris":{"android":"levelo://app?vid=24f41ca5-b432-4feb-a0c8-a15026b97306","ios":"levelo://app?vid=24f41ca5-b432-4feb-a0c8-a15026b97306"},"vehicle_type_id":"4","last_reported":1687280752,"current_range_meters":4000,"station_id":"ce4bgnh2rcd13ifvqc0g","pricing_plan_id":"free"},{"bike_id":"041bc147-ef2f-419b-bb81-deca3bdf89e2","system_id":"levelo_inurba_marseille","lat":43.29611,"lon":5.36046,"is_reserved":false,"is_disabled":false,"rental_uris":{"android":"levelo://app?vid=041bc147-ef2f-419b-bb81-deca3bdf89e2","ios":"levelo://app?vid=041bc147-ef2f-419b-bb81-deca3bdf89e2"},"vehicle_type_id":"4","last_reported":1687280752,"current_range_meters":21600,"station_id":"","pricing_plan_id":"free"},{"bike_id":"5b0c7a3b-1264-4743-8594-f80990b36f86","system_id":"levelo_inurba_marseille","lat":43.31751,"lon":5.39015,"is_reserved":false,"is_disabled":false,"rental_uris":{"android":"levelo://app?vid=5b0c7a3b-1264-4743-8594-f80990b36f86","ios":"levelo://app?vid=5b0c7a3b-1264-4743-8594-f80990b36f86"},"vehicle_type_id":"4","last_reported":1687280752,"current_range_meters":27600,"station_id":"ce4bhqp2rcd13ifvqhng","pricing_plan_id":"free"},{"bike_id":"be28e515-4f3d-45e9-b3a0-a673585d8cfb","system_id":"levelo_inurba_marseille","lat":43.31757,"lon":5.39015,"is_reserved":false,"is_disabled":false,"rental_uris":{"android":"levelo://app?vid=be28e515-4f3d-45e9-b3a0-a673585d8cfb","ios":"levelo://app?vid=be28e515-4f3d-45e9-b3a0-a673585d8cfb"},"vehicle_type_id":"4","last_reported":1687280752,"current_range_meters":26400,"station_id":"ce4bhqp2rcd13ifvqhng","pricing_plan_id":"free"},{"bike_id":"ad24bcba-3d84-4b4f-b98c-61ad10be4496","system_id":"levelo_inurba_marseille","lat":43.317557,"lon":5.390173,"is_reserved":false,"is_disabled":false,"rental_uris":{"android":"levelo://app?vid=ad24bcba-3d84-4b4f-b98c-61ad10be4496","ios":"levelo://app?vid=ad24bcba-3d84-4b4f-b98c-61ad10be4496"},"vehicle_type_id":"4","last_reported":1687280752,"current_range_meters":14800,"station_id":"ce4bhqp2rcd13ifvqhng","pricing_plan_id":"free"},{"bike_id":"250c8a96-8498-4211-b8f3-1b00a8d1fbaf","system_id":"levelo_inurba_marseille","lat":43.296477,"lon":5.37768,"is_reserved":false,"is_disabled":false,"rental_uris":{"android":"levelo://app?vid=250c8a96-8498-4211-b8f3-1b00a8d1fbaf","ios":"levelo://app?vid=250c8a96-8498-4211-b8f3-1b00a8d1fbaf"},"vehicle_type_id":"4","last_reported":1687280752,"current_range_meters":4400,"station_id":"","pricing_plan_id":"free"},{"bike_id":"b39d5c1a-6db5-4867-b1dc-2a82a6a56846","system_id":"levelo_inurba_marseille","lat":43.304274,"lon":5.388873,"is_reserved":false,"is_disabled":false,"rental_uris":{"android":"levelo://app?vid=b39d5c1a-6db5-4867-b1dc-2a82a6a56846","ios":"levelo://app?vid=b39d5c1a-6db5-4867-b1dc-2a82a6a56846"},"vehicle_type_id":"4","last_reported":1687280752,"current_range_meters":0,"station_id":"ce4bgk12rcd13ifvqbi0","pricing_plan_id":"free"},{"bike_id":"30fb823d-a589-4e71-af3a-dda7e731ace6","system_id":"levelo_inurba_marseille","lat":43.304274,"lon":5.388873,"is_reserved":false,"is_disabled":false,"rental_uris":{"android":"levelo://app?vid=30fb823d-a589-4e71-af3a-dda7e731ace6","ios":"levelo://app?vid=30fb823d-a589-4e71-af3a-dda7e731ace6"},"vehicle_type_id":"4","last_reported":1687280752,"current_range_meters":6400,"station_id":"ce4bgk12rcd13ifvqbi0","pricing_plan_id":"free"},{"bike_id":"0b912198-aa3f-4f43-9085-22d40a87890f","system_id":"levelo_inurba_marseille","lat":43.29607,"lon":5.37701,"is_reserved":false,"is_disabled":false,"rental_uris":{"android":"levelo://app?vid=0b912198-aa3f-4f43-9085-22d40a87890f","ios":"levelo://app?vid=0b912198-aa3f-4f43-9085-22d40a87890f"},"vehicle_type_id":"4","last_reported":1687280752,"current_range_meters":2800,"station_id":"","pricing_plan_id":"free"},{"bike_id":"eb56f040-d7e3-440c-9d05-82afe187dd21","system_id":"levelo_inurba_marseille","lat":43.299707,"lon":5.384859,"is_reserved":false,"is_disabled":false,"rental_uris":{"android":"levelo://app?vid=eb56f040-d7e3-440c-9d05-82afe187dd21","ios":"levelo://app?vid=eb56f040-d7e3-440c-9d05-82afe187dd21"},"vehicle_type_id":"4","last_reported":1687280752,"current_range_meters":30000,"station_id":"ce4bgj92rcd13ifvqbd0","pricing_plan_id":"free"},{"bike_id":"b771d77e-39b5-4d09-8962-8a008f4f92d8","system_id":"levelo_inurba_marseille","lat":43.32356,"lon":5.38868,"is_reserved":false,"is_disabled":false,"rental_uris":{"android":"levelo://app?vid=b771d77e-39b5-4d09-8962-8a008f4f92d8","ios":"levelo://app?vid=b771d77e-39b5-4d09-8962-8a008f4f92d8"},"vehicle_type_id":"4","last_reported":1687280752,"current_range_meters":18800,"station_id":"ce4bhqp2rcd13ifvqhog","pricing_plan_id":"free"},{"bike_id":"2a9c6fb3-f818-4674-b295-700ea2d143aa","system_id":"levelo_inurba_marseille","lat":43.32367,"lon":5.388836,"is_reserved":false,"is_disabled":false,"rental_uris":{"android":"levelo://app?vid=2a9c6fb3-f818-4674-b295-700ea2d143aa","ios":"levelo://app?vid=2a9c6fb3-f818-4674-b295-700ea2d143aa"},"vehicle_type_id":"4","last_reported":1687280752,"current_range_meters":18000,"station_id":"ce4bhqp2rcd13ifvqhog","pricing_plan_id":"free"},{"bike_id":"4c1704a9-9899-4633-b3fb-0bc9a03e8c2a","system_id":"levelo_inurba_marseille","lat":43.32367,"lon":5.388836,"is_reserved":false,"is_disabled":false,"rental_uris":{"android":"levelo://app?vid=4c1704a9-9899-4633-b3fb-0bc9a03e8c2a","ios":"levelo://app?vid=4c1704a9-9899-4633-b3fb-0bc9a03e8c2a"},"vehicle_type_id":"4","last_reported":1687280752,"current_range_meters":16000,"station_id":"ce4bhqp2rcd13ifvqhog","pricing_plan_id":"free"},{"bike_id":"924f5e2c-3798-48c5-a26b-4aa840da3bf3","system_id":"levelo_inurba_marseille","lat":43.323729,"lon":5.388839,"is_reserved":false,"is_disabled":false,"rental_uris":{"android":"levelo://app?vid=924f5e2c-3798-48c5-a26b-4aa840da3bf3","ios":"levelo://app?vid=924f5e2c-3798-48c5-a26b-4aa840da3bf3"},"vehicle_type_id":"4","last_reported":1687280752,"current_range_meters":25200,"station_id":"","pricing_plan_id":"free"},{"bike_id":"910d8622-360d-4442-8059-e426cc61b214","system_id":"levelo_inurba_marseille","lat":43.29602,"lon":5.381084,"is_reserved":false,"is_disabled":false,"rental_uris":{"android":"levelo://app?vid=910d8622-360d-4442-8059-e426cc61b214","ios":"levelo://app?vid=910d8622-360d-4442-8059-e426cc61b214"},"vehicle_type_id":"4","last_reported":1687280752,"current_range_meters":0,"station_id":"ce4bgl12rcd13ifvqbo0","pricing_plan_id":"free"},{"bike_id":"2d594686-3e0a-4fb0-a56f-a24183793222","system_id":"levelo_inurba_marseille","lat":43.29602,"lon":5.381084,"is_reserved":false,"is_disabled":false,"rental_uris":{"android":"levelo://app?vid=2d594686-3e0a-4fb0-a56f-a24183793222","ios":"levelo://app?vid=2d594686-3e0a-4fb0-a56f-a24183793222"},"vehicle_type_id":"4","last_reported":1687280752,"current_range_meters":0,"station_id":"ce4bgl12rcd13ifvqbo0","pricing_plan_id":"free"},{"bike_id":"29401836-24c3-4a52-8d8f-525b053b24e7","system_id":"levelo_inurba_marseille","lat":43.300852,"lon":5.390859,"is_reserved":false,"is_disabled":false,"rental_uris":{"android":"levelo://app?vid=29401836-24c3-4a52-8d8f-525b053b24e7","ios":"levelo://app?vid=29401836-24c3-4a52-8d8f-525b053b24e7"},"vehicle_type_id":"4","last_reported":1687280752,"current_range_meters":21600,"station_id":"ce4bh192rcd13ifvqdb0","pricing_plan_id":"free"},{"bike_id":"66b480a6-9947-4496-98e2-93e61a3244b4","system_id":"levelo_inurba_marseille","lat":43.305994,"lon":5.393687,"is_reserved":false,"is_disabled":false,"rental_uris":{"android":"levelo://app?vid=66b480a6-9947-4496-98e2-93e61a3244b4","ios":"levelo://app?vid=66b480a6-9947-4496-98e2-93e61a3244b4"},"vehicle_type_id":"4","last_reported":1687280752,"current_range_meters":31200,"station_id":"ce4bh0p2rcd13ifvqd80","pricing_plan_id":"free"},{"bike_id":"f96bc5ef-773a-4c29-b818-b40707fecfaa","system_id":"levelo_inurba_marseille","lat":43.30564,"lon":5.39344,"is_reserved":false,"is_disabled":false,"rental_uris":{"android":"levelo://app?vid=f96bc5ef-773a-4c29-b818-b40707fecfaa","ios":"levelo://app?vid=f96bc5ef-773a-4c29-b818-b40707fecfaa"},"vehicle_type_id":"4","last_reported":1687280752,"current_range_meters":31200,"station_id":"","pricing_plan_id":"free"},{"bike_id":"7ee8e857-e58f-4d0f-9ec8-cf55d6494b29","system_id":"levelo_inurba_marseille","lat":43.29269,"lon":5.35961,"is_reserved":false,"is_disabled":false,"rental_uris":{"android":"levelo://app?vid=7ee8e857-e58f-4d0f-9ec8-cf55d6494b29","ios":"levelo://app?vid=7ee8e857-e58f-4d0f-9ec8-cf55d6494b29"},"vehicle_type_id":"4","last_reported":1687280752,"current_range_meters":1600,"station_id":"","pricing_plan_id":"free"},{"bike_id":"d83a87cf-d56c-44b3-b4b0-1a672815a9cb","system_id":"levelo_inurba_marseille","lat":43.30085,"lon":5.390856,"is_reserved":false,"is_disabled":false,"rental_uris":{"android":"levelo://app?vid=d83a87cf-d56c-44b3-b4b0-1a672815a9cb","ios":"levelo://app?vid=d83a87cf-d56c-44b3-b4b0-1a672815a9cb"},"vehicle_type_id":"4","last_reported":1687280752,"current_range_meters":19200,"station_id":"ce4bh192rcd13ifvqdb0","pricing_plan_id":"free"},{"bike_id":"42f8762a-b249-4850-baa3-77c7de573d7d","system_id":"levelo_inurba_marseille","lat":43.29218,"lon":5.36047,"is_reserved":false,"is_disabled":false,"rental_uris":{"android":"levelo://app?vid=42f8762a-b249-4850-baa3-77c7de573d7d","ios":"levelo://app?vid=42f8762a-b249-4850-baa3-77c7de573d7d"},"vehicle_type_id":"4","last_reported":1687280752,"current_range_meters":2000,"station_id":"ce4bhbh2rcd13ifvqeqg","pricing_plan_id":"free"},{"bike_id":"9377cd93-d4c3-47d8-90e3-0da5531756a6","system_id":"levelo_inurba_marseille","lat":43.30085,"lon":5.390856,"is_reserved":false,"is_disabled":false,"rental_uris":{"android":"levelo://app?vid=9377cd93-d4c3-47d8-90e3-0da5531756a6","ios":"levelo://app?vid=9377cd93-d4c3-47d8-90e3-0da5531756a6"},"vehicle_type_id":"4","last_reported":1687280752,"current_range_meters":30000,"station_id":"ce4bh192rcd13ifvqdb0","pricing_plan_id":"free"},{"bike_id":"3b630d12-2d2b-4258-9c1e-3dc62282cd44","system_id":"levelo_inurba_marseille","lat":43.29191,"lon":5.37235,"is_reserved":false,"is_disabled":false,"rental_uris":{"android":"levelo://app?vid=3b630d12-2d2b-4258-9c1e-3dc62282cd44","ios":"levelo://app?vid=3b630d12-2d2b-4258-9c1e-3dc62282cd44"},"vehicle_type_id":"4","last_reported":1687280752,"current_range_meters":8400,"station_id":"","pricing_plan_id":"free"},{"bike_id":"4fbc1d9f-2b1a-4a6e-927f-aa43aba2e52e","system_id":"levelo_inurba_marseille","lat":43.292663,"lon":5.376389,"is_reserved":false,"is_disabled":false,"rental_uris":{"android":"levelo://app?vid=4fbc1d9f-2b1a-4a6e-927f-aa43aba2e52e","ios":"levelo://app?vid=4fbc1d9f-2b1a-4a6e-927f-aa43aba2e52e"},"vehicle_type_id":"4","last_reported":1687280752,"current_range_meters":14800,"station_id":"ce4bgi12rcd13ifvqb80","pricing_plan_id":"free"},{"bike_id":"be50cf4d-bb24-4727-9584-62fe78638b38","system_id":"levelo_inurba_marseille","lat":43.298764,"lon":5.388973,"is_reserved":false,"is_disabled":false,"rental_uris":{"android":"levelo://app?vid=be50cf4d-bb24-4727-9584-62fe78638b38","ios":"levelo://app?vid=be50cf4d-bb24-4727-9584-62fe78638b38"},"vehicle_type_id":"4","last_reported":1687280752,"current_range_meters":15600,"station_id":"ce4bh392rcd13ifvqdl0","pricing_plan_id":"free"},{"bike_id":"a9c0c19c-f599-44a7-87cd-fcd0cd497bf0","system_id":"levelo_inurba_marseille","lat":43.292,"lon":5.35788,"is_reserved":false,"is_disabled":false,"rental_uris":{"android":"levelo://app?vid=a9c0c19c-f599-44a7-87cd-fcd0cd497bf0","ios":"levelo://app?vid=a9c0c19c-f599-44a7-87cd-fcd0cd497bf0"},"vehicle_type_id":"4","last_reported":1687280752,"current_range_meters":22400,"station_id":"ce4bhb12rcd13ifvqel0","pricing_plan_id":"free"},{"bike_id":"1b3e06af-ee7b-4b28-864f-681f11770f8c","system_id":"levelo_inurba_marseille","lat":43.313291,"lon":5.396838,"is_reserved":false,"is_disabled":false,"rental_uris":{"android":"levelo://app?vid=1b3e06af-ee7b-4b28-864f-681f11770f8c","ios":"levelo://app?vid=1b3e06af-ee7b-4b28-864f-681f11770f8c"},"vehicle_type_id":"4","last_reported":1687280752,"current_range_meters":16000,"station_id":"ce4bgvp2rcd13ifvqcu0","pricing_plan_id":"free"},{"bike_id":"d38c5de4-1b75-44fb-88b5-eb30bcdcd7d0","system_id":"levelo_inurba_marseille","lat":43.313243,"lon":5.396843,"is_reserved":false,"is_disabled":false,"rental_uris":{"android":"levelo://app?vid=d38c5de4-1b75-44fb-88b5-eb30bcdcd7d0","ios":"levelo://app?vid=d38c5de4-1b75-44fb-88b5-eb30bcdcd7d0"},"vehicle_type_id":"4","last_reported":1687280752,"current_range_meters":21600,"station_id":"","pricing_plan_id":"free"},{"bike_id":"df49fc97-dafa-4f17-b93b-9337b12d8e67","system_id":"levelo_inurba_marseille","lat":43.29194,"lon":5.35789,"is_reserved":false,"is_disabled":false,"rental_uris":{"android":"levelo://app?vid=df49fc97-dafa-4f17-b93b-9337b12d8e67","ios":"levelo://app?vid=df49fc97-dafa-4f17-b93b-9337b12d8e67"},"vehicle_type_id":"4","last_reported":1687280752,"current_range_meters":10400,"station_id":"ce4bhb12rcd13ifvqel0","pricing_plan_id":"free"},{"bike_id":"6ecb2b1c-1018-409e-ab69-1581a8b6488a","system_id":"levelo_inurba_marseille","lat":43.2919,"lon":5.35796,"is_reserved":false,"is_disabled":false,"rental_uris":{"android":"levelo://app?vid=6ecb2b1c-1018-409e-ab69-1581a8b6488a","ios":"levelo://app?vid=6ecb2b1c-1018-409e-ab69-1581a8b6488a"},"vehicle_type_id":"4","last_reported":1687280752,"current_range_meters":22800,"station_id":"ce4bhb12rcd13ifvqel0","pricing_plan_id":"free"},{"bike_id":"171272ce-7917-48f8-90f9-a4f6829b16aa","system_id":"levelo_inurba_marseille","lat":43.309038,"lon":5.396546,"is_reserved":false,"is_disabled":false,"rental_uris":{"android":"levelo://app?vid=171272ce-7917-48f8-90f9-a4f6829b16aa","ios":"levelo://app?vid=171272ce-7917-48f8-90f9-a4f6829b16aa"},"vehicle_type_id":"4","last_reported":1687280752,"current_range_meters":0,"station_id":"ce4bh012rcd13ifvqcv0","pricing_plan_id":"free"},{"bike_id":"4b683a68-deb1-4246-abde-00f379d51bf8","system_id":"levelo_inurba_marseille","lat":43.313291,"lon":5.396838,"is_reserved":false,"is_disabled":false,"rental_uris":{"android":"levelo://app?vid=4b683a68-deb1-4246-abde-00f379d51bf8","ios":"levelo://app?vid=4b683a68-deb1-4246-abde-00f379d51bf8"},"vehicle_type_id":"4","last_reported":1687280752,"current_range_meters":16800,"station_id":"ce4bgvp2rcd13ifvqcu0","pricing_plan_id":"free"},{"bike_id":"c59346be-cd7f-4326-8f29-4c98def13ba8","system_id":"levelo_inurba_marseille","lat":43.29189,"lon":5.35783,"is_reserved":false,"is_disabled":false,"rental_uris":{"android":"levelo://app?vid=c59346be-cd7f-4326-8f29-4c98def13ba8","ios":"levelo://app?vid=c59346be-cd7f-4326-8f29-4c98def13ba8"},"vehicle_type_id":"4","last_reported":1687280752,"current_range_meters":0,"station_id":"ce4bhb12rcd13ifvqel0","pricing_plan_id":"free"},{"bike_id":"254ce328-4684-4333-a0bf-13a73b79d907","system_id":"levelo_inurba_marseille","lat":43.309038,"lon":5.396546,"is_reserved":false,"is_disabled":false,"rental_uris":{"android":"levelo://app?vid=254ce328-4684-4333-a0bf-13a73b79d907","ios":"levelo://app?vid=254ce328-4684-4333-a0bf-13a73b79d907"},"vehicle_type_id":"4","last_reported":1687280752,"current_range_meters":12000,"station_id":"ce4bh012rcd13ifvqcv0","pricing_plan_id":"free"},{"bike_id":"c699ad3d-699f-41d7-a3af-033e51cd7abf","system_id":"levelo_inurba_marseille","lat":43.29183,"lon":5.35797,"is_reserved":false,"is_disabled":false,"rental_uris":{"android":"levelo://app?vid=c699ad3d-699f-41d7-a3af-033e51cd7abf","ios":"levelo://app?vid=c699ad3d-699f-41d7-a3af-033e51cd7abf"},"vehicle_type_id":"4","last_reported":1687280752,"current_range_meters":22000,"station_id":"ce4bhb12rcd13ifvqel0","pricing_plan_id":"free"},{"bike_id":"a6b6b74d-fc14-4e14-b5b0-5791bbfd9901","system_id":"levelo_inurba_marseille","lat":43.309038,"lon":5.396546,"is_reserved":false,"is_disabled":false,"rental_uris":{"android":"levelo://app?vid=a6b6b74d-fc14-4e14-b5b0-5791bbfd9901","ios":"levelo://app?vid=a6b6b74d-fc14-4e14-b5b0-5791bbfd9901"},"vehicle_type_id":"4","last_reported":1687280752,"current_range_meters":9600,"station_id":"ce4bh012rcd13ifvqcv0","pricing_plan_id":"free"},{"bike_id":"342a1ab4-aff6-4fea-ad22-28c6958d4ca4","system_id":"levelo_inurba_marseille","lat":43.309038,"lon":5.396546,"is_reserved":false,"is_disabled":false,"rental_uris":{"android":"levelo://app?vid=342a1ab4-aff6-4fea-ad22-28c6958d4ca4","ios":"levelo://app?vid=342a1ab4-aff6-4fea-ad22-28c6958d4ca4"},"vehicle_type_id":"4","last_reported":1687280752,"current_range_meters":20400,"station_id":"ce4bh012rcd13ifvqcv0","pricing_plan_id":"free"},{"bike_id":"ecd25a77-cf61-4118-8271-8bf340b130d0","system_id":"levelo_inurba_marseille","lat":43.292005,"lon":5.357875,"is_reserved":false,"is_disabled":false,"rental_uris":{"android":"levelo://app?vid=ecd25a77-cf61-4118-8271-8bf340b130d0","ios":"levelo://app?vid=ecd25a77-cf61-4118-8271-8bf340b130d0"},"vehicle_type_id":"4","last_reported":1687280752,"current_range_meters":6400,"station_id":"ce4bhb12rcd13ifvqel0","pricing_plan_id":"free"},{"bike_id":"3aa81bae-cdb2-4168-aab3-13ae970d9cde","system_id":"levelo_inurba_marseille","lat":43.290779,"lon":5.371482,"is_reserved":false,"is_disabled":false,"rental_uris":{"android":"levelo://app?vid=3aa81bae-cdb2-4168-aab3-13ae970d9cde","ios":"levelo://app?vid=3aa81bae-cdb2-4168-aab3-13ae970d9cde"},"vehicle_type_id":"4","last_reported":1687280752,"current_range_meters":2800,"station_id":"ce4bh5p2rcd13ifvqe4g","pricing_plan_id":"free"},{"bike_id":"8d77a438-429e-4a85-90c4-3c39c38e9057","system_id":"levelo_inurba_marseille","lat":43.290779,"lon":5.371482,"is_reserved":false,"is_disabled":false,"rental_uris":{"android":"levelo://app?vid=8d77a438-429e-4a85-90c4-3c39c38e9057","ios":"levelo://app?vid=8d77a438-429e-4a85-90c4-3c39c38e9057"},"vehicle_type_id":"4","last_reported":1687280752,"current_range_meters":1600,"station_id":"ce4bh5p2rcd13ifvqe4g","pricing_plan_id":"free"},{"bike_id":"3271213c-ad1e-4bdf-9670-1e0a5ed00bd0","system_id":"levelo_inurba_marseille","lat":43.30206,"lon":5.39459,"is_reserved":false,"is_disabled":false,"rental_uris":{"android":"levelo://app?vid=3271213c-ad1e-4bdf-9670-1e0a5ed00bd0","ios":"levelo://app?vid=3271213c-ad1e-4bdf-9670-1e0a5ed00bd0"},"vehicle_type_id":"4","last_reported":1687280752,"current_range_meters":28000,"station_id":"ce4bh0p2rcd13ifvqd70","pricing_plan_id":"free"},{"bike_id":"7a2abc4b-9aae-4aad-856d-40e46d5fadb2","system_id":"levelo_inurba_marseille","lat":43.290624,"lon":5.359245,"is_reserved":false,"is_disabled":false,"rental_uris":{"android":"levelo://app?vid=7a2abc4b-9aae-4aad-856d-40e46d5fadb2","ios":"levelo://app?vid=7a2abc4b-9aae-4aad-856d-40e46d5fadb2"},"vehicle_type_id":"4","last_reported":1687280752,"current_range_meters":4000,"station_id":"ce4bha92rcd13ifvqeg0","pricing_plan_id":"free"},{"bike_id":"f07ff003-5ae8-48f6-90f8-e6323e68cdf5","system_id":"levelo_inurba_marseille","lat":43.289184,"lon":5.366408,"is_reserved":false,"is_disabled":false,"rental_uris":{"android":"levelo://app?vid=f07ff003-5ae8-48f6-90f8-e6323e68cdf5","ios":"levelo://app?vid=f07ff003-5ae8-48f6-90f8-e6323e68cdf5"},"vehicle_type_id":"4","last_reported":1687280752,"current_range_meters":400,"station_id":"ce4bhap2rcd13ifvqek0","pricing_plan_id":"free"},{"bike_id":"3f8a925a-6a54-4259-a38f-9cf091aab246","system_id":"levelo_inurba_marseille","lat":43.294162,"lon":5.386292,"is_reserved":false,"is_disabled":false,"rental_uris":{"android":"levelo://app?vid=3f8a925a-6a54-4259-a38f-9cf091aab246","ios":"levelo://app?vid=3f8a925a-6a54-4259-a38f-9cf091aab246"},"vehicle_type_id":"4","last_reported":1687280752,"current_range_meters":31200,"station_id":"ce4bh2h2rcd13ifvqdh0","pricing_plan_id":"free"},{"bike_id":"0609f09b-61e5-40d1-a057-3a5b9409ddd1","system_id":"levelo_inurba_marseille","lat":43.294153,"lon":5.386305,"is_reserved":false,"is_disabled":false,"rental_uris":{"android":"levelo://app?vid=0609f09b-61e5-40d1-a057-3a5b9409ddd1","ios":"levelo://app?vid=0609f09b-61e5-40d1-a057-3a5b9409ddd1"},"vehicle_type_id":"4","last_reported":1687280752,"current_range_meters":24000,"station_id":"ce4bh2h2rcd13ifvqdh0","pricing_plan_id":"free"},{"bike_id":"9006d717-5eb5-470c-abb2-25892ce8c432","system_id":"levelo_inurba_marseille","lat":43.289468,"lon":5.363719,"is_reserved":false,"is_disabled":false,"rental_uris":{"android":"levelo://app?vid=9006d717-5eb5-470c-abb2-25892ce8c432","ios":"levelo://app?vid=9006d717-5eb5-470c-abb2-25892ce8c432"},"vehicle_type_id":"4","last_reported":1687280752,"current_range_meters":19200,"station_id":"ce4bhc92rcd13ifvqetg","pricing_plan_id":"free"},{"bike_id":"3a0d86d0-7a9a-4935-ba21-d1ce41444552","system_id":"levelo_inurba_marseille","lat":43.289184,"lon":5.366408,"is_reserved":false,"is_disabled":false,"rental_uris":{"android":"levelo://app?vid=3a0d86d0-7a9a-4935-ba21-d1ce41444552","ios":"levelo://app?vid=3a0d86d0-7a9a-4935-ba21-d1ce41444552"},"vehicle_type_id":"4","last_reported":1687280752,"current_range_meters":21600,"station_id":"ce4bhap2rcd13ifvqek0","pricing_plan_id":"free"},{"bike_id":"30c29507-7367-490e-a306-a789f3f24e81","system_id":"levelo_inurba_marseille","lat":43.289184,"lon":5.366408,"is_reserved":false,"is_disabled":false,"rental_uris":{"android":"levelo://app?vid=30c29507-7367-490e-a306-a789f3f24e81","ios":"levelo://app?vid=30c29507-7367-490e-a306-a789f3f24e81"},"vehicle_type_id":"4","last_reported":1687280752,"current_range_meters":800,"station_id":"ce4bhap2rcd13ifvqek0","pricing_plan_id":"free"},{"bike_id":"38eb09af-7166-42b9-865e-84246929498f","system_id":"levelo_inurba_marseille","lat":43.292642,"lon":5.384254,"is_reserved":false,"is_disabled":false,"rental_uris":{"android":"levelo://app?vid=38eb09af-7166-42b9-865e-84246929498f","ios":"levelo://app?vid=38eb09af-7166-42b9-865e-84246929498f"},"vehicle_type_id":"4","last_reported":1687280752,"current_range_meters":31200,"station_id":"ce4bh692rcd13ifvqea0","pricing_plan_id":"free"},{"bike_id":"3b5a9482-09b6-41b7-9cc0-2bf86bd4edad","system_id":"levelo_inurba_marseille","lat":43.29005,"lon":5.35617,"is_reserved":false,"is_disabled":false,"rental_uris":{"android":"levelo://app?vid=3b5a9482-09b6-41b7-9cc0-2bf86bd4edad","ios":"levelo://app?vid=3b5a9482-09b6-41b7-9cc0-2bf86bd4edad"},"vehicle_type_id":"4","last_reported":1687280752,"current_range_meters":0,"station_id":"ce4bhb92rcd13ifvqen0","pricing_plan_id":"free"},{"bike_id":"bd2d32b9-182c-4c5b-857b-55b385f43b6b","system_id":"levelo_inurba_marseille","lat":43.290104,"lon":5.356111,"is_reserved":false,"is_disabled":false,"rental_uris":{"android":"levelo://app?vid=bd2d32b9-182c-4c5b-857b-55b385f43b6b","ios":"levelo://app?vid=bd2d32b9-182c-4c5b-857b-55b385f43b6b"},"vehicle_type_id":"4","last_reported":1687280752,"current_range_meters":28000,"station_id":"ce4bhb92rcd13ifvqen0","pricing_plan_id":"free"},{"bike_id":"5b660900-e8bb-4a8b-8d30-f5f2fb7ce8ae","system_id":"levelo_inurba_marseille","lat":43.290104,"lon":5.356111,"is_reserved":false,"is_disabled":false,"rental_uris":{"android":"levelo://app?vid=5b660900-e8bb-4a8b-8d30-f5f2fb7ce8ae","ios":"levelo://app?vid=5b660900-e8bb-4a8b-8d30-f5f2fb7ce8ae"},"vehicle_type_id":"4","last_reported":1687280752,"current_range_meters":24400,"station_id":"ce4bhb92rcd13ifvqen0","pricing_plan_id":"free"},{"bike_id":"73e16835-f599-4cbb-b47b-d7cd12ac09d6","system_id":"levelo_inurba_marseille","lat":43.290104,"lon":5.356111,"is_reserved":false,"is_disabled":false,"rental_uris":{"android":"levelo://app?vid=73e16835-f599-4cbb-b47b-d7cd12ac09d6","ios":"levelo://app?vid=73e16835-f599-4cbb-b47b-d7cd12ac09d6"},"vehicle_type_id":"4","last_reported":1687280752,"current_range_meters":12400,"station_id":"ce4bhb92rcd13ifvqen0","pricing_plan_id":"free"},{"bike_id":"0708e00a-5daf-453f-bb99-d692cb185f51","system_id":"levelo_inurba_marseille","lat":43.290104,"lon":5.356111,"is_reserved":false,"is_disabled":false,"rental_uris":{"android":"levelo://app?vid=0708e00a-5daf-453f-bb99-d692cb185f51","ios":"levelo://app?vid=0708e00a-5daf-453f-bb99-d692cb185f51"},"vehicle_type_id":"4","last_reported":1687280752,"current_range_meters":800,"station_id":"ce4bhb92rcd13ifvqen0","pricing_plan_id":"free"},{"bike_id":"6b4e11aa-824d-4fbe-b18a-1bdb627fb7e4","system_id":"levelo_inurba_marseille","lat":43.290104,"lon":5.356111,"is_reserved":false,"is_disabled":false,"rental_uris":{"android":"levelo://app?vid=6b4e11aa-824d-4fbe-b18a-1bdb627fb7e4","ios":"levelo://app?vid=6b4e11aa-824d-4fbe-b18a-1bdb627fb7e4"},"vehicle_type_id":"4","last_reported":1687280752,"current_range_meters":4000,"station_id":"ce4bhb92rcd13ifvqen0","pricing_plan_id":"free"},{"bike_id":"881c1845-9d10-4092-a9c6-07002db51b52","system_id":"levelo_inurba_marseille","lat":43.295169,"lon":5.390426,"is_reserved":false,"is_disabled":false,"rental_uris":{"android":"levelo://app?vid=881c1845-9d10-4092-a9c6-07002db51b52","ios":"levelo://app?vid=881c1845-9d10-4092-a9c6-07002db51b52"},"vehicle_type_id":"4","last_reported":1687280752,"current_range_meters":15200,"station_id":"ce4bh3p2rcd13ifvqdp0","pricing_plan_id":"free"},{"bike_id":"cbd594a9-e876-4b8a-b5d4-32014bfc2673","system_id":"levelo_inurba_marseille","lat":43.295169,"lon":5.390426,"is_reserved":false,"is_disabled":false,"rental_uris":{"android":"levelo://app?vid=cbd594a9-e876-4b8a-b5d4-32014bfc2673","ios":"levelo://app?vid=cbd594a9-e876-4b8a-b5d4-32014bfc2673"},"vehicle_type_id":"4","last_reported":1687280752,"current_range_meters":2400,"station_id":"ce4bh3p2rcd13ifvqdp0","pricing_plan_id":"free"},{"bike_id":"68d0be23-f3a2-4320-b98c-cb4b6f336ed4","system_id":"levelo_inurba_marseille","lat":43.295169,"lon":5.390426,"is_reserved":false,"is_disabled":false,"rental_uris":{"android":"levelo://app?vid=68d0be23-f3a2-4320-b98c-cb4b6f336ed4","ios":"levelo://app?vid=68d0be23-f3a2-4320-b98c-cb4b6f336ed4"},"vehicle_type_id":"4","last_reported":1687280752,"current_range_meters":0,"station_id":"ce4bh3p2rcd13ifvqdp0","pricing_plan_id":"free"},{"bike_id":"bda8feec-ecd0-45f4-b351-753023836c1f","system_id":"levelo_inurba_marseille","lat":43.28856,"lon":5.358371,"is_reserved":false,"is_disabled":false,"rental_uris":{"android":"levelo://app?vid=bda8feec-ecd0-45f4-b351-753023836c1f","ios":"levelo://app?vid=bda8feec-ecd0-45f4-b351-753023836c1f"},"vehicle_type_id":"4","last_reported":1687280752,"current_range_meters":6800,"station_id":"ce4bhb12rcd13ifvqem0","pricing_plan_id":"free"},{"bike_id":"26365ace-4a61-438e-aed1-2d6054a5b167","system_id":"levelo_inurba_marseille","lat":43.28852,"lon":5.3585,"is_reserved":false,"is_disabled":false,"rental_uris":{"android":"levelo://app?vid=26365ace-4a61-438e-aed1-2d6054a5b167","ios":"levelo://app?vid=26365ace-4a61-438e-aed1-2d6054a5b167"},"vehicle_type_id":"4","last_reported":1687280752,"current_range_meters":12400,"station_id":"ce4bhb12rcd13ifvqem0","pricing_plan_id":"free"},{"bike_id":"fc270946-86fe-48b8-b824-bf09bce02e98","system_id":"levelo_inurba_marseille","lat":43.28852,"lon":5.35843,"is_reserved":false,"is_disabled":false,"rental_uris":{"android":"levelo://app?vid=fc270946-86fe-48b8-b824-bf09bce02e98","ios":"levelo://app?vid=fc270946-86fe-48b8-b824-bf09bce02e98"},"vehicle_type_id":"4","last_reported":1687280752,"current_range_meters":10000,"station_id":"ce4bhb12rcd13ifvqem0","pricing_plan_id":"free"},{"bike_id":"2b768e82-b1fc-4e5e-895e-1b982dfd41f7","system_id":"levelo_inurba_marseille","lat":43.28856,"lon":5.358371,"is_reserved":false,"is_disabled":false,"rental_uris":{"android":"levelo://app?vid=2b768e82-b1fc-4e5e-895e-1b982dfd41f7","ios":"levelo://app?vid=2b768e82-b1fc-4e5e-895e-1b982dfd41f7"},"vehicle_type_id":"4","last_reported":1687280752,"current_range_meters":17600,"station_id":"ce4bhb12rcd13ifvqem0","pricing_plan_id":"free"},{"bike_id":"5b3a1978-a3e1-4f5a-bb79-9fdce5e9c6ee","system_id":"levelo_inurba_marseille","lat":43.28856,"lon":5.358371,"is_reserved":false,"is_disabled":false,"rental_uris":{"android":"levelo://app?vid=5b3a1978-a3e1-4f5a-bb79-9fdce5e9c6ee","ios":"levelo://app?vid=5b3a1978-a3e1-4f5a-bb79-9fdce5e9c6ee"},"vehicle_type_id":"4","last_reported":1687280752,"current_range_meters":25600,"station_id":"ce4bhb12rcd13ifvqem0","pricing_plan_id":"free"},{"bike_id":"74ec2e8d-e360-43cd-bb94-d46b388e5055","system_id":"levelo_inurba_marseille","lat":43.28848,"lon":5.35824,"is_reserved":false,"is_disabled":false,"rental_uris":{"android":"levelo://app?vid=74ec2e8d-e360-43cd-bb94-d46b388e5055","ios":"levelo://app?vid=74ec2e8d-e360-43cd-bb94-d46b388e5055"},"vehicle_type_id":"4","last_reported":1687280752,"current_range_meters":0,"station_id":"ce4bhb12rcd13ifvqem0","pricing_plan_id":"free"},{"bike_id":"5845e4a5-355b-4a7b-b79b-a3e190618865","system_id":"levelo_inurba_marseille","lat":43.28841,"lon":5.35858,"is_reserved":false,"is_disabled":false,"rental_uris":{"android":"levelo://app?vid=5845e4a5-355b-4a7b-b79b-a3e190618865","ios":"levelo://app?vid=5845e4a5-355b-4a7b-b79b-a3e190618865"},"vehicle_type_id":"4","last_reported":1687280752,"current_range_meters":31200,"station_id":"ce4bhb12rcd13ifvqem0","pricing_plan_id":"free"},{"bike_id":"75038844-3180-4b64-b1f6-bd982c389bcb","system_id":"levelo_inurba_marseille","lat":43.28856,"lon":5.358371,"is_reserved":false,"is_disabled":false,"rental_uris":{"android":"levelo://app?vid=75038844-3180-4b64-b1f6-bd982c389bcb","ios":"levelo://app?vid=75038844-3180-4b64-b1f6-bd982c389bcb"},"vehicle_type_id":"4","last_reported":1687280752,"current_range_meters":14800,"station_id":"ce4bhb12rcd13ifvqem0","pricing_plan_id":"free"},{"bike_id":"269bbddb-a1d6-4742-8e89-cb47e1b934ad","system_id":"levelo_inurba_marseille","lat":43.309371,"lon":5.401449,"is_reserved":false,"is_disabled":false,"rental_uris":{"android":"levelo://app?vid=269bbddb-a1d6-4742-8e89-cb47e1b934ad","ios":"levelo://app?vid=269bbddb-a1d6-4742-8e89-cb47e1b934ad"},"vehicle_type_id":"4","last_reported":1687280752,"current_range_meters":10400,"station_id":"ce4bgvp2rcd13ifvqct0","pricing_plan_id":"free"},{"bike_id":"e9bfbcd4-ff0c-4a60-a7fe-f90d864174f3","system_id":"levelo_inurba_marseille","lat":43.286039,"lon":5.370679,"is_reserved":false,"is_disabled":false,"rental_uris":{"android":"levelo://app?vid=e9bfbcd4-ff0c-4a60-a7fe-f90d864174f3","ios":"levelo://app?vid=e9bfbcd4-ff0c-4a60-a7fe-f90d864174f3"},"vehicle_type_id":"4","last_reported":1687280752,"current_range_meters":10000,"station_id":"ce4bht12rcd13ifvqi60","pricing_plan_id":"free"},{"bike_id":"2e6705f8-342c-4c30-b240-f44339d99024","system_id":"levelo_inurba_marseille","lat":43.30642,"lon":5.401031,"is_reserved":false,"is_disabled":false,"rental_uris":{"android":"levelo://app?vid=2e6705f8-342c-4c30-b240-f44339d99024","ios":"levelo://app?vid=2e6705f8-342c-4c30-b240-f44339d99024"},"vehicle_type_id":"4","last_reported":1687280752,"current_range_meters":24000,"station_id":"ce4bh112rcd13ifvqda0","pricing_plan_id":"free"},{"bike_id":"e6f5851b-cc38-404b-a089-3562eba46275","system_id":"levelo_inurba_marseille","lat":43.301117,"lon":5.398795,"is_reserved":false,"is_disabled":false,"rental_uris":{"android":"levelo://app?vid=e6f5851b-cc38-404b-a089-3562eba46275","ios":"levelo://app?vid=e6f5851b-cc38-404b-a089-3562eba46275"},"vehicle_type_id":"4","last_reported":1687280752,"current_range_meters":4000,"station_id":"ce4bh0h2rcd13ifvqd40","pricing_plan_id":"free"},{"bike_id":"8e9c6318-fcc0-4275-9ab6-bf0b97af8017","system_id":"levelo_inurba_marseille","lat":43.301117,"lon":5.398795,"is_reserved":false,"is_disabled":false,"rental_uris":{"android":"levelo://app?vid=8e9c6318-fcc0-4275-9ab6-bf0b97af8017","ios":"levelo://app?vid=8e9c6318-fcc0-4275-9ab6-bf0b97af8017"},"vehicle_type_id":"4","last_reported":1687280752,"current_range_meters":30800,"station_id":"ce4bh0h2rcd13ifvqd40","pricing_plan_id":"free"},{"bike_id":"db3103a2-3cb3-4864-86b1-e4f8eb95e42f","system_id":"levelo_inurba_marseille","lat":43.301117,"lon":5.398795,"is_reserved":false,"is_disabled":false,"rental_uris":{"android":"levelo://app?vid=db3103a2-3cb3-4864-86b1-e4f8eb95e42f","ios":"levelo://app?vid=db3103a2-3cb3-4864-86b1-e4f8eb95e42f"},"vehicle_type_id":"4","last_reported":1687280752,"current_range_meters":1200,"station_id":"ce4bh0h2rcd13ifvqd40","pricing_plan_id":"free"},{"bike_id":"3cb94351-a303-4562-9a92-4058f2ef7084","system_id":"levelo_inurba_marseille","lat":43.286961,"lon":5.373785,"is_reserved":false,"is_disabled":false,"rental_uris":{"android":"levelo://app?vid=3cb94351-a303-4562-9a92-4058f2ef7084","ios":"levelo://app?vid=3cb94351-a303-4562-9a92-4058f2ef7084"},"vehicle_type_id":"4","last_reported":1687280752,"current_range_meters":0,"station_id":"ce4bh3p2rcd13ifvqdq0","pricing_plan_id":"free"},{"bike_id":"a1095922-bcf8-43b5-9f1a-85ae1f745c1a","system_id":"levelo_inurba_marseille","lat":43.298681,"lon":5.397225,"is_reserved":false,"is_disabled":false,"rental_uris":{"android":"levelo://app?vid=a1095922-bcf8-43b5-9f1a-85ae1f745c1a","ios":"levelo://app?vid=a1095922-bcf8-43b5-9f1a-85ae1f745c1a"},"vehicle_type_id":"4","last_reported":1687280752,"current_range_meters":10800,"station_id":"ce4bh0h2rcd13ifvqd50","pricing_plan_id":"free"},{"bike_id":"90fe9e52-5741-4e04-a361-61a2c57a20ef","system_id":"levelo_inurba_marseille","lat":43.286591,"lon":5.363346,"is_reserved":false,"is_disabled":false,"rental_uris":{"android":"levelo://app?vid=90fe9e52-5741-4e04-a361-61a2c57a20ef","ios":"levelo://app?vid=90fe9e52-5741-4e04-a361-61a2c57a20ef"},"vehicle_type_id":"4","last_reported":1687280752,"current_range_meters":1200,"station_id":"ce4bhah2rcd13ifvqej0","pricing_plan_id":"free"},{"bike_id":"fcf4d478-0579-4f56-a840-00feac0bd77e","system_id":"levelo_inurba_marseille","lat":43.298681,"lon":5.397225,"is_reserved":false,"is_disabled":false,"rental_uris":{"android":"levelo://app?vid=fcf4d478-0579-4f56-a840-00feac0bd77e","ios":"levelo://app?vid=fcf4d478-0579-4f56-a840-00feac0bd77e"},"vehicle_type_id":"4","last_reported":1687280752,"current_range_meters":8000,"station_id":"ce4bh0h2rcd13ifvqd50","pricing_plan_id":"free"},{"bike_id":"889de371-917f-4f2e-b7ee-dd0e27dbbde1","system_id":"levelo_inurba_marseille","lat":43.298681,"lon":5.397225,"is_reserved":false,"is_disabled":false,"rental_uris":{"android":"levelo://app?vid=889de371-917f-4f2e-b7ee-dd0e27dbbde1","ios":"levelo://app?vid=889de371-917f-4f2e-b7ee-dd0e27dbbde1"},"vehicle_type_id":"4","last_reported":1687280752,"current_range_meters":22800,"station_id":"ce4bh0h2rcd13ifvqd50","pricing_plan_id":"free"},{"bike_id":"f9faac94-0a5e-45ee-a004-b7d5f5952b62","system_id":"levelo_inurba_marseille","lat":43.286591,"lon":5.363346,"is_reserved":false,"is_disabled":false,"rental_uris":{"android":"levelo://app?vid=f9faac94-0a5e-45ee-a004-b7d5f5952b62","ios":"levelo://app?vid=f9faac94-0a5e-45ee-a004-b7d5f5952b62"},"vehicle_type_id":"4","last_reported":1687280752,"current_range_meters":0,"station_id":"ce4bhah2rcd13ifvqej0","pricing_plan_id":"free"},{"bike_id":"2171e066-7b6c-4916-b097-b0ce2d146331","system_id":"levelo_inurba_marseille","lat":43.298681,"lon":5.397225,"is_reserved":false,"is_disabled":false,"rental_uris":{"android":"levelo://app?vid=2171e066-7b6c-4916-b097-b0ce2d146331","ios":"levelo://app?vid=2171e066-7b6c-4916-b097-b0ce2d146331"},"vehicle_type_id":"4","last_reported":1687280752,"current_range_meters":12400,"station_id":"ce4bh0h2rcd13ifvqd50","pricing_plan_id":"free"},{"bike_id":"3b885b79-946e-4c52-931e-e638d0ad63d9","system_id":"levelo_inurba_marseille","lat":43.298681,"lon":5.397225,"is_reserved":false,"is_disabled":false,"rental_uris":{"android":"levelo://app?vid=3b885b79-946e-4c52-931e-e638d0ad63d9","ios":"levelo://app?vid=3b885b79-946e-4c52-931e-e638d0ad63d9"},"vehicle_type_id":"4","last_reported":1687280752,"current_range_meters":30800,"station_id":"ce4bh0h2rcd13ifvqd50","pricing_plan_id":"free"},{"bike_id":"856f6afe-f297-4f67-bf2f-ed770fb314dd","system_id":"levelo_inurba_marseille","lat":43.295196,"lon":5.39397,"is_reserved":false,"is_disabled":false,"rental_uris":{"android":"levelo://app?vid=856f6afe-f297-4f67-bf2f-ed770fb314dd","ios":"levelo://app?vid=856f6afe-f297-4f67-bf2f-ed770fb314dd"},"vehicle_type_id":"4","last_reported":1687280752,"current_range_meters":2800,"station_id":"ce4bh292rcd13ifvqdf0","pricing_plan_id":"free"},{"bike_id":"05ee03aa-f671-4da5-acf5-08bef1ac7547","system_id":"levelo_inurba_marseille","lat":43.298681,"lon":5.397225,"is_reserved":false,"is_disabled":false,"rental_uris":{"android":"levelo://app?vid=05ee03aa-f671-4da5-acf5-08bef1ac7547","ios":"levelo://app?vid=05ee03aa-f671-4da5-acf5-08bef1ac7547"},"vehicle_type_id":"4","last_reported":1687280752,"current_range_meters":17600,"station_id":"ce4bh0h2rcd13ifvqd50","pricing_plan_id":"free"},{"bike_id":"8b858932-8773-49f9-9339-371d217d1b2c","system_id":"levelo_inurba_marseille","lat":43.298681,"lon":5.397225,"is_reserved":false,"is_disabled":false,"rental_uris":{"android":"levelo://app?vid=8b858932-8773-49f9-9339-371d217d1b2c","ios":"levelo://app?vid=8b858932-8773-49f9-9339-371d217d1b2c"},"vehicle_type_id":"4","last_reported":1687280752,"current_range_meters":28400,"station_id":"ce4bh0h2rcd13ifvqd50","pricing_plan_id":"free"},{"bike_id":"baa40bc0-be0f-4bf5-9e1c-5174d0fd05f7","system_id":"levelo_inurba_marseille","lat":43.29862,"lon":5.3974,"is_reserved":false,"is_disabled":false,"rental_uris":{"android":"levelo://app?vid=baa40bc0-be0f-4bf5-9e1c-5174d0fd05f7","ios":"levelo://app?vid=baa40bc0-be0f-4bf5-9e1c-5174d0fd05f7"},"vehicle_type_id":"4","last_reported":1687280752,"current_range_meters":5600,"station_id":"ce4bh0h2rcd13ifvqd50","pricing_plan_id":"free"},{"bike_id":"5054e3ca-0890-4b45-969a-d7115d72bb9a","system_id":"levelo_inurba_marseille","lat":43.28746,"lon":5.37708,"is_reserved":false,"is_disabled":false,"rental_uris":{"android":"levelo://app?vid=5054e3ca-0890-4b45-969a-d7115d72bb9a","ios":"levelo://app?vid=5054e3ca-0890-4b45-969a-d7115d72bb9a"},"vehicle_type_id":"4","last_reported":1687280752,"current_range_meters":16800,"station_id":"","pricing_plan_id":"free"},{"bike_id":"5e0672e3-e970-4ad5-84ce-b737eee20693","system_id":"levelo_inurba_marseille","lat":43.302759,"lon":5.400793,"is_reserved":false,"is_disabled":false,"rental_uris":{"android":"levelo://app?vid=5e0672e3-e970-4ad5-84ce-b737eee20693","ios":"levelo://app?vid=5e0672e3-e970-4ad5-84ce-b737eee20693"},"vehicle_type_id":"4","last_reported":1687280752,"current_range_meters":26000,"station_id":"ce4bgvh2rcd13ifvqcs0","pricing_plan_id":"free"},{"bike_id":"5626af29-9ded-4339-8a4f-ae5eb09432c3","system_id":"levelo_inurba_marseille","lat":43.28613,"lon":5.37062,"is_reserved":false,"is_disabled":false,"rental_uris":{"android":"levelo://app?vid=5626af29-9ded-4339-8a4f-ae5eb09432c3","ios":"levelo://app?vid=5626af29-9ded-4339-8a4f-ae5eb09432c3"},"vehicle_type_id":"4","last_reported":1687280752,"current_range_meters":19600,"station_id":"","pricing_plan_id":"free"},{"bike_id":"14535e85-7d8c-4fd2-80e0-c5b90e90d309","system_id":"levelo_inurba_marseille","lat":43.286039,"lon":5.370679,"is_reserved":false,"is_disabled":false,"rental_uris":{"android":"levelo://app?vid=14535e85-7d8c-4fd2-80e0-c5b90e90d309","ios":"levelo://app?vid=14535e85-7d8c-4fd2-80e0-c5b90e90d309"},"vehicle_type_id":"4","last_reported":1687280752,"current_range_meters":11600,"station_id":"ce4bht12rcd13ifvqi60","pricing_plan_id":"free"},{"bike_id":"ed33fd63-fcf2-4f51-ba3b-3f4f1c720fdf","system_id":"levelo_inurba_marseille","lat":43.316517,"lon":5.404375,"is_reserved":false,"is_disabled":false,"rental_uris":{"android":"levelo://app?vid=ed33fd63-fcf2-4f51-ba3b-3f4f1c720fdf","ios":"levelo://app?vid=ed33fd63-fcf2-4f51-ba3b-3f4f1c720fdf"},"vehicle_type_id":"4","last_reported":1687280752,"current_range_meters":3600,"station_id":"ce4bh012rcd13ifvqd00","pricing_plan_id":"free"},{"bike_id":"37bfd24a-d85b-4565-ba06-c4da5aeabc8a","system_id":"levelo_inurba_marseille","lat":43.316517,"lon":5.404375,"is_reserved":false,"is_disabled":false,"rental_uris":{"android":"levelo://app?vid=37bfd24a-d85b-4565-ba06-c4da5aeabc8a","ios":"levelo://app?vid=37bfd24a-d85b-4565-ba06-c4da5aeabc8a"},"vehicle_type_id":"4","last_reported":1687280752,"current_range_meters":18800,"station_id":"ce4bh012rcd13ifvqd00","pricing_plan_id":"free"},{"bike_id":"fac380a4-f6d0-40e3-84a7-e54030a46aa6","system_id":"levelo_inurba_marseille","lat":43.316517,"lon":5.404375,"is_reserved":false,"is_disabled":false,"rental_uris":{"android":"levelo://app?vid=fac380a4-f6d0-40e3-84a7-e54030a46aa6","ios":"levelo://app?vid=fac380a4-f6d0-40e3-84a7-e54030a46aa6"},"vehicle_type_id":"4","last_reported":1687280752,"current_range_meters":10400,"station_id":"ce4bh012rcd13ifvqd00","pricing_plan_id":"free"},{"bike_id":"4b07f28d-4ef5-4d12-b9cd-3086952c32f7","system_id":"levelo_inurba_marseille","lat":43.291994,"lon":5.392907,"is_reserved":false,"is_disabled":false,"rental_uris":{"android":"levelo://app?vid=4b07f28d-4ef5-4d12-b9cd-3086952c32f7","ios":"levelo://app?vid=4b07f28d-4ef5-4d12-b9cd-3086952c32f7"},"vehicle_type_id":"4","last_reported":1687280752,"current_range_meters":23200,"station_id":"ce4bh192rcd13ifvqdd0","pricing_plan_id":"free"},{"bike_id":"a7fc1897-79df-49f5-b5a0-3a86b7ed938b","system_id":"levelo_inurba_marseille","lat":43.33352,"lon":5.3938,"is_reserved":false,"is_disabled":false,"rental_uris":{"android":"levelo://app?vid=a7fc1897-79df-49f5-b5a0-3a86b7ed938b","ios":"levelo://app?vid=a7fc1897-79df-49f5-b5a0-3a86b7ed938b"},"vehicle_type_id":"4","last_reported":1687280752,"current_range_meters":0,"station_id":"","pricing_plan_id":"free"},{"bike_id":"c45c133c-7e18-4892-ad2a-838c1064d748","system_id":"levelo_inurba_marseille","lat":43.28468,"lon":5.358952,"is_reserved":false,"is_disabled":false,"rental_uris":{"android":"levelo://app?vid=c45c133c-7e18-4892-ad2a-838c1064d748","ios":"levelo://app?vid=c45c133c-7e18-4892-ad2a-838c1064d748"},"vehicle_type_id":"4","last_reported":1687280752,"current_range_meters":17200,"station_id":"ce4bhah2rcd13ifvqei0","pricing_plan_id":"free"},{"bike_id":"06803be0-9b72-4d0b-a2b6-390e6a5c9ee3","system_id":"levelo_inurba_marseille","lat":43.28466,"lon":5.35886,"is_reserved":false,"is_disabled":false,"rental_uris":{"android":"levelo://app?vid=06803be0-9b72-4d0b-a2b6-390e6a5c9ee3","ios":"levelo://app?vid=06803be0-9b72-4d0b-a2b6-390e6a5c9ee3"},"vehicle_type_id":"4","last_reported":1687280752,"current_range_meters":21600,"station_id":"ce4bhah2rcd13ifvqei0","pricing_plan_id":"free"},{"bike_id":"c8edf14d-638d-4040-b85d-d6614aa8827a","system_id":"levelo_inurba_marseille","lat":43.284534,"lon":5.358662,"is_reserved":false,"is_disabled":false,"rental_uris":{"android":"levelo://app?vid=c8edf14d-638d-4040-b85d-d6614aa8827a","ios":"levelo://app?vid=c8edf14d-638d-4040-b85d-d6614aa8827a"},"vehicle_type_id":"4","last_reported":1687280752,"current_range_meters":17200,"station_id":"ce4bhah2rcd13ifvqei0","pricing_plan_id":"free"},{"bike_id":"31fbe4ac-2699-490b-92a6-68d1e559d797","system_id":"levelo_inurba_marseille","lat":43.284538,"lon":5.358657,"is_reserved":false,"is_disabled":false,"rental_uris":{"android":"levelo://app?vid=31fbe4ac-2699-490b-92a6-68d1e559d797","ios":"levelo://app?vid=31fbe4ac-2699-490b-92a6-68d1e559d797"},"vehicle_type_id":"4","last_reported":1687280752,"current_range_meters":12000,"station_id":"ce4bhah2rcd13ifvqei0","pricing_plan_id":"free"},{"bike_id":"a770dbc2-7e88-4f83-b3d8-6d0a1619a075","system_id":"levelo_inurba_marseille","lat":43.28461,"lon":5.35882,"is_reserved":false,"is_disabled":false,"rental_uris":{"android":"levelo://app?vid=a770dbc2-7e88-4f83-b3d8-6d0a1619a075","ios":"levelo://app?vid=a770dbc2-7e88-4f83-b3d8-6d0a1619a075"},"vehicle_type_id":"4","last_reported":1687280752,"current_range_meters":9200,"station_id":"ce4bhah2rcd13ifvqei0","pricing_plan_id":"free"},{"bike_id":"28b9353f-2d6c-44be-9ee9-6a4304246517","system_id":"levelo_inurba_marseille","lat":43.284534,"lon":5.358662,"is_reserved":false,"is_disabled":false,"rental_uris":{"android":"levelo://app?vid=28b9353f-2d6c-44be-9ee9-6a4304246517","ios":"levelo://app?vid=28b9353f-2d6c-44be-9ee9-6a4304246517"},"vehicle_type_id":"4","last_reported":1687280752,"current_range_meters":8000,"station_id":"ce4bhah2rcd13ifvqei0","pricing_plan_id":"free"},{"bike_id":"70106e25-6b59-4ea9-b61a-d43a092fd36b","system_id":"levelo_inurba_marseille","lat":43.284538,"lon":5.358657,"is_reserved":false,"is_disabled":false,"rental_uris":{"android":"levelo://app?vid=70106e25-6b59-4ea9-b61a-d43a092fd36b","ios":"levelo://app?vid=70106e25-6b59-4ea9-b61a-d43a092fd36b"},"vehicle_type_id":"4","last_reported":1687280752,"current_range_meters":27600,"station_id":"ce4bhah2rcd13ifvqei0","pricing_plan_id":"free"},{"bike_id":"85fc127e-50de-4bb9-9c58-24e16e5fbb29","system_id":"levelo_inurba_marseille","lat":43.284538,"lon":5.358657,"is_reserved":false,"is_disabled":false,"rental_uris":{"android":"levelo://app?vid=85fc127e-50de-4bb9-9c58-24e16e5fbb29","ios":"levelo://app?vid=85fc127e-50de-4bb9-9c58-24e16e5fbb29"},"vehicle_type_id":"4","last_reported":1687280752,"current_range_meters":31200,"station_id":"ce4bhah2rcd13ifvqei0","pricing_plan_id":"free"},{"bike_id":"7d5342a7-9cfd-4fe4-af7d-10b72572457e","system_id":"levelo_inurba_marseille","lat":43.285856,"lon":5.350771,"is_reserved":false,"is_disabled":false,"rental_uris":{"android":"levelo://app?vid=7d5342a7-9cfd-4fe4-af7d-10b72572457e","ios":"levelo://app?vid=7d5342a7-9cfd-4fe4-af7d-10b72572457e"},"vehicle_type_id":"4","last_reported":1687280752,"current_range_meters":24400,"station_id":"ce4bhch2rcd13ifvqeug","pricing_plan_id":"free"},{"bike_id":"10a594cf-e9de-49a3-a005-ca277e9c14ac","system_id":"levelo_inurba_marseille","lat":43.285856,"lon":5.350771,"is_reserved":false,"is_disabled":false,"rental_uris":{"android":"levelo://app?vid=10a594cf-e9de-49a3-a005-ca277e9c14ac","ios":"levelo://app?vid=10a594cf-e9de-49a3-a005-ca277e9c14ac"},"vehicle_type_id":"4","last_reported":1687280752,"current_range_meters":31200,"station_id":"ce4bhch2rcd13ifvqeug","pricing_plan_id":"free"},{"bike_id":"9821ee43-e608-475f-8a0d-ac6c1f36dafb","system_id":"levelo_inurba_marseille","lat":43.2862,"lon":5.35101,"is_reserved":false,"is_disabled":false,"rental_uris":{"android":"levelo://app?vid=9821ee43-e608-475f-8a0d-ac6c1f36dafb","ios":"levelo://app?vid=9821ee43-e608-475f-8a0d-ac6c1f36dafb"},"vehicle_type_id":"4","last_reported":1687280752,"current_range_meters":31200,"station_id":"ce4bhch2rcd13ifvqeug","pricing_plan_id":"free"},{"bike_id":"26a7fc0c-7471-48d2-811d-23746be63b06","system_id":"levelo_inurba_marseille","lat":43.285856,"lon":5.350771,"is_reserved":false,"is_disabled":false,"rental_uris":{"android":"levelo://app?vid=26a7fc0c-7471-48d2-811d-23746be63b06","ios":"levelo://app?vid=26a7fc0c-7471-48d2-811d-23746be63b06"},"vehicle_type_id":"4","last_reported":1687280752,"current_range_meters":18000,"station_id":"ce4bhch2rcd13ifvqeug","pricing_plan_id":"free"},{"bike_id":"5d33473e-a64d-4e7c-8947-b68bb9592a2e","system_id":"levelo_inurba_marseille","lat":43.285856,"lon":5.350771,"is_reserved":false,"is_disabled":false,"rental_uris":{"android":"levelo://app?vid=5d33473e-a64d-4e7c-8947-b68bb9592a2e","ios":"levelo://app?vid=5d33473e-a64d-4e7c-8947-b68bb9592a2e"},"vehicle_type_id":"4","last_reported":1687280752,"current_range_meters":18400,"station_id":"ce4bhch2rcd13ifvqeug","pricing_plan_id":"free"},{"bike_id":"e4a0a5d7-cc14-4391-a1f0-7420fd34c6f6","system_id":"levelo_inurba_marseille","lat":43.285856,"lon":5.350771,"is_reserved":false,"is_disabled":false,"rental_uris":{"android":"levelo://app?vid=e4a0a5d7-cc14-4391-a1f0-7420fd34c6f6","ios":"levelo://app?vid=e4a0a5d7-cc14-4391-a1f0-7420fd34c6f6"},"vehicle_type_id":"4","last_reported":1687280752,"current_range_meters":22800,"station_id":"ce4bhch2rcd13ifvqeug","pricing_plan_id":"free"},{"bike_id":"9e72b8ae-ff16-4108-877a-0665b03cb85f","system_id":"levelo_inurba_marseille","lat":43.28617,"lon":5.35099,"is_reserved":false,"is_disabled":false,"rental_uris":{"android":"levelo://app?vid=9e72b8ae-ff16-4108-877a-0665b03cb85f","ios":"levelo://app?vid=9e72b8ae-ff16-4108-877a-0665b03cb85f"},"vehicle_type_id":"4","last_reported":1687280752,"current_range_meters":0,"station_id":"ce4bhch2rcd13ifvqeug","pricing_plan_id":"free"},{"bike_id":"802e95e9-5ca5-42fb-b010-72d25b0873bb","system_id":"levelo_inurba_marseille","lat":43.285856,"lon":5.350771,"is_reserved":false,"is_disabled":false,"rental_uris":{"android":"levelo://app?vid=802e95e9-5ca5-42fb-b010-72d25b0873bb","ios":"levelo://app?vid=802e95e9-5ca5-42fb-b010-72d25b0873bb"},"vehicle_type_id":"4","last_reported":1687280752,"current_range_meters":0,"station_id":"ce4bhch2rcd13ifvqeug","pricing_plan_id":"free"},{"bike_id":"1a9ce0cf-a734-47a6-8677-6d005d88e20f","system_id":"levelo_inurba_marseille","lat":43.285856,"lon":5.350771,"is_reserved":false,"is_disabled":false,"rental_uris":{"android":"levelo://app?vid=1a9ce0cf-a734-47a6-8677-6d005d88e20f","ios":"levelo://app?vid=1a9ce0cf-a734-47a6-8677-6d005d88e20f"},"vehicle_type_id":"4","last_reported":1687280752,"current_range_meters":28400,"station_id":"ce4bhch2rcd13ifvqeug","pricing_plan_id":"free"},{"bike_id":"cce0de78-c970-44d8-84ce-fa20ec002d7a","system_id":"levelo_inurba_marseille","lat":43.285856,"lon":5.350771,"is_reserved":false,"is_disabled":false,"rental_uris":{"android":"levelo://app?vid=cce0de78-c970-44d8-84ce-fa20ec002d7a","ios":"levelo://app?vid=cce0de78-c970-44d8-84ce-fa20ec002d7a"},"vehicle_type_id":"4","last_reported":1687280752,"current_range_meters":6800,"station_id":"ce4bhch2rcd13ifvqeug","pricing_plan_id":"free"},{"bike_id":"cc50ea14-0a32-4359-a8c1-1e6cc5bce389","system_id":"levelo_inurba_marseille","lat":43.283998,"lon":5.375062,"is_reserved":false,"is_disabled":false,"rental_uris":{"android":"levelo://app?vid=cc50ea14-0a32-4359-a8c1-1e6cc5bce389","ios":"levelo://app?vid=cc50ea14-0a32-4359-a8c1-1e6cc5bce389"},"vehicle_type_id":"4","last_reported":1687280752,"current_range_meters":1600,"station_id":"ce4bh412rcd13ifvqds0","pricing_plan_id":"free"},{"bike_id":"e683540b-cc97-4596-9f66-4de85725be75","system_id":"levelo_inurba_marseille","lat":43.285856,"lon":5.350771,"is_reserved":false,"is_disabled":false,"rental_uris":{"android":"levelo://app?vid=e683540b-cc97-4596-9f66-4de85725be75","ios":"levelo://app?vid=e683540b-cc97-4596-9f66-4de85725be75"},"vehicle_type_id":"4","last_reported":1687280752,"current_range_meters":0,"station_id":"ce4bhch2rcd13ifvqeug","pricing_plan_id":"free"},{"bike_id":"56d9c95e-a05d-427c-b9e0-1653b8fcc4e2","system_id":"levelo_inurba_marseille","lat":43.285856,"lon":5.350771,"is_reserved":false,"is_disabled":false,"rental_uris":{"android":"levelo://app?vid=56d9c95e-a05d-427c-b9e0-1653b8fcc4e2","ios":"levelo://app?vid=56d9c95e-a05d-427c-b9e0-1653b8fcc4e2"},"vehicle_type_id":"4","last_reported":1687280752,"current_range_meters":18000,"station_id":"ce4bhch2rcd13ifvqeug","pricing_plan_id":"free"},{"bike_id":"c6ee6779-57c3-410f-a0ff-27776d75230c","system_id":"levelo_inurba_marseille","lat":43.285856,"lon":5.350771,"is_reserved":false,"is_disabled":false,"rental_uris":{"android":"levelo://app?vid=c6ee6779-57c3-410f-a0ff-27776d75230c","ios":"levelo://app?vid=c6ee6779-57c3-410f-a0ff-27776d75230c"},"vehicle_type_id":"4","last_reported":1687280752,"current_range_meters":1600,"station_id":"ce4bhch2rcd13ifvqeug","pricing_plan_id":"free"},{"bike_id":"76f2309f-0a06-43b7-9baf-c1e13e03b101","system_id":"levelo_inurba_marseille","lat":43.295713,"lon":5.399639,"is_reserved":false,"is_disabled":false,"rental_uris":{"android":"levelo://app?vid=76f2309f-0a06-43b7-9baf-c1e13e03b101","ios":"levelo://app?vid=76f2309f-0a06-43b7-9baf-c1e13e03b101"},"vehicle_type_id":"4","last_reported":1687280752,"current_range_meters":20000,"station_id":"ce4bh312rcd13ifvqdj0","pricing_plan_id":"free"},{"bike_id":"a0294cbe-ddff-445e-81c2-60a75d245509","system_id":"levelo_inurba_marseille","lat":43.32189,"lon":5.4058,"is_reserved":false,"is_disabled":false,"rental_uris":{"android":"levelo://app?vid=a0294cbe-ddff-445e-81c2-60a75d245509","ios":"levelo://app?vid=a0294cbe-ddff-445e-81c2-60a75d245509"},"vehicle_type_id":"4","last_reported":1687280752,"current_range_meters":17600,"station_id":"","pricing_plan_id":"free"},{"bike_id":"f6fda2f2-04f1-4377-bae3-2fc212d95c47","system_id":"levelo_inurba_marseille","lat":43.34238,"lon":5.36194,"is_reserved":false,"is_disabled":false,"rental_uris":{"android":"levelo://app?vid=f6fda2f2-04f1-4377-bae3-2fc212d95c47","ios":"levelo://app?vid=f6fda2f2-04f1-4377-bae3-2fc212d95c47"},"vehicle_type_id":"4","last_reported":1687280752,"current_range_meters":10000,"station_id":"","pricing_plan_id":"free"},{"bike_id":"3c93e75d-1921-431d-8673-92d6689faf88","system_id":"levelo_inurba_marseille","lat":43.33719,"lon":5.3919,"is_reserved":false,"is_disabled":false,"rental_uris":{"android":"levelo://app?vid=3c93e75d-1921-431d-8673-92d6689faf88","ios":"levelo://app?vid=3c93e75d-1921-431d-8673-92d6689faf88"},"vehicle_type_id":"4","last_reported":1687280752,"current_range_meters":18800,"station_id":"","pricing_plan_id":"free"},{"bike_id":"1b5cab66-590b-460a-9914-864900fba592","system_id":"levelo_inurba_marseille","lat":43.33721,"lon":5.39189,"is_reserved":false,"is_disabled":false,"rental_uris":{"android":"levelo://app?vid=1b5cab66-590b-460a-9914-864900fba592","ios":"levelo://app?vid=1b5cab66-590b-460a-9914-864900fba592"},"vehicle_type_id":"4","last_reported":1687280752,"current_range_meters":8400,"station_id":"","pricing_plan_id":"free"},{"bike_id":"5b2482f2-bb69-4954-b7cf-e075b1760e43","system_id":"levelo_inurba_marseille","lat":43.323464,"lon":5.406297,"is_reserved":false,"is_disabled":false,"rental_uris":{"android":"levelo://app?vid=5b2482f2-bb69-4954-b7cf-e075b1760e43","ios":"levelo://app?vid=5b2482f2-bb69-4954-b7cf-e075b1760e43"},"vehicle_type_id":"4","last_reported":1687280752,"current_range_meters":10000,"station_id":"ce4bhq92rcd13ifvqhjg","pricing_plan_id":"free"},{"bike_id":"d7b29256-fc07-4272-a85c-ecffd4d1832a","system_id":"levelo_inurba_marseille","lat":43.33724,"lon":5.39194,"is_reserved":false,"is_disabled":false,"rental_uris":{"android":"levelo://app?vid=d7b29256-fc07-4272-a85c-ecffd4d1832a","ios":"levelo://app?vid=d7b29256-fc07-4272-a85c-ecffd4d1832a"},"vehicle_type_id":"4","last_reported":1687280752,"current_range_meters":11200,"station_id":"","pricing_plan_id":"free"},{"bike_id":"64766038-4d37-4bbb-8324-fdd09852a999","system_id":"levelo_inurba_marseille","lat":43.33722,"lon":5.39201,"is_reserved":false,"is_disabled":false,"rental_uris":{"android":"levelo://app?vid=64766038-4d37-4bbb-8324-fdd09852a999","ios":"levelo://app?vid=64766038-4d37-4bbb-8324-fdd09852a999"},"vehicle_type_id":"4","last_reported":1687280752,"current_range_meters":17200,"station_id":"","pricing_plan_id":"free"},{"bike_id":"00b4d942-d645-4a17-a320-9c02b5ecca68","system_id":"levelo_inurba_marseille","lat":43.288501,"lon":5.393087,"is_reserved":false,"is_disabled":false,"rental_uris":{"android":"levelo://app?vid=00b4d942-d645-4a17-a320-9c02b5ecca68","ios":"levelo://app?vid=00b4d942-d645-4a17-a320-9c02b5ecca68"},"vehicle_type_id":"4","last_reported":1687280752,"current_range_meters":13600,"station_id":"ce4bh2p2rcd13ifvqdi0","pricing_plan_id":"free"},{"bike_id":"b3e7b38e-383a-4391-b283-7e637b91744a","system_id":"levelo_inurba_marseille","lat":43.284219,"lon":5.3497,"is_reserved":false,"is_disabled":false,"rental_uris":{"android":"levelo://app?vid=b3e7b38e-383a-4391-b283-7e637b91744a","ios":"levelo://app?vid=b3e7b38e-383a-4391-b283-7e637b91744a"},"vehicle_type_id":"4","last_reported":1687280752,"current_range_meters":26000,"station_id":"ce4bhbh2rcd13ifvqepg","pricing_plan_id":"free"},{"bike_id":"7d688f66-5d56-4072-a231-13df02290fad","system_id":"levelo_inurba_marseille","lat":43.284219,"lon":5.3497,"is_reserved":false,"is_disabled":false,"rental_uris":{"android":"levelo://app?vid=7d688f66-5d56-4072-a231-13df02290fad","ios":"levelo://app?vid=7d688f66-5d56-4072-a231-13df02290fad"},"vehicle_type_id":"4","last_reported":1687280752,"current_range_meters":30800,"station_id":"ce4bhbh2rcd13ifvqepg","pricing_plan_id":"free"},{"bike_id":"c66a71be-0647-4383-b92d-fdc50f13bb50","system_id":"levelo_inurba_marseille","lat":43.284217,"lon":5.349697,"is_reserved":false,"is_disabled":false,"rental_uris":{"android":"levelo://app?vid=c66a71be-0647-4383-b92d-fdc50f13bb50","ios":"levelo://app?vid=c66a71be-0647-4383-b92d-fdc50f13bb50"},"vehicle_type_id":"4","last_reported":1687280752,"current_range_meters":20800,"station_id":"ce4bhbh2rcd13ifvqepg","pricing_plan_id":"free"},{"bike_id":"16e5fedd-6e86-436a-a0a2-72c7cd60a6ea","system_id":"levelo_inurba_marseille","lat":43.32184,"lon":5.40784,"is_reserved":false,"is_disabled":false,"rental_uris":{"android":"levelo://app?vid=16e5fedd-6e86-436a-a0a2-72c7cd60a6ea","ios":"levelo://app?vid=16e5fedd-6e86-436a-a0a2-72c7cd60a6ea"},"vehicle_type_id":"4","last_reported":1687280752,"current_range_meters":23200,"station_id":"","pricing_plan_id":"free"},{"bike_id":"4f60c289-db59-4778-9414-8eeab28faa6f","system_id":"levelo_inurba_marseille","lat":43.284217,"lon":5.349697,"is_reserved":false,"is_disabled":false,"rental_uris":{"android":"levelo://app?vid=4f60c289-db59-4778-9414-8eeab28faa6f","ios":"levelo://app?vid=4f60c289-db59-4778-9414-8eeab28faa6f"},"vehicle_type_id":"4","last_reported":1687280752,"current_range_meters":25200,"station_id":"ce4bhbh2rcd13ifvqepg","pricing_plan_id":"free"},{"bike_id":"c2e1ca03-e92b-4ea6-a9bf-41447606ee19","system_id":"levelo_inurba_marseille","lat":43.28336,"lon":5.38109,"is_reserved":false,"is_disabled":false,"rental_uris":{"android":"levelo://app?vid=c2e1ca03-e92b-4ea6-a9bf-41447606ee19","ios":"levelo://app?vid=c2e1ca03-e92b-4ea6-a9bf-41447606ee19"},"vehicle_type_id":"4","last_reported":1687280752,"current_range_meters":4400,"station_id":"","pricing_plan_id":"free"},{"bike_id":"8c06626e-68fd-4292-9caa-c1d863daf489","system_id":"levelo_inurba_marseille","lat":43.284217,"lon":5.349697,"is_reserved":false,"is_disabled":false,"rental_uris":{"android":"levelo://app?vid=8c06626e-68fd-4292-9caa-c1d863daf489","ios":"levelo://app?vid=8c06626e-68fd-4292-9caa-c1d863daf489"},"vehicle_type_id":"4","last_reported":1687280752,"current_range_meters":29600,"station_id":"ce4bhbh2rcd13ifvqepg","pricing_plan_id":"free"},{"bike_id":"b4e57a9e-13ca-412e-810c-36534d611ab6","system_id":"levelo_inurba_marseille","lat":43.284219,"lon":5.3497,"is_reserved":false,"is_disabled":false,"rental_uris":{"android":"levelo://app?vid=b4e57a9e-13ca-412e-810c-36534d611ab6","ios":"levelo://app?vid=b4e57a9e-13ca-412e-810c-36534d611ab6"},"vehicle_type_id":"4","last_reported":1687280752,"current_range_meters":13600,"station_id":"ce4bhbh2rcd13ifvqepg","pricing_plan_id":"free"},{"bike_id":"b6cfa5c7-07d8-4389-818c-89d00eab9610","system_id":"levelo_inurba_marseille","lat":43.284217,"lon":5.349697,"is_reserved":false,"is_disabled":false,"rental_uris":{"android":"levelo://app?vid=b6cfa5c7-07d8-4389-818c-89d00eab9610","ios":"levelo://app?vid=b6cfa5c7-07d8-4389-818c-89d00eab9610"},"vehicle_type_id":"4","last_reported":1687280752,"current_range_meters":31200,"station_id":"ce4bhbh2rcd13ifvqepg","pricing_plan_id":"free"},{"bike_id":"acba39d5-f561-41b5-a491-b61b6b552a8d","system_id":"levelo_inurba_marseille","lat":43.284217,"lon":5.349697,"is_reserved":false,"is_disabled":false,"rental_uris":{"android":"levelo://app?vid=acba39d5-f561-41b5-a491-b61b6b552a8d","ios":"levelo://app?vid=acba39d5-f561-41b5-a491-b61b6b552a8d"},"vehicle_type_id":"4","last_reported":1687280752,"current_range_meters":27600,"station_id":"ce4bhbh2rcd13ifvqepg","pricing_plan_id":"free"},{"bike_id":"7a5aa209-e128-450d-9f4d-94ea390ece1f","system_id":"levelo_inurba_marseille","lat":43.284217,"lon":5.349697,"is_reserved":false,"is_disabled":false,"rental_uris":{"android":"levelo://app?vid=7a5aa209-e128-450d-9f4d-94ea390ece1f","ios":"levelo://app?vid=7a5aa209-e128-450d-9f4d-94ea390ece1f"},"vehicle_type_id":"4","last_reported":1687280752,"current_range_meters":27600,"station_id":"ce4bhbh2rcd13ifvqepg","pricing_plan_id":"free"},{"bike_id":"a2b37f18-dc87-46bb-97c2-300536f7cbd8","system_id":"levelo_inurba_marseille","lat":43.284219,"lon":5.3497,"is_reserved":false,"is_disabled":false,"rental_uris":{"android":"levelo://app?vid=a2b37f18-dc87-46bb-97c2-300536f7cbd8","ios":"levelo://app?vid=a2b37f18-dc87-46bb-97c2-300536f7cbd8"},"vehicle_type_id":"4","last_reported":1687280752,"current_range_meters":18400,"station_id":"ce4bhbh2rcd13ifvqepg","pricing_plan_id":"free"},{"bike_id":"958dcdd9-6e6e-45af-b20d-d7c4fe4bc280","system_id":"levelo_inurba_marseille","lat":43.284217,"lon":5.349697,"is_reserved":false,"is_disabled":false,"rental_uris":{"android":"levelo://app?vid=958dcdd9-6e6e-45af-b20d-d7c4fe4bc280","ios":"levelo://app?vid=958dcdd9-6e6e-45af-b20d-d7c4fe4bc280"},"vehicle_type_id":"4","last_reported":1687280752,"current_range_meters":31600,"station_id":"ce4bhbh2rcd13ifvqepg","pricing_plan_id":"free"},{"bike_id":"7980bd19-b3e6-4906-9893-027aa6cc6c24","system_id":"levelo_inurba_marseille","lat":43.292724,"lon":5.401131,"is_reserved":false,"is_disabled":false,"rental_uris":{"android":"levelo://app?vid=7980bd19-b3e6-4906-9893-027aa6cc6c24","ios":"levelo://app?vid=7980bd19-b3e6-4906-9893-027aa6cc6c24"},"vehicle_type_id":"4","last_reported":1687280752,"current_range_meters":3600,"station_id":"ce4bh312rcd13ifvqdk0","pricing_plan_id":"free"},{"bike_id":"f24a3c26-0a55-4bc5-b060-05f874bedf9a","system_id":"levelo_inurba_marseille","lat":43.28269,"lon":5.35076,"is_reserved":false,"is_disabled":false,"rental_uris":{"android":"levelo://app?vid=f24a3c26-0a55-4bc5-b060-05f874bedf9a","ios":"levelo://app?vid=f24a3c26-0a55-4bc5-b060-05f874bedf9a"},"vehicle_type_id":"4","last_reported":1687280752,"current_range_meters":20000,"station_id":"ce4bhbp2rcd13ifvqerg","pricing_plan_id":"free"},{"bike_id":"33e79df3-6a7b-46d3-b4d5-f487bd3f35b6","system_id":"levelo_inurba_marseille","lat":43.28265,"lon":5.35086,"is_reserved":false,"is_disabled":false,"rental_uris":{"android":"levelo://app?vid=33e79df3-6a7b-46d3-b4d5-f487bd3f35b6","ios":"levelo://app?vid=33e79df3-6a7b-46d3-b4d5-f487bd3f35b6"},"vehicle_type_id":"4","last_reported":1687280752,"current_range_meters":7200,"station_id":"ce4bhbp2rcd13ifvqerg","pricing_plan_id":"free"},{"bike_id":"106e14ac-ae5d-4c51-afc5-5ee9c446315f","system_id":"levelo_inurba_marseille","lat":43.28268,"lon":5.35073,"is_reserved":false,"is_disabled":false,"rental_uris":{"android":"levelo://app?vid=106e14ac-ae5d-4c51-afc5-5ee9c446315f","ios":"levelo://app?vid=106e14ac-ae5d-4c51-afc5-5ee9c446315f"},"vehicle_type_id":"4","last_reported":1687280752,"current_range_meters":26400,"station_id":"ce4bhbp2rcd13ifvqerg","pricing_plan_id":"free"},{"bike_id":"3be7cb15-4dc3-4bb5-915e-989a33e16e3e","system_id":"levelo_inurba_marseille","lat":43.28268,"lon":5.35072,"is_reserved":false,"is_disabled":false,"rental_uris":{"android":"levelo://app?vid=3be7cb15-4dc3-4bb5-915e-989a33e16e3e","ios":"levelo://app?vid=3be7cb15-4dc3-4bb5-915e-989a33e16e3e"},"vehicle_type_id":"4","last_reported":1687280752,"current_range_meters":0,"station_id":"","pricing_plan_id":"free"},{"bike_id":"7ea1ebb4-ca3b-401e-972d-f04fcd534f2a","system_id":"levelo_inurba_marseille","lat":43.28272,"lon":5.35057,"is_reserved":false,"is_disabled":false,"rental_uris":{"android":"levelo://app?vid=7ea1ebb4-ca3b-401e-972d-f04fcd534f2a","ios":"levelo://app?vid=7ea1ebb4-ca3b-401e-972d-f04fcd534f2a"},"vehicle_type_id":"4","last_reported":1687280752,"current_range_meters":4000,"station_id":"ce4bhbp2rcd13ifvqerg","pricing_plan_id":"free"},{"bike_id":"20bde92e-1787-4068-b8ed-4f67213c9d80","system_id":"levelo_inurba_marseille","lat":43.28272,"lon":5.35054,"is_reserved":false,"is_disabled":false,"rental_uris":{"android":"levelo://app?vid=20bde92e-1787-4068-b8ed-4f67213c9d80","ios":"levelo://app?vid=20bde92e-1787-4068-b8ed-4f67213c9d80"},"vehicle_type_id":"4","last_reported":1687280752,"current_range_meters":14800,"station_id":"ce4bhbp2rcd13ifvqerg","pricing_plan_id":"free"},{"bike_id":"e60e253a-8d93-4495-a7ed-2c7902390ce4","system_id":"levelo_inurba_marseille","lat":43.28264,"lon":5.35078,"is_reserved":false,"is_disabled":false,"rental_uris":{"android":"levelo://app?vid=e60e253a-8d93-4495-a7ed-2c7902390ce4","ios":"levelo://app?vid=e60e253a-8d93-4495-a7ed-2c7902390ce4"},"vehicle_type_id":"4","last_reported":1687280752,"current_range_meters":22000,"station_id":"ce4bhbp2rcd13ifvqerg","pricing_plan_id":"free"},{"bike_id":"c43743f3-b1b1-4e14-aa34-3e3cb1f9b8cf","system_id":"levelo_inurba_marseille","lat":43.282754,"lon":5.350519,"is_reserved":false,"is_disabled":false,"rental_uris":{"android":"levelo://app?vid=c43743f3-b1b1-4e14-aa34-3e3cb1f9b8cf","ios":"levelo://app?vid=c43743f3-b1b1-4e14-aa34-3e3cb1f9b8cf"},"vehicle_type_id":"4","last_reported":1687280752,"current_range_meters":9200,"station_id":"ce4bhbp2rcd13ifvqerg","pricing_plan_id":"free"},{"bike_id":"63d173f3-6572-4c46-9d17-2aaca4008737","system_id":"levelo_inurba_marseille","lat":43.282754,"lon":5.350519,"is_reserved":false,"is_disabled":false,"rental_uris":{"android":"levelo://app?vid=63d173f3-6572-4c46-9d17-2aaca4008737","ios":"levelo://app?vid=63d173f3-6572-4c46-9d17-2aaca4008737"},"vehicle_type_id":"4","last_reported":1687280752,"current_range_meters":1600,"station_id":"ce4bhbp2rcd13ifvqerg","pricing_plan_id":"free"},{"bike_id":"db1ac1b7-dd63-499e-ab54-48affc594570","system_id":"levelo_inurba_marseille","lat":43.283502,"lon":5.386471,"is_reserved":false,"is_disabled":false,"rental_uris":{"android":"levelo://app?vid=db1ac1b7-dd63-499e-ab54-48affc594570","ios":"levelo://app?vid=db1ac1b7-dd63-499e-ab54-48affc594570"},"vehicle_type_id":"4","last_reported":1687280752,"current_range_meters":2800,"station_id":"ce4bh492rcd13ifvqdvg","pricing_plan_id":"free"},{"bike_id":"9064fe79-f0b6-4203-84f4-698fe07fd37e","system_id":"levelo_inurba_marseille","lat":43.280382,"lon":5.369291,"is_reserved":false,"is_disabled":false,"rental_uris":{"android":"levelo://app?vid=9064fe79-f0b6-4203-84f4-698fe07fd37e","ios":"levelo://app?vid=9064fe79-f0b6-4203-84f4-698fe07fd37e"},"vehicle_type_id":"4","last_reported":1687280752,"current_range_meters":16800,"station_id":"ce4bha12rcd13ifvqef0","pricing_plan_id":"free"},{"bike_id":"b0813215-b643-4cec-94b6-8da5bd4b59c6","system_id":"levelo_inurba_marseille","lat":43.280382,"lon":5.369291,"is_reserved":false,"is_disabled":false,"rental_uris":{"android":"levelo://app?vid=b0813215-b643-4cec-94b6-8da5bd4b59c6","ios":"levelo://app?vid=b0813215-b643-4cec-94b6-8da5bd4b59c6"},"vehicle_type_id":"4","last_reported":1687280752,"current_range_meters":16400,"station_id":"ce4bha12rcd13ifvqef0","pricing_plan_id":"free"},{"bike_id":"6489e7e3-d34f-49e8-999e-49aeabad95fc","system_id":"levelo_inurba_marseille","lat":43.28039,"lon":5.369297,"is_reserved":false,"is_disabled":false,"rental_uris":{"android":"levelo://app?vid=6489e7e3-d34f-49e8-999e-49aeabad95fc","ios":"levelo://app?vid=6489e7e3-d34f-49e8-999e-49aeabad95fc"},"vehicle_type_id":"4","last_reported":1687280752,"current_range_meters":20800,"station_id":"ce4bha12rcd13ifvqef0","pricing_plan_id":"free"},{"bike_id":"4418582e-f3f6-4b47-8721-f3766e70073e","system_id":"levelo_inurba_marseille","lat":43.28039,"lon":5.369297,"is_reserved":false,"is_disabled":false,"rental_uris":{"android":"levelo://app?vid=4418582e-f3f6-4b47-8721-f3766e70073e","ios":"levelo://app?vid=4418582e-f3f6-4b47-8721-f3766e70073e"},"vehicle_type_id":"4","last_reported":1687280752,"current_range_meters":17200,"station_id":"ce4bha12rcd13ifvqef0","pricing_plan_id":"free"},{"bike_id":"35fdda07-1de1-4336-93f2-2f8a99a5c9ce","system_id":"levelo_inurba_marseille","lat":43.28039,"lon":5.369297,"is_reserved":false,"is_disabled":false,"rental_uris":{"android":"levelo://app?vid=35fdda07-1de1-4336-93f2-2f8a99a5c9ce","ios":"levelo://app?vid=35fdda07-1de1-4336-93f2-2f8a99a5c9ce"},"vehicle_type_id":"4","last_reported":1687280752,"current_range_meters":12400,"station_id":"ce4bha12rcd13ifvqef0","pricing_plan_id":"free"},{"bike_id":"0263059e-363a-4a73-a723-81ce2c32e9cb","system_id":"levelo_inurba_marseille","lat":43.280382,"lon":5.369291,"is_reserved":false,"is_disabled":false,"rental_uris":{"android":"levelo://app?vid=0263059e-363a-4a73-a723-81ce2c32e9cb","ios":"levelo://app?vid=0263059e-363a-4a73-a723-81ce2c32e9cb"},"vehicle_type_id":"4","last_reported":1687280752,"current_range_meters":18000,"station_id":"ce4bha12rcd13ifvqef0","pricing_plan_id":"free"},{"bike_id":"3c61871c-bd65-4380-8b62-f2187458c6cf","system_id":"levelo_inurba_marseille","lat":43.280382,"lon":5.369291,"is_reserved":false,"is_disabled":false,"rental_uris":{"android":"levelo://app?vid=3c61871c-bd65-4380-8b62-f2187458c6cf","ios":"levelo://app?vid=3c61871c-bd65-4380-8b62-f2187458c6cf"},"vehicle_type_id":"4","last_reported":1687280752,"current_range_meters":19600,"station_id":"ce4bha12rcd13ifvqef0","pricing_plan_id":"free"},{"bike_id":"4989b521-664d-4a8e-af69-f942665c60c0","system_id":"levelo_inurba_marseille","lat":43.280382,"lon":5.369291,"is_reserved":false,"is_disabled":false,"rental_uris":{"android":"levelo://app?vid=4989b521-664d-4a8e-af69-f942665c60c0","ios":"levelo://app?vid=4989b521-664d-4a8e-af69-f942665c60c0"},"vehicle_type_id":"4","last_reported":1687280752,"current_range_meters":30400,"station_id":"ce4bha12rcd13ifvqef0","pricing_plan_id":"free"},{"bike_id":"3c70a16b-117c-43f4-b742-c4acfdf6cf1e","system_id":"levelo_inurba_marseille","lat":43.281044,"lon":5.378308,"is_reserved":false,"is_disabled":false,"rental_uris":{"android":"levelo://app?vid=3c70a16b-117c-43f4-b742-c4acfdf6cf1e","ios":"levelo://app?vid=3c70a16b-117c-43f4-b742-c4acfdf6cf1e"},"vehicle_type_id":"4","last_reported":1687280752,"current_range_meters":10000,"station_id":"ce4bha12rcd13ifvqee0","pricing_plan_id":"free"},{"bike_id":"c56f0b23-4dce-460d-8525-c398cf0a5175","system_id":"levelo_inurba_marseille","lat":43.32656,"lon":5.40992,"is_reserved":false,"is_disabled":false,"rental_uris":{"android":"levelo://app?vid=c56f0b23-4dce-460d-8525-c398cf0a5175","ios":"levelo://app?vid=c56f0b23-4dce-460d-8525-c398cf0a5175"},"vehicle_type_id":"4","last_reported":1687280752,"current_range_meters":13600,"station_id":"ce4bhpp2rcd13ifvqhgg","pricing_plan_id":"free"},{"bike_id":"ff22564b-7f59-4dba-a7bd-0f1bc5689db1","system_id":"levelo_inurba_marseille","lat":43.326605,"lon":5.409903,"is_reserved":false,"is_disabled":false,"rental_uris":{"android":"levelo://app?vid=ff22564b-7f59-4dba-a7bd-0f1bc5689db1","ios":"levelo://app?vid=ff22564b-7f59-4dba-a7bd-0f1bc5689db1"},"vehicle_type_id":"4","last_reported":1687280752,"current_range_meters":26000,"station_id":"ce4bhpp2rcd13ifvqhgg","pricing_plan_id":"free"},{"bike_id":"3802305a-5964-4728-88d8-55c832df6276","system_id":"levelo_inurba_marseille","lat":43.304188,"lon":5.412904,"is_reserved":false,"is_disabled":false,"rental_uris":{"android":"levelo://app?vid=3802305a-5964-4728-88d8-55c832df6276","ios":"levelo://app?vid=3802305a-5964-4728-88d8-55c832df6276"},"vehicle_type_id":"4","last_reported":1687280752,"current_range_meters":4800,"station_id":"ce4bhop2rcd13ifvqh8g","pricing_plan_id":"free"},{"bike_id":"5492a092-ef10-4811-89bc-3d0f74ca2954","system_id":"levelo_inurba_marseille","lat":43.304188,"lon":5.412904,"is_reserved":false,"is_disabled":false,"rental_uris":{"android":"levelo://app?vid=5492a092-ef10-4811-89bc-3d0f74ca2954","ios":"levelo://app?vid=5492a092-ef10-4811-89bc-3d0f74ca2954"},"vehicle_type_id":"4","last_reported":1687280752,"current_range_meters":14800,"station_id":"ce4bhop2rcd13ifvqh8g","pricing_plan_id":"free"},{"bike_id":"e6016de9-14c4-4d45-9d43-aa6aa6bc1cc9","system_id":"levelo_inurba_marseille","lat":43.32055,"lon":5.41537,"is_reserved":false,"is_disabled":false,"rental_uris":{"android":"levelo://app?vid=e6016de9-14c4-4d45-9d43-aa6aa6bc1cc9","ios":"levelo://app?vid=e6016de9-14c4-4d45-9d43-aa6aa6bc1cc9"},"vehicle_type_id":"4","last_reported":1687280752,"current_range_meters":15600,"station_id":"","pricing_plan_id":"free"},{"bike_id":"5b9cb1c2-3c2c-4ff5-9a05-9f6c26bf2661","system_id":"levelo_inurba_marseille","lat":43.29961,"lon":5.41315,"is_reserved":false,"is_disabled":false,"rental_uris":{"android":"levelo://app?vid=5b9cb1c2-3c2c-4ff5-9a05-9f6c26bf2661","ios":"levelo://app?vid=5b9cb1c2-3c2c-4ff5-9a05-9f6c26bf2661"},"vehicle_type_id":"4","last_reported":1687280752,"current_range_meters":22400,"station_id":"ce4bhp12rcd13ifvqh9g","pricing_plan_id":"free"},{"bike_id":"3427211e-9e18-4a3d-9d85-6e5a4e8ccb5d","system_id":"levelo_inurba_marseille","lat":43.2996,"lon":5.41317,"is_reserved":false,"is_disabled":false,"rental_uris":{"android":"levelo://app?vid=3427211e-9e18-4a3d-9d85-6e5a4e8ccb5d","ios":"levelo://app?vid=3427211e-9e18-4a3d-9d85-6e5a4e8ccb5d"},"vehicle_type_id":"4","last_reported":1687280752,"current_range_meters":26000,"station_id":"ce4bhp12rcd13ifvqh9g","pricing_plan_id":"free"},{"bike_id":"4a25adbc-f6b7-406d-8aea-07af5e664c69","system_id":"levelo_inurba_marseille","lat":43.299579,"lon":5.413255,"is_reserved":false,"is_disabled":false,"rental_uris":{"android":"levelo://app?vid=4a25adbc-f6b7-406d-8aea-07af5e664c69","ios":"levelo://app?vid=4a25adbc-f6b7-406d-8aea-07af5e664c69"},"vehicle_type_id":"4","last_reported":1687280752,"current_range_meters":12400,"station_id":"ce4bhp12rcd13ifvqh9g","pricing_plan_id":"free"},{"bike_id":"6e52b45f-4881-448a-b226-7a664c9d54fb","system_id":"levelo_inurba_marseille","lat":43.299577,"lon":5.413277,"is_reserved":false,"is_disabled":false,"rental_uris":{"android":"levelo://app?vid=6e52b45f-4881-448a-b226-7a664c9d54fb","ios":"levelo://app?vid=6e52b45f-4881-448a-b226-7a664c9d54fb"},"vehicle_type_id":"4","last_reported":1687280752,"current_range_meters":11200,"station_id":"ce4bhp12rcd13ifvqh9g","pricing_plan_id":"free"},{"bike_id":"30ddb9bb-980d-4abf-a01c-c836b79b94bc","system_id":"levelo_inurba_marseille","lat":43.292569,"lon":5.409107,"is_reserved":false,"is_disabled":false,"rental_uris":{"android":"levelo://app?vid=30ddb9bb-980d-4abf-a01c-c836b79b94bc","ios":"levelo://app?vid=30ddb9bb-980d-4abf-a01c-c836b79b94bc"},"vehicle_type_id":"4","last_reported":1687280752,"current_range_meters":6000,"station_id":"ce4bh192rcd13ifvqdc0","pricing_plan_id":"free"},{"bike_id":"8054319e-c9b4-4cbd-9493-6306ebcda21a","system_id":"levelo_inurba_marseille","lat":43.292569,"lon":5.409107,"is_reserved":false,"is_disabled":false,"rental_uris":{"android":"levelo://app?vid=8054319e-c9b4-4cbd-9493-6306ebcda21a","ios":"levelo://app?vid=8054319e-c9b4-4cbd-9493-6306ebcda21a"},"vehicle_type_id":"4","last_reported":1687280752,"current_range_meters":3200,"station_id":"ce4bh192rcd13ifvqdc0","pricing_plan_id":"free"},{"bike_id":"a6d5aa93-60b6-48b1-b400-d62b686ff02b","system_id":"levelo_inurba_marseille","lat":43.292569,"lon":5.409107,"is_reserved":false,"is_disabled":false,"rental_uris":{"android":"levelo://app?vid=a6d5aa93-60b6-48b1-b400-d62b686ff02b","ios":"levelo://app?vid=a6d5aa93-60b6-48b1-b400-d62b686ff02b"},"vehicle_type_id":"4","last_reported":1687280752,"current_range_meters":20800,"station_id":"ce4bh192rcd13ifvqdc0","pricing_plan_id":"free"},{"bike_id":"19c975c5-8131-49d8-87e1-5bec2d98383d","system_id":"levelo_inurba_marseille","lat":43.292569,"lon":5.409107,"is_reserved":false,"is_disabled":false,"rental_uris":{"android":"levelo://app?vid=19c975c5-8131-49d8-87e1-5bec2d98383d","ios":"levelo://app?vid=19c975c5-8131-49d8-87e1-5bec2d98383d"},"vehicle_type_id":"4","last_reported":1687280752,"current_range_meters":28000,"station_id":"ce4bh192rcd13ifvqdc0","pricing_plan_id":"free"},{"bike_id":"61d2370f-4d80-4cc6-adc3-0a144a65e2ca","system_id":"levelo_inurba_marseille","lat":43.27618,"lon":5.361009,"is_reserved":false,"is_disabled":false,"rental_uris":{"android":"levelo://app?vid=61d2370f-4d80-4cc6-adc3-0a144a65e2ca","ios":"levelo://app?vid=61d2370f-4d80-4cc6-adc3-0a144a65e2ca"},"vehicle_type_id":"4","last_reported":1687280752,"current_range_meters":6800,"station_id":"ce4bgj92rcd13ifvqbe0","pricing_plan_id":"free"},{"bike_id":"d9484bfe-7269-4792-9059-2620539cc974","system_id":"levelo_inurba_marseille","lat":43.276179,"lon":5.361009,"is_reserved":false,"is_disabled":false,"rental_uris":{"android":"levelo://app?vid=d9484bfe-7269-4792-9059-2620539cc974","ios":"levelo://app?vid=d9484bfe-7269-4792-9059-2620539cc974"},"vehicle_type_id":"4","last_reported":1687280752,"current_range_meters":12000,"station_id":"ce4bgj92rcd13ifvqbe0","pricing_plan_id":"free"},{"bike_id":"7d5679d6-e776-4eb9-acc0-33f66aa8f14a","system_id":"levelo_inurba_marseille","lat":43.28533,"lon":5.40158,"is_reserved":false,"is_disabled":false,"rental_uris":{"android":"levelo://app?vid=7d5679d6-e776-4eb9-acc0-33f66aa8f14a","ios":"levelo://app?vid=7d5679d6-e776-4eb9-acc0-33f66aa8f14a"},"vehicle_type_id":"4","last_reported":1687280752,"current_range_meters":0,"station_id":"","pricing_plan_id":"free"},{"bike_id":"f828d24d-9f52-4f67-9b99-20a25fc6c5af","system_id":"levelo_inurba_marseille","lat":43.27705,"lon":5.38837,"is_reserved":false,"is_disabled":false,"rental_uris":{"android":"levelo://app?vid=f828d24d-9f52-4f67-9b99-20a25fc6c5af","ios":"levelo://app?vid=f828d24d-9f52-4f67-9b99-20a25fc6c5af"},"vehicle_type_id":"4","last_reported":1687280752,"current_range_meters":24800,"station_id":"","pricing_plan_id":"free"},{"bike_id":"6275aaca-a354-407f-be44-df40f2969d44","system_id":"levelo_inurba_marseille","lat":43.273613,"lon":5.362705,"is_reserved":false,"is_disabled":false,"rental_uris":{"android":"levelo://app?vid=6275aaca-a354-407f-be44-df40f2969d44","ios":"levelo://app?vid=6275aaca-a354-407f-be44-df40f2969d44"},"vehicle_type_id":"4","last_reported":1687280752,"current_range_meters":31600,"station_id":"ce4bhbh2rcd13ifvqeo0","pricing_plan_id":"free"},{"bike_id":"873c6cfc-50e5-4857-a3d9-544586ec1008","system_id":"levelo_inurba_marseille","lat":43.273613,"lon":5.362705,"is_reserved":false,"is_disabled":false,"rental_uris":{"android":"levelo://app?vid=873c6cfc-50e5-4857-a3d9-544586ec1008","ios":"levelo://app?vid=873c6cfc-50e5-4857-a3d9-544586ec1008"},"vehicle_type_id":"4","last_reported":1687280752,"current_range_meters":800,"station_id":"ce4bhbh2rcd13ifvqeo0","pricing_plan_id":"free"},{"bike_id":"490aee41-0071-4e7c-8a71-dfce66c8c8db","system_id":"levelo_inurba_marseille","lat":43.27376,"lon":5.36263,"is_reserved":false,"is_disabled":false,"rental_uris":{"android":"levelo://app?vid=490aee41-0071-4e7c-8a71-dfce66c8c8db","ios":"levelo://app?vid=490aee41-0071-4e7c-8a71-dfce66c8c8db"},"vehicle_type_id":"4","last_reported":1687280752,"current_range_meters":8400,"station_id":"ce4bhbh2rcd13ifvqeo0","pricing_plan_id":"free"},{"bike_id":"b642f080-e7f9-45a8-b52e-55092241970c","system_id":"levelo_inurba_marseille","lat":43.273613,"lon":5.362705,"is_reserved":false,"is_disabled":false,"rental_uris":{"android":"levelo://app?vid=b642f080-e7f9-45a8-b52e-55092241970c","ios":"levelo://app?vid=b642f080-e7f9-45a8-b52e-55092241970c"},"vehicle_type_id":"4","last_reported":1687280752,"current_range_meters":0,"station_id":"ce4bhbh2rcd13ifvqeo0","pricing_plan_id":"free"},{"bike_id":"e9053dcc-b1b2-4fce-9dbc-c39ce0e8ef78","system_id":"levelo_inurba_marseille","lat":43.27375,"lon":5.36255,"is_reserved":false,"is_disabled":false,"rental_uris":{"android":"levelo://app?vid=e9053dcc-b1b2-4fce-9dbc-c39ce0e8ef78","ios":"levelo://app?vid=e9053dcc-b1b2-4fce-9dbc-c39ce0e8ef78"},"vehicle_type_id":"4","last_reported":1687280752,"current_range_meters":1200,"station_id":"ce4bhbh2rcd13ifvqeo0","pricing_plan_id":"free"},{"bike_id":"02758617-f658-415a-bc1f-7257cc54a3ba","system_id":"levelo_inurba_marseille","lat":43.273613,"lon":5.362705,"is_reserved":false,"is_disabled":false,"rental_uris":{"android":"levelo://app?vid=02758617-f658-415a-bc1f-7257cc54a3ba","ios":"levelo://app?vid=02758617-f658-415a-bc1f-7257cc54a3ba"},"vehicle_type_id":"4","last_reported":1687280752,"current_range_meters":22400,"station_id":"ce4bhbh2rcd13ifvqeo0","pricing_plan_id":"free"},{"bike_id":"a08d6021-1071-42f6-9058-c857b1f6f3cb","system_id":"levelo_inurba_marseille","lat":43.273613,"lon":5.362705,"is_reserved":false,"is_disabled":false,"rental_uris":{"android":"levelo://app?vid=a08d6021-1071-42f6-9058-c857b1f6f3cb","ios":"levelo://app?vid=a08d6021-1071-42f6-9058-c857b1f6f3cb"},"vehicle_type_id":"4","last_reported":1687280752,"current_range_meters":9600,"station_id":"ce4bhbh2rcd13ifvqeo0","pricing_plan_id":"free"},{"bike_id":"a02d2c29-ef8b-4b68-a0b6-aec3be75a551","system_id":"levelo_inurba_marseille","lat":43.273613,"lon":5.362705,"is_reserved":false,"is_disabled":false,"rental_uris":{"android":"levelo://app?vid=a02d2c29-ef8b-4b68-a0b6-aec3be75a551","ios":"levelo://app?vid=a02d2c29-ef8b-4b68-a0b6-aec3be75a551"},"vehicle_type_id":"4","last_reported":1687280752,"current_range_meters":24400,"station_id":"ce4bhbh2rcd13ifvqeo0","pricing_plan_id":"free"},{"bike_id":"46bceead-5f7d-4dbb-8ae6-5a62f5d37714","system_id":"levelo_inurba_marseille","lat":43.27373,"lon":5.36256,"is_reserved":false,"is_disabled":false,"rental_uris":{"android":"levelo://app?vid=46bceead-5f7d-4dbb-8ae6-5a62f5d37714","ios":"levelo://app?vid=46bceead-5f7d-4dbb-8ae6-5a62f5d37714"},"vehicle_type_id":"4","last_reported":1687280752,"current_range_meters":12000,"station_id":"ce4bhbh2rcd13ifvqeo0","pricing_plan_id":"free"},{"bike_id":"802c0957-3cb3-42cf-9a39-73e16705fadb","system_id":"levelo_inurba_marseille","lat":43.27372,"lon":5.36256,"is_reserved":false,"is_disabled":false,"rental_uris":{"android":"levelo://app?vid=802c0957-3cb3-42cf-9a39-73e16705fadb","ios":"levelo://app?vid=802c0957-3cb3-42cf-9a39-73e16705fadb"},"vehicle_type_id":"4","last_reported":1687280752,"current_range_meters":4400,"station_id":"ce4bhbh2rcd13ifvqeo0","pricing_plan_id":"free"},{"bike_id":"aa7feb99-921b-47b6-aedd-164e63bca956","system_id":"levelo_inurba_marseille","lat":43.273609,"lon":5.362708,"is_reserved":false,"is_disabled":false,"rental_uris":{"android":"levelo://app?vid=aa7feb99-921b-47b6-aedd-164e63bca956","ios":"levelo://app?vid=aa7feb99-921b-47b6-aedd-164e63bca956"},"vehicle_type_id":"4","last_reported":1687280752,"current_range_meters":0,"station_id":"ce4bhbh2rcd13ifvqeo0","pricing_plan_id":"free"},{"bike_id":"d7852b8b-3947-40cd-a4e8-a2205331dae5","system_id":"levelo_inurba_marseille","lat":43.33612,"lon":5.410321,"is_reserved":false,"is_disabled":false,"rental_uris":{"android":"levelo://app?vid=d7852b8b-3947-40cd-a4e8-a2205331dae5","ios":"levelo://app?vid=d7852b8b-3947-40cd-a4e8-a2205331dae5"},"vehicle_type_id":"4","last_reported":1687280752,"current_range_meters":17600,"station_id":"ce4bhqh2rcd13ifvqhmg","pricing_plan_id":"free"},{"bike_id":"3913ddad-848c-4084-95d3-5c0c74854bac","system_id":"levelo_inurba_marseille","lat":43.33612,"lon":5.410321,"is_reserved":false,"is_disabled":false,"rental_uris":{"android":"levelo://app?vid=3913ddad-848c-4084-95d3-5c0c74854bac","ios":"levelo://app?vid=3913ddad-848c-4084-95d3-5c0c74854bac"},"vehicle_type_id":"4","last_reported":1687280752,"current_range_meters":29600,"station_id":"ce4bhqh2rcd13ifvqhmg","pricing_plan_id":"free"},{"bike_id":"0f884503-3cdb-41a3-ac8d-ec03f982b3a5","system_id":"levelo_inurba_marseille","lat":43.33608,"lon":5.41031,"is_reserved":false,"is_disabled":false,"rental_uris":{"android":"levelo://app?vid=0f884503-3cdb-41a3-ac8d-ec03f982b3a5","ios":"levelo://app?vid=0f884503-3cdb-41a3-ac8d-ec03f982b3a5"},"vehicle_type_id":"4","last_reported":1687280752,"current_range_meters":30400,"station_id":"ce4bhqh2rcd13ifvqhmg","pricing_plan_id":"free"},{"bike_id":"bde14cc2-7f6e-431e-950b-953f49fac3a5","system_id":"levelo_inurba_marseille","lat":43.33609,"lon":5.4103,"is_reserved":false,"is_disabled":false,"rental_uris":{"android":"levelo://app?vid=bde14cc2-7f6e-431e-950b-953f49fac3a5","ios":"levelo://app?vid=bde14cc2-7f6e-431e-950b-953f49fac3a5"},"vehicle_type_id":"4","last_reported":1687280752,"current_range_meters":31200,"station_id":"ce4bhqh2rcd13ifvqhmg","pricing_plan_id":"free"},{"bike_id":"8a861e97-d4e0-4028-ad63-b92e5c8352a7","system_id":"levelo_inurba_marseille","lat":43.33612,"lon":5.410321,"is_reserved":false,"is_disabled":false,"rental_uris":{"android":"levelo://app?vid=8a861e97-d4e0-4028-ad63-b92e5c8352a7","ios":"levelo://app?vid=8a861e97-d4e0-4028-ad63-b92e5c8352a7"},"vehicle_type_id":"4","last_reported":1687280752,"current_range_meters":30400,"station_id":"ce4bhqh2rcd13ifvqhmg","pricing_plan_id":"free"},{"bike_id":"715a9afb-14fe-419b-9634-8b1873e33f1f","system_id":"levelo_inurba_marseille","lat":43.33605,"lon":5.41035,"is_reserved":false,"is_disabled":false,"rental_uris":{"android":"levelo://app?vid=715a9afb-14fe-419b-9634-8b1873e33f1f","ios":"levelo://app?vid=715a9afb-14fe-419b-9634-8b1873e33f1f"},"vehicle_type_id":"4","last_reported":1687280752,"current_range_meters":20800,"station_id":"ce4bhqh2rcd13ifvqhmg","pricing_plan_id":"free"},{"bike_id":"36bc7aa3-4060-4523-8fb3-ec219c908886","system_id":"levelo_inurba_marseille","lat":43.336089,"lon":5.410331,"is_reserved":false,"is_disabled":false,"rental_uris":{"android":"levelo://app?vid=36bc7aa3-4060-4523-8fb3-ec219c908886","ios":"levelo://app?vid=36bc7aa3-4060-4523-8fb3-ec219c908886"},"vehicle_type_id":"4","last_reported":1687280752,"current_range_meters":21600,"station_id":"","pricing_plan_id":"free"},{"bike_id":"c23e418f-06a8-4b4f-a6a5-25ba52bc7684","system_id":"levelo_inurba_marseille","lat":43.336083,"lon":5.410355,"is_reserved":false,"is_disabled":false,"rental_uris":{"android":"levelo://app?vid=c23e418f-06a8-4b4f-a6a5-25ba52bc7684","ios":"levelo://app?vid=c23e418f-06a8-4b4f-a6a5-25ba52bc7684"},"vehicle_type_id":"4","last_reported":1687280752,"current_range_meters":0,"station_id":"ce4bhqh2rcd13ifvqhmg","pricing_plan_id":"free"},{"bike_id":"74c7ef04-4674-4a63-a636-9b7ea6fac1ed","system_id":"levelo_inurba_marseille","lat":43.336086,"lon":5.410353,"is_reserved":false,"is_disabled":false,"rental_uris":{"android":"levelo://app?vid=74c7ef04-4674-4a63-a636-9b7ea6fac1ed","ios":"levelo://app?vid=74c7ef04-4674-4a63-a636-9b7ea6fac1ed"},"vehicle_type_id":"4","last_reported":1687280752,"current_range_meters":31200,"station_id":"ce4bhqh2rcd13ifvqhmg","pricing_plan_id":"free"},{"bike_id":"ae03c132-298e-4976-964a-8b339f40f668","system_id":"levelo_inurba_marseille","lat":43.276769,"lon":5.388787,"is_reserved":false,"is_disabled":false,"rental_uris":{"android":"levelo://app?vid=ae03c132-298e-4976-964a-8b339f40f668","ios":"levelo://app?vid=ae03c132-298e-4976-964a-8b339f40f668"},"vehicle_type_id":"4","last_reported":1687280752,"current_range_meters":12400,"station_id":"ce4bhi12rcd13ifvqfo0","pricing_plan_id":"free"},{"bike_id":"7aac24df-7d23-4e8e-9e80-ce11b88c78f1","system_id":"levelo_inurba_marseille","lat":43.31077,"lon":5.4243,"is_reserved":false,"is_disabled":false,"rental_uris":{"android":"levelo://app?vid=7aac24df-7d23-4e8e-9e80-ce11b88c78f1","ios":"levelo://app?vid=7aac24df-7d23-4e8e-9e80-ce11b88c78f1"},"vehicle_type_id":"4","last_reported":1687280752,"current_range_meters":22400,"station_id":"ce4bhp92rcd13ifvqhag","pricing_plan_id":"free"},{"bike_id":"af81c128-8306-435a-b895-70ba49fb36d8","system_id":"levelo_inurba_marseille","lat":43.31086,"lon":5.42434,"is_reserved":false,"is_disabled":false,"rental_uris":{"android":"levelo://app?vid=af81c128-8306-435a-b895-70ba49fb36d8","ios":"levelo://app?vid=af81c128-8306-435a-b895-70ba49fb36d8"},"vehicle_type_id":"4","last_reported":1687280752,"current_range_meters":31200,"station_id":"ce4bhp92rcd13ifvqhag","pricing_plan_id":"free"},{"bike_id":"a8d22c26-956a-4526-9388-86d40247fdd8","system_id":"levelo_inurba_marseille","lat":43.3108,"lon":5.42437,"is_reserved":false,"is_disabled":false,"rental_uris":{"android":"levelo://app?vid=a8d22c26-956a-4526-9388-86d40247fdd8","ios":"levelo://app?vid=a8d22c26-956a-4526-9388-86d40247fdd8"},"vehicle_type_id":"4","last_reported":1687280752,"current_range_meters":31200,"station_id":"ce4bhp92rcd13ifvqhag","pricing_plan_id":"free"},{"bike_id":"0ffa1cc2-ed91-43dd-b7b7-8a1033ca7f65","system_id":"levelo_inurba_marseille","lat":43.3108,"lon":5.42442,"is_reserved":false,"is_disabled":false,"rental_uris":{"android":"levelo://app?vid=0ffa1cc2-ed91-43dd-b7b7-8a1033ca7f65","ios":"levelo://app?vid=0ffa1cc2-ed91-43dd-b7b7-8a1033ca7f65"},"vehicle_type_id":"4","last_reported":1687280752,"current_range_meters":10000,"station_id":"ce4bhp92rcd13ifvqhag","pricing_plan_id":"free"},{"bike_id":"2685d45b-bec7-4000-a8d3-05e5396acd4c","system_id":"levelo_inurba_marseille","lat":43.317121,"lon":5.423936,"is_reserved":false,"is_disabled":false,"rental_uris":{"android":"levelo://app?vid=2685d45b-bec7-4000-a8d3-05e5396acd4c","ios":"levelo://app?vid=2685d45b-bec7-4000-a8d3-05e5396acd4c"},"vehicle_type_id":"4","last_reported":1687280752,"current_range_meters":30000,"station_id":"ce4bhp92rcd13ifvqhbg","pricing_plan_id":"free"},{"bike_id":"f1e4fdc3-1b27-4821-838f-ca75181cf4c2","system_id":"levelo_inurba_marseille","lat":43.27428,"lon":5.39405,"is_reserved":false,"is_disabled":false,"rental_uris":{"android":"levelo://app?vid=f1e4fdc3-1b27-4821-838f-ca75181cf4c2","ios":"levelo://app?vid=f1e4fdc3-1b27-4821-838f-ca75181cf4c2"},"vehicle_type_id":"4","last_reported":1687280752,"current_range_meters":9200,"station_id":"","pricing_plan_id":"free"},{"bike_id":"e4e914ba-c901-4145-87ca-f3bb5cc70fe1","system_id":"levelo_inurba_marseille","lat":43.27429,"lon":5.39412,"is_reserved":false,"is_disabled":false,"rental_uris":{"android":"levelo://app?vid=e4e914ba-c901-4145-87ca-f3bb5cc70fe1","ios":"levelo://app?vid=e4e914ba-c901-4145-87ca-f3bb5cc70fe1"},"vehicle_type_id":"4","last_reported":1687280752,"current_range_meters":31200,"station_id":"","pricing_plan_id":"free"},{"bike_id":"8a9ae0ae-0763-42b2-b14b-1197cd4dd12f","system_id":"levelo_inurba_marseille","lat":43.27417,"lon":5.39411,"is_reserved":false,"is_disabled":false,"rental_uris":{"android":"levelo://app?vid=8a9ae0ae-0763-42b2-b14b-1197cd4dd12f","ios":"levelo://app?vid=8a9ae0ae-0763-42b2-b14b-1197cd4dd12f"},