{"last_updated":1728223634,"ttl":60,"version":"2.2","data":{"bikes":[{"bike_id":"e7cc1f6c-ac6c-4b1f-a39d-839fe34cf8f7","system_id":"levelo_inurba_marseille","lat":43.28698,"lon":5.37387,"is_reserved":false,"is_disabled":false,"rental_uris":{"android":"levelo://app?vid=e7cc1f6c-ac6c-4b1f-a39d-839fe34cf8f7","ios":"levelo://app?vid=e7cc1f6c-ac6c-4b1f-a39d-839fe34cf8f7"},"vehicle_type_id":"4","last_reported":1728223634,"current_range_meters":30000,"station_id":"ce4bh3p2rcd13ifvqdq0","pricing_plan_id":"cebpf4jnsgd1na2vs0mg"},{"bike_id":"144a1312-d1c7-4b6a-8675-14642d244551","system_id":"levelo_inurba_marseille","lat":43.27204,"lon":5.39181,"is_reserved":false,"is_disabled":false,"rental_uris":{"android":"levelo://app?vid=144a1312-d1c7-4b6a-8675-14642d244551","ios":"levelo://app?vid=144a1312-d1c7-4b6a-8675-14642d244551"},"vehicle_type_id":"4","last_reported":1728223634,"current_range_meters":27600,"station_id":"ce4bhhp2rcd13ifvqfm0","pricing_plan_id":"cebpf4jnsgd1na2vs0mg"},{"bike_id":"9671f252-4906-4ded-9eb9-fd7886dcac1f","system_id":"levelo_inurba_marseille","lat":43.317572,"lon":5.390046,"is_reserved":false,"is_disabled":false,"rental_uris":{"android":"levelo://app?vid=9671f252-4906-4ded-9eb9-fd7886dcac1f","ios":"levelo://app?vid=9671f252-4906-4ded-9eb9-fd7886dcac1f"},"vehicle_type_id":"4","last_reported":1728223634,"current_range_meters":37600,"station_id":"ce4bhqp2rcd13ifvqhng","pricing_plan_id":"cebpf4jnsgd1na2vs0mg"},{"bike_id":"fcc56730-3c72-4870-849a-77c8955fe703","system_id":"levelo_inurba_marseille","lat":43.26558,"lon":5.38997,"is_reserved":false,"is_disabled":false,"rental_uris":{"android":"levelo://app?vid=fcc56730-3c72-4870-849a-77c8955fe703","ios":"levelo://app?vid=fcc56730-3c72-4870-849a-77c8955fe703"},"vehicle_type_id":"4","last_reported":1728223634,"current_range_meters":38800,"station_id":"ce4bhe12rcd13ifvqf30","pricing_plan_id":"cebpf4jnsgd1na2vs0mg"},{"bike_id":"940cde9c-6243-4a9e-89af-97831cb9ac45","system_id":"levelo_inurba_marseille","lat":43.24392,"lon":5.37054,"is_reserved":false,"is_disabled":false,"rental_uris":{"android":"levelo://app?vid=940cde9c-6243-4a9e-89af-97831cb9ac45","ios":"levelo://app?vid=940cde9c-6243-4a9e-89af-97831cb9ac45"},"vehicle_type_id":"4","last_reported":1728223634,"current_range_meters":32800,"station_id":"ce4bhhh2rcd13ifvqfk0","pricing_plan_id":"cebpf4jnsgd1na2vs0mg"},{"bike_id":"15333ecb-19e1-441f-ad39-884f6f3f8dec","system_id":"levelo_inurba_marseille","lat":43.29278,"lon":5.36834,"is_reserved":false,"is_disabled":false,"rental_uris":{"android":"levelo://app?vid=15333ecb-19e1-441f-ad39-884f6f3f8dec","ios":"levelo://app?vid=15333ecb-19e1-441f-ad39-884f6f3f8dec"},"vehicle_type_id":"4","last_reported":1728223634,"current_range_meters":33200,"station_id":"ce4bhbp2rcd13ifvqesg","pricing_plan_id":"cebpf4jnsgd1na2vs0mg"},{"bike_id":"3edccbad-c604-40df-acb2-6e9d91b67298","system_id":"levelo_inurba_marseille","lat":43.21342,"lon":5.34942,"is_reserved":false,"is_disabled":false,"rental_uris":{"android":"levelo://app?vid=3edccbad-c604-40df-acb2-6e9d91b67298","ios":"levelo://app?vid=3edccbad-c604-40df-acb2-6e9d91b67298"},"vehicle_type_id":"4","last_reported":1728223634,"current_range_meters":28400,"station_id":"crv51consjfaj9uu89c0","pricing_plan_id":"cebpf4jnsgd1na2vs0mg"},{"bike_id":"b7a864fa-efc9-4039-8389-bd7ebec8aafe","system_id":"levelo_inurba_marseille","lat":43.2731,"lon":5.39072,"is_reserved":false,"is_disabled":false,"rental_uris":{"android":"levelo://app?vid=b7a864fa-efc9-4039-8389-bd7ebec8aafe","ios":"levelo://app?vid=b7a864fa-efc9-4039-8389-bd7ebec8aafe"},"vehicle_type_id":"4","last_reported":1728223634,"current_range_meters":18000,"station_id":"ce4bhgp2rcd13ifvqfe0","pricing_plan_id":"cebpf4jnsgd1na2vs0mg"},{"bike_id":"bc0e17f4-5c34-45a2-8126-1798ce126f9c","system_id":"levelo_inurba_marseille","lat":43.28036,"lon":5.36938,"is_reserved":false,"is_disabled":false,"rental_uris":{"android":"levelo://app?vid=bc0e17f4-5c34-45a2-8126-1798ce126f9c","ios":"levelo://app?vid=bc0e17f4-5c34-45a2-8126-1798ce126f9c"},"vehicle_type_id":"4","last_reported":1728223634,"current_range_meters":38400,"station_id":"ce4bha12rcd13ifvqef0","pricing_plan_id":"cebpf4jnsgd1na2vs0mg"},{"bike_id":"5203775e-205e-4253-a5fb-1607fe6eb4d7","system_id":"levelo_inurba_marseille","lat":43.31691,"lon":5.40467,"is_reserved":false,"is_disabled":false,"rental_uris":{"android":"levelo://app?vid=5203775e-205e-4253-a5fb-1607fe6eb4d7","ios":"levelo://app?vid=5203775e-205e-4253-a5fb-1607fe6eb4d7"},"vehicle_type_id":"4","last_reported":1728223634,"current_range_meters":5600,"station_id":"ce4bh012rcd13ifvqd00","pricing_plan_id":"cebpf4jnsgd1na2vs0mg"},{"bike_id":"7c62f559-1eec-4b77-ae25-a903a2c2ef2a","system_id":"levelo_inurba_marseille","lat":43.27321,"lon":5.39086,"is_reserved":false,"is_disabled":false,"rental_uris":{"android":"levelo://app?vid=7c62f559-1eec-4b77-ae25-a903a2c2ef2a","ios":"levelo://app?vid=7c62f559-1eec-4b77-ae25-a903a2c2ef2a"},"vehicle_type_id":"4","last_reported":1728223634,"current_range_meters":39200,"station_id":"ce4bhgp2rcd13ifvqfe0","pricing_plan_id":"cebpf4jnsgd1na2vs0mg"},{"bike_id":"939f948f-0f86-450d-a969-aa8b3d4b8584","system_id":"levelo_inurba_marseille","lat":43.21348,"lon":5.34936,"is_reserved":false,"is_disabled":false,"rental_uris":{"android":"levelo://app?vid=939f948f-0f86-450d-a969-aa8b3d4b8584","ios":"levelo://app?vid=939f948f-0f86-450d-a969-aa8b3d4b8584"},"vehicle_type_id":"4","last_reported":1728223634,"current_range_meters":37600,"station_id":"crv51consjfaj9uu89c0","pricing_plan_id":"cebpf4jnsgd1na2vs0mg"},{"bike_id":"53aed260-8a8b-48a9-a9a5-ec999fb04e11","system_id":"levelo_inurba_marseille","lat":43.25118,"lon":5.40321,"is_reserved":false,"is_disabled":false,"rental_uris":{"android":"levelo://app?vid=53aed260-8a8b-48a9-a9a5-ec999fb04e11","ios":"levelo://app?vid=53aed260-8a8b-48a9-a9a5-ec999fb04e11"},"vehicle_type_id":"4","last_reported":1728223634,"current_range_meters":38800,"station_id":"ce4bhlh2rcd13ifvqgig","pricing_plan_id":"cebpf4jnsgd1na2vs0mg"},{"bike_id":"4de42dd8-05f9-4763-ba3a-a216bf1d5d7e","system_id":"levelo_inurba_marseille","lat":43.24386,"lon":5.37049,"is_reserved":false,"is_disabled":false,"rental_uris":{"android":"levelo://app?vid=4de42dd8-05f9-4763-ba3a-a216bf1d5d7e","ios":"levelo://app?vid=4de42dd8-05f9-4763-ba3a-a216bf1d5d7e"},"vehicle_type_id":"4","last_reported":1728223634,"current_range_meters":38800,"station_id":"ce4bhhh2rcd13ifvqfk0","pricing_plan_id":"cebpf4jnsgd1na2vs0mg"},{"bike_id":"c1fc3e70-e0c0-46ca-9485-5f0a18839246","system_id":"levelo_inurba_marseille","lat":43.24387,"lon":5.37058,"is_reserved":false,"is_disabled":false,"rental_uris":{"android":"levelo://app?vid=c1fc3e70-e0c0-46ca-9485-5f0a18839246","ios":"levelo://app?vid=c1fc3e70-e0c0-46ca-9485-5f0a18839246"},"vehicle_type_id":"4","last_reported":1728223634,"current_range_meters":14800,"station_id":"ce4bhhh2rcd13ifvqfk0","pricing_plan_id":"cebpf4jnsgd1na2vs0mg"},{"bike_id":"1a00b53a-006c-4cc8-9d62-986eb0a55bc8","system_id":"levelo_inurba_marseille","lat":43.21355,"lon":5.34934,"is_reserved":false,"is_disabled":false,"rental_uris":{"android":"levelo://app?vid=1a00b53a-006c-4cc8-9d62-986eb0a55bc8","ios":"levelo://app?vid=1a00b53a-006c-4cc8-9d62-986eb0a55bc8"},"vehicle_type_id":"4","last_reported":1728223634,"current_range_meters":14000,"station_id":"crv51consjfaj9uu89c0","pricing_plan_id":"cebpf4jnsgd1na2vs0mg"},{"bike_id":"8b4b06da-a8ff-4dc9-ab9f-042b5fa35747","system_id":"levelo_inurba_marseille","lat":43.25585,"lon":5.38231,"is_reserved":false,"is_disabled":false,"rental_uris":{"android":"levelo://app?vid=8b4b06da-a8ff-4dc9-ab9f-042b5fa35747","ios":"levelo://app?vid=8b4b06da-a8ff-4dc9-ab9f-042b5fa35747"},"vehicle_type_id":"4","last_reported":1728223634,"current_range_meters":6400,"station_id":"ce4bhih2rcd13ifvqfs0","pricing_plan_id":"cebpf4jnsgd1na2vs0mg"},{"bike_id":"3d3e93be-8a67-4628-9af2-2661c9a0daa4","system_id":"levelo_inurba_marseille","lat":43.22936,"lon":5.35381,"is_reserved":false,"is_disabled":false,"rental_uris":{"android":"levelo://app?vid=3d3e93be-8a67-4628-9af2-2661c9a0daa4","ios":"levelo://app?vid=3d3e93be-8a67-4628-9af2-2661c9a0daa4"},"vehicle_type_id":"4","last_reported":1728223634,"current_range_meters":36400,"station_id":"cpo3532slgdg3j2ikp40","pricing_plan_id":"cebpf4jnsgd1na2vs0mg"},{"bike_id":"83bd8e08-648e-4fc6-8901-05219804adac","system_id":"levelo_inurba_marseille","lat":43.22927,"lon":5.35378,"is_reserved":false,"is_disabled":false,"rental_uris":{"android":"levelo://app?vid=83bd8e08-648e-4fc6-8901-05219804adac","ios":"levelo://app?vid=83bd8e08-648e-4fc6-8901-05219804adac"},"vehicle_type_id":"4","last_reported":1728223634,"current_range_meters":30400,"station_id":"cpo3532slgdg3j2ikp40","pricing_plan_id":"cebpf4jnsgd1na2vs0mg"},{"bike_id":"6266ab0d-036e-4351-aec4-c2f2013119e5","system_id":"levelo_inurba_marseille","lat":43.32495,"lon":5.3657,"is_reserved":false,"is_disabled":false,"rental_uris":{"android":"levelo://app?vid=6266ab0d-036e-4351-aec4-c2f2013119e5","ios":"levelo://app?vid=6266ab0d-036e-4351-aec4-c2f2013119e5"},"vehicle_type_id":"4","last_reported":1728223634,"current_range_meters":38800,"station_id":"ce4bhs12rcd13ifvqhvg","pricing_plan_id":"cebpf4jnsgd1na2vs0mg"},{"bike_id":"972ff0ef-ac18-4b9e-89e9-b23dc9fb10b3","system_id":"levelo_inurba_marseille","lat":43.29019,"lon":5.38125,"is_reserved":false,"is_disabled":false,"rental_uris":{"android":"levelo://app?vid=972ff0ef-ac18-4b9e-89e9-b23dc9fb10b3","ios":"levelo://app?vid=972ff0ef-ac18-4b9e-89e9-b23dc9fb10b3"},"vehicle_type_id":"4","last_reported":1728223634,"current_range_meters":8800,"station_id":"ce4bh4p2rcd13ifvqe1g","pricing_plan_id":"cebpf4jnsgd1na2vs0mg"},{"bike_id":"2c1ccc48-7b9a-4b96-82c1-feb476287a75","system_id":"levelo_inurba_marseille","lat":43.25085,"lon":5.39513,"is_reserved":false,"is_disabled":false,"rental_uris":{"android":"levelo://app?vid=2c1ccc48-7b9a-4b96-82c1-feb476287a75","ios":"levelo://app?vid=2c1ccc48-7b9a-4b96-82c1-feb476287a75"},"vehicle_type_id":"4","last_reported":1728223634,"current_range_meters":35600,"station_id":"ce4bhm12rcd13ifvqgkg","pricing_plan_id":"cebpf4jnsgd1na2vs0mg"},{"bike_id":"b05ec1f3-c6b1-4e0f-9405-11d78a58ee18","system_id":"levelo_inurba_marseille","lat":43.21347,"lon":5.34936,"is_reserved":false,"is_disabled":false,"rental_uris":{"android":"levelo://app?vid=b05ec1f3-c6b1-4e0f-9405-11d78a58ee18","ios":"levelo://app?vid=b05ec1f3-c6b1-4e0f-9405-11d78a58ee18"},"vehicle_type_id":"4","last_reported":1728223634,"current_range_meters":28800,"station_id":"crv51consjfaj9uu89c0","pricing_plan_id":"cebpf4jnsgd1na2vs0mg"},{"bike_id":"f11dd066-6b94-4d0b-8a87-cb59e5dabda0","system_id":"levelo_inurba_marseille","lat":43.31274,"lon":5.40166,"is_reserved":false,"is_disabled":false,"rental_uris":{"android":"levelo://app?vid=f11dd066-6b94-4d0b-8a87-cb59e5dabda0","ios":"levelo://app?vid=f11dd066-6b94-4d0b-8a87-cb59e5dabda0"},"vehicle_type_id":"4","last_reported":1728223634,"current_range_meters":39200,"station_id":"ce4bh092rcd13ifvqd30","pricing_plan_id":"cebpf4jnsgd1na2vs0mg"},{"bike_id":"8d4fe74b-7d0a-4fa2-887e-e1fb593aca6e","system_id":"levelo_inurba_marseille","lat":43.30882,"lon":5.39633,"is_reserved":false,"is_disabled":false,"rental_uris":{"android":"levelo://app?vid=8d4fe74b-7d0a-4fa2-887e-e1fb593aca6e","ios":"levelo://app?vid=8d4fe74b-7d0a-4fa2-887e-e1fb593aca6e"},"vehicle_type_id":"4","last_reported":1728223634,"current_range_meters":30800,"station_id":"ce4bh012rcd13ifvqcv0","pricing_plan_id":"cebpf4jnsgd1na2vs0mg"},{"bike_id":"25e81eef-b9ea-4b4d-bf5f-af41e3b53100","system_id":"levelo_inurba_marseille","lat":43.29958,"lon":5.41323,"is_reserved":false,"is_disabled":false,"rental_uris":{"android":"levelo://app?vid=25e81eef-b9ea-4b4d-bf5f-af41e3b53100","ios":"levelo://app?vid=25e81eef-b9ea-4b4d-bf5f-af41e3b53100"},"vehicle_type_id":"4","last_reported":1728223634,"current_range_meters":37600,"station_id":"ce4bhp12rcd13ifvqh9g","pricing_plan_id":"cebpf4jnsgd1na2vs0mg"},{"bike_id":"249ba857-c21a-4cf9-b612-6eace3a3311f","system_id":"levelo_inurba_marseille","lat":43.27067,"lon":5.42272,"is_reserved":false,"is_disabled":false,"rental_uris":{"android":"levelo://app?vid=249ba857-c21a-4cf9-b612-6eace3a3311f","ios":"levelo://app?vid=249ba857-c21a-4cf9-b612-6eace3a3311f"},"vehicle_type_id":"4","last_reported":1728223634,"current_range_meters":26000,"station_id":"ce4bhk92rcd13ifvqgb0","pricing_plan_id":"cebpf4jnsgd1na2vs0mg"},{"bike_id":"32ab325a-0e98-4bb3-809c-c26d46577549","system_id":"levelo_inurba_marseille","lat":43.22936,"lon":5.35375,"is_reserved":false,"is_disabled":false,"rental_uris":{"android":"levelo://app?vid=32ab325a-0e98-4bb3-809c-c26d46577549","ios":"levelo://app?vid=32ab325a-0e98-4bb3-809c-c26d46577549"},"vehicle_type_id":"4","last_reported":1728223634,"current_range_meters":26000,"station_id":"cpo3532slgdg3j2ikp40","pricing_plan_id":"cebpf4jnsgd1na2vs0mg"},{"bike_id":"21814611-01da-4a56-bde2-76253f0cdaa1","system_id":"levelo_inurba_marseille","lat":43.27067,"lon":5.42276,"is_reserved":false,"is_disabled":false,"rental_uris":{"android":"levelo://app?vid=21814611-01da-4a56-bde2-76253f0cdaa1","ios":"levelo://app?vid=21814611-01da-4a56-bde2-76253f0cdaa1"},"vehicle_type_id":"4","last_reported":1728223634,"current_range_meters":17200,"station_id":"ce4bhk92rcd13ifvqgb0","pricing_plan_id":"cebpf4jnsgd1na2vs0mg"},{"bike_id":"f82919b6-40d0-4096-a110-9a9a19742e2e","system_id":"levelo_inurba_marseille","lat":43.29515,"lon":5.39032,"is_reserved":false,"is_disabled":false,"rental_uris":{"android":"levelo://app?vid=f82919b6-40d0-4096-a110-9a9a19742e2e","ios":"levelo://app?vid=f82919b6-40d0-4096-a110-9a9a19742e2e"},"vehicle_type_id":"4","last_reported":1728223634,"current_range_meters":33600,"station_id":"ce4bh3p2rcd13ifvqdp0","pricing_plan_id":"cebpf4jnsgd1na2vs0mg"},{"bike_id":"4239857e-d16c-4ba6-9fd8-418f2566d278","system_id":"levelo_inurba_marseille","lat":43.32043,"lon":5.41581,"is_reserved":false,"is_disabled":false,"rental_uris":{"android":"levelo://app?vid=4239857e-d16c-4ba6-9fd8-418f2566d278","ios":"levelo://app?vid=4239857e-d16c-4ba6-9fd8-418f2566d278"},"vehicle_type_id":"4","last_reported":1728223634,"current_range_meters":26800,"station_id":"ce4bhq92rcd13ifvqhkg","pricing_plan_id":"cebpf4jnsgd1na2vs0mg"},{"bike_id":"90f80364-0f59-43b1-bba6-aa43c75d91bc","system_id":"levelo_inurba_marseille","lat":43.30544,"lon":5.36533,"is_reserved":false,"is_disabled":false,"rental_uris":{"android":"levelo://app?vid=90f80364-0f59-43b1-bba6-aa43c75d91bc","ios":"levelo://app?vid=90f80364-0f59-43b1-bba6-aa43c75d91bc"},"vehicle_type_id":"4","last_reported":1728223634,"current_range_meters":28400,"station_id":"ce4bgs12rcd13ifvqcag","pricing_plan_id":"cebpf4jnsgd1na2vs0mg"},{"bike_id":"03ebdfef-60b9-4383-b780-f6e10ef5dff9","system_id":"levelo_inurba_marseille","lat":43.33755,"lon":5.37439,"is_reserved":false,"is_disabled":false,"rental_uris":{"android":"levelo://app?vid=03ebdfef-60b9-4383-b780-f6e10ef5dff9","ios":"levelo://app?vid=03ebdfef-60b9-4383-b780-f6e10ef5dff9"},"vehicle_type_id":"4","last_reported":1728223634,"current_range_meters":27200,"station_id":"","pricing_plan_id":"cebpf4jnsgd1na2vs0mg"},{"bike_id":"e53701e1-ecfd-41a2-8a05-1c48b21eafb2","system_id":"levelo_inurba_marseille","lat":43.30551,"lon":5.36542,"is_reserved":false,"is_disabled":false,"rental_uris":{"android":"levelo://app?vid=e53701e1-ecfd-41a2-8a05-1c48b21eafb2","ios":"levelo://app?vid=e53701e1-ecfd-41a2-8a05-1c48b21eafb2"},"vehicle_type_id":"4","last_reported":1728223634,"current_range_meters":27200,"station_id":"ce4bgs12rcd13ifvqcag","pricing_plan_id":"cebpf4jnsgd1na2vs0mg"},{"bike_id":"c4ce47f2-9f97-454e-90f1-d62335a1a7ed","system_id":"levelo_inurba_marseille","lat":43.213501,"lon":5.34939,"is_reserved":false,"is_disabled":false,"rental_uris":{"android":"levelo://app?vid=c4ce47f2-9f97-454e-90f1-d62335a1a7ed","ios":"levelo://app?vid=c4ce47f2-9f97-454e-90f1-d62335a1a7ed"},"vehicle_type_id":"4","last_reported":1728223634,"current_range_meters":12000,"station_id":"crv51consjfaj9uu89c0","pricing_plan_id":"cebpf4jnsgd1na2vs0mg"},{"bike_id":"7c151ab8-5716-45b8-ab82-58e51e75a567","system_id":"levelo_inurba_marseille","lat":43.32282,"lon":5.38268,"is_reserved":false,"is_disabled":false,"rental_uris":{"android":"levelo://app?vid=7c151ab8-5716-45b8-ab82-58e51e75a567","ios":"levelo://app?vid=7c151ab8-5716-45b8-ab82-58e51e75a567"},"vehicle_type_id":"4","last_reported":1728223634,"current_range_meters":34800,"station_id":"ce4bhr12rcd13ifvqhqg","pricing_plan_id":"cebpf4jnsgd1na2vs0mg"},{"bike_id":"8c4ede2a-8479-4951-912b-e9104b176599","system_id":"levelo_inurba_marseille","lat":43.33717,"lon":5.39191,"is_reserved":false,"is_disabled":false,"rental_uris":{"android":"levelo://app?vid=8c4ede2a-8479-4951-912b-e9104b176599","ios":"levelo://app?vid=8c4ede2a-8479-4951-912b-e9104b176599"},"vehicle_type_id":"4","last_reported":1728223634,"current_range_meters":8400,"station_id":"ce4bhr92rcd13ifvqhsg","pricing_plan_id":"cebpf4jnsgd1na2vs0mg"},{"bike_id":"a209a971-131e-491a-94c0-3302688dd8c9","system_id":"levelo_inurba_marseille","lat":43.30804,"lon":5.43505,"is_reserved":false,"is_disabled":false,"rental_uris":{"android":"levelo://app?vid=a209a971-131e-491a-94c0-3302688dd8c9","ios":"levelo://app?vid=a209a971-131e-491a-94c0-3302688dd8c9"},"vehicle_type_id":"4","last_reported":1728223634,"current_range_meters":12400,"station_id":"ce4bhph2rcd13ifvqheg","pricing_plan_id":"cebpf4jnsgd1na2vs0mg"},{"bike_id":"0677a6b5-e146-40ec-a422-c0be68c6f896","system_id":"levelo_inurba_marseille","lat":43.32325,"lon":5.40611,"is_reserved":false,"is_disabled":false,"rental_uris":{"android":"levelo://app?vid=0677a6b5-e146-40ec-a422-c0be68c6f896","ios":"levelo://app?vid=0677a6b5-e146-40ec-a422-c0be68c6f896"},"vehicle_type_id":"4","last_reported":1728223634,"current_range_meters":33600,"station_id":"ce4bhq92rcd13ifvqhjg","pricing_plan_id":"cebpf4jnsgd1na2vs0mg"},{"bike_id":"4018fa26-9a2a-4214-af21-76b3667a940b","system_id":"levelo_inurba_marseille","lat":43.337674,"lon":5.374285,"is_reserved":false,"is_disabled":false,"rental_uris":{"android":"levelo://app?vid=4018fa26-9a2a-4214-af21-76b3667a940b","ios":"levelo://app?vid=4018fa26-9a2a-4214-af21-76b3667a940b"},"vehicle_type_id":"4","last_reported":1728223634,"current_range_meters":27600,"station_id":"","pricing_plan_id":"cebpf4jnsgd1na2vs0mg"},{"bike_id":"b810d781-93fa-49c4-95cc-2518ab1b18f1","system_id":"levelo_inurba_marseille","lat":43.29428,"lon":5.39747,"is_reserved":false,"is_disabled":false,"rental_uris":{"android":"levelo://app?vid=b810d781-93fa-49c4-95cc-2518ab1b18f1","ios":"levelo://app?vid=b810d781-93fa-49c4-95cc-2518ab1b18f1"},"vehicle_type_id":"4","last_reported":1728223634,"current_range_meters":36800,"station_id":"ce4bh3h2rcd13ifvqdo0","pricing_plan_id":"cebpf4jnsgd1na2vs0mg"},{"bike_id":"ac7477e2-647f-4698-b2f1-05ac6bd7ca79","system_id":"levelo_inurba_marseille","lat":43.27364,"lon":5.36241,"is_reserved":false,"is_disabled":false,"rental_uris":{"android":"levelo://app?vid=ac7477e2-647f-4698-b2f1-05ac6bd7ca79","ios":"levelo://app?vid=ac7477e2-647f-4698-b2f1-05ac6bd7ca79"},"vehicle_type_id":"4","last_reported":1728223634,"current_range_meters":33200,"station_id":"ce4bhbh2rcd13ifvqeo0","pricing_plan_id":"cebpf4jnsgd1na2vs0mg"},{"bike_id":"0374933b-f1a9-4176-ba54-2bb9dbb911a4","system_id":"levelo_inurba_marseille","lat":43.31486,"lon":5.37294,"is_reserved":false,"is_disabled":false,"rental_uris":{"android":"levelo://app?vid=0374933b-f1a9-4176-ba54-2bb9dbb911a4","ios":"levelo://app?vid=0374933b-f1a9-4176-ba54-2bb9dbb911a4"},"vehicle_type_id":"4","last_reported":1728223634,"current_range_meters":38800,"station_id":"ce4bgt12rcd13ifvqcd0","pricing_plan_id":"cebpf4jnsgd1na2vs0mg"},{"bike_id":"32c085d6-3b85-4401-8c9a-4837967b242e","system_id":"levelo_inurba_marseille","lat":43.28357,"lon":5.38097,"is_reserved":false,"is_disabled":false,"rental_uris":{"android":"levelo://app?vid=32c085d6-3b85-4401-8c9a-4837967b242e","ios":"levelo://app?vid=32c085d6-3b85-4401-8c9a-4837967b242e"},"vehicle_type_id":"4","last_reported":1728223634,"current_range_meters":13600,"station_id":"ce4bh412rcd13ifvqdr0","pricing_plan_id":"cebpf4jnsgd1na2vs0mg"},{"bike_id":"aecb6a9e-bafd-42bb-b8d9-56111310f32e","system_id":"levelo_inurba_marseille","lat":43.26807,"lon":5.40266,"is_reserved":false,"is_disabled":false,"rental_uris":{"android":"levelo://app?vid=aecb6a9e-bafd-42bb-b8d9-56111310f32e","ios":"levelo://app?vid=aecb6a9e-bafd-42bb-b8d9-56111310f32e"},"vehicle_type_id":"4","last_reported":1728223634,"current_range_meters":13600,"station_id":"ce501612rcd8frsf0b60","pricing_plan_id":"cebpf4jnsgd1na2vs0mg"},{"bike_id":"491813ec-5bcd-4eda-acb2-c01ccb4e9894","system_id":"levelo_inurba_marseille","lat":43.33766,"lon":5.37457,"is_reserved":false,"is_disabled":false,"rental_uris":{"android":"levelo://app?vid=491813ec-5bcd-4eda-acb2-c01ccb4e9894","ios":"levelo://app?vid=491813ec-5bcd-4eda-acb2-c01ccb4e9894"},"vehicle_type_id":"4","last_reported":1728223634,"current_range_meters":26800,"station_id":"","pricing_plan_id":"cebpf4jnsgd1na2vs0mg"},{"bike_id":"0520a6be-d58d-41f8-a9b5-a0f96abce806","system_id":"levelo_inurba_marseille","lat":43.3108,"lon":5.42432,"is_reserved":false,"is_disabled":false,"rental_uris":{"android":"levelo://app?vid=0520a6be-d58d-41f8-a9b5-a0f96abce806","ios":"levelo://app?vid=0520a6be-d58d-41f8-a9b5-a0f96abce806"},"vehicle_type_id":"4","last_reported":1728223634,"current_range_meters":20400,"station_id":"ce4bhp92rcd13ifvqhag","pricing_plan_id":"cebpf4jnsgd1na2vs0mg"},{"bike_id":"8066cbd9-6f5f-4c8b-82e0-670217342883","system_id":"levelo_inurba_marseille","lat":43.21345,"lon":5.34938,"is_reserved":false,"is_disabled":false,"rental_uris":{"android":"levelo://app?vid=8066cbd9-6f5f-4c8b-82e0-670217342883","ios":"levelo://app?vid=8066cbd9-6f5f-4c8b-82e0-670217342883"},"vehicle_type_id":"4","last_reported":1728223634,"current_range_meters":33200,"station_id":"crv51consjfaj9uu89c0","pricing_plan_id":"cebpf4jnsgd1na2vs0mg"},{"bike_id":"870ecdbf-3528-4277-82a5-269de3374c1c","system_id":"levelo_inurba_marseille","lat":43.27069,"lon":5.42274,"is_reserved":false,"is_disabled":false,"rental_uris":{"android":"levelo://app?vid=870ecdbf-3528-4277-82a5-269de3374c1c","ios":"levelo://app?vid=870ecdbf-3528-4277-82a5-269de3374c1c"},"vehicle_type_id":"4","last_reported":1728223634,"current_range_meters":40000,"station_id":"ce4bhk92rcd13ifvqgb0","pricing_plan_id":"cebpf4jnsgd1na2vs0mg"},{"bike_id":"39aaeff7-b4b0-401d-b139-51616ae9c597","system_id":"levelo_inurba_marseille","lat":43.311707,"lon":5.433849,"is_reserved":false,"is_disabled":false,"rental_uris":{"android":"levelo://app?vid=39aaeff7-b4b0-401d-b139-51616ae9c597","ios":"levelo://app?vid=39aaeff7-b4b0-401d-b139-51616ae9c597"},"vehicle_type_id":"4","last_reported":1728223634,"current_range_meters":37600,"station_id":"","pricing_plan_id":"cebpf4jnsgd1na2vs0mg"},{"bike_id":"baba7691-81ff-4c7d-90d9-c89eba9696cb","system_id":"levelo_inurba_marseille","lat":43.25928,"lon":5.40908,"is_reserved":false,"is_disabled":false,"rental_uris":{"android":"levelo://app?vid=baba7691-81ff-4c7d-90d9-c89eba9696cb","ios":"levelo://app?vid=baba7691-81ff-4c7d-90d9-c89eba9696cb"},"vehicle_type_id":"4","last_reported":1728223634,"current_range_meters":32000,"station_id":"ce4bhm92rcd13ifvqglg","pricing_plan_id":"cebpf4jnsgd1na2vs0mg"},{"bike_id":"a6007e39-eafe-4c4f-8bcd-ba3040fddf98","system_id":"levelo_inurba_marseille","lat":43.29272,"lon":5.36844,"is_reserved":false,"is_disabled":false,"rental_uris":{"android":"levelo://app?vid=a6007e39-eafe-4c4f-8bcd-ba3040fddf98","ios":"levelo://app?vid=a6007e39-eafe-4c4f-8bcd-ba3040fddf98"},"vehicle_type_id":"4","last_reported":1728223634,"current_range_meters":19200,"station_id":"ce4bhbp2rcd13ifvqesg","pricing_plan_id":"cebpf4jnsgd1na2vs0mg"},{"bike_id":"d73e4c46-b32f-4eb4-8be2-86b635c69fb6","system_id":"levelo_inurba_marseille","lat":43.28702,"lon":5.37388,"is_reserved":false,"is_disabled":false,"rental_uris":{"android":"levelo://app?vid=d73e4c46-b32f-4eb4-8be2-86b635c69fb6","ios":"levelo://app?vid=d73e4c46-b32f-4eb4-8be2-86b635c69fb6"},"vehicle_type_id":"4","last_reported":1728223634,"current_range_meters":39200,"station_id":"ce4bh3p2rcd13ifvqdq0","pricing_plan_id":"cebpf4jnsgd1na2vs0mg"},{"bike_id":"d23ddbe4-840b-4d6d-8e13-a20922334a77","system_id":"levelo_inurba_marseille","lat":43.32485,"lon":5.36551,"is_reserved":false,"is_disabled":false,"rental_uris":{"android":"levelo://app?vid=d23ddbe4-840b-4d6d-8e13-a20922334a77","ios":"levelo://app?vid=d23ddbe4-840b-4d6d-8e13-a20922334a77"},"vehicle_type_id":"4","last_reported":1728223634,"current_range_meters":38800,"station_id":"ce4bhs12rcd13ifvqhvg","pricing_plan_id":"cebpf4jnsgd1na2vs0mg"},{"bike_id":"6ae7d0e0-1623-4439-8d68-fec3c5db110c","system_id":"levelo_inurba_marseille","lat":43.22932,"lon":5.35378,"is_reserved":false,"is_disabled":false,"rental_uris":{"android":"levelo://app?vid=6ae7d0e0-1623-4439-8d68-fec3c5db110c","ios":"levelo://app?vid=6ae7d0e0-1623-4439-8d68-fec3c5db110c"},"vehicle_type_id":"4","last_reported":1728223634,"current_range_meters":36800,"station_id":"cpo3532slgdg3j2ikp40","pricing_plan_id":"cebpf4jnsgd1na2vs0mg"},{"bike_id":"a4d59a1c-5fe9-410d-aa63-14cdca79ab5d","system_id":"levelo_inurba_marseille","lat":43.29361,"lon":5.37836,"is_reserved":false,"is_disabled":false,"rental_uris":{"android":"levelo://app?vid=a4d59a1c-5fe9-410d-aa63-14cdca79ab5d","ios":"levelo://app?vid=a4d59a1c-5fe9-410d-aa63-14cdca79ab5d"},"vehicle_type_id":"4","last_reported":1728223634,"current_range_meters":10800,"station_id":"ce4bgjh2rcd13ifvqbf0","pricing_plan_id":"cebpf4jnsgd1na2vs0mg"},{"bike_id":"4af55307-045f-4c66-a045-a91d88bb4c16","system_id":"levelo_inurba_marseille","lat":43.22931,"lon":5.35376,"is_reserved":false,"is_disabled":false,"rental_uris":{"android":"levelo://app?vid=4af55307-045f-4c66-a045-a91d88bb4c16","ios":"levelo://app?vid=4af55307-045f-4c66-a045-a91d88bb4c16"},"vehicle_type_id":"4","last_reported":1728223634,"current_range_meters":30400,"station_id":"cpo3532slgdg3j2ikp40","pricing_plan_id":"cebpf4jnsgd1na2vs0mg"},{"bike_id":"4548b517-12f1-4bdf-bf19-bf56f4b90c1d","system_id":"levelo_inurba_marseille","lat":43.28978,"lon":5.37839,"is_reserved":false,"is_disabled":false,"rental_uris":{"android":"levelo://app?vid=4548b517-12f1-4bdf-bf19-bf56f4b90c1d","ios":"levelo://app?vid=4548b517-12f1-4bdf-bf19-bf56f4b90c1d"},"vehicle_type_id":"4","last_reported":1728223634,"current_range_meters":38000,"station_id":"ce4bh9p2rcd13ifvqed0","pricing_plan_id":"cebpf4jnsgd1na2vs0mg"},{"bike_id":"20a57e0e-4b67-4cae-9e1a-94ea5b424eca","system_id":"levelo_inurba_marseille","lat":43.30887,"lon":5.39629,"is_reserved":false,"is_disabled":false,"rental_uris":{"android":"levelo://app?vid=20a57e0e-4b67-4cae-9e1a-94ea5b424eca","ios":"levelo://app?vid=20a57e0e-4b67-4cae-9e1a-94ea5b424eca"},"vehicle_type_id":"4","last_reported":1728223634,"current_range_meters":30800,"station_id":"ce4bh012rcd13ifvqcv0","pricing_plan_id":"cebpf4jnsgd1na2vs0mg"},{"bike_id":"13a35d1a-1c21-4cdd-9282-17040c700716","system_id":"levelo_inurba_marseille","lat":43.32542,"lon":5.41442,"is_reserved":false,"is_disabled":false,"rental_uris":{"android":"levelo://app?vid=13a35d1a-1c21-4cdd-9282-17040c700716","ios":"levelo://app?vid=13a35d1a-1c21-4cdd-9282-17040c700716"},"vehicle_type_id":"4","last_reported":1728223634,"current_range_meters":35200,"station_id":"ce4bhq12rcd13ifvqhhg","pricing_plan_id":"cebpf4jnsgd1na2vs0mg"},{"bike_id":"235344ae-d40d-4c9e-a986-52bb5c104ce0","system_id":"levelo_inurba_marseille","lat":43.3169,"lon":5.40455,"is_reserved":false,"is_disabled":false,"rental_uris":{"android":"levelo://app?vid=235344ae-d40d-4c9e-a986-52bb5c104ce0","ios":"levelo://app?vid=235344ae-d40d-4c9e-a986-52bb5c104ce0"},"vehicle_type_id":"4","last_reported":1728223634,"current_range_meters":38000,"station_id":"ce4bh012rcd13ifvqd00","pricing_plan_id":"cebpf4jnsgd1na2vs0mg"},{"bike_id":"265b6257-cac5-4700-be81-5022c39ebf02","system_id":"levelo_inurba_marseille","lat":43.21346,"lon":5.3494,"is_reserved":false,"is_disabled":false,"rental_uris":{"android":"levelo://app?vid=265b6257-cac5-4700-be81-5022c39ebf02","ios":"levelo://app?vid=265b6257-cac5-4700-be81-5022c39ebf02"},"vehicle_type_id":"4","last_reported":1728223634,"current_range_meters":32000,"station_id":"crv51consjfaj9uu89c0","pricing_plan_id":"cebpf4jnsgd1na2vs0mg"},{"bike_id":"327914c6-82e7-44f4-9ef5-dedbfaa8b9a7","system_id":"levelo_inurba_marseille","lat":43.23964,"lon":5.36631,"is_reserved":false,"is_disabled":false,"rental_uris":{"android":"levelo://app?vid=327914c6-82e7-44f4-9ef5-dedbfaa8b9a7","ios":"levelo://app?vid=327914c6-82e7-44f4-9ef5-dedbfaa8b9a7"},"vehicle_type_id":"4","last_reported":1728223634,"current_range_meters":24000,"station_id":"ce4bhi12rcd13ifvqfp0","pricing_plan_id":"cebpf4jnsgd1na2vs0mg"},{"bike_id":"79a30a07-81d5-4fba-9bdc-0528f8f010ae","system_id":"levelo_inurba_marseille","lat":43.2511,"lon":5.40331,"is_reserved":false,"is_disabled":false,"rental_uris":{"android":"levelo://app?vid=79a30a07-81d5-4fba-9bdc-0528f8f010ae","ios":"levelo://app?vid=79a30a07-81d5-4fba-9bdc-0528f8f010ae"},"vehicle_type_id":"4","last_reported":1728223634,"current_range_meters":21600,"station_id":"ce4bhlh2rcd13ifvqgig","pricing_plan_id":"cebpf4jnsgd1na2vs0mg"},{"bike_id":"97ef281f-c717-429c-a078-d6a368902950","system_id":"levelo_inurba_marseille","lat":43.21347,"lon":5.34941,"is_reserved":false,"is_disabled":false,"rental_uris":{"android":"levelo://app?vid=97ef281f-c717-429c-a078-d6a368902950","ios":"levelo://app?vid=97ef281f-c717-429c-a078-d6a368902950"},"vehicle_type_id":"4","last_reported":1728223634,"current_range_meters":24800,"station_id":"crv51consjfaj9uu89c0","pricing_plan_id":"cebpf4jnsgd1na2vs0mg"},{"bike_id":"95742baa-b124-4b5a-8cd9-cc5d271511f7","system_id":"levelo_inurba_marseille","lat":43.29857,"lon":5.36284,"is_reserved":false,"is_disabled":false,"rental_uris":{"android":"levelo://app?vid=95742baa-b124-4b5a-8cd9-cc5d271511f7","ios":"levelo://app?vid=95742baa-b124-4b5a-8cd9-cc5d271511f7"},"vehicle_type_id":"4","last_reported":1728223634,"current_range_meters":17200,"station_id":"ce4bgpp2rcd13ifvqc3g","pricing_plan_id":"cebpf4jnsgd1na2vs0mg"},{"bike_id":"cdd815a4-7c60-4059-9a82-85be0801fc42","system_id":"levelo_inurba_marseille","lat":43.28351,"lon":5.3809,"is_reserved":false,"is_disabled":false,"rental_uris":{"android":"levelo://app?vid=cdd815a4-7c60-4059-9a82-85be0801fc42","ios":"levelo://app?vid=cdd815a4-7c60-4059-9a82-85be0801fc42"},"vehicle_type_id":"4","last_reported":1728223634,"current_range_meters":28400,"station_id":"ce4bh412rcd13ifvqdr0","pricing_plan_id":"cebpf4jnsgd1na2vs0mg"},{"bike_id":"a2f3ad24-a1b9-4ff9-8d55-220247fd22c8","system_id":"levelo_inurba_marseille","lat":43.31713,"lon":5.43705,"is_reserved":false,"is_disabled":false,"rental_uris":{"android":"levelo://app?vid=a2f3ad24-a1b9-4ff9-8d55-220247fd22c8","ios":"levelo://app?vid=a2f3ad24-a1b9-4ff9-8d55-220247fd22c8"},"vehicle_type_id":"4","last_reported":1728223634,"current_range_meters":20400,"station_id":"ce4bhp92rcd13ifvqhcg","pricing_plan_id":"cebpf4jnsgd1na2vs0mg"},{"bike_id":"23860757-7352-4f6d-bd82-08ba559867c5","system_id":"levelo_inurba_marseille","lat":43.24809,"lon":5.37456,"is_reserved":false,"is_disabled":false,"rental_uris":{"android":"levelo://app?vid=23860757-7352-4f6d-bd82-08ba559867c5","ios":"levelo://app?vid=23860757-7352-4f6d-bd82-08ba559867c5"},"vehicle_type_id":"4","last_reported":1728223634,"current_range_meters":22000,"station_id":"ce4bhgh2rcd13ifvqfb0","pricing_plan_id":"cebpf4jnsgd1na2vs0mg"},{"bike_id":"754d17d8-b795-482d-9416-d07a0b7cfea5","system_id":"levelo_inurba_marseille","lat":43.3133,"lon":5.39688,"is_reserved":false,"is_disabled":false,"rental_uris":{"android":"levelo://app?vid=754d17d8-b795-482d-9416-d07a0b7cfea5","ios":"levelo://app?vid=754d17d8-b795-482d-9416-d07a0b7cfea5"},"vehicle_type_id":"4","last_reported":1728223634,"current_range_meters":18800,"station_id":"ce4bgvp2rcd13ifvqcu0","pricing_plan_id":"cebpf4jnsgd1na2vs0mg"},{"bike_id":"304f0f46-778c-4448-8270-d4d4de7ea60c","system_id":"levelo_inurba_marseille","lat":43.27912,"lon":5.39571,"is_reserved":false,"is_disabled":false,"rental_uris":{"android":"levelo://app?vid=304f0f46-778c-4448-8270-d4d4de7ea60c","ios":"levelo://app?vid=304f0f46-778c-4448-8270-d4d4de7ea60c"},"vehicle_type_id":"4","last_reported":1728223634,"current_range_meters":12000,"station_id":"ce4bhf92rcd13ifvqf40","pricing_plan_id":"cebpf4jnsgd1na2vs0mg"},{"bike_id":"8d56c792-0032-4d42-a6d7-d8880c40e237","system_id":"levelo_inurba_marseille","lat":43.26938,"lon":5.40256,"is_reserved":false,"is_disabled":false,"rental_uris":{"android":"levelo://app?vid=8d56c792-0032-4d42-a6d7-d8880c40e237","ios":"levelo://app?vid=8d56c792-0032-4d42-a6d7-d8880c40e237"},"vehicle_type_id":"4","last_reported":1728223634,"current_range_meters":2000,"station_id":"cjm6bp8fraef2m0cb0m0","pricing_plan_id":"cebpf4jnsgd1na2vs0mg"},{"bike_id":"f10bcf9c-7781-43e3-be22-9f945d1ddcd6","system_id":"levelo_inurba_marseille","lat":43.31715,"lon":5.43708,"is_reserved":false,"is_disabled":false,"rental_uris":{"android":"levelo://app?vid=f10bcf9c-7781-43e3-be22-9f945d1ddcd6","ios":"levelo://app?vid=f10bcf9c-7781-43e3-be22-9f945d1ddcd6"},"vehicle_type_id":"4","last_reported":1728223634,"current_range_meters":22400,"station_id":"ce4bhp92rcd13ifvqhcg","pricing_plan_id":"cebpf4jnsgd1na2vs0mg"},{"bike_id":"b115519d-43be-4b63-afb0-d6371cff0a3c","system_id":"levelo_inurba_marseille","lat":43.21349,"lon":5.34935,"is_reserved":false,"is_disabled":false,"rental_uris":{"android":"levelo://app?vid=b115519d-43be-4b63-afb0-d6371cff0a3c","ios":"levelo://app?vid=b115519d-43be-4b63-afb0-d6371cff0a3c"},"vehicle_type_id":"4","last_reported":1728223634,"current_range_meters":12800,"station_id":"crv51consjfaj9uu89c0","pricing_plan_id":"cebpf4jnsgd1na2vs0mg"},{"bike_id":"05ddab4b-2219-453e-b9f6-9211ae63c830","system_id":"levelo_inurba_marseille","lat":43.21343,"lon":5.34943,"is_reserved":false,"is_disabled":false,"rental_uris":{"android":"levelo://app?vid=05ddab4b-2219-453e-b9f6-9211ae63c830","ios":"levelo://app?vid=05ddab4b-2219-453e-b9f6-9211ae63c830"},"vehicle_type_id":"4","last_reported":1728223634,"current_range_meters":32800,"station_id":"crv51consjfaj9uu89c0","pricing_plan_id":"cebpf4jnsgd1na2vs0mg"},{"bike_id":"c326aca9-cc64-495e-8b59-213c148638dd","system_id":"levelo_inurba_marseille","lat":43.32291,"lon":5.38273,"is_reserved":false,"is_disabled":false,"rental_uris":{"android":"levelo://app?vid=c326aca9-cc64-495e-8b59-213c148638dd","ios":"levelo://app?vid=c326aca9-cc64-495e-8b59-213c148638dd"},"vehicle_type_id":"4","last_reported":1728223634,"current_range_meters":20000,"station_id":"ce4bhr12rcd13ifvqhqg","pricing_plan_id":"cebpf4jnsgd1na2vs0mg"},{"bike_id":"cbe4a479-f5ab-4e9e-91cb-c388819936d1","system_id":"levelo_inurba_marseille","lat":43.26203,"lon":5.3793,"is_reserved":false,"is_disabled":false,"rental_uris":{"android":"levelo://app?vid=cbe4a479-f5ab-4e9e-91cb-c388819936d1","ios":"levelo://app?vid=cbe4a479-f5ab-4e9e-91cb-c388819936d1"},"vehicle_type_id":"4","last_reported":1728223634,"current_range_meters":38800,"station_id":"ce4bhjp2rcd13ifvqg90","pricing_plan_id":"cebpf4jnsgd1na2vs0mg"},{"bike_id":"5c60b6c1-0028-4895-9946-cdbe35a1954d","system_id":"levelo_inurba_marseille","lat":43.28723,"lon":5.37945,"is_reserved":false,"is_disabled":false,"rental_uris":{"android":"levelo://app?vid=5c60b6c1-0028-4895-9946-cdbe35a1954d","ios":"levelo://app?vid=5c60b6c1-0028-4895-9946-cdbe35a1954d"},"vehicle_type_id":"4","last_reported":1728223634,"current_range_meters":31200,"station_id":"ce4bh9p2rcd13ifvqec0","pricing_plan_id":"cebpf4jnsgd1na2vs0mg"},{"bike_id":"eaceb183-67bf-4fb9-bd40-4d01e8d4908e","system_id":"levelo_inurba_marseille","lat":43.24178,"lon":5.39732,"is_reserved":false,"is_disabled":false,"rental_uris":{"android":"levelo://app?vid=eaceb183-67bf-4fb9-bd40-4d01e8d4908e","ios":"levelo://app?vid=eaceb183-67bf-4fb9-bd40-4d01e8d4908e"},"vehicle_type_id":"4","last_reported":1728223634,"current_range_meters":39200,"station_id":"ce4bhn12rcd13ifvqgpg","pricing_plan_id":"cebpf4jnsgd1na2vs0mg"},{"bike_id":"d0ca1193-12e8-4ac2-9a60-4ae6e0040151","system_id":"levelo_inurba_marseille","lat":43.2294,"lon":5.35379,"is_reserved":false,"is_disabled":false,"rental_uris":{"android":"levelo://app?vid=d0ca1193-12e8-4ac2-9a60-4ae6e0040151","ios":"levelo://app?vid=d0ca1193-12e8-4ac2-9a60-4ae6e0040151"},"vehicle_type_id":"4","last_reported":1728223634,"current_range_meters":28000,"station_id":"cpo3532slgdg3j2ikp40","pricing_plan_id":"cebpf4jnsgd1na2vs0mg"},{"bike_id":"6291210f-28f9-4d9e-b19e-1d5c357806cf","system_id":"levelo_inurba_marseille","lat":43.28727,"lon":5.37941,"is_reserved":false,"is_disabled":false,"rental_uris":{"android":"levelo://app?vid=6291210f-28f9-4d9e-b19e-1d5c357806cf","ios":"levelo://app?vid=6291210f-28f9-4d9e-b19e-1d5c357806cf"},"vehicle_type_id":"4","last_reported":1728223634,"current_range_meters":20000,"station_id":"ce4bh9p2rcd13ifvqec0","pricing_plan_id":"cebpf4jnsgd1na2vs0mg"},{"bike_id":"6407b479-b396-4c54-b65c-1df4d77faf38","system_id":"levelo_inurba_marseille","lat":43.25084,"lon":5.3952,"is_reserved":false,"is_disabled":false,"rental_uris":{"android":"levelo://app?vid=6407b479-b396-4c54-b65c-1df4d77faf38","ios":"levelo://app?vid=6407b479-b396-4c54-b65c-1df4d77faf38"},"vehicle_type_id":"4","last_reported":1728223634,"current_range_meters":28400,"station_id":"ce4bhm12rcd13ifvqgkg","pricing_plan_id":"cebpf4jnsgd1na2vs0mg"},{"bike_id":"8fd0d921-f5fc-47ca-be87-b3dc008f8f4b","system_id":"levelo_inurba_marseille","lat":43.29842,"lon":5.36271,"is_reserved":false,"is_disabled":false,"rental_uris":{"android":"levelo://app?vid=8fd0d921-f5fc-47ca-be87-b3dc008f8f4b","ios":"levelo://app?vid=8fd0d921-f5fc-47ca-be87-b3dc008f8f4b"},"vehicle_type_id":"4","last_reported":1728223634,"current_range_meters":10800,"station_id":"ce4bgpp2rcd13ifvqc3g","pricing_plan_id":"cebpf4jnsgd1na2vs0mg"},{"bike_id":"5910870e-8548-48ad-8587-cd2c09f3b546","system_id":"levelo_inurba_marseille","lat":43.28365,"lon":5.35007,"is_reserved":false,"is_disabled":false,"rental_uris":{"android":"levelo://app?vid=5910870e-8548-48ad-8587-cd2c09f3b546","ios":"levelo://app?vid=5910870e-8548-48ad-8587-cd2c09f3b546"},"vehicle_type_id":"4","last_reported":1728223634,"current_range_meters":22400,"station_id":"ce4bhbp2rcd13ifvqerg","pricing_plan_id":"cebpf4jnsgd1na2vs0mg"},{"bike_id":"4f221bdf-2c19-4b99-a7bf-79c7e7775301","system_id":"levelo_inurba_marseille","lat":43.27374,"lon":5.36257,"is_reserved":false,"is_disabled":false,"rental_uris":{"android":"levelo://app?vid=4f221bdf-2c19-4b99-a7bf-79c7e7775301","ios":"levelo://app?vid=4f221bdf-2c19-4b99-a7bf-79c7e7775301"},"vehicle_type_id":"4","last_reported":1728223634,"current_range_meters":37600,"station_id":"ce4bhbh2rcd13ifvqeo0","pricing_plan_id":"cebpf4jnsgd1na2vs0mg"},{"bike_id":"4f922fe2-4489-4b54-a5b1-7835b0165608","system_id":"levelo_inurba_marseille","lat":43.2694,"lon":5.40248,"is_reserved":false,"is_disabled":false,"rental_uris":{"android":"levelo://app?vid=4f922fe2-4489-4b54-a5b1-7835b0165608","ios":"levelo://app?vid=4f922fe2-4489-4b54-a5b1-7835b0165608"},"vehicle_type_id":"4","last_reported":1728223634,"current_range_meters":24400,"station_id":"cjm6bp8fraef2m0cb0m0","pricing_plan_id":"cebpf4jnsgd1na2vs0mg"},{"bike_id":"be418cc3-4334-4ce4-9486-dc18b246cad9","system_id":"levelo_inurba_marseille","lat":43.28147,"lon":5.42645,"is_reserved":false,"is_disabled":false,"rental_uris":{"android":"levelo://app?vid=be418cc3-4334-4ce4-9486-dc18b246cad9","ios":"levelo://app?vid=be418cc3-4334-4ce4-9486-dc18b246cad9"},"vehicle_type_id":"4","last_reported":1728223634,"current_range_meters":33600,"station_id":"ce4bhnh2rcd13ifvqgug","pricing_plan_id":"cebpf4jnsgd1na2vs0mg"},{"bike_id":"1bd2f7ec-d06e-4723-b3c8-18546fc91d7d","system_id":"levelo_inurba_marseille","lat":43.31264,"lon":5.40173,"is_reserved":false,"is_disabled":false,"rental_uris":{"android":"levelo://app?vid=1bd2f7ec-d06e-4723-b3c8-18546fc91d7d","ios":"levelo://app?vid=1bd2f7ec-d06e-4723-b3c8-18546fc91d7d"},"vehicle_type_id":"4","last_reported":1728223634,"current_range_meters":7200,"station_id":"ce4bh092rcd13ifvqd30","pricing_plan_id":"cebpf4jnsgd1na2vs0mg"},{"bike_id":"cf859ea4-43e9-4e93-b7f1-abd407171ec0","system_id":"levelo_inurba_marseille","lat":43.27812,"lon":5.40702,"is_reserved":false,"is_disabled":false,"rental_uris":{"android":"levelo://app?vid=cf859ea4-43e9-4e93-b7f1-abd407171ec0","ios":"levelo://app?vid=cf859ea4-43e9-4e93-b7f1-abd407171ec0"},"vehicle_type_id":"4","last_reported":1728223634,"current_range_meters":30400,"station_id":"ce4bhnh2rcd13ifvqgtg","pricing_plan_id":"cebpf4jnsgd1na2vs0mg"},{"bike_id":"fd2c2eaa-dae3-4231-bf2f-989853f55522","system_id":"levelo_inurba_marseille","lat":43.29882,"lon":5.38897,"is_reserved":false,"is_disabled":false,"rental_uris":{"android":"levelo://app?vid=fd2c2eaa-dae3-4231-bf2f-989853f55522","ios":"levelo://app?vid=fd2c2eaa-dae3-4231-bf2f-989853f55522"},"vehicle_type_id":"4","last_reported":1728223634,"current_range_meters":36800,"station_id":"ce4bh392rcd13ifvqdl0","pricing_plan_id":"cebpf4jnsgd1na2vs0mg"},{"bike_id":"7be128f4-ba12-493a-be99-11ef57463abf","system_id":"levelo_inurba_marseille","lat":43.21346,"lon":5.34938,"is_reserved":false,"is_disabled":false,"rental_uris":{"android":"levelo://app?vid=7be128f4-ba12-493a-be99-11ef57463abf","ios":"levelo://app?vid=7be128f4-ba12-493a-be99-11ef57463abf"},"vehicle_type_id":"4","last_reported":1728223634,"current_range_meters":6800,"station_id":"crv51consjfaj9uu89c0","pricing_plan_id":"cebpf4jnsgd1na2vs0mg"},{"bike_id":"64c7d91f-7f0c-4913-ab55-19df4984646d","system_id":"levelo_inurba_marseille","lat":43.26938,"lon":5.40259,"is_reserved":false,"is_disabled":false,"rental_uris":{"android":"levelo://app?vid=64c7d91f-7f0c-4913-ab55-19df4984646d","ios":"levelo://app?vid=64c7d91f-7f0c-4913-ab55-19df4984646d"},"vehicle_type_id":"4","last_reported":1728223634,"current_range_meters":15200,"station_id":"cjm6bp8fraef2m0cb0m0","pricing_plan_id":"cebpf4jnsgd1na2vs0mg"},{"bike_id":"d79b8ef0-5947-4bfa-b2f6-f5edb2798047","system_id":"levelo_inurba_marseille","lat":43.30546,"lon":5.36538,"is_reserved":false,"is_disabled":false,"rental_uris":{"android":"levelo://app?vid=d79b8ef0-5947-4bfa-b2f6-f5edb2798047","ios":"levelo://app?vid=d79b8ef0-5947-4bfa-b2f6-f5edb2798047"},"vehicle_type_id":"4","last_reported":1728223634,"current_range_meters":9200,"station_id":"ce4bgs12rcd13ifvqcag","pricing_plan_id":"cebpf4jnsgd1na2vs0mg"},{"bike_id":"82878b05-76ef-4e79-bf42-12f58ab3e926","system_id":"levelo_inurba_marseille","lat":43.27938,"lon":5.41047,"is_reserved":false,"is_disabled":false,"rental_uris":{"android":"levelo://app?vid=82878b05-76ef-4e79-bf42-12f58ab3e926","ios":"levelo://app?vid=82878b05-76ef-4e79-bf42-12f58ab3e926"},"vehicle_type_id":"4","last_reported":1728223634,"current_range_meters":9600,"station_id":"ce4bhnp2rcd13ifvqh0g","pricing_plan_id":"cebpf4jnsgd1na2vs0mg"},{"bike_id":"cd3cba50-4b09-4238-a392-c392e6911831","system_id":"levelo_inurba_marseille","lat":43.26785,"lon":5.39407,"is_reserved":false,"is_disabled":false,"rental_uris":{"android":"levelo://app?vid=cd3cba50-4b09-4238-a392-c392e6911831","ios":"levelo://app?vid=cd3cba50-4b09-4238-a392-c392e6911831"},"vehicle_type_id":"4","last_reported":1728223634,"current_range_meters":24400,"station_id":"ce4bhh12rcd13ifvqfg0","pricing_plan_id":"cebpf4jnsgd1na2vs0mg"},{"bike_id":"1c6e8542-0efa-43bd-a17b-1a8ffeb5acdf","system_id":"levelo_inurba_marseille","lat":43.26566,"lon":5.39003,"is_reserved":false,"is_disabled":false,"rental_uris":{"android":"levelo://app?vid=1c6e8542-0efa-43bd-a17b-1a8ffeb5acdf","ios":"levelo://app?vid=1c6e8542-0efa-43bd-a17b-1a8ffeb5acdf"},"vehicle_type_id":"4","last_reported":1728223634,"current_range_meters":36400,"station_id":"ce4bhe12rcd13ifvqf30","pricing_plan_id":"cebpf4jnsgd1na2vs0mg"},{"bike_id":"15359e36-7625-4495-bc9d-c44f44e812ed","system_id":"levelo_inurba_marseille","lat":43.28025,"lon":5.36936,"is_reserved":false,"is_disabled":false,"rental_uris":{"android":"levelo://app?vid=15359e36-7625-4495-bc9d-c44f44e812ed","ios":"levelo://app?vid=15359e36-7625-4495-bc9d-c44f44e812ed"},"vehicle_type_id":"4","last_reported":1728223634,"current_range_meters":38800,"station_id":"ce4bha12rcd13ifvqef0","pricing_plan_id":"cebpf4jnsgd1na2vs0mg"},{"bike_id":"b3265e81-f884-4cbe-9530-da9bd45cb8e5","system_id":"levelo_inurba_marseille","lat":43.23189,"lon":5.35543,"is_reserved":false,"is_disabled":false,"rental_uris":{"android":"levelo://app?vid=b3265e81-f884-4cbe-9530-da9bd45cb8e5","ios":"levelo://app?vid=b3265e81-f884-4cbe-9530-da9bd45cb8e5"},"vehicle_type_id":"4","last_reported":1728223634,"current_range_meters":14000,"station_id":"ce4bhu92rcd13ifvqi70","pricing_plan_id":"cebpf4jnsgd1na2vs0mg"},{"bike_id":"490889b1-cee9-4892-9db5-299333956c90","system_id":"levelo_inurba_marseille","lat":43.3414,"lon":5.40901,"is_reserved":false,"is_disabled":false,"rental_uris":{"android":"levelo://app?vid=490889b1-cee9-4892-9db5-299333956c90","ios":"levelo://app?vid=490889b1-cee9-4892-9db5-299333956c90"},"vehicle_type_id":"4","last_reported":1728223634,"current_range_meters":36800,"station_id":"ce4bhqh2rcd13ifvqhlg","pricing_plan_id":"cebpf4jnsgd1na2vs0mg"},{"bike_id":"2498bec7-5552-432a-9388-485a4ec078fc","system_id":"levelo_inurba_marseille","lat":43.3054,"lon":5.36548,"is_reserved":false,"is_disabled":false,"rental_uris":{"android":"levelo://app?vid=2498bec7-5552-432a-9388-485a4ec078fc","ios":"levelo://app?vid=2498bec7-5552-432a-9388-485a4ec078fc"},"vehicle_type_id":"4","last_reported":1728223634,"current_range_meters":14000,"station_id":"ce4bgs12rcd13ifvqcag","pricing_plan_id":"cebpf4jnsgd1na2vs0mg"},{"bike_id":"d9b7cb21-cbf2-459c-8838-0384f4fb1aa8","system_id":"levelo_inurba_marseille","lat":43.28471,"lon":5.38418,"is_reserved":false,"is_disabled":false,"rental_uris":{"android":"levelo://app?vid=d9b7cb21-cbf2-459c-8838-0384f4fb1aa8","ios":"levelo://app?vid=d9b7cb21-cbf2-459c-8838-0384f4fb1aa8"},"vehicle_type_id":"4","last_reported":1728223634,"current_range_meters":18000,"station_id":"ce4bh512rcd13ifvqe3g","pricing_plan_id":"cebpf4jnsgd1na2vs0mg"},{"bike_id":"cdc917cd-8609-4bab-8a00-197d50b2daa3","system_id":"levelo_inurba_marseille","lat":43.28605,"lon":5.3705,"is_reserved":false,"is_disabled":false,"rental_uris":{"android":"levelo://app?vid=cdc917cd-8609-4bab-8a00-197d50b2daa3","ios":"levelo://app?vid=cdc917cd-8609-4bab-8a00-197d50b2daa3"},"vehicle_type_id":"4","last_reported":1728223634,"current_range_meters":26800,"station_id":"ce4bht12rcd13ifvqi60","pricing_plan_id":"cebpf4jnsgd1na2vs0mg"},{"bike_id":"256fa177-60ee-45a2-a2aa-de47baeac3b4","system_id":"levelo_inurba_marseille","lat":43.32207,"lon":5.41349,"is_reserved":false,"is_disabled":false,"rental_uris":{"android":"levelo://app?vid=256fa177-60ee-45a2-a2aa-de47baeac3b4","ios":"levelo://app?vid=256fa177-60ee-45a2-a2aa-de47baeac3b4"},"vehicle_type_id":"4","last_reported":1728223634,"current_range_meters":36400,"station_id":"","pricing_plan_id":"cebpf4jnsgd1na2vs0mg"},{"bike_id":"13bb462d-ad7e-453e-963f-6cb0459cb1d2","system_id":"levelo_inurba_marseille","lat":43.25577,"lon":5.38228,"is_reserved":false,"is_disabled":false,"rental_uris":{"android":"levelo://app?vid=13bb462d-ad7e-453e-963f-6cb0459cb1d2","ios":"levelo://app?vid=13bb462d-ad7e-453e-963f-6cb0459cb1d2"},"vehicle_type_id":"4","last_reported":1728223634,"current_range_meters":4000,"station_id":"ce4bhih2rcd13ifvqfs0","pricing_plan_id":"cebpf4jnsgd1na2vs0mg"},{"bike_id":"98fab8a1-a284-40da-8df2-14f71a37d57b","system_id":"levelo_inurba_marseille","lat":43.21352,"lon":5.34937,"is_reserved":false,"is_disabled":false,"rental_uris":{"android":"levelo://app?vid=98fab8a1-a284-40da-8df2-14f71a37d57b","ios":"levelo://app?vid=98fab8a1-a284-40da-8df2-14f71a37d57b"},"vehicle_type_id":"4","last_reported":1728223634,"current_range_meters":32000,"station_id":"crv51consjfaj9uu89c0","pricing_plan_id":"cebpf4jnsgd1na2vs0mg"},{"bike_id":"9552d261-1ab3-4889-8eaa-9257ce566f97","system_id":"levelo_inurba_marseille","lat":43.31687,"lon":5.40479,"is_reserved":false,"is_disabled":false,"rental_uris":{"android":"levelo://app?vid=9552d261-1ab3-4889-8eaa-9257ce566f97","ios":"levelo://app?vid=9552d261-1ab3-4889-8eaa-9257ce566f97"},"vehicle_type_id":"4","last_reported":1728223634,"current_range_meters":6000,"station_id":"ce4bh012rcd13ifvqd00","pricing_plan_id":"cebpf4jnsgd1na2vs0mg"},{"bike_id":"1a9ef9b3-945a-4015-995b-596055281e27","system_id":"levelo_inurba_marseille","lat":43.24077,"lon":5.37754,"is_reserved":false,"is_disabled":false,"rental_uris":{"android":"levelo://app?vid=1a9ef9b3-945a-4015-995b-596055281e27","ios":"levelo://app?vid=1a9ef9b3-945a-4015-995b-596055281e27"},"vehicle_type_id":"4","last_reported":1728223634,"current_range_meters":37600,"station_id":"ce4bhnp2rcd13ifvqgvg","pricing_plan_id":"cebpf4jnsgd1na2vs0mg"},{"bike_id":"5aeff25a-4d20-416a-9046-72428cabc49c","system_id":"levelo_inurba_marseille","lat":43.32373,"lon":5.38885,"is_reserved":false,"is_disabled":false,"rental_uris":{"android":"levelo://app?vid=5aeff25a-4d20-416a-9046-72428cabc49c","ios":"levelo://app?vid=5aeff25a-4d20-416a-9046-72428cabc49c"},"vehicle_type_id":"4","last_reported":1728223634,"current_range_meters":14000,"station_id":"ce4bhqp2rcd13ifvqhog","pricing_plan_id":"cebpf4jnsgd1na2vs0mg"},{"bike_id":"09b6dc29-36dc-48a6-88c1-8d4f3ae3fdfc","system_id":"levelo_inurba_marseille","lat":43.29259,"lon":5.36845,"is_reserved":false,"is_disabled":false,"rental_uris":{"android":"levelo://app?vid=09b6dc29-36dc-48a6-88c1-8d4f3ae3fdfc","ios":"levelo://app?vid=09b6dc29-36dc-48a6-88c1-8d4f3ae3fdfc"},"vehicle_type_id":"4","last_reported":1728223634,"current_range_meters":16400,"station_id":"","pricing_plan_id":"cebpf4jnsgd1na2vs0mg"},{"bike_id":"f9c7e8c4-1bd5-4ae0-a126-4eed448578e5","system_id":"levelo_inurba_marseille","lat":43.28258,"lon":5.35069,"is_reserved":false,"is_disabled":false,"rental_uris":{"android":"levelo://app?vid=f9c7e8c4-1bd5-4ae0-a126-4eed448578e5","ios":"levelo://app?vid=f9c7e8c4-1bd5-4ae0-a126-4eed448578e5"},"vehicle_type_id":"4","last_reported":1728223634,"current_range_meters":27600,"station_id":"ce4bhbp2rcd13ifvqerg","pricing_plan_id":"cebpf4jnsgd1na2vs0mg"},{"bike_id":"467f4dad-860b-40f5-b4ca-9e05ccc20611","system_id":"levelo_inurba_marseille","lat":43.30918,"lon":5.40134,"is_reserved":false,"is_disabled":false,"rental_uris":{"android":"levelo://app?vid=467f4dad-860b-40f5-b4ca-9e05ccc20611","ios":"levelo://app?vid=467f4dad-860b-40f5-b4ca-9e05ccc20611"},"vehicle_type_id":"4","last_reported":1728223634,"current_range_meters":37600,"station_id":"ce4bgvp2rcd13ifvqct0","pricing_plan_id":"cebpf4jnsgd1na2vs0mg"},{"bike_id":"f944ef12-cbe3-4e32-afdd-362ead4872f5","system_id":"levelo_inurba_marseille","lat":43.29983,"lon":5.3676,"is_reserved":false,"is_disabled":false,"rental_uris":{"android":"levelo://app?vid=f944ef12-cbe3-4e32-afdd-362ead4872f5","ios":"levelo://app?vid=f944ef12-cbe3-4e32-afdd-362ead4872f5"},"vehicle_type_id":"4","last_reported":1728223634,"current_range_meters":38400,"station_id":"ce4bgrh2rcd13ifvqc8g","pricing_plan_id":"cebpf4jnsgd1na2vs0mg"},{"bike_id":"cfcd9f27-e880-45ca-95bd-43cbb3736ead","system_id":"levelo_inurba_marseille","lat":43.29168,"lon":5.37146,"is_reserved":false,"is_disabled":false,"rental_uris":{"android":"levelo://app?vid=cfcd9f27-e880-45ca-95bd-43cbb3736ead","ios":"levelo://app?vid=cfcd9f27-e880-45ca-95bd-43cbb3736ead"},"vehicle_type_id":"4","last_reported":1728223634,"current_range_meters":18800,"station_id":"ce4bha92rcd13ifvqeh0","pricing_plan_id":"cebpf4jnsgd1na2vs0mg"},{"bike_id":"d171cd51-85e8-49f3-b223-7ac1c9e47e0b","system_id":"levelo_inurba_marseille","lat":43.29933,"lon":5.36551,"is_reserved":false,"is_disabled":false,"rental_uris":{"android":"levelo://app?vid=d171cd51-85e8-49f3-b223-7ac1c9e47e0b","ios":"levelo://app?vid=d171cd51-85e8-49f3-b223-7ac1c9e47e0b"},"vehicle_type_id":"4","last_reported":1728223634,"current_range_meters":18800,"station_id":"ce4bgm92rcd13ifvqbr0","pricing_plan_id":"cebpf4jnsgd1na2vs0mg"},{"bike_id":"5c76e33c-48d5-4cfe-a181-92cae13d0b08","system_id":"levelo_inurba_marseille","lat":43.29269,"lon":5.36842,"is_reserved":false,"is_disabled":false,"rental_uris":{"android":"levelo://app?vid=5c76e33c-48d5-4cfe-a181-92cae13d0b08","ios":"levelo://app?vid=5c76e33c-48d5-4cfe-a181-92cae13d0b08"},"vehicle_type_id":"4","last_reported":1728223634,"current_range_meters":34800,"station_id":"ce4bhbp2rcd13ifvqesg","pricing_plan_id":"cebpf4jnsgd1na2vs0mg"},{"bike_id":"270b90ca-7521-4165-af49-e1c727e5fa34","system_id":"levelo_inurba_marseille","lat":43.21346,"lon":5.34939,"is_reserved":false,"is_disabled":false,"rental_uris":{"android":"levelo://app?vid=270b90ca-7521-4165-af49-e1c727e5fa34","ios":"levelo://app?vid=270b90ca-7521-4165-af49-e1c727e5fa34"},"vehicle_type_id":"4","last_reported":1728223634,"current_range_meters":34000,"station_id":"crv51consjfaj9uu89c0","pricing_plan_id":"cebpf4jnsgd1na2vs0mg"},{"bike_id":"1160cec9-9ad8-458b-96d7-d7b2d0c1de88","system_id":"levelo_inurba_marseille","lat":43.28041,"lon":5.36946,"is_reserved":false,"is_disabled":false,"rental_uris":{"android":"levelo://app?vid=1160cec9-9ad8-458b-96d7-d7b2d0c1de88","ios":"levelo://app?vid=1160cec9-9ad8-458b-96d7-d7b2d0c1de88"},"vehicle_type_id":"4","last_reported":1728223634,"current_range_meters":27600,"station_id":"ce4bha12rcd13ifvqef0","pricing_plan_id":"cebpf4jnsgd1na2vs0mg"},{"bike_id":"9ca68f32-e693-47fc-8e79-b11d04c46f95","system_id":"levelo_inurba_marseille","lat":43.29003,"lon":5.3561,"is_reserved":false,"is_disabled":false,"rental_uris":{"android":"levelo://app?vid=9ca68f32-e693-47fc-8e79-b11d04c46f95","ios":"levelo://app?vid=9ca68f32-e693-47fc-8e79-b11d04c46f95"},"vehicle_type_id":"4","last_reported":1728223634,"current_range_meters":21600,"station_id":"ce4bhb92rcd13ifvqen0","pricing_plan_id":"cebpf4jnsgd1na2vs0mg"},{"bike_id":"bfa0bc73-346e-4e4e-85b1-f032e3e6f805","system_id":"levelo_inurba_marseille","lat":43.29227,"lon":5.36077,"is_reserved":false,"is_disabled":false,"rental_uris":{"android":"levelo://app?vid=bfa0bc73-346e-4e4e-85b1-f032e3e6f805","ios":"levelo://app?vid=bfa0bc73-346e-4e4e-85b1-f032e3e6f805"},"vehicle_type_id":"4","last_reported":1728223634,"current_range_meters":23200,"station_id":"ce4bhbh2rcd13ifvqeqg","pricing_plan_id":"cebpf4jnsgd1na2vs0mg"},{"bike_id":"5ed1c359-627e-4835-9959-230f7bf3336f","system_id":"levelo_inurba_marseille","lat":43.28611,"lon":5.37063,"is_reserved":false,"is_disabled":false,"rental_uris":{"android":"levelo://app?vid=5ed1c359-627e-4835-9959-230f7bf3336f","ios":"levelo://app?vid=5ed1c359-627e-4835-9959-230f7bf3336f"},"vehicle_type_id":"4","last_reported":1728223634,"current_range_meters":39200,"station_id":"ce4bht12rcd13ifvqi60","pricing_plan_id":"cebpf4jnsgd1na2vs0mg"},{"bike_id":"40b62b25-6dbf-4798-9617-efd9901075d8","system_id":"levelo_inurba_marseille","lat":43.28465,"lon":5.3841,"is_reserved":false,"is_disabled":false,"rental_uris":{"android":"levelo://app?vid=40b62b25-6dbf-4798-9617-efd9901075d8","ios":"levelo://app?vid=40b62b25-6dbf-4798-9617-efd9901075d8"},"vehicle_type_id":"4","last_reported":1728223634,"current_range_meters":24000,"station_id":"ce4bh512rcd13ifvqe3g","pricing_plan_id":"cebpf4jnsgd1na2vs0mg"},{"bike_id":"d1f35909-e8ba-4380-8673-b14ba70c8d18","system_id":"levelo_inurba_marseille","lat":43.213379,"lon":5.349563,"is_reserved":false,"is_disabled":false,"rental_uris":{"android":"levelo://app?vid=d1f35909-e8ba-4380-8673-b14ba70c8d18","ios":"levelo://app?vid=d1f35909-e8ba-4380-8673-b14ba70c8d18"},"vehicle_type_id":"4","last_reported":1728223634,"current_range_meters":4000,"station_id":"ce4bh4p2rcd13ifvqe1g","pricing_plan_id":"cebpf4jnsgd1na2vs0mg"},{"bike_id":"eaa69015-563f-409b-8722-71736340ea89","system_id":"levelo_inurba_marseille","lat":43.29263,"lon":5.38434,"is_reserved":false,"is_disabled":false,"rental_uris":{"android":"levelo://app?vid=eaa69015-563f-409b-8722-71736340ea89","ios":"levelo://app?vid=eaa69015-563f-409b-8722-71736340ea89"},"vehicle_type_id":"4","last_reported":1728223634,"current_range_meters":33200,"station_id":"ce4bh692rcd13ifvqea0","pricing_plan_id":"cebpf4jnsgd1na2vs0mg"},{"bike_id":"e08f001d-cdd4-406b-abcb-d86ce2c0ccb0","system_id":"levelo_inurba_marseille","lat":43.305328,"lon":5.365472,"is_reserved":false,"is_disabled":false,"rental_uris":{"android":"levelo://app?vid=e08f001d-cdd4-406b-abcb-d86ce2c0ccb0","ios":"levelo://app?vid=e08f001d-cdd4-406b-abcb-d86ce2c0ccb0"},"vehicle_type_id":"4","last_reported":1728223634,"current_range_meters":36000,"station_id":"ce4bgs12rcd13ifvqcag","pricing_plan_id":"cebpf4jnsgd1na2vs0mg"},{"bike_id":"aa87d6ca-7d59-41eb-82e7-5c59731979ae","system_id":"levelo_inurba_marseille","lat":43.3055,"lon":5.365465,"is_reserved":false,"is_disabled":false,"rental_uris":{"android":"levelo://app?vid=aa87d6ca-7d59-41eb-82e7-5c59731979ae","ios":"levelo://app?vid=aa87d6ca-7d59-41eb-82e7-5c59731979ae"},"vehicle_type_id":"4","last_reported":1728223634,"current_range_meters":8000,"station_id":"ce4bgs12rcd13ifvqcag","pricing_plan_id":"cebpf4jnsgd1na2vs0mg"},{"bike_id":"3edbc444-be55-4f06-b001-2e99882f8c0b","system_id":"levelo_inurba_marseille","lat":43.32655,"lon":5.40994,"is_reserved":false,"is_disabled":false,"rental_uris":{"android":"levelo://app?vid=3edbc444-be55-4f06-b001-2e99882f8c0b","ios":"levelo://app?vid=3edbc444-be55-4f06-b001-2e99882f8c0b"},"vehicle_type_id":"4","last_reported":1728223634,"current_range_meters":2800,"station_id":"ce4bhpp2rcd13ifvqhgg","pricing_plan_id":"cebpf4jnsgd1na2vs0mg"},{"bike_id":"85081b74-3c48-4b75-b6b6-b181683e784a","system_id":"levelo_inurba_marseille","lat":43.25723,"lon":5.41105,"is_reserved":false,"is_disabled":false,"rental_uris":{"android":"levelo://app?vid=85081b74-3c48-4b75-b6b6-b181683e784a","ios":"levelo://app?vid=85081b74-3c48-4b75-b6b6-b181683e784a"},"vehicle_type_id":"4","last_reported":1728223634,"current_range_meters":39200,"station_id":"ce4bhkp2rcd13ifvqgd0","pricing_plan_id":"cebpf4jnsgd1na2vs0mg"},{"bike_id":"d5bd4fc9-b596-4a66-8faa-61c6a5dce860","system_id":"levelo_inurba_marseille","lat":43.29895,"lon":5.43657,"is_reserved":false,"is_disabled":false,"rental_uris":{"android":"levelo://app?vid=d5bd4fc9-b596-4a66-8faa-61c6a5dce860","ios":"levelo://app?vid=d5bd4fc9-b596-4a66-8faa-61c6a5dce860"},"vehicle_type_id":"4","last_reported":1728223634,"current_range_meters":39200,"station_id":"ce4bhpp2rcd13ifvqhfg","pricing_plan_id":"cebpf4jnsgd1na2vs0mg"},{"bike_id":"9d2a2004-68c0-4720-8ae6-5eb4ca347112","system_id":"levelo_inurba_marseille","lat":43.29847,"lon":5.36287,"is_reserved":false,"is_disabled":false,"rental_uris":{"android":"levelo://app?vid=9d2a2004-68c0-4720-8ae6-5eb4ca347112","ios":"levelo://app?vid=9d2a2004-68c0-4720-8ae6-5eb4ca347112"},"vehicle_type_id":"4","last_reported":1728223634,"current_range_meters":20800,"station_id":"ce4bgpp2rcd13ifvqc3g","pricing_plan_id":"cebpf4jnsgd1na2vs0mg"},{"bike_id":"7cba0374-be77-4d49-8476-e0da3cccc891","system_id":"levelo_inurba_marseille","lat":43.21347,"lon":5.34938,"is_reserved":false,"is_disabled":false,"rental_uris":{"android":"levelo://app?vid=7cba0374-be77-4d49-8476-e0da3cccc891","ios":"levelo://app?vid=7cba0374-be77-4d49-8476-e0da3cccc891"},"vehicle_type_id":"4","last_reported":1728223634,"current_range_meters":32400,"station_id":"crv51consjfaj9uu89c0","pricing_plan_id":"cebpf4jnsgd1na2vs0mg"},{"bike_id":"26c4dce5-052f-4c1d-89fa-01b6492a26a5","system_id":"levelo_inurba_marseille","lat":43.30533,"lon":5.36552,"is_reserved":false,"is_disabled":false,"rental_uris":{"android":"levelo://app?vid=26c4dce5-052f-4c1d-89fa-01b6492a26a5","ios":"levelo://app?vid=26c4dce5-052f-4c1d-89fa-01b6492a26a5"},"vehicle_type_id":"4","last_reported":1728223634,"current_range_meters":29600,"station_id":"ce4bgs12rcd13ifvqcag","pricing_plan_id":"cebpf4jnsgd1na2vs0mg"},{"bike_id":"7a6d7045-a0c6-474e-97a3-8a750c51af90","system_id":"levelo_inurba_marseille","lat":43.27946,"lon":5.41045,"is_reserved":false,"is_disabled":false,"rental_uris":{"android":"levelo://app?vid=7a6d7045-a0c6-474e-97a3-8a750c51af90","ios":"levelo://app?vid=7a6d7045-a0c6-474e-97a3-8a750c51af90"},"vehicle_type_id":"4","last_reported":1728223634,"current_range_meters":37600,"station_id":"ce4bhnp2rcd13ifvqh0g","pricing_plan_id":"cebpf4jnsgd1na2vs0mg"},{"bike_id":"24741916-9a19-4c9f-b82f-689e154008bc","system_id":"levelo_inurba_marseille","lat":43.2135,"lon":5.34926,"is_reserved":false,"is_disabled":false,"rental_uris":{"android":"levelo://app?vid=24741916-9a19-4c9f-b82f-689e154008bc","ios":"levelo://app?vid=24741916-9a19-4c9f-b82f-689e154008bc"},"vehicle_type_id":"4","last_reported":1728223634,"current_range_meters":4800,"station_id":"","pricing_plan_id":"cebpf4jnsgd1na2vs0mg"},{"bike_id":"8e94c158-3450-4d74-9a10-086db250f48e","system_id":"levelo_inurba_marseille","lat":43.27155,"lon":5.39034,"is_reserved":false,"is_disabled":false,"rental_uris":{"android":"levelo://app?vid=8e94c158-3450-4d74-9a10-086db250f48e","ios":"levelo://app?vid=8e94c158-3450-4d74-9a10-086db250f48e"},"vehicle_type_id":"4","last_reported":1728223634,"current_range_meters":32400,"station_id":"","pricing_plan_id":"cebpf4jnsgd1na2vs0mg"},{"bike_id":"52040213-e2a0-4c29-ad5c-23f287c96e58","system_id":"levelo_inurba_marseille","lat":43.25722,"lon":5.41108,"is_reserved":false,"is_disabled":false,"rental_uris":{"android":"levelo://app?vid=52040213-e2a0-4c29-ad5c-23f287c96e58","ios":"levelo://app?vid=52040213-e2a0-4c29-ad5c-23f287c96e58"},"vehicle_type_id":"4","last_reported":1728223634,"current_range_meters":38800,"station_id":"ce4bhkp2rcd13ifvqgd0","pricing_plan_id":"cebpf4jnsgd1na2vs0mg"},{"bike_id":"cd07b44a-553d-4bab-9f38-6ebb1bf25b5f","system_id":"levelo_inurba_marseille","lat":43.33722,"lon":5.37461,"is_reserved":false,"is_disabled":false,"rental_uris":{"android":"levelo://app?vid=cd07b44a-553d-4bab-9f38-6ebb1bf25b5f","ios":"levelo://app?vid=cd07b44a-553d-4bab-9f38-6ebb1bf25b5f"},"vehicle_type_id":"4","last_reported":1728223634,"current_range_meters":39200,"station_id":"ce4bha92rcd13ifvqeg0","pricing_plan_id":"cebpf4jnsgd1na2vs0mg"},{"bike_id":"2f1f7e56-c6cd-448e-b406-4d3dfc3a4de4","system_id":"levelo_inurba_marseille","lat":43.25728,"lon":5.41104,"is_reserved":false,"is_disabled":false,"rental_uris":{"android":"levelo://app?vid=2f1f7e56-c6cd-448e-b406-4d3dfc3a4de4","ios":"levelo://app?vid=2f1f7e56-c6cd-448e-b406-4d3dfc3a4de4"},"vehicle_type_id":"4","last_reported":1728223634,"current_range_meters":28400,"station_id":"ce4bhkp2rcd13ifvqgd0","pricing_plan_id":"cebpf4jnsgd1na2vs0mg"},{"bike_id":"1a8e68b9-9876-42f0-bbfb-788f76990562","system_id":"levelo_inurba_marseille","lat":43.30252,"lon":5.4006,"is_reserved":false,"is_disabled":false,"rental_uris":{"android":"levelo://app?vid=1a8e68b9-9876-42f0-bbfb-788f76990562","ios":"levelo://app?vid=1a8e68b9-9876-42f0-bbfb-788f76990562"},"vehicle_type_id":"4","last_reported":1728223634,"current_range_meters":26000,"station_id":"ce4bgvh2rcd13ifvqcs0","pricing_plan_id":"cebpf4jnsgd1na2vs0mg"},{"bike_id":"c6d60b46-0a25-47a9-9142-a7e326409e02","system_id":"levelo_inurba_marseille","lat":43.26232,"lon":5.3752,"is_reserved":false,"is_disabled":false,"rental_uris":{"android":"levelo://app?vid=c6d60b46-0a25-47a9-9142-a7e326409e02","ios":"levelo://app?vid=c6d60b46-0a25-47a9-9142-a7e326409e02"},"vehicle_type_id":"4","last_reported":1728223634,"current_range_meters":38800,"station_id":"","pricing_plan_id":"cebpf4jnsgd1na2vs0mg"},{"bike_id":"8138ad2c-c328-4a03-a959-91af425bbb79","system_id":"levelo_inurba_marseille","lat":43.29617,"lon":5.37711,"is_reserved":false,"is_disabled":false,"rental_uris":{"android":"levelo://app?vid=8138ad2c-c328-4a03-a959-91af425bbb79","ios":"levelo://app?vid=8138ad2c-c328-4a03-a959-91af425bbb79"},"vehicle_type_id":"4","last_reported":1728223634,"current_range_meters":38400,"station_id":"ce4bgi92rcd13ifvqb90","pricing_plan_id":"cebpf4jnsgd1na2vs0mg"},{"bike_id":"abdf066a-68e4-4a88-ab87-6ca197dde02f","system_id":"levelo_inurba_marseille","lat":43.30536,"lon":5.36541,"is_reserved":false,"is_disabled":false,"rental_uris":{"android":"levelo://app?vid=abdf066a-68e4-4a88-ab87-6ca197dde02f","ios":"levelo://app?vid=abdf066a-68e4-4a88-ab87-6ca197dde02f"},"vehicle_type_id":"4","last_reported":1728223634,"current_range_meters":38800,"station_id":"ce4bgs12rcd13ifvqcag","pricing_plan_id":"cebpf4jnsgd1na2vs0mg"},{"bike_id":"3c251377-7d37-4f37-87ef-a964aa2bc668","system_id":"levelo_inurba_marseille","lat":43.28708,"lon":5.37391,"is_reserved":false,"is_disabled":false,"rental_uris":{"android":"levelo://app?vid=3c251377-7d37-4f37-87ef-a964aa2bc668","ios":"levelo://app?vid=3c251377-7d37-4f37-87ef-a964aa2bc668"},"vehicle_type_id":"4","last_reported":1728223634,"current_range_meters":25200,"station_id":"ce4bh3p2rcd13ifvqdq0","pricing_plan_id":"cebpf4jnsgd1na2vs0mg"},{"bike_id":"2c9b39be-d5ec-42c7-89f1-e3bf97be3894","system_id":"levelo_inurba_marseille","lat":43.29322,"lon":5.382394,"is_reserved":false,"is_disabled":false,"rental_uris":{"android":"levelo://app?vid=2c9b39be-d5ec-42c7-89f1-e3bf97be3894","ios":"levelo://app?vid=2c9b39be-d5ec-42c7-89f1-e3bf97be3894"},"vehicle_type_id":"4","last_reported":1728223634,"current_range_meters":8800,"station_id":"ce4bh612rcd13ifvqe6g","pricing_plan_id":"cebpf4jnsgd1na2vs0mg"},{"bike_id":"73d8ac91-503b-4588-bebf-c052f2635f62","system_id":"levelo_inurba_marseille","lat":43.29275,"lon":5.36844,"is_reserved":false,"is_disabled":false,"rental_uris":{"android":"levelo://app?vid=73d8ac91-503b-4588-bebf-c052f2635f62","ios":"levelo://app?vid=73d8ac91-503b-4588-bebf-c052f2635f62"},"vehicle_type_id":"4","last_reported":1728223634,"current_range_meters":38800,"station_id":"ce4bhbp2rcd13ifvqesg","pricing_plan_id":"cebpf4jnsgd1na2vs0mg"},{"bike_id":"52d4276f-2848-4c82-ac33-83fbf79e6585","system_id":"levelo_inurba_marseille","lat":43.24387,"lon":5.37056,"is_reserved":false,"is_disabled":false,"rental_uris":{"android":"levelo://app?vid=52d4276f-2848-4c82-ac33-83fbf79e6585","ios":"levelo://app?vid=52d4276f-2848-4c82-ac33-83fbf79e6585"},"vehicle_type_id":"4","last_reported":1728223634,"current_range_meters":24400,"station_id":"ce4bhhh2rcd13ifvqfk0","pricing_plan_id":"cebpf4jnsgd1na2vs0mg"},{"bike_id":"1635bb80-99a1-491f-80cc-b79e1a5c1152","system_id":"levelo_inurba_marseille","lat":43.24391,"lon":5.3706,"is_reserved":false,"is_disabled":false,"rental_uris":{"android":"levelo://app?vid=1635bb80-99a1-491f-80cc-b79e1a5c1152","ios":"levelo://app?vid=1635bb80-99a1-491f-80cc-b79e1a5c1152"},"vehicle_type_id":"4","last_reported":1728223634,"current_range_meters":38400,"station_id":"ce4bhhh2rcd13ifvqfk0","pricing_plan_id":"cebpf4jnsgd1na2vs0mg"},{"bike_id":"ee924ea8-3659-4b04-a03c-7772cc55ac3e","system_id":"levelo_inurba_marseille","lat":43.28924,"lon":5.38395,"is_reserved":false,"is_disabled":false,"rental_uris":{"android":"levelo://app?vid=ee924ea8-3659-4b04-a03c-7772cc55ac3e","ios":"levelo://app?vid=ee924ea8-3659-4b04-a03c-7772cc55ac3e"},"vehicle_type_id":"4","last_reported":1728223634,"current_range_meters":35600,"station_id":"ce4bh612rcd13ifvqe6g","pricing_plan_id":"cebpf4jnsgd1na2vs0mg"},{"bike_id":"2a21ef0e-f78b-4847-bbfb-c35bc0a54f49","system_id":"levelo_inurba_marseille","lat":43.27326,"lon":5.3908,"is_reserved":false,"is_disabled":false,"rental_uris":{"android":"levelo://app?vid=2a21ef0e-f78b-4847-bbfb-c35bc0a54f49","ios":"levelo://app?vid=2a21ef0e-f78b-4847-bbfb-c35bc0a54f49"},"vehicle_type_id":"4","last_reported":1728223634,"current_range_meters":32400,"station_id":"ce4bhgp2rcd13ifvqfe0","pricing_plan_id":"cebpf4jnsgd1na2vs0mg"},{"bike_id":"1c6ced08-6c65-4e22-a8e3-0734c3156234","system_id":"levelo_inurba_marseille","lat":43.25715,"lon":5.41109,"is_reserved":false,"is_disabled":false,"rental_uris":{"android":"levelo://app?vid=1c6ced08-6c65-4e22-a8e3-0734c3156234","ios":"levelo://app?vid=1c6ced08-6c65-4e22-a8e3-0734c3156234"},"vehicle_type_id":"4","last_reported":1728223634,"current_range_meters":39200,"station_id":"ce4bhkp2rcd13ifvqgd0","pricing_plan_id":"cebpf4jnsgd1na2vs0mg"},{"bike_id":"cf98a660-7f87-4ed6-9b7c-c63bf1655b22","system_id":"levelo_inurba_marseille","lat":43.28037,"lon":5.3694,"is_reserved":false,"is_disabled":false,"rental_uris":{"android":"levelo://app?vid=cf98a660-7f87-4ed6-9b7c-c63bf1655b22","ios":"levelo://app?vid=cf98a660-7f87-4ed6-9b7c-c63bf1655b22"},"vehicle_type_id":"4","last_reported":1728223634,"current_range_meters":20000,"station_id":"ce4bha12rcd13ifvqef0","pricing_plan_id":"cebpf4jnsgd1na2vs0mg"},{"bike_id":"7d832797-a368-47ce-80a8-50d6a3763de8","system_id":"levelo_inurba_marseille","lat":43.28417,"lon":5.38453,"is_reserved":false,"is_disabled":false,"rental_uris":{"android":"levelo://app?vid=7d832797-a368-47ce-80a8-50d6a3763de8","ios":"levelo://app?vid=7d832797-a368-47ce-80a8-50d6a3763de8"},"vehicle_type_id":"4","last_reported":1728223634,"current_range_meters":28400,"station_id":"","pricing_plan_id":"cebpf4jnsgd1na2vs0mg"},{"bike_id":"ad6221df-0765-4880-ac47-81bab1371360","system_id":"levelo_inurba_marseille","lat":43.29099,"lon":5.3813,"is_reserved":false,"is_disabled":false,"rental_uris":{"android":"levelo://app?vid=ad6221df-0765-4880-ac47-81bab1371360","ios":"levelo://app?vid=ad6221df-0765-4880-ac47-81bab1371360"},"vehicle_type_id":"4","last_reported":1728223634,"current_range_meters":28400,"station_id":"ce4bh512rcd13ifvqe2g","pricing_plan_id":"cebpf4jnsgd1na2vs0mg"},{"bike_id":"fd15e38c-a080-4d8d-be94-6f7330d4ebed","system_id":"levelo_inurba_marseille","lat":43.26558,"lon":5.37285,"is_reserved":false,"is_disabled":false,"rental_uris":{"android":"levelo://app?vid=fd15e38c-a080-4d8d-be94-6f7330d4ebed","ios":"levelo://app?vid=fd15e38c-a080-4d8d-be94-6f7330d4ebed"},"vehicle_type_id":"4","last_reported":1728223634,"current_range_meters":10800,"station_id":"ce4bhg12rcd13ifvqf70","pricing_plan_id":"cebpf4jnsgd1na2vs0mg"},{"bike_id":"68b77a88-2067-422a-ab7b-e29094a40dcc","system_id":"levelo_inurba_marseille","lat":43.25125,"lon":5.40319,"is_reserved":false,"is_disabled":false,"rental_uris":{"android":"levelo://app?vid=68b77a88-2067-422a-ab7b-e29094a40dcc","ios":"levelo://app?vid=68b77a88-2067-422a-ab7b-e29094a40dcc"},"vehicle_type_id":"4","last_reported":1728223634,"current_range_meters":38800,"station_id":"ce4bhlh2rcd13ifvqgig","pricing_plan_id":"cebpf4jnsgd1na2vs0mg"},{"bike_id":"6e0e32be-b214-47c7-bda9-81d1cbb263fc","system_id":"levelo_inurba_marseille","lat":43.29519,"lon":5.39396,"is_reserved":false,"is_disabled":false,"rental_uris":{"android":"levelo://app?vid=6e0e32be-b214-47c7-bda9-81d1cbb263fc","ios":"levelo://app?vid=6e0e32be-b214-47c7-bda9-81d1cbb263fc"},"vehicle_type_id":"4","last_reported":1728223634,"current_range_meters":20800,"station_id":"ce4bh292rcd13ifvqdf0","pricing_plan_id":"cebpf4jnsgd1na2vs0mg"},{"bike_id":"6a54721c-34d0-4d25-9d6c-d6ed06cce880","system_id":"levelo_inurba_marseille","lat":43.2587,"lon":5.39893,"is_reserved":false,"is_disabled":false,"rental_uris":{"android":"levelo://app?vid=6a54721c-34d0-4d25-9d6c-d6ed06cce880","ios":"levelo://app?vid=6a54721c-34d0-4d25-9d6c-d6ed06cce880"},"vehicle_type_id":"4","last_reported":1728223634,"current_range_meters":39200,"station_id":"ce4bhl92rcd13ifvqghg","pricing_plan_id":"cebpf4jnsgd1na2vs0mg"},{"bike_id":"d0e81cdf-b5a0-44e2-a36b-805202ade773","system_id":"levelo_inurba_marseille","lat":43.24392,"lon":5.37053,"is_reserved":false,"is_disabled":false,"rental_uris":{"android":"levelo://app?vid=d0e81cdf-b5a0-44e2-a36b-805202ade773","ios":"levelo://app?vid=d0e81cdf-b5a0-44e2-a36b-805202ade773"},"vehicle_type_id":"4","last_reported":1728223634,"current_range_meters":40000,"station_id":"ce4bhhh2rcd13ifvqfk0","pricing_plan_id":"cebpf4jnsgd1na2vs0mg"},{"bike_id":"d6e11d2b-da66-49d3-a535-12523b4948a7","system_id":"levelo_inurba_marseille","lat":43.288488,"lon":5.358499,"is_reserved":false,"is_disabled":false,"rental_uris":{"android":"levelo://app?vid=d6e11d2b-da66-49d3-a535-12523b4948a7","ios":"levelo://app?vid=d6e11d2b-da66-49d3-a535-12523b4948a7"},"vehicle_type_id":"4","last_reported":1728223634,"current_range_meters":10000,"station_id":"ce4bhc92rcd13ifvqetg","pricing_plan_id":"cebpf4jnsgd1na2vs0mg"},{"bike_id":"0020a39d-9ca0-4b38-892c-d23ecedd0a64","system_id":"levelo_inurba_marseille","lat":43.3237,"lon":5.38889,"is_reserved":false,"is_disabled":false,"rental_uris":{"android":"levelo://app?vid=0020a39d-9ca0-4b38-892c-d23ecedd0a64","ios":"levelo://app?vid=0020a39d-9ca0-4b38-892c-d23ecedd0a64"},"vehicle_type_id":"4","last_reported":1728223634,"current_range_meters":6000,"station_id":"ce4bhqp2rcd13ifvqhog","pricing_plan_id":"cebpf4jnsgd1na2vs0mg"},{"bike_id":"3fd222d4-75e9-483a-b322-9834defa051f","system_id":"levelo_inurba_marseille","lat":43.29546,"lon":5.42282,"is_reserved":false,"is_disabled":false,"rental_uris":{"android":"levelo://app?vid=3fd222d4-75e9-483a-b322-9834defa051f","ios":"levelo://app?vid=3fd222d4-75e9-483a-b322-9834defa051f"},"vehicle_type_id":"4","last_reported":1728223634,"current_range_meters":39200,"station_id":"ce4bhph2rcd13ifvqhdg","pricing_plan_id":"cebpf4jnsgd1na2vs0mg"},{"bike_id":"e64855bb-166a-4613-9f15-9b7644aad042","system_id":"levelo_inurba_marseille","lat":43.29846,"lon":5.36273,"is_reserved":false,"is_disabled":false,"rental_uris":{"android":"levelo://app?vid=e64855bb-166a-4613-9f15-9b7644aad042","ios":"levelo://app?vid=e64855bb-166a-4613-9f15-9b7644aad042"},"vehicle_type_id":"4","last_reported":1728223634,"current_range_meters":33200,"station_id":"ce4bgpp2rcd13ifvqc3g","pricing_plan_id":"cebpf4jnsgd1na2vs0mg"},{"bike_id":"b5078b10-a4bc-4924-83d8-5e71fd4813b5","system_id":"levelo_inurba_marseille","lat":43.28869,"lon":5.3585,"is_reserved":false,"is_disabled":false,"rental_uris":{"android":"levelo://app?vid=b5078b10-a4bc-4924-83d8-5e71fd4813b5","ios":"levelo://app?vid=b5078b10-a4bc-4924-83d8-5e71fd4813b5"},"vehicle_type_id":"4","last_reported":1728223634,"current_range_meters":37600,"station_id":"ce4bhb12rcd13ifvqem0","pricing_plan_id":"cebpf4jnsgd1na2vs0mg"},{"bike_id":"4035516c-88a9-4fc8-a60c-d8dc0a7e84e9","system_id":"levelo_inurba_marseille","lat":43.29842,"lon":5.36268,"is_reserved":false,"is_disabled":false,"rental_uris":{"android":"levelo://app?vid=4035516c-88a9-4fc8-a60c-d8dc0a7e84e9","ios":"levelo://app?vid=4035516c-88a9-4fc8-a60c-d8dc0a7e84e9"},"vehicle_type_id":"4","last_reported":1728223634,"current_range_meters":34000,"station_id":"ce4bgpp2rcd13ifvqc3g","pricing_plan_id":"cebpf4jnsgd1na2vs0mg"},{"bike_id":"6e34495e-3b96-4fe0-83d9-308803e04de0","system_id":"levelo_inurba_marseille","lat":43.29909,"lon":5.38137,"is_reserved":false,"is_disabled":false,"rental_uris":{"android":"levelo://app?vid=6e34495e-3b96-4fe0-83d9-308803e04de0","ios":"levelo://app?vid=6e34495e-3b96-4fe0-83d9-308803e04de0"},"vehicle_type_id":"4","last_reported":1728223634,"current_range_meters":37600,"station_id":"ce4bgj12rcd13ifvqbc0","pricing_plan_id":"cebpf4jnsgd1na2vs0mg"},{"bike_id":"27c5f2a9-8158-45c6-b742-4db159c5f60d","system_id":"levelo_inurba_marseille","lat":43.31328,"lon":5.397,"is_reserved":false,"is_disabled":false,"rental_uris":{"android":"levelo://app?vid=27c5f2a9-8158-45c6-b742-4db159c5f60d","ios":"levelo://app?vid=27c5f2a9-8158-45c6-b742-4db159c5f60d"},"vehicle_type_id":"4","last_reported":1728223634,"current_range_meters":30800,"station_id":"ce4bgvp2rcd13ifvqcu0","pricing_plan_id":"cebpf4jnsgd1na2vs0mg"},{"bike_id":"4ce48b20-d0e6-40f1-a385-4489bb8d26ad","system_id":"levelo_inurba_marseille","lat":43.27053,"lon":5.40258,"is_reserved":false,"is_disabled":false,"rental_uris":{"android":"levelo://app?vid=4ce48b20-d0e6-40f1-a385-4489bb8d26ad","ios":"levelo://app?vid=4ce48b20-d0e6-40f1-a385-4489bb8d26ad"},"vehicle_type_id":"4","last_reported":1728223634,"current_range_meters":16000,"station_id":"ce4bhk92rcd13ifvqgc0","pricing_plan_id":"cebpf4jnsgd1na2vs0mg"},{"bike_id":"1d0e3faa-ee78-4da5-a96f-abfd136c29bb","system_id":"levelo_inurba_marseille","lat":43.32478,"lon":5.36561,"is_reserved":false,"is_disabled":false,"rental_uris":{"android":"levelo://app?vid=1d0e3faa-ee78-4da5-a96f-abfd136c29bb","ios":"levelo://app?vid=1d0e3faa-ee78-4da5-a96f-abfd136c29bb"},"vehicle_type_id":"4","last_reported":1728223634,"current_range_meters":24800,"station_id":"ce4bhs12rcd13ifvqhvg","pricing_plan_id":"cebpf4jnsgd1na2vs0mg"},{"bike_id":"af5af138-412a-4c99-b65b-4f59517d5ce7","system_id":"levelo_inurba_marseille","lat":43.28266,"lon":5.35059,"is_reserved":false,"is_disabled":false,"rental_uris":{"android":"levelo://app?vid=af5af138-412a-4c99-b65b-4f59517d5ce7","ios":"levelo://app?vid=af5af138-412a-4c99-b65b-4f59517d5ce7"},"vehicle_type_id":"4","last_reported":1728223634,"current_range_meters":8800,"station_id":"ce4bhbp2rcd13ifvqerg","pricing_plan_id":"cebpf4jnsgd1na2vs0mg"},{"bike_id":"b9d5ed39-73a1-4edc-90a2-69983d25182d","system_id":"levelo_inurba_marseille","lat":43.30553,"lon":5.36527,"is_reserved":false,"is_disabled":false,"rental_uris":{"android":"levelo://app?vid=b9d5ed39-73a1-4edc-90a2-69983d25182d","ios":"levelo://app?vid=b9d5ed39-73a1-4edc-90a2-69983d25182d"},"vehicle_type_id":"4","last_reported":1728223634,"current_range_meters":33200,"station_id":"ce4bgs12rcd13ifvqcag","pricing_plan_id":"cebpf4jnsgd1na2vs0mg"},{"bike_id":"bee0cd21-a648-4f04-8bc2-b57277130683","system_id":"levelo_inurba_marseille","lat":43.255798,"lon":5.38232,"is_reserved":false,"is_disabled":false,"rental_uris":{"android":"levelo://app?vid=bee0cd21-a648-4f04-8bc2-b57277130683","ios":"levelo://app?vid=bee0cd21-a648-4f04-8bc2-b57277130683"},"vehicle_type_id":"4","last_reported":1728223634,"current_range_meters":20400,"station_id":"ce4bhih2rcd13ifvqfs0","pricing_plan_id":"cebpf4jnsgd1na2vs0mg"},{"bike_id":"3af48eb3-1d1f-4a32-a948-7cc05add2405","system_id":"levelo_inurba_marseille","lat":43.21346,"lon":5.34936,"is_reserved":false,"is_disabled":false,"rental_uris":{"android":"levelo://app?vid=3af48eb3-1d1f-4a32-a948-7cc05add2405","ios":"levelo://app?vid=3af48eb3-1d1f-4a32-a948-7cc05add2405"},"vehicle_type_id":"4","last_reported":1728223634,"current_range_meters":31200,"station_id":"crv51consjfaj9uu89c0","pricing_plan_id":"cebpf4jnsgd1na2vs0mg"},{"bike_id":"77e44f96-8992-4ec5-ba2c-5e51b9e5b288","system_id":"levelo_inurba_marseille","lat":43.27057,"lon":5.38785,"is_reserved":false,"is_disabled":false,"rental_uris":{"android":"levelo://app?vid=77e44f96-8992-4ec5-ba2c-5e51b9e5b288","ios":"levelo://app?vid=77e44f96-8992-4ec5-ba2c-5e51b9e5b288"},"vehicle_type_id":"4","last_reported":1728223634,"current_range_meters":36800,"station_id":"","pricing_plan_id":"cebpf4jnsgd1na2vs0mg"},{"bike_id":"274052d4-8897-4348-86a6-97938341d2c5","system_id":"levelo_inurba_marseille","lat":43.30797,"lon":5.43512,"is_reserved":false,"is_disabled":false,"rental_uris":{"android":"levelo://app?vid=274052d4-8897-4348-86a6-97938341d2c5","ios":"levelo://app?vid=274052d4-8897-4348-86a6-97938341d2c5"},"vehicle_type_id":"4","last_reported":1728223634,"current_range_meters":4000,"station_id":"ce4bhph2rcd13ifvqheg","pricing_plan_id":"cebpf4jnsgd1na2vs0mg"},{"bike_id":"dd164524-3c0c-4135-9b32-9ab6e84f90a0","system_id":"levelo_inurba_marseille","lat":43.26571,"lon":5.39002,"is_reserved":false,"is_disabled":false,"rental_uris":{"android":"levelo://app?vid=dd164524-3c0c-4135-9b32-9ab6e84f90a0","ios":"levelo://app?vid=dd164524-3c0c-4135-9b32-9ab6e84f90a0"},"vehicle_type_id":"4","last_reported":1728223634,"current_range_meters":30800,"station_id":"ce4bhe12rcd13ifvqf30","pricing_plan_id":"cebpf4jnsgd1na2vs0mg"},{"bike_id":"b51ee6d2-4574-4587-a7f0-3852397ae634","system_id":"levelo_inurba_marseille","lat":43.22931,"lon":5.3538,"is_reserved":false,"is_disabled":false,"rental_uris":{"android":"levelo://app?vid=b51ee6d2-4574-4587-a7f0-3852397ae634","ios":"levelo://app?vid=b51ee6d2-4574-4587-a7f0-3852397ae634"},"vehicle_type_id":"4","last_reported":1728223634,"current_range_meters":36400,"station_id":"cpo3532slgdg3j2ikp40","pricing_plan_id":"cebpf4jnsgd1na2vs0mg"},{"bike_id":"4f5038fe-9ccd-4d04-a6cd-afe04d9be89f","system_id":"levelo_inurba_marseille","lat":43.27376,"lon":5.36247,"is_reserved":false,"is_disabled":false,"rental_uris":{"android":"levelo://app?vid=4f5038fe-9ccd-4d04-a6cd-afe04d9be89f","ios":"levelo://app?vid=4f5038fe-9ccd-4d04-a6cd-afe04d9be89f"},"vehicle_type_id":"4","last_reported":1728223634,"current_range_meters":32000,"station_id":"ce4bhbh2rcd13ifvqeo0","pricing_plan_id":"cebpf4jnsgd1na2vs0mg"},{"bike_id":"188731d3-4ad5-4355-a8c3-0ac8542617f5","system_id":"levelo_inurba_marseille","lat":43.27622,"lon":5.36106,"is_reserved":false,"is_disabled":false,"rental_uris":{"android":"levelo://app?vid=188731d3-4ad5-4355-a8c3-0ac8542617f5","ios":"levelo://app?vid=188731d3-4ad5-4355-a8c3-0ac8542617f5"},"vehicle_type_id":"4","last_reported":1728223634,"current_range_meters":25200,"station_id":"ce4bgj92rcd13ifvqbe0","pricing_plan_id":"cebpf4jnsgd1na2vs0mg"},{"bike_id":"4e0c83a2-b0c3-4894-8559-e509681998d3","system_id":"levelo_inurba_marseille","lat":43.31109,"lon":5.38316,"is_reserved":false,"is_disabled":false,"rental_uris":{"android":"levelo://app?vid=4e0c83a2-b0c3-4894-8559-e509681998d3","ios":"levelo://app?vid=4e0c83a2-b0c3-4894-8559-e509681998d3"},"vehicle_type_id":"4","last_reported":1728223634,"current_range_meters":9200,"station_id":"ce4bgv92rcd13ifvqcr0","pricing_plan_id":"cebpf4jnsgd1na2vs0mg"},{"bike_id":"a76ee3fd-363a-4d57-9618-b37ded534ce5","system_id":"levelo_inurba_marseille","lat":43.24386,"lon":5.37058,"is_reserved":false,"is_disabled":false,"rental_uris":{"android":"levelo://app?vid=a76ee3fd-363a-4d57-9618-b37ded534ce5","ios":"levelo://app?vid=a76ee3fd-363a-4d57-9618-b37ded534ce5"},"vehicle_type_id":"4","last_reported":1728223634,"current_range_meters":38800,"station_id":"ce4bhhh2rcd13ifvqfk0","pricing_plan_id":"cebpf4jnsgd1na2vs0mg"},{"bike_id":"a92b6bd9-3e92-4640-91c1-f5ce19fb330c","system_id":"levelo_inurba_marseille","lat":43.30353,"lon":5.41875,"is_reserved":false,"is_disabled":false,"rental_uris":{"android":"levelo://app?vid=a92b6bd9-3e92-4640-91c1-f5ce19fb330c","ios":"levelo://app?vid=a92b6bd9-3e92-4640-91c1-f5ce19fb330c"},"vehicle_type_id":"4","last_reported":1728223634,"current_range_meters":33600,"station_id":"ce4bhop2rcd13ifvqh7g","pricing_plan_id":"cebpf4jnsgd1na2vs0mg"},{"bike_id":"ae53a9d1-01ac-447b-a4c7-269e1c5ac403","system_id":"levelo_inurba_marseille","lat":43.31822,"lon":5.40632,"is_reserved":false,"is_disabled":false,"rental_uris":{"android":"levelo://app?vid=ae53a9d1-01ac-447b-a4c7-269e1c5ac403","ios":"levelo://app?vid=ae53a9d1-01ac-447b-a4c7-269e1c5ac403"},"vehicle_type_id":"4","last_reported":1728223634,"current_range_meters":11600,"station_id":"","pricing_plan_id":"cebpf4jnsgd1na2vs0mg"},{"bike_id":"d3d0826a-8542-464c-893d-a0abebc55504","system_id":"levelo_inurba_marseille","lat":43.31273,"lon":5.40173,"is_reserved":false,"is_disabled":false,"rental_uris":{"android":"levelo://app?vid=d3d0826a-8542-464c-893d-a0abebc55504","ios":"levelo://app?vid=d3d0826a-8542-464c-893d-a0abebc55504"},"vehicle_type_id":"4","last_reported":1728223634,"current_range_meters":38000,"station_id":"ce4bh092rcd13ifvqd30","pricing_plan_id":"cebpf4jnsgd1na2vs0mg"},{"bike_id":"286bd421-f2d4-401f-b4b7-686cb04edc6b","system_id":"levelo_inurba_marseille","lat":43.30245,"lon":5.40051,"is_reserved":false,"is_disabled":false,"rental_uris":{"android":"levelo://app?vid=286bd421-f2d4-401f-b4b7-686cb04edc6b","ios":"levelo://app?vid=286bd421-f2d4-401f-b4b7-686cb04edc6b"},"vehicle_type_id":"4","last_reported":1728223634,"current_range_meters":38800,"station_id":"ce4bgvh2rcd13ifvqcs0","pricing_plan_id":"cebpf4jnsgd1na2vs0mg"},{"bike_id":"c27bed71-e25b-452e-924e-63cc2e60cb85","system_id":"levelo_inurba_marseille","lat":43.2841,"lon":5.375,"is_reserved":false,"is_disabled":false,"rental_uris":{"android":"levelo://app?vid=c27bed71-e25b-452e-924e-63cc2e60cb85","ios":"levelo://app?vid=c27bed71-e25b-452e-924e-63cc2e60cb85"},"vehicle_type_id":"4","last_reported":1728223634,"current_range_meters":20000,"station_id":"ce4bh412rcd13ifvqds0","pricing_plan_id":"cebpf4jnsgd1na2vs0mg"},{"bike_id":"f424fdb7-39a3-4f37-88a9-5fedf3e7c331","system_id":"levelo_inurba_marseille","lat":43.29165,"lon":5.37167,"is_reserved":false,"is_disabled":false,"rental_uris":{"android":"levelo://app?vid=f424fdb7-39a3-4f37-88a9-5fedf3e7c331","ios":"levelo://app?vid=f424fdb7-39a3-4f37-88a9-5fedf3e7c331"},"vehicle_type_id":"4","last_reported":1728223634,"current_range_meters":33200,"station_id":"ce4bha92rcd13ifvqeh0","pricing_plan_id":"cebpf4jnsgd1na2vs0mg"},{"bike_id":"f7aab44f-a205-4965-bb1e-967ebe4703cf","system_id":"levelo_inurba_marseille","lat":43.29793,"lon":5.38112,"is_reserved":false,"is_disabled":false,"rental_uris":{"android":"levelo://app?vid=f7aab44f-a205-4965-bb1e-967ebe4703cf","ios":"levelo://app?vid=f7aab44f-a205-4965-bb1e-967ebe4703cf"},"vehicle_type_id":"4","last_reported":1728223634,"current_range_meters":7200,"station_id":"ce4bgip2rcd13ifvqbb0","pricing_plan_id":"cebpf4jnsgd1na2vs0mg"},{"bike_id":"c50e441c-d247-4c47-85e3-c59071bb20fa","system_id":"levelo_inurba_marseille","lat":43.21344,"lon":5.34938,"is_reserved":false,"is_disabled":false,"rental_uris":{"android":"levelo://app?vid=c50e441c-d247-4c47-85e3-c59071bb20fa","ios":"levelo://app?vid=c50e441c-d247-4c47-85e3-c59071bb20fa"},"vehicle_type_id":"4","last_reported":1728223634,"current_range_meters":29600,"station_id":"crv51consjfaj9uu89c0","pricing_plan_id":"cebpf4jnsgd1na2vs0mg"},{"bike_id":"9e0670be-77cb-4d11-b55a-4610a8d861e1","system_id":"levelo_inurba_marseille","lat":43.29581,"lon":5.36734,"is_reserved":false,"is_disabled":false,"rental_uris":{"android":"levelo://app?vid=9e0670be-77cb-4d11-b55a-4610a8d861e1","ios":"levelo://app?vid=9e0670be-77cb-4d11-b55a-4610a8d861e1"},"vehicle_type_id":"4","last_reported":1728223634,"current_range_meters":39200,"station_id":"ce4bgph2rcd13ifvqc2g","pricing_plan_id":"cebpf4jnsgd1na2vs0mg"},{"bike_id":"13ddd84a-c17d-4ff4-97c0-d9330910ac53","system_id":"levelo_inurba_marseille","lat":43.26804,"lon":5.40272,"is_reserved":false,"is_disabled":false,"rental_uris":{"android":"levelo://app?vid=13ddd84a-c17d-4ff4-97c0-d9330910ac53","ios":"levelo://app?vid=13ddd84a-c17d-4ff4-97c0-d9330910ac53"},"vehicle_type_id":"4","last_reported":1728223634,"current_range_meters":4400,"station_id":"ce501612rcd8frsf0b60","pricing_plan_id":"cebpf4jnsgd1na2vs0mg"},{"bike_id":"b1838a8a-5724-48f4-8b08-ccb2775a3430","system_id":"levelo_inurba_marseille","lat":43.30546,"lon":5.36525,"is_reserved":false,"is_disabled":false,"rental_uris":{"android":"levelo://app?vid=b1838a8a-5724-48f4-8b08-ccb2775a3430","ios":"levelo://app?vid=b1838a8a-5724-48f4-8b08-ccb2775a3430"},"vehicle_type_id":"4","last_reported":1728223634,"current_range_meters":14400,"station_id":"ce4bgs12rcd13ifvqcag","pricing_plan_id":"cebpf4jnsgd1na2vs0mg"},{"bike_id":"8c12b75f-8f07-45d6-8cfc-2826f2bf62f9","system_id":"levelo_inurba_marseille","lat":43.29262,"lon":5.38439,"is_reserved":false,"is_disabled":false,"rental_uris":{"android":"levelo://app?vid=8c12b75f-8f07-45d6-8cfc-2826f2bf62f9","ios":"levelo://app?vid=8c12b75f-8f07-45d6-8cfc-2826f2bf62f9"},"vehicle_type_id":"4","last_reported":1728223634,"current_range_meters":24400,"station_id":"ce4bh692rcd13ifvqea0","pricing_plan_id":"cebpf4jnsgd1na2vs0mg"},{"bike_id":"bdefae95-7cc5-4880-bfcb-b1af39586be0","system_id":"levelo_inurba_marseille","lat":43.32662,"lon":5.40992,"is_reserved":false,"is_disabled":false,"rental_uris":{"android":"levelo://app?vid=bdefae95-7cc5-4880-bfcb-b1af39586be0","ios":"levelo://app?vid=bdefae95-7cc5-4880-bfcb-b1af39586be0"},"vehicle_type_id":"4","last_reported":1728223634,"current_range_meters":36400,"station_id":"ce4bhpp2rcd13ifvqhgg","pricing_plan_id":"cebpf4jnsgd1na2vs0mg"},{"bike_id":"7f2584c3-186b-4ca9-b416-bee639b50e12","system_id":"levelo_inurba_marseille","lat":43.22933,"lon":5.35379,"is_reserved":false,"is_disabled":false,"rental_uris":{"android":"levelo://app?vid=7f2584c3-186b-4ca9-b416-bee639b50e12","ios":"levelo://app?vid=7f2584c3-186b-4ca9-b416-bee639b50e12"},"vehicle_type_id":"4","last_reported":1728223634,"current_range_meters":28800,"station_id":"cpo3532slgdg3j2ikp40","pricing_plan_id":"cebpf4jnsgd1na2vs0mg"},{"bike_id":"cbdf7d56-2a0d-4e5b-ba35-611d7d36932b","system_id":"levelo_inurba_marseille","lat":43.30553,"lon":5.36527,"is_reserved":false,"is_disabled":false,"rental_uris":{"android":"levelo://app?vid=cbdf7d56-2a0d-4e5b-ba35-611d7d36932b","ios":"levelo://app?vid=cbdf7d56-2a0d-4e5b-ba35-611d7d36932b"},"vehicle_type_id":"4","last_reported":1728223634,"current_range_meters":26800,"station_id":"ce4bgs12rcd13ifvqcag","pricing_plan_id":"cebpf4jnsgd1na2vs0mg"},{"bike_id":"08152b95-ed0b-428f-ba0c-937339fd0412","system_id":"levelo_inurba_marseille","lat":43.30312,"lon":5.36892,"is_reserved":false,"is_disabled":false,"rental_uris":{"android":"levelo://app?vid=08152b95-ed0b-428f-ba0c-937339fd0412","ios":"levelo://app?vid=08152b95-ed0b-428f-ba0c-937339fd0412"},"vehicle_type_id":"4","last_reported":1728223634,"current_range_meters":40000,"station_id":"ce4bgqh2rcd13ifvqc5g","pricing_plan_id":"cebpf4jnsgd1na2vs0mg"},{"bike_id":"1d152269-c2fa-4900-bfa9-f20a095e29df","system_id":"levelo_inurba_marseille","lat":43.25721,"lon":5.41107,"is_reserved":false,"is_disabled":false,"rental_uris":{"android":"levelo://app?vid=1d152269-c2fa-4900-bfa9-f20a095e29df","ios":"levelo://app?vid=1d152269-c2fa-4900-bfa9-f20a095e29df"},"vehicle_type_id":"4","last_reported":1728223634,"current_range_meters":38800,"station_id":"ce4bhkp2rcd13ifvqgd0","pricing_plan_id":"cebpf4jnsgd1na2vs0mg"},{"bike_id":"f85ad1d5-491d-4871-8bad-fc0a0be1c1bb","system_id":"levelo_inurba_marseille","lat":43.28667,"lon":5.36358,"is_reserved":false,"is_disabled":false,"rental_uris":{"android":"levelo://app?vid=f85ad1d5-491d-4871-8bad-fc0a0be1c1bb","ios":"levelo://app?vid=f85ad1d5-491d-4871-8bad-fc0a0be1c1bb"},"vehicle_type_id":"4","last_reported":1728223634,"current_range_meters":37600,"station_id":"ce4bhah2rcd13ifvqej0","pricing_plan_id":"cebpf4jnsgd1na2vs0mg"},{"bike_id":"9e93e450-5434-43be-8c9e-9cd2658b2dbf","system_id":"levelo_inurba_marseille","lat":43.30141,"lon":5.37423,"is_reserved":false,"is_disabled":false,"rental_uris":{"android":"levelo://app?vid=9e93e450-5434-43be-8c9e-9cd2658b2dbf","ios":"levelo://app?vid=9e93e450-5434-43be-8c9e-9cd2658b2dbf"},"vehicle_type_id":"4","last_reported":1728223634,"current_range_meters":38800,"station_id":"ce4bgs92rcd13ifvqcc0","pricing_plan_id":"cebpf4jnsgd1na2vs0mg"},{"bike_id":"57df5327-e4f9-4fe9-b1c6-46e97a345cbd","system_id":"levelo_inurba_marseille","lat":43.28611,"lon":5.37061,"is_reserved":false,"is_disabled":false,"rental_uris":{"android":"levelo://app?vid=57df5327-e4f9-4fe9-b1c6-46e97a345cbd","ios":"levelo://app?vid=57df5327-e4f9-4fe9-b1c6-46e97a345cbd"},"vehicle_type_id":"4","last_reported":1728223634,"current_range_meters":38800,"station_id":"ce4bht12rcd13ifvqi60","pricing_plan_id":"cebpf4jnsgd1na2vs0mg"},{"bike_id":"5182113f-8908-4825-903e-5a46e19bca5b","system_id":"levelo_inurba_marseille","lat":43.324907,"lon":5.36575,"is_reserved":false,"is_disabled":false,"rental_uris":{"android":"levelo://app?vid=5182113f-8908-4825-903e-5a46e19bca5b","ios":"levelo://app?vid=5182113f-8908-4825-903e-5a46e19bca5b"},"vehicle_type_id":"4","last_reported":1728223634,"current_range_meters":6400,"station_id":"ce4bhs12rcd13ifvqhvg","pricing_plan_id":"cebpf4jnsgd1na2vs0mg"},{"bike_id":"e03c9d0c-17ae-4003-b903-fd8aa9951041","system_id":"levelo_inurba_marseille","lat":43.33745,"lon":5.37449,"is_reserved":false,"is_disabled":false,"rental_uris":{"android":"levelo://app?vid=e03c9d0c-17ae-4003-b903-fd8aa9951041","ios":"levelo://app?vid=e03c9d0c-17ae-4003-b903-fd8aa9951041"},"vehicle_type_id":"4","last_reported":1728223634,"current_range_meters":33600,"station_id":"","pricing_plan_id":"cebpf4jnsgd1na2vs0mg"},{"bike_id":"a115750f-594e-4873-b041-fcc7b725ba92","system_id":"levelo_inurba_marseille","lat":43.30531,"lon":5.3673,"is_reserved":false,"is_disabled":false,"rental_uris":{"android":"levelo://app?vid=a115750f-594e-4873-b041-fcc7b725ba92","ios":"levelo://app?vid=a115750f-594e-4873-b041-fcc7b725ba92"},"vehicle_type_id":"4","last_reported":1728223634,"current_range_meters":22400,"station_id":"ce4bgrp2rcd13ifvqc9g","pricing_plan_id":"cebpf4jnsgd1na2vs0mg"},{"bike_id":"04eb5bb2-b07d-4668-a0d1-cdd07e5ea1cd","system_id":"levelo_inurba_marseille","lat":43.25582,"lon":5.38233,"is_reserved":false,"is_disabled":false,"rental_uris":{"android":"levelo://app?vid=04eb5bb2-b07d-4668-a0d1-cdd07e5ea1cd","ios":"levelo://app?vid=04eb5bb2-b07d-4668-a0d1-cdd07e5ea1cd"},"vehicle_type_id":"4","last_reported":1728223634,"current_range_meters":8400,"station_id":"ce4bhih2rcd13ifvqfs0","pricing_plan_id":"cebpf4jnsgd1na2vs0mg"},{"bike_id":"fadcf6aa-e1cf-44d1-88d8-678c1291d969","system_id":"levelo_inurba_marseille","lat":43.32341,"lon":5.40626,"is_reserved":false,"is_disabled":false,"rental_uris":{"android":"levelo://app?vid=fadcf6aa-e1cf-44d1-88d8-678c1291d969","ios":"levelo://app?vid=fadcf6aa-e1cf-44d1-88d8-678c1291d969"},"vehicle_type_id":"4","last_reported":1728223634,"current_range_meters":37600,"station_id":"ce4bhq92rcd13ifvqhjg","pricing_plan_id":"cebpf4jnsgd1na2vs0mg"},{"bike_id":"d93e0d94-bfd5-4f38-90cf-a688727e06e4","system_id":"levelo_inurba_marseille","lat":43.27905,"lon":5.3799,"is_reserved":false,"is_disabled":false,"rental_uris":{"android":"levelo://app?vid=d93e0d94-bfd5-4f38-90cf-a688727e06e4","ios":"levelo://app?vid=d93e0d94-bfd5-4f38-90cf-a688727e06e4"},"vehicle_type_id":"4","last_reported":1728223634,"current_range_meters":32000,"station_id":"ce4bhf92rcd13ifvqf50","pricing_plan_id":"cebpf4jnsgd1na2vs0mg"},{"bike_id":"fbec104b-cb10-4ee6-8280-b085019e42b0","system_id":"levelo_inurba_marseille","lat":43.22926,"lon":5.35376,"is_reserved":false,"is_disabled":false,"rental_uris":{"android":"levelo://app?vid=fbec104b-cb10-4ee6-8280-b085019e42b0","ios":"levelo://app?vid=fbec104b-cb10-4ee6-8280-b085019e42b0"},"vehicle_type_id":"4","last_reported":1728223634,"current_range_meters":32000,"station_id":"cpo3532slgdg3j2ikp40","pricing_plan_id":"cebpf4jnsgd1na2vs0mg"},{"bike_id":"b67ca889-d6e3-4ce6-9934-391c45d1b7c9","system_id":"levelo_inurba_marseille","lat":43.29167,"lon":5.37148,"is_reserved":false,"is_disabled":false,"rental_uris":{"android":"levelo://app?vid=b67ca889-d6e3-4ce6-9934-391c45d1b7c9","ios":"levelo://app?vid=b67ca889-d6e3-4ce6-9934-391c45d1b7c9"},"vehicle_type_id":"4","last_reported":1728223634,"current_range_meters":38000,"station_id":"ce4bha92rcd13ifvqeh0","pricing_plan_id":"cebpf4jnsgd1na2vs0mg"},{"bike_id":"3b0ecdd2-778f-4574-9ccf-4b706a5b2360","system_id":"levelo_inurba_marseille","lat":43.2135,"lon":5.34936,"is_reserved":false,"is_disabled":false,"rental_uris":{"android":"levelo://app?vid=3b0ecdd2-778f-4574-9ccf-4b706a5b2360","ios":"levelo://app?vid=3b0ecdd2-778f-4574-9ccf-4b706a5b2360"},"vehicle_type_id":"4","last_reported":1728223634,"current_range_meters":19600,"station_id":"crv51consjfaj9uu89c0","pricing_plan_id":"cebpf4jnsgd1na2vs0mg"},{"bike_id":"0a944beb-d79a-4d1c-8722-582d8d4e0c0b","system_id":"levelo_inurba_marseille","lat":43.29004,"lon":5.35608,"is_reserved":false,"is_disabled":false,"rental_uris":{"android":"levelo://app?vid=0a944beb-d79a-4d1c-8722-582d8d4e0c0b","ios":"levelo://app?vid=0a944beb-d79a-4d1c-8722-582d8d4e0c0b"},"vehicle_type_id":"4","last_reported":1728223634,"current_range_meters":39200,"station_id":"ce4bhb92rcd13ifvqen0","pricing_plan_id":"cebpf4jnsgd1na2vs0mg"},{"bike_id":"3de3fa7d-4433-4cfe-bab6-6307971a8a93","system_id":"levelo_inurba_marseille","lat":43.29193,"lon":5.35806,"is_reserved":false,"is_disabled":false,"rental_uris":{"android":"levelo://app?vid=3de3fa7d-4433-4cfe-bab6-6307971a8a93","ios":"levelo://app?vid=3de3fa7d-4433-4cfe-bab6-6307971a8a93"},"vehicle_type_id":"4","last_reported":1728223634,"current_range_meters":9200,"station_id":"ce4bhb12rcd13ifvqel0","pricing_plan_id":"cebpf4jnsgd1na2vs0mg"},{"bike_id":"2e2d5a92-67eb-4ac7-94f5-018c85e60ed2","system_id":"levelo_inurba_marseille","lat":43.24387,"lon":5.37053,"is_reserved":false,"is_disabled":false,"rental_uris":{"android":"levelo://app?vid=2e2d5a92-67eb-4ac7-94f5-018c85e60ed2","ios":"levelo://app?vid=2e2d5a92-67eb-4ac7-94f5-018c85e60ed2"},"vehicle_type_id":"4","last_reported":1728223634,"current_range_meters":32000,"station_id":"ce4bhhh2rcd13ifvqfk0","pricing_plan_id":"cebpf4jnsgd1na2vs0mg"},{"bike_id":"11e36158-8041-4c62-9b7c-60e1992fc4a4","system_id":"levelo_inurba_marseille","lat":43.290455,"lon":5.359143,"is_reserved":false,"is_disabled":false,"rental_uris":{"android":"levelo://app?vid=11e36158-8041-4c62-9b7c-60e1992fc4a4","ios":"levelo://app?vid=11e36158-8041-4c62-9b7c-60e1992fc4a4"},"vehicle_type_id":"4","last_reported":1728223634,"current_range_meters":20000,"station_id":"ce4bha92rcd13ifvqeg0","pricing_plan_id":"cebpf4jnsgd1na2vs0mg"},{"bike_id":"3788be54-f989-46d7-9658-11843522d394","system_id":"levelo_inurba_marseille","lat":43.258283,"lon":5.394277,"is_reserved":false,"is_disabled":false,"rental_uris":{"android":"levelo://app?vid=3788be54-f989-46d7-9658-11843522d394","ios":"levelo://app?vid=3788be54-f989-46d7-9658-11843522d394"},"vehicle_type_id":"4","last_reported":1728223634,"current_range_meters":38000,"station_id":"ce4bhip2rcd13ifvqft0","pricing_plan_id":"cebpf4jnsgd1na2vs0mg"},{"bike_id":"42ee1de6-d2dd-4cce-8565-9f42c934ab66","system_id":"levelo_inurba_marseille","lat":43.29099,"lon":5.38151,"is_reserved":false,"is_disabled":false,"rental_uris":{"android":"levelo://app?vid=42ee1de6-d2dd-4cce-8565-9f42c934ab66","ios":"levelo://app?vid=42ee1de6-d2dd-4cce-8565-9f42c934ab66"},"vehicle_type_id":"4","last_reported":1728223634,"current_range_meters":28800,"station_id":"ce4bh512rcd13ifvqe2g","pricing_plan_id":"cebpf4jnsgd1na2vs0mg"},{"bike_id":"e212bdcc-3f7e-4857-9bfc-98bf5a8311d0","system_id":"levelo_inurba_marseille","lat":43.28409,"lon":5.37501,"is_reserved":false,"is_disabled":false,"rental_uris":{"android":"levelo://app?vid=e212bdcc-3f7e-4857-9bfc-98bf5a8311d0","ios":"levelo://app?vid=e212bdcc-3f7e-4857-9bfc-98bf5a8311d0"},"vehicle_type_id":"4","last_reported":1728223634,"current_range_meters":38800,"station_id":"ce4bh412rcd13ifvqds0","pricing_plan_id":"cebpf4jnsgd1na2vs0mg"},{"bike_id":"a1a930d1-cc36-491b-ba27-241c9d64173b","system_id":"levelo_inurba_marseille","lat":43.27207,"lon":5.39183,"is_reserved":false,"is_disabled":false,"rental_uris":{"android":"levelo://app?vid=a1a930d1-cc36-491b-ba27-241c9d64173b","ios":"levelo://app?vid=a1a930d1-cc36-491b-ba27-241c9d64173b"},"vehicle_type_id":"4","last_reported":1728223634,"current_range_meters":16800,"station_id":"ce4bhhp2rcd13ifvqfm0","pricing_plan_id":"cebpf4jnsgd1na2vs0mg"},{"bike_id":"e7b8aaf0-0288-475a-a597-c740c558d3f0","system_id":"levelo_inurba_marseille","lat":43.29931,"lon":5.36555,"is_reserved":false,"is_disabled":false,"rental_uris":{"android":"levelo://app?vid=e7b8aaf0-0288-475a-a597-c740c558d3f0","ios":"levelo://app?vid=e7b8aaf0-0288-475a-a597-c740c558d3f0"},"vehicle_type_id":"4","last_reported":1728223634,"current_range_meters":22800,"station_id":"ce4bgm92rcd13ifvqbr0","pricing_plan_id":"cebpf4jnsgd1na2vs0mg"},{"bike_id":"6856d22e-440d-40d9-809f-3167dacdbdc3","system_id":"levelo_inurba_marseille","lat":43.337444,"lon":5.374475,"is_reserved":false,"is_disabled":false,"rental_uris":{"android":"levelo://app?vid=6856d22e-440d-40d9-809f-3167dacdbdc3","ios":"levelo://app?vid=6856d22e-440d-40d9-809f-3167dacdbdc3"},"vehicle_type_id":"4","last_reported":1728223634,"current_range_meters":14400,"station_id":"","pricing_plan_id":"cebpf4jnsgd1na2vs0mg"},{"bike_id":"fd4ec517-198b-4036-a8bb-30f579d6641f","system_id":"levelo_inurba_marseille","lat":43.28406,"lon":5.37511,"is_reserved":false,"is_disabled":false,"rental_uris":{"android":"levelo://app?vid=fd4ec517-198b-4036-a8bb-30f579d6641f","ios":"levelo://app?vid=fd4ec517-198b-4036-a8bb-30f579d6641f"},"vehicle_type_id":"4","last_reported":1728223634,"current_range_meters":38800,"station_id":"ce4bh412rcd13ifvqds0","pricing_plan_id":"cebpf4jnsgd1na2vs0mg"},