{"last_updated":1744708287,"ttl":60,"version":"2.2","data":{"bikes":[{"bike_id":"e92f4395-b43c-43cd-949e-0e037fd97b21","system_id":"levelo_inurba_marseille","lat":43.29893,"lon":5.43671,"is_reserved":false,"is_disabled":false,"rental_uris":{"android":"levelo://app?vid=e92f4395-b43c-43cd-949e-0e037fd97b21","ios":"levelo://app?vid=e92f4395-b43c-43cd-949e-0e037fd97b21"},"vehicle_type_id":"4","last_reported":1744708288,"current_range_meters":2800,"station_id":"ce4bhpp2rcd13ifvqhfg","pricing_plan_id":"cebpf4jnsgd1na2vs0mg"},{"bike_id":"515271b0-9b96-43f1-9b62-f663213b7c02","system_id":"levelo_inurba_marseille","lat":43.29044,"lon":5.35678,"is_reserved":false,"is_disabled":false,"rental_uris":{"android":"levelo://app?vid=515271b0-9b96-43f1-9b62-f663213b7c02","ios":"levelo://app?vid=515271b0-9b96-43f1-9b62-f663213b7c02"},"vehicle_type_id":"4","last_reported":1744708288,"current_range_meters":3600,"station_id":"","pricing_plan_id":"cebpf4jnsgd1na2vs0mg"},{"bike_id":"bc1e941d-5514-4193-a637-cfb6de114bfa","system_id":"levelo_inurba_marseille","lat":43.25584,"lon":5.38217,"is_reserved":false,"is_disabled":false,"rental_uris":{"android":"levelo://app?vid=bc1e941d-5514-4193-a637-cfb6de114bfa","ios":"levelo://app?vid=bc1e941d-5514-4193-a637-cfb6de114bfa"},"vehicle_type_id":"4","last_reported":1744708288,"current_range_meters":4800,"station_id":"ce4bhih2rcd13ifvqfs0","pricing_plan_id":"cebpf4jnsgd1na2vs0mg"},{"bike_id":"fcc2cd9f-f37e-4faa-bf17-95d287db6912","system_id":"levelo_inurba_marseille","lat":43.29028,"lon":5.38139,"is_reserved":false,"is_disabled":false,"rental_uris":{"android":"levelo://app?vid=fcc2cd9f-f37e-4faa-bf17-95d287db6912","ios":"levelo://app?vid=fcc2cd9f-f37e-4faa-bf17-95d287db6912"},"vehicle_type_id":"4","last_reported":1744708288,"current_range_meters":5600,"station_id":"ce4bh4p2rcd13ifvqe1g","pricing_plan_id":"cebpf4jnsgd1na2vs0mg"},{"bike_id":"0a7cab43-9343-46f0-9a4d-34c8fb861430","system_id":"levelo_inurba_marseille","lat":43.29167,"lon":5.40015,"is_reserved":false,"is_disabled":false,"rental_uris":{"android":"levelo://app?vid=0a7cab43-9343-46f0-9a4d-34c8fb861430","ios":"levelo://app?vid=0a7cab43-9343-46f0-9a4d-34c8fb861430"},"vehicle_type_id":"4","last_reported":1744708288,"current_range_meters":5600,"station_id":"","pricing_plan_id":"cebpf4jnsgd1na2vs0mg"},{"bike_id":"8e257129-2fc1-4b7e-9af0-0037d9dd9fc9","system_id":"levelo_inurba_marseille","lat":43.2898,"lon":5.37596,"is_reserved":false,"is_disabled":false,"rental_uris":{"android":"levelo://app?vid=8e257129-2fc1-4b7e-9af0-0037d9dd9fc9","ios":"levelo://app?vid=8e257129-2fc1-4b7e-9af0-0037d9dd9fc9"},"vehicle_type_id":"4","last_reported":1744708288,"current_range_meters":6000,"station_id":"","pricing_plan_id":"cebpf4jnsgd1na2vs0mg"},{"bike_id":"91364036-a111-4dc2-958c-dc98748698ae","system_id":"levelo_inurba_marseille","lat":43.30955,"lon":5.39053,"is_reserved":false,"is_disabled":false,"rental_uris":{"android":"levelo://app?vid=91364036-a111-4dc2-958c-dc98748698ae","ios":"levelo://app?vid=91364036-a111-4dc2-958c-dc98748698ae"},"vehicle_type_id":"4","last_reported":1744708288,"current_range_meters":6000,"station_id":"ce4bgup2rcd13ifvqco0","pricing_plan_id":"cebpf4jnsgd1na2vs0mg"},{"bike_id":"db7d16ce-c546-4a33-82e6-99d039bd6be7","system_id":"levelo_inurba_marseille","lat":43.26687,"lon":5.38262,"is_reserved":false,"is_disabled":false,"rental_uris":{"android":"levelo://app?vid=db7d16ce-c546-4a33-82e6-99d039bd6be7","ios":"levelo://app?vid=db7d16ce-c546-4a33-82e6-99d039bd6be7"},"vehicle_type_id":"4","last_reported":1744708288,"current_range_meters":6400,"station_id":"ce4bhg92rcd13ifvqf90","pricing_plan_id":"cebpf4jnsgd1na2vs0mg"},{"bike_id":"f5cc92e3-e52e-4399-ad6a-b4b4c4a32f3c","system_id":"levelo_inurba_marseille","lat":43.297164,"lon":5.377021,"is_reserved":false,"is_disabled":false,"rental_uris":{"android":"levelo://app?vid=f5cc92e3-e52e-4399-ad6a-b4b4c4a32f3c","ios":"levelo://app?vid=f5cc92e3-e52e-4399-ad6a-b4b4c4a32f3c"},"vehicle_type_id":"4","last_reported":1744708288,"current_range_meters":6400,"station_id":"ce4bh2h2rcd13ifvqdh0","pricing_plan_id":"cebpf4jnsgd1na2vs0mg"},{"bike_id":"7af32e08-c87f-4c71-bb72-f544c0cce00e","system_id":"levelo_inurba_marseille","lat":43.25913,"lon":5.4075,"is_reserved":false,"is_disabled":false,"rental_uris":{"android":"levelo://app?vid=7af32e08-c87f-4c71-bb72-f544c0cce00e","ios":"levelo://app?vid=7af32e08-c87f-4c71-bb72-f544c0cce00e"},"vehicle_type_id":"4","last_reported":1744708288,"current_range_meters":6400,"station_id":"ce4bhm92rcd13ifvqglg","pricing_plan_id":"cebpf4jnsgd1na2vs0mg"},{"bike_id":"72d9d553-17e0-40eb-8b10-a4252eb7a98f","system_id":"levelo_inurba_marseille","lat":43.25937,"lon":5.40894,"is_reserved":false,"is_disabled":false,"rental_uris":{"android":"levelo://app?vid=72d9d553-17e0-40eb-8b10-a4252eb7a98f","ios":"levelo://app?vid=72d9d553-17e0-40eb-8b10-a4252eb7a98f"},"vehicle_type_id":"4","last_reported":1744708288,"current_range_meters":6400,"station_id":"ce4bhm92rcd13ifvqglg","pricing_plan_id":"cebpf4jnsgd1na2vs0mg"},{"bike_id":"2938bc9c-a915-484e-9b02-b4a924f19077","system_id":"levelo_inurba_marseille","lat":43.24169,"lon":5.36383,"is_reserved":false,"is_disabled":false,"rental_uris":{"android":"levelo://app?vid=2938bc9c-a915-484e-9b02-b4a924f19077","ios":"levelo://app?vid=2938bc9c-a915-484e-9b02-b4a924f19077"},"vehicle_type_id":"4","last_reported":1744708288,"current_range_meters":6800,"station_id":"cpo36qri1sfpv3e86is0","pricing_plan_id":"cebpf4jnsgd1na2vs0mg"},{"bike_id":"901adfd3-d0f1-4359-a0a8-5ca2e06dc432","system_id":"levelo_inurba_marseille","lat":43.29316,"lon":5.37184,"is_reserved":false,"is_disabled":false,"rental_uris":{"android":"levelo://app?vid=901adfd3-d0f1-4359-a0a8-5ca2e06dc432","ios":"levelo://app?vid=901adfd3-d0f1-4359-a0a8-5ca2e06dc432"},"vehicle_type_id":"4","last_reported":1744708288,"current_range_meters":6800,"station_id":"ce4bgh92rcd13ifvqb40","pricing_plan_id":"cebpf4jnsgd1na2vs0mg"},{"bike_id":"d373ed4c-aba0-4974-b8ad-53c5cbe85936","system_id":"levelo_inurba_marseille","lat":43.2943,"lon":5.39773,"is_reserved":false,"is_disabled":true,"rental_uris":{"android":"levelo://app?vid=d373ed4c-aba0-4974-b8ad-53c5cbe85936","ios":"levelo://app?vid=d373ed4c-aba0-4974-b8ad-53c5cbe85936"},"vehicle_type_id":"4","last_reported":1744708288,"current_range_meters":6800,"station_id":"ce4bh3h2rcd13ifvqdo0","pricing_plan_id":"cebpf4jnsgd1na2vs0mg"},{"bike_id":"f6151468-df2d-459f-ab57-449c0333cf42","system_id":"levelo_inurba_marseille","lat":43.24678,"lon":5.38157,"is_reserved":false,"is_disabled":false,"rental_uris":{"android":"levelo://app?vid=f6151468-df2d-459f-ab57-449c0333cf42","ios":"levelo://app?vid=f6151468-df2d-459f-ab57-449c0333cf42"},"vehicle_type_id":"4","last_reported":1744708288,"current_range_meters":6800,"station_id":"ce4bhih2rcd13ifvqfr0","pricing_plan_id":"cebpf4jnsgd1na2vs0mg"},{"bike_id":"383d248a-d18c-4376-b0ab-fd793b53feca","system_id":"levelo_inurba_marseille","lat":43.31094,"lon":5.42379,"is_reserved":false,"is_disabled":false,"rental_uris":{"android":"levelo://app?vid=383d248a-d18c-4376-b0ab-fd793b53feca","ios":"levelo://app?vid=383d248a-d18c-4376-b0ab-fd793b53feca"},"vehicle_type_id":"4","last_reported":1744708288,"current_range_meters":6800,"station_id":"ce4bhp92rcd13ifvqhag","pricing_plan_id":"cebpf4jnsgd1na2vs0mg"},{"bike_id":"e9c90e38-0bc8-4a3e-aaba-82b0d20c79f1","system_id":"levelo_inurba_marseille","lat":43.25939,"lon":5.40904,"is_reserved":false,"is_disabled":false,"rental_uris":{"android":"levelo://app?vid=e9c90e38-0bc8-4a3e-aaba-82b0d20c79f1","ios":"levelo://app?vid=e9c90e38-0bc8-4a3e-aaba-82b0d20c79f1"},"vehicle_type_id":"4","last_reported":1744708288,"current_range_meters":7200,"station_id":"ce4bhm92rcd13ifvqglg","pricing_plan_id":"cebpf4jnsgd1na2vs0mg"},{"bike_id":"6d236f03-eecc-4c22-adf3-46cb2f9c739f","system_id":"levelo_inurba_marseille","lat":43.29043,"lon":5.37572,"is_reserved":false,"is_disabled":false,"rental_uris":{"android":"levelo://app?vid=6d236f03-eecc-4c22-adf3-46cb2f9c739f","ios":"levelo://app?vid=6d236f03-eecc-4c22-adf3-46cb2f9c739f"},"vehicle_type_id":"4","last_reported":1744708288,"current_range_meters":7200,"station_id":"ce4bh692rcd13ifvqe90","pricing_plan_id":"cebpf4jnsgd1na2vs0mg"},{"bike_id":"a5bae5db-f126-4189-a335-245a1d46ef47","system_id":"levelo_inurba_marseille","lat":43.33604,"lon":5.4103,"is_reserved":false,"is_disabled":false,"rental_uris":{"android":"levelo://app?vid=a5bae5db-f126-4189-a335-245a1d46ef47","ios":"levelo://app?vid=a5bae5db-f126-4189-a335-245a1d46ef47"},"vehicle_type_id":"4","last_reported":1744708288,"current_range_meters":7200,"station_id":"ce4bhqh2rcd13ifvqhmg","pricing_plan_id":"cebpf4jnsgd1na2vs0mg"},{"bike_id":"7ba3577b-f14a-47b3-8ecb-35158daf49ef","system_id":"levelo_inurba_marseille","lat":43.30032,"lon":5.39848,"is_reserved":false,"is_disabled":false,"rental_uris":{"android":"levelo://app?vid=7ba3577b-f14a-47b3-8ecb-35158daf49ef","ios":"levelo://app?vid=7ba3577b-f14a-47b3-8ecb-35158daf49ef"},"vehicle_type_id":"4","last_reported":1744708288,"current_range_meters":7200,"station_id":"","pricing_plan_id":"cebpf4jnsgd1na2vs0mg"},{"bike_id":"c4a1888f-4522-461a-a4ec-6bd14f7e0cc9","system_id":"levelo_inurba_marseille","lat":43.30192,"lon":5.36608,"is_reserved":false,"is_disabled":false,"rental_uris":{"android":"levelo://app?vid=c4a1888f-4522-461a-a4ec-6bd14f7e0cc9","ios":"levelo://app?vid=c4a1888f-4522-461a-a4ec-6bd14f7e0cc9"},"vehicle_type_id":"4","last_reported":1744708288,"current_range_meters":7200,"station_id":"ce4bgrh2rcd13ifvqc8g","pricing_plan_id":"cebpf4jnsgd1na2vs0mg"},{"bike_id":"b4a19ddd-ec2c-4178-96c7-9e5bf749190e","system_id":"levelo_inurba_marseille","lat":43.29908,"lon":5.43693,"is_reserved":false,"is_disabled":false,"rental_uris":{"android":"levelo://app?vid=b4a19ddd-ec2c-4178-96c7-9e5bf749190e","ios":"levelo://app?vid=b4a19ddd-ec2c-4178-96c7-9e5bf749190e"},"vehicle_type_id":"4","last_reported":1744708288,"current_range_meters":8000,"station_id":"ce4bhpp2rcd13ifvqhfg","pricing_plan_id":"cebpf4jnsgd1na2vs0mg"},{"bike_id":"8a58a04e-f069-487b-905a-c2f308a407cd","system_id":"levelo_inurba_marseille","lat":43.33012,"lon":5.3905,"is_reserved":false,"is_disabled":false,"rental_uris":{"android":"levelo://app?vid=8a58a04e-f069-487b-905a-c2f308a407cd","ios":"levelo://app?vid=8a58a04e-f069-487b-905a-c2f308a407cd"},"vehicle_type_id":"4","last_reported":1744708288,"current_range_meters":8000,"station_id":"ce4bhr92rcd13ifvqhrg","pricing_plan_id":"cebpf4jnsgd1na2vs0mg"},{"bike_id":"3499b34a-9c74-447e-aa25-db1795585b70","system_id":"levelo_inurba_marseille","lat":43.26558,"lon":5.37308,"is_reserved":false,"is_disabled":false,"rental_uris":{"android":"levelo://app?vid=3499b34a-9c74-447e-aa25-db1795585b70","ios":"levelo://app?vid=3499b34a-9c74-447e-aa25-db1795585b70"},"vehicle_type_id":"4","last_reported":1744708288,"current_range_meters":8000,"station_id":"ce4bhg12rcd13ifvqf70","pricing_plan_id":"cebpf4jnsgd1na2vs0mg"},{"bike_id":"2840dd03-7e3c-473f-8550-a29070d3bba2","system_id":"levelo_inurba_marseille","lat":43.29488,"lon":5.38275,"is_reserved":false,"is_disabled":false,"rental_uris":{"android":"levelo://app?vid=2840dd03-7e3c-473f-8550-a29070d3bba2","ios":"levelo://app?vid=2840dd03-7e3c-473f-8550-a29070d3bba2"},"vehicle_type_id":"4","last_reported":1744708288,"current_range_meters":8000,"station_id":"","pricing_plan_id":"cebpf4jnsgd1na2vs0mg"},{"bike_id":"f07728ba-90b2-4310-83fb-7ddced706373","system_id":"levelo_inurba_marseille","lat":43.31512,"lon":5.37284,"is_reserved":false,"is_disabled":false,"rental_uris":{"android":"levelo://app?vid=f07728ba-90b2-4310-83fb-7ddced706373","ios":"levelo://app?vid=f07728ba-90b2-4310-83fb-7ddced706373"},"vehicle_type_id":"4","last_reported":1744708288,"current_range_meters":8000,"station_id":"ce4bgt12rcd13ifvqcd0","pricing_plan_id":"cebpf4jnsgd1na2vs0mg"},{"bike_id":"b01669d7-2d66-484d-82ea-19a3e0f9443d","system_id":"levelo_inurba_marseille","lat":43.29195,"lon":5.39321,"is_reserved":false,"is_disabled":false,"rental_uris":{"android":"levelo://app?vid=b01669d7-2d66-484d-82ea-19a3e0f9443d","ios":"levelo://app?vid=b01669d7-2d66-484d-82ea-19a3e0f9443d"},"vehicle_type_id":"4","last_reported":1744708288,"current_range_meters":8400,"station_id":"ce4bh192rcd13ifvqdd0","pricing_plan_id":"cebpf4jnsgd1na2vs0mg"},{"bike_id":"2f93173f-d02c-4e29-ab59-1fff882697d7","system_id":"levelo_inurba_marseille","lat":43.24029,"lon":5.37756,"is_reserved":false,"is_disabled":false,"rental_uris":{"android":"levelo://app?vid=2f93173f-d02c-4e29-ab59-1fff882697d7","ios":"levelo://app?vid=2f93173f-d02c-4e29-ab59-1fff882697d7"},"vehicle_type_id":"4","last_reported":1744708288,"current_range_meters":8400,"station_id":"ce4bhnp2rcd13ifvqgvg","pricing_plan_id":"cebpf4jnsgd1na2vs0mg"},{"bike_id":"e41b72a9-93a0-4655-a0df-e475c334a263","system_id":"levelo_inurba_marseille","lat":43.29969,"lon":5.37166,"is_reserved":false,"is_disabled":false,"rental_uris":{"android":"levelo://app?vid=e41b72a9-93a0-4655-a0df-e475c334a263","ios":"levelo://app?vid=e41b72a9-93a0-4655-a0df-e475c334a263"},"vehicle_type_id":"4","last_reported":1744708288,"current_range_meters":8400,"station_id":"ce4bgr92rcd13ifvqc7g","pricing_plan_id":"cebpf4jnsgd1na2vs0mg"},{"bike_id":"cafdaa35-3beb-4a14-a80b-09c2c0b01b6f","system_id":"levelo_inurba_marseille","lat":43.337444,"lon":5.374475,"is_reserved":false,"is_disabled":false,"rental_uris":{"android":"levelo://app?vid=cafdaa35-3beb-4a14-a80b-09c2c0b01b6f","ios":"levelo://app?vid=cafdaa35-3beb-4a14-a80b-09c2c0b01b6f"},"vehicle_type_id":"4","last_reported":1744708288,"current_range_meters":8400,"station_id":"ce4bh512rcd13ifvqe2g","pricing_plan_id":"cebpf4jnsgd1na2vs0mg"},{"bike_id":"e911cd47-7ddc-4523-b20f-9c5e8afbcb5f","system_id":"levelo_inurba_marseille","lat":43.32549,"lon":5.41438,"is_reserved":false,"is_disabled":false,"rental_uris":{"android":"levelo://app?vid=e911cd47-7ddc-4523-b20f-9c5e8afbcb5f","ios":"levelo://app?vid=e911cd47-7ddc-4523-b20f-9c5e8afbcb5f"},"vehicle_type_id":"4","last_reported":1744708288,"current_range_meters":8400,"station_id":"ce4bhq12rcd13ifvqhhg","pricing_plan_id":"cebpf4jnsgd1na2vs0mg"},{"bike_id":"5de744d9-8c0c-438b-9bb4-542e375ad9a1","system_id":"levelo_inurba_marseille","lat":43.29896,"lon":5.39747,"is_reserved":false,"is_disabled":false,"rental_uris":{"android":"levelo://app?vid=5de744d9-8c0c-438b-9bb4-542e375ad9a1","ios":"levelo://app?vid=5de744d9-8c0c-438b-9bb4-542e375ad9a1"},"vehicle_type_id":"4","last_reported":1744708288,"current_range_meters":8800,"station_id":"ce4bh0h2rcd13ifvqd50","pricing_plan_id":"cebpf4jnsgd1na2vs0mg"},{"bike_id":"5a6a6a86-cfb8-4d24-b27b-efbe268c3ba2","system_id":"levelo_inurba_marseille","lat":43.29267,"lon":5.3761,"is_reserved":false,"is_disabled":false,"rental_uris":{"android":"levelo://app?vid=5a6a6a86-cfb8-4d24-b27b-efbe268c3ba2","ios":"levelo://app?vid=5a6a6a86-cfb8-4d24-b27b-efbe268c3ba2"},"vehicle_type_id":"4","last_reported":1744708288,"current_range_meters":8800,"station_id":"ce4bgi12rcd13ifvqb80","pricing_plan_id":"cebpf4jnsgd1na2vs0mg"},{"bike_id":"521ff293-089c-4d75-8412-a7493db9e608","system_id":"levelo_inurba_marseille","lat":43.28113,"lon":5.378083,"is_reserved":false,"is_disabled":false,"rental_uris":{"android":"levelo://app?vid=521ff293-089c-4d75-8412-a7493db9e608","ios":"levelo://app?vid=521ff293-089c-4d75-8412-a7493db9e608"},"vehicle_type_id":"4","last_reported":1744708288,"current_range_meters":8800,"station_id":"ce4bha12rcd13ifvqee0","pricing_plan_id":"cebpf4jnsgd1na2vs0mg"},{"bike_id":"d0735fad-f544-4cd2-b602-3ae6b053b951","system_id":"levelo_inurba_marseille","lat":43.25996,"lon":5.40974,"is_reserved":false,"is_disabled":false,"rental_uris":{"android":"levelo://app?vid=d0735fad-f544-4cd2-b602-3ae6b053b951","ios":"levelo://app?vid=d0735fad-f544-4cd2-b602-3ae6b053b951"},"vehicle_type_id":"4","last_reported":1744708288,"current_range_meters":8800,"station_id":"ce4bhm92rcd13ifvqglg","pricing_plan_id":"cebpf4jnsgd1na2vs0mg"},{"bike_id":"73f9de1b-fbcd-431e-8827-f934795f2656","system_id":"levelo_inurba_marseille","lat":43.23147,"lon":5.43715,"is_reserved":false,"is_disabled":false,"rental_uris":{"android":"levelo://app?vid=73f9de1b-fbcd-431e-8827-f934795f2656","ios":"levelo://app?vid=73f9de1b-fbcd-431e-8827-f934795f2656"},"vehicle_type_id":"4","last_reported":1744708288,"current_range_meters":8800,"station_id":"ce4bhmp2rcd13ifvqgog","pricing_plan_id":"cebpf4jnsgd1na2vs0mg"},{"bike_id":"ea4998e2-d633-4bbe-948a-afb46ce3b218","system_id":"levelo_inurba_marseille","lat":43.25926,"lon":5.40957,"is_reserved":false,"is_disabled":false,"rental_uris":{"android":"levelo://app?vid=ea4998e2-d633-4bbe-948a-afb46ce3b218","ios":"levelo://app?vid=ea4998e2-d633-4bbe-948a-afb46ce3b218"},"vehicle_type_id":"4","last_reported":1744708288,"current_range_meters":9200,"station_id":"ce4bhm92rcd13ifvqglg","pricing_plan_id":"cebpf4jnsgd1na2vs0mg"},{"bike_id":"2a138dd2-ed7c-4b47-84a2-22093b0e9154","system_id":"levelo_inurba_marseille","lat":43.26761,"lon":5.39398,"is_reserved":false,"is_disabled":false,"rental_uris":{"android":"levelo://app?vid=2a138dd2-ed7c-4b47-84a2-22093b0e9154","ios":"levelo://app?vid=2a138dd2-ed7c-4b47-84a2-22093b0e9154"},"vehicle_type_id":"4","last_reported":1744708288,"current_range_meters":9200,"station_id":"ce4bhh12rcd13ifvqfg0","pricing_plan_id":"cebpf4jnsgd1na2vs0mg"},{"bike_id":"2df2e25c-9d92-4db8-b72b-e67f881717b8","system_id":"levelo_inurba_marseille","lat":43.28692,"lon":5.37388,"is_reserved":false,"is_disabled":false,"rental_uris":{"android":"levelo://app?vid=2df2e25c-9d92-4db8-b72b-e67f881717b8","ios":"levelo://app?vid=2df2e25c-9d92-4db8-b72b-e67f881717b8"},"vehicle_type_id":"4","last_reported":1744708288,"current_range_meters":9600,"station_id":"ce4bh3p2rcd13ifvqdq0","pricing_plan_id":"cebpf4jnsgd1na2vs0mg"},{"bike_id":"ef734429-5e24-498b-98db-95ee16873a56","system_id":"levelo_inurba_marseille","lat":43.27067,"lon":5.42284,"is_reserved":false,"is_disabled":false,"rental_uris":{"android":"levelo://app?vid=ef734429-5e24-498b-98db-95ee16873a56","ios":"levelo://app?vid=ef734429-5e24-498b-98db-95ee16873a56"},"vehicle_type_id":"4","last_reported":1744708288,"current_range_meters":9600,"station_id":"ce4bhk92rcd13ifvqgb0","pricing_plan_id":"cebpf4jnsgd1na2vs0mg"},{"bike_id":"660d2eb3-0dca-4724-8d5d-ef301fa8b51b","system_id":"levelo_inurba_marseille","lat":43.33011,"lon":5.39034,"is_reserved":false,"is_disabled":false,"rental_uris":{"android":"levelo://app?vid=660d2eb3-0dca-4724-8d5d-ef301fa8b51b","ios":"levelo://app?vid=660d2eb3-0dca-4724-8d5d-ef301fa8b51b"},"vehicle_type_id":"4","last_reported":1744708288,"current_range_meters":9600,"station_id":"ce4bhr92rcd13ifvqhrg","pricing_plan_id":"cebpf4jnsgd1na2vs0mg"},{"bike_id":"cdfd2f80-bb6f-438e-9934-e61446d0cc78","system_id":"levelo_inurba_marseille","lat":43.2951,"lon":5.37497,"is_reserved":false,"is_disabled":false,"rental_uris":{"android":"levelo://app?vid=cdfd2f80-bb6f-438e-9934-e61446d0cc78","ios":"levelo://app?vid=cdfd2f80-bb6f-438e-9934-e61446d0cc78"},"vehicle_type_id":"4","last_reported":1744708288,"current_range_meters":9600,"station_id":"ce4bgkp2rcd13ifvqbmg","pricing_plan_id":"cebpf4jnsgd1na2vs0mg"},{"bike_id":"a12a4ca1-f810-4d74-a484-47aa7a760bde","system_id":"levelo_inurba_marseille","lat":43.27065,"lon":5.42271,"is_reserved":false,"is_disabled":false,"rental_uris":{"android":"levelo://app?vid=a12a4ca1-f810-4d74-a484-47aa7a760bde","ios":"levelo://app?vid=a12a4ca1-f810-4d74-a484-47aa7a760bde"},"vehicle_type_id":"4","last_reported":1744708288,"current_range_meters":9600,"station_id":"ce4bhk92rcd13ifvqgb0","pricing_plan_id":"cebpf4jnsgd1na2vs0mg"},{"bike_id":"450e9562-4765-4a66-b52f-eeb7f8dd4ae2","system_id":"levelo_inurba_marseille","lat":43.27378,"lon":5.36259,"is_reserved":false,"is_disabled":false,"rental_uris":{"android":"levelo://app?vid=450e9562-4765-4a66-b52f-eeb7f8dd4ae2","ios":"levelo://app?vid=450e9562-4765-4a66-b52f-eeb7f8dd4ae2"},"vehicle_type_id":"4","last_reported":1744708288,"current_range_meters":9600,"station_id":"ce4bhbh2rcd13ifvqeo0","pricing_plan_id":"cebpf4jnsgd1na2vs0mg"},{"bike_id":"5078f69c-7b8f-40ee-b319-543e77373099","system_id":"levelo_inurba_marseille","lat":43.25717,"lon":5.41113,"is_reserved":false,"is_disabled":false,"rental_uris":{"android":"levelo://app?vid=5078f69c-7b8f-40ee-b319-543e77373099","ios":"levelo://app?vid=5078f69c-7b8f-40ee-b319-543e77373099"},"vehicle_type_id":"4","last_reported":1744708288,"current_range_meters":9600,"station_id":"ce4bhkp2rcd13ifvqgd0","pricing_plan_id":"cebpf4jnsgd1na2vs0mg"},{"bike_id":"3ee3ff6c-25d2-430e-9d44-710c6a64d111","system_id":"levelo_inurba_marseille","lat":43.2316,"lon":5.43717,"is_reserved":false,"is_disabled":true,"rental_uris":{"android":"levelo://app?vid=3ee3ff6c-25d2-430e-9d44-710c6a64d111","ios":"levelo://app?vid=3ee3ff6c-25d2-430e-9d44-710c6a64d111"},"vehicle_type_id":"4","last_reported":1744708288,"current_range_meters":10000,"station_id":"ce4bhmp2rcd13ifvqgog","pricing_plan_id":"cebpf4jnsgd1na2vs0mg"},{"bike_id":"0e8e0d85-2932-4765-902a-4c3b14a3eac4","system_id":"levelo_inurba_marseille","lat":43.25638,"lon":5.37664,"is_reserved":false,"is_disabled":false,"rental_uris":{"android":"levelo://app?vid=0e8e0d85-2932-4765-902a-4c3b14a3eac4","ios":"levelo://app?vid=0e8e0d85-2932-4765-902a-4c3b14a3eac4"},"vehicle_type_id":"4","last_reported":1744708288,"current_range_meters":10000,"station_id":"","pricing_plan_id":"cebpf4jnsgd1na2vs0mg"},{"bike_id":"27a55245-8dd2-4f1a-af63-95a9d7b71690","system_id":"levelo_inurba_marseille","lat":43.31084,"lon":5.37849,"is_reserved":false,"is_disabled":false,"rental_uris":{"android":"levelo://app?vid=27a55245-8dd2-4f1a-af63-95a9d7b71690","ios":"levelo://app?vid=27a55245-8dd2-4f1a-af63-95a9d7b71690"},"vehicle_type_id":"4","last_reported":1744708288,"current_range_meters":10000,"station_id":"","pricing_plan_id":"cebpf4jnsgd1na2vs0mg"},{"bike_id":"66b60e96-2e4e-4940-beb6-0cf38c8f489c","system_id":"levelo_inurba_marseille","lat":43.29608,"lon":5.37607,"is_reserved":false,"is_disabled":false,"rental_uris":{"android":"levelo://app?vid=66b60e96-2e4e-4940-beb6-0cf38c8f489c","ios":"levelo://app?vid=66b60e96-2e4e-4940-beb6-0cf38c8f489c"},"vehicle_type_id":"4","last_reported":1744708288,"current_range_meters":10800,"station_id":"ce4bgi92rcd13ifvqb90","pricing_plan_id":"cebpf4jnsgd1na2vs0mg"},{"bike_id":"00b47cc3-7fd6-4cc8-8abb-d73a4c9944e4","system_id":"levelo_inurba_marseille","lat":43.30552,"lon":5.3657,"is_reserved":false,"is_disabled":false,"rental_uris":{"android":"levelo://app?vid=00b47cc3-7fd6-4cc8-8abb-d73a4c9944e4","ios":"levelo://app?vid=00b47cc3-7fd6-4cc8-8abb-d73a4c9944e4"},"vehicle_type_id":"4","last_reported":1744708288,"current_range_meters":11200,"station_id":"ce4bgs12rcd13ifvqcag","pricing_plan_id":"cebpf4jnsgd1na2vs0mg"},{"bike_id":"a6b4f83f-3821-43df-a2af-8379d5ea08cc","system_id":"levelo_inurba_marseille","lat":43.30314,"lon":5.36907,"is_reserved":false,"is_disabled":false,"rental_uris":{"android":"levelo://app?vid=a6b4f83f-3821-43df-a2af-8379d5ea08cc","ios":"levelo://app?vid=a6b4f83f-3821-43df-a2af-8379d5ea08cc"},"vehicle_type_id":"4","last_reported":1744708288,"current_range_meters":11200,"station_id":"ce4bgqh2rcd13ifvqc5g","pricing_plan_id":"cebpf4jnsgd1na2vs0mg"},{"bike_id":"45152fd8-c07c-4d52-b7a7-6670add35e00","system_id":"levelo_inurba_marseille","lat":43.261,"lon":5.42077,"is_reserved":false,"is_disabled":false,"rental_uris":{"android":"levelo://app?vid=45152fd8-c07c-4d52-b7a7-6670add35e00","ios":"levelo://app?vid=45152fd8-c07c-4d52-b7a7-6670add35e00"},"vehicle_type_id":"4","last_reported":1744708288,"current_range_meters":11200,"station_id":"","pricing_plan_id":"cebpf4jnsgd1na2vs0mg"},{"bike_id":"93676aa8-d320-4c2d-8b07-a119495392e0","system_id":"levelo_inurba_marseille","lat":43.30353,"lon":5.37001,"is_reserved":false,"is_disabled":false,"rental_uris":{"android":"levelo://app?vid=93676aa8-d320-4c2d-8b07-a119495392e0","ios":"levelo://app?vid=93676aa8-d320-4c2d-8b07-a119495392e0"},"vehicle_type_id":"4","last_reported":1744708288,"current_range_meters":11600,"station_id":"ce4bgqh2rcd13ifvqc5g","pricing_plan_id":"cebpf4jnsgd1na2vs0mg"},{"bike_id":"9050bcb2-4fea-4bae-b3fe-93394c76bda1","system_id":"levelo_inurba_marseille","lat":43.317143,"lon":5.40473,"is_reserved":false,"is_disabled":true,"rental_uris":{"android":"levelo://app?vid=9050bcb2-4fea-4bae-b3fe-93394c76bda1","ios":"levelo://app?vid=9050bcb2-4fea-4bae-b3fe-93394c76bda1"},"vehicle_type_id":"4","last_reported":1744708288,"current_range_meters":11600,"station_id":"ce4bh012rcd13ifvqd00","pricing_plan_id":"cebpf4jnsgd1na2vs0mg"},{"bike_id":"501a05b3-ca7c-45c0-899d-d2e7e7f1a1d7","system_id":"levelo_inurba_marseille","lat":43.30945,"lon":5.39036,"is_reserved":false,"is_disabled":false,"rental_uris":{"android":"levelo://app?vid=501a05b3-ca7c-45c0-899d-d2e7e7f1a1d7","ios":"levelo://app?vid=501a05b3-ca7c-45c0-899d-d2e7e7f1a1d7"},"vehicle_type_id":"4","last_reported":1744708288,"current_range_meters":11600,"station_id":"ce4bgup2rcd13ifvqco0","pricing_plan_id":"cebpf4jnsgd1na2vs0mg"},{"bike_id":"cd0b1599-391e-48ba-9f63-bde76c915311","system_id":"levelo_inurba_marseille","lat":43.29095,"lon":5.38145,"is_reserved":false,"is_disabled":false,"rental_uris":{"android":"levelo://app?vid=cd0b1599-391e-48ba-9f63-bde76c915311","ios":"levelo://app?vid=cd0b1599-391e-48ba-9f63-bde76c915311"},"vehicle_type_id":"4","last_reported":1744708288,"current_range_meters":11600,"station_id":"ce4bh512rcd13ifvqe2g","pricing_plan_id":"cebpf4jnsgd1na2vs0mg"},{"bike_id":"4810a73d-5efd-4bc0-84ba-716d51691df5","system_id":"levelo_inurba_marseille","lat":43.24173,"lon":5.39733,"is_reserved":false,"is_disabled":false,"rental_uris":{"android":"levelo://app?vid=4810a73d-5efd-4bc0-84ba-716d51691df5","ios":"levelo://app?vid=4810a73d-5efd-4bc0-84ba-716d51691df5"},"vehicle_type_id":"4","last_reported":1744708288,"current_range_meters":12400,"station_id":"ce4bhn12rcd13ifvqgpg","pricing_plan_id":"cebpf4jnsgd1na2vs0mg"},{"bike_id":"217912bd-8d07-4f19-8b5a-a5148beda9e5","system_id":"levelo_inurba_marseille","lat":43.27948,"lon":5.41054,"is_reserved":false,"is_disabled":false,"rental_uris":{"android":"levelo://app?vid=217912bd-8d07-4f19-8b5a-a5148beda9e5","ios":"levelo://app?vid=217912bd-8d07-4f19-8b5a-a5148beda9e5"},"vehicle_type_id":"4","last_reported":1744708288,"current_range_meters":12400,"station_id":"ce4bhnp2rcd13ifvqh0g","pricing_plan_id":"cebpf4jnsgd1na2vs0mg"},{"bike_id":"37342bdf-d586-43ba-a25b-da22b3393da6","system_id":"levelo_inurba_marseille","lat":43.29151,"lon":5.37498,"is_reserved":false,"is_disabled":false,"rental_uris":{"android":"levelo://app?vid=37342bdf-d586-43ba-a25b-da22b3393da6","ios":"levelo://app?vid=37342bdf-d586-43ba-a25b-da22b3393da6"},"vehicle_type_id":"4","last_reported":1744708288,"current_range_meters":12400,"station_id":"","pricing_plan_id":"cebpf4jnsgd1na2vs0mg"},{"bike_id":"08a3502b-3657-4c6d-a73b-d171b63a339a","system_id":"levelo_inurba_marseille","lat":43.29373,"lon":5.37857,"is_reserved":false,"is_disabled":false,"rental_uris":{"android":"levelo://app?vid=08a3502b-3657-4c6d-a73b-d171b63a339a","ios":"levelo://app?vid=08a3502b-3657-4c6d-a73b-d171b63a339a"},"vehicle_type_id":"4","last_reported":1744708288,"current_range_meters":16800,"station_id":"ce4bgjh2rcd13ifvqbf0","pricing_plan_id":"cebpf4jnsgd1na2vs0mg"},{"bike_id":"dfbd81c5-bab9-45ff-88b1-4ffe35412cad","system_id":"levelo_inurba_marseille","lat":43.2315,"lon":5.43713,"is_reserved":false,"is_disabled":false,"rental_uris":{"android":"levelo://app?vid=dfbd81c5-bab9-45ff-88b1-4ffe35412cad","ios":"levelo://app?vid=dfbd81c5-bab9-45ff-88b1-4ffe35412cad"},"vehicle_type_id":"4","last_reported":1744708288,"current_range_meters":12800,"station_id":"ce4bhmp2rcd13ifvqgog","pricing_plan_id":"cebpf4jnsgd1na2vs0mg"},{"bike_id":"129e1c37-93e9-483a-b799-a451e622173f","system_id":"levelo_inurba_marseille","lat":43.296216,"lon":5.37115,"is_reserved":false,"is_disabled":false,"rental_uris":{"android":"levelo://app?vid=129e1c37-93e9-483a-b799-a451e622173f","ios":"levelo://app?vid=129e1c37-93e9-483a-b799-a451e622173f"},"vehicle_type_id":"4","last_reported":1744708288,"current_range_meters":13600,"station_id":"ce4bgnh2rcd13ifvqc0g","pricing_plan_id":"cebpf4jnsgd1na2vs0mg"},{"bike_id":"b9fc8cc3-945a-4db5-b7aa-66d235d9bf40","system_id":"levelo_inurba_marseille","lat":43.30892,"lon":5.3719,"is_reserved":false,"is_disabled":false,"rental_uris":{"android":"levelo://app?vid=b9fc8cc3-945a-4db5-b7aa-66d235d9bf40","ios":"levelo://app?vid=b9fc8cc3-945a-4db5-b7aa-66d235d9bf40"},"vehicle_type_id":"4","last_reported":1744708288,"current_range_meters":13600,"station_id":"ce4bguh2rcd13ifvqckg","pricing_plan_id":"cebpf4jnsgd1na2vs0mg"},{"bike_id":"33941653-45a7-4a37-8a83-b97caee3c9aa","system_id":"levelo_inurba_marseille","lat":43.27067,"lon":5.40258,"is_reserved":false,"is_disabled":false,"rental_uris":{"android":"levelo://app?vid=33941653-45a7-4a37-8a83-b97caee3c9aa","ios":"levelo://app?vid=33941653-45a7-4a37-8a83-b97caee3c9aa"},"vehicle_type_id":"4","last_reported":1744708288,"current_range_meters":13600,"station_id":"ce4bhk92rcd13ifvqgc0","pricing_plan_id":"cebpf4jnsgd1na2vs0mg"},{"bike_id":"fa218cd2-05f9-4e1f-bce6-3a3935e97060","system_id":"levelo_inurba_marseille","lat":43.31282,"lon":5.40147,"is_reserved":false,"is_disabled":false,"rental_uris":{"android":"levelo://app?vid=fa218cd2-05f9-4e1f-bce6-3a3935e97060","ios":"levelo://app?vid=fa218cd2-05f9-4e1f-bce6-3a3935e97060"},"vehicle_type_id":"4","last_reported":1744708288,"current_range_meters":13600,"station_id":"ce4bh092rcd13ifvqd30","pricing_plan_id":"cebpf4jnsgd1na2vs0mg"},{"bike_id":"5c0cc5dd-7c03-4f8b-838c-65a8bfb31b5b","system_id":"levelo_inurba_marseille","lat":43.24657,"lon":5.38162,"is_reserved":false,"is_disabled":false,"rental_uris":{"android":"levelo://app?vid=5c0cc5dd-7c03-4f8b-838c-65a8bfb31b5b","ios":"levelo://app?vid=5c0cc5dd-7c03-4f8b-838c-65a8bfb31b5b"},"vehicle_type_id":"4","last_reported":1744708288,"current_range_meters":14000,"station_id":"ce4bhih2rcd13ifvqfr0","pricing_plan_id":"cebpf4jnsgd1na2vs0mg"},{"bike_id":"66a41032-2263-4bae-bc19-d2166e389a02","system_id":"levelo_inurba_marseille","lat":43.30601,"lon":5.37226,"is_reserved":false,"is_disabled":false,"rental_uris":{"android":"levelo://app?vid=66a41032-2263-4bae-bc19-d2166e389a02","ios":"levelo://app?vid=66a41032-2263-4bae-bc19-d2166e389a02"},"vehicle_type_id":"4","last_reported":1744708288,"current_range_meters":14000,"station_id":"ce4bgqh2rcd13ifvqc4g","pricing_plan_id":"cebpf4jnsgd1na2vs0mg"},{"bike_id":"3139349f-1379-4df2-8297-a01312e539f2","system_id":"levelo_inurba_marseille","lat":43.32104,"lon":5.36763,"is_reserved":false,"is_disabled":false,"rental_uris":{"android":"levelo://app?vid=3139349f-1379-4df2-8297-a01312e539f2","ios":"levelo://app?vid=3139349f-1379-4df2-8297-a01312e539f2"},"vehicle_type_id":"4","last_reported":1744708288,"current_range_meters":14000,"station_id":"ce4bhrh2rcd13ifvqhug","pricing_plan_id":"cebpf4jnsgd1na2vs0mg"},{"bike_id":"26d4fa93-54b0-4473-9760-9f2576287a6c","system_id":"levelo_inurba_marseille","lat":43.29604,"lon":5.38102,"is_reserved":false,"is_disabled":false,"rental_uris":{"android":"levelo://app?vid=26d4fa93-54b0-4473-9760-9f2576287a6c","ios":"levelo://app?vid=26d4fa93-54b0-4473-9760-9f2576287a6c"},"vehicle_type_id":"4","last_reported":1744708288,"current_range_meters":14400,"station_id":"ce4bgl12rcd13ifvqbo0","pricing_plan_id":"cebpf4jnsgd1na2vs0mg"},{"bike_id":"d2d37f01-fa46-4fbc-a721-7789f4003663","system_id":"levelo_inurba_marseille","lat":43.24964,"lon":5.38945,"is_reserved":false,"is_disabled":false,"rental_uris":{"android":"levelo://app?vid=d2d37f01-fa46-4fbc-a721-7789f4003663","ios":"levelo://app?vid=d2d37f01-fa46-4fbc-a721-7789f4003663"},"vehicle_type_id":"4","last_reported":1744708288,"current_range_meters":14400,"station_id":"","pricing_plan_id":"cebpf4jnsgd1na2vs0mg"},{"bike_id":"192632e2-2665-465c-9c1c-47eaef1fd2bb","system_id":"levelo_inurba_marseille","lat":43.33605,"lon":5.41027,"is_reserved":false,"is_disabled":false,"rental_uris":{"android":"levelo://app?vid=192632e2-2665-465c-9c1c-47eaef1fd2bb","ios":"levelo://app?vid=192632e2-2665-465c-9c1c-47eaef1fd2bb"},"vehicle_type_id":"4","last_reported":1744708288,"current_range_meters":14400,"station_id":"ce4bhqh2rcd13ifvqhmg","pricing_plan_id":"cebpf4jnsgd1na2vs0mg"},{"bike_id":"818ffa81-12ca-4052-bb3f-a41385a71a22","system_id":"levelo_inurba_marseille","lat":43.29799,"lon":5.40392,"is_reserved":false,"is_disabled":false,"rental_uris":{"android":"levelo://app?vid=818ffa81-12ca-4052-bb3f-a41385a71a22","ios":"levelo://app?vid=818ffa81-12ca-4052-bb3f-a41385a71a22"},"vehicle_type_id":"4","last_reported":1744708288,"current_range_meters":14400,"station_id":"ce4bh112rcd13ifvqd90","pricing_plan_id":"cebpf4jnsgd1na2vs0mg"},{"bike_id":"8a1fc1b6-9ba8-4eaa-8806-e8628dd9fd73","system_id":"levelo_inurba_marseille","lat":43.27332,"lon":5.41281,"is_reserved":false,"is_disabled":false,"rental_uris":{"android":"levelo://app?vid=8a1fc1b6-9ba8-4eaa-8806-e8628dd9fd73","ios":"levelo://app?vid=8a1fc1b6-9ba8-4eaa-8806-e8628dd9fd73"},"vehicle_type_id":"4","last_reported":1744708288,"current_range_meters":14400,"station_id":"","pricing_plan_id":"cebpf4jnsgd1na2vs0mg"},{"bike_id":"47a85634-40b2-4bd1-8409-1d1cf2f06bdc","system_id":"levelo_inurba_marseille","lat":43.24061,"lon":5.37782,"is_reserved":false,"is_disabled":false,"rental_uris":{"android":"levelo://app?vid=47a85634-40b2-4bd1-8409-1d1cf2f06bdc","ios":"levelo://app?vid=47a85634-40b2-4bd1-8409-1d1cf2f06bdc"},"vehicle_type_id":"4","last_reported":1744708288,"current_range_meters":14800,"station_id":"ce4bhnp2rcd13ifvqgvg","pricing_plan_id":"cebpf4jnsgd1na2vs0mg"},{"bike_id":"e298fb17-60fe-4ee1-bc94-645f9b8b1bb4","system_id":"levelo_inurba_marseille","lat":43.28993,"lon":5.37614,"is_reserved":false,"is_disabled":false,"rental_uris":{"android":"levelo://app?vid=e298fb17-60fe-4ee1-bc94-645f9b8b1bb4","ios":"levelo://app?vid=e298fb17-60fe-4ee1-bc94-645f9b8b1bb4"},"vehicle_type_id":"4","last_reported":1744708288,"current_range_meters":14800,"station_id":"","pricing_plan_id":"cebpf4jnsgd1na2vs0mg"},{"bike_id":"a3a352f8-2334-4078-801b-27594460d62d","system_id":"levelo_inurba_marseille","lat":43.24185,"lon":5.39726,"is_reserved":false,"is_disabled":false,"rental_uris":{"android":"levelo://app?vid=a3a352f8-2334-4078-801b-27594460d62d","ios":"levelo://app?vid=a3a352f8-2334-4078-801b-27594460d62d"},"vehicle_type_id":"4","last_reported":1744708288,"current_range_meters":15200,"station_id":"ce4bhn12rcd13ifvqgpg","pricing_plan_id":"cebpf4jnsgd1na2vs0mg"},{"bike_id":"fccaee15-ed38-41df-92ba-57362d80a9a2","system_id":"levelo_inurba_marseille","lat":43.30565,"lon":5.36529,"is_reserved":false,"is_disabled":false,"rental_uris":{"android":"levelo://app?vid=fccaee15-ed38-41df-92ba-57362d80a9a2","ios":"levelo://app?vid=fccaee15-ed38-41df-92ba-57362d80a9a2"},"vehicle_type_id":"4","last_reported":1744708288,"current_range_meters":15200,"station_id":"ce4bgs12rcd13ifvqcag","pricing_plan_id":"cebpf4jnsgd1na2vs0mg"},{"bike_id":"c9fbfbd0-ac82-410e-8a58-1795989b1898","system_id":"levelo_inurba_marseille","lat":43.30475,"lon":5.37901,"is_reserved":false,"is_disabled":false,"rental_uris":{"android":"levelo://app?vid=c9fbfbd0-ac82-410e-8a58-1795989b1898","ios":"levelo://app?vid=c9fbfbd0-ac82-410e-8a58-1795989b1898"},"vehicle_type_id":"4","last_reported":1744708288,"current_range_meters":15200,"station_id":"ce4bgup2rcd13ifvqcn0","pricing_plan_id":"cebpf4jnsgd1na2vs0mg"},{"bike_id":"690344b0-9f80-484a-9c0a-0cb50bc24e58","system_id":"levelo_inurba_marseille","lat":43.31502,"lon":5.37295,"is_reserved":false,"is_disabled":false,"rental_uris":{"android":"levelo://app?vid=690344b0-9f80-484a-9c0a-0cb50bc24e58","ios":"levelo://app?vid=690344b0-9f80-484a-9c0a-0cb50bc24e58"},"vehicle_type_id":"4","last_reported":1744708288,"current_range_meters":15200,"station_id":"ce4bgt12rcd13ifvqcd0","pricing_plan_id":"cebpf4jnsgd1na2vs0mg"},{"bike_id":"4e50b3a9-0fb8-4b49-a8ed-c5a6a805de77","system_id":"levelo_inurba_marseille","lat":43.27324,"lon":5.39077,"is_reserved":false,"is_disabled":false,"rental_uris":{"android":"levelo://app?vid=4e50b3a9-0fb8-4b49-a8ed-c5a6a805de77","ios":"levelo://app?vid=4e50b3a9-0fb8-4b49-a8ed-c5a6a805de77"},"vehicle_type_id":"4","last_reported":1744708288,"current_range_meters":16000,"station_id":"ce4bhgp2rcd13ifvqfe0","pricing_plan_id":"cebpf4jnsgd1na2vs0mg"},{"bike_id":"d554e03d-9412-40b8-b2f0-b47a9f259332","system_id":"levelo_inurba_marseille","lat":43.30455,"lon":5.37906,"is_reserved":false,"is_disabled":false,"rental_uris":{"android":"levelo://app?vid=d554e03d-9412-40b8-b2f0-b47a9f259332","ios":"levelo://app?vid=d554e03d-9412-40b8-b2f0-b47a9f259332"},"vehicle_type_id":"4","last_reported":1744708288,"current_range_meters":16000,"station_id":"ce4bgup2rcd13ifvqcn0","pricing_plan_id":"cebpf4jnsgd1na2vs0mg"},{"bike_id":"e33b7047-9512-4b04-862d-afc599620999","system_id":"levelo_inurba_marseille","lat":43.27073,"lon":5.40258,"is_reserved":false,"is_disabled":false,"rental_uris":{"android":"levelo://app?vid=e33b7047-9512-4b04-862d-afc599620999","ios":"levelo://app?vid=e33b7047-9512-4b04-862d-afc599620999"},"vehicle_type_id":"4","last_reported":1744708288,"current_range_meters":16000,"station_id":"ce4bhk92rcd13ifvqgc0","pricing_plan_id":"cebpf4jnsgd1na2vs0mg"},{"bike_id":"77037b3f-050a-4708-b85e-3feee4d6225d","system_id":"levelo_inurba_marseille","lat":43.30458,"lon":5.37915,"is_reserved":false,"is_disabled":false,"rental_uris":{"android":"levelo://app?vid=77037b3f-050a-4708-b85e-3feee4d6225d","ios":"levelo://app?vid=77037b3f-050a-4708-b85e-3feee4d6225d"},"vehicle_type_id":"4","last_reported":1744708288,"current_range_meters":16000,"station_id":"ce4bgup2rcd13ifvqcn0","pricing_plan_id":"cebpf4jnsgd1na2vs0mg"},{"bike_id":"491e8480-a084-401d-bc5f-1c8499b4566d","system_id":"levelo_inurba_marseille","lat":43.2594,"lon":5.4089,"is_reserved":false,"is_disabled":false,"rental_uris":{"android":"levelo://app?vid=491e8480-a084-401d-bc5f-1c8499b4566d","ios":"levelo://app?vid=491e8480-a084-401d-bc5f-1c8499b4566d"},"vehicle_type_id":"4","last_reported":1744708288,"current_range_meters":16000,"station_id":"ce4bhm92rcd13ifvqglg","pricing_plan_id":"cebpf4jnsgd1na2vs0mg"},{"bike_id":"4b3747ad-70b8-45b3-a21f-9645dba15850","system_id":"levelo_inurba_marseille","lat":43.25924,"lon":5.40892,"is_reserved":false,"is_disabled":false,"rental_uris":{"android":"levelo://app?vid=4b3747ad-70b8-45b3-a21f-9645dba15850","ios":"levelo://app?vid=4b3747ad-70b8-45b3-a21f-9645dba15850"},"vehicle_type_id":"4","last_reported":1744708288,"current_range_meters":16000,"station_id":"ce4bhm92rcd13ifvqglg","pricing_plan_id":"cebpf4jnsgd1na2vs0mg"},{"bike_id":"415db733-f514-4806-a29d-91dddd76fe1c","system_id":"levelo_inurba_marseille","lat":43.30313,"lon":5.36898,"is_reserved":false,"is_disabled":false,"rental_uris":{"android":"levelo://app?vid=415db733-f514-4806-a29d-91dddd76fe1c","ios":"levelo://app?vid=415db733-f514-4806-a29d-91dddd76fe1c"},"vehicle_type_id":"4","last_reported":1744708288,"current_range_meters":16400,"station_id":"ce4bgqh2rcd13ifvqc5g","pricing_plan_id":"cebpf4jnsgd1na2vs0mg"},{"bike_id":"7b504d01-099b-4634-b191-543e380f75b8","system_id":"levelo_inurba_marseille","lat":43.25009,"lon":5.38914,"is_reserved":false,"is_disabled":false,"rental_uris":{"android":"levelo://app?vid=7b504d01-099b-4634-b191-543e380f75b8","ios":"levelo://app?vid=7b504d01-099b-4634-b191-543e380f75b8"},"vehicle_type_id":"4","last_reported":1744708288,"current_range_meters":16400,"station_id":"ce4bhgp2rcd13ifvqfd0","pricing_plan_id":"cebpf4jnsgd1na2vs0mg"},{"bike_id":"ca3ed96a-b978-41a2-ad67-52c82f96c072","system_id":"levelo_inurba_marseille","lat":43.29986,"lon":5.37183,"is_reserved":false,"is_disabled":false,"rental_uris":{"android":"levelo://app?vid=ca3ed96a-b978-41a2-ad67-52c82f96c072","ios":"levelo://app?vid=ca3ed96a-b978-41a2-ad67-52c82f96c072"},"vehicle_type_id":"4","last_reported":1744708288,"current_range_meters":16400,"station_id":"ce4bgr92rcd13ifvqc7g","pricing_plan_id":"cebpf4jnsgd1na2vs0mg"},{"bike_id":"edeb31da-c7df-42c5-8538-462c9290a386","system_id":"levelo_inurba_marseille","lat":43.33021,"lon":5.39047,"is_reserved":false,"is_disabled":false,"rental_uris":{"android":"levelo://app?vid=edeb31da-c7df-42c5-8538-462c9290a386","ios":"levelo://app?vid=edeb31da-c7df-42c5-8538-462c9290a386"},"vehicle_type_id":"4","last_reported":1744708288,"current_range_meters":16400,"station_id":"ce4bhr92rcd13ifvqhrg","pricing_plan_id":"cebpf4jnsgd1na2vs0mg"},{"bike_id":"7eacb872-0584-4b06-8fad-feb612d3799a","system_id":"levelo_inurba_marseille","lat":43.29703,"lon":5.38145,"is_reserved":false,"is_disabled":false,"rental_uris":{"android":"levelo://app?vid=7eacb872-0584-4b06-8fad-feb612d3799a","ios":"levelo://app?vid=7eacb872-0584-4b06-8fad-feb612d3799a"},"vehicle_type_id":"4","last_reported":1744708288,"current_range_meters":16400,"station_id":"","pricing_plan_id":"cebpf4jnsgd1na2vs0mg"},{"bike_id":"574fe5f8-0af6-4aaf-a7c1-66e11785e1ce","system_id":"levelo_inurba_marseille","lat":43.30469,"lon":5.37898,"is_reserved":false,"is_disabled":false,"rental_uris":{"android":"levelo://app?vid=574fe5f8-0af6-4aaf-a7c1-66e11785e1ce","ios":"levelo://app?vid=574fe5f8-0af6-4aaf-a7c1-66e11785e1ce"},"vehicle_type_id":"4","last_reported":1744708288,"current_range_meters":16400,"station_id":"ce4bgup2rcd13ifvqcn0","pricing_plan_id":"cebpf4jnsgd1na2vs0mg"},{"bike_id":"96f67fc3-1d8d-4e0e-b60a-683312315db0","system_id":"levelo_inurba_marseille","lat":43.31353,"lon":5.36722,"is_reserved":false,"is_disabled":false,"rental_uris":{"android":"levelo://app?vid=96f67fc3-1d8d-4e0e-b60a-683312315db0","ios":"levelo://app?vid=96f67fc3-1d8d-4e0e-b60a-683312315db0"},"vehicle_type_id":"4","last_reported":1744708288,"current_range_meters":16400,"station_id":"ce4bgr92rcd13ifvqc6g","pricing_plan_id":"cebpf4jnsgd1na2vs0mg"},{"bike_id":"6b5b8e18-66bf-409c-b1dd-ee755eb7ed4b","system_id":"levelo_inurba_marseille","lat":43.30902,"lon":5.37185,"is_reserved":false,"is_disabled":false,"rental_uris":{"android":"levelo://app?vid=6b5b8e18-66bf-409c-b1dd-ee755eb7ed4b","ios":"levelo://app?vid=6b5b8e18-66bf-409c-b1dd-ee755eb7ed4b"},"vehicle_type_id":"4","last_reported":1744708288,"current_range_meters":16400,"station_id":"ce4bguh2rcd13ifvqckg","pricing_plan_id":"cebpf4jnsgd1na2vs0mg"},{"bike_id":"d37baba7-ee45-485a-a3e0-c76cb6429c84","system_id":"levelo_inurba_marseille","lat":43.30136,"lon":5.37427,"is_reserved":false,"is_disabled":false,"rental_uris":{"android":"levelo://app?vid=d37baba7-ee45-485a-a3e0-c76cb6429c84","ios":"levelo://app?vid=d37baba7-ee45-485a-a3e0-c76cb6429c84"},"vehicle_type_id":"4","last_reported":1744708288,"current_range_meters":16800,"station_id":"ce4bgs92rcd13ifvqcc0","pricing_plan_id":"cebpf4jnsgd1na2vs0mg"},{"bike_id":"3962979e-5505-4a7c-ad39-4236847e597c","system_id":"levelo_inurba_marseille","lat":43.29938,"lon":5.36546,"is_reserved":false,"is_disabled":false,"rental_uris":{"android":"levelo://app?vid=3962979e-5505-4a7c-ad39-4236847e597c","ios":"levelo://app?vid=3962979e-5505-4a7c-ad39-4236847e597c"},"vehicle_type_id":"4","last_reported":1744708288,"current_range_meters":16800,"station_id":"ce4bgm92rcd13ifvqbr0","pricing_plan_id":"cebpf4jnsgd1na2vs0mg"},{"bike_id":"3ada1055-7c3e-4410-8758-882eb88ad0ba","system_id":"levelo_inurba_marseille","lat":43.26682,"lon":5.38264,"is_reserved":false,"is_disabled":false,"rental_uris":{"android":"levelo://app?vid=3ada1055-7c3e-4410-8758-882eb88ad0ba","ios":"levelo://app?vid=3ada1055-7c3e-4410-8758-882eb88ad0ba"},"vehicle_type_id":"4","last_reported":1744708288,"current_range_meters":16800,"station_id":"ce4bhg92rcd13ifvqf90","pricing_plan_id":"cebpf4jnsgd1na2vs0mg"},{"bike_id":"4aef0fa6-a0da-4fa2-9099-9fa1ba81c16a","system_id":"levelo_inurba_marseille","lat":43.281634,"lon":5.404409,"is_reserved":false,"is_disabled":false,"rental_uris":{"android":"levelo://app?vid=4aef0fa6-a0da-4fa2-9099-9fa1ba81c16a","ios":"levelo://app?vid=4aef0fa6-a0da-4fa2-9099-9fa1ba81c16a"},"vehicle_type_id":"4","last_reported":1744708288,"current_range_meters":16800,"station_id":"","pricing_plan_id":"cebpf4jnsgd1na2vs0mg"},{"bike_id":"c8d24df4-b09f-432c-8af3-427efe4ed90b","system_id":"levelo_inurba_marseille","lat":43.30469,"lon":5.36701,"is_reserved":false,"is_disabled":false,"rental_uris":{"android":"levelo://app?vid=c8d24df4-b09f-432c-8af3-427efe4ed90b","ios":"levelo://app?vid=c8d24df4-b09f-432c-8af3-427efe4ed90b"},"vehicle_type_id":"4","last_reported":1744708288,"current_range_meters":16800,"station_id":"","pricing_plan_id":"cebpf4jnsgd1na2vs0mg"},{"bike_id":"2caebf1c-7dd1-4d93-97aa-8cb87eccf6d4","system_id":"levelo_inurba_marseille","lat":43.31095,"lon":5.42441,"is_reserved":false,"is_disabled":false,"rental_uris":{"android":"levelo://app?vid=2caebf1c-7dd1-4d93-97aa-8cb87eccf6d4","ios":"levelo://app?vid=2caebf1c-7dd1-4d93-97aa-8cb87eccf6d4"},"vehicle_type_id":"4","last_reported":1744708288,"current_range_meters":16800,"station_id":"ce4bhp92rcd13ifvqhag","pricing_plan_id":"cebpf4jnsgd1na2vs0mg"},{"bike_id":"2099a43f-8503-45f2-b884-0d67c8402eb0","system_id":"levelo_inurba_marseille","lat":43.29615,"lon":5.37729,"is_reserved":false,"is_disabled":true,"rental_uris":{"android":"levelo://app?vid=2099a43f-8503-45f2-b884-0d67c8402eb0","ios":"levelo://app?vid=2099a43f-8503-45f2-b884-0d67c8402eb0"},"vehicle_type_id":"4","last_reported":1744708288,"current_range_meters":16800,"station_id":"ce4bgi92rcd13ifvqb90","pricing_plan_id":"cebpf4jnsgd1na2vs0mg"},{"bike_id":"6d0b2b73-64d5-4133-84c0-01e3714092f5","system_id":"levelo_inurba_marseille","lat":43.28164,"lon":5.42648,"is_reserved":false,"is_disabled":false,"rental_uris":{"android":"levelo://app?vid=6d0b2b73-64d5-4133-84c0-01e3714092f5","ios":"levelo://app?vid=6d0b2b73-64d5-4133-84c0-01e3714092f5"},"vehicle_type_id":"4","last_reported":1744708288,"current_range_meters":16800,"station_id":"ce4bhnh2rcd13ifvqgug","pricing_plan_id":"cebpf4jnsgd1na2vs0mg"},{"bike_id":"013a924c-1ee5-4674-a305-ba7bd5a1d58b","system_id":"levelo_inurba_marseille","lat":43.23075,"lon":5.35481,"is_reserved":false,"is_disabled":false,"rental_uris":{"android":"levelo://app?vid=013a924c-1ee5-4674-a305-ba7bd5a1d58b","ios":"levelo://app?vid=013a924c-1ee5-4674-a305-ba7bd5a1d58b"},"vehicle_type_id":"4","last_reported":1744708288,"current_range_meters":17200,"station_id":"cpo3342slgdg3j2ifvpg","pricing_plan_id":"cebpf4jnsgd1na2vs0mg"},{"bike_id":"da4f99a3-f365-456b-92c1-13efef41cb18","system_id":"levelo_inurba_marseille","lat":43.32474,"lon":5.36552,"is_reserved":false,"is_disabled":false,"rental_uris":{"android":"levelo://app?vid=da4f99a3-f365-456b-92c1-13efef41cb18","ios":"levelo://app?vid=da4f99a3-f365-456b-92c1-13efef41cb18"},"vehicle_type_id":"4","last_reported":1744708288,"current_range_meters":17200,"station_id":"ce4bhs12rcd13ifvqhvg","pricing_plan_id":"cebpf4jnsgd1na2vs0mg"},{"bike_id":"751595e2-0aeb-4979-ba6e-f902dc9f8a1c","system_id":"levelo_inurba_marseille","lat":43.231494,"lon":5.437226,"is_reserved":false,"is_disabled":false,"rental_uris":{"android":"levelo://app?vid=751595e2-0aeb-4979-ba6e-f902dc9f8a1c","ios":"levelo://app?vid=751595e2-0aeb-4979-ba6e-f902dc9f8a1c"},"vehicle_type_id":"4","last_reported":1744708288,"current_range_meters":17200,"station_id":"ce4bhmp2rcd13ifvqgog","pricing_plan_id":"cebpf4jnsgd1na2vs0mg"},{"bike_id":"35639424-47db-4f67-911e-79cf9b9a8925","system_id":"levelo_inurba_marseille","lat":43.30911,"lon":5.36849,"is_reserved":false,"is_disabled":false,"rental_uris":{"android":"levelo://app?vid=35639424-47db-4f67-911e-79cf9b9a8925","ios":"levelo://app?vid=35639424-47db-4f67-911e-79cf9b9a8925"},"vehicle_type_id":"4","last_reported":1744708288,"current_range_meters":17200,"station_id":"ce4bgn92rcd13ifvqbvg","pricing_plan_id":"cebpf4jnsgd1na2vs0mg"},{"bike_id":"12afb93b-7deb-4d4e-ab1a-cef7c1246800","system_id":"levelo_inurba_marseille","lat":43.28613,"lon":5.384366,"is_reserved":false,"is_disabled":false,"rental_uris":{"android":"levelo://app?vid=12afb93b-7deb-4d4e-ab1a-cef7c1246800","ios":"levelo://app?vid=12afb93b-7deb-4d4e-ab1a-cef7c1246800"},"vehicle_type_id":"4","last_reported":1744708288,"current_range_meters":17200,"station_id":"ce4bhk92rcd13ifvqgc0","pricing_plan_id":"cebpf4jnsgd1na2vs0mg"},{"bike_id":"b06eab16-182a-4d95-93c4-c1f0892fa53a","system_id":"levelo_inurba_marseille","lat":43.27175,"lon":5.40998,"is_reserved":false,"is_disabled":false,"rental_uris":{"android":"levelo://app?vid=b06eab16-182a-4d95-93c4-c1f0892fa53a","ios":"levelo://app?vid=b06eab16-182a-4d95-93c4-c1f0892fa53a"},"vehicle_type_id":"4","last_reported":1744708288,"current_range_meters":17200,"station_id":"ce4bhl12rcd13ifvqgf0","pricing_plan_id":"cebpf4jnsgd1na2vs0mg"},{"bike_id":"944bddab-9f41-4da7-80e2-b3e803e6b9a5","system_id":"levelo_inurba_marseille","lat":43.21188,"lon":5.3507,"is_reserved":false,"is_disabled":false,"rental_uris":{"android":"levelo://app?vid=944bddab-9f41-4da7-80e2-b3e803e6b9a5","ios":"levelo://app?vid=944bddab-9f41-4da7-80e2-b3e803e6b9a5"},"vehicle_type_id":"4","last_reported":1744708288,"current_range_meters":17200,"station_id":"st_cvj6sg6p6f1abm77japg","pricing_plan_id":"cebpf4jnsgd1na2vs0mg"},{"bike_id":"9d36a699-2473-48ab-809e-a7967e29bf06","system_id":"levelo_inurba_marseille","lat":43.24173,"lon":5.39727,"is_reserved":false,"is_disabled":false,"rental_uris":{"android":"levelo://app?vid=9d36a699-2473-48ab-809e-a7967e29bf06","ios":"levelo://app?vid=9d36a699-2473-48ab-809e-a7967e29bf06"},"vehicle_type_id":"4","last_reported":1744708288,"current_range_meters":17200,"station_id":"ce4bhn12rcd13ifvqgpg","pricing_plan_id":"cebpf4jnsgd1na2vs0mg"},{"bike_id":"e09b21d2-233b-4dbb-9f38-952d010171c4","system_id":"levelo_inurba_marseille","lat":43.24685,"lon":5.38179,"is_reserved":false,"is_disabled":false,"rental_uris":{"android":"levelo://app?vid=e09b21d2-233b-4dbb-9f38-952d010171c4","ios":"levelo://app?vid=e09b21d2-233b-4dbb-9f38-952d010171c4"},"vehicle_type_id":"4","last_reported":1744708288,"current_range_meters":17200,"station_id":"ce4bhih2rcd13ifvqfr0","pricing_plan_id":"cebpf4jnsgd1na2vs0mg"},{"bike_id":"ff5284b2-6c32-4f78-8bce-4bfa019cd170","system_id":"levelo_inurba_marseille","lat":43.2742,"lon":5.39406,"is_reserved":false,"is_disabled":false,"rental_uris":{"android":"levelo://app?vid=ff5284b2-6c32-4f78-8bce-4bfa019cd170","ios":"levelo://app?vid=ff5284b2-6c32-4f78-8bce-4bfa019cd170"},"vehicle_type_id":"4","last_reported":1744708288,"current_range_meters":17600,"station_id":"ce4bhdp2rcd13ifvqf20","pricing_plan_id":"cebpf4jnsgd1na2vs0mg"},{"bike_id":"a357c3e7-bfc8-4bf6-bbd5-7aaacaf4a8dc","system_id":"levelo_inurba_marseille","lat":43.24663,"lon":5.3816,"is_reserved":false,"is_disabled":false,"rental_uris":{"android":"levelo://app?vid=a357c3e7-bfc8-4bf6-bbd5-7aaacaf4a8dc","ios":"levelo://app?vid=a357c3e7-bfc8-4bf6-bbd5-7aaacaf4a8dc"},"vehicle_type_id":"4","last_reported":1744708288,"current_range_meters":17600,"station_id":"ce4bhih2rcd13ifvqfr0","pricing_plan_id":"cebpf4jnsgd1na2vs0mg"},{"bike_id":"504cf016-be85-40ae-bd6e-21fe1e837c30","system_id":"levelo_inurba_marseille","lat":43.3249,"lon":5.36565,"is_reserved":false,"is_disabled":false,"rental_uris":{"android":"levelo://app?vid=504cf016-be85-40ae-bd6e-21fe1e837c30","ios":"levelo://app?vid=504cf016-be85-40ae-bd6e-21fe1e837c30"},"vehicle_type_id":"4","last_reported":1744708288,"current_range_meters":17600,"station_id":"ce4bhs12rcd13ifvqhvg","pricing_plan_id":"cebpf4jnsgd1na2vs0mg"},{"bike_id":"079fd226-478f-4295-aa30-8fa49cc02903","system_id":"levelo_inurba_marseille","lat":43.29554,"lon":5.42296,"is_reserved":false,"is_disabled":false,"rental_uris":{"android":"levelo://app?vid=079fd226-478f-4295-aa30-8fa49cc02903","ios":"levelo://app?vid=079fd226-478f-4295-aa30-8fa49cc02903"},"vehicle_type_id":"4","last_reported":1744708288,"current_range_meters":17600,"station_id":"ce4bhph2rcd13ifvqhdg","pricing_plan_id":"cebpf4jnsgd1na2vs0mg"},{"bike_id":"a597471e-7689-4399-acb1-99d5b52e0488","system_id":"levelo_inurba_marseille","lat":43.26195,"lon":5.37927,"is_reserved":false,"is_disabled":false,"rental_uris":{"android":"levelo://app?vid=a597471e-7689-4399-acb1-99d5b52e0488","ios":"levelo://app?vid=a597471e-7689-4399-acb1-99d5b52e0488"},"vehicle_type_id":"4","last_reported":1744708288,"current_range_meters":17600,"station_id":"ce4bhjp2rcd13ifvqg90","pricing_plan_id":"cebpf4jnsgd1na2vs0mg"},{"bike_id":"8cbd2531-c5b2-48f4-8519-f32a3a880ece","system_id":"levelo_inurba_marseille","lat":43.30535,"lon":5.36528,"is_reserved":false,"is_disabled":false,"rental_uris":{"android":"levelo://app?vid=8cbd2531-c5b2-48f4-8519-f32a3a880ece","ios":"levelo://app?vid=8cbd2531-c5b2-48f4-8519-f32a3a880ece"},"vehicle_type_id":"4","last_reported":1744708288,"current_range_meters":17600,"station_id":"ce4bgs12rcd13ifvqcag","pricing_plan_id":"cebpf4jnsgd1na2vs0mg"},{"bike_id":"05664e36-336b-404a-b8de-2ca42d4238f0","system_id":"levelo_inurba_marseille","lat":43.24996,"lon":5.38182,"is_reserved":false,"is_disabled":false,"rental_uris":{"android":"levelo://app?vid=05664e36-336b-404a-b8de-2ca42d4238f0","ios":"levelo://app?vid=05664e36-336b-404a-b8de-2ca42d4238f0"},"vehicle_type_id":"4","last_reported":1744708288,"current_range_meters":17600,"station_id":"","pricing_plan_id":"cebpf4jnsgd1na2vs0mg"},{"bike_id":"9c4411e8-5cae-4086-8593-c70ab74189f5","system_id":"levelo_inurba_marseille","lat":43.292,"lon":5.39325,"is_reserved":false,"is_disabled":false,"rental_uris":{"android":"levelo://app?vid=9c4411e8-5cae-4086-8593-c70ab74189f5","ios":"levelo://app?vid=9c4411e8-5cae-4086-8593-c70ab74189f5"},"vehicle_type_id":"4","last_reported":1744708288,"current_range_meters":18000,"station_id":"ce4bh192rcd13ifvqdd0","pricing_plan_id":"cebpf4jnsgd1na2vs0mg"},{"bike_id":"80e9c594-ab09-4c1f-b5b0-c80369f9c66e","system_id":"levelo_inurba_marseille","lat":43.29537,"lon":5.38544,"is_reserved":false,"is_disabled":false,"rental_uris":{"android":"levelo://app?vid=80e9c594-ab09-4c1f-b5b0-c80369f9c66e","ios":"levelo://app?vid=80e9c594-ab09-4c1f-b5b0-c80369f9c66e"},"vehicle_type_id":"4","last_reported":1744708288,"current_range_meters":18000,"station_id":"ce4bgih2rcd13ifvqba0","pricing_plan_id":"cebpf4jnsgd1na2vs0mg"},{"bike_id":"f8a2aca9-a595-41b4-9746-786cf0fc2e07","system_id":"levelo_inurba_marseille","lat":43.29584,"lon":5.37495,"is_reserved":false,"is_disabled":true,"rental_uris":{"android":"levelo://app?vid=f8a2aca9-a595-41b4-9746-786cf0fc2e07","ios":"levelo://app?vid=f8a2aca9-a595-41b4-9746-786cf0fc2e07"},"vehicle_type_id":"4","last_reported":1744708288,"current_range_meters":18000,"station_id":"ce4bgh92rcd13ifvqb50","pricing_plan_id":"cebpf4jnsgd1na2vs0mg"},{"bike_id":"5e2ae11d-9564-46eb-9b39-c44a0592de90","system_id":"levelo_inurba_marseille","lat":43.313608,"lon":5.367136,"is_reserved":false,"is_disabled":false,"rental_uris":{"android":"levelo://app?vid=5e2ae11d-9564-46eb-9b39-c44a0592de90","ios":"levelo://app?vid=5e2ae11d-9564-46eb-9b39-c44a0592de90"},"vehicle_type_id":"4","last_reported":1744708288,"current_range_meters":18000,"station_id":"ce4bgr92rcd13ifvqc6g","pricing_plan_id":"cebpf4jnsgd1na2vs0mg"},{"bike_id":"7a7a8a41-3334-4fc8-90d0-41cfd9bfc81e","system_id":"levelo_inurba_marseille","lat":43.287754,"lon":5.376051,"is_reserved":false,"is_disabled":false,"rental_uris":{"android":"levelo://app?vid=7a7a8a41-3334-4fc8-90d0-41cfd9bfc81e","ios":"levelo://app?vid=7a7a8a41-3334-4fc8-90d0-41cfd9bfc81e"},"vehicle_type_id":"4","last_reported":1744708288,"current_range_meters":18000,"station_id":"ce4bh3p2rcd13ifvqdq0","pricing_plan_id":"cebpf4jnsgd1na2vs0mg"},{"bike_id":"f7aa2a4e-9dea-497a-badf-dbd3dd5cfc74","system_id":"levelo_inurba_marseille","lat":43.263611,"lon":5.374118,"is_reserved":false,"is_disabled":false,"rental_uris":{"android":"levelo://app?vid=f7aa2a4e-9dea-497a-badf-dbd3dd5cfc74","ios":"levelo://app?vid=f7aa2a4e-9dea-497a-badf-dbd3dd5cfc74"},"vehicle_type_id":"4","last_reported":1744708288,"current_range_meters":18000,"station_id":"ce4bhnp2rcd13ifvqgvg","pricing_plan_id":"cebpf4jnsgd1na2vs0mg"},{"bike_id":"44be248b-85b6-4c95-aac4-5dd00edc7114","system_id":"levelo_inurba_marseille","lat":43.3057,"lon":5.36531,"is_reserved":false,"is_disabled":false,"rental_uris":{"android":"levelo://app?vid=44be248b-85b6-4c95-aac4-5dd00edc7114","ios":"levelo://app?vid=44be248b-85b6-4c95-aac4-5dd00edc7114"},"vehicle_type_id":"4","last_reported":1744708288,"current_range_meters":18800,"station_id":"ce4bgs12rcd13ifvqcag","pricing_plan_id":"cebpf4jnsgd1na2vs0mg"},{"bike_id":"8d9228a6-e93a-4668-b017-cefe7630591e","system_id":"levelo_inurba_marseille","lat":43.26198,"lon":5.3793,"is_reserved":false,"is_disabled":false,"rental_uris":{"android":"levelo://app?vid=8d9228a6-e93a-4668-b017-cefe7630591e","ios":"levelo://app?vid=8d9228a6-e93a-4668-b017-cefe7630591e"},"vehicle_type_id":"4","last_reported":1744708288,"current_range_meters":18800,"station_id":"ce4bhjp2rcd13ifvqg90","pricing_plan_id":"cebpf4jnsgd1na2vs0mg"},{"bike_id":"f3d8a9ce-ff2e-4c4e-86d3-d31b659a401d","system_id":"levelo_inurba_marseille","lat":43.30252,"lon":5.40052,"is_reserved":false,"is_disabled":false,"rental_uris":{"android":"levelo://app?vid=f3d8a9ce-ff2e-4c4e-86d3-d31b659a401d","ios":"levelo://app?vid=f3d8a9ce-ff2e-4c4e-86d3-d31b659a401d"},"vehicle_type_id":"4","last_reported":1744708288,"current_range_meters":18800,"station_id":"ce4bgvh2rcd13ifvqcs0","pricing_plan_id":"cebpf4jnsgd1na2vs0mg"},{"bike_id":"9333d35c-ec20-442d-bed4-0774efbd1444","system_id":"levelo_inurba_marseille","lat":43.29849,"lon":5.36286,"is_reserved":false,"is_disabled":false,"rental_uris":{"android":"levelo://app?vid=9333d35c-ec20-442d-bed4-0774efbd1444","ios":"levelo://app?vid=9333d35c-ec20-442d-bed4-0774efbd1444"},"vehicle_type_id":"4","last_reported":1744708288,"current_range_meters":18800,"station_id":"ce4bgpp2rcd13ifvqc3g","pricing_plan_id":"cebpf4jnsgd1na2vs0mg"},{"bike_id":"8422d098-67fd-4320-85a5-2bb0acedff57","system_id":"levelo_inurba_marseille","lat":43.337819,"lon":5.374224,"is_reserved":false,"is_disabled":false,"rental_uris":{"android":"levelo://app?vid=8422d098-67fd-4320-85a5-2bb0acedff57","ios":"levelo://app?vid=8422d098-67fd-4320-85a5-2bb0acedff57"},"vehicle_type_id":"4","last_reported":1744708288,"current_range_meters":19200,"station_id":"","pricing_plan_id":"cebpf4jnsgd1na2vs0mg"},{"bike_id":"4d4d0d48-2b72-44fe-b3a8-f9dca5bf8536","system_id":"levelo_inurba_marseille","lat":43.26565,"lon":5.37297,"is_reserved":false,"is_disabled":false,"rental_uris":{"android":"levelo://app?vid=4d4d0d48-2b72-44fe-b3a8-f9dca5bf8536","ios":"levelo://app?vid=4d4d0d48-2b72-44fe-b3a8-f9dca5bf8536"},"vehicle_type_id":"4","last_reported":1744708288,"current_range_meters":19200,"station_id":"ce4bhg12rcd13ifvqf70","pricing_plan_id":"cebpf4jnsgd1na2vs0mg"},{"bike_id":"e574b3d2-7d50-422d-a320-1dbd226a92e3","system_id":"levelo_inurba_marseille","lat":43.24678,"lon":5.38134,"is_reserved":false,"is_disabled":false,"rental_uris":{"android":"levelo://app?vid=e574b3d2-7d50-422d-a320-1dbd226a92e3","ios":"levelo://app?vid=e574b3d2-7d50-422d-a320-1dbd226a92e3"},"vehicle_type_id":"4","last_reported":1744708288,"current_range_meters":19200,"station_id":"ce4bhih2rcd13ifvqfr0","pricing_plan_id":"cebpf4jnsgd1na2vs0mg"},{"bike_id":"db06721d-1ee1-431c-a317-214c373163e8","system_id":"levelo_inurba_marseille","lat":43.31099,"lon":5.42452,"is_reserved":false,"is_disabled":false,"rental_uris":{"android":"levelo://app?vid=db06721d-1ee1-431c-a317-214c373163e8","ios":"levelo://app?vid=db06721d-1ee1-431c-a317-214c373163e8"},"vehicle_type_id":"4","last_reported":1744708288,"current_range_meters":19200,"station_id":"ce4bhp92rcd13ifvqhag","pricing_plan_id":"cebpf4jnsgd1na2vs0mg"},{"bike_id":"df48cf7d-f898-49eb-87ea-51f5181e82f8","system_id":"levelo_inurba_marseille","lat":43.29256,"lon":5.3762,"is_reserved":false,"is_disabled":false,"rental_uris":{"android":"levelo://app?vid=df48cf7d-f898-49eb-87ea-51f5181e82f8","ios":"levelo://app?vid=df48cf7d-f898-49eb-87ea-51f5181e82f8"},"vehicle_type_id":"4","last_reported":1744708288,"current_range_meters":19200,"station_id":"ce4bgi12rcd13ifvqb80","pricing_plan_id":"cebpf4jnsgd1na2vs0mg"},{"bike_id":"666989f1-952d-4819-a1f3-a6fbf0def5db","system_id":"levelo_inurba_marseille","lat":43.278668,"lon":5.410056,"is_reserved":false,"is_disabled":false,"rental_uris":{"android":"levelo://app?vid=666989f1-952d-4819-a1f3-a6fbf0def5db","ios":"levelo://app?vid=666989f1-952d-4819-a1f3-a6fbf0def5db"},"vehicle_type_id":"4","last_reported":1744708288,"current_range_meters":19200,"station_id":"ce4bhah2rcd13ifvqei0","pricing_plan_id":"cebpf4jnsgd1na2vs0mg"},{"bike_id":"a0ddb0a5-f7f0-4281-aa27-9e82747cc573","system_id":"levelo_inurba_marseille","lat":43.33757,"lon":5.37491,"is_reserved":false,"is_disabled":false,"rental_uris":{"android":"levelo://app?vid=a0ddb0a5-f7f0-4281-aa27-9e82747cc573","ios":"levelo://app?vid=a0ddb0a5-f7f0-4281-aa27-9e82747cc573"},"vehicle_type_id":"4","last_reported":1744708288,"current_range_meters":19200,"station_id":"","pricing_plan_id":"cebpf4jnsgd1na2vs0mg"},{"bike_id":"bf7ee58c-58d2-44b2-977f-168cc4485797","system_id":"levelo_inurba_marseille","lat":43.29096,"lon":5.38136,"is_reserved":false,"is_disabled":false,"rental_uris":{"android":"levelo://app?vid=bf7ee58c-58d2-44b2-977f-168cc4485797","ios":"levelo://app?vid=bf7ee58c-58d2-44b2-977f-168cc4485797"},"vehicle_type_id":"4","last_reported":1744708288,"current_range_meters":19600,"station_id":"ce4bh512rcd13ifvqe2g","pricing_plan_id":"cebpf4jnsgd1na2vs0mg"},{"bike_id":"d88dfe49-06ed-4462-8eb6-f9a6edd75cfe","system_id":"levelo_inurba_marseille","lat":43.29511,"lon":5.37508,"is_reserved":false,"is_disabled":false,"rental_uris":{"android":"levelo://app?vid=d88dfe49-06ed-4462-8eb6-f9a6edd75cfe","ios":"levelo://app?vid=d88dfe49-06ed-4462-8eb6-f9a6edd75cfe"},"vehicle_type_id":"4","last_reported":1744708288,"current_range_meters":19600,"station_id":"ce4bgkp2rcd13ifvqbmg","pricing_plan_id":"cebpf4jnsgd1na2vs0mg"},{"bike_id":"ccc13620-68aa-4ed1-90a2-2c21dc212a17","system_id":"levelo_inurba_marseille","lat":43.27223,"lon":5.39216,"is_reserved":false,"is_disabled":false,"rental_uris":{"android":"levelo://app?vid=ccc13620-68aa-4ed1-90a2-2c21dc212a17","ios":"levelo://app?vid=ccc13620-68aa-4ed1-90a2-2c21dc212a17"},"vehicle_type_id":"4","last_reported":1744708288,"current_range_meters":19600,"station_id":"ce4bhhp2rcd13ifvqfm0","pricing_plan_id":"cebpf4jnsgd1na2vs0mg"},{"bike_id":"4ecf3b6d-fda4-4fda-aadb-31c5da81bf9c","system_id":"levelo_inurba_marseille","lat":43.25932,"lon":5.40899,"is_reserved":false,"is_disabled":false,"rental_uris":{"android":"levelo://app?vid=4ecf3b6d-fda4-4fda-aadb-31c5da81bf9c","ios":"levelo://app?vid=4ecf3b6d-fda4-4fda-aadb-31c5da81bf9c"},"vehicle_type_id":"4","last_reported":1744708288,"current_range_meters":19600,"station_id":"ce4bhm92rcd13ifvqglg","pricing_plan_id":"cebpf4jnsgd1na2vs0mg"},{"bike_id":"99466e4a-5098-45b2-9de5-b2e12687e6b1","system_id":"levelo_inurba_marseille","lat":43.284293,"lon":5.375864,"is_reserved":false,"is_disabled":false,"rental_uris":{"android":"levelo://app?vid=99466e4a-5098-45b2-9de5-b2e12687e6b1","ios":"levelo://app?vid=99466e4a-5098-45b2-9de5-b2e12687e6b1"},"vehicle_type_id":"4","last_reported":1744708288,"current_range_meters":19600,"station_id":"ce4bh692rcd13ifvqe90","pricing_plan_id":"cebpf4jnsgd1na2vs0mg"},{"bike_id":"a9fb4c4e-138c-475e-97f4-e9c170425fc9","system_id":"levelo_inurba_marseille","lat":43.29375,"lon":5.37828,"is_reserved":false,"is_disabled":false,"rental_uris":{"android":"levelo://app?vid=a9fb4c4e-138c-475e-97f4-e9c170425fc9","ios":"levelo://app?vid=a9fb4c4e-138c-475e-97f4-e9c170425fc9"},"vehicle_type_id":"4","last_reported":1744708288,"current_range_meters":19600,"station_id":"ce4bgjh2rcd13ifvqbf0","pricing_plan_id":"cebpf4jnsgd1na2vs0mg"},{"bike_id":"695f6c81-76a3-4b91-bddc-cdcca1f505fb","system_id":"levelo_inurba_marseille","lat":43.32496,"lon":5.3655,"is_reserved":false,"is_disabled":false,"rental_uris":{"android":"levelo://app?vid=695f6c81-76a3-4b91-bddc-cdcca1f505fb","ios":"levelo://app?vid=695f6c81-76a3-4b91-bddc-cdcca1f505fb"},"vehicle_type_id":"4","last_reported":1744708288,"current_range_meters":19600,"station_id":"ce4bhs12rcd13ifvqhvg","pricing_plan_id":"cebpf4jnsgd1na2vs0mg"},{"bike_id":"b2382ffc-efd0-4344-8690-7e82cb923280","system_id":"levelo_inurba_marseille","lat":43.2743,"lon":5.39417,"is_reserved":false,"is_disabled":false,"rental_uris":{"android":"levelo://app?vid=b2382ffc-efd0-4344-8690-7e82cb923280","ios":"levelo://app?vid=b2382ffc-efd0-4344-8690-7e82cb923280"},"vehicle_type_id":"4","last_reported":1744708288,"current_range_meters":19600,"station_id":"ce4bhdp2rcd13ifvqf20","pricing_plan_id":"cebpf4jnsgd1na2vs0mg"},{"bike_id":"b082caf9-1aa9-41e8-8081-4da72e64e8e4","system_id":"levelo_inurba_marseille","lat":43.30927,"lon":5.40141,"is_reserved":false,"is_disabled":true,"rental_uris":{"android":"levelo://app?vid=b082caf9-1aa9-41e8-8081-4da72e64e8e4","ios":"levelo://app?vid=b082caf9-1aa9-41e8-8081-4da72e64e8e4"},"vehicle_type_id":"4","last_reported":1744708288,"current_range_meters":19600,"station_id":"ce4bgvp2rcd13ifvqct0","pricing_plan_id":"cebpf4jnsgd1na2vs0mg"},{"bike_id":"f28ab945-c9df-4b0b-be4c-c2ea61470e17","system_id":"levelo_inurba_marseille","lat":43.32489,"lon":5.36589,"is_reserved":false,"is_disabled":false,"rental_uris":{"android":"levelo://app?vid=f28ab945-c9df-4b0b-be4c-c2ea61470e17","ios":"levelo://app?vid=f28ab945-c9df-4b0b-be4c-c2ea61470e17"},"vehicle_type_id":"4","last_reported":1744708288,"current_range_meters":19600,"station_id":"ce4bhs12rcd13ifvqhvg","pricing_plan_id":"cebpf4jnsgd1na2vs0mg"},{"bike_id":"29ad3aa6-e4b0-46b6-99b3-b9ac2c2f447c","system_id":"levelo_inurba_marseille","lat":43.23155,"lon":5.43717,"is_reserved":false,"is_disabled":false,"rental_uris":{"android":"levelo://app?vid=29ad3aa6-e4b0-46b6-99b3-b9ac2c2f447c","ios":"levelo://app?vid=29ad3aa6-e4b0-46b6-99b3-b9ac2c2f447c"},"vehicle_type_id":"4","last_reported":1744708288,"current_range_meters":19600,"station_id":"ce4bhmp2rcd13ifvqgog","pricing_plan_id":"cebpf4jnsgd1na2vs0mg"},{"bike_id":"a8ed8bfe-e018-4ae7-b755-72caf268e29f","system_id":"levelo_inurba_marseille","lat":43.30181,"lon":5.38105,"is_reserved":false,"is_disabled":true,"rental_uris":{"android":"levelo://app?vid=a8ed8bfe-e018-4ae7-b755-72caf268e29f","ios":"levelo://app?vid=a8ed8bfe-e018-4ae7-b755-72caf268e29f"},"vehicle_type_id":"4","last_reported":1744708288,"current_range_meters":20000,"station_id":"ce4bgjp2rcd13ifvqbh0","pricing_plan_id":"cebpf4jnsgd1na2vs0mg"},{"bike_id":"3bbc2b63-b216-4c93-ae5d-0af7b06c8726","system_id":"levelo_inurba_marseille","lat":43.33023,"lon":5.39039,"is_reserved":false,"is_disabled":false,"rental_uris":{"android":"levelo://app?vid=3bbc2b63-b216-4c93-ae5d-0af7b06c8726","ios":"levelo://app?vid=3bbc2b63-b216-4c93-ae5d-0af7b06c8726"},"vehicle_type_id":"4","last_reported":1744708288,"current_range_meters":20000,"station_id":"ce4bhr92rcd13ifvqhrg","pricing_plan_id":"cebpf4jnsgd1na2vs0mg"},{"bike_id":"db245f04-b034-4265-9f8f-ce8ea6130f12","system_id":"levelo_inurba_marseille","lat":43.24183,"lon":5.39714,"is_reserved":false,"is_disabled":false,"rental_uris":{"android":"levelo://app?vid=db245f04-b034-4265-9f8f-ce8ea6130f12","ios":"levelo://app?vid=db245f04-b034-4265-9f8f-ce8ea6130f12"},"vehicle_type_id":"4","last_reported":1744708288,"current_range_meters":20000,"station_id":"ce4bhn12rcd13ifvqgpg","pricing_plan_id":"cebpf4jnsgd1na2vs0mg"},{"bike_id":"defc922e-ae29-4291-8fce-598cae1350e0","system_id":"levelo_inurba_marseille","lat":43.25582,"lon":5.38255,"is_reserved":false,"is_disabled":false,"rental_uris":{"android":"levelo://app?vid=defc922e-ae29-4291-8fce-598cae1350e0","ios":"levelo://app?vid=defc922e-ae29-4291-8fce-598cae1350e0"},"vehicle_type_id":"4","last_reported":1744708288,"current_range_meters":20400,"station_id":"ce4bhih2rcd13ifvqfs0","pricing_plan_id":"cebpf4jnsgd1na2vs0mg"},{"bike_id":"846062da-9234-4287-9da7-b9e2f0d486c7","system_id":"levelo_inurba_marseille","lat":43.3057,"lon":5.36528,"is_reserved":false,"is_disabled":false,"rental_uris":{"android":"levelo://app?vid=846062da-9234-4287-9da7-b9e2f0d486c7","ios":"levelo://app?vid=846062da-9234-4287-9da7-b9e2f0d486c7"},"vehicle_type_id":"4","last_reported":1744708288,"current_range_meters":20400,"station_id":"ce4bgs12rcd13ifvqcag","pricing_plan_id":"cebpf4jnsgd1na2vs0mg"},{"bike_id":"9a6b2d54-3810-49fa-8ff1-f2eae0833f68","system_id":"levelo_inurba_marseille","lat":43.32355,"lon":5.3675,"is_reserved":false,"is_disabled":false,"rental_uris":{"android":"levelo://app?vid=9a6b2d54-3810-49fa-8ff1-f2eae0833f68","ios":"levelo://app?vid=9a6b2d54-3810-49fa-8ff1-f2eae0833f68"},"vehicle_type_id":"4","last_reported":1744708288,"current_range_meters":20400,"station_id":"ce4bhsh2rcd13ifvqi2g","pricing_plan_id":"cebpf4jnsgd1na2vs0mg"},{"bike_id":"3b61828f-71c8-4c90-8832-c613a09d651f","system_id":"levelo_inurba_marseille","lat":43.26554,"lon":5.37284,"is_reserved":false,"is_disabled":true,"rental_uris":{"android":"levelo://app?vid=3b61828f-71c8-4c90-8832-c613a09d651f","ios":"levelo://app?vid=3b61828f-71c8-4c90-8832-c613a09d651f"},"vehicle_type_id":"4","last_reported":1744708288,"current_range_meters":20400,"station_id":"ce4bhg12rcd13ifvqf70","pricing_plan_id":"cebpf4jnsgd1na2vs0mg"},{"bike_id":"fcf629c9-5021-42cb-bbaf-f516982de5f9","system_id":"levelo_inurba_marseille","lat":43.2886,"lon":5.35848,"is_reserved":false,"is_disabled":false,"rental_uris":{"android":"levelo://app?vid=fcf629c9-5021-42cb-bbaf-f516982de5f9","ios":"levelo://app?vid=fcf629c9-5021-42cb-bbaf-f516982de5f9"},"vehicle_type_id":"4","last_reported":1744708288,"current_range_meters":20400,"station_id":"ce4bhb12rcd13ifvqem0","pricing_plan_id":"cebpf4jnsgd1na2vs0mg"},{"bike_id":"fa8b5d88-c56b-4501-99c1-1b5a6dfd1f66","system_id":"levelo_inurba_marseille","lat":43.212,"lon":5.35078,"is_reserved":false,"is_disabled":false,"rental_uris":{"android":"levelo://app?vid=fa8b5d88-c56b-4501-99c1-1b5a6dfd1f66","ios":"levelo://app?vid=fa8b5d88-c56b-4501-99c1-1b5a6dfd1f66"},"vehicle_type_id":"4","last_reported":1744708288,"current_range_meters":20400,"station_id":"st_cvj6sg6p6f1abm77japg","pricing_plan_id":"cebpf4jnsgd1na2vs0mg"},{"bike_id":"729f3ced-436b-45fb-817c-5716c04c6116","system_id":"levelo_inurba_marseille","lat":43.30903,"lon":5.3685,"is_reserved":false,"is_disabled":false,"rental_uris":{"android":"levelo://app?vid=729f3ced-436b-45fb-817c-5716c04c6116","ios":"levelo://app?vid=729f3ced-436b-45fb-817c-5716c04c6116"},"vehicle_type_id":"4","last_reported":1744708288,"current_range_meters":20800,"station_id":"ce4bgn92rcd13ifvqbvg","pricing_plan_id":"cebpf4jnsgd1na2vs0mg"},{"bike_id":"0885a5e3-43bb-4a39-b743-0a43e27c6f4a","system_id":"levelo_inurba_marseille","lat":43.32469,"lon":5.36584,"is_reserved":false,"is_disabled":false,"rental_uris":{"android":"levelo://app?vid=0885a5e3-43bb-4a39-b743-0a43e27c6f4a","ios":"levelo://app?vid=0885a5e3-43bb-4a39-b743-0a43e27c6f4a"},"vehicle_type_id":"4","last_reported":1744708288,"current_range_meters":20800,"station_id":"ce4bhs12rcd13ifvqhvg","pricing_plan_id":"cebpf4jnsgd1na2vs0mg"},{"bike_id":"810942cf-4e8e-49c5-a9b0-1039f0bcecc3","system_id":"levelo_inurba_marseille","lat":43.30559,"lon":5.36517,"is_reserved":false,"is_disabled":false,"rental_uris":{"android":"levelo://app?vid=810942cf-4e8e-49c5-a9b0-1039f0bcecc3","ios":"levelo://app?vid=810942cf-4e8e-49c5-a9b0-1039f0bcecc3"},"vehicle_type_id":"4","last_reported":1744708288,"current_range_meters":20800,"station_id":"ce4bgs12rcd13ifvqcag","pricing_plan_id":"cebpf4jnsgd1na2vs0mg"},{"bike_id":"6bf5a380-400e-4cd6-bc1e-356afac9ee45","system_id":"levelo_inurba_marseille","lat":43.2418,"lon":5.36399,"is_reserved":false,"is_disabled":false,"rental_uris":{"android":"levelo://app?vid=6bf5a380-400e-4cd6-bc1e-356afac9ee45","ios":"levelo://app?vid=6bf5a380-400e-4cd6-bc1e-356afac9ee45"},"vehicle_type_id":"4","last_reported":1744708288,"current_range_meters":20800,"station_id":"cpo36qri1sfpv3e86is0","pricing_plan_id":"cebpf4jnsgd1na2vs0mg"},{"bike_id":"54dd660e-cc98-4659-9f11-b3908459db90","system_id":"levelo_inurba_marseille","lat":43.30777,"lon":5.37259,"is_reserved":false,"is_disabled":false,"rental_uris":{"android":"levelo://app?vid=54dd660e-cc98-4659-9f11-b3908459db90","ios":"levelo://app?vid=54dd660e-cc98-4659-9f11-b3908459db90"},"vehicle_type_id":"4","last_reported":1744708288,"current_range_meters":20800,"station_id":"","pricing_plan_id":"cebpf4jnsgd1na2vs0mg"},{"bike_id":"7ad0bf0f-5294-442b-8825-791f1416a999","system_id":"levelo_inurba_marseille","lat":43.24173,"lon":5.39737,"is_reserved":false,"is_disabled":false,"rental_uris":{"android":"levelo://app?vid=7ad0bf0f-5294-442b-8825-791f1416a999","ios":"levelo://app?vid=7ad0bf0f-5294-442b-8825-791f1416a999"},"vehicle_type_id":"4","last_reported":1744708288,"current_range_meters":20800,"station_id":"ce4bhn12rcd13ifvqgpg","pricing_plan_id":"cebpf4jnsgd1na2vs0mg"},{"bike_id":"f06c4394-df29-478f-b606-e38b32292526","system_id":"levelo_inurba_marseille","lat":43.2668,"lon":5.38268,"is_reserved":false,"is_disabled":false,"rental_uris":{"android":"levelo://app?vid=f06c4394-df29-478f-b606-e38b32292526","ios":"levelo://app?vid=f06c4394-df29-478f-b606-e38b32292526"},"vehicle_type_id":"4","last_reported":1744708288,"current_range_meters":21600,"station_id":"ce4bhg92rcd13ifvqf90","pricing_plan_id":"cebpf4jnsgd1na2vs0mg"},{"bike_id":"1fe6f3de-cdf6-4482-a3d9-ef22aa502922","system_id":"levelo_inurba_marseille","lat":43.309475,"lon":5.390326,"is_reserved":false,"is_disabled":false,"rental_uris":{"android":"levelo://app?vid=1fe6f3de-cdf6-4482-a3d9-ef22aa502922","ios":"levelo://app?vid=1fe6f3de-cdf6-4482-a3d9-ef22aa502922"},"vehicle_type_id":"4","last_reported":1744708288,"current_range_meters":21600,"station_id":"ce4bgkh2rcd13ifvqbl0","pricing_plan_id":"cebpf4jnsgd1na2vs0mg"},{"bike_id":"b6698060-0f55-4ea2-a965-703f68491dd0","system_id":"levelo_inurba_marseille","lat":43.25004,"lon":5.38937,"is_reserved":false,"is_disabled":false,"rental_uris":{"android":"levelo://app?vid=b6698060-0f55-4ea2-a965-703f68491dd0","ios":"levelo://app?vid=b6698060-0f55-4ea2-a965-703f68491dd0"},"vehicle_type_id":"4","last_reported":1744708288,"current_range_meters":21600,"station_id":"ce4bhgp2rcd13ifvqfd0","pricing_plan_id":"cebpf4jnsgd1na2vs0mg"},{"bike_id":"78595723-98dc-44b7-9b87-97529b0548f5","system_id":"levelo_inurba_marseille","lat":43.25002,"lon":5.38912,"is_reserved":false,"is_disabled":false,"rental_uris":{"android":"levelo://app?vid=78595723-98dc-44b7-9b87-97529b0548f5","ios":"levelo://app?vid=78595723-98dc-44b7-9b87-97529b0548f5"},"vehicle_type_id":"4","last_reported":1744708288,"current_range_meters":21600,"station_id":"ce4bhgp2rcd13ifvqfd0","pricing_plan_id":"cebpf4jnsgd1na2vs0mg"},{"bike_id":"85c84169-58ea-4013-b0e6-ef63708698ca","system_id":"levelo_inurba_marseille","lat":43.30302,"lon":5.36899,"is_reserved":false,"is_disabled":false,"rental_uris":{"android":"levelo://app?vid=85c84169-58ea-4013-b0e6-ef63708698ca","ios":"levelo://app?vid=85c84169-58ea-4013-b0e6-ef63708698ca"},"vehicle_type_id":"4","last_reported":1744708288,"current_range_meters":21600,"station_id":"ce4bgqh2rcd13ifvqc5g","pricing_plan_id":"cebpf4jnsgd1na2vs0mg"},{"bike_id":"a44c2a83-f7cc-4188-b9c3-535bb880b90c","system_id":"levelo_inurba_marseille","lat":43.2594,"lon":5.40902,"is_reserved":false,"is_disabled":false,"rental_uris":{"android":"levelo://app?vid=a44c2a83-f7cc-4188-b9c3-535bb880b90c","ios":"levelo://app?vid=a44c2a83-f7cc-4188-b9c3-535bb880b90c"},"vehicle_type_id":"4","last_reported":1744708288,"current_range_meters":22000,"station_id":"ce4bhm92rcd13ifvqglg","pricing_plan_id":"cebpf4jnsgd1na2vs0mg"},{"bike_id":"309b86d1-d764-4e88-86e7-73d2c5ce7289","system_id":"levelo_inurba_marseille","lat":43.33606,"lon":5.41025,"is_reserved":false,"is_disabled":false,"rental_uris":{"android":"levelo://app?vid=309b86d1-d764-4e88-86e7-73d2c5ce7289","ios":"levelo://app?vid=309b86d1-d764-4e88-86e7-73d2c5ce7289"},"vehicle_type_id":"4","last_reported":1744708288,"current_range_meters":22000,"station_id":"ce4bhqh2rcd13ifvqhmg","pricing_plan_id":"cebpf4jnsgd1na2vs0mg"},{"bike_id":"4c0ede51-6b22-44f8-8575-b86906a20779","system_id":"levelo_inurba_marseille","lat":43.21771,"lon":5.34617,"is_reserved":false,"is_disabled":false,"rental_uris":{"android":"levelo://app?vid=4c0ede51-6b22-44f8-8575-b86906a20779","ios":"levelo://app?vid=4c0ede51-6b22-44f8-8575-b86906a20779"},"vehicle_type_id":"4","last_reported":1744708288,"current_range_meters":22000,"station_id":"st_cvj6r9ubvosntc0bgbag","pricing_plan_id":"cebpf4jnsgd1na2vs0mg"},{"bike_id":"33f80e18-d024-473f-ad3d-36fe4c6cb4b9","system_id":"levelo_inurba_marseille","lat":43.24665,"lon":5.38892,"is_reserved":false,"is_disabled":false,"rental_uris":{"android":"levelo://app?vid=33f80e18-d024-473f-ad3d-36fe4c6cb4b9","ios":"levelo://app?vid=33f80e18-d024-473f-ad3d-36fe4c6cb4b9"},"vehicle_type_id":"4","last_reported":1744708288,"current_range_meters":22000,"station_id":"ce4bhg12rcd13ifvqf60","pricing_plan_id":"cebpf4jnsgd1na2vs0mg"},{"bike_id":"75aeda06-bbc2-4b16-85f7-54753a374ed6","system_id":"levelo_inurba_marseille","lat":43.235886,"lon":5.403599,"is_reserved":false,"is_disabled":false,"rental_uris":{"android":"levelo://app?vid=75aeda06-bbc2-4b16-85f7-54753a374ed6","ios":"levelo://app?vid=75aeda06-bbc2-4b16-85f7-54753a374ed6"},"vehicle_type_id":"4","last_reported":1744708288,"current_range_meters":22000,"station_id":"","pricing_plan_id":"cebpf4jnsgd1na2vs0mg"},{"bike_id":"21807a90-4bec-4bae-b858-e6053114148e","system_id":"levelo_inurba_marseille","lat":43.27066,"lon":5.42279,"is_reserved":false,"is_disabled":false,"rental_uris":{"android":"levelo://app?vid=21807a90-4bec-4bae-b858-e6053114148e","ios":"levelo://app?vid=21807a90-4bec-4bae-b858-e6053114148e"},"vehicle_type_id":"4","last_reported":1744708288,"current_range_meters":22000,"station_id":"ce4bhk92rcd13ifvqgb0","pricing_plan_id":"cebpf4jnsgd1na2vs0mg"},{"bike_id":"51dcafe7-6d76-4cfb-b8e0-6acfc8f1f9b6","system_id":"levelo_inurba_marseille","lat":43.30548,"lon":5.36537,"is_reserved":false,"is_disabled":false,"rental_uris":{"android":"levelo://app?vid=51dcafe7-6d76-4cfb-b8e0-6acfc8f1f9b6","ios":"levelo://app?vid=51dcafe7-6d76-4cfb-b8e0-6acfc8f1f9b6"},"vehicle_type_id":"4","last_reported":1744708288,"current_range_meters":22400,"station_id":"ce4bgs12rcd13ifvqcag","pricing_plan_id":"cebpf4jnsgd1na2vs0mg"},{"bike_id":"68fa0d46-7071-4f65-8360-b33f91ad677c","system_id":"levelo_inurba_marseille","lat":43.29557,"lon":5.4228,"is_reserved":false,"is_disabled":false,"rental_uris":{"android":"levelo://app?vid=68fa0d46-7071-4f65-8360-b33f91ad677c","ios":"levelo://app?vid=68fa0d46-7071-4f65-8360-b33f91ad677c"},"vehicle_type_id":"4","last_reported":1744708288,"current_range_meters":22400,"station_id":"ce4bhph2rcd13ifvqhdg","pricing_plan_id":"cebpf4jnsgd1na2vs0mg"},{"bike_id":"6c103f9f-c959-46ad-a2e8-e44f9660c68e","system_id":"levelo_inurba_marseille","lat":43.21191,"lon":5.35068,"is_reserved":false,"is_disabled":false,"rental_uris":{"android":"levelo://app?vid=6c103f9f-c959-46ad-a2e8-e44f9660c68e","ios":"levelo://app?vid=6c103f9f-c959-46ad-a2e8-e44f9660c68e"},"vehicle_type_id":"4","last_reported":1744708288,"current_range_meters":22400,"station_id":"st_cvj6sg6p6f1abm77japg","pricing_plan_id":"cebpf4jnsgd1na2vs0mg"},{"bike_id":"174c2c9b-2f0a-47fb-998b-9f7260f2f135","system_id":"levelo_inurba_marseille","lat":43.30758,"lon":5.42466,"is_reserved":false,"is_disabled":false,"rental_uris":{"android":"levelo://app?vid=174c2c9b-2f0a-47fb-998b-9f7260f2f135","ios":"levelo://app?vid=174c2c9b-2f0a-47fb-998b-9f7260f2f135"},"vehicle_type_id":"4","last_reported":1744708288,"current_range_meters":22400,"station_id":"st_cvj6ca6bvosntc0bfgr0","pricing_plan_id":"cebpf4jnsgd1na2vs0mg"},{"bike_id":"9689b7c7-cd14-4d47-9e22-38e791cd2c25","system_id":"levelo_inurba_marseille","lat":43.25872,"lon":5.39899,"is_reserved":false,"is_disabled":false,"rental_uris":{"android":"levelo://app?vid=9689b7c7-cd14-4d47-9e22-38e791cd2c25","ios":"levelo://app?vid=9689b7c7-cd14-4d47-9e22-38e791cd2c25"},"vehicle_type_id":"4","last_reported":1744708288,"current_range_meters":22400,"station_id":"ce4bhl92rcd13ifvqghg","pricing_plan_id":"cebpf4jnsgd1na2vs0mg"},{"bike_id":"1e4003c0-38de-4542-bf74-776f6c5a5904","system_id":"levelo_inurba_marseille","lat":43.30891,"lon":5.36846,"is_reserved":false,"is_disabled":false,"rental_uris":{"android":"levelo://app?vid=1e4003c0-38de-4542-bf74-776f6c5a5904","ios":"levelo://app?vid=1e4003c0-38de-4542-bf74-776f6c5a5904"},"vehicle_type_id":"4","last_reported":1744708288,"current_range_meters":22400,"station_id":"ce4bgn92rcd13ifvqbvg","pricing_plan_id":"cebpf4jnsgd1na2vs0mg"},{"bike_id":"2a60cb91-f56e-42a7-afb3-c167c2ccf2a7","system_id":"levelo_inurba_marseille","lat":43.31705,"lon":5.37744,"is_reserved":false,"is_disabled":false,"rental_uris":{"android":"levelo://app?vid=2a60cb91-f56e-42a7-afb3-c167c2ccf2a7","ios":"levelo://app?vid=2a60cb91-f56e-42a7-afb3-c167c2ccf2a7"},"vehicle_type_id":"4","last_reported":1744708288,"current_range_meters":22400,"station_id":"ce4bgth2rcd13ifvqch0","pricing_plan_id":"cebpf4jnsgd1na2vs0mg"},{"bike_id":"60ec4175-4537-435a-95f9-8e40681109c0","system_id":"levelo_inurba_marseille","lat":43.31366,"lon":5.36718,"is_reserved":false,"is_disabled":false,"rental_uris":{"android":"levelo://app?vid=60ec4175-4537-435a-95f9-8e40681109c0","ios":"levelo://app?vid=60ec4175-4537-435a-95f9-8e40681109c0"},"vehicle_type_id":"4","last_reported":1744708288,"current_range_meters":22400,"station_id":"ce4bgr92rcd13ifvqc6g","pricing_plan_id":"cebpf4jnsgd1na2vs0mg"},{"bike_id":"b240f9d8-ae13-4348-a109-0b3c39d47a69","system_id":"levelo_inurba_marseille","lat":43.26684,"lon":5.38236,"is_reserved":false,"is_disabled":false,"rental_uris":{"android":"levelo://app?vid=b240f9d8-ae13-4348-a109-0b3c39d47a69","ios":"levelo://app?vid=b240f9d8-ae13-4348-a109-0b3c39d47a69"},"vehicle_type_id":"4","last_reported":1744708288,"current_range_meters":22400,"station_id":"ce4bhg92rcd13ifvqf90","pricing_plan_id":"cebpf4jnsgd1na2vs0mg"},{"bike_id":"56135a82-d19f-45ea-a72c-58b1131d0fcb","system_id":"levelo_inurba_marseille","lat":43.280823,"lon":5.396667,"is_reserved":false,"is_disabled":false,"rental_uris":{"android":"levelo://app?vid=56135a82-d19f-45ea-a72c-58b1131d0fcb","ios":"levelo://app?vid=56135a82-d19f-45ea-a72c-58b1131d0fcb"},"vehicle_type_id":"4","last_reported":1744708288,"current_range_meters":22800,"station_id":"ce4bho12rcd13ifvqh2g","pricing_plan_id":"cebpf4jnsgd1na2vs0mg"},{"bike_id":"a0af95fc-17ee-48c4-a528-672ae8d61f1c","system_id":"levelo_inurba_marseille","lat":43.29896,"lon":5.43632,"is_reserved":false,"is_disabled":false,"rental_uris":{"android":"levelo://app?vid=a0af95fc-17ee-48c4-a528-672ae8d61f1c","ios":"levelo://app?vid=a0af95fc-17ee-48c4-a528-672ae8d61f1c"},"vehicle_type_id":"4","last_reported":1744708288,"current_range_meters":22800,"station_id":"ce4bhpp2rcd13ifvqhfg","pricing_plan_id":"cebpf4jnsgd1na2vs0mg"},{"bike_id":"960caa4c-48e7-4e00-bca7-aeefd828a0a0","system_id":"levelo_inurba_marseille","lat":43.28014,"lon":5.40938,"is_reserved":false,"is_disabled":false,"rental_uris":{"android":"levelo://app?vid=960caa4c-48e7-4e00-bca7-aeefd828a0a0","ios":"levelo://app?vid=960caa4c-48e7-4e00-bca7-aeefd828a0a0"},"vehicle_type_id":"4","last_reported":1744708288,"current_range_meters":22800,"station_id":"","pricing_plan_id":"cebpf4jnsgd1na2vs0mg"},{"bike_id":"310292d5-bdeb-40f7-a94f-9d2b542d5222","system_id":"levelo_inurba_marseille","lat":43.24165,"lon":5.364,"is_reserved":false,"is_disabled":false,"rental_uris":{"android":"levelo://app?vid=310292d5-bdeb-40f7-a94f-9d2b542d5222","ios":"levelo://app?vid=310292d5-bdeb-40f7-a94f-9d2b542d5222"},"vehicle_type_id":"4","last_reported":1744708288,"current_range_meters":22800,"station_id":"cpo36qri1sfpv3e86is0","pricing_plan_id":"cebpf4jnsgd1na2vs0mg"},{"bike_id":"21a5e413-7b69-433e-a0b0-30103b0401c2","system_id":"levelo_inurba_marseille","lat":43.30136,"lon":5.38779,"is_reserved":false,"is_disabled":false,"rental_uris":{"android":"levelo://app?vid=21a5e413-7b69-433e-a0b0-30103b0401c2","ios":"levelo://app?vid=21a5e413-7b69-433e-a0b0-30103b0401c2"},"vehicle_type_id":"4","last_reported":1744708288,"current_range_meters":22800,"station_id":"ce4bghh2rcd13ifvqb60","pricing_plan_id":"cebpf4jnsgd1na2vs0mg"},{"bike_id":"4d331a86-a3cb-4d7d-a2e2-e0d35e11dfb8","system_id":"levelo_inurba_marseille","lat":43.31234,"lon":5.36854,"is_reserved":false,"is_disabled":false,"rental_uris":{"android":"levelo://app?vid=4d331a86-a3cb-4d7d-a2e2-e0d35e11dfb8","ios":"levelo://app?vid=4d331a86-a3cb-4d7d-a2e2-e0d35e11dfb8"},"vehicle_type_id":"4","last_reported":1744708288,"current_range_meters":22800,"station_id":"ce4bgl92rcd13ifvqbq0","pricing_plan_id":"cebpf4jnsgd1na2vs0mg"},{"bike_id":"3a329699-6cd4-4882-bf85-3b3f5b4d0674","system_id":"levelo_inurba_marseille","lat":43.31493,"lon":5.37313,"is_reserved":false,"is_disabled":false,"rental_uris":{"android":"levelo://app?vid=3a329699-6cd4-4882-bf85-3b3f5b4d0674","ios":"levelo://app?vid=3a329699-6cd4-4882-bf85-3b3f5b4d0674"},"vehicle_type_id":"4","last_reported":1744708288,"current_range_meters":22800,"station_id":"ce4bgt12rcd13ifvqcd0","pricing_plan_id":"cebpf4jnsgd1na2vs0mg"},{"bike_id":"8810bb5f-d390-4a6f-b33b-80c757857ddf","system_id":"levelo_inurba_marseille","lat":43.29619,"lon":5.37165,"is_reserved":false,"is_disabled":false,"rental_uris":{"android":"levelo://app?vid=8810bb5f-d390-4a6f-b33b-80c757857ddf","ios":"levelo://app?vid=8810bb5f-d390-4a6f-b33b-80c757857ddf"},"vehicle_type_id":"4","last_reported":1744708288,"current_range_meters":22400,"station_id":"ce4bgnh2rcd13ifvqc0g","pricing_plan_id":"cebpf4jnsgd1na2vs0mg"},{"bike_id":"5bacd0cc-9c11-4fa5-bec0-fa955a9a7d29","system_id":"levelo_inurba_marseille","lat":43.286862,"lon":5.387108,"is_reserved":false,"is_disabled":false,"rental_uris":{"android":"levelo://app?vid=5bacd0cc-9c11-4fa5-bec0-fa955a9a7d29","ios":"levelo://app?vid=5bacd0cc-9c11-4fa5-bec0-fa955a9a7d29"},"vehicle_type_id":"4","last_reported":1744708288,"current_range_meters":22000,"station_id":"ce4bgj92rcd13ifvqbd0","pricing_plan_id":"cebpf4jnsgd1na2vs0mg"},{"bike_id":"598ce97c-5255-49d5-8c47-ae99741ed26c","system_id":"levelo_inurba_marseille","lat":43.30913,"lon":5.36801,"is_reserved":false,"is_disabled":false,"rental_uris":{"android":"levelo://app?vid=598ce97c-5255-49d5-8c47-ae99741ed26c","ios":"levelo://app?vid=598ce97c-5255-49d5-8c47-ae99741ed26c"},"vehicle_type_id":"4","last_reported":1744708288,"current_range_meters":22800,"station_id":"ce4bgn92rcd13ifvqbvg","pricing_plan_id":"cebpf4jnsgd1na2vs0mg"},{"bike_id":"d6fee597-3293-47ae-914e-c48760e9f772","system_id":"levelo_inurba_marseille","lat":43.24065,"lon":5.3779,"is_reserved":false,"is_disabled":false,"rental_uris":{"android":"levelo://app?vid=d6fee597-3293-47ae-914e-c48760e9f772","ios":"levelo://app?vid=d6fee597-3293-47ae-914e-c48760e9f772"},"vehicle_type_id":"4","last_reported":1744708288,"current_range_meters":22800,"station_id":"ce4bhnp2rcd13ifvqgvg","pricing_plan_id":"cebpf4jnsgd1na2vs0mg"},{"bike_id":"a4f15d37-524d-4daf-9fce-5d8189dbcfa1","system_id":"levelo_inurba_marseille","lat":43.30257,"lon":5.40077,"is_reserved":false,"is_disabled":false,"rental_uris":{"android":"levelo://app?vid=a4f15d37-524d-4daf-9fce-5d8189dbcfa1","ios":"levelo://app?vid=a4f15d37-524d-4daf-9fce-5d8189dbcfa1"},"vehicle_type_id":"4","last_reported":1744708288,"current_range_meters":20400,"station_id":"ce4bgvh2rcd13ifvqcs0","pricing_plan_id":"cebpf4jnsgd1na2vs0mg"},{"bike_id":"e1840350-a8eb-4054-ac7d-f5d066d375df","system_id":"levelo_inurba_marseille","lat":43.27198,"lon":5.39191,"is_reserved":false,"is_disabled":false,"rental_uris":{"android":"levelo://app?vid=e1840350-a8eb-4054-ac7d-f5d066d375df","ios":"levelo://app?vid=e1840350-a8eb-4054-ac7d-f5d066d375df"},"vehicle_type_id":"4","last_reported":1744708288,"current_range_meters":23200,"station_id":"ce4bhhp2rcd13ifvqfm0","pricing_plan_id":"cebpf4jnsgd1na2vs0mg"},{"bike_id":"21869ad2-11a8-40af-960c-0acef999f0e4","system_id":"levelo_inurba_marseille","lat":43.3112,"lon":5.37768,"is_reserved":false,"is_disabled":false,"rental_uris":{"android":"levelo://app?vid=21869ad2-11a8-40af-960c-0acef999f0e4","ios":"levelo://app?vid=21869ad2-11a8-40af-960c-0acef999f0e4"},"vehicle_type_id":"4","last_reported":1744708288,"current_range_meters":23200,"station_id":"ce4bgt92rcd13ifvqcg0","pricing_plan_id":"cebpf4jnsgd1na2vs0mg"},{"bike_id":"8e548073-2a3e-4576-99f3-c56e05e538bf","system_id":"levelo_inurba_marseille","lat":43.29304,"lon":5.3743,"is_reserved":false,"is_disabled":false,"rental_uris":{"android":"levelo://app?vid=8e548073-2a3e-4576-99f3-c56e05e538bf","ios":"levelo://app?vid=8e548073-2a3e-4576-99f3-c56e05e538bf"},"vehicle_type_id":"4","last_reported":1744708288,"current_range_meters":23200,"station_id":"ce4bgi12rcd13ifvqb70","pricing_plan_id":"cebpf4jnsgd1na2vs0mg"},{"bike_id":"7d55f759-e324-40ff-9909-eebf93c2dd5c","system_id":"levelo_inurba_marseille","lat":43.29081,"lon":5.38148,"is_reserved":false,"is_disabled":false,"rental_uris":{"android":"levelo://app?vid=7d55f759-e324-40ff-9909-eebf93c2dd5c","ios":"levelo://app?vid=7d55f759-e324-40ff-9909-eebf93c2dd5c"},"vehicle_type_id":"4","last_reported":1744708288,"current_range_meters":23200,"station_id":"ce4bh512rcd13ifvqe2g","pricing_plan_id":"cebpf4jnsgd1na2vs0mg"},{"bike_id":"0b352734-1074-46d1-b7ce-8c8382c2fb88","system_id":"levelo_inurba_marseille","lat":43.23191,"lon":5.39972,"is_reserved":false,"is_disabled":false,"rental_uris":{"android":"levelo://app?vid=0b352734-1074-46d1-b7ce-8c8382c2fb88","ios":"levelo://app?vid=0b352734-1074-46d1-b7ce-8c8382c2fb88"},"vehicle_type_id":"4","last_reported":1744708288,"current_range_meters":23200,"station_id":"ce4bhn12rcd13ifvqgqg","pricing_plan_id":"cebpf4jnsgd1na2vs0mg"},{"bike_id":"dd2fbc22-3df4-4720-a708-dd6f46ba7212","system_id":"levelo_inurba_marseille","lat":43.21191,"lon":5.35077,"is_reserved":false,"is_disabled":false,"rental_uris":{"android":"levelo://app?vid=dd2fbc22-3df4-4720-a708-dd6f46ba7212","ios":"levelo://app?vid=dd2fbc22-3df4-4720-a708-dd6f46ba7212"},"vehicle_type_id":"4","last_reported":1744708288,"current_range_meters":23200,"station_id":"st_cvj6sg6p6f1abm77japg","pricing_plan_id":"cebpf4jnsgd1na2vs0mg"},{"bike_id":"2932c41f-e91f-4243-bfb4-cd04e98260d1","system_id":"levelo_inurba_marseille","lat":43.31376,"lon":5.38497,"is_reserved":false,"is_disabled":false,"rental_uris":{"android":"levelo://app?vid=2932c41f-e91f-4243-bfb4-cd04e98260d1","ios":"levelo://app?vid=2932c41f-e91f-4243-bfb4-cd04e98260d1"},"vehicle_type_id":"4","last_reported":1744708288,"current_range_meters":23200,"station_id":"ce4bgt92rcd13ifvqcf0","pricing_plan_id":"cebpf4jnsgd1na2vs0mg"},{"bike_id":"9967632c-3306-49aa-87da-4127127e51c3","system_id":"levelo_inurba_marseille","lat":43.30893,"lon":5.37184,"is_reserved":false,"is_disabled":false,"rental_uris":{"android":"levelo://app?vid=9967632c-3306-49aa-87da-4127127e51c3","ios":"levelo://app?vid=9967632c-3306-49aa-87da-4127127e51c3"},"vehicle_type_id":"4","last_reported":1744708288,"current_range_meters":24000,"station_id":"ce4bguh2rcd13ifvqckg","pricing_plan_id":"cebpf4jnsgd1na2vs0mg"},{"bike_id":"5ef74e85-9558-4bd9-968a-159b7a73f4b4","system_id":"levelo_inurba_marseille","lat":43.29037,"lon":5.39968,"is_reserved":false,"is_disabled":false,"rental_uris":{"android":"levelo://app?vid=5ef74e85-9558-4bd9-968a-159b7a73f4b4","ios":"levelo://app?vid=5ef74e85-9558-4bd9-968a-159b7a73f4b4"},"vehicle_type_id":"4","last_reported":1744708288,"current_range_meters":24000,"station_id":"ce4bh392rcd13ifvqdm0","pricing_plan_id":"cebpf4jnsgd1na2vs0mg"},{"bike_id":"fcd8cf6d-6311-4abf-9f65-297d81efc378","system_id":"levelo_inurba_marseille","lat":43.27319,"lon":5.39099,"is_reserved":false,"is_disabled":false,"rental_uris":{"android":"levelo://app?vid=fcd8cf6d-6311-4abf-9f65-297d81efc378","ios":"levelo://app?vid=fcd8cf6d-6311-4abf-9f65-297d81efc378"},"vehicle_type_id":"4","last_reported":1744708288,"current_range_meters":24000,"station_id":"ce4bhgp2rcd13ifvqfe0","pricing_plan_id":"cebpf4jnsgd1na2vs0mg"},{"bike_id":"c2d444b5-2205-4b26-8106-50ad97c6f270","system_id":"levelo_inurba_marseille","lat":43.30547,"lon":5.36555,"is_reserved":false,"is_disabled":false,"rental_uris":{"android":"levelo://app?vid=c2d444b5-2205-4b26-8106-50ad97c6f270","ios":"levelo://app?vid=c2d444b5-2205-4b26-8106-50ad97c6f270"},"vehicle_type_id":"4","last_reported":1744708288,"current_range_meters":24000,"station_id":"ce4bgs12rcd13ifvqcag","pricing_plan_id":"cebpf4jnsgd1na2vs0mg"},{"bike_id":"8bb54383-08d3-4ddb-a009-8c242349ea21","system_id":"levelo_inurba_marseille","lat":43.23153,"lon":5.43717,"is_reserved":false,"is_disabled":false,"rental_uris":{"android":"levelo://app?vid=8bb54383-08d3-4ddb-a009-8c242349ea21","ios":"levelo://app?vid=8bb54383-08d3-4ddb-a009-8c242349ea21"},"vehicle_type_id":"4","last_reported":1744708288,"current_range_meters":24000,"station_id":"ce4bhmp2rcd13ifvqgog","pricing_plan_id":"cebpf4jnsgd1na2vs0mg"},{"bike_id":"0a9327e1-e148-41ef-9372-55ab8ad4a5ce","system_id":"levelo_inurba_marseille","lat":43.29975,"lon":5.37172,"is_reserved":false,"is_disabled":true,"rental_uris":{"android":"levelo://app?vid=0a9327e1-e148-41ef-9372-55ab8ad4a5ce","ios":"levelo://app?vid=0a9327e1-e148-41ef-9372-55ab8ad4a5ce"},"vehicle_type_id":"4","last_reported":1744708288,"current_range_meters":24000,"station_id":"ce4bgr92rcd13ifvqc7g","pricing_plan_id":"cebpf4jnsgd1na2vs0mg"},{"bike_id":"7164ef41-5e7f-4940-9b8e-1710e8ef5ebb","system_id":"levelo_inurba_marseille","lat":43.292677,"lon":5.384471,"is_reserved":false,"is_disabled":false,"rental_uris":{"android":"levelo://app?vid=7164ef41-5e7f-4940-9b8e-1710e8ef5ebb","ios":"levelo://app?vid=7164ef41-5e7f-4940-9b8e-1710e8ef5ebb"},"vehicle_type_id":"4","last_reported":1744708288,"current_range_meters":24000,"station_id":"ce4bha12rcd13ifvqee0","pricing_plan_id":"cebpf4jnsgd1na2vs0mg"},{"bike_id":"415c8c3e-64b9-403d-a4ba-79287b8a6ccf","system_id":"levelo_inurba_marseille","lat":43.26685,"lon":5.38261,"is_reserved":false,"is_disabled":false,"rental_uris":{"android":"levelo://app?vid=415c8c3e-64b9-403d-a4ba-79287b8a6ccf","ios":"levelo://app?vid=415c8c3e-64b9-403d-a4ba-79287b8a6ccf"},"vehicle_type_id":"4","last_reported":1744708288,"current_range_meters":24000,"station_id":"ce4bhg92rcd13ifvqf90","pricing_plan_id":"cebpf4jnsgd1na2vs0mg"},{"bike_id":"7c81de34-235e-4ae3-a1ee-8a1acd6cae21","system_id":"levelo_inurba_marseille","lat":43.262695,"lon":5.374184,"is_reserved":false,"is_disabled":false,"rental_uris":{"android":"levelo://app?vid=7c81de34-235e-4ae3-a1ee-8a1acd6cae21","ios":"levelo://app?vid=7c81de34-235e-4ae3-a1ee-8a1acd6cae21"},"vehicle_type_id":"4","last_reported":1744708288,"current_range_meters":24000,"station_id":"ce4bha12rcd13ifvqef0","pricing_plan_id":"cebpf4jnsgd1na2vs0mg"},{"bike_id":"9335451a-3913-4118-8132-644a8176c8ce","system_id":"levelo_inurba_marseille","lat":43.24074,"lon":5.37761,"is_reserved":false,"is_disabled":false,"rental_uris":{"android":"levelo://app?vid=9335451a-3913-4118-8132-644a8176c8ce","ios":"levelo://app?vid=9335451a-3913-4118-8132-644a8176c8ce"},"vehicle_type_id":"4","last_reported":1744708288,"current_range_meters":23200,"station_id":"ce4bhnp2rcd13ifvqgvg","pricing_plan_id":"cebpf4jnsgd1na2vs0mg"},{"bike_id":"f85ddc3c-5ccd-4232-bf64-6e945cd829a3","system_id":"levelo_inurba_marseille","lat":43.24167,"lon":5.39729,"is_reserved":false,"is_disabled":false,"rental_uris":{"android":"levelo://app?vid=f85ddc3c-5ccd-4232-bf64-6e945cd829a3","ios":"levelo://app?vid=f85ddc3c-5ccd-4232-bf64-6e945cd829a3"},"vehicle_type_id":"4","last_reported":1744708288,"current_range_meters":24000,"station_id":"ce4bhn12rcd13ifvqgpg","pricing_plan_id":"cebpf4jnsgd1na2vs0mg"},{"bike_id":"3576c861-3778-4fb5-9458-31cf04df92a6","system_id":"levelo_inurba_marseille","lat":43.30319,"lon":5.369,"is_reserved":false,"is_disabled":false,"rental_uris":{"android":"levelo://app?vid=3576c861-3778-4fb5-9458-31cf04df92a6","ios":"levelo://app?vid=3576c861-3778-4fb5-9458-31cf04df92a6"},"vehicle_type_id":"4","last_reported":1744708288,"current_range_meters":24000,"station_id":"ce4bgqh2rcd13ifvqc5g","pricing_plan_id":"cebpf4jnsgd1na2vs0mg"},{"bike_id":"c3bb870c-a7e6-4b46-ad78-da8dec4be5b6","system_id":"levelo_inurba_marseille","lat":43.30541,"lon":5.36691,"is_reserved":false,"is_disabled":false,"rental_uris":{"android":"levelo://app?vid=c3bb870c-a7e6-4b46-ad78-da8dec4be5b6","ios":"levelo://app?vid=c3bb870c-a7e6-4b46-ad78-da8dec4be5b6"},"vehicle_type_id":"4","last_reported":1744708288,"current_range_meters":24000,"station_id":"ce4bgrp2rcd13ifvqc9g","pricing_plan_id":"cebpf4jnsgd1na2vs0mg"},{"bike_id":"2d03e3c2-09e4-4978-8dbc-31228f7e9fd5","system_id":"levelo_inurba_marseille","lat":43.25601,"lon":5.38244,"is_reserved":false,"is_disabled":false,"rental_uris":{"android":"levelo://app?vid=2d03e3c2-09e4-4978-8dbc-31228f7e9fd5","ios":"levelo://app?vid=2d03e3c2-09e4-4978-8dbc-31228f7e9fd5"},"vehicle_type_id":"4","last_reported":1744708288,"current_range_meters":24400,"station_id":"ce4bhih2rcd13ifvqfs0","pricing_plan_id":"cebpf4jnsgd1na2vs0mg"},{"bike_id":"8e8749ec-59fd-458c-8117-56f4bfd3b8a7","system_id":"levelo_inurba_marseille","lat":43.24156,"lon":5.39726,"is_reserved":false,"is_disabled":false,"rental_uris":{"android":"levelo://app?vid=8e8749ec-59fd-458c-8117-56f4bfd3b8a7","ios":"levelo://app?vid=8e8749ec-59fd-458c-8117-56f4bfd3b8a7"},"vehicle_type_id":"4","last_reported":1744708288,"current_range_meters":24400,"station_id":"ce4bhn12rcd13ifvqgpg","pricing_plan_id":"cebpf4jnsgd1na2vs0mg"},{"bike_id":"b6774217-143c-4402-82ff-0439e5618157","system_id":"levelo_inurba_marseille","lat":43.30169,"lon":5.38085,"is_reserved":false,"is_disabled":false,"rental_uris":{"android":"levelo://app?vid=b6774217-143c-4402-82ff-0439e5618157","ios":"levelo://app?vid=b6774217-143c-4402-82ff-0439e5618157"},"vehicle_type_id":"4","last_reported":1744708288,"current_range_meters":24400,"station_id":"ce4bgjp2rcd13ifvqbh0","pricing_plan_id":"cebpf4jnsgd1na2vs0mg"},{"bike_id":"38fff4b2-59e4-46bd-8bf5-30747c39f09f","system_id":"levelo_inurba_marseille","lat":43.29203,"lon":5.39333,"is_reserved":false,"is_disabled":false,"rental_uris":{"android":"levelo://app?vid=38fff4b2-59e4-46bd-8bf5-30747c39f09f","ios":"levelo://app?vid=38fff4b2-59e4-46bd-8bf5-30747c39f09f"},"vehicle_type_id":"4","last_reported":1744708288,"current_range_meters":24400,"station_id":"ce4bh192rcd13ifvqdd0","pricing_plan_id":"cebpf4jnsgd1na2vs0mg"},{"bike_id":"a114d21e-c95d-4527-8bba-3ba9aab46dd6","system_id":"levelo_inurba_marseille","lat":43.30908,"lon":5.36814,"is_reserved":false,"is_disabled":false,"rental_uris":{"android":"levelo://app?vid=a114d21e-c95d-4527-8bba-3ba9aab46dd6","ios":"levelo://app?vid=a114d21e-c95d-4527-8bba-3ba9aab46dd6"},"vehicle_type_id":"4","last_reported":1744708288,"current_range_meters":24400,"station_id":"ce4bgn92rcd13ifvqbvg","pricing_plan_id":"cebpf4jnsgd1na2vs0mg"},{"bike_id":"ed277671-5069-41be-a386-38170335cdc8","system_id":"levelo_inurba_marseille","lat":43.31365,"lon":5.36676,"is_reserved":false,"is_disabled":false,"rental_uris":{"android":"levelo://app?vid=ed277671-5069-41be-a386-38170335cdc8","ios":"levelo://app?vid=ed277671-5069-41be-a386-38170335cdc8"},"vehicle_type_id":"4","last_reported":1744708288,"current_range_meters":24800,"station_id":"ce4bgr92rcd13ifvqc6g","pricing_plan_id":"cebpf4jnsgd1na2vs0mg"},{"bike_id":"28555dc8-2282-4757-8ea1-e0a3c4e92edd","system_id":"levelo_inurba_marseille","lat":43.2997,"lon":5.37181,"is_reserved":false,"is_disabled":false,"rental_uris":{"android":"levelo://app?vid=28555dc8-2282-4757-8ea1-e0a3c4e92edd","ios":"levelo://app?vid=28555dc8-2282-4757-8ea1-e0a3c4e92edd"},"vehicle_type_id":"4","last_reported":1744708288,"current_range_meters":24800,"station_id":"ce4bgr92rcd13ifvqc7g","pricing_plan_id":"cebpf4jnsgd1na2vs0mg"},{"bike_id":"6e601e8c-2ebf-4578-a1d5-3092dc74e738","system_id":"levelo_inurba_marseille","lat":43.25578,"lon":5.38227,"is_reserved":false,"is_disabled":false,"rental_uris":{"android":"levelo://app?vid=6e601e8c-2ebf-4578-a1d5-3092dc74e738","ios":"levelo://app?vid=6e601e8c-2ebf-4578-a1d5-3092dc74e738"},