{"last_updated":1699942195,"ttl":30,"version":"2.2","data":{"bikes":[{"bike_id":"2ae0e829-86f5-40aa-bc1d-7b320d4a52cb","system_id":"levelo_inurba_marseille","lat":43.312239,"lon":5.368562,"is_reserved":false,"is_disabled":false,"rental_uris":{"android":"levelo://app?vid=2ae0e829-86f5-40aa-bc1d-7b320d4a52cb","ios":"levelo://app?vid=2ae0e829-86f5-40aa-bc1d-7b320d4a52cb"},"vehicle_type_id":"4","last_reported":1699942195,"current_range_meters":31200,"station_id":"ce4bgl92rcd13ifvqbq0","pricing_plan_id":"free"},{"bike_id":"5c6f922c-ad88-4651-be20-2d3847ca2f9f","system_id":"levelo_inurba_marseille","lat":43.312239,"lon":5.368562,"is_reserved":false,"is_disabled":false,"rental_uris":{"android":"levelo://app?vid=5c6f922c-ad88-4651-be20-2d3847ca2f9f","ios":"levelo://app?vid=5c6f922c-ad88-4651-be20-2d3847ca2f9f"},"vehicle_type_id":"4","last_reported":1699942195,"current_range_meters":31200,"station_id":"ce4bgl92rcd13ifvqbq0","pricing_plan_id":"free"},{"bike_id":"cb49dca8-aaaa-45a5-b223-bc7fe34663dd","system_id":"levelo_inurba_marseille","lat":43.312239,"lon":5.368562,"is_reserved":false,"is_disabled":false,"rental_uris":{"android":"levelo://app?vid=cb49dca8-aaaa-45a5-b223-bc7fe34663dd","ios":"levelo://app?vid=cb49dca8-aaaa-45a5-b223-bc7fe34663dd"},"vehicle_type_id":"4","last_reported":1699942195,"current_range_meters":31200,"station_id":"ce4bgl92rcd13ifvqbq0","pricing_plan_id":"free"},{"bike_id":"45675315-7f14-4cae-9bd3-91144f1dbd6a","system_id":"levelo_inurba_marseille","lat":43.309076,"lon":5.368465,"is_reserved":false,"is_disabled":false,"rental_uris":{"android":"levelo://app?vid=45675315-7f14-4cae-9bd3-91144f1dbd6a","ios":"levelo://app?vid=45675315-7f14-4cae-9bd3-91144f1dbd6a"},"vehicle_type_id":"4","last_reported":1699942195,"current_range_meters":25200,"station_id":"ce4bgn92rcd13ifvqbvg","pricing_plan_id":"free"},{"bike_id":"fd2aa723-2ae4-4e92-b764-4cfa75b48d62","system_id":"levelo_inurba_marseille","lat":43.314811,"lon":5.373103,"is_reserved":false,"is_disabled":false,"rental_uris":{"android":"levelo://app?vid=fd2aa723-2ae4-4e92-b764-4cfa75b48d62","ios":"levelo://app?vid=fd2aa723-2ae4-4e92-b764-4cfa75b48d62"},"vehicle_type_id":"4","last_reported":1699942195,"current_range_meters":31200,"station_id":"ce4bgt12rcd13ifvqcd0","pricing_plan_id":"free"},{"bike_id":"410ffb99-b085-4e36-95fb-ce28d5f28f99","system_id":"levelo_inurba_marseille","lat":43.314811,"lon":5.373103,"is_reserved":false,"is_disabled":false,"rental_uris":{"android":"levelo://app?vid=410ffb99-b085-4e36-95fb-ce28d5f28f99","ios":"levelo://app?vid=410ffb99-b085-4e36-95fb-ce28d5f28f99"},"vehicle_type_id":"4","last_reported":1699942195,"current_range_meters":30400,"station_id":"ce4bgt12rcd13ifvqcd0","pricing_plan_id":"free"},{"bike_id":"fbb85f6c-9fc2-43f6-a217-0a50628e6adc","system_id":"levelo_inurba_marseille","lat":43.314811,"lon":5.373103,"is_reserved":false,"is_disabled":false,"rental_uris":{"android":"levelo://app?vid=fbb85f6c-9fc2-43f6-a217-0a50628e6adc","ios":"levelo://app?vid=fbb85f6c-9fc2-43f6-a217-0a50628e6adc"},"vehicle_type_id":"4","last_reported":1699942195,"current_range_meters":30800,"station_id":"ce4bgt12rcd13ifvqcd0","pricing_plan_id":"free"},{"bike_id":"07df1672-1c4a-49a2-a517-79e10fe5f905","system_id":"levelo_inurba_marseille","lat":43.314811,"lon":5.373104,"is_reserved":false,"is_disabled":false,"rental_uris":{"android":"levelo://app?vid=07df1672-1c4a-49a2-a517-79e10fe5f905","ios":"levelo://app?vid=07df1672-1c4a-49a2-a517-79e10fe5f905"},"vehicle_type_id":"4","last_reported":1699942195,"current_range_meters":31200,"station_id":"ce4bgt12rcd13ifvqcd0","pricing_plan_id":"free"},{"bike_id":"d4c4dd9f-bcbf-488d-94d2-b34602553caa","system_id":"levelo_inurba_marseille","lat":43.309039,"lon":5.371797,"is_reserved":false,"is_disabled":false,"rental_uris":{"android":"levelo://app?vid=d4c4dd9f-bcbf-488d-94d2-b34602553caa","ios":"levelo://app?vid=d4c4dd9f-bcbf-488d-94d2-b34602553caa"},"vehicle_type_id":"4","last_reported":1699942195,"current_range_meters":31200,"station_id":"ce4bguh2rcd13ifvqckg","pricing_plan_id":"free"},{"bike_id":"eae94a62-172d-4776-8c31-cb679889a29a","system_id":"levelo_inurba_marseille","lat":43.309039,"lon":5.371797,"is_reserved":false,"is_disabled":false,"rental_uris":{"android":"levelo://app?vid=eae94a62-172d-4776-8c31-cb679889a29a","ios":"levelo://app?vid=eae94a62-172d-4776-8c31-cb679889a29a"},"vehicle_type_id":"4","last_reported":1699942195,"current_range_meters":25600,"station_id":"ce4bguh2rcd13ifvqckg","pricing_plan_id":"free"},{"bike_id":"60725b72-6514-47b1-8a0a-573cb8240165","system_id":"levelo_inurba_marseille","lat":43.309039,"lon":5.371797,"is_reserved":false,"is_disabled":false,"rental_uris":{"android":"levelo://app?vid=60725b72-6514-47b1-8a0a-573cb8240165","ios":"levelo://app?vid=60725b72-6514-47b1-8a0a-573cb8240165"},"vehicle_type_id":"4","last_reported":1699942195,"current_range_meters":0,"station_id":"ce4bguh2rcd13ifvqckg","pricing_plan_id":"free"},{"bike_id":"eb88792f-81ad-4970-8aa8-7ca58e221522","system_id":"levelo_inurba_marseille","lat":43.31686,"lon":5.373005,"is_reserved":false,"is_disabled":false,"rental_uris":{"android":"levelo://app?vid=eb88792f-81ad-4970-8aa8-7ca58e221522","ios":"levelo://app?vid=eb88792f-81ad-4970-8aa8-7ca58e221522"},"vehicle_type_id":"4","last_reported":1699942195,"current_range_meters":0,"station_id":"","pricing_plan_id":"free"},{"bike_id":"69d016a5-d6e6-44f7-bbbc-2a1a2aad7318","system_id":"levelo_inurba_marseille","lat":43.31409,"lon":5.37635,"is_reserved":false,"is_disabled":false,"rental_uris":{"android":"levelo://app?vid=69d016a5-d6e6-44f7-bbbc-2a1a2aad7318","ios":"levelo://app?vid=69d016a5-d6e6-44f7-bbbc-2a1a2aad7318"},"vehicle_type_id":"4","last_reported":1699942195,"current_range_meters":14000,"station_id":"","pricing_plan_id":"free"},{"bike_id":"815850f7-5537-4c1c-a105-921232ce75c1","system_id":"levelo_inurba_marseille","lat":43.30554,"lon":5.36538,"is_reserved":false,"is_disabled":false,"rental_uris":{"android":"levelo://app?vid=815850f7-5537-4c1c-a105-921232ce75c1","ios":"levelo://app?vid=815850f7-5537-4c1c-a105-921232ce75c1"},"vehicle_type_id":"4","last_reported":1699942195,"current_range_meters":30000,"station_id":"ce4bgs12rcd13ifvqcag","pricing_plan_id":"free"},{"bike_id":"0c7ead88-e5b3-42dd-b2a2-9305d91c1406","system_id":"levelo_inurba_marseille","lat":43.30536,"lon":5.36717,"is_reserved":false,"is_disabled":false,"rental_uris":{"android":"levelo://app?vid=0c7ead88-e5b3-42dd-b2a2-9305d91c1406","ios":"levelo://app?vid=0c7ead88-e5b3-42dd-b2a2-9305d91c1406"},"vehicle_type_id":"4","last_reported":1699942195,"current_range_meters":24800,"station_id":"ce4bgrp2rcd13ifvqc9g","pricing_plan_id":"free"},{"bike_id":"000a743d-c864-46f8-a3a1-c073276598a2","system_id":"levelo_inurba_marseille","lat":43.311131,"lon":5.377651,"is_reserved":false,"is_disabled":false,"rental_uris":{"android":"levelo://app?vid=000a743d-c864-46f8-a3a1-c073276598a2","ios":"levelo://app?vid=000a743d-c864-46f8-a3a1-c073276598a2"},"vehicle_type_id":"4","last_reported":1699942195,"current_range_meters":30000,"station_id":"ce4bgt92rcd13ifvqcg0","pricing_plan_id":"free"},{"bike_id":"34cc87a2-8c1f-4e42-a4ca-bdc1a8e9ea67","system_id":"levelo_inurba_marseille","lat":43.311131,"lon":5.377651,"is_reserved":false,"is_disabled":false,"rental_uris":{"android":"levelo://app?vid=34cc87a2-8c1f-4e42-a4ca-bdc1a8e9ea67","ios":"levelo://app?vid=34cc87a2-8c1f-4e42-a4ca-bdc1a8e9ea67"},"vehicle_type_id":"4","last_reported":1699942195,"current_range_meters":30800,"station_id":"ce4bgt92rcd13ifvqcg0","pricing_plan_id":"free"},{"bike_id":"a232614b-3ec9-4c0a-89c1-84370aa444f1","system_id":"levelo_inurba_marseille","lat":43.311125,"lon":5.377624,"is_reserved":false,"is_disabled":false,"rental_uris":{"android":"levelo://app?vid=a232614b-3ec9-4c0a-89c1-84370aa444f1","ios":"levelo://app?vid=a232614b-3ec9-4c0a-89c1-84370aa444f1"},"vehicle_type_id":"4","last_reported":1699942195,"current_range_meters":19200,"station_id":"ce4bgt92rcd13ifvqcg0","pricing_plan_id":"free"},{"bike_id":"57053367-5328-4d78-8951-737f56b37ed9","system_id":"levelo_inurba_marseille","lat":43.319924,"lon":5.373389,"is_reserved":false,"is_disabled":false,"rental_uris":{"android":"levelo://app?vid=57053367-5328-4d78-8951-737f56b37ed9","ios":"levelo://app?vid=57053367-5328-4d78-8951-737f56b37ed9"},"vehicle_type_id":"4","last_reported":1699942195,"current_range_meters":8400,"station_id":"","pricing_plan_id":"free"},{"bike_id":"6811dd50-edbe-41ad-9d69-4e5af2430f6b","system_id":"levelo_inurba_marseille","lat":43.307945,"lon":5.376487,"is_reserved":false,"is_disabled":false,"rental_uris":{"android":"levelo://app?vid=6811dd50-edbe-41ad-9d69-4e5af2430f6b","ios":"levelo://app?vid=6811dd50-edbe-41ad-9d69-4e5af2430f6b"},"vehicle_type_id":"4","last_reported":1699942195,"current_range_meters":30000,"station_id":"ce4bgv92rcd13ifvqcq0","pricing_plan_id":"free"},{"bike_id":"edc965e4-37a0-4faa-9068-66f1c1009e15","system_id":"levelo_inurba_marseille","lat":43.317075,"lon":5.377367,"is_reserved":false,"is_disabled":false,"rental_uris":{"android":"levelo://app?vid=edc965e4-37a0-4faa-9068-66f1c1009e15","ios":"levelo://app?vid=edc965e4-37a0-4faa-9068-66f1c1009e15"},"vehicle_type_id":"4","last_reported":1699942195,"current_range_meters":29600,"station_id":"ce4bgth2rcd13ifvqch0","pricing_plan_id":"free"},{"bike_id":"55b61de6-bcfd-4baa-a733-b5e8fcf2e626","system_id":"levelo_inurba_marseille","lat":43.317075,"lon":5.377367,"is_reserved":false,"is_disabled":false,"rental_uris":{"android":"levelo://app?vid=55b61de6-bcfd-4baa-a733-b5e8fcf2e626","ios":"levelo://app?vid=55b61de6-bcfd-4baa-a733-b5e8fcf2e626"},"vehicle_type_id":"4","last_reported":1699942195,"current_range_meters":30000,"station_id":"ce4bgth2rcd13ifvqch0","pricing_plan_id":"free"},{"bike_id":"17f562ca-cad3-44de-adf2-14137444e909","system_id":"levelo_inurba_marseille","lat":43.304315,"lon":5.371849,"is_reserved":false,"is_disabled":false,"rental_uris":{"android":"levelo://app?vid=17f562ca-cad3-44de-adf2-14137444e909","ios":"levelo://app?vid=17f562ca-cad3-44de-adf2-14137444e909"},"vehicle_type_id":"4","last_reported":1699942195,"current_range_meters":16000,"station_id":"","pricing_plan_id":"free"},{"bike_id":"198d6b2b-346e-4da4-a0eb-36a822908e5e","system_id":"levelo_inurba_marseille","lat":43.303046,"lon":5.368981,"is_reserved":false,"is_disabled":false,"rental_uris":{"android":"levelo://app?vid=198d6b2b-346e-4da4-a0eb-36a822908e5e","ios":"levelo://app?vid=198d6b2b-346e-4da4-a0eb-36a822908e5e"},"vehicle_type_id":"4","last_reported":1699942195,"current_range_meters":22400,"station_id":"ce4bgqh2rcd13ifvqc5g","pricing_plan_id":"free"},{"bike_id":"a6b9b5a1-fd48-48fc-be70-cf1d1343302f","system_id":"levelo_inurba_marseille","lat":43.3067,"lon":5.380371,"is_reserved":false,"is_disabled":false,"rental_uris":{"android":"levelo://app?vid=a6b9b5a1-fd48-48fc-be70-cf1d1343302f","ios":"levelo://app?vid=a6b9b5a1-fd48-48fc-be70-cf1d1343302f"},"vehicle_type_id":"4","last_reported":1699942195,"current_range_meters":15200,"station_id":"","pricing_plan_id":"free"},{"bike_id":"a26a672c-8f86-40f5-9e8e-9856cf399a24","system_id":"levelo_inurba_marseille","lat":43.30807,"lon":5.38149,"is_reserved":false,"is_disabled":false,"rental_uris":{"android":"levelo://app?vid=a26a672c-8f86-40f5-9e8e-9856cf399a24","ios":"levelo://app?vid=a26a672c-8f86-40f5-9e8e-9856cf399a24"},"vehicle_type_id":"4","last_reported":1699942195,"current_range_meters":15200,"station_id":"ce4bgt12rcd13ifvqce0","pricing_plan_id":"free"},{"bike_id":"67ffd28a-0325-489b-a10f-d90500122751","system_id":"levelo_inurba_marseille","lat":43.3048,"lon":5.37896,"is_reserved":false,"is_disabled":false,"rental_uris":{"android":"levelo://app?vid=67ffd28a-0325-489b-a10f-d90500122751","ios":"levelo://app?vid=67ffd28a-0325-489b-a10f-d90500122751"},"vehicle_type_id":"4","last_reported":1699942195,"current_range_meters":28800,"station_id":"ce4bgup2rcd13ifvqcn0","pricing_plan_id":"free"},{"bike_id":"634cf75c-b22f-471a-a75b-22103acfecbf","system_id":"levelo_inurba_marseille","lat":43.3048,"lon":5.37901,"is_reserved":false,"is_disabled":false,"rental_uris":{"android":"levelo://app?vid=634cf75c-b22f-471a-a75b-22103acfecbf","ios":"levelo://app?vid=634cf75c-b22f-471a-a75b-22103acfecbf"},"vehicle_type_id":"4","last_reported":1699942195,"current_range_meters":19600,"station_id":"ce4bgup2rcd13ifvqcn0","pricing_plan_id":"free"},{"bike_id":"0c06e909-c777-4f0b-b1b7-3e49f656a60e","system_id":"levelo_inurba_marseille","lat":43.304606,"lon":5.379026,"is_reserved":false,"is_disabled":false,"rental_uris":{"android":"levelo://app?vid=0c06e909-c777-4f0b-b1b7-3e49f656a60e","ios":"levelo://app?vid=0c06e909-c777-4f0b-b1b7-3e49f656a60e"},"vehicle_type_id":"4","last_reported":1699942195,"current_range_meters":22800,"station_id":"ce4bgup2rcd13ifvqcn0","pricing_plan_id":"free"},{"bike_id":"bbf11cf2-1748-4f86-8546-bf28a0008d96","system_id":"levelo_inurba_marseille","lat":43.304606,"lon":5.379026,"is_reserved":false,"is_disabled":false,"rental_uris":{"android":"levelo://app?vid=bbf11cf2-1748-4f86-8546-bf28a0008d96","ios":"levelo://app?vid=bbf11cf2-1748-4f86-8546-bf28a0008d96"},"vehicle_type_id":"4","last_reported":1699942195,"current_range_meters":16000,"station_id":"ce4bgup2rcd13ifvqcn0","pricing_plan_id":"free"},{"bike_id":"0cc4865d-c713-43d5-beba-e57119c5049c","system_id":"levelo_inurba_marseille","lat":43.304606,"lon":5.379026,"is_reserved":false,"is_disabled":false,"rental_uris":{"android":"levelo://app?vid=0cc4865d-c713-43d5-beba-e57119c5049c","ios":"levelo://app?vid=0cc4865d-c713-43d5-beba-e57119c5049c"},"vehicle_type_id":"4","last_reported":1699942195,"current_range_meters":22000,"station_id":"ce4bgup2rcd13ifvqcn0","pricing_plan_id":"free"},{"bike_id":"b313f29c-2f1e-4aa2-8225-f39c92ad2972","system_id":"levelo_inurba_marseille","lat":43.304606,"lon":5.379026,"is_reserved":false,"is_disabled":false,"rental_uris":{"android":"levelo://app?vid=b313f29c-2f1e-4aa2-8225-f39c92ad2972","ios":"levelo://app?vid=b313f29c-2f1e-4aa2-8225-f39c92ad2972"},"vehicle_type_id":"4","last_reported":1699942195,"current_range_meters":26400,"station_id":"ce4bgup2rcd13ifvqcn0","pricing_plan_id":"free"},{"bike_id":"ec04c8a3-8d4b-49cb-8e71-30e49ad121b6","system_id":"levelo_inurba_marseille","lat":43.304592,"lon":5.378952,"is_reserved":false,"is_disabled":false,"rental_uris":{"android":"levelo://app?vid=ec04c8a3-8d4b-49cb-8e71-30e49ad121b6","ios":"levelo://app?vid=ec04c8a3-8d4b-49cb-8e71-30e49ad121b6"},"vehicle_type_id":"4","last_reported":1699942195,"current_range_meters":31200,"station_id":"ce4bgup2rcd13ifvqcn0","pricing_plan_id":"free"},{"bike_id":"afb31c51-882e-47a1-a4ce-b7e99a098fd2","system_id":"levelo_inurba_marseille","lat":43.30463,"lon":5.37901,"is_reserved":false,"is_disabled":false,"rental_uris":{"android":"levelo://app?vid=afb31c51-882e-47a1-a4ce-b7e99a098fd2","ios":"levelo://app?vid=afb31c51-882e-47a1-a4ce-b7e99a098fd2"},"vehicle_type_id":"4","last_reported":1699942195,"current_range_meters":27600,"station_id":"ce4bgup2rcd13ifvqcn0","pricing_plan_id":"free"},{"bike_id":"4d6195cf-03f7-4708-bc0d-42cc8f6abc4e","system_id":"levelo_inurba_marseille","lat":43.30465,"lon":5.37905,"is_reserved":false,"is_disabled":false,"rental_uris":{"android":"levelo://app?vid=4d6195cf-03f7-4708-bc0d-42cc8f6abc4e","ios":"levelo://app?vid=4d6195cf-03f7-4708-bc0d-42cc8f6abc4e"},"vehicle_type_id":"4","last_reported":1699942195,"current_range_meters":27200,"station_id":"ce4bgup2rcd13ifvqcn0","pricing_plan_id":"free"},{"bike_id":"5c1bf6ec-4281-4e34-9d94-579f90fef3f4","system_id":"levelo_inurba_marseille","lat":43.304606,"lon":5.379026,"is_reserved":false,"is_disabled":false,"rental_uris":{"android":"levelo://app?vid=5c1bf6ec-4281-4e34-9d94-579f90fef3f4","ios":"levelo://app?vid=5c1bf6ec-4281-4e34-9d94-579f90fef3f4"},"vehicle_type_id":"4","last_reported":1699942195,"current_range_meters":26400,"station_id":"ce4bgup2rcd13ifvqcn0","pricing_plan_id":"free"},{"bike_id":"73ac249d-53a4-475b-b171-c0006c03d7d8","system_id":"levelo_inurba_marseille","lat":43.30467,"lon":5.37909,"is_reserved":false,"is_disabled":false,"rental_uris":{"android":"levelo://app?vid=73ac249d-53a4-475b-b171-c0006c03d7d8","ios":"levelo://app?vid=73ac249d-53a4-475b-b171-c0006c03d7d8"},"vehicle_type_id":"4","last_reported":1699942195,"current_range_meters":19200,"station_id":"ce4bgup2rcd13ifvqcn0","pricing_plan_id":"free"},{"bike_id":"f25a0cde-77b3-4ff2-9f3c-7436541b9195","system_id":"levelo_inurba_marseille","lat":43.30467,"lon":5.3791,"is_reserved":false,"is_disabled":false,"rental_uris":{"android":"levelo://app?vid=f25a0cde-77b3-4ff2-9f3c-7436541b9195","ios":"levelo://app?vid=f25a0cde-77b3-4ff2-9f3c-7436541b9195"},"vehicle_type_id":"4","last_reported":1699942195,"current_range_meters":21600,"station_id":"ce4bgup2rcd13ifvqcn0","pricing_plan_id":"free"},{"bike_id":"d2ec0f7a-b813-439e-afb5-9cbc068560df","system_id":"levelo_inurba_marseille","lat":43.304606,"lon":5.379026,"is_reserved":false,"is_disabled":false,"rental_uris":{"android":"levelo://app?vid=d2ec0f7a-b813-439e-afb5-9cbc068560df","ios":"levelo://app?vid=d2ec0f7a-b813-439e-afb5-9cbc068560df"},"vehicle_type_id":"4","last_reported":1699942195,"current_range_meters":19200,"station_id":"ce4bgup2rcd13ifvqcn0","pricing_plan_id":"free"},{"bike_id":"a9089266-5a99-4683-81aa-72ba594d2b76","system_id":"levelo_inurba_marseille","lat":43.304559,"lon":5.379005,"is_reserved":false,"is_disabled":false,"rental_uris":{"android":"levelo://app?vid=a9089266-5a99-4683-81aa-72ba594d2b76","ios":"levelo://app?vid=a9089266-5a99-4683-81aa-72ba594d2b76"},"vehicle_type_id":"4","last_reported":1699942195,"current_range_meters":25200,"station_id":"ce4bgup2rcd13ifvqcn0","pricing_plan_id":"free"},{"bike_id":"38ff1736-f67f-477c-a299-765830ee37f6","system_id":"levelo_inurba_marseille","lat":43.30453,"lon":5.37898,"is_reserved":false,"is_disabled":false,"rental_uris":{"android":"levelo://app?vid=38ff1736-f67f-477c-a299-765830ee37f6","ios":"levelo://app?vid=38ff1736-f67f-477c-a299-765830ee37f6"},"vehicle_type_id":"4","last_reported":1699942195,"current_range_meters":30000,"station_id":"ce4bgup2rcd13ifvqcn0","pricing_plan_id":"free"},{"bike_id":"860d8785-c022-40fd-9664-44a7a5ea4f08","system_id":"levelo_inurba_marseille","lat":43.304606,"lon":5.379026,"is_reserved":false,"is_disabled":false,"rental_uris":{"android":"levelo://app?vid=860d8785-c022-40fd-9664-44a7a5ea4f08","ios":"levelo://app?vid=860d8785-c022-40fd-9664-44a7a5ea4f08"},"vehicle_type_id":"4","last_reported":1699942195,"current_range_meters":17600,"station_id":"ce4bgup2rcd13ifvqcn0","pricing_plan_id":"free"},{"bike_id":"6aeea15b-0dab-489b-90e5-351a10175743","system_id":"levelo_inurba_marseille","lat":43.324771,"lon":5.36557,"is_reserved":false,"is_disabled":false,"rental_uris":{"android":"levelo://app?vid=6aeea15b-0dab-489b-90e5-351a10175743","ios":"levelo://app?vid=6aeea15b-0dab-489b-90e5-351a10175743"},"vehicle_type_id":"4","last_reported":1699942195,"current_range_meters":0,"station_id":"ce4bhs12rcd13ifvqhvg","pricing_plan_id":"free"},{"bike_id":"45eb3183-e2bc-418b-98e5-36875e7205a9","system_id":"levelo_inurba_marseille","lat":43.301429,"lon":5.37413,"is_reserved":false,"is_disabled":false,"rental_uris":{"android":"levelo://app?vid=45eb3183-e2bc-418b-98e5-36875e7205a9","ios":"levelo://app?vid=45eb3183-e2bc-418b-98e5-36875e7205a9"},"vehicle_type_id":"4","last_reported":1699942195,"current_range_meters":31200,"station_id":"ce4bgs92rcd13ifvqcc0","pricing_plan_id":"free"},{"bike_id":"69166d53-ec8e-4a0a-864c-7a29f7650dd8","system_id":"levelo_inurba_marseille","lat":43.321181,"lon":5.380101,"is_reserved":false,"is_disabled":false,"rental_uris":{"android":"levelo://app?vid=69166d53-ec8e-4a0a-864c-7a29f7650dd8","ios":"levelo://app?vid=69166d53-ec8e-4a0a-864c-7a29f7650dd8"},"vehicle_type_id":"4","last_reported":1699942195,"current_range_meters":6800,"station_id":"","pricing_plan_id":"free"},{"bike_id":"13d78257-2559-4a10-97b8-aaa7032179bc","system_id":"levelo_inurba_marseille","lat":43.319975,"lon":5.381519,"is_reserved":false,"is_disabled":false,"rental_uris":{"android":"levelo://app?vid=13d78257-2559-4a10-97b8-aaa7032179bc","ios":"levelo://app?vid=13d78257-2559-4a10-97b8-aaa7032179bc"},"vehicle_type_id":"4","last_reported":1699942195,"current_range_meters":0,"station_id":"","pricing_plan_id":"free"},{"bike_id":"96137788-b08f-40c3-b02a-703263be057f","system_id":"levelo_inurba_marseille","lat":43.313571,"lon":5.384829,"is_reserved":false,"is_disabled":false,"rental_uris":{"android":"levelo://app?vid=96137788-b08f-40c3-b02a-703263be057f","ios":"levelo://app?vid=96137788-b08f-40c3-b02a-703263be057f"},"vehicle_type_id":"4","last_reported":1699942195,"current_range_meters":31200,"station_id":"ce4bgt92rcd13ifvqcf0","pricing_plan_id":"free"},{"bike_id":"b99d0c90-7b4d-47ad-a524-7bfc1802d9ab","system_id":"levelo_inurba_marseille","lat":43.313571,"lon":5.384829,"is_reserved":false,"is_disabled":false,"rental_uris":{"android":"levelo://app?vid=b99d0c90-7b4d-47ad-a524-7bfc1802d9ab","ios":"levelo://app?vid=b99d0c90-7b4d-47ad-a524-7bfc1802d9ab"},"vehicle_type_id":"4","last_reported":1699942195,"current_range_meters":6400,"station_id":"ce4bgt92rcd13ifvqcf0","pricing_plan_id":"free"},{"bike_id":"c9d02527-8ca4-4703-bb52-8654ee5a55c7","system_id":"levelo_inurba_marseille","lat":43.29937,"lon":5.3653,"is_reserved":false,"is_disabled":false,"rental_uris":{"android":"levelo://app?vid=c9d02527-8ca4-4703-bb52-8654ee5a55c7","ios":"levelo://app?vid=c9d02527-8ca4-4703-bb52-8654ee5a55c7"},"vehicle_type_id":"4","last_reported":1699942195,"current_range_meters":0,"station_id":"ce4bgm92rcd13ifvqbr0","pricing_plan_id":"free"},{"bike_id":"5da9dea2-bd9f-4746-b637-56e44ea9e587","system_id":"levelo_inurba_marseille","lat":43.298489,"lon":5.362942,"is_reserved":false,"is_disabled":false,"rental_uris":{"android":"levelo://app?vid=5da9dea2-bd9f-4746-b637-56e44ea9e587","ios":"levelo://app?vid=5da9dea2-bd9f-4746-b637-56e44ea9e587"},"vehicle_type_id":"4","last_reported":1699942195,"current_range_meters":14400,"station_id":"ce4bgpp2rcd13ifvqc3g","pricing_plan_id":"free"},{"bike_id":"626734fd-5def-47e7-bb39-299535b5de50","system_id":"levelo_inurba_marseille","lat":43.305364,"lon":5.384119,"is_reserved":false,"is_disabled":false,"rental_uris":{"android":"levelo://app?vid=626734fd-5def-47e7-bb39-299535b5de50","ios":"levelo://app?vid=626734fd-5def-47e7-bb39-299535b5de50"},"vehicle_type_id":"4","last_reported":1699942195,"current_range_meters":28800,"station_id":"ce4bgg92rcd13ifvqb30","pricing_plan_id":"free"},{"bike_id":"133cb8ed-dc38-4ccb-84e0-adb632ac9868","system_id":"levelo_inurba_marseille","lat":43.305364,"lon":5.384119,"is_reserved":false,"is_disabled":false,"rental_uris":{"android":"levelo://app?vid=133cb8ed-dc38-4ccb-84e0-adb632ac9868","ios":"levelo://app?vid=133cb8ed-dc38-4ccb-84e0-adb632ac9868"},"vehicle_type_id":"4","last_reported":1699942195,"current_range_meters":27200,"station_id":"ce4bgg92rcd13ifvqb30","pricing_plan_id":"free"},{"bike_id":"9160d6a1-4fa8-4dbe-95a5-bc297198e0c1","system_id":"levelo_inurba_marseille","lat":43.311722,"lon":5.387247,"is_reserved":false,"is_disabled":false,"rental_uris":{"android":"levelo://app?vid=9160d6a1-4fa8-4dbe-95a5-bc297198e0c1","ios":"levelo://app?vid=9160d6a1-4fa8-4dbe-95a5-bc297198e0c1"},"vehicle_type_id":"4","last_reported":1699942195,"current_range_meters":20000,"station_id":"ce4bgv12rcd13ifvqcp0","pricing_plan_id":"free"},{"bike_id":"b0b62844-bd59-45c7-a3c9-a4c4e3f9a1b4","system_id":"levelo_inurba_marseille","lat":43.311722,"lon":5.387247,"is_reserved":false,"is_disabled":false,"rental_uris":{"android":"levelo://app?vid=b0b62844-bd59-45c7-a3c9-a4c4e3f9a1b4","ios":"levelo://app?vid=b0b62844-bd59-45c7-a3c9-a4c4e3f9a1b4"},"vehicle_type_id":"4","last_reported":1699942195,"current_range_meters":27600,"station_id":"ce4bgv12rcd13ifvqcp0","pricing_plan_id":"free"},{"bike_id":"8950f55a-e75d-4fac-9a7c-f529bc0580a5","system_id":"levelo_inurba_marseille","lat":43.320464,"lon":5.384144,"is_reserved":false,"is_disabled":false,"rental_uris":{"android":"levelo://app?vid=8950f55a-e75d-4fac-9a7c-f529bc0580a5","ios":"levelo://app?vid=8950f55a-e75d-4fac-9a7c-f529bc0580a5"},"vehicle_type_id":"4","last_reported":1699942195,"current_range_meters":2800,"station_id":"","pricing_plan_id":"free"},{"bike_id":"de1a7823-1634-448a-8bb8-e7e3a52a6463","system_id":"levelo_inurba_marseille","lat":43.311722,"lon":5.387247,"is_reserved":false,"is_disabled":false,"rental_uris":{"android":"levelo://app?vid=de1a7823-1634-448a-8bb8-e7e3a52a6463","ios":"levelo://app?vid=de1a7823-1634-448a-8bb8-e7e3a52a6463"},"vehicle_type_id":"4","last_reported":1699942195,"current_range_meters":31200,"station_id":"ce4bgv12rcd13ifvqcp0","pricing_plan_id":"free"},{"bike_id":"6c1caa6c-33e4-4242-bfdd-bc7d95e10245","system_id":"levelo_inurba_marseille","lat":43.311722,"lon":5.387247,"is_reserved":false,"is_disabled":false,"rental_uris":{"android":"levelo://app?vid=6c1caa6c-33e4-4242-bfdd-bc7d95e10245","ios":"levelo://app?vid=6c1caa6c-33e4-4242-bfdd-bc7d95e10245"},"vehicle_type_id":"4","last_reported":1699942195,"current_range_meters":27600,"station_id":"ce4bgv12rcd13ifvqcp0","pricing_plan_id":"free"},{"bike_id":"c581d474-cb97-441e-9f22-7badbafa9eae","system_id":"levelo_inurba_marseille","lat":43.311722,"lon":5.387247,"is_reserved":false,"is_disabled":false,"rental_uris":{"android":"levelo://app?vid=c581d474-cb97-441e-9f22-7badbafa9eae","ios":"levelo://app?vid=c581d474-cb97-441e-9f22-7badbafa9eae"},"vehicle_type_id":"4","last_reported":1699942195,"current_range_meters":31200,"station_id":"ce4bgv12rcd13ifvqcp0","pricing_plan_id":"free"},{"bike_id":"d9757dac-b57f-4892-932b-c2745130e628","system_id":"levelo_inurba_marseille","lat":43.311722,"lon":5.387247,"is_reserved":false,"is_disabled":false,"rental_uris":{"android":"levelo://app?vid=d9757dac-b57f-4892-932b-c2745130e628","ios":"levelo://app?vid=d9757dac-b57f-4892-932b-c2745130e628"},"vehicle_type_id":"4","last_reported":1699942195,"current_range_meters":29200,"station_id":"ce4bgv12rcd13ifvqcp0","pricing_plan_id":"free"},{"bike_id":"f00f51e4-b10f-43cd-b5be-2eb3688cfd40","system_id":"levelo_inurba_marseille","lat":43.322872,"lon":5.382756,"is_reserved":false,"is_disabled":false,"rental_uris":{"android":"levelo://app?vid=f00f51e4-b10f-43cd-b5be-2eb3688cfd40","ios":"levelo://app?vid=f00f51e4-b10f-43cd-b5be-2eb3688cfd40"},"vehicle_type_id":"4","last_reported":1699942195,"current_range_meters":31200,"station_id":"ce4bhr12rcd13ifvqhqg","pricing_plan_id":"free"},{"bike_id":"22ac37a5-90ef-4506-bf9f-eb39d9100878","system_id":"levelo_inurba_marseille","lat":43.32828,"lon":5.36678,"is_reserved":false,"is_disabled":false,"rental_uris":{"android":"levelo://app?vid=22ac37a5-90ef-4506-bf9f-eb39d9100878","ios":"levelo://app?vid=22ac37a5-90ef-4506-bf9f-eb39d9100878"},"vehicle_type_id":"4","last_reported":1699942195,"current_range_meters":8800,"station_id":"ce4bhs92rcd13ifvqi0g","pricing_plan_id":"free"},{"bike_id":"c2729230-db0b-4dda-bff7-f955d4c0c648","system_id":"levelo_inurba_marseille","lat":43.328333,"lon":5.366709,"is_reserved":false,"is_disabled":false,"rental_uris":{"android":"levelo://app?vid=c2729230-db0b-4dda-bff7-f955d4c0c648","ios":"levelo://app?vid=c2729230-db0b-4dda-bff7-f955d4c0c648"},"vehicle_type_id":"4","last_reported":1699942195,"current_range_meters":17200,"station_id":"ce4bhs92rcd13ifvqi0g","pricing_plan_id":"free"},{"bike_id":"be08e048-4a3c-41dd-858d-463ceef3e65a","system_id":"levelo_inurba_marseille","lat":43.297163,"lon":5.365866,"is_reserved":false,"is_disabled":false,"rental_uris":{"android":"levelo://app?vid=be08e048-4a3c-41dd-858d-463ceef3e65a","ios":"levelo://app?vid=be08e048-4a3c-41dd-858d-463ceef3e65a"},"vehicle_type_id":"4","last_reported":1699942195,"current_range_meters":28400,"station_id":"ce4bgn12rcd13ifvqbt0","pricing_plan_id":"free"},{"bike_id":"d447991a-59b4-4778-a190-7d2b0920a414","system_id":"levelo_inurba_marseille","lat":43.32215,"lon":5.38613,"is_reserved":false,"is_disabled":false,"rental_uris":{"android":"levelo://app?vid=d447991a-59b4-4778-a190-7d2b0920a414","ios":"levelo://app?vid=d447991a-59b4-4778-a190-7d2b0920a414"},"vehicle_type_id":"4","last_reported":1699942195,"current_range_meters":10400,"station_id":"","pricing_plan_id":"free"},{"bike_id":"4ed8f959-d35c-4ce1-9897-36437ab9be3e","system_id":"levelo_inurba_marseille","lat":43.296131,"lon":5.370791,"is_reserved":false,"is_disabled":false,"rental_uris":{"android":"levelo://app?vid=4ed8f959-d35c-4ce1-9897-36437ab9be3e","ios":"levelo://app?vid=4ed8f959-d35c-4ce1-9897-36437ab9be3e"},"vehicle_type_id":"4","last_reported":1699942195,"current_range_meters":12400,"station_id":"ce4bgnh2rcd13ifvqc0g","pricing_plan_id":"free"},{"bike_id":"a37bf076-4be8-4b02-959f-c2566fa744b1","system_id":"levelo_inurba_marseille","lat":43.296921,"lon":5.376579,"is_reserved":false,"is_disabled":false,"rental_uris":{"android":"levelo://app?vid=a37bf076-4be8-4b02-959f-c2566fa744b1","ios":"levelo://app?vid=a37bf076-4be8-4b02-959f-c2566fa744b1"},"vehicle_type_id":"4","last_reported":1699942195,"current_range_meters":29600,"station_id":"ce4bgkh2rcd13ifvqbl0","pricing_plan_id":"free"},{"bike_id":"408e1bba-ac1b-479c-ad30-32026784c873","system_id":"levelo_inurba_marseille","lat":43.2966,"lon":5.37463,"is_reserved":false,"is_disabled":false,"rental_uris":{"android":"levelo://app?vid=408e1bba-ac1b-479c-ad30-32026784c873","ios":"levelo://app?vid=408e1bba-ac1b-479c-ad30-32026784c873"},"vehicle_type_id":"4","last_reported":1699942195,"current_range_meters":4000,"station_id":"","pricing_plan_id":"free"},{"bike_id":"df599b29-e5fd-4e9f-bb77-7f4cac136005","system_id":"levelo_inurba_marseille","lat":43.304606,"lon":5.379026,"is_reserved":false,"is_disabled":false,"rental_uris":{"android":"levelo://app?vid=df599b29-e5fd-4e9f-bb77-7f4cac136005","ios":"levelo://app?vid=df599b29-e5fd-4e9f-bb77-7f4cac136005"},"vehicle_type_id":"4","last_reported":1699942195,"current_range_meters":28000,"station_id":"ce4bgup2rcd13ifvqcn0","pricing_plan_id":"free"},{"bike_id":"cf3673d8-9125-4013-93f0-d402c7a66aee","system_id":"levelo_inurba_marseille","lat":43.29913,"lon":5.38136,"is_reserved":false,"is_disabled":false,"rental_uris":{"android":"levelo://app?vid=cf3673d8-9125-4013-93f0-d402c7a66aee","ios":"levelo://app?vid=cf3673d8-9125-4013-93f0-d402c7a66aee"},"vehicle_type_id":"4","last_reported":1699942195,"current_range_meters":29600,"station_id":"ce4bgj12rcd13ifvqbc0","pricing_plan_id":"free"},{"bike_id":"c1ace411-e58d-4cdc-9f7a-e4d1c40461d5","system_id":"levelo_inurba_marseille","lat":43.299028,"lon":5.381509,"is_reserved":false,"is_disabled":false,"rental_uris":{"android":"levelo://app?vid=c1ace411-e58d-4cdc-9f7a-e4d1c40461d5","ios":"levelo://app?vid=c1ace411-e58d-4cdc-9f7a-e4d1c40461d5"},"vehicle_type_id":"4","last_reported":1699942195,"current_range_meters":14400,"station_id":"ce4bgj12rcd13ifvqbc0","pricing_plan_id":"free"},{"bike_id":"c17fe9e5-9d39-4813-bdb3-b9b082824d9e","system_id":"levelo_inurba_marseille","lat":43.309504,"lon":5.390403,"is_reserved":false,"is_disabled":false,"rental_uris":{"android":"levelo://app?vid=c17fe9e5-9d39-4813-bdb3-b9b082824d9e","ios":"levelo://app?vid=c17fe9e5-9d39-4813-bdb3-b9b082824d9e"},"vehicle_type_id":"4","last_reported":1699942195,"current_range_meters":20000,"station_id":"ce4bgup2rcd13ifvqco0","pricing_plan_id":"free"},{"bike_id":"059ad2a8-a573-4ad3-8cc4-2a9705c2644f","system_id":"levelo_inurba_marseille","lat":43.309589,"lon":5.390258,"is_reserved":false,"is_disabled":false,"rental_uris":{"android":"levelo://app?vid=059ad2a8-a573-4ad3-8cc4-2a9705c2644f","ios":"levelo://app?vid=059ad2a8-a573-4ad3-8cc4-2a9705c2644f"},"vehicle_type_id":"4","last_reported":1699942195,"current_range_meters":29600,"station_id":"ce4bgup2rcd13ifvqco0","pricing_plan_id":"free"},{"bike_id":"2c5d8b0c-f970-4dd0-b70a-c866c382d1fe","system_id":"levelo_inurba_marseille","lat":43.309563,"lon":5.390501,"is_reserved":false,"is_disabled":false,"rental_uris":{"android":"levelo://app?vid=2c5d8b0c-f970-4dd0-b70a-c866c382d1fe","ios":"levelo://app?vid=2c5d8b0c-f970-4dd0-b70a-c866c382d1fe"},"vehicle_type_id":"4","last_reported":1699942195,"current_range_meters":28800,"station_id":"ce4bgup2rcd13ifvqco0","pricing_plan_id":"free"},{"bike_id":"ade2f2e2-daf3-4d13-af44-4d9c84aab39c","system_id":"levelo_inurba_marseille","lat":43.309498,"lon":5.39054,"is_reserved":false,"is_disabled":false,"rental_uris":{"android":"levelo://app?vid=ade2f2e2-daf3-4d13-af44-4d9c84aab39c","ios":"levelo://app?vid=ade2f2e2-daf3-4d13-af44-4d9c84aab39c"},"vehicle_type_id":"4","last_reported":1699942195,"current_range_meters":20800,"station_id":"ce4bgup2rcd13ifvqco0","pricing_plan_id":"free"},{"bike_id":"feff7d8e-9456-4b4b-b917-4f91bb23e023","system_id":"levelo_inurba_marseille","lat":43.3175,"lon":5.39022,"is_reserved":false,"is_disabled":false,"rental_uris":{"android":"levelo://app?vid=feff7d8e-9456-4b4b-b917-4f91bb23e023","ios":"levelo://app?vid=feff7d8e-9456-4b4b-b917-4f91bb23e023"},"vehicle_type_id":"4","last_reported":1699942195,"current_range_meters":8400,"station_id":"","pricing_plan_id":"free"},{"bike_id":"d1be4948-3db8-46c6-a0e9-4eb9877553a6","system_id":"levelo_inurba_marseille","lat":43.295704,"lon":5.374985,"is_reserved":false,"is_disabled":false,"rental_uris":{"android":"levelo://app?vid=d1be4948-3db8-46c6-a0e9-4eb9877553a6","ios":"levelo://app?vid=d1be4948-3db8-46c6-a0e9-4eb9877553a6"},"vehicle_type_id":"4","last_reported":1699942195,"current_range_meters":24000,"station_id":"ce4bgh92rcd13ifvqb50","pricing_plan_id":"free"},{"bike_id":"4fc8182b-b1c8-4e55-985b-dfaaa3efd942","system_id":"levelo_inurba_marseille","lat":43.296263,"lon":5.377094,"is_reserved":false,"is_disabled":false,"rental_uris":{"android":"levelo://app?vid=4fc8182b-b1c8-4e55-985b-dfaaa3efd942","ios":"levelo://app?vid=4fc8182b-b1c8-4e55-985b-dfaaa3efd942"},"vehicle_type_id":"4","last_reported":1699942195,"current_range_meters":24400,"station_id":"ce4bgi92rcd13ifvqb90","pricing_plan_id":"free"},{"bike_id":"9caec048-a3aa-428b-9d1e-66ad6c2d8e58","system_id":"levelo_inurba_marseille","lat":43.32439,"lon":5.3861,"is_reserved":false,"is_disabled":false,"rental_uris":{"android":"levelo://app?vid=9caec048-a3aa-428b-9d1e-66ad6c2d8e58","ios":"levelo://app?vid=9caec048-a3aa-428b-9d1e-66ad6c2d8e58"},"vehicle_type_id":"4","last_reported":1699942195,"current_range_meters":20400,"station_id":"","pricing_plan_id":"free"},{"bike_id":"3f1371b2-32e2-49e6-8dc2-9ef10af8a02c","system_id":"levelo_inurba_marseille","lat":43.296263,"lon":5.377094,"is_reserved":false,"is_disabled":false,"rental_uris":{"android":"levelo://app?vid=3f1371b2-32e2-49e6-8dc2-9ef10af8a02c","ios":"levelo://app?vid=3f1371b2-32e2-49e6-8dc2-9ef10af8a02c"},"vehicle_type_id":"4","last_reported":1699942195,"current_range_meters":30000,"station_id":"ce4bgi92rcd13ifvqb90","pricing_plan_id":"free"},{"bike_id":"ef55f452-e527-4fd9-9093-9d068f229d8c","system_id":"levelo_inurba_marseille","lat":43.29973,"lon":5.38497,"is_reserved":false,"is_disabled":false,"rental_uris":{"android":"levelo://app?vid=ef55f452-e527-4fd9-9093-9d068f229d8c","ios":"levelo://app?vid=ef55f452-e527-4fd9-9093-9d068f229d8c"},"vehicle_type_id":"4","last_reported":1699942195,"current_range_meters":31200,"station_id":"ce4bgj92rcd13ifvqbd0","pricing_plan_id":"free"},{"bike_id":"79680992-cb77-4287-a572-3c5675aeddf8","system_id":"levelo_inurba_marseille","lat":43.305364,"lon":5.384119,"is_reserved":false,"is_disabled":false,"rental_uris":{"android":"levelo://app?vid=79680992-cb77-4287-a572-3c5675aeddf8","ios":"levelo://app?vid=79680992-cb77-4287-a572-3c5675aeddf8"},"vehicle_type_id":"4","last_reported":1699942195,"current_range_meters":30800,"station_id":"ce4bgg92rcd13ifvqb30","pricing_plan_id":"free"},{"bike_id":"1b2c484f-c9c7-4f72-9821-5934cb0e4a85","system_id":"levelo_inurba_marseille","lat":43.32356,"lon":5.388908,"is_reserved":false,"is_disabled":false,"rental_uris":{"android":"levelo://app?vid=1b2c484f-c9c7-4f72-9821-5934cb0e4a85","ios":"levelo://app?vid=1b2c484f-c9c7-4f72-9821-5934cb0e4a85"},"vehicle_type_id":"4","last_reported":1699942195,"current_range_meters":11600,"station_id":"ce4bhqp2rcd13ifvqhog","pricing_plan_id":"free"},{"bike_id":"6699ee0a-8aaa-4094-8f13-314d4a027897","system_id":"levelo_inurba_marseille","lat":43.32367,"lon":5.38881,"is_reserved":false,"is_disabled":false,"rental_uris":{"android":"levelo://app?vid=6699ee0a-8aaa-4094-8f13-314d4a027897","ios":"levelo://app?vid=6699ee0a-8aaa-4094-8f13-314d4a027897"},"vehicle_type_id":"4","last_reported":1699942195,"current_range_meters":14000,"station_id":"ce4bhqp2rcd13ifvqhog","pricing_plan_id":"free"},{"bike_id":"77ca9ad2-a31e-4282-94bb-f88a7c5f7361","system_id":"levelo_inurba_marseille","lat":43.32367,"lon":5.388836,"is_reserved":false,"is_disabled":false,"rental_uris":{"android":"levelo://app?vid=77ca9ad2-a31e-4282-94bb-f88a7c5f7361","ios":"levelo://app?vid=77ca9ad2-a31e-4282-94bb-f88a7c5f7361"},"vehicle_type_id":"4","last_reported":1699942195,"current_range_meters":1200,"station_id":"ce4bhqp2rcd13ifvqhog","pricing_plan_id":"free"},{"bike_id":"db651863-0567-4224-95f5-1002bd2131c4","system_id":"levelo_inurba_marseille","lat":43.323616,"lon":5.388882,"is_reserved":false,"is_disabled":false,"rental_uris":{"android":"levelo://app?vid=db651863-0567-4224-95f5-1002bd2131c4","ios":"levelo://app?vid=db651863-0567-4224-95f5-1002bd2131c4"},"vehicle_type_id":"4","last_reported":1699942195,"current_range_meters":14800,"station_id":"ce4bhqp2rcd13ifvqhog","pricing_plan_id":"free"},{"bike_id":"b0002181-6a34-4bff-a938-215314dcffe6","system_id":"levelo_inurba_marseille","lat":43.32369,"lon":5.38886,"is_reserved":false,"is_disabled":false,"rental_uris":{"android":"levelo://app?vid=b0002181-6a34-4bff-a938-215314dcffe6","ios":"levelo://app?vid=b0002181-6a34-4bff-a938-215314dcffe6"},"vehicle_type_id":"4","last_reported":1699942195,"current_range_meters":29200,"station_id":"ce4bhqp2rcd13ifvqhog","pricing_plan_id":"free"},{"bike_id":"69777a87-e4cb-4a16-806c-b9d64d430181","system_id":"levelo_inurba_marseille","lat":43.32367,"lon":5.388836,"is_reserved":false,"is_disabled":false,"rental_uris":{"android":"levelo://app?vid=69777a87-e4cb-4a16-806c-b9d64d430181","ios":"levelo://app?vid=69777a87-e4cb-4a16-806c-b9d64d430181"},"vehicle_type_id":"4","last_reported":1699942195,"current_range_meters":23600,"station_id":"ce4bhqp2rcd13ifvqhog","pricing_plan_id":"free"},{"bike_id":"93100c67-6bd1-4d32-a801-ac9c77adfccb","system_id":"levelo_inurba_marseille","lat":43.302333,"lon":5.389969,"is_reserved":false,"is_disabled":false,"rental_uris":{"android":"levelo://app?vid=93100c67-6bd1-4d32-a801-ac9c77adfccb","ios":"levelo://app?vid=93100c67-6bd1-4d32-a801-ac9c77adfccb"},"vehicle_type_id":"4","last_reported":1699942195,"current_range_meters":24000,"station_id":"ce4bgup2rcd13ifvqcn0","pricing_plan_id":"free"},{"bike_id":"0141ab27-d555-4efa-aeae-35e65be80a4e","system_id":"levelo_inurba_marseille","lat":43.302278,"lon":5.389979,"is_reserved":false,"is_disabled":false,"rental_uris":{"android":"levelo://app?vid=0141ab27-d555-4efa-aeae-35e65be80a4e","ios":"levelo://app?vid=0141ab27-d555-4efa-aeae-35e65be80a4e"},"vehicle_type_id":"4","last_reported":1699942195,"current_range_meters":20800,"station_id":"ce4bgup2rcd13ifvqcn0","pricing_plan_id":"free"},{"bike_id":"d2dced52-b7fb-4d11-ad33-56be009e3364","system_id":"levelo_inurba_marseille","lat":43.33061,"lon":5.37892,"is_reserved":false,"is_disabled":false,"rental_uris":{"android":"levelo://app?vid=d2dced52-b7fb-4d11-ad33-56be009e3364","ios":"levelo://app?vid=d2dced52-b7fb-4d11-ad33-56be009e3364"},"vehicle_type_id":"4","last_reported":1699942195,"current_range_meters":28800,"station_id":"","pricing_plan_id":"free"},{"bike_id":"8a94dd25-03c1-4d30-974c-692fde00f750","system_id":"levelo_inurba_marseille","lat":43.29278,"lon":5.368525,"is_reserved":false,"is_disabled":false,"rental_uris":{"android":"levelo://app?vid=8a94dd25-03c1-4d30-974c-692fde00f750","ios":"levelo://app?vid=8a94dd25-03c1-4d30-974c-692fde00f750"},"vehicle_type_id":"4","last_reported":1699942195,"current_range_meters":3600,"station_id":"ce4bhbp2rcd13ifvqesg","pricing_plan_id":"free"},{"bike_id":"f3eac822-597b-4d6e-9888-6e94191d6233","system_id":"levelo_inurba_marseille","lat":43.29305,"lon":5.374554,"is_reserved":false,"is_disabled":false,"rental_uris":{"android":"levelo://app?vid=f3eac822-597b-4d6e-9888-6e94191d6233","ios":"levelo://app?vid=f3eac822-597b-4d6e-9888-6e94191d6233"},"vehicle_type_id":"4","last_reported":1699942195,"current_range_meters":22800,"station_id":"ce4bgi12rcd13ifvqb70","pricing_plan_id":"free"},{"bike_id":"fc77e7f5-6a8c-4cf4-a3af-9037ca792a3b","system_id":"levelo_inurba_marseille","lat":43.293009,"lon":5.374584,"is_reserved":false,"is_disabled":false,"rental_uris":{"android":"levelo://app?vid=fc77e7f5-6a8c-4cf4-a3af-9037ca792a3b","ios":"levelo://app?vid=fc77e7f5-6a8c-4cf4-a3af-9037ca792a3b"},"vehicle_type_id":"4","last_reported":1699942195,"current_range_meters":27200,"station_id":"ce4bgi12rcd13ifvqb70","pricing_plan_id":"free"},{"bike_id":"233a0961-5cb8-40b6-b076-2e5bf6a4b213","system_id":"levelo_inurba_marseille","lat":43.2936,"lon":5.37835,"is_reserved":false,"is_disabled":false,"rental_uris":{"android":"levelo://app?vid=233a0961-5cb8-40b6-b076-2e5bf6a4b213","ios":"levelo://app?vid=233a0961-5cb8-40b6-b076-2e5bf6a4b213"},"vehicle_type_id":"4","last_reported":1699942195,"current_range_meters":21600,"station_id":"ce4bgjh2rcd13ifvqbf0","pricing_plan_id":"free"},{"bike_id":"62a5851a-f4da-4809-96ea-b1737fc88dd9","system_id":"levelo_inurba_marseille","lat":43.292311,"lon":5.360731,"is_reserved":false,"is_disabled":false,"rental_uris":{"android":"levelo://app?vid=62a5851a-f4da-4809-96ea-b1737fc88dd9","ios":"levelo://app?vid=62a5851a-f4da-4809-96ea-b1737fc88dd9"},"vehicle_type_id":"4","last_reported":1699942195,"current_range_meters":22400,"station_id":"ce4bhbh2rcd13ifvqeqg","pricing_plan_id":"free"},{"bike_id":"ca461bc9-78f4-4aee-91bc-0927a911ce1e","system_id":"levelo_inurba_marseille","lat":43.292311,"lon":5.360731,"is_reserved":false,"is_disabled":false,"rental_uris":{"android":"levelo://app?vid=ca461bc9-78f4-4aee-91bc-0927a911ce1e","ios":"levelo://app?vid=ca461bc9-78f4-4aee-91bc-0927a911ce1e"},"vehicle_type_id":"4","last_reported":1699942195,"current_range_meters":26800,"station_id":"ce4bhbh2rcd13ifvqeqg","pricing_plan_id":"free"},{"bike_id":"a39a9973-7e37-4b72-8e37-d2f5bf3831a9","system_id":"levelo_inurba_marseille","lat":43.29268,"lon":5.37629,"is_reserved":false,"is_disabled":false,"rental_uris":{"android":"levelo://app?vid=a39a9973-7e37-4b72-8e37-d2f5bf3831a9","ios":"levelo://app?vid=a39a9973-7e37-4b72-8e37-d2f5bf3831a9"},"vehicle_type_id":"4","last_reported":1699942195,"current_range_meters":26400,"station_id":"ce4bgi12rcd13ifvqb80","pricing_plan_id":"free"},{"bike_id":"4ec22551-70d8-4c72-83b8-e53c3520f9ef","system_id":"levelo_inurba_marseille","lat":43.291675,"lon":5.371583,"is_reserved":false,"is_disabled":false,"rental_uris":{"android":"levelo://app?vid=4ec22551-70d8-4c72-83b8-e53c3520f9ef","ios":"levelo://app?vid=4ec22551-70d8-4c72-83b8-e53c3520f9ef"},"vehicle_type_id":"4","last_reported":1699942195,"current_range_meters":29600,"station_id":"ce4bha92rcd13ifvqeh0","pricing_plan_id":"free"},{"bike_id":"1c93367a-ffeb-4b7d-b41d-8c984bb3e9a2","system_id":"levelo_inurba_marseille","lat":43.305364,"lon":5.384119,"is_reserved":false,"is_disabled":false,"rental_uris":{"android":"levelo://app?vid=1c93367a-ffeb-4b7d-b41d-8c984bb3e9a2","ios":"levelo://app?vid=1c93367a-ffeb-4b7d-b41d-8c984bb3e9a2"},"vehicle_type_id":"4","last_reported":1699942195,"current_range_meters":23200,"station_id":"ce4bgg92rcd13ifvqb30","pricing_plan_id":"free"},{"bike_id":"8b211cc5-98c2-4505-bcc4-256e2ac16594","system_id":"levelo_inurba_marseille","lat":43.302869,"lon":5.392906,"is_reserved":false,"is_disabled":false,"rental_uris":{"android":"levelo://app?vid=8b211cc5-98c2-4505-bcc4-256e2ac16594","ios":"levelo://app?vid=8b211cc5-98c2-4505-bcc4-256e2ac16594"},"vehicle_type_id":"4","last_reported":1699942195,"current_range_meters":12000,"station_id":"ce4bgk12rcd13ifvqbi0","pricing_plan_id":"free"},{"bike_id":"cbb164a1-fdd3-4d54-a9d0-ed20057c111f","system_id":"levelo_inurba_marseille","lat":43.291671,"lon":5.371575,"is_reserved":false,"is_disabled":false,"rental_uris":{"android":"levelo://app?vid=cbb164a1-fdd3-4d54-a9d0-ed20057c111f","ios":"levelo://app?vid=cbb164a1-fdd3-4d54-a9d0-ed20057c111f"},"vehicle_type_id":"4","last_reported":1699942195,"current_range_meters":11200,"station_id":"ce4bha92rcd13ifvqeh0","pricing_plan_id":"free"},{"bike_id":"24d2a2f8-d660-429f-8e0f-4cec1f85078f","system_id":"levelo_inurba_marseille","lat":43.31322,"lon":5.39687,"is_reserved":false,"is_disabled":false,"rental_uris":{"android":"levelo://app?vid=24d2a2f8-d660-429f-8e0f-4cec1f85078f","ios":"levelo://app?vid=24d2a2f8-d660-429f-8e0f-4cec1f85078f"},"vehicle_type_id":"4","last_reported":1699942195,"current_range_meters":14000,"station_id":"ce4bgvp2rcd13ifvqcu0","pricing_plan_id":"free"},{"bike_id":"04a127d4-4de4-4c5c-9e58-852bcac52681","system_id":"levelo_inurba_marseille","lat":43.313285,"lon":5.39687,"is_reserved":false,"is_disabled":false,"rental_uris":{"android":"levelo://app?vid=04a127d4-4de4-4c5c-9e58-852bcac52681","ios":"levelo://app?vid=04a127d4-4de4-4c5c-9e58-852bcac52681"},"vehicle_type_id":"4","last_reported":1699942195,"current_range_meters":6000,"station_id":"ce4bgvp2rcd13ifvqcu0","pricing_plan_id":"free"},{"bike_id":"24119afd-058c-4836-90ab-70c3bfad4244","system_id":"levelo_inurba_marseille","lat":43.30875,"lon":5.39638,"is_reserved":false,"is_disabled":false,"rental_uris":{"android":"levelo://app?vid=24119afd-058c-4836-90ab-70c3bfad4244","ios":"levelo://app?vid=24119afd-058c-4836-90ab-70c3bfad4244"},"vehicle_type_id":"4","last_reported":1699942195,"current_range_meters":31200,"station_id":"ce4bh012rcd13ifvqcv0","pricing_plan_id":"free"},{"bike_id":"e5514780-992d-4f8a-becb-83aafd01c33a","system_id":"levelo_inurba_marseille","lat":43.291924,"lon":5.35801,"is_reserved":false,"is_disabled":false,"rental_uris":{"android":"levelo://app?vid=e5514780-992d-4f8a-becb-83aafd01c33a","ios":"levelo://app?vid=e5514780-992d-4f8a-becb-83aafd01c33a"},"vehicle_type_id":"4","last_reported":1699942195,"current_range_meters":11200,"station_id":"ce4bhb12rcd13ifvqel0","pricing_plan_id":"free"},{"bike_id":"1e9cdac7-6d78-4812-8148-e0765b1ad192","system_id":"levelo_inurba_marseille","lat":43.30891,"lon":5.396435,"is_reserved":false,"is_disabled":false,"rental_uris":{"android":"levelo://app?vid=1e9cdac7-6d78-4812-8148-e0765b1ad192","ios":"levelo://app?vid=1e9cdac7-6d78-4812-8148-e0765b1ad192"},"vehicle_type_id":"4","last_reported":1699942195,"current_range_meters":30400,"station_id":"ce4bh012rcd13ifvqcv0","pricing_plan_id":"free"},{"bike_id":"345984a9-d215-44ee-ad54-df17ace9bb1c","system_id":"levelo_inurba_marseille","lat":43.313289,"lon":5.396899,"is_reserved":false,"is_disabled":false,"rental_uris":{"android":"levelo://app?vid=345984a9-d215-44ee-ad54-df17ace9bb1c","ios":"levelo://app?vid=345984a9-d215-44ee-ad54-df17ace9bb1c"},"vehicle_type_id":"4","last_reported":1699942195,"current_range_meters":9200,"station_id":"ce4bgvp2rcd13ifvqcu0","pricing_plan_id":"free"},{"bike_id":"4d9e9e76-f4ec-4dcc-9985-4f17864199fc","system_id":"levelo_inurba_marseille","lat":43.31331,"lon":5.3969,"is_reserved":false,"is_disabled":false,"rental_uris":{"android":"levelo://app?vid=4d9e9e76-f4ec-4dcc-9985-4f17864199fc","ios":"levelo://app?vid=4d9e9e76-f4ec-4dcc-9985-4f17864199fc"},"vehicle_type_id":"4","last_reported":1699942195,"current_range_meters":31200,"station_id":"ce4bgvp2rcd13ifvqcu0","pricing_plan_id":"free"},{"bike_id":"3d8e2ab7-8b7c-4843-882f-45cfae230419","system_id":"levelo_inurba_marseille","lat":43.313291,"lon":5.396838,"is_reserved":false,"is_disabled":false,"rental_uris":{"android":"levelo://app?vid=3d8e2ab7-8b7c-4843-882f-45cfae230419","ios":"levelo://app?vid=3d8e2ab7-8b7c-4843-882f-45cfae230419"},"vehicle_type_id":"4","last_reported":1699942195,"current_range_meters":10000,"station_id":"ce4bgvp2rcd13ifvqcu0","pricing_plan_id":"free"},{"bike_id":"82f5da04-0e20-4db4-a087-c5c2af21772c","system_id":"levelo_inurba_marseille","lat":43.31332,"lon":5.39691,"is_reserved":false,"is_disabled":false,"rental_uris":{"android":"levelo://app?vid=82f5da04-0e20-4db4-a087-c5c2af21772c","ios":"levelo://app?vid=82f5da04-0e20-4db4-a087-c5c2af21772c"},"vehicle_type_id":"4","last_reported":1699942195,"current_range_meters":23600,"station_id":"ce4bgvp2rcd13ifvqcu0","pricing_plan_id":"free"},{"bike_id":"75b7923c-d581-4553-94a9-91ad24caa356","system_id":"levelo_inurba_marseille","lat":43.30883,"lon":5.39645,"is_reserved":false,"is_disabled":false,"rental_uris":{"android":"levelo://app?vid=75b7923c-d581-4553-94a9-91ad24caa356","ios":"levelo://app?vid=75b7923c-d581-4553-94a9-91ad24caa356"},"vehicle_type_id":"4","last_reported":1699942195,"current_range_meters":30000,"station_id":"ce4bh012rcd13ifvqcv0","pricing_plan_id":"free"},{"bike_id":"44d3512e-08c0-410a-97ef-a5acc8d5f64c","system_id":"levelo_inurba_marseille","lat":43.308872,"lon":5.396484,"is_reserved":false,"is_disabled":false,"rental_uris":{"android":"levelo://app?vid=44d3512e-08c0-410a-97ef-a5acc8d5f64c","ios":"levelo://app?vid=44d3512e-08c0-410a-97ef-a5acc8d5f64c"},"vehicle_type_id":"4","last_reported":1699942195,"current_range_meters":31200,"station_id":"ce4bh012rcd13ifvqcv0","pricing_plan_id":"free"},{"bike_id":"7ba20c50-f3d5-4472-a168-6be49954b9f1","system_id":"levelo_inurba_marseille","lat":43.313284,"lon":5.396952,"is_reserved":false,"is_disabled":false,"rental_uris":{"android":"levelo://app?vid=7ba20c50-f3d5-4472-a168-6be49954b9f1","ios":"levelo://app?vid=7ba20c50-f3d5-4472-a168-6be49954b9f1"},"vehicle_type_id":"4","last_reported":1699942195,"current_range_meters":14000,"station_id":"ce4bgvp2rcd13ifvqcu0","pricing_plan_id":"free"},{"bike_id":"5ae76695-c966-4873-a6e9-7fda4a1d078c","system_id":"levelo_inurba_marseille","lat":43.308862,"lon":5.396508,"is_reserved":false,"is_disabled":false,"rental_uris":{"android":"levelo://app?vid=5ae76695-c966-4873-a6e9-7fda4a1d078c","ios":"levelo://app?vid=5ae76695-c966-4873-a6e9-7fda4a1d078c"},"vehicle_type_id":"4","last_reported":1699942195,"current_range_meters":19600,"station_id":"ce4bh012rcd13ifvqcv0","pricing_plan_id":"free"},{"bike_id":"56d5c5c0-e4d6-402f-b301-f11e8c42865e","system_id":"levelo_inurba_marseille","lat":43.30888,"lon":5.39652,"is_reserved":false,"is_disabled":false,"rental_uris":{"android":"levelo://app?vid=56d5c5c0-e4d6-402f-b301-f11e8c42865e","ios":"levelo://app?vid=56d5c5c0-e4d6-402f-b301-f11e8c42865e"},"vehicle_type_id":"4","last_reported":1699942195,"current_range_meters":31200,"station_id":"ce4bh012rcd13ifvqcv0","pricing_plan_id":"free"},{"bike_id":"b83af470-6192-4861-8b7d-424a0868f666","system_id":"levelo_inurba_marseille","lat":43.295319,"lon":5.385439,"is_reserved":false,"is_disabled":false,"rental_uris":{"android":"levelo://app?vid=b83af470-6192-4861-8b7d-424a0868f666","ios":"levelo://app?vid=b83af470-6192-4861-8b7d-424a0868f666"},"vehicle_type_id":"4","last_reported":1699942195,"current_range_meters":28800,"station_id":"ce4bgih2rcd13ifvqba0","pricing_plan_id":"free"},{"bike_id":"5bb00912-6b8e-4a03-8fb3-c541d22e2947","system_id":"levelo_inurba_marseille","lat":43.290624,"lon":5.359245,"is_reserved":false,"is_disabled":false,"rental_uris":{"android":"levelo://app?vid=5bb00912-6b8e-4a03-8fb3-c541d22e2947","ios":"levelo://app?vid=5bb00912-6b8e-4a03-8fb3-c541d22e2947"},"vehicle_type_id":"4","last_reported":1699942195,"current_range_meters":29600,"station_id":"ce4bha92rcd13ifvqeg0","pricing_plan_id":"free"},{"bike_id":"57ca5065-924f-4114-aecc-288957acb1ac","system_id":"levelo_inurba_marseille","lat":43.299717,"lon":5.384845,"is_reserved":false,"is_disabled":false,"rental_uris":{"android":"levelo://app?vid=57ca5065-924f-4114-aecc-288957acb1ac","ios":"levelo://app?vid=57ca5065-924f-4114-aecc-288957acb1ac"},"vehicle_type_id":"4","last_reported":1699942195,"current_range_meters":25600,"station_id":"ce4bgj92rcd13ifvqbd0","pricing_plan_id":"free"},{"bike_id":"6800c257-8579-4496-a736-d6e38c628fa0","system_id":"levelo_inurba_marseille","lat":43.290624,"lon":5.359245,"is_reserved":false,"is_disabled":false,"rental_uris":{"android":"levelo://app?vid=6800c257-8579-4496-a736-d6e38c628fa0","ios":"levelo://app?vid=6800c257-8579-4496-a736-d6e38c628fa0"},"vehicle_type_id":"4","last_reported":1699942195,"current_range_meters":28800,"station_id":"ce4bha92rcd13ifvqeg0","pricing_plan_id":"free"},{"bike_id":"9e292f2e-33f1-4c3b-b374-86435d7d0a75","system_id":"levelo_inurba_marseille","lat":43.299724,"lon":5.384848,"is_reserved":false,"is_disabled":false,"rental_uris":{"android":"levelo://app?vid=9e292f2e-33f1-4c3b-b374-86435d7d0a75","ios":"levelo://app?vid=9e292f2e-33f1-4c3b-b374-86435d7d0a75"},"vehicle_type_id":"4","last_reported":1699942195,"current_range_meters":27200,"station_id":"ce4bgj92rcd13ifvqbd0","pricing_plan_id":"free"},{"bike_id":"b2b688fb-5f87-4c13-8906-3ab46f11d1fc","system_id":"levelo_inurba_marseille","lat":43.290327,"lon":5.375711,"is_reserved":false,"is_disabled":false,"rental_uris":{"android":"levelo://app?vid=b2b688fb-5f87-4c13-8906-3ab46f11d1fc","ios":"levelo://app?vid=b2b688fb-5f87-4c13-8906-3ab46f11d1fc"},"vehicle_type_id":"4","last_reported":1699942195,"current_range_meters":19200,"station_id":"ce4bh692rcd13ifvqe90","pricing_plan_id":"free"},{"bike_id":"32ead1b0-f497-4ee0-baaa-c68348fc2ad8","system_id":"levelo_inurba_marseille","lat":43.289468,"lon":5.363719,"is_reserved":false,"is_disabled":false,"rental_uris":{"android":"levelo://app?vid=32ead1b0-f497-4ee0-baaa-c68348fc2ad8","ios":"levelo://app?vid=32ead1b0-f497-4ee0-baaa-c68348fc2ad8"},"vehicle_type_id":"4","last_reported":1699942195,"current_range_meters":20000,"station_id":"ce4bhc92rcd13ifvqetg","pricing_plan_id":"free"},{"bike_id":"70e0533e-b3db-4159-ac18-d1f03b615b7f","system_id":"levelo_inurba_marseille","lat":43.289468,"lon":5.363719,"is_reserved":false,"is_disabled":false,"rental_uris":{"android":"levelo://app?vid=70e0533e-b3db-4159-ac18-d1f03b615b7f","ios":"levelo://app?vid=70e0533e-b3db-4159-ac18-d1f03b615b7f"},"vehicle_type_id":"4","last_reported":1699942195,"current_range_meters":23600,"station_id":"ce4bhc92rcd13ifvqetg","pricing_plan_id":"free"},{"bike_id":"3b5f088d-f043-460d-8cb8-67fa547064cd","system_id":"levelo_inurba_marseille","lat":43.289468,"lon":5.363719,"is_reserved":false,"is_disabled":false,"rental_uris":{"android":"levelo://app?vid=3b5f088d-f043-460d-8cb8-67fa547064cd","ios":"levelo://app?vid=3b5f088d-f043-460d-8cb8-67fa547064cd"},"vehicle_type_id":"4","last_reported":1699942195,"current_range_meters":24400,"station_id":"ce4bhc92rcd13ifvqetg","pricing_plan_id":"free"},{"bike_id":"850678fc-7a83-45f4-b3db-ccb9472f987d","system_id":"levelo_inurba_marseille","lat":43.289375,"lon":5.363976,"is_reserved":false,"is_disabled":false,"rental_uris":{"android":"levelo://app?vid=850678fc-7a83-45f4-b3db-ccb9472f987d","ios":"levelo://app?vid=850678fc-7a83-45f4-b3db-ccb9472f987d"},"vehicle_type_id":"4","last_reported":1699942195,"current_range_meters":27600,"station_id":"ce4bhc92rcd13ifvqetg","pricing_plan_id":"free"},{"bike_id":"f0e76257-0e1e-4fdf-9038-a2ef7ad46f79","system_id":"levelo_inurba_marseille","lat":43.289468,"lon":5.363719,"is_reserved":false,"is_disabled":false,"rental_uris":{"android":"levelo://app?vid=f0e76257-0e1e-4fdf-9038-a2ef7ad46f79","ios":"levelo://app?vid=f0e76257-0e1e-4fdf-9038-a2ef7ad46f79"},"vehicle_type_id":"4","last_reported":1699942195,"current_range_meters":31600,"station_id":"ce4bhc92rcd13ifvqetg","pricing_plan_id":"free"},{"bike_id":"9a348317-56b3-4bf7-8a89-128033d8e49a","system_id":"levelo_inurba_marseille","lat":43.289468,"lon":5.363719,"is_reserved":false,"is_disabled":false,"rental_uris":{"android":"levelo://app?vid=9a348317-56b3-4bf7-8a89-128033d8e49a","ios":"levelo://app?vid=9a348317-56b3-4bf7-8a89-128033d8e49a"},"vehicle_type_id":"4","last_reported":1699942195,"current_range_meters":13600,"station_id":"ce4bhc92rcd13ifvqetg","pricing_plan_id":"free"},{"bike_id":"7377c7ba-4902-4b23-8a9d-225b9b93baa8","system_id":"levelo_inurba_marseille","lat":43.290198,"lon":5.357794,"is_reserved":false,"is_disabled":false,"rental_uris":{"android":"levelo://app?vid=7377c7ba-4902-4b23-8a9d-225b9b93baa8","ios":"levelo://app?vid=7377c7ba-4902-4b23-8a9d-225b9b93baa8"},"vehicle_type_id":"4","last_reported":1699942195,"current_range_meters":11600,"station_id":"","pricing_plan_id":"free"},{"bike_id":"f95fefb9-5c12-4879-a7ba-d97105a8b312","system_id":"levelo_inurba_marseille","lat":43.289303,"lon":5.363881,"is_reserved":false,"is_disabled":false,"rental_uris":{"android":"levelo://app?vid=f95fefb9-5c12-4879-a7ba-d97105a8b312","ios":"levelo://app?vid=f95fefb9-5c12-4879-a7ba-d97105a8b312"},"vehicle_type_id":"4","last_reported":1699942195,"current_range_meters":20800,"station_id":"ce4bhc92rcd13ifvqetg","pricing_plan_id":"free"},{"bike_id":"63b5fc6f-d4f1-473f-8439-3102aab43905","system_id":"levelo_inurba_marseille","lat":43.304274,"lon":5.397513,"is_reserved":false,"is_disabled":false,"rental_uris":{"android":"levelo://app?vid=63b5fc6f-d4f1-473f-8439-3102aab43905","ios":"levelo://app?vid=63b5fc6f-d4f1-473f-8439-3102aab43905"},"vehicle_type_id":"4","last_reported":1699942195,"current_range_meters":26400,"station_id":"ce4bh092rcd13ifvqd20","pricing_plan_id":"free"},{"bike_id":"73762dce-b716-4da6-9660-a60806cec6c1","system_id":"levelo_inurba_marseille","lat":43.304274,"lon":5.397513,"is_reserved":false,"is_disabled":false,"rental_uris":{"android":"levelo://app?vid=73762dce-b716-4da6-9660-a60806cec6c1","ios":"levelo://app?vid=73762dce-b716-4da6-9660-a60806cec6c1"},"vehicle_type_id":"4","last_reported":1699942195,"current_range_meters":29200,"station_id":"ce4bh092rcd13ifvqd20","pricing_plan_id":"free"},{"bike_id":"960d76c6-0852-4ea4-ab04-727134e1b3f3","system_id":"levelo_inurba_marseille","lat":43.290103,"lon":5.356114,"is_reserved":false,"is_disabled":false,"rental_uris":{"android":"levelo://app?vid=960d76c6-0852-4ea4-ab04-727134e1b3f3","ios":"levelo://app?vid=960d76c6-0852-4ea4-ab04-727134e1b3f3"},"vehicle_type_id":"4","last_reported":1699942195,"current_range_meters":29200,"station_id":"ce4bhb92rcd13ifvqen0","pricing_plan_id":"free"},{"bike_id":"9e4059ec-8dde-4a98-b12c-09ac6e566622","system_id":"levelo_inurba_marseille","lat":43.290103,"lon":5.356114,"is_reserved":false,"is_disabled":false,"rental_uris":{"android":"levelo://app?vid=9e4059ec-8dde-4a98-b12c-09ac6e566622","ios":"levelo://app?vid=9e4059ec-8dde-4a98-b12c-09ac6e566622"},"vehicle_type_id":"4","last_reported":1699942195,"current_range_meters":1200,"station_id":"ce4bhb92rcd13ifvqen0","pricing_plan_id":"free"},{"bike_id":"aee096e5-440f-47da-ad12-1e3c64b6f28a","system_id":"levelo_inurba_marseille","lat":43.30245,"lon":5.39674,"is_reserved":false,"is_disabled":false,"rental_uris":{"android":"levelo://app?vid=aee096e5-440f-47da-ad12-1e3c64b6f28a","ios":"levelo://app?vid=aee096e5-440f-47da-ad12-1e3c64b6f28a"},"vehicle_type_id":"4","last_reported":1699942195,"current_range_meters":14800,"station_id":"","pricing_plan_id":"free"},{"bike_id":"6ef28313-71ef-4d72-b95a-34dc5f32367f","system_id":"levelo_inurba_marseille","lat":43.289743,"lon":5.378304,"is_reserved":false,"is_disabled":false,"rental_uris":{"android":"levelo://app?vid=6ef28313-71ef-4d72-b95a-34dc5f32367f","ios":"levelo://app?vid=6ef28313-71ef-4d72-b95a-34dc5f32367f"},"vehicle_type_id":"4","last_reported":1699942195,"current_range_meters":28000,"station_id":"ce4bh9p2rcd13ifvqed0","pricing_plan_id":"free"},{"bike_id":"f9db6ed7-4159-4185-8b5d-8931d14d7071","system_id":"levelo_inurba_marseille","lat":43.295169,"lon":5.390426,"is_reserved":false,"is_disabled":false,"rental_uris":{"android":"levelo://app?vid=f9db6ed7-4159-4185-8b5d-8931d14d7071","ios":"levelo://app?vid=f9db6ed7-4159-4185-8b5d-8931d14d7071"},"vehicle_type_id":"4","last_reported":1699942195,"current_range_meters":18400,"station_id":"ce4bh3p2rcd13ifvqdp0","pricing_plan_id":"free"},{"bike_id":"e44a6034-b203-4dfe-966c-16aa5fe8c471","system_id":"levelo_inurba_marseille","lat":43.33059,"lon":5.39056,"is_reserved":false,"is_disabled":false,"rental_uris":{"android":"levelo://app?vid=e44a6034-b203-4dfe-966c-16aa5fe8c471","ios":"levelo://app?vid=e44a6034-b203-4dfe-966c-16aa5fe8c471"},"vehicle_type_id":"4","last_reported":1699942195,"current_range_meters":10400,"station_id":"","pricing_plan_id":"free"},{"bike_id":"7a1356b5-2437-4bfa-bb34-cf55b7f00bb1","system_id":"levelo_inurba_marseille","lat":43.33063,"lon":5.39051,"is_reserved":false,"is_disabled":false,"rental_uris":{"android":"levelo://app?vid=7a1356b5-2437-4bfa-bb34-cf55b7f00bb1","ios":"levelo://app?vid=7a1356b5-2437-4bfa-bb34-cf55b7f00bb1"},"vehicle_type_id":"4","last_reported":1699942195,"current_range_meters":4400,"station_id":"","pricing_plan_id":"free"},{"bike_id":"359ac778-3325-46f2-b3e4-51e606a898a4","system_id":"levelo_inurba_marseille","lat":43.2901,"lon":5.381269,"is_reserved":false,"is_disabled":false,"rental_uris":{"android":"levelo://app?vid=359ac778-3325-46f2-b3e4-51e606a898a4","ios":"levelo://app?vid=359ac778-3325-46f2-b3e4-51e606a898a4"},"vehicle_type_id":"4","last_reported":1699942195,"current_range_meters":23600,"station_id":"ce4bh4p2rcd13ifvqe1g","pricing_plan_id":"free"},{"bike_id":"d266334d-08f8-4626-822b-4ad2e41a3be0","system_id":"levelo_inurba_marseille","lat":43.312839,"lon":5.401702,"is_reserved":false,"is_disabled":false,"rental_uris":{"android":"levelo://app?vid=d266334d-08f8-4626-822b-4ad2e41a3be0","ios":"levelo://app?vid=d266334d-08f8-4626-822b-4ad2e41a3be0"},"vehicle_type_id":"4","last_reported":1699942195,"current_range_meters":20400,"station_id":"ce4bh092rcd13ifvqd30","pricing_plan_id":"free"},{"bike_id":"0c06e105-b228-4a72-ac99-141f3fab6e41","system_id":"levelo_inurba_marseille","lat":43.30923,"lon":5.40137,"is_reserved":false,"is_disabled":false,"rental_uris":{"android":"levelo://app?vid=0c06e105-b228-4a72-ac99-141f3fab6e41","ios":"levelo://app?vid=0c06e105-b228-4a72-ac99-141f3fab6e41"},"vehicle_type_id":"4","last_reported":1699942195,"current_range_meters":29600,"station_id":"ce4bgvp2rcd13ifvqct0","pricing_plan_id":"free"},{"bike_id":"25e21b9e-f966-4cdf-b5f2-81641e878ff0","system_id":"levelo_inurba_marseille","lat":43.309345,"lon":5.401427,"is_reserved":false,"is_disabled":false,"rental_uris":{"android":"levelo://app?vid=25e21b9e-f966-4cdf-b5f2-81641e878ff0","ios":"levelo://app?vid=25e21b9e-f966-4cdf-b5f2-81641e878ff0"},"vehicle_type_id":"4","last_reported":1699942195,"current_range_meters":28000,"station_id":"ce4bgvp2rcd13ifvqct0","pricing_plan_id":"free"},{"bike_id":"a6d8d95f-e604-4c8b-abfb-af3f943d7848","system_id":"levelo_inurba_marseille","lat":43.30663,"lon":5.400757,"is_reserved":false,"is_disabled":false,"rental_uris":{"android":"levelo://app?vid=a6d8d95f-e604-4c8b-abfb-af3f943d7848","ios":"levelo://app?vid=a6d8d95f-e604-4c8b-abfb-af3f943d7848"},"vehicle_type_id":"4","last_reported":1699942195,"current_range_meters":28000,"station_id":"ce4bh112rcd13ifvqda0","pricing_plan_id":"free"},{"bike_id":"a0637bd7-5d7b-49d8-afd2-5f10bd48b516","system_id":"levelo_inurba_marseille","lat":43.30642,"lon":5.401031,"is_reserved":false,"is_disabled":false,"rental_uris":{"android":"levelo://app?vid=a0637bd7-5d7b-49d8-afd2-5f10bd48b516","ios":"levelo://app?vid=a0637bd7-5d7b-49d8-afd2-5f10bd48b516"},"vehicle_type_id":"4","last_reported":1699942195,"current_range_meters":30800,"station_id":"ce4bh112rcd13ifvqda0","pricing_plan_id":"free"},{"bike_id":"aec9de4b-b31b-4949-b90e-3d92d3c53b97","system_id":"levelo_inurba_marseille","lat":43.309371,"lon":5.401449,"is_reserved":false,"is_disabled":false,"rental_uris":{"android":"levelo://app?vid=aec9de4b-b31b-4949-b90e-3d92d3c53b97","ios":"levelo://app?vid=aec9de4b-b31b-4949-b90e-3d92d3c53b97"},"vehicle_type_id":"4","last_reported":1699942195,"current_range_meters":0,"station_id":"ce4bgvp2rcd13ifvqct0","pricing_plan_id":"free"},{"bike_id":"8fed6282-8e51-49cb-89d3-ea38008549ee","system_id":"levelo_inurba_marseille","lat":43.309371,"lon":5.401449,"is_reserved":false,"is_disabled":false,"rental_uris":{"android":"levelo://app?vid=8fed6282-8e51-49cb-89d3-ea38008549ee","ios":"levelo://app?vid=8fed6282-8e51-49cb-89d3-ea38008549ee"},"vehicle_type_id":"4","last_reported":1699942195,"current_range_meters":30800,"station_id":"ce4bgvp2rcd13ifvqct0","pricing_plan_id":"free"},{"bike_id":"f90a2433-1875-442d-882d-f9e15edc1265","system_id":"levelo_inurba_marseille","lat":43.30659,"lon":5.40088,"is_reserved":false,"is_disabled":false,"rental_uris":{"android":"levelo://app?vid=f90a2433-1875-442d-882d-f9e15edc1265","ios":"levelo://app?vid=f90a2433-1875-442d-882d-f9e15edc1265"},"vehicle_type_id":"4","last_reported":1699942195,"current_range_meters":25200,"station_id":"ce4bh112rcd13ifvqda0","pricing_plan_id":"free"},{"bike_id":"5382b2eb-1007-4a4a-a5a9-482217cacb49","system_id":"levelo_inurba_marseille","lat":43.30654,"lon":5.40097,"is_reserved":false,"is_disabled":false,"rental_uris":{"android":"levelo://app?vid=5382b2eb-1007-4a4a-a5a9-482217cacb49","ios":"levelo://app?vid=5382b2eb-1007-4a4a-a5a9-482217cacb49"},"vehicle_type_id":"4","last_reported":1699942195,"current_range_meters":30000,"station_id":"ce4bh112rcd13ifvqda0","pricing_plan_id":"free"},{"bike_id":"743f3bc5-43c9-45a3-8965-b67b169c6c30","system_id":"levelo_inurba_marseille","lat":43.30513,"lon":5.40077,"is_reserved":false,"is_disabled":false,"rental_uris":{"android":"levelo://app?vid=743f3bc5-43c9-45a3-8965-b67b169c6c30","ios":"levelo://app?vid=743f3bc5-43c9-45a3-8965-b67b169c6c30"},"vehicle_type_id":"4","last_reported":1699942195,"current_range_meters":0,"station_id":"","pricing_plan_id":"free"},{"bike_id":"87104090-24f3-4f97-9e51-39869eebbefa","system_id":"levelo_inurba_marseille","lat":43.301117,"lon":5.398795,"is_reserved":false,"is_disabled":false,"rental_uris":{"android":"levelo://app?vid=87104090-24f3-4f97-9e51-39869eebbefa","ios":"levelo://app?vid=87104090-24f3-4f97-9e51-39869eebbefa"},"vehicle_type_id":"4","last_reported":1699942195,"current_range_meters":18400,"station_id":"ce4bh0h2rcd13ifvqd40","pricing_plan_id":"free"},{"bike_id":"0fcda4ca-3cf5-4d5b-a595-d0b9ce29b0a8","system_id":"levelo_inurba_marseille","lat":43.301377,"lon":5.398873,"is_reserved":false,"is_disabled":false,"rental_uris":{"android":"levelo://app?vid=0fcda4ca-3cf5-4d5b-a595-d0b9ce29b0a8","ios":"levelo://app?vid=0fcda4ca-3cf5-4d5b-a595-d0b9ce29b0a8"},"vehicle_type_id":"4","last_reported":1699942195,"current_range_meters":30000,"station_id":"ce4bh0h2rcd13ifvqd40","pricing_plan_id":"free"},{"bike_id":"8cdc884e-0864-445a-8bc6-df5cd0142d44","system_id":"levelo_inurba_marseille","lat":43.30131,"lon":5.39883,"is_reserved":false,"is_disabled":false,"rental_uris":{"android":"levelo://app?vid=8cdc884e-0864-445a-8bc6-df5cd0142d44","ios":"levelo://app?vid=8cdc884e-0864-445a-8bc6-df5cd0142d44"},"vehicle_type_id":"4","last_reported":1699942195,"current_range_meters":29600,"station_id":"ce4bh0h2rcd13ifvqd40","pricing_plan_id":"free"},{"bike_id":"9c1b6663-f3b1-4663-86c5-7855c2b0effb","system_id":"levelo_inurba_marseille","lat":43.28727,"lon":5.36078,"is_reserved":false,"is_disabled":false,"rental_uris":{"android":"levelo://app?vid=9c1b6663-f3b1-4663-86c5-7855c2b0effb","ios":"levelo://app?vid=9c1b6663-f3b1-4663-86c5-7855c2b0effb"},"vehicle_type_id":"4","last_reported":1699942195,"current_range_meters":29600,"station_id":"cki0cbj6b192h4jlfktg","pricing_plan_id":"free"},{"bike_id":"fad50f8e-0cd9-4ea2-b715-5fd4f466bf18","system_id":"levelo_inurba_marseille","lat":43.298681,"lon":5.397225,"is_reserved":false,"is_disabled":false,"rental_uris":{"android":"levelo://app?vid=fad50f8e-0cd9-4ea2-b715-5fd4f466bf18","ios":"levelo://app?vid=fad50f8e-0cd9-4ea2-b715-5fd4f466bf18"},"vehicle_type_id":"4","last_reported":1699942195,"current_range_meters":31200,"station_id":"ce4bh0h2rcd13ifvqd50","pricing_plan_id":"free"},{"bike_id":"88c53472-552a-437b-bd50-48d5a96b39c1","system_id":"levelo_inurba_marseille","lat":43.298681,"lon":5.397225,"is_reserved":false,"is_disabled":false,"rental_uris":{"android":"levelo://app?vid=88c53472-552a-437b-bd50-48d5a96b39c1","ios":"levelo://app?vid=88c53472-552a-437b-bd50-48d5a96b39c1"},"vehicle_type_id":"4","last_reported":1699942195,"current_range_meters":15600,"station_id":"ce4bh0h2rcd13ifvqd50","pricing_plan_id":"free"},{"bike_id":"bf803e1b-48f1-45bb-99a3-7b0ed69e32ed","system_id":"levelo_inurba_marseille","lat":43.298681,"lon":5.397225,"is_reserved":false,"is_disabled":false,"rental_uris":{"android":"levelo://app?vid=bf803e1b-48f1-45bb-99a3-7b0ed69e32ed","ios":"levelo://app?vid=bf803e1b-48f1-45bb-99a3-7b0ed69e32ed"},"vehicle_type_id":"4","last_reported":1699942195,"current_range_meters":13200,"station_id":"ce4bh0h2rcd13ifvqd50","pricing_plan_id":"free"},{"bike_id":"f6cc63c4-8ae2-41b4-b580-4f0f39fcdf53","system_id":"levelo_inurba_marseille","lat":43.298681,"lon":5.397225,"is_reserved":false,"is_disabled":false,"rental_uris":{"android":"levelo://app?vid=f6cc63c4-8ae2-41b4-b580-4f0f39fcdf53","ios":"levelo://app?vid=f6cc63c4-8ae2-41b4-b580-4f0f39fcdf53"},"vehicle_type_id":"4","last_reported":1699942195,"current_range_meters":29200,"station_id":"ce4bh0h2rcd13ifvqd50","pricing_plan_id":"free"},{"bike_id":"f7f30331-ce37-461a-ba48-6dfe76fefe14","system_id":"levelo_inurba_marseille","lat":43.286961,"lon":5.373785,"is_reserved":false,"is_disabled":false,"rental_uris":{"android":"levelo://app?vid=f7f30331-ce37-461a-ba48-6dfe76fefe14","ios":"levelo://app?vid=f7f30331-ce37-461a-ba48-6dfe76fefe14"},"vehicle_type_id":"4","last_reported":1699942195,"current_range_meters":19600,"station_id":"ce4bh3p2rcd13ifvqdq0","pricing_plan_id":"free"},{"bike_id":"52c0ce33-feea-4b62-b7c4-0715f4debac7","system_id":"levelo_inurba_marseille","lat":43.298681,"lon":5.397225,"is_reserved":false,"is_disabled":false,"rental_uris":{"android":"levelo://app?vid=52c0ce33-feea-4b62-b7c4-0715f4debac7","ios":"levelo://app?vid=52c0ce33-feea-4b62-b7c4-0715f4debac7"},"vehicle_type_id":"4","last_reported":1699942195,"current_range_meters":22000,"station_id":"ce4bh0h2rcd13ifvqd50","pricing_plan_id":"free"},{"bike_id":"6094ff4d-0dd6-4fb6-983f-63cb06d954f1","system_id":"levelo_inurba_marseille","lat":43.286591,"lon":5.363346,"is_reserved":false,"is_disabled":false,"rental_uris":{"android":"levelo://app?vid=6094ff4d-0dd6-4fb6-983f-63cb06d954f1","ios":"levelo://app?vid=6094ff4d-0dd6-4fb6-983f-63cb06d954f1"},"vehicle_type_id":"4","last_reported":1699942195,"current_range_meters":30400,"station_id":"ce4bhah2rcd13ifvqej0","pricing_plan_id":"free"},{"bike_id":"e73ad751-3c37-4366-9f28-55b4a21fe448","system_id":"levelo_inurba_marseille","lat":43.286591,"lon":5.363346,"is_reserved":false,"is_disabled":false,"rental_uris":{"android":"levelo://app?vid=e73ad751-3c37-4366-9f28-55b4a21fe448","ios":"levelo://app?vid=e73ad751-3c37-4366-9f28-55b4a21fe448"},"vehicle_type_id":"4","last_reported":1699942195,"current_range_meters":31200,"station_id":"ce4bhah2rcd13ifvqej0","pricing_plan_id":"free"},{"bike_id":"5df8573b-5feb-4baa-acae-86822eac5cfe","system_id":"levelo_inurba_marseille","lat":43.298681,"lon":5.397225,"is_reserved":false,"is_disabled":false,"rental_uris":{"android":"levelo://app?vid=5df8573b-5feb-4baa-acae-86822eac5cfe","ios":"levelo://app?vid=5df8573b-5feb-4baa-acae-86822eac5cfe"},"vehicle_type_id":"4","last_reported":1699942195,"current_range_meters":22000,"station_id":"ce4bh0h2rcd13ifvqd50","pricing_plan_id":"free"},{"bike_id":"83d8316f-5ab9-4326-b5f9-ba906e10fcfb","system_id":"levelo_inurba_marseille","lat":43.286636,"lon":5.363519,"is_reserved":false,"is_disabled":false,"rental_uris":{"android":"levelo://app?vid=83d8316f-5ab9-4326-b5f9-ba906e10fcfb","ios":"levelo://app?vid=83d8316f-5ab9-4326-b5f9-ba906e10fcfb"},"vehicle_type_id":"4","last_reported":1699942195,"current_range_meters":28800,"station_id":"ce4bhah2rcd13ifvqej0","pricing_plan_id":"free"},{"bike_id":"0cf98487-623f-4aef-bae2-0e913a1d5d51","system_id":"levelo_inurba_marseille","lat":43.286627,"lon":5.363563,"is_reserved":false,"is_disabled":false,"rental_uris":{"android":"levelo://app?vid=0cf98487-623f-4aef-bae2-0e913a1d5d51","ios":"levelo://app?vid=0cf98487-623f-4aef-bae2-0e913a1d5d51"},"vehicle_type_id":"4","last_reported":1699942195,"current_range_meters":6400,"station_id":"ce4bhah2rcd13ifvqej0","pricing_plan_id":"free"},{"bike_id":"f37f3891-058f-4d4b-bba7-60357f67887e","system_id":"levelo_inurba_marseille","lat":43.287005,"lon":5.373876,"is_reserved":false,"is_disabled":false,"rental_uris":{"android":"levelo://app?vid=f37f3891-058f-4d4b-bba7-60357f67887e","ios":"levelo://app?vid=f37f3891-058f-4d4b-bba7-60357f67887e"},"vehicle_type_id":"4","last_reported":1699942195,"current_range_meters":16800,"station_id":"ce4bh3p2rcd13ifvqdq0","pricing_plan_id":"free"},{"bike_id":"095ce675-8474-41fa-a9c9-2feea8328fd2","system_id":"levelo_inurba_marseille","lat":43.286974,"lon":5.373896,"is_reserved":false,"is_disabled":false,"rental_uris":{"android":"levelo://app?vid=095ce675-8474-41fa-a9c9-2feea8328fd2","ios":"levelo://app?vid=095ce675-8474-41fa-a9c9-2feea8328fd2"},"vehicle_type_id":"4","last_reported":1699942195,"current_range_meters":30800,"station_id":"ce4bh3p2rcd13ifvqdq0","pricing_plan_id":"free"},{"bike_id":"0df7fbee-03c1-4979-a41d-c602591139fb","system_id":"levelo_inurba_marseille","lat":43.286593,"lon":5.363346,"is_reserved":false,"is_disabled":false,"rental_uris":{"android":"levelo://app?vid=0df7fbee-03c1-4979-a41d-c602591139fb","ios":"levelo://app?vid=0df7fbee-03c1-4979-a41d-c602591139fb"},"vehicle_type_id":"4","last_reported":1699942195,"current_range_meters":26000,"station_id":"ce4bhah2rcd13ifvqej0","pricing_plan_id":"free"},{"bike_id":"8efdcaf2-8edd-4678-af34-ff4f115e2c04","system_id":"levelo_inurba_marseille","lat":43.286591,"lon":5.363346,"is_reserved":false,"is_disabled":false,"rental_uris":{"android":"levelo://app?vid=8efdcaf2-8edd-4678-af34-ff4f115e2c04","ios":"levelo://app?vid=8efdcaf2-8edd-4678-af34-ff4f115e2c04"},"vehicle_type_id":"4","last_reported":1699942195,"current_range_meters":30400,"station_id":"ce4bhah2rcd13ifvqej0","pricing_plan_id":"free"},{"bike_id":"83609273-3da0-4a05-9e49-6aa87274bd4a","system_id":"levelo_inurba_marseille","lat":43.295194,"lon":5.39397,"is_reserved":false,"is_disabled":false,"rental_uris":{"android":"levelo://app?vid=83609273-3da0-4a05-9e49-6aa87274bd4a","ios":"levelo://app?vid=83609273-3da0-4a05-9e49-6aa87274bd4a"},"vehicle_type_id":"4","last_reported":1699942195,"current_range_meters":4000,"station_id":"ce4bh292rcd13ifvqdf0","pricing_plan_id":"free"},{"bike_id":"2c40cfcf-1c15-4f33-9d87-c2754f2dae28","system_id":"levelo_inurba_marseille","lat":43.295196,"lon":5.39397,"is_reserved":false,"is_disabled":false,"rental_uris":{"android":"levelo://app?vid=2c40cfcf-1c15-4f33-9d87-c2754f2dae28","ios":"levelo://app?vid=2c40cfcf-1c15-4f33-9d87-c2754f2dae28"},"vehicle_type_id":"4","last_reported":1699942195,"current_range_meters":31200,"station_id":"ce4bh292rcd13ifvqdf0","pricing_plan_id":"free"},{"bike_id":"628788fc-f103-415b-8a32-3c9d3ce310d3","system_id":"levelo_inurba_marseille","lat":43.290334,"lon":5.386417,"is_reserved":false,"is_disabled":false,"rental_uris":{"android":"levelo://app?vid=628788fc-f103-415b-8a32-3c9d3ce310d3","ios":"levelo://app?vid=628788fc-f103-415b-8a32-3c9d3ce310d3"},"vehicle_type_id":"4","last_reported":1699942195,"current_range_meters":23200,"station_id":"ce4bh4p2rcd13ifvqe0g","pricing_plan_id":"free"},{"bike_id":"697bc6c6-fd68-4cab-9faf-dec3a18da3c5","system_id":"levelo_inurba_marseille","lat":43.302759,"lon":5.400793,"is_reserved":false,"is_disabled":false,"rental_uris":{"android":"levelo://app?vid=697bc6c6-fd68-4cab-9faf-dec3a18da3c5","ios":"levelo://app?vid=697bc6c6-fd68-4cab-9faf-dec3a18da3c5"},"vehicle_type_id":"4","last_reported":1699942195,"current_range_meters":29600,"station_id":"ce4bgvh2rcd13ifvqcs0","pricing_plan_id":"free"},{"bike_id":"a5ac0fd4-1afe-4823-86d2-c4104cd2449e","system_id":"levelo_inurba_marseille","lat":43.28859,"lon":5.382256,"is_reserved":false,"is_disabled":false,"rental_uris":{"android":"levelo://app?vid=a5ac0fd4-1afe-4823-86d2-c4104cd2449e","ios":"levelo://app?vid=a5ac0fd4-1afe-4823-86d2-c4104cd2449e"},"vehicle_type_id":"4","last_reported":1699942195,"current_range_meters":28800,"station_id":"","pricing_plan_id":"free"},{"bike_id":"10d1d1e3-92b0-4dd2-a9e6-27cd6164d2ff","system_id":"levelo_inurba_marseille","lat":43.286039,"lon":5.370681,"is_reserved":false,"is_disabled":false,"rental_uris":{"android":"levelo://app?vid=10d1d1e3-92b0-4dd2-a9e6-27cd6164d2ff","ios":"levelo://app?vid=10d1d1e3-92b0-4dd2-a9e6-27cd6164d2ff"},"vehicle_type_id":"4","last_reported":1699942195,"current_range_meters":10400,"station_id":"ce4bht12rcd13ifvqi60","pricing_plan_id":"free"},{"bike_id":"6f4872c2-a27f-4f77-95bf-82bbbc3cdf13","system_id":"levelo_inurba_marseille","lat":43.31643,"lon":5.40439,"is_reserved":false,"is_disabled":false,"rental_uris":{"android":"levelo://app?vid=6f4872c2-a27f-4f77-95bf-82bbbc3cdf13","ios":"levelo://app?vid=6f4872c2-a27f-4f77-95bf-82bbbc3cdf13"},"vehicle_type_id":"4","last_reported":1699942195,"current_range_meters":31200,"station_id":"ce4bh012rcd13ifvqd00","pricing_plan_id":"free"},{"bike_id":"1156cb69-8ddf-4169-840f-d81d7a3cd67d","system_id":"levelo_inurba_marseille","lat":43.304606,"lon":5.379026,"is_reserved":false,"is_disabled":false,"rental_uris":{"android":"levelo://app?vid=1156cb69-8ddf-4169-840f-d81d7a3cd67d","ios":"levelo://app?vid=1156cb69-8ddf-4169-840f-d81d7a3cd67d"},"vehicle_type_id":"4","last_reported":1699942195,"current_range_meters":27200,"station_id":"ce4bgup2rcd13ifvqcn0","pricing_plan_id":"free"},{"bike_id":"3907a608-722a-4a3e-8047-40a0cdf5836a","system_id":"levelo_inurba_marseille","lat":43.304274,"lon":5.388873,"is_reserved":false,"is_disabled":false,"rental_uris":{"android":"levelo://app?vid=3907a608-722a-4a3e-8047-40a0cdf5836a","ios":"levelo://app?vid=3907a608-722a-4a3e-8047-40a0cdf5836a"},"vehicle_type_id":"4","last_reported":1699942195,"current_range_meters":28800,"station_id":"ce4bgk12rcd13ifvqbi0","pricing_plan_id":"free"},{"bike_id":"e0e89531-6a51-459d-a596-1611f507886a","system_id":"levelo_inurba_marseille","lat":43.304274,"lon":5.388873,"is_reserved":false,"is_disabled":false,"rental_uris":{"android":"levelo://app?vid=e0e89531-6a51-459d-a596-1611f507886a","ios":"levelo://app?vid=e0e89531-6a51-459d-a596-1611f507886a"},"vehicle_type_id":"4","last_reported":1699942195,"current_range_meters":31200,"station_id":"ce4bgk12rcd13ifvqbi0","pricing_plan_id":"free"},{"bike_id":"e57449c2-d088-47cf-8bf2-271593713c89","system_id":"levelo_inurba_marseille","lat":43.328576,"lon":5.398841,"is_reserved":false,"is_disabled":false,"rental_uris":{"android":"levelo://app?vid=e57449c2-d088-47cf-8bf2-271593713c89","ios":"levelo://app?vid=e57449c2-d088-47cf-8bf2-271593713c89"},"vehicle_type_id":"4","last_reported":1699942195,"current_range_meters":0,"station_id":"","pricing_plan_id":"free"},{"bike_id":"2a350427-e059-4400-b2f8-b0d5fada1c05","system_id":"levelo_inurba_marseille","lat":43.291994,"lon":5.392907,"is_reserved":false,"is_disabled":false,"rental_uris":{"android":"levelo://app?vid=2a350427-e059-4400-b2f8-b0d5fada1c05","ios":"levelo://app?vid=2a350427-e059-4400-b2f8-b0d5fada1c05"},"vehicle_type_id":"4","last_reported":1699942195,"current_range_meters":3200,"station_id":"ce4bh192rcd13ifvqdd0","pricing_plan_id":"free"},{"bike_id":"64d518cc-1608-4e60-8b51-fbd1ba22c04f","system_id":"levelo_inurba_marseille","lat":43.291994,"lon":5.392907,"is_reserved":false,"is_disabled":false,"rental_uris":{"android":"levelo://app?vid=64d518cc-1608-4e60-8b51-fbd1ba22c04f","ios":"levelo://app?vid=64d518cc-1608-4e60-8b51-fbd1ba22c04f"},"vehicle_type_id":"4","last_reported":1699942195,"current_range_meters":31200,"station_id":"ce4bh192rcd13ifvqdd0","pricing_plan_id":"free"},{"bike_id":"1ba9e6b9-a2ab-4624-a4e6-26421e5b5802","system_id":"levelo_inurba_marseille","lat":43.284626,"lon":5.358907,"is_reserved":false,"is_disabled":false,"rental_uris":{"android":"levelo://app?vid=1ba9e6b9-a2ab-4624-a4e6-26421e5b5802","ios":"levelo://app?vid=1ba9e6b9-a2ab-4624-a4e6-26421e5b5802"},"vehicle_type_id":"4","last_reported":1699942195,"current_range_meters":8400,"station_id":"ce4bhah2rcd13ifvqei0","pricing_plan_id":"free"},{"bike_id":"9a0966e5-bdfe-4ec4-996c-ed657d457595","system_id":"levelo_inurba_marseille","lat":43.284625,"lon":5.358889,"is_reserved":false,"is_disabled":false,"rental_uris":{"android":"levelo://app?vid=9a0966e5-bdfe-4ec4-996c-ed657d457595","ios":"levelo://app?vid=9a0966e5-bdfe-4ec4-996c-ed657d457595"},"vehicle_type_id":"4","last_reported":1699942195,"current_range_meters":12000,"station_id":"ce4bhah2rcd13ifvqei0","pricing_plan_id":"free"},{"bike_id":"e38651f6-d007-45d0-b132-7bc5d8d49514","system_id":"levelo_inurba_marseille","lat":43.284618,"lon":5.358935,"is_reserved":false,"is_disabled":false,"rental_uris":{"android":"levelo://app?vid=e38651f6-d007-45d0-b132-7bc5d8d49514","ios":"levelo://app?vid=e38651f6-d007-45d0-b132-7bc5d8d49514"},"vehicle_type_id":"4","last_reported":1699942195,"current_range_meters":7600,"station_id":"ce4bhah2rcd13ifvqei0","pricing_plan_id":"free"},{"bike_id":"4144c037-993e-4ade-ac96-e7ff0b309ec8","system_id":"levelo_inurba_marseille","lat":43.284616,"lon":5.358871,"is_reserved":false,"is_disabled":false,"rental_uris":{"android":"levelo://app?vid=4144c037-993e-4ade-ac96-e7ff0b309ec8","ios":"levelo://app?vid=4144c037-993e-4ade-ac96-e7ff0b309ec8"},"vehicle_type_id":"4","last_reported":1699942195,"current_range_meters":20400,"station_id":"ce4bhah2rcd13ifvqei0","pricing_plan_id":"free"},{"bike_id":"049b8a5f-7dce-4d39-a476-8944b3003f30","system_id":"levelo_inurba_marseille","lat":43.284609,"lon":5.358856,"is_reserved":false,"is_disabled":false,"rental_uris":{"android":"levelo://app?vid=049b8a5f-7dce-4d39-a476-8944b3003f30","ios":"levelo://app?vid=049b8a5f-7dce-4d39-a476-8944b3003f30"},"vehicle_type_id":"4","last_reported":1699942195,"current_range_meters":31200,"station_id":"ce4bhah2rcd13ifvqei0","pricing_plan_id":"free"},{"bike_id":"980516ab-a0eb-4534-a15f-34fa74509c84","system_id":"levelo_inurba_marseille","lat":43.284611,"lon":5.35881,"is_reserved":false,"is_disabled":false,"rental_uris":{"android":"levelo://app?vid=980516ab-a0eb-4534-a15f-34fa74509c84","ios":"levelo://app?vid=980516ab-a0eb-4534-a15f-34fa74509c84"},"vehicle_type_id":"4","last_reported":1699942195,"current_range_meters":8000,"station_id":"ce4bhah2rcd13ifvqei0","pricing_plan_id":"free"},{"bike_id":"1de88317-1530-4960-996e-48edb6942d6d","system_id":"levelo_inurba_marseille","lat":43.284592,"lon":5.358933,"is_reserved":false,"is_disabled":false,"rental_uris":{"android":"levelo://app?vid=1de88317-1530-4960-996e-48edb6942d6d","ios":"levelo://app?vid=1de88317-1530-4960-996e-48edb6942d6d"},"vehicle_type_id":"4","last_reported":1699942195,"current_range_meters":18400,"station_id":"ce4bhah2rcd13ifvqei0","pricing_plan_id":"free"},{"bike_id":"abd3957b-6bce-4839-b188-81f2da56b7c1","system_id":"levelo_inurba_marseille","lat":43.284592,"lon":5.358856,"is_reserved":false,"is_disabled":false,"rental_uris":{"android":"levelo://app?vid=abd3957b-6bce-4839-b188-81f2da56b7c1","ios":"levelo://app?vid=abd3957b-6bce-4839-b188-81f2da56b7c1"},"vehicle_type_id":"4","last_reported":1699942195,"current_range_meters":18000,"station_id":"ce4bhah2rcd13ifvqei0","pricing_plan_id":"free"},{"bike_id":"f427be72-4670-48e4-a67c-3e0802a36c40","system_id":"levelo_inurba_marseille","lat":43.284566,"lon":5.358861,"is_reserved":false,"is_disabled":false,"rental_uris":{"android":"levelo://app?vid=f427be72-4670-48e4-a67c-3e0802a36c40","ios":"levelo://app?vid=f427be72-4670-48e4-a67c-3e0802a36c40"},"vehicle_type_id":"4","last_reported":1699942195,"current_range_meters":29200,"station_id":"ce4bhah2rcd13ifvqei0","pricing_plan_id":"free"},{"bike_id":"605f7c30-0fc1-4f09-bcd1-084c06fee4c7","system_id":"levelo_inurba_marseille","lat":43.28454,"lon":5.35894,"is_reserved":false,"is_disabled":false,"rental_uris":{"android":"levelo://app?vid=605f7c30-0fc1-4f09-bcd1-084c06fee4c7","ios":"levelo://app?vid=605f7c30-0fc1-4f09-bcd1-084c06fee4c7"},"vehicle_type_id":"4","last_reported":1699942195,"current_range_meters":27600,"station_id":"ce4bhah2rcd13ifvqei0","pricing_plan_id":"free"},{"bike_id":"135286d6-ffbf-41e4-8e50-972864471c8b","system_id":"levelo_inurba_marseille","lat":43.283998,"lon":5.375062,"is_reserved":false,"is_disabled":false,"rental_uris":{"android":"levelo://app?vid=135286d6-ffbf-41e4-8e50-972864471c8b","ios":"levelo://app?vid=135286d6-ffbf-41e4-8e50-972864471c8b"},"vehicle_type_id":"4","last_reported":1699942195,"current_range_meters":30800,"station_id":"ce4bh412rcd13ifvqds0","pricing_plan_id":"free"},{"bike_id":"5f743e18-953f-4ed8-bc57-a9f8673ffca8","system_id":"levelo_inurba_marseille","lat":43.283998,"lon":5.375062,"is_reserved":false,"is_disabled":false,"rental_uris":{"android":"levelo://app?vid=5f743e18-953f-4ed8-bc57-a9f8673ffca8","ios":"levelo://app?vid=5f743e18-953f-4ed8-bc57-a9f8673ffca8"},"vehicle_type_id":"4","last_reported":1699942195,"current_range_meters":26400,"station_id":"ce4bh412rcd13ifvqds0","pricing_plan_id":"free"},{"bike_id":"25e84dc5-1b9c-4362-99aa-84f0be62e35e","system_id":"levelo_inurba_marseille","lat":43.283998,"lon":5.375062,"is_reserved":false,"is_disabled":false,"rental_uris":{"android":"levelo://app?vid=25e84dc5-1b9c-4362-99aa-84f0be62e35e","ios":"levelo://app?vid=25e84dc5-1b9c-4362-99aa-84f0be62e35e"},"vehicle_type_id":"4","last_reported":1699942195,"current_range_meters":31200,"station_id":"ce4bh412rcd13ifvqds0","pricing_plan_id":"free"},{"bike_id":"8ae3ac23-0b08-477c-8098-4e22e962ccc5","system_id":"levelo_inurba_marseille","lat":43.283998,"lon":5.375062,"is_reserved":false,"is_disabled":false,"rental_uris":{"android":"levelo://app?vid=8ae3ac23-0b08-477c-8098-4e22e962ccc5","ios":"levelo://app?vid=8ae3ac23-0b08-477c-8098-4e22e962ccc5"},"vehicle_type_id":"4","last_reported":1699942195,"current_range_meters":31200,"station_id":"ce4bh412rcd13ifvqds0","pricing_plan_id":"free"},{"bike_id":"52fb96de-f192-4d8a-bd25-4c153536600c","system_id":"levelo_inurba_marseille","lat":43.28685,"lon":5.3866,"is_reserved":false,"is_disabled":false,"rental_uris":{"android":"levelo://app?vid=52fb96de-f192-4d8a-bd25-4c153536600c","ios":"levelo://app?vid=52fb96de-f192-4d8a-bd25-4c153536600c"},"vehicle_type_id":"4","last_reported":1699942195,"current_range_meters":18400,"station_id":"ce4bh492rcd13ifvqdug","pricing_plan_id":"free"},{"bike_id":"83087d2b-8544-4f0d-a9ec-1f636709f0c4","system_id":"levelo_inurba_marseille","lat":43.28677,"lon":5.38667,"is_reserved":false,"is_disabled":false,"rental_uris":{"android":"levelo://app?vid=83087d2b-8544-4f0d-a9ec-1f636709f0c4","ios":"levelo://app?vid=83087d2b-8544-4f0d-a9ec-1f636709f0c4"},"vehicle_type_id":"4","last_reported":1699942195,"current_range_meters":18800,"station_id":"ce4bh492rcd13ifvqdug","pricing_plan_id":"free"},{"bike_id":"8f40e194-d354-4286-a596-7bea592ce747","system_id":"levelo_inurba_marseille","lat":43.286595,"lon":5.386795,"is_reserved":false,"is_disabled":false,"rental_uris":{"android":"levelo://app?vid=8f40e194-d354-4286-a596-7bea592ce747","ios":"levelo://app?vid=8f40e194-d354-4286-a596-7bea592ce747"},"vehicle_type_id":"4","last_reported":1699942195,"current_range_meters":28400,"station_id":"ce4bh492rcd13ifvqdug","pricing_plan_id":"free"},{"bike_id":"290ec3ff-b171-45d4-a796-4c54a8d0d69e","system_id":"levelo_inurba_marseille","lat":43.33717,"lon":5.391857,"is_reserved":false,"is_disabled":false,"rental_uris":{"android":"levelo://app?vid=290ec3ff-b171-45d4-a796-4c54a8d0d69e","ios":"levelo://app?vid=290ec3ff-b171-45d4-a796-4c54a8d0d69e"},"vehicle_type_id":"4","last_reported":1699942195,"current_range_meters":24000,"station_id":"ce4bhr92rcd13ifvqhsg","pricing_plan_id":"free"},{"bike_id":"efd5fa98-04e4-4a10-a25b-865aae8829f9","system_id":"levelo_inurba_marseille","lat":43.323357,"lon":5.406233,"is_reserved":false,"is_disabled":false,"rental_uris":{"android":"levelo://app?vid=efd5fa98-04e4-4a10-a25b-865aae8829f9","ios":"levelo://app?vid=efd5fa98-04e4-4a10-a25b-865aae8829f9"},"vehicle_type_id":"4","last_reported":1699942195,"current_range_meters":27600,"station_id":"ce4bhq92rcd13ifvqhjg","pricing_plan_id":"free"},{"bike_id":"3c959eae-0144-4a5a-8a31-ae325772e917","system_id":"levelo_inurba_marseille","lat":43.323409,"lon":5.406213,"is_reserved":false,"is_disabled":false,"rental_uris":{"android":"levelo://app?vid=3c959eae-0144-4a5a-8a31-ae325772e917","ios":"levelo://app?vid=3c959eae-0144-4a5a-8a31-ae325772e917"},"vehicle_type_id":"4","last_reported":1699942195,"current_range_meters":4800,"station_id":"ce4bhq92rcd13ifvqhjg","pricing_plan_id":"free"},{"bike_id":"38bb9fb5-d78a-4b6d-9e75-d908ba662d96","system_id":"levelo_inurba_marseille","lat":43.288501,"lon":5.393087,"is_reserved":false,"is_disabled":false,"rental_uris":{"android":"levelo://app?vid=38bb9fb5-d78a-4b6d-9e75-d908ba662d96","ios":"levelo://app?vid=38bb9fb5-d78a-4b6d-9e75-d908ba662d96"},"vehicle_type_id":"4","last_reported":1699942195,"current_range_meters":31200,"station_id":"ce4bh2p2rcd13ifvqdi0","pricing_plan_id":"free"},{"bike_id":"e0d9bf9a-3d1e-4c17-8410-04f7b26897b9","system_id":"levelo_inurba_marseille","lat":43.288497,"lon":5.393089,"is_reserved":false,"is_disabled":false,"rental_uris":{"android":"levelo://app?vid=e0d9bf9a-3d1e-4c17-8410-04f7b26897b9","ios":"levelo://app?vid=e0d9bf9a-3d1e-4c17-8410-04f7b26897b9"},"vehicle_type_id":"4","last_reported":1699942195,"current_range_meters":20400,"station_id":"ce4bh2p2rcd13ifvqdi0","pricing_plan_id":"free"},{"bike_id":"f3328093-91e7-4619-860e-9dadf5aa7d48","system_id":"levelo_inurba_marseille","lat":43.288497,"lon":5.393089,"is_reserved":false,"is_disabled":false,"rental_uris":{"android":"levelo://app?vid=f3328093-91e7-4619-860e-9dadf5aa7d48","ios":"levelo://app?vid=f3328093-91e7-4619-860e-9dadf5aa7d48"},"vehicle_type_id":"4","last_reported":1699942195,"current_range_meters":31200,"station_id":"ce4bh2p2rcd13ifvqdi0","pricing_plan_id":"free"},{"bike_id":"74f0eea7-cf4b-4dee-ac34-59b85a0fb699","system_id":"levelo_inurba_marseille","lat":43.289363,"lon":5.396322,"is_reserved":false,"is_disabled":false,"rental_uris":{"android":"levelo://app?vid=74f0eea7-cf4b-4dee-ac34-59b85a0fb699","ios":"levelo://app?vid=74f0eea7-cf4b-4dee-ac34-59b85a0fb699"},"vehicle_type_id":"4","last_reported":1699942195,"current_range_meters":23600,"station_id":"ce4bh3h2rcd13ifvqdn0","pricing_plan_id":"free"},{"bike_id":"cb6d09a1-a538-46fb-a608-e74971e22ca4","system_id":"levelo_inurba_marseille","lat":43.289363,"lon":5.396322,"is_reserved":false,"is_disabled":false,"rental_uris":{"android":"levelo://app?vid=cb6d09a1-a538-46fb-a608-e74971e22ca4","ios":"levelo://app?vid=cb6d09a1-a538-46fb-a608-e74971e22ca4"},"vehicle_type_id":"4","last_reported":1699942195,"current_range_meters":31200,"station_id":"ce4bh3h2rcd13ifvqdn0","pricing_plan_id":"free"},{"bike_id":"c032b18f-b185-478c-aa9e-0a60aad07031","system_id":"levelo_inurba_marseille","lat":43.289363,"lon":5.396322,"is_reserved":false,"is_disabled":false,"rental_uris":{"android":"levelo://app?vid=c032b18f-b185-478c-aa9e-0a60aad07031","ios":"levelo://app?vid=c032b18f-b185-478c-aa9e-0a60aad07031"},"vehicle_type_id":"4","last_reported":1699942195,"current_range_meters":24800,"station_id":"ce4bh3h2rcd13ifvqdn0","pricing_plan_id":"free"},{"bike_id":"670c644e-e8dc-450e-bff6-3cfa2463c20b","system_id":"levelo_inurba_marseille","lat":43.289363,"lon":5.396322,"is_reserved":false,"is_disabled":false,"rental_uris":{"android":"levelo://app?vid=670c644e-e8dc-450e-bff6-3cfa2463c20b","ios":"levelo://app?vid=670c644e-e8dc-450e-bff6-3cfa2463c20b"},"vehicle_type_id":"4","last_reported":1699942195,"current_range_meters":0,"station_id":"ce4bh3h2rcd13ifvqdn0","pricing_plan_id":"free"},{"bike_id":"ddcecb38-d24d-4671-99b0-7fb04e90fe9c","system_id":"levelo_inurba_marseille","lat":43.289363,"lon":5.396322,"is_reserved":false,"is_disabled":false,"rental_uris":{"android":"levelo://app?vid=ddcecb38-d24d-4671-99b0-7fb04e90fe9c","ios":"levelo://app?vid=ddcecb38-d24d-4671-99b0-7fb04e90fe9c"},"vehicle_type_id":"4","last_reported":1699942195,"current_range_meters":25600,"station_id":"ce4bh3h2rcd13ifvqdn0","pricing_plan_id":"free"},{"bike_id":"63e77902-2960-4388-b222-95d74021ea27","system_id":"levelo_inurba_marseille","lat":43.289363,"lon":5.396322,"is_reserved":false,"is_disabled":false,"rental_uris":{"android":"levelo://app?vid=63e77902-2960-4388-b222-95d74021ea27","ios":"levelo://app?vid=63e77902-2960-4388-b222-95d74021ea27"},"vehicle_type_id":"4","last_reported":1699942195,"current_range_meters":25600,"station_id":"ce4bh3h2rcd13ifvqdn0","pricing_plan_id":"free"},{"bike_id":"f983de33-0732-4ef7-9689-ad096942a3fd","system_id":"levelo_inurba_marseille","lat":43.292724,"lon":5.401131,"is_reserved":false,"is_disabled":false,"rental_uris":{"android":"levelo://app?vid=f983de33-0732-4ef7-9689-ad096942a3fd","ios":"levelo://app?vid=f983de33-0732-4ef7-9689-ad096942a3fd"},"vehicle_type_id":"4","last_reported":1699942195,"current_range_meters":0,"station_id":"ce4bh312rcd13ifvqdk0","pricing_plan_id":"free"},{"bike_id":"ed420014-3783-445e-8c45-1f9366a9a243","system_id":"levelo_inurba_marseille","lat":43.292724,"lon":5.401131,"is_reserved":false,"is_disabled":false,"rental_uris":{"android":"levelo://app?vid=ed420014-3783-445e-8c45-1f9366a9a243","ios":"levelo://app?vid=ed420014-3783-445e-8c45-1f9366a9a243"},"vehicle_type_id":"4","last_reported":1699942195,"current_range_meters":28400,"station_id":"ce4bh312rcd13ifvqdk0","pricing_plan_id":"free"},{"bike_id":"a4599167-2778-45e0-889a-31f2f93a665e","system_id":"levelo_inurba_marseille","lat":43.292724,"lon":5.401131,"is_reserved":false,"is_disabled":false,"rental_uris":{"android":"levelo://app?vid=a4599167-2778-45e0-889a-31f2f93a665e","ios":"levelo://app?vid=a4599167-2778-45e0-889a-31f2f93a665e"},"vehicle_type_id":"4","last_reported":1699942195,"current_range_meters":31200,"station_id":"ce4bh312rcd13ifvqdk0","pricing_plan_id":"free"},{"bike_id":"7adb29ad-6e1f-4668-91d8-84e0063d818a","system_id":"levelo_inurba_marseille","lat":43.292724,"lon":5.401131,"is_reserved":false,"is_disabled":false,"rental_uris":{"android":"levelo://app?vid=7adb29ad-6e1f-4668-91d8-84e0063d818a","ios":"levelo://app?vid=7adb29ad-6e1f-4668-91d8-84e0063d818a"},"vehicle_type_id":"4","last_reported":1699942195,"current_range_meters":31200,"station_id":"ce4bh312rcd13ifvqdk0","pricing_plan_id":"free"},{"bike_id":"08908505-755b-47f5-81a9-10222d4b0912","system_id":"levelo_inurba_marseille","lat":43.282744,"lon":5.350533,"is_reserved":false,"is_disabled":false,"rental_uris":{"android":"levelo://app?vid=08908505-755b-47f5-81a9-10222d4b0912","ios":"levelo://app?vid=08908505-755b-47f5-81a9-10222d4b0912"},"vehicle_type_id":"4","last_reported":1699942195,"current_range_meters":29600,"station_id":"ce4bhbp2rcd13ifvqerg","pricing_plan_id":"free"},{"bike_id":"cc392747-0bae-4964-b61d-819e99f0d817","system_id":"levelo_inurba_marseille","lat":43.283502,"lon":5.386471,"is_reserved":false,"is_disabled":false,"rental_uris":{"android":"levelo://app?vid=cc392747-0bae-4964-b61d-819e99f0d817","ios":"levelo://app?vid=cc392747-0bae-4964-b61d-819e99f0d817"},"vehicle_type_id":"4","last_reported":1699942195,"current_range_meters":30400,"station_id":"ce4bh492rcd13ifvqdvg","pricing_plan_id":"free"},{"bike_id":"14fecb59-9a04-4654-a0bc-ce14a7114ba5","system_id":"levelo_inurba_marseille","lat":43.282709,"lon":5.350731,"is_reserved":false,"is_disabled":false,"rental_uris":{"android":"levelo://app?vid=14fecb59-9a04-4654-a0bc-ce14a7114ba5","ios":"levelo://app?vid=14fecb59-9a04-4654-a0bc-ce14a7114ba5"},"vehicle_type_id":"4","last_reported":1699942195,"current_range_meters":31200,"station_id":"ce4bhbp2rcd13ifvqerg","pricing_plan_id":"free"},{"bike_id":"3f2cc325-b1fb-4740-9b21-ad7ca25c475e","system_id":"levelo_inurba_marseille","lat":43.282698,"lon":5.350708,"is_reserved":false,"is_disabled":false,"rental_uris":{"android":"levelo://app?vid=3f2cc325-b1fb-4740-9b21-ad7ca25c475e","ios":"levelo://app?vid=3f2cc325-b1fb-4740-9b21-ad7ca25c475e"},"vehicle_type_id":"4","last_reported":1699942195,"current_range_meters":2400,"station_id":"ce4bhbp2rcd13ifvqerg","pricing_plan_id":"free"},{"bike_id":"1cc1465a-cb9a-4caf-94b9-bebf755c62b4","system_id":"levelo_inurba_marseille","lat":43.282744,"lon":5.350533,"is_reserved":false,"is_disabled":false,"rental_uris":{"android":"levelo://app?vid=1cc1465a-cb9a-4caf-94b9-bebf755c62b4","ios":"levelo://app?vid=1cc1465a-cb9a-4caf-94b9-bebf755c62b4"},"vehicle_type_id":"4","last_reported":1699942195,"current_range_meters":31200,"station_id":"ce4bhbp2rcd13ifvqerg","pricing_plan_id":"free"},{"bike_id":"8c3e8705-250e-4bb7-a090-0e23fc05ed53","system_id":"levelo_inurba_marseille","lat":43.282744,"lon":5.350533,"is_reserved":false,"is_disabled":false,"rental_uris":{"android":"levelo://app?vid=8c3e8705-250e-4bb7-a090-0e23fc05ed53","ios":"levelo://app?vid=8c3e8705-250e-4bb7-a090-0e23fc05ed53"},"vehicle_type_id":"4","last_reported":1699942195,"current_range_meters":30800,"station_id":"ce4bhbp2rcd13ifvqerg","pricing_plan_id":"free"},{"bike_id":"daf088c8-440d-471b-8657-949029afeaef","system_id":"levelo_inurba_marseille","lat":43.2827,"lon":5.35057,"is_reserved":false,"is_disabled":false,"rental_uris":{"android":"levelo://app?vid=daf088c8-440d-471b-8657-949029afeaef","ios":"levelo://app?vid=daf088c8-440d-471b-8657-949029afeaef"},"vehicle_type_id":"4","last_reported":1699942195,"current_range_meters":28400,"station_id":"ce4bhbp2rcd13ifvqerg","pricing_plan_id":"free"},{"bike_id":"fbeb4518-90f1-4be3-a664-58571929eedf","system_id":"levelo_inurba_marseille","lat":43.282662,"lon":5.350646,"is_reserved":false,"is_disabled":false,"rental_uris":{"android":"levelo://app?vid=fbeb4518-90f1-4be3-a664-58571929eedf","ios":"levelo://app?vid=fbeb4518-90f1-4be3-a664-58571929eedf"},"vehicle_type_id":"4","last_reported":1699942195,"current_range_meters":14000,"station_id":"","pricing_plan_id":"free"},{"bike_id":"a9a536d2-73c4-4316-aabb-c3835aa6eda2","system_id":"levelo_inurba_marseille","lat":43.28039,"lon":5.369297,"is_reserved":false,"is_disabled":false,"rental_uris":{"android":"levelo://app?vid=a9a536d2-73c4-4316-aabb-c3835aa6eda2","ios":"levelo://app?vid=a9a536d2-73c4-4316-aabb-c3835aa6eda2"},"vehicle_type_id":"4","last_reported":1699942195,"current_range_meters":27600,"station_id":"ce4bha12rcd13ifvqef0","pricing_plan_id":"free"},{"bike_id":"8c5cbd89-343d-4f4b-8b79-0313bc4bc41f","system_id":"levelo_inurba_marseille","lat":43.283566,"lon":5.386375,"is_reserved":false,"is_disabled":false,"rental_uris":{"android":"levelo://app?vid=8c5cbd89-343d-4f4b-8b79-0313bc4bc41f","ios":"levelo://app?vid=8c5cbd89-343d-4f4b-8b79-0313bc4bc41f"},"vehicle_type_id":"4","last_reported":1699942195,"current_range_meters":2800,"station_id":"ce4bh492rcd13ifvqdvg","pricing_plan_id":"free"},{"bike_id":"4370869b-0c59-4e1b-b4c7-59bf3a7bc50e","system_id":"levelo_inurba_marseille","lat":43.290412,"lon":5.399633,"is_reserved":false,"is_disabled":false,"rental_uris":{"android":"levelo://app?vid=4370869b-0c59-4e1b-b4c7-59bf3a7bc50e","ios":"levelo://app?vid=4370869b-0c59-4e1b-b4c7-59bf3a7bc50e"},"vehicle_type_id":"4","last_reported":1699942195,"current_range_meters":31200,"station_id":"ce4bh392rcd13ifvqdm0","pricing_plan_id":"free"},{"bike_id":"3707378c-b625-4234-9f12-45374f266acb","system_id":"levelo_inurba_marseille","lat":43.290412,"lon":5.399633,"is_reserved":false,"is_disabled":false,"rental_uris":{"android":"levelo://app?vid=3707378c-b625-4234-9f12-45374f266acb","ios":"levelo://app?vid=3707378c-b625-4234-9f12-45374f266acb"},"vehicle_type_id":"4","last_reported":1699942195,"current_range_meters":28800,"station_id":"ce4bh392rcd13ifvqdm0","pricing_plan_id":"free"},{"bike_id":"d78521fb-91d3-49a7-a984-c5d99d9cf455","system_id":"levelo_inurba_marseille","lat":43.281044,"lon":5.378308,"is_reserved":false,"is_disabled":false,"rental_uris":{"android":"levelo://app?vid=d78521fb-91d3-49a7-a984-c5d99d9cf455","ios":"levelo://app?vid=d78521fb-91d3-49a7-a984-c5d99d9cf455"},