{"last_updated":1725304062,"ttl":30,"version":"2.2","data":{"bikes":[{"bike_id":"9b672568-da18-45f1-8451-a35424f5a963","system_id":"levelo_inurba_marseille","lat":43.312239,"lon":5.368562,"is_reserved":false,"is_disabled":false,"rental_uris":{"android":"levelo://app?vid=9b672568-da18-45f1-8451-a35424f5a963","ios":"levelo://app?vid=9b672568-da18-45f1-8451-a35424f5a963"},"vehicle_type_id":"4","last_reported":1725304062,"current_range_meters":800,"station_id":"ce4bgl92rcd13ifvqbq0","pricing_plan_id":"cebpf4jnsgd1na2vs0mg"},{"bike_id":"5e25fbca-fe99-47ff-8378-b59c15aeb3e4","system_id":"levelo_inurba_marseille","lat":43.312239,"lon":5.368562,"is_reserved":false,"is_disabled":false,"rental_uris":{"android":"levelo://app?vid=5e25fbca-fe99-47ff-8378-b59c15aeb3e4","ios":"levelo://app?vid=5e25fbca-fe99-47ff-8378-b59c15aeb3e4"},"vehicle_type_id":"4","last_reported":1725304062,"current_range_meters":2000,"station_id":"ce4bgl92rcd13ifvqbq0","pricing_plan_id":"cebpf4jnsgd1na2vs0mg"},{"bike_id":"2bc3d553-6175-42ff-a0c6-4243e2d1f89b","system_id":"levelo_inurba_marseille","lat":43.30911,"lon":5.36849,"is_reserved":false,"is_disabled":false,"rental_uris":{"android":"levelo://app?vid=2bc3d553-6175-42ff-a0c6-4243e2d1f89b","ios":"levelo://app?vid=2bc3d553-6175-42ff-a0c6-4243e2d1f89b"},"vehicle_type_id":"4","last_reported":1725304062,"current_range_meters":0,"station_id":"ce4bgn92rcd13ifvqbvg","pricing_plan_id":"cebpf4jnsgd1na2vs0mg"},{"bike_id":"603ee0b4-5719-43a0-8c27-41f70155e162","system_id":"levelo_inurba_marseille","lat":43.3091,"lon":5.36848,"is_reserved":false,"is_disabled":false,"rental_uris":{"android":"levelo://app?vid=603ee0b4-5719-43a0-8c27-41f70155e162","ios":"levelo://app?vid=603ee0b4-5719-43a0-8c27-41f70155e162"},"vehicle_type_id":"4","last_reported":1725304062,"current_range_meters":0,"station_id":"ce4bgn92rcd13ifvqbvg","pricing_plan_id":"cebpf4jnsgd1na2vs0mg"},{"bike_id":"bc1865fb-d4c5-43bb-bb03-f0147e0fcf17","system_id":"levelo_inurba_marseille","lat":43.314811,"lon":5.373103,"is_reserved":false,"is_disabled":false,"rental_uris":{"android":"levelo://app?vid=bc1865fb-d4c5-43bb-bb03-f0147e0fcf17","ios":"levelo://app?vid=bc1865fb-d4c5-43bb-bb03-f0147e0fcf17"},"vehicle_type_id":"4","last_reported":1725304062,"current_range_meters":30000,"station_id":"ce4bgt12rcd13ifvqcd0","pricing_plan_id":"cebpf4jnsgd1na2vs0mg"},{"bike_id":"72681647-2a1b-4ad9-b5ab-51a1e73b9c13","system_id":"levelo_inurba_marseille","lat":43.314811,"lon":5.373103,"is_reserved":false,"is_disabled":false,"rental_uris":{"android":"levelo://app?vid=72681647-2a1b-4ad9-b5ab-51a1e73b9c13","ios":"levelo://app?vid=72681647-2a1b-4ad9-b5ab-51a1e73b9c13"},"vehicle_type_id":"4","last_reported":1725304062,"current_range_meters":9200,"station_id":"ce4bgt12rcd13ifvqcd0","pricing_plan_id":"cebpf4jnsgd1na2vs0mg"},{"bike_id":"fd5ffc9d-d903-4a71-9588-3a3ca6a52723","system_id":"levelo_inurba_marseille","lat":43.30544,"lon":5.36547,"is_reserved":false,"is_disabled":false,"rental_uris":{"android":"levelo://app?vid=fd5ffc9d-d903-4a71-9588-3a3ca6a52723","ios":"levelo://app?vid=fd5ffc9d-d903-4a71-9588-3a3ca6a52723"},"vehicle_type_id":"4","last_reported":1725304062,"current_range_meters":30400,"station_id":"ce4bgs12rcd13ifvqcag","pricing_plan_id":"cebpf4jnsgd1na2vs0mg"},{"bike_id":"c717e875-6efe-4b6e-a095-7d1f56d818c3","system_id":"levelo_inurba_marseille","lat":43.305989,"lon":5.37225,"is_reserved":false,"is_disabled":false,"rental_uris":{"android":"levelo://app?vid=c717e875-6efe-4b6e-a095-7d1f56d818c3","ios":"levelo://app?vid=c717e875-6efe-4b6e-a095-7d1f56d818c3"},"vehicle_type_id":"4","last_reported":1725304062,"current_range_meters":18800,"station_id":"ce4bgqh2rcd13ifvqc4g","pricing_plan_id":"cebpf4jnsgd1na2vs0mg"},{"bike_id":"821c7035-2e96-449a-a5c2-c07c5a230605","system_id":"levelo_inurba_marseille","lat":43.311125,"lon":5.377624,"is_reserved":false,"is_disabled":false,"rental_uris":{"android":"levelo://app?vid=821c7035-2e96-449a-a5c2-c07c5a230605","ios":"levelo://app?vid=821c7035-2e96-449a-a5c2-c07c5a230605"},"vehicle_type_id":"4","last_reported":1725304062,"current_range_meters":4400,"station_id":"ce4bgt92rcd13ifvqcg0","pricing_plan_id":"cebpf4jnsgd1na2vs0mg"},{"bike_id":"706f11e1-bcc9-4f6c-ba95-f9939bdf94f2","system_id":"levelo_inurba_marseille","lat":43.31112,"lon":5.37788,"is_reserved":false,"is_disabled":false,"rental_uris":{"android":"levelo://app?vid=706f11e1-bcc9-4f6c-ba95-f9939bdf94f2","ios":"levelo://app?vid=706f11e1-bcc9-4f6c-ba95-f9939bdf94f2"},"vehicle_type_id":"4","last_reported":1725304062,"current_range_meters":0,"station_id":"ce4bgt92rcd13ifvqcg0","pricing_plan_id":"cebpf4jnsgd1na2vs0mg"},{"bike_id":"0d4e8f13-1656-4d82-92f5-98a9b93bbd5e","system_id":"levelo_inurba_marseille","lat":43.307945,"lon":5.376487,"is_reserved":false,"is_disabled":false,"rental_uris":{"android":"levelo://app?vid=0d4e8f13-1656-4d82-92f5-98a9b93bbd5e","ios":"levelo://app?vid=0d4e8f13-1656-4d82-92f5-98a9b93bbd5e"},"vehicle_type_id":"4","last_reported":1725304062,"current_range_meters":7200,"station_id":"ce4bgv92rcd13ifvqcq0","pricing_plan_id":"cebpf4jnsgd1na2vs0mg"},{"bike_id":"219514ae-eb67-4d59-a6e3-2594378f65a3","system_id":"levelo_inurba_marseille","lat":43.307945,"lon":5.376487,"is_reserved":false,"is_disabled":false,"rental_uris":{"android":"levelo://app?vid=219514ae-eb67-4d59-a6e3-2594378f65a3","ios":"levelo://app?vid=219514ae-eb67-4d59-a6e3-2594378f65a3"},"vehicle_type_id":"4","last_reported":1725304062,"current_range_meters":14800,"station_id":"ce4bgv92rcd13ifvqcq0","pricing_plan_id":"cebpf4jnsgd1na2vs0mg"},{"bike_id":"271d38e5-4533-4587-9e01-d9e12f7d3ba4","system_id":"levelo_inurba_marseille","lat":43.317075,"lon":5.377367,"is_reserved":false,"is_disabled":false,"rental_uris":{"android":"levelo://app?vid=271d38e5-4533-4587-9e01-d9e12f7d3ba4","ios":"levelo://app?vid=271d38e5-4533-4587-9e01-d9e12f7d3ba4"},"vehicle_type_id":"4","last_reported":1725304062,"current_range_meters":13600,"station_id":"ce4bgth2rcd13ifvqch0","pricing_plan_id":"cebpf4jnsgd1na2vs0mg"},{"bike_id":"eb9e7b33-34f4-429a-8e51-f7be9e9ee5cc","system_id":"levelo_inurba_marseille","lat":43.317075,"lon":5.377367,"is_reserved":false,"is_disabled":false,"rental_uris":{"android":"levelo://app?vid=eb9e7b33-34f4-429a-8e51-f7be9e9ee5cc","ios":"levelo://app?vid=eb9e7b33-34f4-429a-8e51-f7be9e9ee5cc"},"vehicle_type_id":"4","last_reported":1725304062,"current_range_meters":31200,"station_id":"ce4bgth2rcd13ifvqch0","pricing_plan_id":"cebpf4jnsgd1na2vs0mg"},{"bike_id":"ee69f6d0-a352-41a0-bafa-8d09a72543cb","system_id":"levelo_inurba_marseille","lat":43.30304,"lon":5.368987,"is_reserved":false,"is_disabled":false,"rental_uris":{"android":"levelo://app?vid=ee69f6d0-a352-41a0-bafa-8d09a72543cb","ios":"levelo://app?vid=ee69f6d0-a352-41a0-bafa-8d09a72543cb"},"vehicle_type_id":"4","last_reported":1725304062,"current_range_meters":3600,"station_id":"ce4bgqh2rcd13ifvqc5g","pricing_plan_id":"cebpf4jnsgd1na2vs0mg"},{"bike_id":"6f858cf9-1ec5-4506-9212-c3cfda8b4a21","system_id":"levelo_inurba_marseille","lat":43.303046,"lon":5.368981,"is_reserved":false,"is_disabled":false,"rental_uris":{"android":"levelo://app?vid=6f858cf9-1ec5-4506-9212-c3cfda8b4a21","ios":"levelo://app?vid=6f858cf9-1ec5-4506-9212-c3cfda8b4a21"},"vehicle_type_id":"4","last_reported":1725304062,"current_range_meters":26000,"station_id":"ce4bgqh2rcd13ifvqc5g","pricing_plan_id":"cebpf4jnsgd1na2vs0mg"},{"bike_id":"9d1fffbb-2a0f-4db9-8375-ac0b42ad065d","system_id":"levelo_inurba_marseille","lat":43.303046,"lon":5.368981,"is_reserved":false,"is_disabled":false,"rental_uris":{"android":"levelo://app?vid=9d1fffbb-2a0f-4db9-8375-ac0b42ad065d","ios":"levelo://app?vid=9d1fffbb-2a0f-4db9-8375-ac0b42ad065d"},"vehicle_type_id":"4","last_reported":1725304062,"current_range_meters":8000,"station_id":"ce4bgqh2rcd13ifvqc5g","pricing_plan_id":"cebpf4jnsgd1na2vs0mg"},{"bike_id":"e8e71965-0a71-4311-b978-463b1ff43a31","system_id":"levelo_inurba_marseille","lat":43.30786,"lon":5.3801,"is_reserved":false,"is_disabled":false,"rental_uris":{"android":"levelo://app?vid=e8e71965-0a71-4311-b978-463b1ff43a31","ios":"levelo://app?vid=e8e71965-0a71-4311-b978-463b1ff43a31"},"vehicle_type_id":"4","last_reported":1725304062,"current_range_meters":5200,"station_id":"","pricing_plan_id":"cebpf4jnsgd1na2vs0mg"},{"bike_id":"903e20fe-d477-4b16-8050-aedf19912cef","system_id":"levelo_inurba_marseille","lat":43.301939,"lon":5.366286,"is_reserved":false,"is_disabled":false,"rental_uris":{"android":"levelo://app?vid=903e20fe-d477-4b16-8050-aedf19912cef","ios":"levelo://app?vid=903e20fe-d477-4b16-8050-aedf19912cef"},"vehicle_type_id":"4","last_reported":1725304062,"current_range_meters":0,"station_id":"ce4bgrh2rcd13ifvqc8g","pricing_plan_id":"cebpf4jnsgd1na2vs0mg"},{"bike_id":"59a988de-2bfc-4250-ae7a-bf8dc614c48d","system_id":"levelo_inurba_marseille","lat":43.301939,"lon":5.366286,"is_reserved":false,"is_disabled":false,"rental_uris":{"android":"levelo://app?vid=59a988de-2bfc-4250-ae7a-bf8dc614c48d","ios":"levelo://app?vid=59a988de-2bfc-4250-ae7a-bf8dc614c48d"},"vehicle_type_id":"4","last_reported":1725304062,"current_range_meters":26000,"station_id":"ce4bgrh2rcd13ifvqc8g","pricing_plan_id":"cebpf4jnsgd1na2vs0mg"},{"bike_id":"e58bd926-06e1-44fb-9d6f-f7ef8503b198","system_id":"levelo_inurba_marseille","lat":43.301939,"lon":5.366286,"is_reserved":false,"is_disabled":false,"rental_uris":{"android":"levelo://app?vid=e58bd926-06e1-44fb-9d6f-f7ef8503b198","ios":"levelo://app?vid=e58bd926-06e1-44fb-9d6f-f7ef8503b198"},"vehicle_type_id":"4","last_reported":1725304062,"current_range_meters":21600,"station_id":"ce4bgrh2rcd13ifvqc8g","pricing_plan_id":"cebpf4jnsgd1na2vs0mg"},{"bike_id":"97b2e67a-596a-4948-8778-d5b5fd2ec201","system_id":"levelo_inurba_marseille","lat":43.301939,"lon":5.366286,"is_reserved":false,"is_disabled":false,"rental_uris":{"android":"levelo://app?vid=97b2e67a-596a-4948-8778-d5b5fd2ec201","ios":"levelo://app?vid=97b2e67a-596a-4948-8778-d5b5fd2ec201"},"vehicle_type_id":"4","last_reported":1725304062,"current_range_meters":2400,"station_id":"ce4bgrh2rcd13ifvqc8g","pricing_plan_id":"cebpf4jnsgd1na2vs0mg"},{"bike_id":"17cbda9b-0c6a-469e-9149-e2a51edfe89b","system_id":"levelo_inurba_marseille","lat":43.310804,"lon":5.38359,"is_reserved":false,"is_disabled":false,"rental_uris":{"android":"levelo://app?vid=17cbda9b-0c6a-469e-9149-e2a51edfe89b","ios":"levelo://app?vid=17cbda9b-0c6a-469e-9149-e2a51edfe89b"},"vehicle_type_id":"4","last_reported":1725304062,"current_range_meters":18400,"station_id":"ce4bgv92rcd13ifvqcr0","pricing_plan_id":"cebpf4jnsgd1na2vs0mg"},{"bike_id":"8422f9df-eb81-42e0-9dd4-161af21dbbf3","system_id":"levelo_inurba_marseille","lat":43.308012,"lon":5.381511,"is_reserved":false,"is_disabled":false,"rental_uris":{"android":"levelo://app?vid=8422f9df-eb81-42e0-9dd4-161af21dbbf3","ios":"levelo://app?vid=8422f9df-eb81-42e0-9dd4-161af21dbbf3"},"vehicle_type_id":"4","last_reported":1725304062,"current_range_meters":2800,"station_id":"ce4bgt12rcd13ifvqce0","pricing_plan_id":"cebpf4jnsgd1na2vs0mg"},{"bike_id":"f3e99043-ab5e-4644-88a7-5323b2ffff92","system_id":"levelo_inurba_marseille","lat":43.307998,"lon":5.38153,"is_reserved":false,"is_disabled":false,"rental_uris":{"android":"levelo://app?vid=f3e99043-ab5e-4644-88a7-5323b2ffff92","ios":"levelo://app?vid=f3e99043-ab5e-4644-88a7-5323b2ffff92"},"vehicle_type_id":"4","last_reported":1725304062,"current_range_meters":0,"station_id":"ce4bgt12rcd13ifvqce0","pricing_plan_id":"cebpf4jnsgd1na2vs0mg"},{"bike_id":"4248998c-395d-4fee-83f9-48075d075427","system_id":"levelo_inurba_marseille","lat":43.30794,"lon":5.38156,"is_reserved":false,"is_disabled":false,"rental_uris":{"android":"levelo://app?vid=4248998c-395d-4fee-83f9-48075d075427","ios":"levelo://app?vid=4248998c-395d-4fee-83f9-48075d075427"},"vehicle_type_id":"4","last_reported":1725304062,"current_range_meters":2000,"station_id":"ce4bgt12rcd13ifvqce0","pricing_plan_id":"cebpf4jnsgd1na2vs0mg"},{"bike_id":"e2763bf5-34b1-40fc-8550-ee1dd713eb25","system_id":"levelo_inurba_marseille","lat":43.30463,"lon":5.37903,"is_reserved":false,"is_disabled":false,"rental_uris":{"android":"levelo://app?vid=e2763bf5-34b1-40fc-8550-ee1dd713eb25","ios":"levelo://app?vid=e2763bf5-34b1-40fc-8550-ee1dd713eb25"},"vehicle_type_id":"4","last_reported":1725304062,"current_range_meters":0,"station_id":"ce4bgup2rcd13ifvqcn0","pricing_plan_id":"cebpf4jnsgd1na2vs0mg"},{"bike_id":"84210c45-7a57-407e-b402-4aeeeda353e5","system_id":"levelo_inurba_marseille","lat":43.324771,"lon":5.36557,"is_reserved":false,"is_disabled":false,"rental_uris":{"android":"levelo://app?vid=84210c45-7a57-407e-b402-4aeeeda353e5","ios":"levelo://app?vid=84210c45-7a57-407e-b402-4aeeeda353e5"},"vehicle_type_id":"4","last_reported":1725304062,"current_range_meters":3200,"station_id":"ce4bhs12rcd13ifvqhvg","pricing_plan_id":"cebpf4jnsgd1na2vs0mg"},{"bike_id":"f2967e49-db7b-4661-bc81-23e7c3457aa9","system_id":"levelo_inurba_marseille","lat":43.310804,"lon":5.38359,"is_reserved":false,"is_disabled":false,"rental_uris":{"android":"levelo://app?vid=f2967e49-db7b-4661-bc81-23e7c3457aa9","ios":"levelo://app?vid=f2967e49-db7b-4661-bc81-23e7c3457aa9"},"vehicle_type_id":"4","last_reported":1725304062,"current_range_meters":6400,"station_id":"ce4bgv92rcd13ifvqcr0","pricing_plan_id":"cebpf4jnsgd1na2vs0mg"},{"bike_id":"d89df956-2a8c-4a5d-93cf-cb73819f31a4","system_id":"levelo_inurba_marseille","lat":43.31072,"lon":5.38365,"is_reserved":false,"is_disabled":false,"rental_uris":{"android":"levelo://app?vid=d89df956-2a8c-4a5d-93cf-cb73819f31a4","ios":"levelo://app?vid=d89df956-2a8c-4a5d-93cf-cb73819f31a4"},"vehicle_type_id":"4","last_reported":1725304062,"current_range_meters":25200,"station_id":"ce4bgv92rcd13ifvqcr0","pricing_plan_id":"cebpf4jnsgd1na2vs0mg"},{"bike_id":"b7cbc1a3-8997-467f-b0f6-0a95f941ea18","system_id":"levelo_inurba_marseille","lat":43.3107,"lon":5.38365,"is_reserved":false,"is_disabled":false,"rental_uris":{"android":"levelo://app?vid=b7cbc1a3-8997-467f-b0f6-0a95f941ea18","ios":"levelo://app?vid=b7cbc1a3-8997-467f-b0f6-0a95f941ea18"},"vehicle_type_id":"4","last_reported":1725304062,"current_range_meters":0,"station_id":"ce4bgv92rcd13ifvqcr0","pricing_plan_id":"cebpf4jnsgd1na2vs0mg"},{"bike_id":"9c1ead63-ed07-4892-ba47-82618aeae1bf","system_id":"levelo_inurba_marseille","lat":43.30153,"lon":5.37415,"is_reserved":false,"is_disabled":false,"rental_uris":{"android":"levelo://app?vid=9c1ead63-ed07-4892-ba47-82618aeae1bf","ios":"levelo://app?vid=9c1ead63-ed07-4892-ba47-82618aeae1bf"},"vehicle_type_id":"4","last_reported":1725304062,"current_range_meters":0,"station_id":"ce4bgs92rcd13ifvqcc0","pricing_plan_id":"cebpf4jnsgd1na2vs0mg"},{"bike_id":"2b9e588c-e73f-405c-aa80-52730523fb67","system_id":"levelo_inurba_marseille","lat":43.301429,"lon":5.37413,"is_reserved":false,"is_disabled":false,"rental_uris":{"android":"levelo://app?vid=2b9e588c-e73f-405c-aa80-52730523fb67","ios":"levelo://app?vid=2b9e588c-e73f-405c-aa80-52730523fb67"},"vehicle_type_id":"4","last_reported":1725304062,"current_range_meters":0,"station_id":"ce4bgs92rcd13ifvqcc0","pricing_plan_id":"cebpf4jnsgd1na2vs0mg"},{"bike_id":"6586b1f7-bf00-45ea-ae11-cd2f548048ab","system_id":"levelo_inurba_marseille","lat":43.31989,"lon":5.38136,"is_reserved":false,"is_disabled":false,"rental_uris":{"android":"levelo://app?vid=6586b1f7-bf00-45ea-ae11-cd2f548048ab","ios":"levelo://app?vid=6586b1f7-bf00-45ea-ae11-cd2f548048ab"},"vehicle_type_id":"4","last_reported":1725304062,"current_range_meters":19200,"station_id":"ce4bhr12rcd13ifvqhpg","pricing_plan_id":"cebpf4jnsgd1na2vs0mg"},{"bike_id":"e2eb0dae-f67f-452c-ab85-3dad7daee6f3","system_id":"levelo_inurba_marseille","lat":43.31992,"lon":5.38147,"is_reserved":false,"is_disabled":false,"rental_uris":{"android":"levelo://app?vid=e2eb0dae-f67f-452c-ab85-3dad7daee6f3","ios":"levelo://app?vid=e2eb0dae-f67f-452c-ab85-3dad7daee6f3"},"vehicle_type_id":"4","last_reported":1725304062,"current_range_meters":30800,"station_id":"ce4bhr12rcd13ifvqhpg","pricing_plan_id":"cebpf4jnsgd1na2vs0mg"},{"bike_id":"743c8c87-c1c3-438f-9be4-ea89b9c23645","system_id":"levelo_inurba_marseille","lat":43.31991,"lon":5.3815,"is_reserved":false,"is_disabled":false,"rental_uris":{"android":"levelo://app?vid=743c8c87-c1c3-438f-9be4-ea89b9c23645","ios":"levelo://app?vid=743c8c87-c1c3-438f-9be4-ea89b9c23645"},"vehicle_type_id":"4","last_reported":1725304062,"current_range_meters":14000,"station_id":"ce4bhr12rcd13ifvqhpg","pricing_plan_id":"cebpf4jnsgd1na2vs0mg"},{"bike_id":"fbd96636-3747-4054-8f77-220ea58ea44b","system_id":"levelo_inurba_marseille","lat":43.319935,"lon":5.381699,"is_reserved":false,"is_disabled":false,"rental_uris":{"android":"levelo://app?vid=fbd96636-3747-4054-8f77-220ea58ea44b","ios":"levelo://app?vid=fbd96636-3747-4054-8f77-220ea58ea44b"},"vehicle_type_id":"4","last_reported":1725304062,"current_range_meters":17200,"station_id":"ce4bhr12rcd13ifvqhpg","pricing_plan_id":"cebpf4jnsgd1na2vs0mg"},{"bike_id":"6d79581a-28af-40c7-9d35-260a9a34c250","system_id":"levelo_inurba_marseille","lat":43.319935,"lon":5.381699,"is_reserved":false,"is_disabled":false,"rental_uris":{"android":"levelo://app?vid=6d79581a-28af-40c7-9d35-260a9a34c250","ios":"levelo://app?vid=6d79581a-28af-40c7-9d35-260a9a34c250"},"vehicle_type_id":"4","last_reported":1725304062,"current_range_meters":8400,"station_id":"ce4bhr12rcd13ifvqhpg","pricing_plan_id":"cebpf4jnsgd1na2vs0mg"},{"bike_id":"27e7a9a6-2cb9-405d-a71a-3c526daa19a9","system_id":"levelo_inurba_marseille","lat":43.313571,"lon":5.384829,"is_reserved":false,"is_disabled":false,"rental_uris":{"android":"levelo://app?vid=27e7a9a6-2cb9-405d-a71a-3c526daa19a9","ios":"levelo://app?vid=27e7a9a6-2cb9-405d-a71a-3c526daa19a9"},"vehicle_type_id":"4","last_reported":1725304062,"current_range_meters":12800,"station_id":"ce4bgt92rcd13ifvqcf0","pricing_plan_id":"cebpf4jnsgd1na2vs0mg"},{"bike_id":"49a1e27f-8bbd-4cf9-9e3d-0677b639a9f6","system_id":"levelo_inurba_marseille","lat":43.31354,"lon":5.38493,"is_reserved":false,"is_disabled":false,"rental_uris":{"android":"levelo://app?vid=49a1e27f-8bbd-4cf9-9e3d-0677b639a9f6","ios":"levelo://app?vid=49a1e27f-8bbd-4cf9-9e3d-0677b639a9f6"},"vehicle_type_id":"4","last_reported":1725304062,"current_range_meters":0,"station_id":"ce4bgt92rcd13ifvqcf0","pricing_plan_id":"cebpf4jnsgd1na2vs0mg"},{"bike_id":"1b72dac9-3f31-4f4d-9dfe-2d2b0691c9e6","system_id":"levelo_inurba_marseille","lat":43.313634,"lon":5.385035,"is_reserved":false,"is_disabled":false,"rental_uris":{"android":"levelo://app?vid=1b72dac9-3f31-4f4d-9dfe-2d2b0691c9e6","ios":"levelo://app?vid=1b72dac9-3f31-4f4d-9dfe-2d2b0691c9e6"},"vehicle_type_id":"4","last_reported":1725304062,"current_range_meters":30000,"station_id":"ce4bgt92rcd13ifvqcf0","pricing_plan_id":"cebpf4jnsgd1na2vs0mg"},{"bike_id":"11274939-8fa7-494b-aaed-2a5473f852a4","system_id":"levelo_inurba_marseille","lat":43.313571,"lon":5.384829,"is_reserved":false,"is_disabled":false,"rental_uris":{"android":"levelo://app?vid=11274939-8fa7-494b-aaed-2a5473f852a4","ios":"levelo://app?vid=11274939-8fa7-494b-aaed-2a5473f852a4"},"vehicle_type_id":"4","last_reported":1725304062,"current_range_meters":31600,"station_id":"ce4bgt92rcd13ifvqcf0","pricing_plan_id":"cebpf4jnsgd1na2vs0mg"},{"bike_id":"cc0a433c-33dd-432a-8eb5-73101e2f7f29","system_id":"levelo_inurba_marseille","lat":43.299724,"lon":5.371829,"is_reserved":false,"is_disabled":false,"rental_uris":{"android":"levelo://app?vid=cc0a433c-33dd-432a-8eb5-73101e2f7f29","ios":"levelo://app?vid=cc0a433c-33dd-432a-8eb5-73101e2f7f29"},"vehicle_type_id":"4","last_reported":1725304062,"current_range_meters":0,"station_id":"ce4bgr92rcd13ifvqc7g","pricing_plan_id":"cebpf4jnsgd1na2vs0mg"},{"bike_id":"78c58557-ede2-4ce9-a222-4230c07f8257","system_id":"levelo_inurba_marseille","lat":43.299222,"lon":5.365554,"is_reserved":false,"is_disabled":false,"rental_uris":{"android":"levelo://app?vid=78c58557-ede2-4ce9-a222-4230c07f8257","ios":"levelo://app?vid=78c58557-ede2-4ce9-a222-4230c07f8257"},"vehicle_type_id":"4","last_reported":1725304062,"current_range_meters":20400,"station_id":"ce4bgm92rcd13ifvqbr0","pricing_plan_id":"cebpf4jnsgd1na2vs0mg"},{"bike_id":"4aca45cd-ce1e-4859-96a0-6f222368255b","system_id":"levelo_inurba_marseille","lat":43.29976,"lon":5.3721,"is_reserved":false,"is_disabled":false,"rental_uris":{"android":"levelo://app?vid=4aca45cd-ce1e-4859-96a0-6f222368255b","ios":"levelo://app?vid=4aca45cd-ce1e-4859-96a0-6f222368255b"},"vehicle_type_id":"4","last_reported":1725304062,"current_range_meters":16000,"station_id":"ce4bgr92rcd13ifvqc7g","pricing_plan_id":"cebpf4jnsgd1na2vs0mg"},{"bike_id":"b6526665-543d-4c7f-a849-6c678ece708a","system_id":"levelo_inurba_marseille","lat":43.31559,"lon":5.3862,"is_reserved":false,"is_disabled":false,"rental_uris":{"android":"levelo://app?vid=b6526665-543d-4c7f-a849-6c678ece708a","ios":"levelo://app?vid=b6526665-543d-4c7f-a849-6c678ece708a"},"vehicle_type_id":"4","last_reported":1725304062,"current_range_meters":1200,"station_id":"","pricing_plan_id":"cebpf4jnsgd1na2vs0mg"},{"bike_id":"5f535c7c-9b41-445f-98a9-6db933f01150","system_id":"levelo_inurba_marseille","lat":43.29943,"lon":5.3747,"is_reserved":false,"is_disabled":false,"rental_uris":{"android":"levelo://app?vid=5f535c7c-9b41-445f-98a9-6db933f01150","ios":"levelo://app?vid=5f535c7c-9b41-445f-98a9-6db933f01150"},"vehicle_type_id":"4","last_reported":1725304062,"current_range_meters":4400,"station_id":"ce4bgjh2rcd13ifvqbg0","pricing_plan_id":"cebpf4jnsgd1na2vs0mg"},{"bike_id":"c28e0657-6ba7-441c-839a-55af0bcc5346","system_id":"levelo_inurba_marseille","lat":43.298433,"lon":5.362774,"is_reserved":false,"is_disabled":false,"rental_uris":{"android":"levelo://app?vid=c28e0657-6ba7-441c-839a-55af0bcc5346","ios":"levelo://app?vid=c28e0657-6ba7-441c-839a-55af0bcc5346"},"vehicle_type_id":"4","last_reported":1725304062,"current_range_meters":2000,"station_id":"ce4bgpp2rcd13ifvqc3g","pricing_plan_id":"cebpf4jnsgd1na2vs0mg"},{"bike_id":"4afa7083-85a2-4b86-ab77-c7f2fc718e7c","system_id":"levelo_inurba_marseille","lat":43.305364,"lon":5.384119,"is_reserved":false,"is_disabled":false,"rental_uris":{"android":"levelo://app?vid=4afa7083-85a2-4b86-ab77-c7f2fc718e7c","ios":"levelo://app?vid=4afa7083-85a2-4b86-ab77-c7f2fc718e7c"},"vehicle_type_id":"4","last_reported":1725304062,"current_range_meters":2800,"station_id":"ce4bgg92rcd13ifvqb30","pricing_plan_id":"cebpf4jnsgd1na2vs0mg"},{"bike_id":"40291e5b-24dd-40dd-950b-d6f0cec2c418","system_id":"levelo_inurba_marseille","lat":43.298433,"lon":5.362774,"is_reserved":false,"is_disabled":false,"rental_uris":{"android":"levelo://app?vid=40291e5b-24dd-40dd-950b-d6f0cec2c418","ios":"levelo://app?vid=40291e5b-24dd-40dd-950b-d6f0cec2c418"},"vehicle_type_id":"4","last_reported":1725304062,"current_range_meters":4800,"station_id":"ce4bgpp2rcd13ifvqc3g","pricing_plan_id":"cebpf4jnsgd1na2vs0mg"},{"bike_id":"1dbcd781-4179-44d6-9910-8c157f93e83f","system_id":"levelo_inurba_marseille","lat":43.305364,"lon":5.384119,"is_reserved":false,"is_disabled":false,"rental_uris":{"android":"levelo://app?vid=1dbcd781-4179-44d6-9910-8c157f93e83f","ios":"levelo://app?vid=1dbcd781-4179-44d6-9910-8c157f93e83f"},"vehicle_type_id":"4","last_reported":1725304062,"current_range_meters":21200,"station_id":"ce4bgg92rcd13ifvqb30","pricing_plan_id":"cebpf4jnsgd1na2vs0mg"},{"bike_id":"b50f548f-1a0d-40a1-a728-05575b6a3fd9","system_id":"levelo_inurba_marseille","lat":43.298433,"lon":5.362774,"is_reserved":false,"is_disabled":false,"rental_uris":{"android":"levelo://app?vid=b50f548f-1a0d-40a1-a728-05575b6a3fd9","ios":"levelo://app?vid=b50f548f-1a0d-40a1-a728-05575b6a3fd9"},"vehicle_type_id":"4","last_reported":1725304062,"current_range_meters":20800,"station_id":"ce4bgpp2rcd13ifvqc3g","pricing_plan_id":"cebpf4jnsgd1na2vs0mg"},{"bike_id":"02cfe40f-f47d-47d4-9741-c6b56d12c382","system_id":"levelo_inurba_marseille","lat":43.298433,"lon":5.362774,"is_reserved":false,"is_disabled":false,"rental_uris":{"android":"levelo://app?vid=02cfe40f-f47d-47d4-9741-c6b56d12c382","ios":"levelo://app?vid=02cfe40f-f47d-47d4-9741-c6b56d12c382"},"vehicle_type_id":"4","last_reported":1725304062,"current_range_meters":22400,"station_id":"ce4bgpp2rcd13ifvqc3g","pricing_plan_id":"cebpf4jnsgd1na2vs0mg"},{"bike_id":"70154087-a4c4-4603-8d32-be26dfe3899f","system_id":"levelo_inurba_marseille","lat":43.299243,"lon":5.374807,"is_reserved":false,"is_disabled":false,"rental_uris":{"android":"levelo://app?vid=70154087-a4c4-4603-8d32-be26dfe3899f","ios":"levelo://app?vid=70154087-a4c4-4603-8d32-be26dfe3899f"},"vehicle_type_id":"4","last_reported":1725304062,"current_range_meters":1600,"station_id":"ce4bgjh2rcd13ifvqbg0","pricing_plan_id":"cebpf4jnsgd1na2vs0mg"},{"bike_id":"34c939ab-e130-453b-bfd0-0c40dc69d514","system_id":"levelo_inurba_marseille","lat":43.298433,"lon":5.362774,"is_reserved":false,"is_disabled":false,"rental_uris":{"android":"levelo://app?vid=34c939ab-e130-453b-bfd0-0c40dc69d514","ios":"levelo://app?vid=34c939ab-e130-453b-bfd0-0c40dc69d514"},"vehicle_type_id":"4","last_reported":1725304062,"current_range_meters":5200,"station_id":"ce4bgpp2rcd13ifvqc3g","pricing_plan_id":"cebpf4jnsgd1na2vs0mg"},{"bike_id":"75c0ae25-745e-48e1-820c-c52f47b5809e","system_id":"levelo_inurba_marseille","lat":43.311722,"lon":5.387247,"is_reserved":false,"is_disabled":false,"rental_uris":{"android":"levelo://app?vid=75c0ae25-745e-48e1-820c-c52f47b5809e","ios":"levelo://app?vid=75c0ae25-745e-48e1-820c-c52f47b5809e"},"vehicle_type_id":"4","last_reported":1725304062,"current_range_meters":18000,"station_id":"ce4bgv12rcd13ifvqcp0","pricing_plan_id":"cebpf4jnsgd1na2vs0mg"},{"bike_id":"cb7eb7de-1cde-4c39-b75b-1219befe4a11","system_id":"levelo_inurba_marseille","lat":43.311722,"lon":5.387247,"is_reserved":false,"is_disabled":false,"rental_uris":{"android":"levelo://app?vid=cb7eb7de-1cde-4c39-b75b-1219befe4a11","ios":"levelo://app?vid=cb7eb7de-1cde-4c39-b75b-1219befe4a11"},"vehicle_type_id":"4","last_reported":1725304062,"current_range_meters":18000,"station_id":"ce4bgv12rcd13ifvqcp0","pricing_plan_id":"cebpf4jnsgd1na2vs0mg"},{"bike_id":"89242555-f24f-48a7-a220-201e41d29b98","system_id":"levelo_inurba_marseille","lat":43.311722,"lon":5.387247,"is_reserved":false,"is_disabled":false,"rental_uris":{"android":"levelo://app?vid=89242555-f24f-48a7-a220-201e41d29b98","ios":"levelo://app?vid=89242555-f24f-48a7-a220-201e41d29b98"},"vehicle_type_id":"4","last_reported":1725304062,"current_range_meters":0,"station_id":"ce4bgv12rcd13ifvqcp0","pricing_plan_id":"cebpf4jnsgd1na2vs0mg"},{"bike_id":"cc9d73ed-6811-4e5e-a8e3-996505ff1c37","system_id":"levelo_inurba_marseille","lat":43.311722,"lon":5.387247,"is_reserved":false,"is_disabled":false,"rental_uris":{"android":"levelo://app?vid=cc9d73ed-6811-4e5e-a8e3-996505ff1c37","ios":"levelo://app?vid=cc9d73ed-6811-4e5e-a8e3-996505ff1c37"},"vehicle_type_id":"4","last_reported":1725304062,"current_range_meters":27200,"station_id":"ce4bgv12rcd13ifvqcp0","pricing_plan_id":"cebpf4jnsgd1na2vs0mg"},{"bike_id":"1ac7e910-7794-498e-9166-97b02375db8d","system_id":"levelo_inurba_marseille","lat":43.30057,"lon":5.37887,"is_reserved":false,"is_disabled":false,"rental_uris":{"android":"levelo://app?vid=1ac7e910-7794-498e-9166-97b02375db8d","ios":"levelo://app?vid=1ac7e910-7794-498e-9166-97b02375db8d"},"vehicle_type_id":"4","last_reported":1725304062,"current_range_meters":0,"station_id":"","pricing_plan_id":"cebpf4jnsgd1na2vs0mg"},{"bike_id":"a7935a54-9be4-47ed-80b3-375bdffbe0c5","system_id":"levelo_inurba_marseille","lat":43.297794,"lon":5.370888,"is_reserved":false,"is_disabled":false,"rental_uris":{"android":"levelo://app?vid=a7935a54-9be4-47ed-80b3-375bdffbe0c5","ios":"levelo://app?vid=a7935a54-9be4-47ed-80b3-375bdffbe0c5"},"vehicle_type_id":"4","last_reported":1725304062,"current_range_meters":0,"station_id":"ce4bgop2rcd13ifvqc1g","pricing_plan_id":"cebpf4jnsgd1na2vs0mg"},{"bike_id":"4ec0c14b-d0a6-4971-8ca0-dd6797734237","system_id":"levelo_inurba_marseille","lat":43.322872,"lon":5.382756,"is_reserved":false,"is_disabled":false,"rental_uris":{"android":"levelo://app?vid=4ec0c14b-d0a6-4971-8ca0-dd6797734237","ios":"levelo://app?vid=4ec0c14b-d0a6-4971-8ca0-dd6797734237"},"vehicle_type_id":"4","last_reported":1725304062,"current_range_meters":30800,"station_id":"ce4bhr12rcd13ifvqhqg","pricing_plan_id":"cebpf4jnsgd1na2vs0mg"},{"bike_id":"be6cd007-5c5e-4d08-845e-3bcb5dd9ef94","system_id":"levelo_inurba_marseille","lat":43.297794,"lon":5.370888,"is_reserved":false,"is_disabled":false,"rental_uris":{"android":"levelo://app?vid=be6cd007-5c5e-4d08-845e-3bcb5dd9ef94","ios":"levelo://app?vid=be6cd007-5c5e-4d08-845e-3bcb5dd9ef94"},"vehicle_type_id":"4","last_reported":1725304062,"current_range_meters":32000,"station_id":"ce4bgop2rcd13ifvqc1g","pricing_plan_id":"cebpf4jnsgd1na2vs0mg"},{"bike_id":"a530ea29-7e9f-4e0c-98f5-3232bd4c7b6e","system_id":"levelo_inurba_marseille","lat":43.322872,"lon":5.382756,"is_reserved":false,"is_disabled":false,"rental_uris":{"android":"levelo://app?vid=a530ea29-7e9f-4e0c-98f5-3232bd4c7b6e","ios":"levelo://app?vid=a530ea29-7e9f-4e0c-98f5-3232bd4c7b6e"},"vehicle_type_id":"4","last_reported":1725304062,"current_range_meters":16000,"station_id":"ce4bhr12rcd13ifvqhqg","pricing_plan_id":"cebpf4jnsgd1na2vs0mg"},{"bike_id":"da050aa5-808a-491c-86d2-cffc723ec0f4","system_id":"levelo_inurba_marseille","lat":43.29869,"lon":5.37617,"is_reserved":false,"is_disabled":false,"rental_uris":{"android":"levelo://app?vid=da050aa5-808a-491c-86d2-cffc723ec0f4","ios":"levelo://app?vid=da050aa5-808a-491c-86d2-cffc723ec0f4"},"vehicle_type_id":"4","last_reported":1725304062,"current_range_meters":12800,"station_id":"","pricing_plan_id":"cebpf4jnsgd1na2vs0mg"},{"bike_id":"a918aa35-462b-4dc2-8494-58360f41d86c","system_id":"levelo_inurba_marseille","lat":43.297163,"lon":5.365866,"is_reserved":false,"is_disabled":false,"rental_uris":{"android":"levelo://app?vid=a918aa35-462b-4dc2-8494-58360f41d86c","ios":"levelo://app?vid=a918aa35-462b-4dc2-8494-58360f41d86c"},"vehicle_type_id":"4","last_reported":1725304062,"current_range_meters":14800,"station_id":"ce4bgn12rcd13ifvqbt0","pricing_plan_id":"cebpf4jnsgd1na2vs0mg"},{"bike_id":"dee6175e-cd0d-4691-a44c-a092974e28b5","system_id":"levelo_inurba_marseille","lat":43.3212,"lon":5.385545,"is_reserved":false,"is_disabled":false,"rental_uris":{"android":"levelo://app?vid=dee6175e-cd0d-4691-a44c-a092974e28b5","ios":"levelo://app?vid=dee6175e-cd0d-4691-a44c-a092974e28b5"},"vehicle_type_id":"4","last_reported":1725304062,"current_range_meters":6800,"station_id":"","pricing_plan_id":"cebpf4jnsgd1na2vs0mg"},{"bike_id":"d4e5b626-91ab-49d1-8c29-32dfccdcc96d","system_id":"levelo_inurba_marseille","lat":43.30309,"lon":5.38507,"is_reserved":false,"is_disabled":false,"rental_uris":{"android":"levelo://app?vid=d4e5b626-91ab-49d1-8c29-32dfccdcc96d","ios":"levelo://app?vid=d4e5b626-91ab-49d1-8c29-32dfccdcc96d"},"vehicle_type_id":"4","last_reported":1725304062,"current_range_meters":10000,"station_id":"","pricing_plan_id":"cebpf4jnsgd1na2vs0mg"},{"bike_id":"8a8887de-5c7d-4b1c-91b2-78e9c920b48d","system_id":"levelo_inurba_marseille","lat":43.2968,"lon":5.37291,"is_reserved":false,"is_disabled":false,"rental_uris":{"android":"levelo://app?vid=8a8887de-5c7d-4b1c-91b2-78e9c920b48d","ios":"levelo://app?vid=8a8887de-5c7d-4b1c-91b2-78e9c920b48d"},"vehicle_type_id":"4","last_reported":1725304062,"current_range_meters":30800,"station_id":"ce4bgk12rcd13ifvqbj0","pricing_plan_id":"cebpf4jnsgd1na2vs0mg"},{"bike_id":"1771f46e-4fe9-4a8a-98d2-807d821b1577","system_id":"levelo_inurba_marseille","lat":43.2962,"lon":5.37155,"is_reserved":false,"is_disabled":false,"rental_uris":{"android":"levelo://app?vid=1771f46e-4fe9-4a8a-98d2-807d821b1577","ios":"levelo://app?vid=1771f46e-4fe9-4a8a-98d2-807d821b1577"},"vehicle_type_id":"4","last_reported":1725304062,"current_range_meters":31200,"station_id":"ce4bgnh2rcd13ifvqc0g","pricing_plan_id":"cebpf4jnsgd1na2vs0mg"},{"bike_id":"3a6e7d08-99c8-4a78-808f-0d51f8015116","system_id":"levelo_inurba_marseille","lat":43.296131,"lon":5.370791,"is_reserved":false,"is_disabled":false,"rental_uris":{"android":"levelo://app?vid=3a6e7d08-99c8-4a78-808f-0d51f8015116","ios":"levelo://app?vid=3a6e7d08-99c8-4a78-808f-0d51f8015116"},"vehicle_type_id":"4","last_reported":1725304062,"current_range_meters":3600,"station_id":"ce4bgnh2rcd13ifvqc0g","pricing_plan_id":"cebpf4jnsgd1na2vs0mg"},{"bike_id":"ba4ef024-1deb-4a44-877d-03b0a86c1250","system_id":"levelo_inurba_marseille","lat":43.296131,"lon":5.370791,"is_reserved":false,"is_disabled":false,"rental_uris":{"android":"levelo://app?vid=ba4ef024-1deb-4a44-877d-03b0a86c1250","ios":"levelo://app?vid=ba4ef024-1deb-4a44-877d-03b0a86c1250"},"vehicle_type_id":"4","last_reported":1725304062,"current_range_meters":31200,"station_id":"ce4bgnh2rcd13ifvqc0g","pricing_plan_id":"cebpf4jnsgd1na2vs0mg"},{"bike_id":"cf7f489b-4ea9-4ee2-9c03-d80e58218a81","system_id":"levelo_inurba_marseille","lat":43.32308,"lon":5.385313,"is_reserved":false,"is_disabled":false,"rental_uris":{"android":"levelo://app?vid=cf7f489b-4ea9-4ee2-9c03-d80e58218a81","ios":"levelo://app?vid=cf7f489b-4ea9-4ee2-9c03-d80e58218a81"},"vehicle_type_id":"4","last_reported":1725304062,"current_range_meters":1600,"station_id":"","pricing_plan_id":"cebpf4jnsgd1na2vs0mg"},{"bike_id":"b05a3fe5-1524-4c3a-bb09-142a84e2ca56","system_id":"levelo_inurba_marseille","lat":43.323185,"lon":5.385268,"is_reserved":false,"is_disabled":false,"rental_uris":{"android":"levelo://app?vid=b05a3fe5-1524-4c3a-bb09-142a84e2ca56","ios":"levelo://app?vid=b05a3fe5-1524-4c3a-bb09-142a84e2ca56"},"vehicle_type_id":"4","last_reported":1725304062,"current_range_meters":8800,"station_id":"","pricing_plan_id":"cebpf4jnsgd1na2vs0mg"},{"bike_id":"3fc82fcd-eae8-46c0-b39a-3a53a5b9c96a","system_id":"levelo_inurba_marseille","lat":43.32327,"lon":5.38524,"is_reserved":false,"is_disabled":false,"rental_uris":{"android":"levelo://app?vid=3fc82fcd-eae8-46c0-b39a-3a53a5b9c96a","ios":"levelo://app?vid=3fc82fcd-eae8-46c0-b39a-3a53a5b9c96a"},"vehicle_type_id":"4","last_reported":1725304062,"current_range_meters":20800,"station_id":"","pricing_plan_id":"cebpf4jnsgd1na2vs0mg"},{"bike_id":"616c8498-4214-4d7e-91e2-fd9d00e0d9f9","system_id":"levelo_inurba_marseille","lat":43.29908,"lon":5.38111,"is_reserved":false,"is_disabled":false,"rental_uris":{"android":"levelo://app?vid=616c8498-4214-4d7e-91e2-fd9d00e0d9f9","ios":"levelo://app?vid=616c8498-4214-4d7e-91e2-fd9d00e0d9f9"},"vehicle_type_id":"4","last_reported":1725304062,"current_range_meters":25600,"station_id":"ce4bgj12rcd13ifvqbc0","pricing_plan_id":"cebpf4jnsgd1na2vs0mg"},{"bike_id":"09f74924-051d-4562-81a0-d772032ae686","system_id":"levelo_inurba_marseille","lat":43.299028,"lon":5.381509,"is_reserved":false,"is_disabled":false,"rental_uris":{"android":"levelo://app?vid=09f74924-051d-4562-81a0-d772032ae686","ios":"levelo://app?vid=09f74924-051d-4562-81a0-d772032ae686"},"vehicle_type_id":"4","last_reported":1725304062,"current_range_meters":4800,"station_id":"ce4bgj12rcd13ifvqbc0","pricing_plan_id":"cebpf4jnsgd1na2vs0mg"},{"bike_id":"16049685-091a-42f6-8b39-b3f0c151a693","system_id":"levelo_inurba_marseille","lat":43.296935,"lon":5.376544,"is_reserved":false,"is_disabled":false,"rental_uris":{"android":"levelo://app?vid=16049685-091a-42f6-8b39-b3f0c151a693","ios":"levelo://app?vid=16049685-091a-42f6-8b39-b3f0c151a693"},"vehicle_type_id":"4","last_reported":1725304062,"current_range_meters":0,"station_id":"ce4bgkh2rcd13ifvqbl0","pricing_plan_id":"cebpf4jnsgd1na2vs0mg"},{"bike_id":"5e3ffda2-b4d6-4967-b3da-3db9157e4549","system_id":"levelo_inurba_marseille","lat":43.29698,"lon":5.37692,"is_reserved":false,"is_disabled":false,"rental_uris":{"android":"levelo://app?vid=5e3ffda2-b4d6-4967-b3da-3db9157e4549","ios":"levelo://app?vid=5e3ffda2-b4d6-4967-b3da-3db9157e4549"},"vehicle_type_id":"4","last_reported":1725304062,"current_range_meters":0,"station_id":"ce4bgkh2rcd13ifvqbl0","pricing_plan_id":"cebpf4jnsgd1na2vs0mg"},{"bike_id":"4206d64e-08ea-4828-826a-dc53157afe27","system_id":"levelo_inurba_marseille","lat":43.31761,"lon":5.39004,"is_reserved":false,"is_disabled":false,"rental_uris":{"android":"levelo://app?vid=4206d64e-08ea-4828-826a-dc53157afe27","ios":"levelo://app?vid=4206d64e-08ea-4828-826a-dc53157afe27"},"vehicle_type_id":"4","last_reported":1725304062,"current_range_meters":0,"station_id":"ce4bhqp2rcd13ifvqhng","pricing_plan_id":"cebpf4jnsgd1na2vs0mg"},{"bike_id":"435eb7ec-120a-42f4-81b3-2e5341a050a1","system_id":"levelo_inurba_marseille","lat":43.31759,"lon":5.39009,"is_reserved":false,"is_disabled":false,"rental_uris":{"android":"levelo://app?vid=435eb7ec-120a-42f4-81b3-2e5341a050a1","ios":"levelo://app?vid=435eb7ec-120a-42f4-81b3-2e5341a050a1"},"vehicle_type_id":"4","last_reported":1725304062,"current_range_meters":0,"station_id":"ce4bhqp2rcd13ifvqhng","pricing_plan_id":"cebpf4jnsgd1na2vs0mg"},{"bike_id":"d2285085-eed0-4cb2-bad0-533c0d2617ed","system_id":"levelo_inurba_marseille","lat":43.31754,"lon":5.39016,"is_reserved":false,"is_disabled":false,"rental_uris":{"android":"levelo://app?vid=d2285085-eed0-4cb2-bad0-533c0d2617ed","ios":"levelo://app?vid=d2285085-eed0-4cb2-bad0-533c0d2617ed"},"vehicle_type_id":"4","last_reported":1725304062,"current_range_meters":19200,"station_id":"ce4bhqp2rcd13ifvqhng","pricing_plan_id":"cebpf4jnsgd1na2vs0mg"},{"bike_id":"ebf9db15-c8f8-4b5a-89bf-331036f55421","system_id":"levelo_inurba_marseille","lat":43.317588,"lon":5.390186,"is_reserved":false,"is_disabled":false,"rental_uris":{"android":"levelo://app?vid=ebf9db15-c8f8-4b5a-89bf-331036f55421","ios":"levelo://app?vid=ebf9db15-c8f8-4b5a-89bf-331036f55421"},"vehicle_type_id":"4","last_reported":1725304062,"current_range_meters":0,"station_id":"ce4bhqp2rcd13ifvqhng","pricing_plan_id":"cebpf4jnsgd1na2vs0mg"},{"bike_id":"3f789833-1632-4bb6-9aec-090885950d88","system_id":"levelo_inurba_marseille","lat":43.3176,"lon":5.39021,"is_reserved":false,"is_disabled":false,"rental_uris":{"android":"levelo://app?vid=3f789833-1632-4bb6-9aec-090885950d88","ios":"levelo://app?vid=3f789833-1632-4bb6-9aec-090885950d88"},"vehicle_type_id":"4","last_reported":1725304062,"current_range_meters":15200,"station_id":"ce4bhqp2rcd13ifvqhng","pricing_plan_id":"cebpf4jnsgd1na2vs0mg"},{"bike_id":"02977fe5-2a38-4d05-980a-72b48f0c0aa5","system_id":"levelo_inurba_marseille","lat":43.3176,"lon":5.39022,"is_reserved":false,"is_disabled":false,"rental_uris":{"android":"levelo://app?vid=02977fe5-2a38-4d05-980a-72b48f0c0aa5","ios":"levelo://app?vid=02977fe5-2a38-4d05-980a-72b48f0c0aa5"},"vehicle_type_id":"4","last_reported":1725304062,"current_range_meters":31200,"station_id":"ce4bhqp2rcd13ifvqhng","pricing_plan_id":"cebpf4jnsgd1na2vs0mg"},{"bike_id":"b9818215-6293-4b9f-b5ee-a119963062be","system_id":"levelo_inurba_marseille","lat":43.31761,"lon":5.390243,"is_reserved":false,"is_disabled":false,"rental_uris":{"android":"levelo://app?vid=b9818215-6293-4b9f-b5ee-a119963062be","ios":"levelo://app?vid=b9818215-6293-4b9f-b5ee-a119963062be"},"vehicle_type_id":"4","last_reported":1725304062,"current_range_meters":6000,"station_id":"ce4bhqp2rcd13ifvqhng","pricing_plan_id":"cebpf4jnsgd1na2vs0mg"},{"bike_id":"9617d191-45a3-4c40-9375-543c85038598","system_id":"levelo_inurba_marseille","lat":43.298037,"lon":5.381066,"is_reserved":false,"is_disabled":false,"rental_uris":{"android":"levelo://app?vid=9617d191-45a3-4c40-9375-543c85038598","ios":"levelo://app?vid=9617d191-45a3-4c40-9375-543c85038598"},"vehicle_type_id":"4","last_reported":1725304062,"current_range_meters":18400,"station_id":"ce4bgip2rcd13ifvqbb0","pricing_plan_id":"cebpf4jnsgd1na2vs0mg"},{"bike_id":"77995073-5ced-45ca-9b0b-2c9d9944fdbe","system_id":"levelo_inurba_marseille","lat":43.29804,"lon":5.38109,"is_reserved":false,"is_disabled":false,"rental_uris":{"android":"levelo://app?vid=77995073-5ced-45ca-9b0b-2c9d9944fdbe","ios":"levelo://app?vid=77995073-5ced-45ca-9b0b-2c9d9944fdbe"},"vehicle_type_id":"4","last_reported":1725304062,"current_range_meters":22800,"station_id":"ce4bgip2rcd13ifvqbb0","pricing_plan_id":"cebpf4jnsgd1na2vs0mg"},{"bike_id":"aa4e0a77-a365-498c-9b86-4b04e4d3e825","system_id":"levelo_inurba_marseille","lat":43.298037,"lon":5.381066,"is_reserved":false,"is_disabled":false,"rental_uris":{"android":"levelo://app?vid=aa4e0a77-a365-498c-9b86-4b04e4d3e825","ios":"levelo://app?vid=aa4e0a77-a365-498c-9b86-4b04e4d3e825"},"vehicle_type_id":"4","last_reported":1725304062,"current_range_meters":7600,"station_id":"ce4bgip2rcd13ifvqbb0","pricing_plan_id":"cebpf4jnsgd1na2vs0mg"},{"bike_id":"dbb3a2f5-5d6e-430c-ae0f-bd6d43708ea9","system_id":"levelo_inurba_marseille","lat":43.304274,"lon":5.388873,"is_reserved":false,"is_disabled":false,"rental_uris":{"android":"levelo://app?vid=dbb3a2f5-5d6e-430c-ae0f-bd6d43708ea9","ios":"levelo://app?vid=dbb3a2f5-5d6e-430c-ae0f-bd6d43708ea9"},"vehicle_type_id":"4","last_reported":1725304062,"current_range_meters":14800,"station_id":"ce4bgk12rcd13ifvqbi0","pricing_plan_id":"cebpf4jnsgd1na2vs0mg"},{"bike_id":"de7d6bbb-7990-4853-9f01-c87a99ebc14b","system_id":"levelo_inurba_marseille","lat":43.29615,"lon":5.37695,"is_reserved":false,"is_disabled":false,"rental_uris":{"android":"levelo://app?vid=de7d6bbb-7990-4853-9f01-c87a99ebc14b","ios":"levelo://app?vid=de7d6bbb-7990-4853-9f01-c87a99ebc14b"},"vehicle_type_id":"4","last_reported":1725304062,"current_range_meters":16000,"station_id":"","pricing_plan_id":"cebpf4jnsgd1na2vs0mg"},{"bike_id":"017f603c-a989-4bdd-9563-cc9b970978bb","system_id":"levelo_inurba_marseille","lat":43.296277,"lon":5.377108,"is_reserved":false,"is_disabled":false,"rental_uris":{"android":"levelo://app?vid=017f603c-a989-4bdd-9563-cc9b970978bb","ios":"levelo://app?vid=017f603c-a989-4bdd-9563-cc9b970978bb"},"vehicle_type_id":"4","last_reported":1725304062,"current_range_meters":0,"station_id":"ce4bgi92rcd13ifvqb90","pricing_plan_id":"cebpf4jnsgd1na2vs0mg"},{"bike_id":"fcd7d286-270f-48cb-b177-2a0f7ebac06d","system_id":"levelo_inurba_marseille","lat":43.29794,"lon":5.38198,"is_reserved":false,"is_disabled":false,"rental_uris":{"android":"levelo://app?vid=fcd7d286-270f-48cb-b177-2a0f7ebac06d","ios":"levelo://app?vid=fcd7d286-270f-48cb-b177-2a0f7ebac06d"},"vehicle_type_id":"4","last_reported":1725304062,"current_range_meters":21600,"station_id":"","pricing_plan_id":"cebpf4jnsgd1na2vs0mg"},{"bike_id":"641ad111-c17f-4657-9768-83e708f1e496","system_id":"levelo_inurba_marseille","lat":43.299707,"lon":5.384859,"is_reserved":false,"is_disabled":false,"rental_uris":{"android":"levelo://app?vid=641ad111-c17f-4657-9768-83e708f1e496","ios":"levelo://app?vid=641ad111-c17f-4657-9768-83e708f1e496"},"vehicle_type_id":"4","last_reported":1725304062,"current_range_meters":8400,"station_id":"ce4bgj92rcd13ifvqbd0","pricing_plan_id":"cebpf4jnsgd1na2vs0mg"},{"bike_id":"63694ffc-75c0-4cf9-bfa4-2fd240e6c746","system_id":"levelo_inurba_marseille","lat":43.299707,"lon":5.384859,"is_reserved":false,"is_disabled":false,"rental_uris":{"android":"levelo://app?vid=63694ffc-75c0-4cf9-bfa4-2fd240e6c746","ios":"levelo://app?vid=63694ffc-75c0-4cf9-bfa4-2fd240e6c746"},"vehicle_type_id":"4","last_reported":1725304062,"current_range_meters":6000,"station_id":"ce4bgj92rcd13ifvqbd0","pricing_plan_id":"cebpf4jnsgd1na2vs0mg"},{"bike_id":"319212b9-81a1-41f9-a5e7-92e8f6c49a75","system_id":"levelo_inurba_marseille","lat":43.299707,"lon":5.384859,"is_reserved":false,"is_disabled":false,"rental_uris":{"android":"levelo://app?vid=319212b9-81a1-41f9-a5e7-92e8f6c49a75","ios":"levelo://app?vid=319212b9-81a1-41f9-a5e7-92e8f6c49a75"},"vehicle_type_id":"4","last_reported":1725304062,"current_range_meters":26000,"station_id":"ce4bgj92rcd13ifvqbd0","pricing_plan_id":"cebpf4jnsgd1na2vs0mg"},{"bike_id":"4b0cb2ef-bb3b-456e-99a8-ac1d017c3f5d","system_id":"levelo_inurba_marseille","lat":43.299707,"lon":5.384859,"is_reserved":false,"is_disabled":false,"rental_uris":{"android":"levelo://app?vid=4b0cb2ef-bb3b-456e-99a8-ac1d017c3f5d","ios":"levelo://app?vid=4b0cb2ef-bb3b-456e-99a8-ac1d017c3f5d"},"vehicle_type_id":"4","last_reported":1725304062,"current_range_meters":8000,"station_id":"ce4bgj92rcd13ifvqbd0","pricing_plan_id":"cebpf4jnsgd1na2vs0mg"},{"bike_id":"2708c89a-2ed1-48b1-80ba-78e65e6cc492","system_id":"levelo_inurba_marseille","lat":43.29971,"lon":5.38492,"is_reserved":false,"is_disabled":false,"rental_uris":{"android":"levelo://app?vid=2708c89a-2ed1-48b1-80ba-78e65e6cc492","ios":"levelo://app?vid=2708c89a-2ed1-48b1-80ba-78e65e6cc492"},"vehicle_type_id":"4","last_reported":1725304062,"current_range_meters":4400,"station_id":"ce4bgj92rcd13ifvqbd0","pricing_plan_id":"cebpf4jnsgd1na2vs0mg"},{"bike_id":"5a25fec0-c487-449f-8b5e-eedeb51f60e5","system_id":"levelo_inurba_marseille","lat":43.295279,"lon":5.375048,"is_reserved":false,"is_disabled":false,"rental_uris":{"android":"levelo://app?vid=5a25fec0-c487-449f-8b5e-eedeb51f60e5","ios":"levelo://app?vid=5a25fec0-c487-449f-8b5e-eedeb51f60e5"},"vehicle_type_id":"4","last_reported":1725304062,"current_range_meters":0,"station_id":"ce4bgkp2rcd13ifvqbmg","pricing_plan_id":"cebpf4jnsgd1na2vs0mg"},{"bike_id":"85902e89-de47-46d7-971e-f10824b569c1","system_id":"levelo_inurba_marseille","lat":43.299724,"lon":5.384848,"is_reserved":false,"is_disabled":false,"rental_uris":{"android":"levelo://app?vid=85902e89-de47-46d7-971e-f10824b569c1","ios":"levelo://app?vid=85902e89-de47-46d7-971e-f10824b569c1"},"vehicle_type_id":"4","last_reported":1725304062,"current_range_meters":25600,"station_id":"ce4bgj92rcd13ifvqbd0","pricing_plan_id":"cebpf4jnsgd1na2vs0mg"},{"bike_id":"24e04177-ee8c-4cfc-a8be-d293c8a8571e","system_id":"levelo_inurba_marseille","lat":43.29968,"lon":5.38507,"is_reserved":false,"is_disabled":false,"rental_uris":{"android":"levelo://app?vid=24e04177-ee8c-4cfc-a8be-d293c8a8571e","ios":"levelo://app?vid=24e04177-ee8c-4cfc-a8be-d293c8a8571e"},"vehicle_type_id":"4","last_reported":1725304062,"current_range_meters":0,"station_id":"ce4bgj92rcd13ifvqbd0","pricing_plan_id":"cebpf4jnsgd1na2vs0mg"},{"bike_id":"56c10dca-c902-45e1-ba54-2387691b58b7","system_id":"levelo_inurba_marseille","lat":43.299724,"lon":5.384848,"is_reserved":false,"is_disabled":false,"rental_uris":{"android":"levelo://app?vid=56c10dca-c902-45e1-ba54-2387691b58b7","ios":"levelo://app?vid=56c10dca-c902-45e1-ba54-2387691b58b7"},"vehicle_type_id":"4","last_reported":1725304062,"current_range_meters":800,"station_id":"ce4bgj92rcd13ifvqbd0","pricing_plan_id":"cebpf4jnsgd1na2vs0mg"},{"bike_id":"6c786fbf-9614-4a9e-90d7-509a6a20d4fa","system_id":"levelo_inurba_marseille","lat":43.32219,"lon":5.3893,"is_reserved":false,"is_disabled":false,"rental_uris":{"android":"levelo://app?vid=6c786fbf-9614-4a9e-90d7-509a6a20d4fa","ios":"levelo://app?vid=6c786fbf-9614-4a9e-90d7-509a6a20d4fa"},"vehicle_type_id":"4","last_reported":1725304062,"current_range_meters":26800,"station_id":"","pricing_plan_id":"cebpf4jnsgd1na2vs0mg"},{"bike_id":"0bfd37b5-ada3-4f83-9a93-2eee50e2e0b6","system_id":"levelo_inurba_marseille","lat":43.301396,"lon":5.387812,"is_reserved":false,"is_disabled":false,"rental_uris":{"android":"levelo://app?vid=0bfd37b5-ada3-4f83-9a93-2eee50e2e0b6","ios":"levelo://app?vid=0bfd37b5-ada3-4f83-9a93-2eee50e2e0b6"},"vehicle_type_id":"4","last_reported":1725304062,"current_range_meters":30800,"station_id":"ce4bghh2rcd13ifvqb60","pricing_plan_id":"cebpf4jnsgd1na2vs0mg"},{"bike_id":"10fc30c5-fc4e-4bb5-bc47-ef9a0a439405","system_id":"levelo_inurba_marseille","lat":43.301396,"lon":5.387812,"is_reserved":false,"is_disabled":false,"rental_uris":{"android":"levelo://app?vid=10fc30c5-fc4e-4bb5-bc47-ef9a0a439405","ios":"levelo://app?vid=10fc30c5-fc4e-4bb5-bc47-ef9a0a439405"},"vehicle_type_id":"4","last_reported":1725304062,"current_range_meters":25600,"station_id":"ce4bghh2rcd13ifvqb60","pricing_plan_id":"cebpf4jnsgd1na2vs0mg"},{"bike_id":"30129218-5e71-43c7-99bc-760a28ccd730","system_id":"levelo_inurba_marseille","lat":43.301396,"lon":5.387812,"is_reserved":false,"is_disabled":false,"rental_uris":{"android":"levelo://app?vid=30129218-5e71-43c7-99bc-760a28ccd730","ios":"levelo://app?vid=30129218-5e71-43c7-99bc-760a28ccd730"},"vehicle_type_id":"4","last_reported":1725304062,"current_range_meters":3600,"station_id":"ce4bghh2rcd13ifvqb60","pricing_plan_id":"cebpf4jnsgd1na2vs0mg"},{"bike_id":"f857ab6c-a093-46d6-b85c-3beb2c21dc8e","system_id":"levelo_inurba_marseille","lat":43.30132,"lon":5.38783,"is_reserved":false,"is_disabled":false,"rental_uris":{"android":"levelo://app?vid=f857ab6c-a093-46d6-b85c-3beb2c21dc8e","ios":"levelo://app?vid=f857ab6c-a093-46d6-b85c-3beb2c21dc8e"},"vehicle_type_id":"4","last_reported":1725304062,"current_range_meters":0,"station_id":"ce4bghh2rcd13ifvqb60","pricing_plan_id":"cebpf4jnsgd1na2vs0mg"},{"bike_id":"e44e2b03-c08f-4e8d-adee-11770a464e72","system_id":"levelo_inurba_marseille","lat":43.32366,"lon":5.38884,"is_reserved":false,"is_disabled":false,"rental_uris":{"android":"levelo://app?vid=e44e2b03-c08f-4e8d-adee-11770a464e72","ios":"levelo://app?vid=e44e2b03-c08f-4e8d-adee-11770a464e72"},"vehicle_type_id":"4","last_reported":1725304062,"current_range_meters":12400,"station_id":"ce4bhqp2rcd13ifvqhog","pricing_plan_id":"cebpf4jnsgd1na2vs0mg"},{"bike_id":"8b9d5245-1f76-49bf-8168-832e89e617ae","system_id":"levelo_inurba_marseille","lat":43.32367,"lon":5.388836,"is_reserved":false,"is_disabled":false,"rental_uris":{"android":"levelo://app?vid=8b9d5245-1f76-49bf-8168-832e89e617ae","ios":"levelo://app?vid=8b9d5245-1f76-49bf-8168-832e89e617ae"},"vehicle_type_id":"4","last_reported":1725304062,"current_range_meters":2800,"station_id":"ce4bhqp2rcd13ifvqhog","pricing_plan_id":"cebpf4jnsgd1na2vs0mg"},{"bike_id":"46b11e58-0515-4547-ba87-b77e5753b70c","system_id":"levelo_inurba_marseille","lat":43.29582,"lon":5.38017,"is_reserved":false,"is_disabled":false,"rental_uris":{"android":"levelo://app?vid=46b11e58-0515-4547-ba87-b77e5753b70c","ios":"levelo://app?vid=46b11e58-0515-4547-ba87-b77e5753b70c"},"vehicle_type_id":"4","last_reported":1725304062,"current_range_meters":15200,"station_id":"","pricing_plan_id":"cebpf4jnsgd1na2vs0mg"},{"bike_id":"b6f2f489-0af3-46a0-96b3-1469d9e5b174","system_id":"levelo_inurba_marseille","lat":43.29602,"lon":5.381084,"is_reserved":false,"is_disabled":false,"rental_uris":{"android":"levelo://app?vid=b6f2f489-0af3-46a0-96b3-1469d9e5b174","ios":"levelo://app?vid=b6f2f489-0af3-46a0-96b3-1469d9e5b174"},"vehicle_type_id":"4","last_reported":1725304062,"current_range_meters":800,"station_id":"ce4bgl12rcd13ifvqbo0","pricing_plan_id":"cebpf4jnsgd1na2vs0mg"},{"bike_id":"fa04705f-4456-475a-877f-8d2c3dcb38ee","system_id":"levelo_inurba_marseille","lat":43.304278,"lon":5.388868,"is_reserved":false,"is_disabled":false,"rental_uris":{"android":"levelo://app?vid=fa04705f-4456-475a-877f-8d2c3dcb38ee","ios":"levelo://app?vid=fa04705f-4456-475a-877f-8d2c3dcb38ee"},"vehicle_type_id":"4","last_reported":1725304062,"current_range_meters":0,"station_id":"ce4bgk12rcd13ifvqbi0","pricing_plan_id":"cebpf4jnsgd1na2vs0mg"},{"bike_id":"06accbb8-3573-4f3c-a447-7a37d2f01316","system_id":"levelo_inurba_marseille","lat":43.293249,"lon":5.371578,"is_reserved":false,"is_disabled":false,"rental_uris":{"android":"levelo://app?vid=06accbb8-3573-4f3c-a447-7a37d2f01316","ios":"levelo://app?vid=06accbb8-3573-4f3c-a447-7a37d2f01316"},"vehicle_type_id":"4","last_reported":1725304062,"current_range_meters":28400,"station_id":"ce4bgh92rcd13ifvqb40","pricing_plan_id":"cebpf4jnsgd1na2vs0mg"},{"bike_id":"adc5f3ee-25d6-4a62-ab60-7cb2b07439d0","system_id":"levelo_inurba_marseille","lat":43.29307,"lon":5.37183,"is_reserved":false,"is_disabled":false,"rental_uris":{"android":"levelo://app?vid=adc5f3ee-25d6-4a62-ab60-7cb2b07439d0","ios":"levelo://app?vid=adc5f3ee-25d6-4a62-ab60-7cb2b07439d0"},"vehicle_type_id":"4","last_reported":1725304062,"current_range_meters":12000,"station_id":"ce4bgh92rcd13ifvqb40","pricing_plan_id":"cebpf4jnsgd1na2vs0mg"},{"bike_id":"049ee481-e484-4220-b11c-08c2c0266512","system_id":"levelo_inurba_marseille","lat":43.29306,"lon":5.37181,"is_reserved":false,"is_disabled":false,"rental_uris":{"android":"levelo://app?vid=049ee481-e484-4220-b11c-08c2c0266512","ios":"levelo://app?vid=049ee481-e484-4220-b11c-08c2c0266512"},"vehicle_type_id":"4","last_reported":1725304062,"current_range_meters":0,"station_id":"ce4bgh92rcd13ifvqb40","pricing_plan_id":"cebpf4jnsgd1na2vs0mg"},{"bike_id":"963229df-e785-4820-a7ac-3dafe95d6e8b","system_id":"levelo_inurba_marseille","lat":43.293249,"lon":5.371578,"is_reserved":false,"is_disabled":false,"rental_uris":{"android":"levelo://app?vid=963229df-e785-4820-a7ac-3dafe95d6e8b","ios":"levelo://app?vid=963229df-e785-4820-a7ac-3dafe95d6e8b"},"vehicle_type_id":"4","last_reported":1725304062,"current_range_meters":0,"station_id":"ce4bgh92rcd13ifvqb40","pricing_plan_id":"cebpf4jnsgd1na2vs0mg"},{"bike_id":"3569f04a-b942-4855-b0d3-9cef1811eed7","system_id":"levelo_inurba_marseille","lat":43.29305,"lon":5.37176,"is_reserved":false,"is_disabled":false,"rental_uris":{"android":"levelo://app?vid=3569f04a-b942-4855-b0d3-9cef1811eed7","ios":"levelo://app?vid=3569f04a-b942-4855-b0d3-9cef1811eed7"},"vehicle_type_id":"4","last_reported":1725304062,"current_range_meters":400,"station_id":"ce4bgh92rcd13ifvqb40","pricing_plan_id":"cebpf4jnsgd1na2vs0mg"},{"bike_id":"071b11cf-7eff-4526-93ed-4b352d43c8e4","system_id":"levelo_inurba_marseille","lat":43.29304,"lon":5.37179,"is_reserved":false,"is_disabled":false,"rental_uris":{"android":"levelo://app?vid=071b11cf-7eff-4526-93ed-4b352d43c8e4","ios":"levelo://app?vid=071b11cf-7eff-4526-93ed-4b352d43c8e4"},"vehicle_type_id":"4","last_reported":1725304062,"current_range_meters":26000,"station_id":"ce4bgh92rcd13ifvqb40","pricing_plan_id":"cebpf4jnsgd1na2vs0mg"},{"bike_id":"a7cc658c-86cd-438e-a22d-084e830937ae","system_id":"levelo_inurba_marseille","lat":43.29303,"lon":5.37178,"is_reserved":false,"is_disabled":false,"rental_uris":{"android":"levelo://app?vid=a7cc658c-86cd-438e-a22d-084e830937ae","ios":"levelo://app?vid=a7cc658c-86cd-438e-a22d-084e830937ae"},"vehicle_type_id":"4","last_reported":1725304062,"current_range_meters":25200,"station_id":"ce4bgh92rcd13ifvqb40","pricing_plan_id":"cebpf4jnsgd1na2vs0mg"},{"bike_id":"09be8489-90ea-4ffe-bbe5-14039d49ee4e","system_id":"levelo_inurba_marseille","lat":43.292743,"lon":5.368447,"is_reserved":false,"is_disabled":false,"rental_uris":{"android":"levelo://app?vid=09be8489-90ea-4ffe-bbe5-14039d49ee4e","ios":"levelo://app?vid=09be8489-90ea-4ffe-bbe5-14039d49ee4e"},"vehicle_type_id":"4","last_reported":1725304062,"current_range_meters":0,"station_id":"ce4bhbp2rcd13ifvqesg","pricing_plan_id":"cebpf4jnsgd1na2vs0mg"},{"bike_id":"aeff1700-59b1-41d5-a504-b9c79827ae85","system_id":"levelo_inurba_marseille","lat":43.29302,"lon":5.37176,"is_reserved":false,"is_disabled":false,"rental_uris":{"android":"levelo://app?vid=aeff1700-59b1-41d5-a504-b9c79827ae85","ios":"levelo://app?vid=aeff1700-59b1-41d5-a504-b9c79827ae85"},"vehicle_type_id":"4","last_reported":1725304062,"current_range_meters":16400,"station_id":"ce4bgh92rcd13ifvqb40","pricing_plan_id":"cebpf4jnsgd1na2vs0mg"},{"bike_id":"9acca960-70df-4d20-ac64-7af5ab327877","system_id":"levelo_inurba_marseille","lat":43.29302,"lon":5.37181,"is_reserved":false,"is_disabled":false,"rental_uris":{"android":"levelo://app?vid=9acca960-70df-4d20-ac64-7af5ab327877","ios":"levelo://app?vid=9acca960-70df-4d20-ac64-7af5ab327877"},"vehicle_type_id":"4","last_reported":1725304062,"current_range_meters":0,"station_id":"ce4bgh92rcd13ifvqb40","pricing_plan_id":"cebpf4jnsgd1na2vs0mg"},{"bike_id":"de46a060-855f-42e0-b1c8-4b8472bc5f27","system_id":"levelo_inurba_marseille","lat":43.29302,"lon":5.37181,"is_reserved":false,"is_disabled":false,"rental_uris":{"android":"levelo://app?vid=de46a060-855f-42e0-b1c8-4b8472bc5f27","ios":"levelo://app?vid=de46a060-855f-42e0-b1c8-4b8472bc5f27"},"vehicle_type_id":"4","last_reported":1725304062,"current_range_meters":6400,"station_id":"ce4bgh92rcd13ifvqb40","pricing_plan_id":"cebpf4jnsgd1na2vs0mg"},{"bike_id":"888af4e8-2d7b-4474-b124-fa78e9522282","system_id":"levelo_inurba_marseille","lat":43.29301,"lon":5.37177,"is_reserved":false,"is_disabled":false,"rental_uris":{"android":"levelo://app?vid=888af4e8-2d7b-4474-b124-fa78e9522282","ios":"levelo://app?vid=888af4e8-2d7b-4474-b124-fa78e9522282"},"vehicle_type_id":"4","last_reported":1725304062,"current_range_meters":29600,"station_id":"ce4bgh92rcd13ifvqb40","pricing_plan_id":"cebpf4jnsgd1na2vs0mg"},{"bike_id":"95c55c1e-cffc-4d86-bf3c-86bfec952e16","system_id":"levelo_inurba_marseille","lat":43.292749,"lon":5.368402,"is_reserved":false,"is_disabled":false,"rental_uris":{"android":"levelo://app?vid=95c55c1e-cffc-4d86-bf3c-86bfec952e16","ios":"levelo://app?vid=95c55c1e-cffc-4d86-bf3c-86bfec952e16"},"vehicle_type_id":"4","last_reported":1725304062,"current_range_meters":0,"station_id":"ce4bhbp2rcd13ifvqesg","pricing_plan_id":"cebpf4jnsgd1na2vs0mg"},{"bike_id":"daf0c0c9-aed3-4c1f-a19f-89c4ede06b8b","system_id":"levelo_inurba_marseille","lat":43.29303,"lon":5.37459,"is_reserved":false,"is_disabled":false,"rental_uris":{"android":"levelo://app?vid=daf0c0c9-aed3-4c1f-a19f-89c4ede06b8b","ios":"levelo://app?vid=daf0c0c9-aed3-4c1f-a19f-89c4ede06b8b"},"vehicle_type_id":"4","last_reported":1725304062,"current_range_meters":0,"station_id":"ce4bgi12rcd13ifvqb70","pricing_plan_id":"cebpf4jnsgd1na2vs0mg"},{"bike_id":"abd02dae-a7c6-468b-9821-54f10c752d1f","system_id":"levelo_inurba_marseille","lat":43.305994,"lon":5.393687,"is_reserved":false,"is_disabled":false,"rental_uris":{"android":"levelo://app?vid=abd02dae-a7c6-468b-9821-54f10c752d1f","ios":"levelo://app?vid=abd02dae-a7c6-468b-9821-54f10c752d1f"},"vehicle_type_id":"4","last_reported":1725304062,"current_range_meters":24400,"station_id":"ce4bh0p2rcd13ifvqd80","pricing_plan_id":"cebpf4jnsgd1na2vs0mg"},{"bike_id":"fc13de44-0fb9-483f-8c8b-b5f81cb974bf","system_id":"levelo_inurba_marseille","lat":43.305994,"lon":5.393687,"is_reserved":false,"is_disabled":false,"rental_uris":{"android":"levelo://app?vid=fc13de44-0fb9-483f-8c8b-b5f81cb974bf","ios":"levelo://app?vid=fc13de44-0fb9-483f-8c8b-b5f81cb974bf"},"vehicle_type_id":"4","last_reported":1725304062,"current_range_meters":27200,"station_id":"ce4bh0p2rcd13ifvqd80","pricing_plan_id":"cebpf4jnsgd1na2vs0mg"},{"bike_id":"ea741de1-2699-413e-9e01-7f4e1b01743c","system_id":"levelo_inurba_marseille","lat":43.305994,"lon":5.393687,"is_reserved":false,"is_disabled":false,"rental_uris":{"android":"levelo://app?vid=ea741de1-2699-413e-9e01-7f4e1b01743c","ios":"levelo://app?vid=ea741de1-2699-413e-9e01-7f4e1b01743c"},"vehicle_type_id":"4","last_reported":1725304062,"current_range_meters":400,"station_id":"ce4bh0p2rcd13ifvqd80","pricing_plan_id":"cebpf4jnsgd1na2vs0mg"},{"bike_id":"7f734b6d-3e51-4fc6-9ca4-d5ef890b4325","system_id":"levelo_inurba_marseille","lat":43.293009,"lon":5.374584,"is_reserved":false,"is_disabled":false,"rental_uris":{"android":"levelo://app?vid=7f734b6d-3e51-4fc6-9ca4-d5ef890b4325","ios":"levelo://app?vid=7f734b6d-3e51-4fc6-9ca4-d5ef890b4325"},"vehicle_type_id":"4","last_reported":1725304062,"current_range_meters":20800,"station_id":"ce4bgi12rcd13ifvqb70","pricing_plan_id":"cebpf4jnsgd1na2vs0mg"},{"bike_id":"97f568bb-84b6-4b44-bee9-798ca08f0a35","system_id":"levelo_inurba_marseille","lat":43.2936,"lon":5.37835,"is_reserved":false,"is_disabled":false,"rental_uris":{"android":"levelo://app?vid=97f568bb-84b6-4b44-bee9-798ca08f0a35","ios":"levelo://app?vid=97f568bb-84b6-4b44-bee9-798ca08f0a35"},"vehicle_type_id":"4","last_reported":1725304062,"current_range_meters":31600,"station_id":"ce4bgjh2rcd13ifvqbf0","pricing_plan_id":"cebpf4jnsgd1na2vs0mg"},{"bike_id":"624e719b-8a95-4203-9c40-b0e79735065d","system_id":"levelo_inurba_marseille","lat":43.302992,"lon":5.392136,"is_reserved":false,"is_disabled":false,"rental_uris":{"android":"levelo://app?vid=624e719b-8a95-4203-9c40-b0e79735065d","ios":"levelo://app?vid=624e719b-8a95-4203-9c40-b0e79735065d"},"vehicle_type_id":"4","last_reported":1725304062,"current_range_meters":19200,"station_id":"ce4bgkh2rcd13ifvqbk0","pricing_plan_id":"cebpf4jnsgd1na2vs0mg"},{"bike_id":"e390bc4d-aec9-4941-bf08-adcbc10d1eb5","system_id":"levelo_inurba_marseille","lat":43.2936,"lon":5.37835,"is_reserved":false,"is_disabled":false,"rental_uris":{"android":"levelo://app?vid=e390bc4d-aec9-4941-bf08-adcbc10d1eb5","ios":"levelo://app?vid=e390bc4d-aec9-4941-bf08-adcbc10d1eb5"},"vehicle_type_id":"4","last_reported":1725304062,"current_range_meters":1200,"station_id":"ce4bgjh2rcd13ifvqbf0","pricing_plan_id":"cebpf4jnsgd1na2vs0mg"},{"bike_id":"d727ebd4-24bf-4db9-aa1a-9297884c3fa0","system_id":"levelo_inurba_marseille","lat":43.293788,"lon":5.37853,"is_reserved":false,"is_disabled":false,"rental_uris":{"android":"levelo://app?vid=d727ebd4-24bf-4db9-aa1a-9297884c3fa0","ios":"levelo://app?vid=d727ebd4-24bf-4db9-aa1a-9297884c3fa0"},"vehicle_type_id":"4","last_reported":1725304062,"current_range_meters":0,"station_id":"ce4bgjh2rcd13ifvqbf0","pricing_plan_id":"cebpf4jnsgd1na2vs0mg"},{"bike_id":"b597e4b5-a14c-4de3-9dd8-f4b01462c895","system_id":"levelo_inurba_marseille","lat":43.302992,"lon":5.392136,"is_reserved":false,"is_disabled":false,"rental_uris":{"android":"levelo://app?vid=b597e4b5-a14c-4de3-9dd8-f4b01462c895","ios":"levelo://app?vid=b597e4b5-a14c-4de3-9dd8-f4b01462c895"},"vehicle_type_id":"4","last_reported":1725304062,"current_range_meters":30000,"station_id":"ce4bgkh2rcd13ifvqbk0","pricing_plan_id":"cebpf4jnsgd1na2vs0mg"},{"bike_id":"469daa63-7150-4563-8f2f-695a304c8ed5","system_id":"levelo_inurba_marseille","lat":43.2936,"lon":5.37835,"is_reserved":false,"is_disabled":false,"rental_uris":{"android":"levelo://app?vid=469daa63-7150-4563-8f2f-695a304c8ed5","ios":"levelo://app?vid=469daa63-7150-4563-8f2f-695a304c8ed5"},"vehicle_type_id":"4","last_reported":1725304062,"current_range_meters":0,"station_id":"ce4bgjh2rcd13ifvqbf0","pricing_plan_id":"cebpf4jnsgd1na2vs0mg"},{"bike_id":"1762692a-e565-430d-a244-4a1e04a1b63e","system_id":"levelo_inurba_marseille","lat":43.29369,"lon":5.37853,"is_reserved":false,"is_disabled":false,"rental_uris":{"android":"levelo://app?vid=1762692a-e565-430d-a244-4a1e04a1b63e","ios":"levelo://app?vid=1762692a-e565-430d-a244-4a1e04a1b63e"},"vehicle_type_id":"4","last_reported":1725304062,"current_range_meters":5600,"station_id":"ce4bgjh2rcd13ifvqbf0","pricing_plan_id":"cebpf4jnsgd1na2vs0mg"},{"bike_id":"51d3e3f4-3e96-4d7a-8aea-2f24bee20ce4","system_id":"levelo_inurba_marseille","lat":43.30085,"lon":5.390856,"is_reserved":false,"is_disabled":false,"rental_uris":{"android":"levelo://app?vid=51d3e3f4-3e96-4d7a-8aea-2f24bee20ce4","ios":"levelo://app?vid=51d3e3f4-3e96-4d7a-8aea-2f24bee20ce4"},"vehicle_type_id":"4","last_reported":1725304062,"current_range_meters":21200,"station_id":"ce4bh192rcd13ifvqdb0","pricing_plan_id":"cebpf4jnsgd1na2vs0mg"},{"bike_id":"7ec8919b-d28e-4cf9-ad5b-a09d04aadeea","system_id":"levelo_inurba_marseille","lat":43.30085,"lon":5.390856,"is_reserved":false,"is_disabled":false,"rental_uris":{"android":"levelo://app?vid=7ec8919b-d28e-4cf9-ad5b-a09d04aadeea","ios":"levelo://app?vid=7ec8919b-d28e-4cf9-ad5b-a09d04aadeea"},"vehicle_type_id":"4","last_reported":1725304062,"current_range_meters":1600,"station_id":"ce4bh192rcd13ifvqdb0","pricing_plan_id":"cebpf4jnsgd1na2vs0mg"},{"bike_id":"a7239564-dc16-4834-afdd-33157f842305","system_id":"levelo_inurba_marseille","lat":43.29227,"lon":5.36055,"is_reserved":false,"is_disabled":false,"rental_uris":{"android":"levelo://app?vid=a7239564-dc16-4834-afdd-33157f842305","ios":"levelo://app?vid=a7239564-dc16-4834-afdd-33157f842305"},"vehicle_type_id":"4","last_reported":1725304062,"current_range_meters":0,"station_id":"ce4bhbh2rcd13ifvqeqg","pricing_plan_id":"cebpf4jnsgd1na2vs0mg"},{"bike_id":"af6fbb33-9148-48ef-99de-80a6533ea359","system_id":"levelo_inurba_marseille","lat":43.292206,"lon":5.360834,"is_reserved":false,"is_disabled":false,"rental_uris":{"android":"levelo://app?vid=af6fbb33-9148-48ef-99de-80a6533ea359","ios":"levelo://app?vid=af6fbb33-9148-48ef-99de-80a6533ea359"},"vehicle_type_id":"4","last_reported":1725304062,"current_range_meters":0,"station_id":"","pricing_plan_id":"cebpf4jnsgd1na2vs0mg"},{"bike_id":"43522644-4051-450e-b41d-30a77e5713cc","system_id":"levelo_inurba_marseille","lat":43.298764,"lon":5.388973,"is_reserved":false,"is_disabled":false,"rental_uris":{"android":"levelo://app?vid=43522644-4051-450e-b41d-30a77e5713cc","ios":"levelo://app?vid=43522644-4051-450e-b41d-30a77e5713cc"},"vehicle_type_id":"4","last_reported":1725304062,"current_range_meters":23600,"station_id":"ce4bh392rcd13ifvqdl0","pricing_plan_id":"cebpf4jnsgd1na2vs0mg"},{"bike_id":"5835589e-bd92-4e49-a594-7d62a2812fc0","system_id":"levelo_inurba_marseille","lat":43.298764,"lon":5.388973,"is_reserved":false,"is_disabled":false,"rental_uris":{"android":"levelo://app?vid=5835589e-bd92-4e49-a594-7d62a2812fc0","ios":"levelo://app?vid=5835589e-bd92-4e49-a594-7d62a2812fc0"},"vehicle_type_id":"4","last_reported":1725304062,"current_range_meters":23600,"station_id":"ce4bh392rcd13ifvqdl0","pricing_plan_id":"cebpf4jnsgd1na2vs0mg"},{"bike_id":"73c670b2-fe71-41bb-aa24-d750f489960f","system_id":"levelo_inurba_marseille","lat":43.313291,"lon":5.396838,"is_reserved":false,"is_disabled":false,"rental_uris":{"android":"levelo://app?vid=73c670b2-fe71-41bb-aa24-d750f489960f","ios":"levelo://app?vid=73c670b2-fe71-41bb-aa24-d750f489960f"},"vehicle_type_id":"4","last_reported":1725304062,"current_range_meters":7600,"station_id":"ce4bgvp2rcd13ifvqcu0","pricing_plan_id":"cebpf4jnsgd1na2vs0mg"},{"bike_id":"7f6720e5-9b01-458d-a60b-90502e39615c","system_id":"levelo_inurba_marseille","lat":43.298764,"lon":5.388973,"is_reserved":false,"is_disabled":false,"rental_uris":{"android":"levelo://app?vid=7f6720e5-9b01-458d-a60b-90502e39615c","ios":"levelo://app?vid=7f6720e5-9b01-458d-a60b-90502e39615c"},"vehicle_type_id":"4","last_reported":1725304062,"current_range_meters":11600,"station_id":"ce4bh392rcd13ifvqdl0","pricing_plan_id":"cebpf4jnsgd1na2vs0mg"},{"bike_id":"732bad8a-d8e2-4da9-94ee-d86629e4b44c","system_id":"levelo_inurba_marseille","lat":43.291675,"lon":5.371583,"is_reserved":false,"is_disabled":false,"rental_uris":{"android":"levelo://app?vid=732bad8a-d8e2-4da9-94ee-d86629e4b44c","ios":"levelo://app?vid=732bad8a-d8e2-4da9-94ee-d86629e4b44c"},"vehicle_type_id":"4","last_reported":1725304062,"current_range_meters":1600,"station_id":"ce4bha92rcd13ifvqeh0","pricing_plan_id":"cebpf4jnsgd1na2vs0mg"},{"bike_id":"f15c1f59-1105-4f61-aa6e-60a0e17a06dc","system_id":"levelo_inurba_marseille","lat":43.299717,"lon":5.384845,"is_reserved":false,"is_disabled":false,"rental_uris":{"android":"levelo://app?vid=f15c1f59-1105-4f61-aa6e-60a0e17a06dc","ios":"levelo://app?vid=f15c1f59-1105-4f61-aa6e-60a0e17a06dc"},"vehicle_type_id":"4","last_reported":1725304062,"current_range_meters":10400,"station_id":"ce4bgj92rcd13ifvqbd0","pricing_plan_id":"cebpf4jnsgd1na2vs0mg"},{"bike_id":"29959d67-a363-430c-b29d-c2aabd2fd850","system_id":"levelo_inurba_marseille","lat":43.292005,"lon":5.357875,"is_reserved":false,"is_disabled":false,"rental_uris":{"android":"levelo://app?vid=29959d67-a363-430c-b29d-c2aabd2fd850","ios":"levelo://app?vid=29959d67-a363-430c-b29d-c2aabd2fd850"},"vehicle_type_id":"4","last_reported":1725304062,"current_range_meters":0,"station_id":"ce4bhb12rcd13ifvqel0","pricing_plan_id":"cebpf4jnsgd1na2vs0mg"},{"bike_id":"b124974f-4b10-417f-ab15-f754ef448863","system_id":"levelo_inurba_marseille","lat":43.313291,"lon":5.396838,"is_reserved":false,"is_disabled":false,"rental_uris":{"android":"levelo://app?vid=b124974f-4b10-417f-ab15-f754ef448863","ios":"levelo://app?vid=b124974f-4b10-417f-ab15-f754ef448863"},"vehicle_type_id":"4","last_reported":1725304062,"current_range_meters":31600,"station_id":"ce4bgvp2rcd13ifvqcu0","pricing_plan_id":"cebpf4jnsgd1na2vs0mg"},{"bike_id":"0cbced01-90b9-44ef-8a25-14b58243817a","system_id":"levelo_inurba_marseille","lat":43.313291,"lon":5.396838,"is_reserved":false,"is_disabled":false,"rental_uris":{"android":"levelo://app?vid=0cbced01-90b9-44ef-8a25-14b58243817a","ios":"levelo://app?vid=0cbced01-90b9-44ef-8a25-14b58243817a"},"vehicle_type_id":"4","last_reported":1725304062,"current_range_meters":28000,"station_id":"ce4bgvp2rcd13ifvqcu0","pricing_plan_id":"cebpf4jnsgd1na2vs0mg"},{"bike_id":"67977a01-b1cc-4426-8789-710d316a2674","system_id":"levelo_inurba_marseille","lat":43.308901,"lon":5.39643,"is_reserved":false,"is_disabled":false,"rental_uris":{"android":"levelo://app?vid=67977a01-b1cc-4426-8789-710d316a2674","ios":"levelo://app?vid=67977a01-b1cc-4426-8789-710d316a2674"},"vehicle_type_id":"4","last_reported":1725304062,"current_range_meters":29600,"station_id":"ce4bh012rcd13ifvqcv0","pricing_plan_id":"cebpf4jnsgd1na2vs0mg"},{"bike_id":"2e704a63-ecaf-4885-bf26-1c777deea2e5","system_id":"levelo_inurba_marseille","lat":43.313291,"lon":5.396838,"is_reserved":false,"is_disabled":false,"rental_uris":{"android":"levelo://app?vid=2e704a63-ecaf-4885-bf26-1c777deea2e5","ios":"levelo://app?vid=2e704a63-ecaf-4885-bf26-1c777deea2e5"},"vehicle_type_id":"4","last_reported":1725304062,"current_range_meters":31200,"station_id":"ce4bgvp2rcd13ifvqcu0","pricing_plan_id":"cebpf4jnsgd1na2vs0mg"},{"bike_id":"636aea21-6a57-4647-b02b-7d1da1931525","system_id":"levelo_inurba_marseille","lat":43.309047,"lon":5.396551,"is_reserved":false,"is_disabled":false,"rental_uris":{"android":"levelo://app?vid=636aea21-6a57-4647-b02b-7d1da1931525","ios":"levelo://app?vid=636aea21-6a57-4647-b02b-7d1da1931525"},"vehicle_type_id":"4","last_reported":1725304062,"current_range_meters":25200,"station_id":"ce4bh012rcd13ifvqcv0","pricing_plan_id":"cebpf4jnsgd1na2vs0mg"},{"bike_id":"254e8754-b2dc-4326-a3b5-1998f3d4b0bb","system_id":"levelo_inurba_marseille","lat":43.291903,"lon":5.357924,"is_reserved":false,"is_disabled":false,"rental_uris":{"android":"levelo://app?vid=254e8754-b2dc-4326-a3b5-1998f3d4b0bb","ios":"levelo://app?vid=254e8754-b2dc-4326-a3b5-1998f3d4b0bb"},"vehicle_type_id":"4","last_reported":1725304062,"current_range_meters":14000,"station_id":"ce4bhb12rcd13ifvqel0","pricing_plan_id":"cebpf4jnsgd1na2vs0mg"},{"bike_id":"b0138ccf-4931-4fa9-b54c-18aac852186b","system_id":"levelo_inurba_marseille","lat":43.313291,"lon":5.396838,"is_reserved":false,"is_disabled":false,"rental_uris":{"android":"levelo://app?vid=b0138ccf-4931-4fa9-b54c-18aac852186b","ios":"levelo://app?vid=b0138ccf-4931-4fa9-b54c-18aac852186b"},"vehicle_type_id":"4","last_reported":1725304062,"current_range_meters":23200,"station_id":"ce4bgvp2rcd13ifvqcu0","pricing_plan_id":"cebpf4jnsgd1na2vs0mg"},{"bike_id":"d2f9e36b-b875-44ec-ad0e-248a8156f298","system_id":"levelo_inurba_marseille","lat":43.313291,"lon":5.396838,"is_reserved":false,"is_disabled":false,"rental_uris":{"android":"levelo://app?vid=d2f9e36b-b875-44ec-ad0e-248a8156f298","ios":"levelo://app?vid=d2f9e36b-b875-44ec-ad0e-248a8156f298"},"vehicle_type_id":"4","last_reported":1725304062,"current_range_meters":25200,"station_id":"ce4bgvp2rcd13ifvqcu0","pricing_plan_id":"cebpf4jnsgd1na2vs0mg"},{"bike_id":"0e876d3b-9def-48b0-93e9-10ae503152a0","system_id":"levelo_inurba_marseille","lat":43.309038,"lon":5.396546,"is_reserved":false,"is_disabled":false,"rental_uris":{"android":"levelo://app?vid=0e876d3b-9def-48b0-93e9-10ae503152a0","ios":"levelo://app?vid=0e876d3b-9def-48b0-93e9-10ae503152a0"},"vehicle_type_id":"4","last_reported":1725304062,"current_range_meters":12800,"station_id":"ce4bh012rcd13ifvqcv0","pricing_plan_id":"cebpf4jnsgd1na2vs0mg"},{"bike_id":"e8305041-49c1-437c-9224-cba352a314e0","system_id":"levelo_inurba_marseille","lat":43.309038,"lon":5.396546,"is_reserved":false,"is_disabled":false,"rental_uris":{"android":"levelo://app?vid=e8305041-49c1-437c-9224-cba352a314e0","ios":"levelo://app?vid=e8305041-49c1-437c-9224-cba352a314e0"},"vehicle_type_id":"4","last_reported":1725304062,"current_range_meters":31200,"station_id":"ce4bh012rcd13ifvqcv0","pricing_plan_id":"cebpf4jnsgd1na2vs0mg"},{"bike_id":"ab5d1280-e2b9-4d62-9f91-ae6f6fb68163","system_id":"levelo_inurba_marseille","lat":43.309038,"lon":5.396546,"is_reserved":false,"is_disabled":false,"rental_uris":{"android":"levelo://app?vid=ab5d1280-e2b9-4d62-9f91-ae6f6fb68163","ios":"levelo://app?vid=ab5d1280-e2b9-4d62-9f91-ae6f6fb68163"},"vehicle_type_id":"4","last_reported":1725304062,"current_range_meters":31600,"station_id":"ce4bh012rcd13ifvqcv0","pricing_plan_id":"cebpf4jnsgd1na2vs0mg"},{"bike_id":"39858e54-346f-4832-b811-8804689faaf8","system_id":"levelo_inurba_marseille","lat":43.309038,"lon":5.396546,"is_reserved":false,"is_disabled":false,"rental_uris":{"android":"levelo://app?vid=39858e54-346f-4832-b811-8804689faaf8","ios":"levelo://app?vid=39858e54-346f-4832-b811-8804689faaf8"},"vehicle_type_id":"4","last_reported":1725304062,"current_range_meters":13600,"station_id":"ce4bh012rcd13ifvqcv0","pricing_plan_id":"cebpf4jnsgd1na2vs0mg"},{"bike_id":"82250d33-8a30-45e3-93c5-c00e852e667d","system_id":"levelo_inurba_marseille","lat":43.309038,"lon":5.396546,"is_reserved":false,"is_disabled":false,"rental_uris":{"android":"levelo://app?vid=82250d33-8a30-45e3-93c5-c00e852e667d","ios":"levelo://app?vid=82250d33-8a30-45e3-93c5-c00e852e667d"},"vehicle_type_id":"4","last_reported":1725304062,"current_range_meters":22000,"station_id":"ce4bh012rcd13ifvqcv0","pricing_plan_id":"cebpf4jnsgd1na2vs0mg"},{"bike_id":"bd463097-a061-4ce8-a7ba-af0ac2ace5d2","system_id":"levelo_inurba_marseille","lat":43.309047,"lon":5.396551,"is_reserved":false,"is_disabled":false,"rental_uris":{"android":"levelo://app?vid=bd463097-a061-4ce8-a7ba-af0ac2ace5d2","ios":"levelo://app?vid=bd463097-a061-4ce8-a7ba-af0ac2ace5d2"},"vehicle_type_id":"4","last_reported":1725304062,"current_range_meters":31600,"station_id":"ce4bh012rcd13ifvqcv0","pricing_plan_id":"cebpf4jnsgd1na2vs0mg"},{"bike_id":"3de91363-3e1f-46f4-abc2-8c79eaa66aa4","system_id":"levelo_inurba_marseille","lat":43.309038,"lon":5.396546,"is_reserved":false,"is_disabled":false,"rental_uris":{"android":"levelo://app?vid=3de91363-3e1f-46f4-abc2-8c79eaa66aa4","ios":"levelo://app?vid=3de91363-3e1f-46f4-abc2-8c79eaa66aa4"},"vehicle_type_id":"4","last_reported":1725304062,"current_range_meters":20400,"station_id":"ce4bh012rcd13ifvqcv0","pricing_plan_id":"cebpf4jnsgd1na2vs0mg"},{"bike_id":"6923a629-b734-4c13-86dd-cc9c1e2028aa","system_id":"levelo_inurba_marseille","lat":43.309047,"lon":5.396551,"is_reserved":false,"is_disabled":false,"rental_uris":{"android":"levelo://app?vid=6923a629-b734-4c13-86dd-cc9c1e2028aa","ios":"levelo://app?vid=6923a629-b734-4c13-86dd-cc9c1e2028aa"},"vehicle_type_id":"4","last_reported":1725304062,"current_range_meters":31600,"station_id":"ce4bh012rcd13ifvqcv0","pricing_plan_id":"cebpf4jnsgd1na2vs0mg"},{"bike_id":"cb54c814-58d1-458c-886a-4ee75615d58d","system_id":"levelo_inurba_marseille","lat":43.309038,"lon":5.396546,"is_reserved":false,"is_disabled":false,"rental_uris":{"android":"levelo://app?vid=cb54c814-58d1-458c-886a-4ee75615d58d","ios":"levelo://app?vid=cb54c814-58d1-458c-886a-4ee75615d58d"},"vehicle_type_id":"4","last_reported":1725304062,"current_range_meters":19200,"station_id":"ce4bh012rcd13ifvqcv0","pricing_plan_id":"cebpf4jnsgd1na2vs0mg"},{"bike_id":"c490e502-c323-4148-84f9-a26b110fd64a","system_id":"levelo_inurba_marseille","lat":43.309038,"lon":5.396546,"is_reserved":false,"is_disabled":false,"rental_uris":{"android":"levelo://app?vid=c490e502-c323-4148-84f9-a26b110fd64a","ios":"levelo://app?vid=c490e502-c323-4148-84f9-a26b110fd64a"},"vehicle_type_id":"4","last_reported":1725304062,"current_range_meters":31600,"station_id":"ce4bh012rcd13ifvqcv0","pricing_plan_id":"cebpf4jnsgd1na2vs0mg"},{"bike_id":"5b9e92f2-b0fb-4b75-b567-dd291ff822d1","system_id":"levelo_inurba_marseille","lat":43.29529,"lon":5.385581,"is_reserved":false,"is_disabled":false,"rental_uris":{"android":"levelo://app?vid=5b9e92f2-b0fb-4b75-b567-dd291ff822d1","ios":"levelo://app?vid=5b9e92f2-b0fb-4b75-b567-dd291ff822d1"},"vehicle_type_id":"4","last_reported":1725304062,"current_range_meters":13200,"station_id":"ce4bgih2rcd13ifvqba0","pricing_plan_id":"cebpf4jnsgd1na2vs0mg"},{"bike_id":"9b2017e8-8150-40bb-8367-e313636cfc4a","system_id":"levelo_inurba_marseille","lat":43.29529,"lon":5.385581,"is_reserved":false,"is_disabled":false,"rental_uris":{"android":"levelo://app?vid=9b2017e8-8150-40bb-8367-e313636cfc4a","ios":"levelo://app?vid=9b2017e8-8150-40bb-8367-e313636cfc4a"},"vehicle_type_id":"4","last_reported":1725304062,"current_range_meters":18000,"station_id":"ce4bgih2rcd13ifvqba0","pricing_plan_id":"cebpf4jnsgd1na2vs0mg"},{"bike_id":"01cc7e96-1197-4ffe-bf78-9dd567d4c9b5","system_id":"levelo_inurba_marseille","lat":43.29529,"lon":5.385581,"is_reserved":false,"is_disabled":false,"rental_uris":{"android":"levelo://app?vid=01cc7e96-1197-4ffe-bf78-9dd567d4c9b5","ios":"levelo://app?vid=01cc7e96-1197-4ffe-bf78-9dd567d4c9b5"},"vehicle_type_id":"4","last_reported":1725304062,"current_range_meters":0,"station_id":"ce4bgih2rcd13ifvqba0","pricing_plan_id":"cebpf4jnsgd1na2vs0mg"},{"bike_id":"1dd72f33-6f92-465d-b67a-702646d6d363","system_id":"levelo_inurba_marseille","lat":43.29529,"lon":5.385581,"is_reserved":false,"is_disabled":false,"rental_uris":{"android":"levelo://app?vid=1dd72f33-6f92-465d-b67a-702646d6d363","ios":"levelo://app?vid=1dd72f33-6f92-465d-b67a-702646d6d363"},"vehicle_type_id":"4","last_reported":1725304062,"current_range_meters":3200,"station_id":"ce4bgih2rcd13ifvqba0","pricing_plan_id":"cebpf4jnsgd1na2vs0mg"},{"bike_id":"ec6946d6-d9b1-43c7-ac86-144bc1d82db6","system_id":"levelo_inurba_marseille","lat":43.29529,"lon":5.385581,"is_reserved":false,"is_disabled":false,"rental_uris":{"android":"levelo://app?vid=ec6946d6-d9b1-43c7-ac86-144bc1d82db6","ios":"levelo://app?vid=ec6946d6-d9b1-43c7-ac86-144bc1d82db6"},"vehicle_type_id":"4","last_reported":1725304062,"current_range_meters":5600,"station_id":"ce4bgih2rcd13ifvqba0","pricing_plan_id":"cebpf4jnsgd1na2vs0mg"},{"bike_id":"9a678262-ed7c-4404-bd06-e4e90fc569ff","system_id":"levelo_inurba_marseille","lat":43.29529,"lon":5.385581,"is_reserved":false,"is_disabled":false,"rental_uris":{"android":"levelo://app?vid=9a678262-ed7c-4404-bd06-e4e90fc569ff","ios":"levelo://app?vid=9a678262-ed7c-4404-bd06-e4e90fc569ff"},"vehicle_type_id":"4","last_reported":1725304062,"current_range_meters":23200,"station_id":"ce4bgih2rcd13ifvqba0","pricing_plan_id":"cebpf4jnsgd1na2vs0mg"},{"bike_id":"11019290-1883-4620-85dc-37410f5866ee","system_id":"levelo_inurba_marseille","lat":43.29529,"lon":5.385581,"is_reserved":false,"is_disabled":false,"rental_uris":{"android":"levelo://app?vid=11019290-1883-4620-85dc-37410f5866ee","ios":"levelo://app?vid=11019290-1883-4620-85dc-37410f5866ee"},"vehicle_type_id":"4","last_reported":1725304062,"current_range_meters":1600,"station_id":"ce4bgih2rcd13ifvqba0","pricing_plan_id":"cebpf4jnsgd1na2vs0mg"},{"bike_id":"97e55131-ace8-4fab-ab7f-8e67d43ee38b","system_id":"levelo_inurba_marseille","lat":43.29529,"lon":5.385581,"is_reserved":false,"is_disabled":false,"rental_uris":{"android":"levelo://app?vid=97e55131-ace8-4fab-ab7f-8e67d43ee38b","ios":"levelo://app?vid=97e55131-ace8-4fab-ab7f-8e67d43ee38b"},"vehicle_type_id":"4","last_reported":1725304062,"current_range_meters":9200,"station_id":"ce4bgih2rcd13ifvqba0","pricing_plan_id":"cebpf4jnsgd1na2vs0mg"},{"bike_id":"77857a1d-3d43-4d92-b42f-f2ed876c42a7","system_id":"levelo_inurba_marseille","lat":43.290779,"lon":5.371482,"is_reserved":false,"is_disabled":false,"rental_uris":{"android":"levelo://app?vid=77857a1d-3d43-4d92-b42f-f2ed876c42a7","ios":"levelo://app?vid=77857a1d-3d43-4d92-b42f-f2ed876c42a7"},"vehicle_type_id":"4","last_reported":1725304062,"current_range_meters":4400,"station_id":"ce4bh5p2rcd13ifvqe4g","pricing_plan_id":"cebpf4jnsgd1na2vs0mg"},{"bike_id":"2676c29a-e3c8-4b94-9e79-1732532b7d18","system_id":"levelo_inurba_marseille","lat":43.302008,"lon":5.394694,"is_reserved":false,"is_disabled":false,"rental_uris":{"android":"levelo://app?vid=2676c29a-e3c8-4b94-9e79-1732532b7d18","ios":"levelo://app?vid=2676c29a-e3c8-4b94-9e79-1732532b7d18"},"vehicle_type_id":"4","last_reported":1725304062,"current_range_meters":16000,"station_id":"ce4bh0p2rcd13ifvqd70","pricing_plan_id":"cebpf4jnsgd1na2vs0mg"},{"bike_id":"da7b7219-a0f6-433a-ac31-d656df429f4c","system_id":"levelo_inurba_marseille","lat":43.30209,"lon":5.3948,"is_reserved":false,"is_disabled":false,"rental_uris":{"android":"levelo://app?vid=da7b7219-a0f6-433a-ac31-d656df429f4c","ios":"levelo://app?vid=da7b7219-a0f6-433a-ac31-d656df429f4c"},"vehicle_type_id":"4","last_reported":1725304062,"current_range_meters":29600,"station_id":"ce4bh0p2rcd13ifvqd70","pricing_plan_id":"cebpf4jnsgd1na2vs0mg"},{"bike_id":"43dcca25-d4b4-45d5-b66c-44a0ed55cbe3","system_id":"levelo_inurba_marseille","lat":43.291994,"lon":5.392907,"is_reserved":false,"is_disabled":false,"rental_uris":{"android":"levelo://app?vid=43dcca25-d4b4-45d5-b66c-44a0ed55cbe3","ios":"levelo://app?vid=43dcca25-d4b4-45d5-b66c-44a0ed55cbe3"},"vehicle_type_id":"4","last_reported":1725304062,"current_range_meters":2000,"station_id":"ce4bh192rcd13ifvqdd0","pricing_plan_id":"cebpf4jnsgd1na2vs0mg"},{"bike_id":"7cba3060-f882-42a4-af25-c6d31b6ad0bb","system_id":"levelo_inurba_marseille","lat":43.294153,"lon":5.386305,"is_reserved":false,"is_disabled":false,"rental_uris":{"android":"levelo://app?vid=7cba3060-f882-42a4-af25-c6d31b6ad0bb","ios":"levelo://app?vid=7cba3060-f882-42a4-af25-c6d31b6ad0bb"},"vehicle_type_id":"4","last_reported":1725304062,"current_range_meters":4000,"station_id":"ce4bh2h2rcd13ifvqdh0","pricing_plan_id":"cebpf4jnsgd1na2vs0mg"},{"bike_id":"9c95f9eb-3616-45a3-9daf-ed91e0479076","system_id":"levelo_inurba_marseille","lat":43.294153,"lon":5.386305,"is_reserved":false,"is_disabled":false,"rental_uris":{"android":"levelo://app?vid=9c95f9eb-3616-45a3-9daf-ed91e0479076","ios":"levelo://app?vid=9c95f9eb-3616-45a3-9daf-ed91e0479076"},"vehicle_type_id":"4","last_reported":1725304062,"current_range_meters":0,"station_id":"ce4bh2h2rcd13ifvqdh0","pricing_plan_id":"cebpf4jnsgd1na2vs0mg"},{"bike_id":"eafb92c8-7480-4cf7-b922-3c8f534d9e1c","system_id":"levelo_inurba_marseille","lat":43.294153,"lon":5.386305,"is_reserved":false,"is_disabled":false,"rental_uris":{"android":"levelo://app?vid=eafb92c8-7480-4cf7-b922-3c8f534d9e1c","ios":"levelo://app?vid=eafb92c8-7480-4cf7-b922-3c8f534d9e1c"},"vehicle_type_id":"4","last_reported":1725304062,"current_range_meters":12800,"station_id":"ce4bh2h2rcd13ifvqdh0","pricing_plan_id":"cebpf4jnsgd1na2vs0mg"},{"bike_id":"847ae628-4a63-4fff-a158-c9abda1e6dbf","system_id":"levelo_inurba_marseille","lat":43.289468,"lon":5.366348,"is_reserved":false,"is_disabled":false,"rental_uris":{"android":"levelo://app?vid=847ae628-4a63-4fff-a158-c9abda1e6dbf","ios":"levelo://app?vid=847ae628-4a63-4fff-a158-c9abda1e6dbf"},"vehicle_type_id":"4","last_reported":1725304062,"current_range_meters":400,"station_id":"ce4bhap2rcd13ifvqek0","pricing_plan_id":"cebpf4jnsgd1na2vs0mg"},{"bike_id":"1ff68f44-c946-4781-b693-6634e65da3ea","system_id":"levelo_inurba_marseille","lat":43.294153,"lon":5.386305,"is_reserved":false,"is_disabled":false,"rental_uris":{"android":"levelo://app?vid=1ff68f44-c946-4781-b693-6634e65da3ea","ios":"levelo://app?vid=1ff68f44-c946-4781-b693-6634e65da3ea"},"vehicle_type_id":"4","last_reported":1725304062,"current_range_meters":2000,"station_id":"ce4bh2h2rcd13ifvqdh0","pricing_plan_id":"cebpf4jnsgd1na2vs0mg"},{"bike_id":"044cb1bb-42c4-4676-a4c2-890502dab86a","system_id":"levelo_inurba_marseille","lat":43.294162,"lon":5.386292,"is_reserved":false,"is_disabled":false,"rental_uris":{"android":"levelo://app?vid=044cb1bb-42c4-4676-a4c2-890502dab86a","ios":"levelo://app?vid=044cb1bb-42c4-4676-a4c2-890502dab86a"},"vehicle_type_id":"4","last_reported":1725304062,"current_range_meters":31600,"station_id":"ce4bh2h2rcd13ifvqdh0","pricing_plan_id":"cebpf4jnsgd1na2vs0mg"},{"bike_id":"21407fb0-5391-427d-ba75-2babe01aadf1","system_id":"levelo_inurba_marseille","lat":43.28945,"lon":5.36629,"is_reserved":false,"is_disabled":false,"rental_uris":{"android":"levelo://app?vid=21407fb0-5391-427d-ba75-2babe01aadf1","ios":"levelo://app?vid=21407fb0-5391-427d-ba75-2babe01aadf1"},"vehicle_type_id":"4","last_reported":1725304062,"current_range_meters":28400,"station_id":"ce4bhap2rcd13ifvqek0","pricing_plan_id":"cebpf4jnsgd1na2vs0mg"},{"bike_id":"2e09323b-4a8c-487a-a97c-92e0d30d10dc","system_id":"levelo_inurba_marseille","lat":43.29416,"lon":5.38624,"is_reserved":false,"is_disabled":false,"rental_uris":{"android":"levelo://app?vid=2e09323b-4a8c-487a-a97c-92e0d30d10dc","ios":"levelo://app?vid=2e09323b-4a8c-487a-a97c-92e0d30d10dc"},"vehicle_type_id":"4","last_reported":1725304062,"current_range_meters":0,"station_id":"ce4bh2h2rcd13ifvqdh0","pricing_plan_id":"cebpf4jnsgd1na2vs0mg"},{"bike_id":"45e1bb58-82a9-4163-a9d9-15da12b201a4","system_id":"levelo_inurba_marseille","lat":43.294162,"lon":5.386292,"is_reserved":false,"is_disabled":false,"rental_uris":{"android":"levelo://app?vid=45e1bb58-82a9-4163-a9d9-15da12b201a4","ios":"levelo://app?vid=45e1bb58-82a9-4163-a9d9-15da12b201a4"},"vehicle_type_id":"4","last_reported":1725304062,"current_range_meters":0,"station_id":"ce4bh2h2rcd13ifvqdh0","pricing_plan_id":"cebpf4jnsgd1na2vs0mg"},{"bike_id":"3f865449-33ab-471a-b5a4-bba6033aa0db","system_id":"levelo_inurba_marseille","lat":43.294153,"lon":5.386305,"is_reserved":false,"is_disabled":false,"rental_uris":{"android":"levelo://app?vid=3f865449-33ab-471a-b5a4-bba6033aa0db","ios":"levelo://app?vid=3f865449-33ab-471a-b5a4-bba6033aa0db"},"vehicle_type_id":"4","last_reported":1725304062,"current_range_meters":21600,"station_id":"ce4bh2h2rcd13ifvqdh0","pricing_plan_id":"cebpf4jnsgd1na2vs0mg"},{"bike_id":"c051bd50-5ea5-48e2-9c49-a7d99797c246","system_id":"levelo_inurba_marseille","lat":43.2894,"lon":5.36639,"is_reserved":false,"is_disabled":false,"rental_uris":{"android":"levelo://app?vid=c051bd50-5ea5-48e2-9c49-a7d99797c246","ios":"levelo://app?vid=c051bd50-5ea5-48e2-9c49-a7d99797c246"},"vehicle_type_id":"4","last_reported":1725304062,"current_range_meters":0,"station_id":"ce4bhap2rcd13ifvqek0","pricing_plan_id":"cebpf4jnsgd1na2vs0mg"},{"bike_id":"e7b3dd86-aa44-4642-9dbe-94e23e312d2f","system_id":"levelo_inurba_marseille","lat":43.28935,"lon":5.36644,"is_reserved":false,"is_disabled":false,"rental_uris":{"android":"levelo://app?vid=e7b3dd86-aa44-4642-9dbe-94e23e312d2f","ios":"levelo://app?vid=e7b3dd86-aa44-4642-9dbe-94e23e312d2f"},"vehicle_type_id":"4","last_reported":1725304062,"current_range_meters":0,"station_id":"ce4bhap2rcd13ifvqek0","pricing_plan_id":"cebpf4jnsgd1na2vs0mg"},{"bike_id":"23fecf39-475a-4937-b14a-24763019e0de","system_id":"levelo_inurba_marseille","lat":43.289468,"lon":5.363719,"is_reserved":false,"is_disabled":false,"rental_uris":{"android":"levelo://app?vid=23fecf39-475a-4937-b14a-24763019e0de","ios":"levelo://app?vid=23fecf39-475a-4937-b14a-24763019e0de"},"vehicle_type_id":"4","last_reported":1725304062,"current_range_meters":0,"station_id":"ce4bhc92rcd13ifvqetg","pricing_plan_id":"cebpf4jnsgd1na2vs0mg"},{"bike_id":"3a2438cf-5f39-4fca-9912-2686031ae7b7","system_id":"levelo_inurba_marseille","lat":43.289468,"lon":5.363719,"is_reserved":false,"is_disabled":false,"rental_uris":{"android":"levelo://app?vid=3a2438cf-5f39-4fca-9912-2686031ae7b7","ios":"levelo://app?vid=3a2438cf-5f39-4fca-9912-2686031ae7b7"},"vehicle_type_id":"4","last_reported":1725304062,"current_range_meters":21600,"station_id":"ce4bhc92rcd13ifvqetg","pricing_plan_id":"cebpf4jnsgd1na2vs0mg"},{"bike_id":"dbb75189-5f1b-4d11-b579-abe4823b606e","system_id":"levelo_inurba_marseille","lat":43.304274,"lon":5.397513,"is_reserved":false,"is_disabled":false,"rental_uris":{"android":"levelo://app?vid=dbb75189-5f1b-4d11-b579-abe4823b606e","ios":"levelo://app?vid=dbb75189-5f1b-4d11-b579-abe4823b606e"},"vehicle_type_id":"4","last_reported":1725304062,"current_range_meters":6000,"station_id":"ce4bh092rcd13ifvqd20","pricing_plan_id":"cebpf4jnsgd1na2vs0mg"},{"bike_id":"e1c87a84-48bc-4995-9f6a-7af877df6086","system_id":"levelo_inurba_marseille","lat":43.30584,"lon":5.39816,"is_reserved":false,"is_disabled":false,"rental_uris":{"android":"levelo://app?vid=e1c87a84-48bc-4995-9f6a-7af877df6086","ios":"levelo://app?vid=e1c87a84-48bc-4995-9f6a-7af877df6086"},"vehicle_type_id":"4","last_reported":1725304062,"current_range_meters":1600,"station_id":"","pricing_plan_id":"cebpf4jnsgd1na2vs0mg"},{"bike_id":"755a6b8b-0ae3-4419-ae4d-d83693f4d4b5","system_id":"levelo_inurba_marseille","lat":43.304296,"lon":5.397513,"is_reserved":false,"is_disabled":false,"rental_uris":{"android":"levelo://app?vid=755a6b8b-0ae3-4419-ae4d-d83693f4d4b5","ios":"levelo://app?vid=755a6b8b-0ae3-4419-ae4d-d83693f4d4b5"},"vehicle_type_id":"4","last_reported":1725304062,"current_range_meters":16800,"station_id":"ce4bh092rcd13ifvqd20","pricing_plan_id":"cebpf4jnsgd1na2vs0mg"},{"bike_id":"31b84862-b4f7-443a-8728-373b5dad71b0","system_id":"levelo_inurba_marseille","lat":43.304274,"lon":5.397513,"is_reserved":false,"is_disabled":false,"rental_uris":{"android":"levelo://app?vid=31b84862-b4f7-443a-8728-373b5dad71b0","ios":"levelo://app?vid=31b84862-b4f7-443a-8728-373b5dad71b0"},"vehicle_type_id":"4","last_reported":1725304062,"current_range_meters":3200,"station_id":"ce4bh092rcd13ifvqd20","pricing_plan_id":"cebpf4jnsgd1na2vs0mg"},{"bike_id":"c8e01fa7-219f-4077-b3e4-0fedbc7ad7bd","system_id":"levelo_inurba_marseille","lat":43.304296,"lon":5.397513,"is_reserved":false,"is_disabled":false,"rental_uris":{"android":"levelo://app?vid=c8e01fa7-219f-4077-b3e4-0fedbc7ad7bd","ios":"levelo://app?vid=c8e01fa7-219f-4077-b3e4-0fedbc7ad7bd"},"vehicle_type_id":"4","last_reported":1725304062,"current_range_meters":8000,"station_id":"ce4bh092rcd13ifvqd20","pricing_plan_id":"cebpf4jnsgd1na2vs0mg"},{"bike_id":"7e21d48b-cec4-468b-9c4f-c173b3d8351f","system_id":"levelo_inurba_marseille","lat":43.2926,"lon":5.38447,"is_reserved":false,"is_disabled":false,"rental_uris":{"android":"levelo://app?vid=7e21d48b-cec4-468b-9c4f-c173b3d8351f","ios":"levelo://app?vid=7e21d48b-cec4-468b-9c4f-c173b3d8351f"},"vehicle_type_id":"4","last_reported":1725304062,"current_range_meters":6400,"station_id":"ce4bh692rcd13ifvqea0","pricing_plan_id":"cebpf4jnsgd1na2vs0mg"},{"bike_id":"caed3b21-a4d5-448c-b2fb-374ef138846b","system_id":"levelo_inurba_marseille","lat":43.2926,"lon":5.38455,"is_reserved":false,"is_disabled":false,"rental_uris":{"android":"levelo://app?vid=caed3b21-a4d5-448c-b2fb-374ef138846b","ios":"levelo://app?vid=caed3b21-a4d5-448c-b2fb-374ef138846b"},"vehicle_type_id":"4","last_reported":1725304062,"current_range_meters":0,"station_id":"ce4bh692rcd13ifvqea0","pricing_plan_id":"cebpf4jnsgd1na2vs0mg"},{"bike_id":"ee1f1c0f-be7f-4f42-9c8b-225f9a430774","system_id":"levelo_inurba_marseille","lat":43.290104,"lon":5.356111,"is_reserved":false,"is_disabled":false,"rental_uris":{"android":"levelo://app?vid=ee1f1c0f-be7f-4f42-9c8b-225f9a430774","ios":"levelo://app?vid=ee1f1c0f-be7f-4f42-9c8b-225f9a430774"},"vehicle_type_id":"4","last_reported":1725304062,"current_range_meters":0,"station_id":"ce4bhb92rcd13ifvqen0","pricing_plan_id":"cebpf4jnsgd1na2vs0mg"},{"bike_id":"a85dfa4d-3a79-4030-9fbf-efa5e20e0200","system_id":"levelo_inurba_marseille","lat":43.2911,"lon":5.38147,"is_reserved":false,"is_disabled":false,"rental_uris":{"android":"levelo://app?vid=a85dfa4d-3a79-4030-9fbf-efa5e20e0200","ios":"levelo://app?vid=a85dfa4d-3a79-4030-9fbf-efa5e20e0200"},"vehicle_type_id":"4","last_reported":1725304062,"current_range_meters":0,"station_id":"ce4bh512rcd13ifvqe2g","pricing_plan_id":"cebpf4jnsgd1na2vs0mg"},{"bike_id":"108526b6-2585-45d8-b019-c4b40a1e3c35","system_id":"levelo_inurba_marseille","lat":43.290995,"lon":5.381361,"is_reserved":false,"is_disabled":false,"rental_uris":{"android":"levelo://app?vid=108526b6-2585-45d8-b019-c4b40a1e3c35","ios":"levelo://app?vid=108526b6-2585-45d8-b019-c4b40a1e3c35"},"vehicle_type_id":"4","last_reported":1725304062,"current_range_meters":29600,"station_id":"ce4bh512rcd13ifvqe2g","pricing_plan_id":"cebpf4jnsgd1na2vs0mg"},{"bike_id":"2d0d16ab-34de-4b8a-a9d3-d3c36975af3f","system_id":"levelo_inurba_marseille","lat":43.290995,"lon":5.381361,"is_reserved":false,"is_disabled":false,"rental_uris":{"android":"levelo://app?vid=2d0d16ab-34de-4b8a-a9d3-d3c36975af3f","ios":"levelo://app?vid=2d0d16ab-34de-4b8a-a9d3-d3c36975af3f"},"vehicle_type_id":"4","last_reported":1725304062,"current_range_meters":30400,"station_id":"ce4bh512rcd13ifvqe2g","pricing_plan_id":"cebpf4jnsgd1na2vs0mg"},{"bike_id":"8297b964-51cf-43f2-81b8-8505bf778617","system_id":"levelo_inurba_marseille","lat":43.290995,"lon":5.381361,"is_reserved":false,"is_disabled":false,"rental_uris":{"android":"levelo://app?vid=8297b964-51cf-43f2-81b8-8505bf778617","ios":"levelo://app?vid=8297b964-51cf-43f2-81b8-8505bf778617"},"vehicle_type_id":"4","last_reported":1725304062,"current_range_meters":0,"station_id":"ce4bh512rcd13ifvqe2g","pricing_plan_id":"cebpf4jnsgd1na2vs0mg"},{"bike_id":"cf2bf0b3-5f88-451e-8104-fda794b1a009","system_id":"levelo_inurba_marseille","lat":43.290995,"lon":5.381361,"is_reserved":false,"is_disabled":false,"rental_uris":{"android":"levelo://app?vid=cf2bf0b3-5f88-451e-8104-fda794b1a009","ios":"levelo://app?vid=cf2bf0b3-5f88-451e-8104-fda794b1a009"},"vehicle_type_id":"4","last_reported":1725304062,"current_range_meters":28800,"station_id":"ce4bh512rcd13ifvqe2g","pricing_plan_id":"cebpf4jnsgd1na2vs0mg"},{"bike_id":"7254f954-f454-4676-b091-345a13d6d870","system_id":"levelo_inurba_marseille","lat":43.290995,"lon":5.381361,"is_reserved":false,"is_disabled":false,"rental_uris":{"android":"levelo://app?vid=7254f954-f454-4676-b091-345a13d6d870","ios":"levelo://app?vid=7254f954-f454-4676-b091-345a13d6d870"},"vehicle_type_id":"4","last_reported":1725304062,"current_range_meters":6400,"station_id":"ce4bh512rcd13ifvqe2g","pricing_plan_id":"cebpf4jnsgd1na2vs0mg"},{"bike_id":"c4f2e3be-4d1d-47e0-a604-919344ab987a","system_id":"levelo_inurba_marseille","lat":43.29094,"lon":5.38142,"is_reserved":false,"is_disabled":false,"rental_uris":{"android":"levelo://app?vid=c4f2e3be-4d1d-47e0-a604-919344ab987a","ios":"levelo://app?vid=c4f2e3be-4d1d-47e0-a604-919344ab987a"},"vehicle_type_id":"4","last_reported":1725304062,"current_range_meters":0,"station_id":"ce4bh512rcd13ifvqe2g","pricing_plan_id":"cebpf4jnsgd1na2vs0mg"},{"bike_id":"8fd7fd69-5508-4c17-ac7d-4f506997d5bf","system_id":"levelo_inurba_marseille","lat":43.29091,"lon":5.38135,"is_reserved":false,"is_disabled":false,"rental_uris":{"android":"levelo://app?vid=8fd7fd69-5508-4c17-ac7d-4f506997d5bf","ios":"levelo://app?vid=8fd7fd69-5508-4c17-ac7d-4f506997d5bf"},"vehicle_type_id":"4","last_reported":1725304062,"current_range_meters":0,"station_id":"ce4bh512rcd13ifvqe2g","pricing_plan_id":"cebpf4jnsgd1na2vs0mg"},{"bike_id":"834504dc-a1b4-4e8a-9593-d22a953af641","system_id":"levelo_inurba_marseille","lat":43.29088,"lon":5.3814,"is_reserved":false,"is_disabled":false,"rental_uris":{"android":"levelo://app?vid=834504dc-a1b4-4e8a-9593-d22a953af641","ios":"levelo://app?vid=834504dc-a1b4-4e8a-9593-d22a953af641"},"vehicle_type_id":"4","last_reported":1725304062,"current_range_meters":0,"station_id":"ce4bh512rcd13ifvqe2g","pricing_plan_id":"cebpf4jnsgd1na2vs0mg"},{"bike_id":"74eda252-9cf9-4511-85ac-530f9397339f","system_id":"levelo_inurba_marseille","lat":43.297807,"lon":5.393533,"is_reserved":false,"is_disabled":false,"rental_uris":{"android":"levelo://app?vid=74eda252-9cf9-4511-85ac-530f9397339f","ios":"levelo://app?vid=74eda252-9cf9-4511-85ac-530f9397339f"},"vehicle_type_id":"4","last_reported":1725304062,"current_range_meters":1600,"station_id":"chh1huq6cuj3fo74tm60","pricing_plan_id":"cebpf4jnsgd1na2vs0mg"},{"bike_id":"85cda806-e07e-477c-8102-897153184d75","system_id":"levelo_inurba_marseille","lat":43.297807,"lon":5.393533,"is_reserved":false,"is_disabled":false,"rental_uris":{"android":"levelo://app?vid=85cda806-e07e-477c-8102-897153184d75","ios":"levelo://app?vid=85cda806-e07e-477c-8102-897153184d75"},"vehicle_type_id":"4","last_reported":1725304062,"current_range_meters":5600,"station_id":"chh1huq6cuj3fo74tm60","pricing_plan_id":"cebpf4jnsgd1na2vs0mg"},{"bike_id":"b6410296-b6fb-4051-b2ff-726195a8690a","system_id":"levelo_inurba_marseille","lat":43.3302,"lon":5.39035,"is_reserved":false,"is_disabled":false,"rental_uris":{"android":"levelo://app?vid=b6410296-b6fb-4051-b2ff-726195a8690a","ios":"levelo://app?vid=b6410296-b6fb-4051-b2ff-726195a8690a"},"vehicle_type_id":"4","last_reported":1725304062,"current_range_meters":8000,"station_id":"ce4bhr92rcd13ifvqhrg","pricing_plan_id":"cebpf4jnsgd1na2vs0mg"},{"bike_id":"5ffd8fdb-f196-4cb0-a5d9-b1f4f51b66a9","system_id":"levelo_inurba_marseille","lat":43.330442,"lon":5.389148,"is_reserved":false,"is_disabled":false,"rental_uris":{"android":"levelo://app?vid=5ffd8fdb-f196-4cb0-a5d9-b1f4f51b66a9","ios":"levelo://app?vid=5ffd8fdb-f196-4cb0-a5d9-b1f4f51b66a9"},"vehicle_type_id":"4","last_reported":1725304062,"current_range_meters":24800,"station_id":"ce4bhr92rcd13ifvqhrg","pricing_plan_id":"cebpf4jnsgd1na2vs0mg"},{"bike_id":"fe158b8b-6992-4416-bfbf-9a08611e6a3a","system_id":"levelo_inurba_marseille","lat":43.33019,"lon":5.39043,"is_reserved":false,"is_disabled":false,"rental_uris":{"android":"levelo://app?vid=fe158b8b-6992-4416-bfbf-9a08611e6a3a","ios":"levelo://app?vid=fe158b8b-6992-4416-bfbf-9a08611e6a3a"},"vehicle_type_id":"4","last_reported":1725304062,"current_range_meters":14800,"station_id":"ce4bhr92rcd13ifvqhrg","pricing_plan_id":"cebpf4jnsgd1na2vs0mg"},{"bike_id":"d08efa48-9a0c-4766-ba89-908ab3df66c2","system_id":"levelo_inurba_marseille","lat":43.33023,"lon":5.39041,"is_reserved":false,"is_disabled":false,"rental_uris":{"android":"levelo://app?vid=d08efa48-9a0c-4766-ba89-908ab3df66c2","ios":"levelo://app?vid=d08efa48-9a0c-4766-ba89-908ab3df66c2"},"vehicle_type_id":"4","last_reported":1725304062,"current_range_meters":3600,"station_id":"ce4bhr92rcd13ifvqhrg","pricing_plan_id":"cebpf4jnsgd1na2vs0mg"},{"bike_id":"d3daf3b2-8126-4f65-89e8-0e5f7710267e","system_id":"levelo_inurba_marseille","lat":43.330442,"lon":5.389148,"is_reserved":false,"is_disabled":false,"rental_uris":{"android":"levelo://app?vid=d3daf3b2-8126-4f65-89e8-0e5f7710267e","ios":"levelo://app?vid=d3daf3b2-8126-4f65-89e8-0e5f7710267e"},"vehicle_type_id":"4","last_reported":1725304062,"current_range_meters":21600,"station_id":"ce4bhr92rcd13ifvqhrg","pricing_plan_id":"cebpf4jnsgd1na2vs0mg"},{"bike_id":"9b3e84d4-924f-40d0-973a-01869b17071b","system_id":"levelo_inurba_marseille","lat":43.33023,"lon":5.39042,"is_reserved":false,"is_disabled":false,"rental_uris":{"android":"levelo://app?vid=9b3e84d4-924f-40d0-973a-01869b17071b","ios":"levelo://app?vid=9b3e84d4-924f-40d0-973a-01869b17071b"},"vehicle_type_id":"4","last_reported":1725304062,"current_range_meters":1200,"station_id":"ce4bhr92rcd13ifvqhrg","pricing_plan_id":"cebpf4jnsgd1na2vs0mg"},{"bike_id":"e74ecfe6-eb2e-4c31-b8da-544da791e5bd","system_id":"levelo_inurba_marseille","lat":43.330442,"lon":5.389148,"is_reserved":false,"is_disabled":false,"rental_uris":{"android":"levelo://app?vid=e74ecfe6-eb2e-4c31-b8da-544da791e5bd","ios":"levelo://app?vid=e74ecfe6-eb2e-4c31-b8da-544da791e5bd"},"vehicle_type_id":"4","last_reported":1725304062,"current_range_meters":31600,"station_id":"ce4bhr92rcd13ifvqhrg","pricing_plan_id":"cebpf4jnsgd1na2vs0mg"},{"bike_id":"4e724044-45be-4ac3-8ba1-e7a09ca2c3c4","system_id":"levelo_inurba_marseille","lat":43.330442,"lon":5.389148,"is_reserved":false,"is_disabled":false,"rental_uris":{"android":"levelo://app?vid=4e724044-45be-4ac3-8ba1-e7a09ca2c3c4","ios":"levelo://app?vid=4e724044-45be-4ac3-8ba1-e7a09ca2c3c4"},"vehicle_type_id":"4","last_reported":1725304062,"current_range_meters":19600,"station_id":"ce4bhr92rcd13ifvqhrg","pricing_plan_id":"cebpf4jnsgd1na2vs0mg"},