{"last_updated":1719162370,"ttl":30,"version":"2.2","data":{"bikes":[{"bike_id":"81269665-b10d-43b4-985e-86ef92b9ce3b","system_id":"levelo_inurba_marseille","lat":43.31341,"lon":5.367098,"is_reserved":false,"is_disabled":false,"rental_uris":{"android":"levelo://app?vid=81269665-b10d-43b4-985e-86ef92b9ce3b","ios":"levelo://app?vid=81269665-b10d-43b4-985e-86ef92b9ce3b"},"vehicle_type_id":"4","last_reported":1719162371,"current_range_meters":27200,"station_id":"ce4bgr92rcd13ifvqc6g","pricing_plan_id":"cebpf4jnsgd1na2vs0mg"},{"bike_id":"3e6229a9-daa1-4e8e-b7ec-60b28f97252f","system_id":"levelo_inurba_marseille","lat":43.314524,"lon":5.373625,"is_reserved":false,"is_disabled":false,"rental_uris":{"android":"levelo://app?vid=3e6229a9-daa1-4e8e-b7ec-60b28f97252f","ios":"levelo://app?vid=3e6229a9-daa1-4e8e-b7ec-60b28f97252f"},"vehicle_type_id":"4","last_reported":1719162371,"current_range_meters":400,"station_id":"","pricing_plan_id":"cebpf4jnsgd1na2vs0mg"},{"bike_id":"20f31c62-307b-4c16-93b6-6fcc5accd677","system_id":"levelo_inurba_marseille","lat":43.31458,"lon":5.373641,"is_reserved":false,"is_disabled":false,"rental_uris":{"android":"levelo://app?vid=20f31c62-307b-4c16-93b6-6fcc5accd677","ios":"levelo://app?vid=20f31c62-307b-4c16-93b6-6fcc5accd677"},"vehicle_type_id":"4","last_reported":1719162371,"current_range_meters":11600,"station_id":"","pricing_plan_id":"cebpf4jnsgd1na2vs0mg"},{"bike_id":"77460ccb-960a-4153-8783-e0a172f31a95","system_id":"levelo_inurba_marseille","lat":43.314543,"lon":5.373717,"is_reserved":false,"is_disabled":false,"rental_uris":{"android":"levelo://app?vid=77460ccb-960a-4153-8783-e0a172f31a95","ios":"levelo://app?vid=77460ccb-960a-4153-8783-e0a172f31a95"},"vehicle_type_id":"4","last_reported":1719162371,"current_range_meters":4800,"station_id":"ce4bgt12rcd13ifvqcd0","pricing_plan_id":"cebpf4jnsgd1na2vs0mg"},{"bike_id":"d7c21ce2-a776-470c-b443-51e8cb8311e6","system_id":"levelo_inurba_marseille","lat":43.31462,"lon":5.37368,"is_reserved":false,"is_disabled":false,"rental_uris":{"android":"levelo://app?vid=d7c21ce2-a776-470c-b443-51e8cb8311e6","ios":"levelo://app?vid=d7c21ce2-a776-470c-b443-51e8cb8311e6"},"vehicle_type_id":"4","last_reported":1719162371,"current_range_meters":10000,"station_id":"","pricing_plan_id":"cebpf4jnsgd1na2vs0mg"},{"bike_id":"24d509b5-ef37-465b-b8cc-6a71986a5c4f","system_id":"levelo_inurba_marseille","lat":43.314519,"lon":5.373743,"is_reserved":false,"is_disabled":false,"rental_uris":{"android":"levelo://app?vid=24d509b5-ef37-465b-b8cc-6a71986a5c4f","ios":"levelo://app?vid=24d509b5-ef37-465b-b8cc-6a71986a5c4f"},"vehicle_type_id":"4","last_reported":1719162371,"current_range_meters":22400,"station_id":"ce4bgt12rcd13ifvqcd0","pricing_plan_id":"cebpf4jnsgd1na2vs0mg"},{"bike_id":"58708cdc-b4d9-4f11-9646-5fd298457671","system_id":"levelo_inurba_marseille","lat":43.309034,"lon":5.371783,"is_reserved":false,"is_disabled":false,"rental_uris":{"android":"levelo://app?vid=58708cdc-b4d9-4f11-9646-5fd298457671","ios":"levelo://app?vid=58708cdc-b4d9-4f11-9646-5fd298457671"},"vehicle_type_id":"4","last_reported":1719162371,"current_range_meters":1200,"station_id":"ce4bguh2rcd13ifvqckg","pricing_plan_id":"cebpf4jnsgd1na2vs0mg"},{"bike_id":"462ce5ea-cf8d-4e54-9951-8d1303378916","system_id":"levelo_inurba_marseille","lat":43.31673,"lon":5.374047,"is_reserved":false,"is_disabled":false,"rental_uris":{"android":"levelo://app?vid=462ce5ea-cf8d-4e54-9951-8d1303378916","ios":"levelo://app?vid=462ce5ea-cf8d-4e54-9951-8d1303378916"},"vehicle_type_id":"4","last_reported":1719162371,"current_range_meters":8000,"station_id":"","pricing_plan_id":"cebpf4jnsgd1na2vs0mg"},{"bike_id":"84c20ea0-8eca-472f-815a-fc3c9508882b","system_id":"levelo_inurba_marseille","lat":43.30622,"lon":5.368997,"is_reserved":false,"is_disabled":false,"rental_uris":{"android":"levelo://app?vid=84c20ea0-8eca-472f-815a-fc3c9508882b","ios":"levelo://app?vid=84c20ea0-8eca-472f-815a-fc3c9508882b"},"vehicle_type_id":"4","last_reported":1719162371,"current_range_meters":0,"station_id":"","pricing_plan_id":"cebpf4jnsgd1na2vs0mg"},{"bike_id":"a43e7e1e-e283-47ba-bb74-77104a25b45c","system_id":"levelo_inurba_marseille","lat":43.30532,"lon":5.36661,"is_reserved":false,"is_disabled":false,"rental_uris":{"android":"levelo://app?vid=a43e7e1e-e283-47ba-bb74-77104a25b45c","ios":"levelo://app?vid=a43e7e1e-e283-47ba-bb74-77104a25b45c"},"vehicle_type_id":"4","last_reported":1719162371,"current_range_meters":17600,"station_id":"","pricing_plan_id":"cebpf4jnsgd1na2vs0mg"},{"bike_id":"41986ac4-159d-4c4c-9275-b8a952583fe7","system_id":"levelo_inurba_marseille","lat":43.305368,"lon":5.367343,"is_reserved":false,"is_disabled":false,"rental_uris":{"android":"levelo://app?vid=41986ac4-159d-4c4c-9275-b8a952583fe7","ios":"levelo://app?vid=41986ac4-159d-4c4c-9275-b8a952583fe7"},"vehicle_type_id":"4","last_reported":1719162371,"current_range_meters":6000,"station_id":"ce4bgrp2rcd13ifvqc9g","pricing_plan_id":"cebpf4jnsgd1na2vs0mg"},{"bike_id":"2c49a025-7062-407e-be7d-e18d5d29a0b8","system_id":"levelo_inurba_marseille","lat":43.305989,"lon":5.37225,"is_reserved":false,"is_disabled":false,"rental_uris":{"android":"levelo://app?vid=2c49a025-7062-407e-be7d-e18d5d29a0b8","ios":"levelo://app?vid=2c49a025-7062-407e-be7d-e18d5d29a0b8"},"vehicle_type_id":"4","last_reported":1719162371,"current_range_meters":17200,"station_id":"ce4bgqh2rcd13ifvqc4g","pricing_plan_id":"cebpf4jnsgd1na2vs0mg"},{"bike_id":"e71c3abb-b2c8-47be-8a90-613fa00b250d","system_id":"levelo_inurba_marseille","lat":43.311131,"lon":5.377651,"is_reserved":false,"is_disabled":false,"rental_uris":{"android":"levelo://app?vid=e71c3abb-b2c8-47be-8a90-613fa00b250d","ios":"levelo://app?vid=e71c3abb-b2c8-47be-8a90-613fa00b250d"},"vehicle_type_id":"4","last_reported":1719162371,"current_range_meters":0,"station_id":"ce4bgt92rcd13ifvqcg0","pricing_plan_id":"cebpf4jnsgd1na2vs0mg"},{"bike_id":"82058e4c-471d-4a61-9afc-acdb7c85c3f4","system_id":"levelo_inurba_marseille","lat":43.307945,"lon":5.376487,"is_reserved":false,"is_disabled":false,"rental_uris":{"android":"levelo://app?vid=82058e4c-471d-4a61-9afc-acdb7c85c3f4","ios":"levelo://app?vid=82058e4c-471d-4a61-9afc-acdb7c85c3f4"},"vehicle_type_id":"4","last_reported":1719162371,"current_range_meters":8800,"station_id":"ce4bgv92rcd13ifvqcq0","pricing_plan_id":"cebpf4jnsgd1na2vs0mg"},{"bike_id":"758b307a-9e19-4361-a66b-cf5e429a6119","system_id":"levelo_inurba_marseille","lat":43.303046,"lon":5.368981,"is_reserved":false,"is_disabled":false,"rental_uris":{"android":"levelo://app?vid=758b307a-9e19-4361-a66b-cf5e429a6119","ios":"levelo://app?vid=758b307a-9e19-4361-a66b-cf5e429a6119"},"vehicle_type_id":"4","last_reported":1719162371,"current_range_meters":0,"station_id":"ce4bgqh2rcd13ifvqc5g","pricing_plan_id":"cebpf4jnsgd1na2vs0mg"},{"bike_id":"e87754c3-11a5-4fd8-9e78-cd7f2a8bc766","system_id":"levelo_inurba_marseille","lat":43.303046,"lon":5.368981,"is_reserved":false,"is_disabled":false,"rental_uris":{"android":"levelo://app?vid=e87754c3-11a5-4fd8-9e78-cd7f2a8bc766","ios":"levelo://app?vid=e87754c3-11a5-4fd8-9e78-cd7f2a8bc766"},"vehicle_type_id":"4","last_reported":1719162371,"current_range_meters":12800,"station_id":"ce4bgqh2rcd13ifvqc5g","pricing_plan_id":"cebpf4jnsgd1na2vs0mg"},{"bike_id":"3f263c15-2c47-4de9-881a-a01838a7395c","system_id":"levelo_inurba_marseille","lat":43.303046,"lon":5.368981,"is_reserved":false,"is_disabled":false,"rental_uris":{"android":"levelo://app?vid=3f263c15-2c47-4de9-881a-a01838a7395c","ios":"levelo://app?vid=3f263c15-2c47-4de9-881a-a01838a7395c"},"vehicle_type_id":"4","last_reported":1719162371,"current_range_meters":0,"station_id":"ce4bgqh2rcd13ifvqc5g","pricing_plan_id":"cebpf4jnsgd1na2vs0mg"},{"bike_id":"cede9e36-714b-4b99-83e6-799477b16e9d","system_id":"levelo_inurba_marseille","lat":43.315289,"lon":5.380349,"is_reserved":false,"is_disabled":false,"rental_uris":{"android":"levelo://app?vid=cede9e36-714b-4b99-83e6-799477b16e9d","ios":"levelo://app?vid=cede9e36-714b-4b99-83e6-799477b16e9d"},"vehicle_type_id":"4","last_reported":1719162371,"current_range_meters":12400,"station_id":"ce4bhsp2rcd13ifvqi50","pricing_plan_id":"cebpf4jnsgd1na2vs0mg"},{"bike_id":"1752e8b2-9b3b-4c77-b166-b537876db2bd","system_id":"levelo_inurba_marseille","lat":43.315343,"lon":5.380363,"is_reserved":false,"is_disabled":false,"rental_uris":{"android":"levelo://app?vid=1752e8b2-9b3b-4c77-b166-b537876db2bd","ios":"levelo://app?vid=1752e8b2-9b3b-4c77-b166-b537876db2bd"},"vehicle_type_id":"4","last_reported":1719162371,"current_range_meters":0,"station_id":"ce4bhsp2rcd13ifvqi50","pricing_plan_id":"cebpf4jnsgd1na2vs0mg"},{"bike_id":"cb0d51e5-d665-455b-b0e6-fbb2cbda4230","system_id":"levelo_inurba_marseille","lat":43.31531,"lon":5.38042,"is_reserved":false,"is_disabled":false,"rental_uris":{"android":"levelo://app?vid=cb0d51e5-d665-455b-b0e6-fbb2cbda4230","ios":"levelo://app?vid=cb0d51e5-d665-455b-b0e6-fbb2cbda4230"},"vehicle_type_id":"4","last_reported":1719162371,"current_range_meters":0,"station_id":"ce4bhsp2rcd13ifvqi50","pricing_plan_id":"cebpf4jnsgd1na2vs0mg"},{"bike_id":"ea603fae-c938-4db3-bc6f-a3216a09dc14","system_id":"levelo_inurba_marseille","lat":43.315289,"lon":5.380349,"is_reserved":false,"is_disabled":false,"rental_uris":{"android":"levelo://app?vid=ea603fae-c938-4db3-bc6f-a3216a09dc14","ios":"levelo://app?vid=ea603fae-c938-4db3-bc6f-a3216a09dc14"},"vehicle_type_id":"4","last_reported":1719162371,"current_range_meters":3600,"station_id":"ce4bhsp2rcd13ifvqi50","pricing_plan_id":"cebpf4jnsgd1na2vs0mg"},{"bike_id":"1bc920c8-8b89-437c-9cde-5783116c5366","system_id":"levelo_inurba_marseille","lat":43.315293,"lon":5.380349,"is_reserved":false,"is_disabled":false,"rental_uris":{"android":"levelo://app?vid=1bc920c8-8b89-437c-9cde-5783116c5366","ios":"levelo://app?vid=1bc920c8-8b89-437c-9cde-5783116c5366"},"vehicle_type_id":"4","last_reported":1719162371,"current_range_meters":1600,"station_id":"ce4bhsp2rcd13ifvqi50","pricing_plan_id":"cebpf4jnsgd1na2vs0mg"},{"bike_id":"f355219a-98fd-4e8c-8943-59eb7552ea33","system_id":"levelo_inurba_marseille","lat":43.301939,"lon":5.366286,"is_reserved":false,"is_disabled":false,"rental_uris":{"android":"levelo://app?vid=f355219a-98fd-4e8c-8943-59eb7552ea33","ios":"levelo://app?vid=f355219a-98fd-4e8c-8943-59eb7552ea33"},"vehicle_type_id":"4","last_reported":1719162371,"current_range_meters":22400,"station_id":"ce4bgrh2rcd13ifvqc8g","pricing_plan_id":"cebpf4jnsgd1na2vs0mg"},{"bike_id":"c8d74784-cfa3-4dc0-a55e-c53d6b6b7590","system_id":"levelo_inurba_marseille","lat":43.31322,"lon":5.38197,"is_reserved":false,"is_disabled":false,"rental_uris":{"android":"levelo://app?vid=c8d74784-cfa3-4dc0-a55e-c53d6b6b7590","ios":"levelo://app?vid=c8d74784-cfa3-4dc0-a55e-c53d6b6b7590"},"vehicle_type_id":"4","last_reported":1719162371,"current_range_meters":18400,"station_id":"","pricing_plan_id":"cebpf4jnsgd1na2vs0mg"},{"bike_id":"7097c0e7-d890-4d05-ac08-0a0dbe1e5c1c","system_id":"levelo_inurba_marseille","lat":43.308012,"lon":5.381511,"is_reserved":false,"is_disabled":false,"rental_uris":{"android":"levelo://app?vid=7097c0e7-d890-4d05-ac08-0a0dbe1e5c1c","ios":"levelo://app?vid=7097c0e7-d890-4d05-ac08-0a0dbe1e5c1c"},"vehicle_type_id":"4","last_reported":1719162371,"current_range_meters":14400,"station_id":"ce4bgt12rcd13ifvqce0","pricing_plan_id":"cebpf4jnsgd1na2vs0mg"},{"bike_id":"97768a74-7667-419b-8ac0-5c7b6297ca06","system_id":"levelo_inurba_marseille","lat":43.304606,"lon":5.379026,"is_reserved":false,"is_disabled":false,"rental_uris":{"android":"levelo://app?vid=97768a74-7667-419b-8ac0-5c7b6297ca06","ios":"levelo://app?vid=97768a74-7667-419b-8ac0-5c7b6297ca06"},"vehicle_type_id":"4","last_reported":1719162371,"current_range_meters":20400,"station_id":"ce4bgup2rcd13ifvqcn0","pricing_plan_id":"cebpf4jnsgd1na2vs0mg"},{"bike_id":"734743ee-3e19-4df9-beb8-30fb7b85bf99","system_id":"levelo_inurba_marseille","lat":43.324771,"lon":5.36557,"is_reserved":false,"is_disabled":false,"rental_uris":{"android":"levelo://app?vid=734743ee-3e19-4df9-beb8-30fb7b85bf99","ios":"levelo://app?vid=734743ee-3e19-4df9-beb8-30fb7b85bf99"},"vehicle_type_id":"4","last_reported":1719162371,"current_range_meters":19600,"station_id":"ce4bhs12rcd13ifvqhvg","pricing_plan_id":"cebpf4jnsgd1na2vs0mg"},{"bike_id":"17f35877-0e3d-4fcb-b17e-8eb1fb688c76","system_id":"levelo_inurba_marseille","lat":43.310804,"lon":5.38359,"is_reserved":false,"is_disabled":false,"rental_uris":{"android":"levelo://app?vid=17f35877-0e3d-4fcb-b17e-8eb1fb688c76","ios":"levelo://app?vid=17f35877-0e3d-4fcb-b17e-8eb1fb688c76"},"vehicle_type_id":"4","last_reported":1719162371,"current_range_meters":0,"station_id":"ce4bgv92rcd13ifvqcr0","pricing_plan_id":"cebpf4jnsgd1na2vs0mg"},{"bike_id":"acd0a36e-c6cd-43a9-a1c5-7e9ed1d8586c","system_id":"levelo_inurba_marseille","lat":43.310804,"lon":5.38359,"is_reserved":false,"is_disabled":false,"rental_uris":{"android":"levelo://app?vid=acd0a36e-c6cd-43a9-a1c5-7e9ed1d8586c","ios":"levelo://app?vid=acd0a36e-c6cd-43a9-a1c5-7e9ed1d8586c"},"vehicle_type_id":"4","last_reported":1719162371,"current_range_meters":4800,"station_id":"ce4bgv92rcd13ifvqcr0","pricing_plan_id":"cebpf4jnsgd1na2vs0mg"},{"bike_id":"39d97b6b-64fd-4fd3-a011-b0efdabd19b9","system_id":"levelo_inurba_marseille","lat":43.30143,"lon":5.37413,"is_reserved":false,"is_disabled":false,"rental_uris":{"android":"levelo://app?vid=39d97b6b-64fd-4fd3-a011-b0efdabd19b9","ios":"levelo://app?vid=39d97b6b-64fd-4fd3-a011-b0efdabd19b9"},"vehicle_type_id":"4","last_reported":1719162371,"current_range_meters":2000,"station_id":"ce4bgs92rcd13ifvqcc0","pricing_plan_id":"cebpf4jnsgd1na2vs0mg"},{"bike_id":"52dc2b79-b7da-4eed-a08d-c1a3607c86eb","system_id":"levelo_inurba_marseille","lat":43.313571,"lon":5.384829,"is_reserved":false,"is_disabled":false,"rental_uris":{"android":"levelo://app?vid=52dc2b79-b7da-4eed-a08d-c1a3607c86eb","ios":"levelo://app?vid=52dc2b79-b7da-4eed-a08d-c1a3607c86eb"},"vehicle_type_id":"4","last_reported":1719162371,"current_range_meters":20000,"station_id":"ce4bgt92rcd13ifvqcf0","pricing_plan_id":"cebpf4jnsgd1na2vs0mg"},{"bike_id":"f28d3434-dc52-41f4-8157-3ec33beb0476","system_id":"levelo_inurba_marseille","lat":43.313571,"lon":5.384829,"is_reserved":false,"is_disabled":false,"rental_uris":{"android":"levelo://app?vid=f28d3434-dc52-41f4-8157-3ec33beb0476","ios":"levelo://app?vid=f28d3434-dc52-41f4-8157-3ec33beb0476"},"vehicle_type_id":"4","last_reported":1719162371,"current_range_meters":8800,"station_id":"ce4bgt92rcd13ifvqcf0","pricing_plan_id":"cebpf4jnsgd1na2vs0mg"},{"bike_id":"aead75f9-d566-4412-b38b-5d340216d45d","system_id":"levelo_inurba_marseille","lat":43.313571,"lon":5.384829,"is_reserved":false,"is_disabled":false,"rental_uris":{"android":"levelo://app?vid=aead75f9-d566-4412-b38b-5d340216d45d","ios":"levelo://app?vid=aead75f9-d566-4412-b38b-5d340216d45d"},"vehicle_type_id":"4","last_reported":1719162371,"current_range_meters":22400,"station_id":"ce4bgt92rcd13ifvqcf0","pricing_plan_id":"cebpf4jnsgd1na2vs0mg"},{"bike_id":"188da160-347f-4d31-b9b8-b9e6be5a283a","system_id":"levelo_inurba_marseille","lat":43.299222,"lon":5.365554,"is_reserved":false,"is_disabled":false,"rental_uris":{"android":"levelo://app?vid=188da160-347f-4d31-b9b8-b9e6be5a283a","ios":"levelo://app?vid=188da160-347f-4d31-b9b8-b9e6be5a283a"},"vehicle_type_id":"4","last_reported":1719162371,"current_range_meters":4400,"station_id":"ce4bgm92rcd13ifvqbr0","pricing_plan_id":"cebpf4jnsgd1na2vs0mg"},{"bike_id":"825f0926-11ae-4f0b-a4c3-fd6a65ad0aa0","system_id":"levelo_inurba_marseille","lat":43.305364,"lon":5.384119,"is_reserved":false,"is_disabled":false,"rental_uris":{"android":"levelo://app?vid=825f0926-11ae-4f0b-a4c3-fd6a65ad0aa0","ios":"levelo://app?vid=825f0926-11ae-4f0b-a4c3-fd6a65ad0aa0"},"vehicle_type_id":"4","last_reported":1719162371,"current_range_meters":10800,"station_id":"ce4bgg92rcd13ifvqb30","pricing_plan_id":"cebpf4jnsgd1na2vs0mg"},{"bike_id":"e8c59065-def4-4c65-847e-eb8486884b7c","system_id":"levelo_inurba_marseille","lat":43.305364,"lon":5.384119,"is_reserved":false,"is_disabled":false,"rental_uris":{"android":"levelo://app?vid=e8c59065-def4-4c65-847e-eb8486884b7c","ios":"levelo://app?vid=e8c59065-def4-4c65-847e-eb8486884b7c"},"vehicle_type_id":"4","last_reported":1719162371,"current_range_meters":20400,"station_id":"ce4bgg92rcd13ifvqb30","pricing_plan_id":"cebpf4jnsgd1na2vs0mg"},{"bike_id":"0e0e1733-6cf9-4de6-b1cc-7d8047fd60e8","system_id":"levelo_inurba_marseille","lat":43.32287,"lon":5.38273,"is_reserved":false,"is_disabled":false,"rental_uris":{"android":"levelo://app?vid=0e0e1733-6cf9-4de6-b1cc-7d8047fd60e8","ios":"levelo://app?vid=0e0e1733-6cf9-4de6-b1cc-7d8047fd60e8"},"vehicle_type_id":"4","last_reported":1719162371,"current_range_meters":4800,"station_id":"ce4bhr12rcd13ifvqhqg","pricing_plan_id":"cebpf4jnsgd1na2vs0mg"},{"bike_id":"47d8b23c-4c93-414b-a0d6-0712a6743209","system_id":"levelo_inurba_marseille","lat":43.32297,"lon":5.38263,"is_reserved":false,"is_disabled":false,"rental_uris":{"android":"levelo://app?vid=47d8b23c-4c93-414b-a0d6-0712a6743209","ios":"levelo://app?vid=47d8b23c-4c93-414b-a0d6-0712a6743209"},"vehicle_type_id":"4","last_reported":1719162371,"current_range_meters":22400,"station_id":"ce4bhr12rcd13ifvqhqg","pricing_plan_id":"cebpf4jnsgd1na2vs0mg"},{"bike_id":"d106f5a6-adf9-4863-bd63-827d233c0860","system_id":"levelo_inurba_marseille","lat":43.297163,"lon":5.365866,"is_reserved":false,"is_disabled":false,"rental_uris":{"android":"levelo://app?vid=d106f5a6-adf9-4863-bd63-827d233c0860","ios":"levelo://app?vid=d106f5a6-adf9-4863-bd63-827d233c0860"},"vehicle_type_id":"4","last_reported":1719162371,"current_range_meters":21600,"station_id":"ce4bgn12rcd13ifvqbt0","pricing_plan_id":"cebpf4jnsgd1na2vs0mg"},{"bike_id":"0b314b0b-6d3e-4e6a-bd89-1d1839191bbb","system_id":"levelo_inurba_marseille","lat":43.317557,"lon":5.390173,"is_reserved":false,"is_disabled":false,"rental_uris":{"android":"levelo://app?vid=0b314b0b-6d3e-4e6a-bd89-1d1839191bbb","ios":"levelo://app?vid=0b314b0b-6d3e-4e6a-bd89-1d1839191bbb"},"vehicle_type_id":"4","last_reported":1719162371,"current_range_meters":26800,"station_id":"ce4bhqp2rcd13ifvqhng","pricing_plan_id":"cebpf4jnsgd1na2vs0mg"},{"bike_id":"454182c7-d66f-45bc-a8a8-890b23bb4b01","system_id":"levelo_inurba_marseille","lat":43.29717,"lon":5.37884,"is_reserved":false,"is_disabled":false,"rental_uris":{"android":"levelo://app?vid=454182c7-d66f-45bc-a8a8-890b23bb4b01","ios":"levelo://app?vid=454182c7-d66f-45bc-a8a8-890b23bb4b01"},"vehicle_type_id":"4","last_reported":1719162371,"current_range_meters":6400,"station_id":"","pricing_plan_id":"cebpf4jnsgd1na2vs0mg"},{"bike_id":"48294057-03e3-4de5-9566-b539dad0b8b3","system_id":"levelo_inurba_marseille","lat":43.304274,"lon":5.388873,"is_reserved":false,"is_disabled":false,"rental_uris":{"android":"levelo://app?vid=48294057-03e3-4de5-9566-b539dad0b8b3","ios":"levelo://app?vid=48294057-03e3-4de5-9566-b539dad0b8b3"},"vehicle_type_id":"4","last_reported":1719162371,"current_range_meters":17600,"station_id":"ce4bgk12rcd13ifvqbi0","pricing_plan_id":"cebpf4jnsgd1na2vs0mg"},{"bike_id":"ec06a953-bc09-4676-98b8-4d7c9d490708","system_id":"levelo_inurba_marseille","lat":43.296263,"lon":5.377094,"is_reserved":false,"is_disabled":false,"rental_uris":{"android":"levelo://app?vid=ec06a953-bc09-4676-98b8-4d7c9d490708","ios":"levelo://app?vid=ec06a953-bc09-4676-98b8-4d7c9d490708"},"vehicle_type_id":"4","last_reported":1719162371,"current_range_meters":18400,"station_id":"ce4bgi92rcd13ifvqb90","pricing_plan_id":"cebpf4jnsgd1na2vs0mg"},{"bike_id":"0366d9e6-a3ab-425b-8d95-6ba68efb1e74","system_id":"levelo_inurba_marseille","lat":43.296263,"lon":5.377094,"is_reserved":false,"is_disabled":false,"rental_uris":{"android":"levelo://app?vid=0366d9e6-a3ab-425b-8d95-6ba68efb1e74","ios":"levelo://app?vid=0366d9e6-a3ab-425b-8d95-6ba68efb1e74"},"vehicle_type_id":"4","last_reported":1719162371,"current_range_meters":10000,"station_id":"ce4bgi92rcd13ifvqb90","pricing_plan_id":"cebpf4jnsgd1na2vs0mg"},{"bike_id":"98168777-a647-42a7-83a9-9ed9ba4c29fa","system_id":"levelo_inurba_marseille","lat":43.295153,"lon":5.374487,"is_reserved":false,"is_disabled":false,"rental_uris":{"android":"levelo://app?vid=98168777-a647-42a7-83a9-9ed9ba4c29fa","ios":"levelo://app?vid=98168777-a647-42a7-83a9-9ed9ba4c29fa"},"vehicle_type_id":"4","last_reported":1719162371,"current_range_meters":24000,"station_id":"","pricing_plan_id":"cebpf4jnsgd1na2vs0mg"},{"bike_id":"01054be0-d08e-46ac-8b15-7d7131ec99c4","system_id":"levelo_inurba_marseille","lat":43.295279,"lon":5.375048,"is_reserved":false,"is_disabled":false,"rental_uris":{"android":"levelo://app?vid=01054be0-d08e-46ac-8b15-7d7131ec99c4","ios":"levelo://app?vid=01054be0-d08e-46ac-8b15-7d7131ec99c4"},"vehicle_type_id":"4","last_reported":1719162371,"current_range_meters":21200,"station_id":"ce4bgkp2rcd13ifvqbmg","pricing_plan_id":"cebpf4jnsgd1na2vs0mg"},{"bike_id":"e9d17947-e53a-4d8a-a3a6-9a6821c914eb","system_id":"levelo_inurba_marseille","lat":43.32367,"lon":5.388836,"is_reserved":false,"is_disabled":false,"rental_uris":{"android":"levelo://app?vid=e9d17947-e53a-4d8a-a3a6-9a6821c914eb","ios":"levelo://app?vid=e9d17947-e53a-4d8a-a3a6-9a6821c914eb"},"vehicle_type_id":"4","last_reported":1719162371,"current_range_meters":3200,"station_id":"ce4bhqp2rcd13ifvqhog","pricing_plan_id":"cebpf4jnsgd1na2vs0mg"},{"bike_id":"c972c809-6ba3-4240-8e19-cb59bc8a1528","system_id":"levelo_inurba_marseille","lat":43.32367,"lon":5.388836,"is_reserved":false,"is_disabled":false,"rental_uris":{"android":"levelo://app?vid=c972c809-6ba3-4240-8e19-cb59bc8a1528","ios":"levelo://app?vid=c972c809-6ba3-4240-8e19-cb59bc8a1528"},"vehicle_type_id":"4","last_reported":1719162371,"current_range_meters":1600,"station_id":"ce4bhqp2rcd13ifvqhog","pricing_plan_id":"cebpf4jnsgd1na2vs0mg"},{"bike_id":"3190fe2f-5837-49ab-b4ef-e6c7de5e8a82","system_id":"levelo_inurba_marseille","lat":43.32367,"lon":5.388836,"is_reserved":false,"is_disabled":false,"rental_uris":{"android":"levelo://app?vid=3190fe2f-5837-49ab-b4ef-e6c7de5e8a82","ios":"levelo://app?vid=3190fe2f-5837-49ab-b4ef-e6c7de5e8a82"},"vehicle_type_id":"4","last_reported":1719162371,"current_range_meters":7600,"station_id":"ce4bhqp2rcd13ifvqhog","pricing_plan_id":"cebpf4jnsgd1na2vs0mg"},{"bike_id":"49376045-01ab-41de-8e6f-53786d34755b","system_id":"levelo_inurba_marseille","lat":43.32367,"lon":5.388836,"is_reserved":false,"is_disabled":false,"rental_uris":{"android":"levelo://app?vid=49376045-01ab-41de-8e6f-53786d34755b","ios":"levelo://app?vid=49376045-01ab-41de-8e6f-53786d34755b"},"vehicle_type_id":"4","last_reported":1719162371,"current_range_meters":0,"station_id":"ce4bhqp2rcd13ifvqhog","pricing_plan_id":"cebpf4jnsgd1na2vs0mg"},{"bike_id":"1bf1128e-a1fa-48a6-bbc9-d9daa8ccdc9b","system_id":"levelo_inurba_marseille","lat":43.32367,"lon":5.388836,"is_reserved":false,"is_disabled":false,"rental_uris":{"android":"levelo://app?vid=1bf1128e-a1fa-48a6-bbc9-d9daa8ccdc9b","ios":"levelo://app?vid=1bf1128e-a1fa-48a6-bbc9-d9daa8ccdc9b"},"vehicle_type_id":"4","last_reported":1719162371,"current_range_meters":16400,"station_id":"ce4bhqp2rcd13ifvqhog","pricing_plan_id":"cebpf4jnsgd1na2vs0mg"},{"bike_id":"835490e6-ba98-4430-8c09-99975be7f10c","system_id":"levelo_inurba_marseille","lat":43.32367,"lon":5.388836,"is_reserved":false,"is_disabled":false,"rental_uris":{"android":"levelo://app?vid=835490e6-ba98-4430-8c09-99975be7f10c","ios":"levelo://app?vid=835490e6-ba98-4430-8c09-99975be7f10c"},"vehicle_type_id":"4","last_reported":1719162371,"current_range_meters":17600,"station_id":"ce4bhqp2rcd13ifvqhog","pricing_plan_id":"cebpf4jnsgd1na2vs0mg"},{"bike_id":"3bbd1466-51f9-474a-8a61-efdae5b45df6","system_id":"levelo_inurba_marseille","lat":43.29602,"lon":5.381084,"is_reserved":false,"is_disabled":false,"rental_uris":{"android":"levelo://app?vid=3bbd1466-51f9-474a-8a61-efdae5b45df6","ios":"levelo://app?vid=3bbd1466-51f9-474a-8a61-efdae5b45df6"},"vehicle_type_id":"4","last_reported":1719162371,"current_range_meters":20800,"station_id":"ce4bgl12rcd13ifvqbo0","pricing_plan_id":"cebpf4jnsgd1na2vs0mg"},{"bike_id":"662518c8-722a-4a3c-8fad-ad257220e66e","system_id":"levelo_inurba_marseille","lat":43.29594,"lon":5.381013,"is_reserved":false,"is_disabled":false,"rental_uris":{"android":"levelo://app?vid=662518c8-722a-4a3c-8fad-ad257220e66e","ios":"levelo://app?vid=662518c8-722a-4a3c-8fad-ad257220e66e"},"vehicle_type_id":"4","last_reported":1719162371,"current_range_meters":11600,"station_id":"ce4bgl12rcd13ifvqbo0","pricing_plan_id":"cebpf4jnsgd1na2vs0mg"},{"bike_id":"d698ab58-e025-4acf-9507-6d939cfc838b","system_id":"levelo_inurba_marseille","lat":43.292787,"lon":5.368483,"is_reserved":false,"is_disabled":false,"rental_uris":{"android":"levelo://app?vid=d698ab58-e025-4acf-9507-6d939cfc838b","ios":"levelo://app?vid=d698ab58-e025-4acf-9507-6d939cfc838b"},"vehicle_type_id":"4","last_reported":1719162371,"current_range_meters":0,"station_id":"ce4bhbp2rcd13ifvqesg","pricing_plan_id":"cebpf4jnsgd1na2vs0mg"},{"bike_id":"6d50e828-7309-442b-9528-0fa51212f7ad","system_id":"levelo_inurba_marseille","lat":43.292749,"lon":5.368402,"is_reserved":false,"is_disabled":false,"rental_uris":{"android":"levelo://app?vid=6d50e828-7309-442b-9528-0fa51212f7ad","ios":"levelo://app?vid=6d50e828-7309-442b-9528-0fa51212f7ad"},"vehicle_type_id":"4","last_reported":1719162371,"current_range_meters":28400,"station_id":"ce4bhbp2rcd13ifvqesg","pricing_plan_id":"cebpf4jnsgd1na2vs0mg"},{"bike_id":"362b11e1-800d-44c0-88b7-94bebb3a37a7","system_id":"levelo_inurba_marseille","lat":43.305994,"lon":5.393687,"is_reserved":false,"is_disabled":false,"rental_uris":{"android":"levelo://app?vid=362b11e1-800d-44c0-88b7-94bebb3a37a7","ios":"levelo://app?vid=362b11e1-800d-44c0-88b7-94bebb3a37a7"},"vehicle_type_id":"4","last_reported":1719162371,"current_range_meters":3200,"station_id":"ce4bh0p2rcd13ifvqd80","pricing_plan_id":"cebpf4jnsgd1na2vs0mg"},{"bike_id":"01a6072f-ca91-4dfa-87a4-6e61133db75e","system_id":"levelo_inurba_marseille","lat":43.292311,"lon":5.360731,"is_reserved":false,"is_disabled":false,"rental_uris":{"android":"levelo://app?vid=01a6072f-ca91-4dfa-87a4-6e61133db75e","ios":"levelo://app?vid=01a6072f-ca91-4dfa-87a4-6e61133db75e"},"vehicle_type_id":"4","last_reported":1719162371,"current_range_meters":0,"station_id":"ce4bhbh2rcd13ifvqeqg","pricing_plan_id":"cebpf4jnsgd1na2vs0mg"},{"bike_id":"613d5a6b-15c0-478a-a8da-ad88518dd4a8","system_id":"levelo_inurba_marseille","lat":43.292311,"lon":5.360731,"is_reserved":false,"is_disabled":false,"rental_uris":{"android":"levelo://app?vid=613d5a6b-15c0-478a-a8da-ad88518dd4a8","ios":"levelo://app?vid=613d5a6b-15c0-478a-a8da-ad88518dd4a8"},"vehicle_type_id":"4","last_reported":1719162371,"current_range_meters":400,"station_id":"ce4bhbh2rcd13ifvqeqg","pricing_plan_id":"cebpf4jnsgd1na2vs0mg"},{"bike_id":"594d0f6f-0636-4d61-8a3f-79832e2f4174","system_id":"levelo_inurba_marseille","lat":43.292311,"lon":5.360731,"is_reserved":false,"is_disabled":false,"rental_uris":{"android":"levelo://app?vid=594d0f6f-0636-4d61-8a3f-79832e2f4174","ios":"levelo://app?vid=594d0f6f-0636-4d61-8a3f-79832e2f4174"},"vehicle_type_id":"4","last_reported":1719162371,"current_range_meters":10400,"station_id":"ce4bhbh2rcd13ifvqeqg","pricing_plan_id":"cebpf4jnsgd1na2vs0mg"},{"bike_id":"970ea02d-fb26-4235-b4d0-eead1bd5542a","system_id":"levelo_inurba_marseille","lat":43.30085,"lon":5.390856,"is_reserved":false,"is_disabled":false,"rental_uris":{"android":"levelo://app?vid=970ea02d-fb26-4235-b4d0-eead1bd5542a","ios":"levelo://app?vid=970ea02d-fb26-4235-b4d0-eead1bd5542a"},"vehicle_type_id":"4","last_reported":1719162371,"current_range_meters":10000,"station_id":"ce4bh192rcd13ifvqdb0","pricing_plan_id":"cebpf4jnsgd1na2vs0mg"},{"bike_id":"66e7faed-81de-4ec5-8a4a-2064726af548","system_id":"levelo_inurba_marseille","lat":43.293009,"lon":5.374584,"is_reserved":false,"is_disabled":false,"rental_uris":{"android":"levelo://app?vid=66e7faed-81de-4ec5-8a4a-2064726af548","ios":"levelo://app?vid=66e7faed-81de-4ec5-8a4a-2064726af548"},"vehicle_type_id":"4","last_reported":1719162371,"current_range_meters":18400,"station_id":"ce4bgi12rcd13ifvqb70","pricing_plan_id":"cebpf4jnsgd1na2vs0mg"},{"bike_id":"32ada2df-56de-4506-aa36-b5246a4bb0bf","system_id":"levelo_inurba_marseille","lat":43.291671,"lon":5.371575,"is_reserved":false,"is_disabled":false,"rental_uris":{"android":"levelo://app?vid=32ada2df-56de-4506-aa36-b5246a4bb0bf","ios":"levelo://app?vid=32ada2df-56de-4506-aa36-b5246a4bb0bf"},"vehicle_type_id":"4","last_reported":1719162371,"current_range_meters":6400,"station_id":"ce4bha92rcd13ifvqeh0","pricing_plan_id":"cebpf4jnsgd1na2vs0mg"},{"bike_id":"19982d88-38e3-4295-adf9-880984d23307","system_id":"levelo_inurba_marseille","lat":43.293009,"lon":5.374584,"is_reserved":false,"is_disabled":false,"rental_uris":{"android":"levelo://app?vid=19982d88-38e3-4295-adf9-880984d23307","ios":"levelo://app?vid=19982d88-38e3-4295-adf9-880984d23307"},"vehicle_type_id":"4","last_reported":1719162371,"current_range_meters":10000,"station_id":"ce4bgi12rcd13ifvqb70","pricing_plan_id":"cebpf4jnsgd1na2vs0mg"},{"bike_id":"07a549a9-826f-44ac-a433-8dcc9a615526","system_id":"levelo_inurba_marseille","lat":43.291675,"lon":5.371583,"is_reserved":false,"is_disabled":false,"rental_uris":{"android":"levelo://app?vid=07a549a9-826f-44ac-a433-8dcc9a615526","ios":"levelo://app?vid=07a549a9-826f-44ac-a433-8dcc9a615526"},"vehicle_type_id":"4","last_reported":1719162371,"current_range_meters":16800,"station_id":"ce4bha92rcd13ifvqeh0","pricing_plan_id":"cebpf4jnsgd1na2vs0mg"},{"bike_id":"0c7a9982-f273-4999-bf89-3bcd47626b39","system_id":"levelo_inurba_marseille","lat":43.292005,"lon":5.357875,"is_reserved":false,"is_disabled":false,"rental_uris":{"android":"levelo://app?vid=0c7a9982-f273-4999-bf89-3bcd47626b39","ios":"levelo://app?vid=0c7a9982-f273-4999-bf89-3bcd47626b39"},"vehicle_type_id":"4","last_reported":1719162371,"current_range_meters":0,"station_id":"ce4bhb12rcd13ifvqel0","pricing_plan_id":"cebpf4jnsgd1na2vs0mg"},{"bike_id":"eaeb72e7-6bd3-4dfd-8e19-7245da17b17e","system_id":"levelo_inurba_marseille","lat":43.291671,"lon":5.371575,"is_reserved":false,"is_disabled":false,"rental_uris":{"android":"levelo://app?vid=eaeb72e7-6bd3-4dfd-8e19-7245da17b17e","ios":"levelo://app?vid=eaeb72e7-6bd3-4dfd-8e19-7245da17b17e"},"vehicle_type_id":"4","last_reported":1719162371,"current_range_meters":22400,"station_id":"ce4bha92rcd13ifvqeh0","pricing_plan_id":"cebpf4jnsgd1na2vs0mg"},{"bike_id":"171cfdd7-cc11-4d2e-8049-e3d77e6aa237","system_id":"levelo_inurba_marseille","lat":43.291994,"lon":5.357886,"is_reserved":false,"is_disabled":false,"rental_uris":{"android":"levelo://app?vid=171cfdd7-cc11-4d2e-8049-e3d77e6aa237","ios":"levelo://app?vid=171cfdd7-cc11-4d2e-8049-e3d77e6aa237"},"vehicle_type_id":"4","last_reported":1719162371,"current_range_meters":30000,"station_id":"ce4bhb12rcd13ifvqel0","pricing_plan_id":"cebpf4jnsgd1na2vs0mg"},{"bike_id":"970e8e46-07d1-4a42-8a9c-94175e03e833","system_id":"levelo_inurba_marseille","lat":43.31327,"lon":5.39691,"is_reserved":false,"is_disabled":false,"rental_uris":{"android":"levelo://app?vid=970e8e46-07d1-4a42-8a9c-94175e03e833","ios":"levelo://app?vid=970e8e46-07d1-4a42-8a9c-94175e03e833"},"vehicle_type_id":"4","last_reported":1719162371,"current_range_meters":0,"station_id":"ce4bgvp2rcd13ifvqcu0","pricing_plan_id":"cebpf4jnsgd1na2vs0mg"},{"bike_id":"a078f3fc-9452-470b-89c0-1048d90c530b","system_id":"levelo_inurba_marseille","lat":43.313291,"lon":5.396838,"is_reserved":false,"is_disabled":false,"rental_uris":{"android":"levelo://app?vid=a078f3fc-9452-470b-89c0-1048d90c530b","ios":"levelo://app?vid=a078f3fc-9452-470b-89c0-1048d90c530b"},"vehicle_type_id":"4","last_reported":1719162371,"current_range_meters":6800,"station_id":"ce4bgvp2rcd13ifvqcu0","pricing_plan_id":"cebpf4jnsgd1na2vs0mg"},{"bike_id":"e9f8c0c0-ac3d-46e8-9470-e1799570f886","system_id":"levelo_inurba_marseille","lat":43.33225,"lon":5.380785,"is_reserved":false,"is_disabled":false,"rental_uris":{"android":"levelo://app?vid=e9f8c0c0-ac3d-46e8-9470-e1799570f886","ios":"levelo://app?vid=e9f8c0c0-ac3d-46e8-9470-e1799570f886"},"vehicle_type_id":"4","last_reported":1719162371,"current_range_meters":0,"station_id":"","pricing_plan_id":"cebpf4jnsgd1na2vs0mg"},{"bike_id":"0b1158fa-4bee-4c0b-a4ac-331bd18bad8a","system_id":"levelo_inurba_marseille","lat":43.29529,"lon":5.385581,"is_reserved":false,"is_disabled":false,"rental_uris":{"android":"levelo://app?vid=0b1158fa-4bee-4c0b-a4ac-331bd18bad8a","ios":"levelo://app?vid=0b1158fa-4bee-4c0b-a4ac-331bd18bad8a"},"vehicle_type_id":"4","last_reported":1719162371,"current_range_meters":11200,"station_id":"ce4bgih2rcd13ifvqba0","pricing_plan_id":"cebpf4jnsgd1na2vs0mg"},{"bike_id":"e03a175c-406a-4f96-ba9f-b9b720381b49","system_id":"levelo_inurba_marseille","lat":43.290779,"lon":5.371482,"is_reserved":false,"is_disabled":false,"rental_uris":{"android":"levelo://app?vid=e03a175c-406a-4f96-ba9f-b9b720381b49","ios":"levelo://app?vid=e03a175c-406a-4f96-ba9f-b9b720381b49"},"vehicle_type_id":"4","last_reported":1719162371,"current_range_meters":22800,"station_id":"ce4bh5p2rcd13ifvqe4g","pricing_plan_id":"cebpf4jnsgd1na2vs0mg"},{"bike_id":"b4d0bf68-a292-49b4-bd84-15eabcf30844","system_id":"levelo_inurba_marseille","lat":43.290779,"lon":5.371482,"is_reserved":false,"is_disabled":false,"rental_uris":{"android":"levelo://app?vid=b4d0bf68-a292-49b4-bd84-15eabcf30844","ios":"levelo://app?vid=b4d0bf68-a292-49b4-bd84-15eabcf30844"},"vehicle_type_id":"4","last_reported":1719162371,"current_range_meters":14000,"station_id":"ce4bh5p2rcd13ifvqe4g","pricing_plan_id":"cebpf4jnsgd1na2vs0mg"},{"bike_id":"3b77ab12-7131-4ff5-acfa-5ded0528c84d","system_id":"levelo_inurba_marseille","lat":43.290779,"lon":5.371482,"is_reserved":false,"is_disabled":false,"rental_uris":{"android":"levelo://app?vid=3b77ab12-7131-4ff5-acfa-5ded0528c84d","ios":"levelo://app?vid=3b77ab12-7131-4ff5-acfa-5ded0528c84d"},"vehicle_type_id":"4","last_reported":1719162371,"current_range_meters":0,"station_id":"ce4bh5p2rcd13ifvqe4g","pricing_plan_id":"cebpf4jnsgd1na2vs0mg"},{"bike_id":"251b6d6f-7dc0-4fcf-968e-321fb8357a54","system_id":"levelo_inurba_marseille","lat":43.302008,"lon":5.394694,"is_reserved":false,"is_disabled":false,"rental_uris":{"android":"levelo://app?vid=251b6d6f-7dc0-4fcf-968e-321fb8357a54","ios":"levelo://app?vid=251b6d6f-7dc0-4fcf-968e-321fb8357a54"},"vehicle_type_id":"4","last_reported":1719162371,"current_range_meters":0,"station_id":"ce4bh0p2rcd13ifvqd70","pricing_plan_id":"cebpf4jnsgd1na2vs0mg"},{"bike_id":"7bfd22b2-8223-4c38-bfa3-b2de7cb26c0c","system_id":"levelo_inurba_marseille","lat":43.290624,"lon":5.359245,"is_reserved":false,"is_disabled":false,"rental_uris":{"android":"levelo://app?vid=7bfd22b2-8223-4c38-bfa3-b2de7cb26c0c","ios":"levelo://app?vid=7bfd22b2-8223-4c38-bfa3-b2de7cb26c0c"},"vehicle_type_id":"4","last_reported":1719162371,"current_range_meters":17600,"station_id":"ce4bha92rcd13ifvqeg0","pricing_plan_id":"cebpf4jnsgd1na2vs0mg"},{"bike_id":"f667954f-080a-495d-b8e2-874f7ed8f71d","system_id":"levelo_inurba_marseille","lat":43.294162,"lon":5.386292,"is_reserved":false,"is_disabled":false,"rental_uris":{"android":"levelo://app?vid=f667954f-080a-495d-b8e2-874f7ed8f71d","ios":"levelo://app?vid=f667954f-080a-495d-b8e2-874f7ed8f71d"},"vehicle_type_id":"4","last_reported":1719162371,"current_range_meters":4000,"station_id":"ce4bh2h2rcd13ifvqdh0","pricing_plan_id":"cebpf4jnsgd1na2vs0mg"},{"bike_id":"3641a59c-854e-4066-88da-0b253d4799ac","system_id":"levelo_inurba_marseille","lat":43.290327,"lon":5.375711,"is_reserved":false,"is_disabled":false,"rental_uris":{"android":"levelo://app?vid=3641a59c-854e-4066-88da-0b253d4799ac","ios":"levelo://app?vid=3641a59c-854e-4066-88da-0b253d4799ac"},"vehicle_type_id":"4","last_reported":1719162371,"current_range_meters":8800,"station_id":"ce4bh692rcd13ifvqe90","pricing_plan_id":"cebpf4jnsgd1na2vs0mg"},{"bike_id":"d6cb33d8-a563-4c5e-adaa-647a5821b8bf","system_id":"levelo_inurba_marseille","lat":43.290327,"lon":5.375711,"is_reserved":false,"is_disabled":false,"rental_uris":{"android":"levelo://app?vid=d6cb33d8-a563-4c5e-adaa-647a5821b8bf","ios":"levelo://app?vid=d6cb33d8-a563-4c5e-adaa-647a5821b8bf"},"vehicle_type_id":"4","last_reported":1719162371,"current_range_meters":7200,"station_id":"ce4bh692rcd13ifvqe90","pricing_plan_id":"cebpf4jnsgd1na2vs0mg"},{"bike_id":"82dd2da2-9fdd-49dc-b94b-5cf45379a7c7","system_id":"levelo_inurba_marseille","lat":43.289468,"lon":5.363719,"is_reserved":false,"is_disabled":false,"rental_uris":{"android":"levelo://app?vid=82dd2da2-9fdd-49dc-b94b-5cf45379a7c7","ios":"levelo://app?vid=82dd2da2-9fdd-49dc-b94b-5cf45379a7c7"},"vehicle_type_id":"4","last_reported":1719162371,"current_range_meters":25200,"station_id":"ce4bhc92rcd13ifvqetg","pricing_plan_id":"cebpf4jnsgd1na2vs0mg"},{"bike_id":"09402dcd-c661-4420-a309-c5c2748def53","system_id":"levelo_inurba_marseille","lat":43.289468,"lon":5.363719,"is_reserved":false,"is_disabled":false,"rental_uris":{"android":"levelo://app?vid=09402dcd-c661-4420-a309-c5c2748def53","ios":"levelo://app?vid=09402dcd-c661-4420-a309-c5c2748def53"},"vehicle_type_id":"4","last_reported":1719162371,"current_range_meters":16000,"station_id":"ce4bhc92rcd13ifvqetg","pricing_plan_id":"cebpf4jnsgd1na2vs0mg"},{"bike_id":"53f5820a-ef99-43ca-b8be-cdca413832b6","system_id":"levelo_inurba_marseille","lat":43.289468,"lon":5.363719,"is_reserved":false,"is_disabled":false,"rental_uris":{"android":"levelo://app?vid=53f5820a-ef99-43ca-b8be-cdca413832b6","ios":"levelo://app?vid=53f5820a-ef99-43ca-b8be-cdca413832b6"},"vehicle_type_id":"4","last_reported":1719162371,"current_range_meters":7200,"station_id":"ce4bhc92rcd13ifvqetg","pricing_plan_id":"cebpf4jnsgd1na2vs0mg"},{"bike_id":"387a8ba2-4aa0-4d5e-b75c-b2fc31990b4c","system_id":"levelo_inurba_marseille","lat":43.28856,"lon":5.358371,"is_reserved":false,"is_disabled":false,"rental_uris":{"android":"levelo://app?vid=387a8ba2-4aa0-4d5e-b75c-b2fc31990b4c","ios":"levelo://app?vid=387a8ba2-4aa0-4d5e-b75c-b2fc31990b4c"},"vehicle_type_id":"4","last_reported":1719162371,"current_range_meters":4000,"station_id":"ce4bhb12rcd13ifvqem0","pricing_plan_id":"cebpf4jnsgd1na2vs0mg"},{"bike_id":"1cccd080-5cc6-46eb-bc06-89480854db38","system_id":"levelo_inurba_marseille","lat":43.292644,"lon":5.384257,"is_reserved":false,"is_disabled":false,"rental_uris":{"android":"levelo://app?vid=1cccd080-5cc6-46eb-bc06-89480854db38","ios":"levelo://app?vid=1cccd080-5cc6-46eb-bc06-89480854db38"},"vehicle_type_id":"4","last_reported":1719162371,"current_range_meters":0,"station_id":"ce4bh692rcd13ifvqea0","pricing_plan_id":"cebpf4jnsgd1na2vs0mg"},{"bike_id":"c7a95f51-09cb-4c7d-b8c4-a093be6b9573","system_id":"levelo_inurba_marseille","lat":43.292644,"lon":5.384257,"is_reserved":false,"is_disabled":false,"rental_uris":{"android":"levelo://app?vid=c7a95f51-09cb-4c7d-b8c4-a093be6b9573","ios":"levelo://app?vid=c7a95f51-09cb-4c7d-b8c4-a093be6b9573"},"vehicle_type_id":"4","last_reported":1719162371,"current_range_meters":0,"station_id":"ce4bh692rcd13ifvqea0","pricing_plan_id":"cebpf4jnsgd1na2vs0mg"},{"bike_id":"35fc8d63-3287-4e4f-a3e4-90dfd8fbca59","system_id":"levelo_inurba_marseille","lat":43.292642,"lon":5.384254,"is_reserved":false,"is_disabled":false,"rental_uris":{"android":"levelo://app?vid=35fc8d63-3287-4e4f-a3e4-90dfd8fbca59","ios":"levelo://app?vid=35fc8d63-3287-4e4f-a3e4-90dfd8fbca59"},"vehicle_type_id":"4","last_reported":1719162371,"current_range_meters":27200,"station_id":"ce4bh692rcd13ifvqea0","pricing_plan_id":"cebpf4jnsgd1na2vs0mg"},{"bike_id":"35ceb974-5048-405f-b44a-d6a7312691fa","system_id":"levelo_inurba_marseille","lat":43.29254,"lon":5.38443,"is_reserved":false,"is_disabled":false,"rental_uris":{"android":"levelo://app?vid=35ceb974-5048-405f-b44a-d6a7312691fa","ios":"levelo://app?vid=35ceb974-5048-405f-b44a-d6a7312691fa"},"vehicle_type_id":"4","last_reported":1719162371,"current_range_meters":20400,"station_id":"ce4bh692rcd13ifvqea0","pricing_plan_id":"cebpf4jnsgd1na2vs0mg"},{"bike_id":"24b77385-89e8-468b-9dd3-7ddb62954396","system_id":"levelo_inurba_marseille","lat":43.304274,"lon":5.397513,"is_reserved":false,"is_disabled":false,"rental_uris":{"android":"levelo://app?vid=24b77385-89e8-468b-9dd3-7ddb62954396","ios":"levelo://app?vid=24b77385-89e8-468b-9dd3-7ddb62954396"},"vehicle_type_id":"4","last_reported":1719162371,"current_range_meters":8400,"station_id":"ce4bh092rcd13ifvqd20","pricing_plan_id":"cebpf4jnsgd1na2vs0mg"},{"bike_id":"bdf6e966-e975-4cc5-a350-a755b7eda8c1","system_id":"levelo_inurba_marseille","lat":43.292644,"lon":5.384257,"is_reserved":false,"is_disabled":false,"rental_uris":{"android":"levelo://app?vid=bdf6e966-e975-4cc5-a350-a755b7eda8c1","ios":"levelo://app?vid=bdf6e966-e975-4cc5-a350-a755b7eda8c1"},"vehicle_type_id":"4","last_reported":1719162371,"current_range_meters":20800,"station_id":"ce4bh692rcd13ifvqea0","pricing_plan_id":"cebpf4jnsgd1na2vs0mg"},{"bike_id":"e3affbd6-7946-429a-9d99-61f7f16924be","system_id":"levelo_inurba_marseille","lat":43.292644,"lon":5.384257,"is_reserved":false,"is_disabled":false,"rental_uris":{"android":"levelo://app?vid=e3affbd6-7946-429a-9d99-61f7f16924be","ios":"levelo://app?vid=e3affbd6-7946-429a-9d99-61f7f16924be"},"vehicle_type_id":"4","last_reported":1719162371,"current_range_meters":1200,"station_id":"ce4bh692rcd13ifvqea0","pricing_plan_id":"cebpf4jnsgd1na2vs0mg"},{"bike_id":"72bf9639-ded6-413f-bdba-bfdb99c43af3","system_id":"levelo_inurba_marseille","lat":43.29006,"lon":5.35612,"is_reserved":false,"is_disabled":false,"rental_uris":{"android":"levelo://app?vid=72bf9639-ded6-413f-bdba-bfdb99c43af3","ios":"levelo://app?vid=72bf9639-ded6-413f-bdba-bfdb99c43af3"},"vehicle_type_id":"4","last_reported":1719162371,"current_range_meters":0,"station_id":"ce4bhb92rcd13ifvqen0","pricing_plan_id":"cebpf4jnsgd1na2vs0mg"},{"bike_id":"0f0648fd-eca3-4ba5-81e6-da24516ef6c7","system_id":"levelo_inurba_marseille","lat":43.295169,"lon":5.390426,"is_reserved":false,"is_disabled":false,"rental_uris":{"android":"levelo://app?vid=0f0648fd-eca3-4ba5-81e6-da24516ef6c7","ios":"levelo://app?vid=0f0648fd-eca3-4ba5-81e6-da24516ef6c7"},"vehicle_type_id":"4","last_reported":1719162371,"current_range_meters":12800,"station_id":"ce4bh3p2rcd13ifvqdp0","pricing_plan_id":"cebpf4jnsgd1na2vs0mg"},{"bike_id":"cdba2dd1-ec6b-453e-bf92-97711c2d30f8","system_id":"levelo_inurba_marseille","lat":43.330442,"lon":5.389148,"is_reserved":false,"is_disabled":false,"rental_uris":{"android":"levelo://app?vid=cdba2dd1-ec6b-453e-bf92-97711c2d30f8","ios":"levelo://app?vid=cdba2dd1-ec6b-453e-bf92-97711c2d30f8"},"vehicle_type_id":"4","last_reported":1719162371,"current_range_meters":11200,"station_id":"ce4bhr92rcd13ifvqhrg","pricing_plan_id":"cebpf4jnsgd1na2vs0mg"},{"bike_id":"8a231b88-0919-4056-80d6-c683cdeef555","system_id":"levelo_inurba_marseille","lat":43.330442,"lon":5.389148,"is_reserved":false,"is_disabled":false,"rental_uris":{"android":"levelo://app?vid=8a231b88-0919-4056-80d6-c683cdeef555","ios":"levelo://app?vid=8a231b88-0919-4056-80d6-c683cdeef555"},"vehicle_type_id":"4","last_reported":1719162371,"current_range_meters":23600,"station_id":"ce4bhr92rcd13ifvqhrg","pricing_plan_id":"cebpf4jnsgd1na2vs0mg"},{"bike_id":"7cffc5ab-1d98-4b39-9271-059357023ad7","system_id":"levelo_inurba_marseille","lat":43.33021,"lon":5.3905,"is_reserved":false,"is_disabled":false,"rental_uris":{"android":"levelo://app?vid=7cffc5ab-1d98-4b39-9271-059357023ad7","ios":"levelo://app?vid=7cffc5ab-1d98-4b39-9271-059357023ad7"},"vehicle_type_id":"4","last_reported":1719162371,"current_range_meters":0,"station_id":"ce4bhr92rcd13ifvqhrg","pricing_plan_id":"cebpf4jnsgd1na2vs0mg"},{"bike_id":"1c6ebe63-38b4-46b7-a0fa-a6034879ca67","system_id":"levelo_inurba_marseille","lat":43.2901,"lon":5.381269,"is_reserved":false,"is_disabled":false,"rental_uris":{"android":"levelo://app?vid=1c6ebe63-38b4-46b7-a0fa-a6034879ca67","ios":"levelo://app?vid=1c6ebe63-38b4-46b7-a0fa-a6034879ca67"},"vehicle_type_id":"4","last_reported":1719162371,"current_range_meters":11200,"station_id":"ce4bh4p2rcd13ifvqe1g","pricing_plan_id":"cebpf4jnsgd1na2vs0mg"},{"bike_id":"d5d0a232-68e9-4099-8200-ee5a22ef43d9","system_id":"levelo_inurba_marseille","lat":43.286961,"lon":5.373785,"is_reserved":false,"is_disabled":false,"rental_uris":{"android":"levelo://app?vid=d5d0a232-68e9-4099-8200-ee5a22ef43d9","ios":"levelo://app?vid=d5d0a232-68e9-4099-8200-ee5a22ef43d9"},"vehicle_type_id":"4","last_reported":1719162371,"current_range_meters":1600,"station_id":"ce4bh3p2rcd13ifvqdq0","pricing_plan_id":"cebpf4jnsgd1na2vs0mg"},{"bike_id":"05092e03-5cef-41c3-9575-df5db7507ebd","system_id":"levelo_inurba_marseille","lat":43.33739,"lon":5.37464,"is_reserved":false,"is_disabled":false,"rental_uris":{"android":"levelo://app?vid=05092e03-5cef-41c3-9575-df5db7507ebd","ios":"levelo://app?vid=05092e03-5cef-41c3-9575-df5db7507ebd"},"vehicle_type_id":"4","last_reported":1719162371,"current_range_meters":15200,"station_id":"","pricing_plan_id":"cebpf4jnsgd1na2vs0mg"},{"bike_id":"a00c218c-138a-4388-aca4-2952a6961815","system_id":"levelo_inurba_marseille","lat":43.337479,"lon":5.37488,"is_reserved":false,"is_disabled":false,"rental_uris":{"android":"levelo://app?vid=a00c218c-138a-4388-aca4-2952a6961815","ios":"levelo://app?vid=a00c218c-138a-4388-aca4-2952a6961815"},"vehicle_type_id":"4","last_reported":1719162371,"current_range_meters":28800,"station_id":"","pricing_plan_id":"cebpf4jnsgd1na2vs0mg"},{"bike_id":"5b5cae36-09e1-4bd0-aeb4-83d37c064d16","system_id":"levelo_inurba_marseille","lat":43.33753,"lon":5.37461,"is_reserved":false,"is_disabled":false,"rental_uris":{"android":"levelo://app?vid=5b5cae36-09e1-4bd0-aeb4-83d37c064d16","ios":"levelo://app?vid=5b5cae36-09e1-4bd0-aeb4-83d37c064d16"},"vehicle_type_id":"4","last_reported":1719162371,"current_range_meters":16800,"station_id":"","pricing_plan_id":"cebpf4jnsgd1na2vs0mg"},{"bike_id":"0e11bbab-a5d9-4098-a6f1-624d89f27c59","system_id":"levelo_inurba_marseille","lat":43.337572,"lon":5.374546,"is_reserved":false,"is_disabled":false,"rental_uris":{"android":"levelo://app?vid=0e11bbab-a5d9-4098-a6f1-624d89f27c59","ios":"levelo://app?vid=0e11bbab-a5d9-4098-a6f1-624d89f27c59"},"vehicle_type_id":"4","last_reported":1719162371,"current_range_meters":19600,"station_id":"","pricing_plan_id":"cebpf4jnsgd1na2vs0mg"},{"bike_id":"db534928-e6a2-47cc-a852-558fe66ed50c","system_id":"levelo_inurba_marseille","lat":43.337583,"lon":5.374633,"is_reserved":false,"is_disabled":false,"rental_uris":{"android":"levelo://app?vid=db534928-e6a2-47cc-a852-558fe66ed50c","ios":"levelo://app?vid=db534928-e6a2-47cc-a852-558fe66ed50c"},"vehicle_type_id":"4","last_reported":1719162371,"current_range_meters":18400,"station_id":"","pricing_plan_id":"cebpf4jnsgd1na2vs0mg"},{"bike_id":"e7be790b-07e4-40f3-b60f-da683b157943","system_id":"levelo_inurba_marseille","lat":43.33033,"lon":5.39238,"is_reserved":false,"is_disabled":false,"rental_uris":{"android":"levelo://app?vid=e7be790b-07e4-40f3-b60f-da683b157943","ios":"levelo://app?vid=e7be790b-07e4-40f3-b60f-da683b157943"},"vehicle_type_id":"4","last_reported":1719162371,"current_range_meters":14400,"station_id":"","pricing_plan_id":"cebpf4jnsgd1na2vs0mg"},{"bike_id":"a77bf3f1-dc55-4e35-8fe0-6292cee970ef","system_id":"levelo_inurba_marseille","lat":43.33035,"lon":5.39239,"is_reserved":false,"is_disabled":false,"rental_uris":{"android":"levelo://app?vid=a77bf3f1-dc55-4e35-8fe0-6292cee970ef","ios":"levelo://app?vid=a77bf3f1-dc55-4e35-8fe0-6292cee970ef"},"vehicle_type_id":"4","last_reported":1719162371,"current_range_meters":17200,"station_id":"","pricing_plan_id":"cebpf4jnsgd1na2vs0mg"},{"bike_id":"ae4b69eb-2bb6-4873-a5ff-b3c454126ebf","system_id":"levelo_inurba_marseille","lat":43.30642,"lon":5.401031,"is_reserved":false,"is_disabled":false,"rental_uris":{"android":"levelo://app?vid=ae4b69eb-2bb6-4873-a5ff-b3c454126ebf","ios":"levelo://app?vid=ae4b69eb-2bb6-4873-a5ff-b3c454126ebf"},"vehicle_type_id":"4","last_reported":1719162371,"current_range_meters":27600,"station_id":"ce4bh112rcd13ifvqda0","pricing_plan_id":"cebpf4jnsgd1na2vs0mg"},{"bike_id":"4458c47e-cffb-435e-aa1c-df575079e64f","system_id":"levelo_inurba_marseille","lat":43.301117,"lon":5.398795,"is_reserved":false,"is_disabled":false,"rental_uris":{"android":"levelo://app?vid=4458c47e-cffb-435e-aa1c-df575079e64f","ios":"levelo://app?vid=4458c47e-cffb-435e-aa1c-df575079e64f"},"vehicle_type_id":"4","last_reported":1719162371,"current_range_meters":400,"station_id":"ce4bh0h2rcd13ifvqd40","pricing_plan_id":"cebpf4jnsgd1na2vs0mg"},{"bike_id":"4107874f-6f88-48d4-80e2-2797be0329a3","system_id":"levelo_inurba_marseille","lat":43.28746,"lon":5.37378,"is_reserved":false,"is_disabled":false,"rental_uris":{"android":"levelo://app?vid=4107874f-6f88-48d4-80e2-2797be0329a3","ios":"levelo://app?vid=4107874f-6f88-48d4-80e2-2797be0329a3"},"vehicle_type_id":"4","last_reported":1719162371,"current_range_meters":1600,"station_id":"","pricing_plan_id":"cebpf4jnsgd1na2vs0mg"},{"bike_id":"f941bab5-1762-459c-a207-730567e850c9","system_id":"levelo_inurba_marseille","lat":43.28701,"lon":5.37392,"is_reserved":false,"is_disabled":false,"rental_uris":{"android":"levelo://app?vid=f941bab5-1762-459c-a207-730567e850c9","ios":"levelo://app?vid=f941bab5-1762-459c-a207-730567e850c9"},"vehicle_type_id":"4","last_reported":1719162371,"current_range_meters":0,"station_id":"ce4bh3p2rcd13ifvqdq0","pricing_plan_id":"cebpf4jnsgd1na2vs0mg"},{"bike_id":"d206d9a9-7d5a-40ac-9175-1af55d3fd41c","system_id":"levelo_inurba_marseille","lat":43.28701,"lon":5.373967,"is_reserved":false,"is_disabled":false,"rental_uris":{"android":"levelo://app?vid=d206d9a9-7d5a-40ac-9175-1af55d3fd41c","ios":"levelo://app?vid=d206d9a9-7d5a-40ac-9175-1af55d3fd41c"},"vehicle_type_id":"4","last_reported":1719162371,"current_range_meters":0,"station_id":"ce4bh3p2rcd13ifvqdq0","pricing_plan_id":"cebpf4jnsgd1na2vs0mg"},{"bike_id":"7f9c48af-e8a9-4332-8aaf-81f5cb56f440","system_id":"levelo_inurba_marseille","lat":43.286591,"lon":5.363346,"is_reserved":false,"is_disabled":false,"rental_uris":{"android":"levelo://app?vid=7f9c48af-e8a9-4332-8aaf-81f5cb56f440","ios":"levelo://app?vid=7f9c48af-e8a9-4332-8aaf-81f5cb56f440"},"vehicle_type_id":"4","last_reported":1719162371,"current_range_meters":3200,"station_id":"ce4bhah2rcd13ifvqej0","pricing_plan_id":"cebpf4jnsgd1na2vs0mg"},{"bike_id":"0c397ccf-dffd-4b2d-b433-c7429ff3f6e4","system_id":"levelo_inurba_marseille","lat":43.298681,"lon":5.397225,"is_reserved":false,"is_disabled":false,"rental_uris":{"android":"levelo://app?vid=0c397ccf-dffd-4b2d-b433-c7429ff3f6e4","ios":"levelo://app?vid=0c397ccf-dffd-4b2d-b433-c7429ff3f6e4"},"vehicle_type_id":"4","last_reported":1719162371,"current_range_meters":2400,"station_id":"ce4bh0h2rcd13ifvqd50","pricing_plan_id":"cebpf4jnsgd1na2vs0mg"},{"bike_id":"a92e04fa-f2e4-48aa-8366-a236caf490f8","system_id":"levelo_inurba_marseille","lat":43.289307,"lon":5.38406,"is_reserved":false,"is_disabled":false,"rental_uris":{"android":"levelo://app?vid=a92e04fa-f2e4-48aa-8366-a236caf490f8","ios":"levelo://app?vid=a92e04fa-f2e4-48aa-8366-a236caf490f8"},"vehicle_type_id":"4","last_reported":1719162371,"current_range_meters":6000,"station_id":"ce4bh612rcd13ifvqe6g","pricing_plan_id":"cebpf4jnsgd1na2vs0mg"},{"bike_id":"078ba68f-7d4f-48ee-b152-089a383b5795","system_id":"levelo_inurba_marseille","lat":43.295194,"lon":5.39397,"is_reserved":false,"is_disabled":false,"rental_uris":{"android":"levelo://app?vid=078ba68f-7d4f-48ee-b152-089a383b5795","ios":"levelo://app?vid=078ba68f-7d4f-48ee-b152-089a383b5795"},"vehicle_type_id":"4","last_reported":1719162371,"current_range_meters":0,"station_id":"ce4bh292rcd13ifvqdf0","pricing_plan_id":"cebpf4jnsgd1na2vs0mg"},{"bike_id":"cebac8b3-7a51-4070-941d-3342566d77e1","system_id":"levelo_inurba_marseille","lat":43.289307,"lon":5.38406,"is_reserved":false,"is_disabled":false,"rental_uris":{"android":"levelo://app?vid=cebac8b3-7a51-4070-941d-3342566d77e1","ios":"levelo://app?vid=cebac8b3-7a51-4070-941d-3342566d77e1"},"vehicle_type_id":"4","last_reported":1719162371,"current_range_meters":2800,"station_id":"ce4bh612rcd13ifvqe6g","pricing_plan_id":"cebpf4jnsgd1na2vs0mg"},{"bike_id":"69129042-83f3-4cd0-b83d-ba72b4245739","system_id":"levelo_inurba_marseille","lat":43.302759,"lon":5.400793,"is_reserved":false,"is_disabled":false,"rental_uris":{"android":"levelo://app?vid=69129042-83f3-4cd0-b83d-ba72b4245739","ios":"levelo://app?vid=69129042-83f3-4cd0-b83d-ba72b4245739"},"vehicle_type_id":"4","last_reported":1719162371,"current_range_meters":4400,"station_id":"ce4bgvh2rcd13ifvqcs0","pricing_plan_id":"cebpf4jnsgd1na2vs0mg"},{"bike_id":"697ce203-c3f4-48c9-b719-572cf04ffcfa","system_id":"levelo_inurba_marseille","lat":43.29026,"lon":5.38636,"is_reserved":false,"is_disabled":false,"rental_uris":{"android":"levelo://app?vid=697ce203-c3f4-48c9-b719-572cf04ffcfa","ios":"levelo://app?vid=697ce203-c3f4-48c9-b719-572cf04ffcfa"},"vehicle_type_id":"4","last_reported":1719162371,"current_range_meters":0,"station_id":"ce4bh4p2rcd13ifvqe0g","pricing_plan_id":"cebpf4jnsgd1na2vs0mg"},{"bike_id":"acd72a31-62b1-4af8-82e0-9b83d46f6010","system_id":"levelo_inurba_marseille","lat":43.290345,"lon":5.38646,"is_reserved":false,"is_disabled":false,"rental_uris":{"android":"levelo://app?vid=acd72a31-62b1-4af8-82e0-9b83d46f6010","ios":"levelo://app?vid=acd72a31-62b1-4af8-82e0-9b83d46f6010"},"vehicle_type_id":"4","last_reported":1719162371,"current_range_meters":14800,"station_id":"ce4bh4p2rcd13ifvqe0g","pricing_plan_id":"cebpf4jnsgd1na2vs0mg"},{"bike_id":"98251078-f0c8-4877-8a9e-fcfde0d4761e","system_id":"levelo_inurba_marseille","lat":43.29027,"lon":5.38649,"is_reserved":false,"is_disabled":false,"rental_uris":{"android":"levelo://app?vid=98251078-f0c8-4877-8a9e-fcfde0d4761e","ios":"levelo://app?vid=98251078-f0c8-4877-8a9e-fcfde0d4761e"},"vehicle_type_id":"4","last_reported":1719162371,"current_range_meters":0,"station_id":"ce4bh4p2rcd13ifvqe0g","pricing_plan_id":"cebpf4jnsgd1na2vs0mg"},{"bike_id":"bef1c7e6-6fcd-43fd-9958-98088267d624","system_id":"levelo_inurba_marseille","lat":43.31683,"lon":5.40465,"is_reserved":false,"is_disabled":false,"rental_uris":{"android":"levelo://app?vid=bef1c7e6-6fcd-43fd-9958-98088267d624","ios":"levelo://app?vid=bef1c7e6-6fcd-43fd-9958-98088267d624"},"vehicle_type_id":"4","last_reported":1719162371,"current_range_meters":0,"station_id":"ce4bh012rcd13ifvqd00","pricing_plan_id":"cebpf4jnsgd1na2vs0mg"},{"bike_id":"5ff72ba1-deba-4293-a9c7-2a44e3aae419","system_id":"levelo_inurba_marseille","lat":43.316821,"lon":5.404737,"is_reserved":false,"is_disabled":false,"rental_uris":{"android":"levelo://app?vid=5ff72ba1-deba-4293-a9c7-2a44e3aae419","ios":"levelo://app?vid=5ff72ba1-deba-4293-a9c7-2a44e3aae419"},"vehicle_type_id":"4","last_reported":1719162371,"current_range_meters":4800,"station_id":"ce4bh012rcd13ifvqd00","pricing_plan_id":"cebpf4jnsgd1na2vs0mg"},{"bike_id":"caef7251-4167-4bd1-823c-7883c79c863b","system_id":"levelo_inurba_marseille","lat":43.28454,"lon":5.35892,"is_reserved":false,"is_disabled":false,"rental_uris":{"android":"levelo://app?vid=caef7251-4167-4bd1-823c-7883c79c863b","ios":"levelo://app?vid=caef7251-4167-4bd1-823c-7883c79c863b"},"vehicle_type_id":"4","last_reported":1719162371,"current_range_meters":0,"station_id":"ce4bhah2rcd13ifvqei0","pricing_plan_id":"cebpf4jnsgd1na2vs0mg"},{"bike_id":"5a435008-4f75-42dd-a2e1-4807082150fc","system_id":"levelo_inurba_marseille","lat":43.283998,"lon":5.375062,"is_reserved":false,"is_disabled":false,"rental_uris":{"android":"levelo://app?vid=5a435008-4f75-42dd-a2e1-4807082150fc","ios":"levelo://app?vid=5a435008-4f75-42dd-a2e1-4807082150fc"},"vehicle_type_id":"4","last_reported":1719162371,"current_range_meters":2400,"station_id":"ce4bh412rcd13ifvqds0","pricing_plan_id":"cebpf4jnsgd1na2vs0mg"},{"bike_id":"353ac709-dfa2-42cd-8abf-6ae5d23d0cc2","system_id":"levelo_inurba_marseille","lat":43.286595,"lon":5.386795,"is_reserved":false,"is_disabled":false,"rental_uris":{"android":"levelo://app?vid=353ac709-dfa2-42cd-8abf-6ae5d23d0cc2","ios":"levelo://app?vid=353ac709-dfa2-42cd-8abf-6ae5d23d0cc2"},"vehicle_type_id":"4","last_reported":1719162371,"current_range_meters":28800,"station_id":"ce4bh492rcd13ifvqdug","pricing_plan_id":"cebpf4jnsgd1na2vs0mg"},{"bike_id":"e6e484b5-f15c-4130-8564-3412f2408c35","system_id":"levelo_inurba_marseille","lat":43.28671,"lon":5.38667,"is_reserved":false,"is_disabled":false,"rental_uris":{"android":"levelo://app?vid=e6e484b5-f15c-4130-8564-3412f2408c35","ios":"levelo://app?vid=e6e484b5-f15c-4130-8564-3412f2408c35"},"vehicle_type_id":"4","last_reported":1719162371,"current_range_meters":0,"station_id":"ce4bh492rcd13ifvqdug","pricing_plan_id":"cebpf4jnsgd1na2vs0mg"},{"bike_id":"05f1f734-56ac-41f7-bf39-60c75b9b0f97","system_id":"levelo_inurba_marseille","lat":43.286595,"lon":5.386795,"is_reserved":false,"is_disabled":false,"rental_uris":{"android":"levelo://app?vid=05f1f734-56ac-41f7-bf39-60c75b9b0f97","ios":"levelo://app?vid=05f1f734-56ac-41f7-bf39-60c75b9b0f97"},"vehicle_type_id":"4","last_reported":1719162371,"current_range_meters":1600,"station_id":"ce4bh492rcd13ifvqdug","pricing_plan_id":"cebpf4jnsgd1na2vs0mg"},{"bike_id":"e34a03a9-2975-48c1-98ba-bdab86a72196","system_id":"levelo_inurba_marseille","lat":43.28663,"lon":5.38684,"is_reserved":false,"is_disabled":false,"rental_uris":{"android":"levelo://app?vid=e34a03a9-2975-48c1-98ba-bdab86a72196","ios":"levelo://app?vid=e34a03a9-2975-48c1-98ba-bdab86a72196"},"vehicle_type_id":"4","last_reported":1719162371,"current_range_meters":5200,"station_id":"ce4bh492rcd13ifvqdug","pricing_plan_id":"cebpf4jnsgd1na2vs0mg"},{"bike_id":"df2866a0-c667-4af0-8b24-c9e8fcf2a8df","system_id":"levelo_inurba_marseille","lat":43.28832,"lon":5.39157,"is_reserved":false,"is_disabled":false,"rental_uris":{"android":"levelo://app?vid=df2866a0-c667-4af0-8b24-c9e8fcf2a8df","ios":"levelo://app?vid=df2866a0-c667-4af0-8b24-c9e8fcf2a8df"},"vehicle_type_id":"4","last_reported":1719162371,"current_range_meters":23200,"station_id":"","pricing_plan_id":"cebpf4jnsgd1na2vs0mg"},{"bike_id":"f3afbcfa-fef5-4566-b335-b95d65d96a32","system_id":"levelo_inurba_marseille","lat":43.337248,"lon":5.391844,"is_reserved":false,"is_disabled":false,"rental_uris":{"android":"levelo://app?vid=f3afbcfa-fef5-4566-b335-b95d65d96a32","ios":"levelo://app?vid=f3afbcfa-fef5-4566-b335-b95d65d96a32"},"vehicle_type_id":"4","last_reported":1719162371,"current_range_meters":0,"station_id":"ce4bhr92rcd13ifvqhsg","pricing_plan_id":"cebpf4jnsgd1na2vs0mg"},{"bike_id":"cbca4817-05d6-4e90-b3e2-1a3f71c68569","system_id":"levelo_inurba_marseille","lat":43.28249,"lon":5.372585,"is_reserved":false,"is_disabled":false,"rental_uris":{"android":"levelo://app?vid=cbca4817-05d6-4e90-b3e2-1a3f71c68569","ios":"levelo://app?vid=cbca4817-05d6-4e90-b3e2-1a3f71c68569"},"vehicle_type_id":"4","last_reported":1719162371,"current_range_meters":18800,"station_id":"","pricing_plan_id":"cebpf4jnsgd1na2vs0mg"},{"bike_id":"5c395dfb-a44e-48a1-a112-3500a0393d65","system_id":"levelo_inurba_marseille","lat":43.29795,"lon":5.404086,"is_reserved":false,"is_disabled":false,"rental_uris":{"android":"levelo://app?vid=5c395dfb-a44e-48a1-a112-3500a0393d65","ios":"levelo://app?vid=5c395dfb-a44e-48a1-a112-3500a0393d65"},"vehicle_type_id":"4","last_reported":1719162371,"current_range_meters":19200,"station_id":"ce4bh112rcd13ifvqd90","pricing_plan_id":"cebpf4jnsgd1na2vs0mg"},{"bike_id":"4816b6e1-e5d7-440a-a203-040f08d58126","system_id":"levelo_inurba_marseille","lat":43.29807,"lon":5.40399,"is_reserved":false,"is_disabled":false,"rental_uris":{"android":"levelo://app?vid=4816b6e1-e5d7-440a-a203-040f08d58126","ios":"levelo://app?vid=4816b6e1-e5d7-440a-a203-040f08d58126"},"vehicle_type_id":"4","last_reported":1719162371,"current_range_meters":11200,"station_id":"","pricing_plan_id":"cebpf4jnsgd1na2vs0mg"},{"bike_id":"f2730559-409a-4bf1-97ae-c26fa8d9ce02","system_id":"levelo_inurba_marseille","lat":43.29797,"lon":5.40394,"is_reserved":false,"is_disabled":false,"rental_uris":{"android":"levelo://app?vid=f2730559-409a-4bf1-97ae-c26fa8d9ce02","ios":"levelo://app?vid=f2730559-409a-4bf1-97ae-c26fa8d9ce02"},"vehicle_type_id":"4","last_reported":1719162371,"current_range_meters":3600,"station_id":"ce4bh112rcd13ifvqd90","pricing_plan_id":"cebpf4jnsgd1na2vs0mg"},{"bike_id":"2c505d63-b36a-4d9f-b94c-741e7a1d9bc2","system_id":"levelo_inurba_marseille","lat":43.29795,"lon":5.404086,"is_reserved":false,"is_disabled":false,"rental_uris":{"android":"levelo://app?vid=2c505d63-b36a-4d9f-b94c-741e7a1d9bc2","ios":"levelo://app?vid=2c505d63-b36a-4d9f-b94c-741e7a1d9bc2"},"vehicle_type_id":"4","last_reported":1719162371,"current_range_meters":14000,"station_id":"ce4bh112rcd13ifvqd90","pricing_plan_id":"cebpf4jnsgd1na2vs0mg"},{"bike_id":"123a508c-7284-4df7-a155-0742a625cd71","system_id":"levelo_inurba_marseille","lat":43.288497,"lon":5.393089,"is_reserved":false,"is_disabled":false,"rental_uris":{"android":"levelo://app?vid=123a508c-7284-4df7-a155-0742a625cd71","ios":"levelo://app?vid=123a508c-7284-4df7-a155-0742a625cd71"},"vehicle_type_id":"4","last_reported":1719162371,"current_range_meters":0,"station_id":"ce4bh2p2rcd13ifvqdi0","pricing_plan_id":"cebpf4jnsgd1na2vs0mg"},{"bike_id":"d29f7bd8-e3f7-464c-bc0d-62575d49d189","system_id":"levelo_inurba_marseille","lat":43.288501,"lon":5.393087,"is_reserved":false,"is_disabled":false,"rental_uris":{"android":"levelo://app?vid=d29f7bd8-e3f7-464c-bc0d-62575d49d189","ios":"levelo://app?vid=d29f7bd8-e3f7-464c-bc0d-62575d49d189"},"vehicle_type_id":"4","last_reported":1719162371,"current_range_meters":0,"station_id":"ce4bh2p2rcd13ifvqdi0","pricing_plan_id":"cebpf4jnsgd1na2vs0mg"},{"bike_id":"b300814d-0350-40bc-a185-8e797865c1bf","system_id":"levelo_inurba_marseille","lat":43.283498,"lon":5.380948,"is_reserved":false,"is_disabled":false,"rental_uris":{"android":"levelo://app?vid=b300814d-0350-40bc-a185-8e797865c1bf","ios":"levelo://app?vid=b300814d-0350-40bc-a185-8e797865c1bf"},"vehicle_type_id":"4","last_reported":1719162371,"current_range_meters":6400,"station_id":"ce4bh412rcd13ifvqdr0","pricing_plan_id":"cebpf4jnsgd1na2vs0mg"},{"bike_id":"0cde371e-fa48-4c53-8f25-8f5949cd5baa","system_id":"levelo_inurba_marseille","lat":43.284217,"lon":5.349697,"is_reserved":false,"is_disabled":false,"rental_uris":{"android":"levelo://app?vid=0cde371e-fa48-4c53-8f25-8f5949cd5baa","ios":"levelo://app?vid=0cde371e-fa48-4c53-8f25-8f5949cd5baa"},"vehicle_type_id":"4","last_reported":1719162371,"current_range_meters":18800,"station_id":"ce4bhbh2rcd13ifvqepg","pricing_plan_id":"cebpf4jnsgd1na2vs0mg"},{"bike_id":"00b195c2-1b43-42a2-adb7-95283659a674","system_id":"levelo_inurba_marseille","lat":43.289363,"lon":5.396322,"is_reserved":false,"is_disabled":false,"rental_uris":{"android":"levelo://app?vid=00b195c2-1b43-42a2-adb7-95283659a674","ios":"levelo://app?vid=00b195c2-1b43-42a2-adb7-95283659a674"},"vehicle_type_id":"4","last_reported":1719162371,"current_range_meters":22800,"station_id":"ce4bh3h2rcd13ifvqdn0","pricing_plan_id":"cebpf4jnsgd1na2vs0mg"},{"bike_id":"266e499b-f476-4f0f-8782-24caee9cee89","system_id":"levelo_inurba_marseille","lat":43.292724,"lon":5.401131,"is_reserved":false,"is_disabled":false,"rental_uris":{"android":"levelo://app?vid=266e499b-f476-4f0f-8782-24caee9cee89","ios":"levelo://app?vid=266e499b-f476-4f0f-8782-24caee9cee89"},"vehicle_type_id":"4","last_reported":1719162371,"current_range_meters":4000,"station_id":"ce4bh312rcd13ifvqdk0","pricing_plan_id":"cebpf4jnsgd1na2vs0mg"},{"bike_id":"4b624fcf-f9ad-47f4-8632-6bc246089d11","system_id":"levelo_inurba_marseille","lat":43.28273,"lon":5.35067,"is_reserved":false,"is_disabled":false,"rental_uris":{"android":"levelo://app?vid=4b624fcf-f9ad-47f4-8632-6bc246089d11","ios":"levelo://app?vid=4b624fcf-f9ad-47f4-8632-6bc246089d11"},"vehicle_type_id":"4","last_reported":1719162371,"current_range_meters":0,"station_id":"ce4bhbp2rcd13ifvqerg","pricing_plan_id":"cebpf4jnsgd1na2vs0mg"},{"bike_id":"2600354c-74b2-4ace-8b25-cd7dbb99f351","system_id":"levelo_inurba_marseille","lat":43.28273,"lon":5.35056,"is_reserved":false,"is_disabled":false,"rental_uris":{"android":"levelo://app?vid=2600354c-74b2-4ace-8b25-cd7dbb99f351","ios":"levelo://app?vid=2600354c-74b2-4ace-8b25-cd7dbb99f351"},"vehicle_type_id":"4","last_reported":1719162371,"current_range_meters":0,"station_id":"ce4bhbp2rcd13ifvqerg","pricing_plan_id":"cebpf4jnsgd1na2vs0mg"},{"bike_id":"e47ca021-f7de-46dc-bc11-abe9e55ab999","system_id":"levelo_inurba_marseille","lat":43.28271,"lon":5.35059,"is_reserved":false,"is_disabled":false,"rental_uris":{"android":"levelo://app?vid=e47ca021-f7de-46dc-bc11-abe9e55ab999","ios":"levelo://app?vid=e47ca021-f7de-46dc-bc11-abe9e55ab999"},"vehicle_type_id":"4","last_reported":1719162371,"current_range_meters":0,"station_id":"ce4bhbp2rcd13ifvqerg","pricing_plan_id":"cebpf4jnsgd1na2vs0mg"},{"bike_id":"ac60cc57-9d87-4ef5-ac5a-e654c1fb7546","system_id":"levelo_inurba_marseille","lat":43.28263,"lon":5.35059,"is_reserved":false,"is_disabled":false,"rental_uris":{"android":"levelo://app?vid=ac60cc57-9d87-4ef5-ac5a-e654c1fb7546","ios":"levelo://app?vid=ac60cc57-9d87-4ef5-ac5a-e654c1fb7546"},"vehicle_type_id":"4","last_reported":1719162371,"current_range_meters":31200,"station_id":"","pricing_plan_id":"cebpf4jnsgd1na2vs0mg"},{"bike_id":"2824f120-3c41-4034-8a58-ac88032f6620","system_id":"levelo_inurba_marseille","lat":43.28261,"lon":5.35047,"is_reserved":false,"is_disabled":false,"rental_uris":{"android":"levelo://app?vid=2824f120-3c41-4034-8a58-ac88032f6620","ios":"levelo://app?vid=2824f120-3c41-4034-8a58-ac88032f6620"},"vehicle_type_id":"4","last_reported":1719162371,"current_range_meters":26000,"station_id":"ce4bhbp2rcd13ifvqerg","pricing_plan_id":"cebpf4jnsgd1na2vs0mg"},{"bike_id":"5f3925d1-fd00-4cf4-9f8c-f2d749eb7613","system_id":"levelo_inurba_marseille","lat":43.280382,"lon":5.369291,"is_reserved":false,"is_disabled":false,"rental_uris":{"android":"levelo://app?vid=5f3925d1-fd00-4cf4-9f8c-f2d749eb7613","ios":"levelo://app?vid=5f3925d1-fd00-4cf4-9f8c-f2d749eb7613"},"vehicle_type_id":"4","last_reported":1719162371,"current_range_meters":16000,"station_id":"ce4bha12rcd13ifvqef0","pricing_plan_id":"cebpf4jnsgd1na2vs0mg"},{"bike_id":"97d526a6-8234-49cb-92f8-114327a40b7d","system_id":"levelo_inurba_marseille","lat":43.290412,"lon":5.399633,"is_reserved":false,"is_disabled":false,"rental_uris":{"android":"levelo://app?vid=97d526a6-8234-49cb-92f8-114327a40b7d","ios":"levelo://app?vid=97d526a6-8234-49cb-92f8-114327a40b7d"},"vehicle_type_id":"4","last_reported":1719162371,"current_range_meters":24000,"station_id":"ce4bh392rcd13ifvqdm0","pricing_plan_id":"cebpf4jnsgd1na2vs0mg"},{"bike_id":"06ff373d-2953-40e5-b87a-b50312d0a347","system_id":"levelo_inurba_marseille","lat":43.296263,"lon":5.40601,"is_reserved":false,"is_disabled":false,"rental_uris":{"android":"levelo://app?vid=06ff373d-2953-40e5-b87a-b50312d0a347","ios":"levelo://app?vid=06ff373d-2953-40e5-b87a-b50312d0a347"},"vehicle_type_id":"4","last_reported":1719162371,"current_range_meters":1600,"station_id":"ce4bh0h2rcd13ifvqd60","pricing_plan_id":"cebpf4jnsgd1na2vs0mg"},{"bike_id":"8656e9f2-fbba-46b4-8030-ebd6bcfee513","system_id":"levelo_inurba_marseille","lat":43.296263,"lon":5.40601,"is_reserved":false,"is_disabled":false,"rental_uris":{"android":"levelo://app?vid=8656e9f2-fbba-46b4-8030-ebd6bcfee513","ios":"levelo://app?vid=8656e9f2-fbba-46b4-8030-ebd6bcfee513"},"vehicle_type_id":"4","last_reported":1719162371,"current_range_meters":11600,"station_id":"ce4bh0h2rcd13ifvqd60","pricing_plan_id":"cebpf4jnsgd1na2vs0mg"},{"bike_id":"7a85a6b3-3012-4e6e-aca7-dc642f466c09","system_id":"levelo_inurba_marseille","lat":43.28446,"lon":5.39206,"is_reserved":false,"is_disabled":false,"rental_uris":{"android":"levelo://app?vid=7a85a6b3-3012-4e6e-aca7-dc642f466c09","ios":"levelo://app?vid=7a85a6b3-3012-4e6e-aca7-dc642f466c09"},"vehicle_type_id":"4","last_reported":1719162371,"current_range_meters":0,"station_id":"ce4bhoh2rcd13ifvqh5g","pricing_plan_id":"cebpf4jnsgd1na2vs0mg"},{"bike_id":"f413423d-200a-43f2-8a1c-e35ce30b1fd8","system_id":"levelo_inurba_marseille","lat":43.285742,"lon":5.395004,"is_reserved":false,"is_disabled":false,"rental_uris":{"android":"levelo://app?vid=f413423d-200a-43f2-8a1c-e35ce30b1fd8","ios":"levelo://app?vid=f413423d-200a-43f2-8a1c-e35ce30b1fd8"},"vehicle_type_id":"4","last_reported":1719162371,"current_range_meters":1600,"station_id":"ce4bh292rcd13ifvqdg0","pricing_plan_id":"cebpf4jnsgd1na2vs0mg"},{"bike_id":"17f1fe2c-9c9e-49d7-8ae6-2d23a58e47c6","system_id":"levelo_inurba_marseille","lat":43.326605,"lon":5.409903,"is_reserved":false,"is_disabled":false,"rental_uris":{"android":"levelo://app?vid=17f1fe2c-9c9e-49d7-8ae6-2d23a58e47c6","ios":"levelo://app?vid=17f1fe2c-9c9e-49d7-8ae6-2d23a58e47c6"},"vehicle_type_id":"4","last_reported":1719162371,"current_range_meters":17200,"station_id":"ce4bhpp2rcd13ifvqhgg","pricing_plan_id":"cebpf4jnsgd1na2vs0mg"},{"bike_id":"61ee56cb-94c4-4853-b877-794351e39aa7","system_id":"levelo_inurba_marseille","lat":43.326605,"lon":5.409903,"is_reserved":false,"is_disabled":false,"rental_uris":{"android":"levelo://app?vid=61ee56cb-94c4-4853-b877-794351e39aa7","ios":"levelo://app?vid=61ee56cb-94c4-4853-b877-794351e39aa7"},"vehicle_type_id":"4","last_reported":1719162371,"current_range_meters":30000,"station_id":"ce4bhpp2rcd13ifvqhgg","pricing_plan_id":"cebpf4jnsgd1na2vs0mg"},{"bike_id":"4dcefb99-4e28-453d-9e0a-72ede94001d0","system_id":"levelo_inurba_marseille","lat":43.326605,"lon":5.409903,"is_reserved":false,"is_disabled":false,"rental_uris":{"android":"levelo://app?vid=4dcefb99-4e28-453d-9e0a-72ede94001d0","ios":"levelo://app?vid=4dcefb99-4e28-453d-9e0a-72ede94001d0"},"vehicle_type_id":"4","last_reported":1719162371,"current_range_meters":5200,"station_id":"ce4bhpp2rcd13ifvqhgg","pricing_plan_id":"cebpf4jnsgd1na2vs0mg"},{"bike_id":"3673c04b-2d78-4e8d-83c9-9dfef58df536","system_id":"levelo_inurba_marseille","lat":43.3266,"lon":5.40995,"is_reserved":false,"is_disabled":false,"rental_uris":{"android":"levelo://app?vid=3673c04b-2d78-4e8d-83c9-9dfef58df536","ios":"levelo://app?vid=3673c04b-2d78-4e8d-83c9-9dfef58df536"},"vehicle_type_id":"4","last_reported":1719162371,"current_range_meters":4400,"station_id":"ce4bhpp2rcd13ifvqhgg","pricing_plan_id":"cebpf4jnsgd1na2vs0mg"},{"bike_id":"89134d7c-7e69-482a-ae43-8577709572e4","system_id":"levelo_inurba_marseille","lat":43.326605,"lon":5.409903,"is_reserved":false,"is_disabled":false,"rental_uris":{"android":"levelo://app?vid=89134d7c-7e69-482a-ae43-8577709572e4","ios":"levelo://app?vid=89134d7c-7e69-482a-ae43-8577709572e4"},"vehicle_type_id":"4","last_reported":1719162371,"current_range_meters":22800,"station_id":"ce4bhpp2rcd13ifvqhgg","pricing_plan_id":"cebpf4jnsgd1na2vs0mg"},{"bike_id":"cdad36e2-00ed-46a2-8f36-1ed779dc13d1","system_id":"levelo_inurba_marseille","lat":43.279087,"lon":5.380114,"is_reserved":false,"is_disabled":false,"rental_uris":{"android":"levelo://app?vid=cdad36e2-00ed-46a2-8f36-1ed779dc13d1","ios":"levelo://app?vid=cdad36e2-00ed-46a2-8f36-1ed779dc13d1"},"vehicle_type_id":"4","last_reported":1719162371,"current_range_meters":0,"station_id":"ce4bhf92rcd13ifvqf50","pricing_plan_id":"cebpf4jnsgd1na2vs0mg"},{"bike_id":"5825e7ae-9b42-4b01-a1a3-0d42df9cb848","system_id":"levelo_inurba_marseille","lat":43.287154,"lon":5.399979,"is_reserved":false,"is_disabled":false,"rental_uris":{"android":"levelo://app?vid=5825e7ae-9b42-4b01-a1a3-0d42df9cb848","ios":"levelo://app?vid=5825e7ae-9b42-4b01-a1a3-0d42df9cb848"},"vehicle_type_id":"4","last_reported":1719162371,"current_range_meters":2400,"station_id":"ce4bho92rcd13ifvqh3g","pricing_plan_id":"cebpf4jnsgd1na2vs0mg"},{"bike_id":"32ba8d60-5994-48a1-8817-ae16344dedab","system_id":"levelo_inurba_marseille","lat":43.279742,"lon":5.38744,"is_reserved":false,"is_disabled":false,"rental_uris":{"android":"levelo://app?vid=32ba8d60-5994-48a1-8817-ae16344dedab","ios":"levelo://app?vid=32ba8d60-5994-48a1-8817-ae16344dedab"},"vehicle_type_id":"4","last_reported":1719162371,"current_range_meters":0,"station_id":"ce4bhg12rcd13ifvqf80","pricing_plan_id":"cebpf4jnsgd1na2vs0mg"},{"bike_id":"26b51d29-b0bf-498a-9d56-b9c22043d762","system_id":"levelo_inurba_marseille","lat":43.27966,"lon":5.387435,"is_reserved":false,"is_disabled":false,"rental_uris":{"android":"levelo://app?vid=26b51d29-b0bf-498a-9d56-b9c22043d762","ios":"levelo://app?vid=26b51d29-b0bf-498a-9d56-b9c22043d762"},"vehicle_type_id":"4","last_reported":1719162371,"current_range_meters":0,"station_id":"ce4bhg12rcd13ifvqf80","pricing_plan_id":"cebpf4jnsgd1na2vs0mg"},{"bike_id":"af4289d9-5b59-45aa-ae85-f34f48586412","system_id":"levelo_inurba_marseille","lat":43.292569,"lon":5.409107,"is_reserved":false,"is_disabled":false,"rental_uris":{"android":"levelo://app?vid=af4289d9-5b59-45aa-ae85-f34f48586412","ios":"levelo://app?vid=af4289d9-5b59-45aa-ae85-f34f48586412"},"vehicle_type_id":"4","last_reported":1719162371,"current_range_meters":6000,"station_id":"ce4bh192rcd13ifvqdc0","pricing_plan_id":"cebpf4jnsgd1na2vs0mg"},{"bike_id":"f3615187-e6f6-4d0a-9aea-ef48a3c4cd24","system_id":"levelo_inurba_marseille","lat":43.275809,"lon":5.37765,"is_reserved":false,"is_disabled":false,"rental_uris":{"android":"levelo://app?vid=f3615187-e6f6-4d0a-9aea-ef48a3c4cd24","ios":"levelo://app?vid=f3615187-e6f6-4d0a-9aea-ef48a3c4cd24"},"vehicle_type_id":"4","last_reported":1719162371,"current_range_meters":22800,"station_id":"","pricing_plan_id":"cebpf4jnsgd1na2vs0mg"},{"bike_id":"88e5158c-fa12-49e2-acd8-702b6b87ced7","system_id":"levelo_inurba_marseille","lat":43.303837,"lon":5.418724,"is_reserved":false,"is_disabled":false,"rental_uris":{"android":"levelo://app?vid=88e5158c-fa12-49e2-acd8-702b6b87ced7","ios":"levelo://app?vid=88e5158c-fa12-49e2-acd8-702b6b87ced7"},"vehicle_type_id":"4","last_reported":1719162371,"current_range_meters":18800,"station_id":"ce4bhop2rcd13ifvqh7g","pricing_plan_id":"cebpf4jnsgd1na2vs0mg"},{"bike_id":"81c85b6a-a6d5-4986-bab5-1ca777c14482","system_id":"levelo_inurba_marseille","lat":43.303837,"lon":5.418724,"is_reserved":false,"is_disabled":false,"rental_uris":{"android":"levelo://app?vid=81c85b6a-a6d5-4986-bab5-1ca777c14482","ios":"levelo://app?vid=81c85b6a-a6d5-4986-bab5-1ca777c14482"},"vehicle_type_id":"4","last_reported":1719162371,"current_range_meters":5200,"station_id":"ce4bhop2rcd13ifvqh7g","pricing_plan_id":"cebpf4jnsgd1na2vs0mg"},{"bike_id":"5032540c-264a-4c0a-bc51-935089e09b34","system_id":"levelo_inurba_marseille","lat":43.27374,"lon":5.3626,"is_reserved":false,"is_disabled":false,"rental_uris":{"android":"levelo://app?vid=5032540c-264a-4c0a-bc51-935089e09b34","ios":"levelo://app?vid=5032540c-264a-4c0a-bc51-935089e09b34"},"vehicle_type_id":"4","last_reported":1719162371,"current_range_meters":0,"station_id":"ce4bhbh2rcd13ifvqeo0","pricing_plan_id":"cebpf4jnsgd1na2vs0mg"},{"bike_id":"7db2ba1d-8b9e-466c-82a4-799916bf23dc","system_id":"levelo_inurba_marseille","lat":43.27374,"lon":5.36257,"is_reserved":false,"is_disabled":false,"rental_uris":{"android":"levelo://app?vid=7db2ba1d-8b9e-466c-82a4-799916bf23dc","ios":"levelo://app?vid=7db2ba1d-8b9e-466c-82a4-799916bf23dc"},"vehicle_type_id":"4","last_reported":1719162371,"current_range_meters":0,"station_id":"ce4bhbh2rcd13ifvqeo0","pricing_plan_id":"cebpf4jnsgd1na2vs0mg"},{"bike_id":"2d9f1253-bdb9-48e5-a3cf-73f99f241405","system_id":"levelo_inurba_marseille","lat":43.336134,"lon":5.410341,"is_reserved":false,"is_disabled":false,"rental_uris":{"android":"levelo://app?vid=2d9f1253-bdb9-48e5-a3cf-73f99f241405","ios":"levelo://app?vid=2d9f1253-bdb9-48e5-a3cf-73f99f241405"},"vehicle_type_id":"4","last_reported":1719162371,"current_range_meters":7600,"station_id":"ce4bhqh2rcd13ifvqhmg","pricing_plan_id":"cebpf4jnsgd1na2vs0mg"},{"bike_id":"01354b9d-9ab3-41cf-a5b5-95b6cf8ffe0b","system_id":"levelo_inurba_marseille","lat":43.275625,"lon":5.384392,"is_reserved":false,"is_disabled":false,"rental_uris":{"android":"levelo://app?vid=01354b9d-9ab3-41cf-a5b5-95b6cf8ffe0b","ios":"levelo://app?vid=01354b9d-9ab3-41cf-a5b5-95b6cf8ffe0b"},"vehicle_type_id":"4","last_reported":1719162371,"current_range_meters":26800,"station_id":"ce4bhh92rcd13ifvqfi0","pricing_plan_id":"cebpf4jnsgd1na2vs0mg"},{"bike_id":"c8c8c75e-5edc-4ffd-94cc-660569176e53","system_id":"levelo_inurba_marseille","lat":43.272357,"lon":5.365513,"is_reserved":false,"is_disabled":false,"rental_uris":{"android":"levelo://app?vid=c8c8c75e-5edc-4ffd-94cc-660569176e53","ios":"levelo://app?vid=c8c8c75e-5edc-4ffd-94cc-660569176e53"},"vehicle_type_id":"4","last_reported":1719162371,"current_range_meters":0,"station_id":"","pricing_plan_id":"cebpf4jnsgd1na2vs0mg"},{"bike_id":"c155eed0-39f4-4aa2-8a39-a469cfc315b3","system_id":"levelo_inurba_marseille","lat":43.279952,"lon":5.400085,"is_reserved":false,"is_disabled":false,"rental_uris":{"android":"levelo://app?vid=c155eed0-39f4-4aa2-8a39-a469cfc315b3","ios":"levelo://app?vid=c155eed0-39f4-4aa2-8a39-a469cfc315b3"},"vehicle_type_id":"4","last_reported":1719162371,"current_range_meters":28800,"station_id":"ce4bho92rcd13ifvqh4g","pricing_plan_id":"cebpf4jnsgd1na2vs0mg"},{"bike_id":"e445336f-c1cc-41e7-b7d9-5464c1e4ea01","system_id":"levelo_inurba_marseille","lat":43.279975,"lon":5.40009,"is_reserved":false,"is_disabled":false,"rental_uris":{"android":"levelo://app?vid=e445336f-c1cc-41e7-b7d9-5464c1e4ea01","ios":"levelo://app?vid=e445336f-c1cc-41e7-b7d9-5464c1e4ea01"},"vehicle_type_id":"4","last_reported":1719162371,"current_range_meters":29200,"station_id":"ce4bho92rcd13ifvqh4g","pricing_plan_id":"cebpf4jnsgd1na2vs0mg"},{"bike_id":"ba9ab7a8-b44c-437f-985b-528fe7112956","system_id":"levelo_inurba_marseille","lat":43.279975,"lon":5.40009,"is_reserved":false,"is_disabled":false,"rental_uris":{"android":"levelo://app?vid=ba9ab7a8-b44c-437f-985b-528fe7112956","ios":"levelo://app?vid=ba9ab7a8-b44c-437f-985b-528fe7112956"},"vehicle_type_id":"4","last_reported":1719162371,"current_range_meters":9600,"station_id":"ce4bho92rcd13ifvqh4g","pricing_plan_id":"cebpf4jnsgd1na2vs0mg"},{"bike_id":"0b47ebe1-1daa-4a7a-9bb2-c34271f583cc","system_id":"levelo_inurba_marseille","lat":43.317121,"lon":5.423936,"is_reserved":false,"is_disabled":false,"rental_uris":{"android":"levelo://app?vid=0b47ebe1-1daa-4a7a-9bb2-c34271f583cc","ios":"levelo://app?vid=0b47ebe1-1daa-4a7a-9bb2-c34271f583cc"},"vehicle_type_id":"4","last_reported":1719162371,"current_range_meters":21600,"station_id":"ce4bhp92rcd13ifvqhbg","pricing_plan_id":"cebpf4jnsgd1na2vs0mg"},{"bike_id":"61115c7f-fac9-4eaf-9183-82484b3b9465","system_id":"levelo_inurba_marseille","lat":43.317121,"lon":5.423936,"is_reserved":false,"is_disabled":false,"rental_uris":{"android":"levelo://app?vid=61115c7f-fac9-4eaf-9183-82484b3b9465","ios":"levelo://app?vid=61115c7f-fac9-4eaf-9183-82484b3b9465"},"vehicle_type_id":"4","last_reported":1719162371,"current_range_meters":26000,"station_id":"ce4bhp92rcd13ifvqhbg","pricing_plan_id":"cebpf4jnsgd1na2vs0mg"},{"bike_id":"14354749-f68b-4b73-a740-2d6dd4d1d902","system_id":"levelo_inurba_marseille","lat":43.310785,"lon":5.424305,"is_reserved":false,"is_disabled":false,"rental_uris":{"android":"levelo://app?vid=14354749-f68b-4b73-a740-2d6dd4d1d902","ios":"levelo://app?vid=14354749-f68b-4b73-a740-2d6dd4d1d902"},"vehicle_type_id":"4","last_reported":1719162371,"current_range_meters":13200,"station_id":"ce4bhp92rcd13ifvqhag","pricing_plan_id":"cebpf4jnsgd1na2vs0mg"},{"bike_id":"5e5a9e63-977d-4b47-b0f4-c3f36dbcb5fa","system_id":"levelo_inurba_marseille","lat":43.295523,"lon":5.422926,"is_reserved":false,"is_disabled":false,"rental_uris":{"android":"levelo://app?vid=5e5a9e63-977d-4b47-b0f4-c3f36dbcb5fa","ios":"levelo://app?vid=5e5a9e63-977d-4b47-b0f4-c3f36dbcb5fa"},"vehicle_type_id":"4","last_reported":1719162371,"current_range_meters":30000,"station_id":"ce4bhph2rcd13ifvqhdg","pricing_plan_id":"cebpf4jnsgd1na2vs0mg"},{"bike_id":"c3d63b92-aa13-4934-b47a-e4a7c2cd8f19","system_id":"levelo_inurba_marseille","lat":43.272116,"lon":5.391747,"is_reserved":false,"is_disabled":false,"rental_uris":{"android":"levelo://app?vid=c3d63b92-aa13-4934-b47a-e4a7c2cd8f19","ios":"levelo://app?vid=c3d63b92-aa13-4934-b47a-e4a7c2cd8f19"},"vehicle_type_id":"4","last_reported":1719162371,"current_range_meters":23200,"station_id":"ce4bhhp2rcd13ifvqfm0","pricing_plan_id":"cebpf4jnsgd1na2vs0mg"},{"bike_id":"5b38bf3f-8456-48cb-a575-5d318c20a28a","system_id":"levelo_inurba_marseille","lat":43.27205,"lon":5.3919,"is_reserved":false,"is_disabled":false,"rental_uris":{"android":"levelo://app?vid=5b38bf3f-8456-48cb-a575-5d318c20a28a","ios":"levelo://app?vid=5b38bf3f-8456-48cb-a575-5d318c20a28a"},"vehicle_type_id":"4","last_reported":1719162371,"current_range_meters":20800,"station_id":"","pricing_plan_id":"cebpf4jnsgd1na2vs0mg"},{"bike_id":"8888c2ca-dda3-4cd7-ac77-3f360a9e1e7f","system_id":"levelo_inurba_marseille","lat":43.278128,"lon":5.407195,"is_reserved":false,"is_disabled":false,"rental_uris":{"android":"levelo://app?vid=8888c2ca-dda3-4cd7-ac77-3f360a9e1e7f","ios":"levelo://app?vid=8888c2ca-dda3-4cd7-ac77-3f360a9e1e7f"},"vehicle_type_id":"4","last_reported":1719162371,"current_range_meters":30000,"station_id":"ce4bhnh2rcd13ifvqgtg","pricing_plan_id":"cebpf4jnsgd1na2vs0mg"},{"bike_id":"3f5a61ea-93f0-42ae-a1bb-826dbfe1e82a","system_id":"levelo_inurba_marseille","lat":43.269467,"lon":5.386439,"is_reserved":false,"is_disabled":false,"rental_uris":{"android":"levelo://app?vid=3f5a61ea-93f0-42ae-a1bb-826dbfe1e82a","ios":"levelo://app?vid=3f5a61ea-93f0-42ae-a1bb-826dbfe1e82a"},"vehicle_type_id":"4","last_reported":1719162371,"current_range_meters":0,"station_id":"ce4bhh92rcd13ifvqfh0","pricing_plan_id":"cebpf4jnsgd1na2vs0mg"},{"bike_id":"c4f6d6ef-97e8-4241-b747-36eb12e62498","system_id":"levelo_inurba_marseille","lat":43.29829,"lon":5.42651,"is_reserved":false,"is_disabled":false,"rental_uris":{"android":"levelo://app?vid=c4f6d6ef-97e8-4241-b747-36eb12e62498","ios":"levelo://app?vid=c4f6d6ef-97e8-4241-b747-36eb12e62498"},"vehicle_type_id":"4","last_reported":1719162371,"current_range_meters":4400,"station_id":"","pricing_plan_id":"cebpf4jnsgd1na2vs0mg"},{"bike_id":"dd86f034-a8d3-44c6-92b9-075dcf3dfa52","system_id":"levelo_inurba_marseille","lat":43.27947,"lon":5.41053,"is_reserved":false,"is_disabled":false,"rental_uris":{"android":"levelo://app?vid=dd86f034-a8d3-44c6-92b9-075dcf3dfa52","ios":"levelo://app?vid=dd86f034-a8d3-44c6-92b9-075dcf3dfa52"},"vehicle_type_id":"4","last_reported":1719162371,"current_range_meters":0,"station_id":"ce4bhnp2rcd13ifvqh0g","pricing_plan_id":"cebpf4jnsgd1na2vs0mg"},{"bike_id":"9ebb47ab-a8fb-427c-b700-114f8ea944c2","system_id":"levelo_inurba_marseille","lat":43.279465,"lon":5.410561,"is_reserved":false,"is_disabled":false,"rental_uris":{"android":"levelo://app?vid=9ebb47ab-a8fb-427c-b700-114f8ea944c2","ios":"levelo://app?vid=9ebb47ab-a8fb-427c-b700-114f8ea944c2"},"vehicle_type_id":"4","last_reported":1719162371,"current_range_meters":1200,"station_id":"ce4bhnp2rcd13ifvqh0g","pricing_plan_id":"cebpf4jnsgd1na2vs0mg"},{"bike_id":"f99034fd-1678-47cc-ae91-581dfc2bb49a","system_id":"levelo_inurba_marseille","lat":43.26681,"lon":5.382694,"is_reserved":false,"is_disabled":false,"rental_uris":{"android":"levelo://app?vid=f99034fd-1678-47cc-ae91-581dfc2bb49a","ios":"levelo://app?vid=f99034fd-1678-47cc-ae91-581dfc2bb49a"},"vehicle_type_id":"4","last_reported":1719162371,"current_range_meters":0,"station_id":"ce4bhg92rcd13ifvqf90","pricing_plan_id":"cebpf4jnsgd1na2vs0mg"},{"bike_id":"7d6b68ed-dea8-4f9e-9e01-8aa0086e0566","system_id":"levelo_inurba_marseille","lat":43.26681,"lon":5.382694,"is_reserved":false,"is_disabled":false,"rental_uris":{"android":"levelo://app?vid=7d6b68ed-dea8-4f9e-9e01-8aa0086e0566","ios":"levelo://app?vid=7d6b68ed-dea8-4f9e-9e01-8aa0086e0566"},"vehicle_type_id":"4","last_reported":1719162371,"current_range_meters":18400,"station_id":"ce4bhg92rcd13ifvqf90","pricing_plan_id":"cebpf4jnsgd1na2vs0mg"},{"bike_id":"919deacd-9a26-49e0-af70-bf5f0593b48a","system_id":"levelo_inurba_marseille","lat":43.26681,"lon":5.382694,"is_reserved":false,"is_disabled":false,"rental_uris":{"android":"levelo://app?vid=919deacd-9a26-49e0-af70-bf5f0593b48a","ios":"levelo://app?vid=919deacd-9a26-49e0-af70-bf5f0593b48a"},"vehicle_type_id":"4","last_reported":1719162371,"current_range_meters":28800,"station_id":"ce4bhg92rcd13ifvqf90","pricing_plan_id":"cebpf4jnsgd1na2vs0mg"},{"bike_id":"9021fb3a-b83d-4b0b-8ae2-1b5c68c62bf1","system_id":"levelo_inurba_marseille","lat":43.267848,"lon":5.389426,"is_reserved":false,"is_disabled":false,"rental_uris":{"android":"levelo://app?vid=9021fb3a-b83d-4b0b-8ae2-1b5c68c62bf1","ios":"levelo://app?vid=9021fb3a-b83d-4b0b-8ae2-1b5c68c62bf1"},"vehicle_type_id":"4","last_reported":1719162371,"current_range_meters":0,"station_id":"","pricing_plan_id":"cebpf4jnsgd1na2vs0mg"},{"bike_id":"42723fa8-3747-4fbe-9053-958bed067210","system_id":"levelo_inurba_marseille","lat":43.267966,"lon":5.393976,"is_reserved":false,"is_disabled":false,"rental_uris":{"android":"levelo://app?vid=42723fa8-3747-4fbe-9053-958bed067210","ios":"levelo://app?vid=42723fa8-3747-4fbe-9053-958bed067210"},"vehicle_type_id":"4","last_reported":1719162371,"current_range_meters":27600,"station_id":"ce4bhh12rcd13ifvqfg0","pricing_plan_id":"cebpf4jnsgd1na2vs0mg"},{"bike_id":"f9bfe7d0-ae4a-42a9-a368-4ecf2d4d3caa","system_id":"levelo_inurba_marseille","lat":43.267966,"lon":5.393976,"is_reserved":false,"is_disabled":false,"rental_uris":{"android":"levelo://app?vid=f9bfe7d0-ae4a-42a9-a368-4ecf2d4d3caa","ios":"levelo://app?vid=f9bfe7d0-ae4a-42a9-a368-4ecf2d4d3caa"},"vehicle_type_id":"4","last_reported":1719162371,"current_range_meters":2800,"station_id":"ce4bhh12rcd13ifvqfg0","pricing_plan_id":"cebpf4jnsgd1na2vs0mg"},{"bike_id":"783f18f7-4895-46bb-a48e-495a2dd283c7","system_id":"levelo_inurba_marseille","lat":43.267966,"lon":5.393976,"is_reserved":false,"is_disabled":false,"rental_uris":{"android":"levelo://app?vid=783f18f7-4895-46bb-a48e-495a2dd283c7","ios":"levelo://app?vid=783f18f7-4895-46bb-a48e-495a2dd283c7"},"vehicle_type_id":"4","last_reported":1719162371,"current_range_meters":22800,"station_id":"ce4bhh12rcd13ifvqfg0","pricing_plan_id":"cebpf4jnsgd1na2vs0mg"},{"bike_id":"f3cfe14f-b316-4323-ba2a-9915cd99aacf","system_id":"levelo_inurba_marseille","lat":43.308051,"lon":5.43527,"is_reserved":false,"is_disabled":false,"rental_uris":{"android":"levelo://app?vid=f3cfe14f-b316-4323-ba2a-9915cd99aacf","ios":"levelo://app?vid=f3cfe14f-b316-4323-ba2a-9915cd99aacf"},"vehicle_type_id":"4","last_reported":1719162371,"current_range_meters":31200,"station_id":"ce4bhph2rcd13ifvqheg","pricing_plan_id":"cebpf4jnsgd1na2vs0mg"},{"bike_id":"34d42927-0258-4933-924b-8dd3a08735e0","system_id":"levelo_inurba_marseille","lat":43.308044,"lon":5.435234,"is_reserved":false,"is_disabled":false,"rental_uris":{"android":"levelo://app?vid=34d42927-0258-4933-924b-8dd3a08735e0","ios":"levelo://app?vid=34d42927-0258-4933-924b-8dd3a08735e0"},"vehicle_type_id":"4","last_reported":1719162371,"current_range_meters":2400,"station_id":"ce4bhph2rcd13ifvqheg","pricing_plan_id":"cebpf4jnsgd1na2vs0mg"},{"bike_id":"2d1aa6c4-a28b-45fb-aae0-b39d545de960","system_id":"levelo_inurba_marseille","lat":43.308,"lon":5.43524,"is_reserved":false,"is_disabled":false,"rental_uris":{"android":"levelo://app?vid=2d1aa6c4-a28b-45fb-aae0-b39d545de960","ios":"levelo://app?vid=2d1aa6c4-a28b-45fb-aae0-b39d545de960"},"vehicle_type_id":"4","last_reported":1719162371,"current_range_meters":22400,"station_id":"ce4bhph2rcd13ifvqheg","pricing_plan_id":"cebpf4jnsgd1na2vs0mg"},{"bike_id":"b9b448d5-817a-4c8f-b79c-4539e6b1a5f3","system_id":"levelo_inurba_marseille","lat":43.307998,"lon":5.43524,"is_reserved":false,"is_disabled":false,"rental_uris":{"android":"levelo://app?vid=b9b448d5-817a-4c8f-b79c-4539e6b1a5f3","ios":"levelo://app?vid=b9b448d5-817a-4c8f-b79c-4539e6b1a5f3"},"vehicle_type_id":"4","last_reported":1719162371,"current_range_meters":28000,"station_id":"ce4bhph2rcd13ifvqheg","pricing_plan_id":"cebpf4jnsgd1na2vs0mg"},{"bike_id":"ae7fa3b3-3cd8-427a-a028-53c7f7d4a015","system_id":"levelo_inurba_marseille","lat":43.308051,"lon":5.43527,"is_reserved":false,"is_disabled":false,"rental_uris":{"android":"levelo://app?vid=ae7fa3b3-3cd8-427a-a028-53c7f7d4a015","ios":"levelo://app?vid=ae7fa3b3-3cd8-427a-a028-53c7f7d4a015"},"vehicle_type_id":"4","last_reported":1719162371,"current_range_meters":28000,"station_id":"ce4bhph2rcd13ifvqheg","pricing_plan_id":"cebpf4jnsgd1na2vs0mg"},{"bike_id":"6b1233e7-ed0c-49a4-8367-4ecfe7c07720","system_id":"levelo_inurba_marseille","lat":43.308051,"lon":5.43527,"is_reserved":false,"is_disabled":false,"rental_uris":{"android":"levelo://app?vid=6b1233e7-ed0c-49a4-8367-4ecfe7c07720","ios":"levelo://app?vid=6b1233e7-ed0c-49a4-8367-4ecfe7c07720"},"vehicle_type_id":"4","last_reported":1719162371,"current_range_meters":24000,"station_id":"ce4bhph2rcd13ifvqheg","pricing_plan_id":"cebpf4jnsgd1na2vs0mg"},{"bike_id":"419b3594-83ce-4d41-a236-911bb28f7014","system_id":"levelo_inurba_marseille","lat":43.265569,"lon":5.390047,"is_reserved":false,"is_disabled":false,"rental_uris":{"android":"levelo://app?vid=419b3594-83ce-4d41-a236-911bb28f7014","ios":"levelo://app?vid=419b3594-83ce-4d41-a236-911bb28f7014"},"vehicle_type_id":"4","last_reported":1719162371,"current_range_meters":14400,"station_id":"ce4bhe12rcd13ifvqf30","pricing_plan_id":"cebpf4jnsgd1na2vs0mg"},{"bike_id":"f54444e5-928a-4b18-81d5-e1178209c636","system_id":"levelo_inurba_marseille","lat":43.265569,"lon":5.390047,"is_reserved":false,"is_disabled":false,"rental_uris":{"android":"levelo://app?vid=f54444e5-928a-4b18-81d5-e1178209c636","ios":"levelo://app?vid=f54444e5-928a-4b18-81d5-e1178209c636"},"vehicle_type_id":"4","last_reported":1719162371,"current_range_meters":26400,"station_id":"ce4bhe12rcd13ifvqf30","pricing_plan_id":"cebpf4jnsgd1na2vs0mg"},{"bike_id":"dcb8d40f-e4c4-4871-90e2-d568b49677a5","system_id":"levelo_inurba_marseille","lat":43.26214,"lon":5.37441,"is_reserved":false,"is_disabled":false,"rental_uris":{"android":"levelo://app?vid=dcb8d40f-e4c4-4871-90e2-d568b49677a5","ios":"levelo://app?vid=dcb8d40f-e4c4-4871-90e2-d568b49677a5"},"vehicle_type_id":"4","last_reported":1719162371,"current_range_meters":0,"station_id":"ce4bhgp2rcd13ifvqfc0","pricing_plan_id":"cebpf4jnsgd1na2vs0mg"},{"bike_id":"578c84d1-47ba-4486-a540-7b7fccc30ca4","system_id":"levelo_inurba_marseille","lat":43.2621,"lon":5.37447,"is_reserved":false,"is_disabled":false,"rental_uris":{"android":"levelo://app?vid=578c84d1-47ba-4486-a540-7b7fccc30ca4","ios":"levelo://app?vid=578c84d1-47ba-4486-a540-7b7fccc30ca4"},"vehicle_type_id":"4","last_reported":1719162371,"current_range_meters":0,"station_id":"ce4bhgp2rcd13ifvqfc0","pricing_plan_id":"cebpf4jnsgd1na2vs0mg"},{"bike_id":"dff0e6e2-4aad-454e-8ce8-98fcf8e21534","system_id":"levelo_inurba_marseille","lat":43.26209,"lon":5.3744,"is_reserved":false,"is_disabled":false,"rental_uris":{"android":"levelo://app?vid=dff0e6e2-4aad-454e-8ce8-98fcf8e21534","ios":"levelo://app?vid=dff0e6e2-4aad-454e-8ce8-98fcf8e21534"},"vehicle_type_id":"4","last_reported":1719162371,"current_range_meters":0,"station_id":"ce4bhgp2rcd13ifvqfc0","pricing_plan_id":"cebpf4jnsgd1na2vs0mg"},{"bike_id":"21a18a02-381d-4700-acab-98af52c4fe97","system_id":"levelo_inurba_marseille","lat":43.26209,"lon":5.37443,"is_reserved":false,"is_disabled":false,"rental_uris":{"android":"levelo://app?vid=21a18a02-381d-4700-acab-98af52c4fe97","ios":"levelo://app?vid=21a18a02-381d-4700-acab-98af52c4fe97"},"vehicle_type_id":"4","last_reported":1719162371,"current_range_meters":0,"station_id":"ce4bhgp2rcd13ifvqfc0","pricing_plan_id":"cebpf4jnsgd1na2vs0mg"},{"bike_id":"b4f91d62-d53b-4364-badc-27027aec4d1e","system_id":"levelo_inurba_marseille","lat":43.26208,"lon":5.3744,"is_reserved":false,"is_disabled":false,"rental_uris":{"android":"levelo://app?vid=b4f91d62-d53b-4364-badc-27027aec4d1e","ios":"levelo://app?vid=b4f91d62-d53b-4364-badc-27027aec4d1e"},"vehicle_type_id":"4","last_reported":1719162371,"current_range_meters":0,"station_id":"ce4bhgp2rcd13ifvqfc0","pricing_plan_id":"cebpf4jnsgd1na2vs0mg"},{"bike_id":"dc97493a-59d6-4b35-96fc-1739bbf07a76","system_id":"levelo_inurba_marseille","lat":43.261782,"lon":5.374515,"is_reserved":false,"is_disabled":false,"rental_uris":{"android":"levelo://app?vid=dc97493a-59d6-4b35-96fc-1739bbf07a76","ios":"levelo://app?vid=dc97493a-59d6-4b35-96fc-1739bbf07a76"},"vehicle_type_id":"4","last_reported":1719162371,"current_range_meters":0,"station_id":"ce4bhgp2rcd13ifvqfc0","pricing_plan_id":"cebpf4jnsgd1na2vs0mg"},{"bike_id":"80a8b599-251e-4c68-bf71-36d56f8a370d","system_id":"levelo_inurba_marseille","lat":43.26203,"lon":5.37447,"is_reserved":false,"is_disabled":false,"rental_uris":{"android":"levelo://app?vid=80a8b599-251e-4c68-bf71-36d56f8a370d","ios":"levelo://app?vid=80a8b599-251e-4c68-bf71-36d56f8a370d"},"vehicle_type_id":"4","last_reported":1719162371,"current_range_meters":0,"station_id":"ce4bhgp2rcd13ifvqfc0","pricing_plan_id":"cebpf4jnsgd1na2vs0mg"},{"bike_id":"8ce6f11d-3498-4348-ba6f-f1952cfd11c5","system_id":"levelo_inurba_marseille","lat":43.261933,"lon":5.37451,"is_reserved":false,"is_disabled":false,"rental_uris":{"android":"levelo://app?vid=8ce6f11d-3498-4348-ba6f-f1952cfd11c5","ios":"levelo://app?vid=8ce6f11d-3498-4348-ba6f-f1952cfd11c5"},"vehicle_type_id":"4","last_reported":1719162371,"current_range_meters":15600,"station_id":"ce4bhgp2rcd13ifvqfc0","pricing_plan_id":"cebpf4jnsgd1na2vs0mg"},{"bike_id":"053f218d-80ea-431f-8ce1-21e57cc224ca","system_id":"levelo_inurba_marseille","lat":43.26554,"lon":5.39493,"is_reserved":false,"is_disabled":false,"rental_uris":{"android":"levelo://app?vid=053f218d-80ea-431f-8ce1-21e57cc224ca","ios":"levelo://app?vid=053f218d-80ea-431f-8ce1-21e57cc224ca"},"vehicle_type_id":"4","last_reported":1719162371,"current_range_meters":12800,"station_id":"","pricing_plan_id":"cebpf4jnsgd1na2vs0mg"},{"bike_id":"67c38b2e-27f3-4d1c-b00e-a31e90a56b95","system_id":"levelo_inurba_marseille","lat":43.26211,"lon":5.37927,"is_reserved":false,"is_disabled":false,"rental_uris":{"android":"levelo://app?vid=67c38b2e-27f3-4d1c-b00e-a31e90a56b95","ios":"levelo://app?vid=67c38b2e-27f3-4d1c-b00e-a31e90a56b95"},"vehicle_type_id":"4","last_reported":1719162371,"current_range_meters":0,"station_id":"ce4bhjp2rcd13ifvqg90","pricing_plan_id":"cebpf4jnsgd1na2vs0mg"},{"bike_id":"5c841605-b7c9-4c78-af4b-a5a733bcfc92","system_id":"levelo_inurba_marseille","lat":43.271388,"lon":5.409269,"is_reserved":false,"is_disabled":false,"rental_uris":{"android":"levelo://app?vid=5c841605-b7c9-4c78-af4b-a5a733bcfc92","ios":"levelo://app?vid=5c841605-b7c9-4c78-af4b-a5a733bcfc92"},"vehicle_type_id":"4","last_reported":1719162371,"current_range_meters":19600,"station_id":"ce4bhl12rcd13ifvqgf0","pricing_plan_id":"cebpf4jnsgd1na2vs0mg"},{"bike_id":"2aa53def-232a-48ff-b0a2-a3551d8b7a08","system_id":"levelo_inurba_marseille","lat":43.27175,"lon":5.40988,"is_reserved":false,"is_disabled":false,"rental_uris":{"android":"levelo://app?vid=2aa53def-232a-48ff-b0a2-a3551d8b7a08","ios":"levelo://app?vid=2aa53def-232a-48ff-b0a2-a3551d8b7a08"},"vehicle_type_id":"4","last_reported":1719162371,"current_range_meters":30000,"station_id":"ce4bhl12rcd13ifvqgf0","pricing_plan_id":"cebpf4jnsgd1na2vs0mg"},{"bike_id":"0bbf1bd5-6a08-45d8-b183-776e795df81a","system_id":"levelo_inurba_marseille","lat":43.271368,"lon":5.40928,"is_reserved":false,"is_disabled":false,"rental_uris":{"android":"levelo://app?vid=0bbf1bd5-6a08-45d8-b183-776e795df81a","ios":"levelo://app?vid=0bbf1bd5-6a08-45d8-b183-776e795df81a"},"vehicle_type_id":"4","last_reported":1719162371,"current_range_meters":6800,"station_id":"ce4bhl12rcd13ifvqgf0","pricing_plan_id":"cebpf4jnsgd1na2vs0mg"},{"bike_id":"b1d453f5-3c00-4c46-ac3f-e2df11ebff40","system_id":"levelo_inurba_marseille","lat":43.27175,"lon":5.40994,"is_reserved":false,"is_disabled":false,"rental_uris":{"android":"levelo://app?vid=b1d453f5-3c00-4c46-ac3f-e2df11ebff40","ios":"levelo://app?vid=b1d453f5-3c00-4c46-ac3f-e2df11ebff40"},"vehicle_type_id":"4","last_reported":1719162371,"current_range_meters":0,"station_id":"ce4bhl12rcd13ifvqgf0","pricing_plan_id":"cebpf4jnsgd1na2vs0mg"},{"bike_id":"6c022145-f9e7-4afc-8867-d61fdcc9ea19","system_id":"levelo_inurba_marseille","lat":43.26808,"lon":5.40273,"is_reserved":false,"is_disabled":false,"rental_uris":{"android":"levelo://app?vid=6c022145-f9e7-4afc-8867-d61fdcc9ea19","ios":"levelo://app?vid=6c022145-f9e7-4afc-8867-d61fdcc9ea19"},"vehicle_type_id":"4","last_reported":1719162371,"current_range_meters":6800,"station_id":"ce501612rcd8frsf0b60","pricing_plan_id":"cebpf4jnsgd1na2vs0mg"},{"bike_id":"60454192-c1ae-4f7f-b2c9-8211c825b57e","system_id":"levelo_inurba_marseille","lat":43.264958,"lon":5.395433,"is_reserved":false,"is_disabled":false,"rental_uris":{"android":"levelo://app?vid=60454192-c1ae-4f7f-b2c9-8211c825b57e","ios":"levelo://app?vid=60454192-c1ae-4f7f-b2c9-8211c825b57e"},"vehicle_type_id":"4","last_reported":1719162371,"current_range_meters":15200,"station_id":"ce4bhi12rcd13ifvqfq0","pricing_plan_id":"cebpf4jnsgd1na2vs0mg"},{"bike_id":"8dec0121-79f6-4486-be05-74936aa40442","system_id":"levelo_inurba_marseille","lat":43.298768,"lon":5.43643,"is_reserved":false,"is_disabled":false,"rental_uris":{"android":"levelo://app?vid=8dec0121-79f6-4486-be05-74936aa40442","ios":"levelo://app?vid=8dec0121-79f6-4486-be05-74936aa40442"},"vehicle_type_id":"4","last_reported":1719162371,"current_range_meters":29600,"station_id":"ce4bhpp2rcd13ifvqhfg","pricing_plan_id":"cebpf4jnsgd1na2vs0mg"},{"bike_id":"7e4bc5b0-f026-4a1f-9f2d-dfc707549f98","system_id":"levelo_inurba_marseille","lat":43.298768,"lon":5.43643,"is_reserved":false,"is_disabled":false,"rental_uris":{"android":"levelo://app?vid=7e4bc5b0-f026-4a1f-9f2d-dfc707549f98","ios":"levelo://app?vid=7e4bc5b0-f026-4a1f-9f2d-dfc707549f98"},"vehicle_type_id":"4","last_reported":1719162371,"current_range_meters":19600,"station_id":"ce4bhpp2rcd13ifvqhfg","pricing_plan_id":"cebpf4jnsgd1na2vs0mg"},{"bike_id":"92738574-9899-4aa1-a96f-cd3ab41870b5","system_id":"levelo_inurba_marseille","lat":43.298768,"lon":5.43643,"is_reserved":false,"is_disabled":false,"rental_uris":{"android":"levelo://app?vid=92738574-9899-4aa1-a96f-cd3ab41870b5","ios":"levelo://app?vid=92738574-9899-4aa1-a96f-cd3ab41870b5"},"vehicle_type_id":"4","last_reported":1719162371,"current_range_meters":17600,"station_id":"ce4bhpp2rcd13ifvqhfg","pricing_plan_id":"cebpf4jnsgd1na2vs0mg"},{"bike_id":"4f53d35f-0e0f-453b-8602-e606fab1ca1a","system_id":"levelo_inurba_marseille","lat":43.29896,"lon":5.43676,"is_reserved":false,"is_disabled":false,"rental_uris":{"android":"levelo://app?vid=4f53d35f-0e0f-453b-8602-e606fab1ca1a","ios":"levelo://app?vid=4f53d35f-0e0f-453b-8602-e606fab1ca1a"},"vehicle_type_id":"4","last_reported":1719162371,"current_range_meters":2400,"station_id":"ce4bhpp2rcd13ifvqhfg","pricing_plan_id":"cebpf4jnsgd1na2vs0mg"},{"bike_id":"13811d3f-5031-47dd-a60e-bff0c8cf5c7e","system_id":"levelo_inurba_marseille","lat":43.277663,"lon":5.421613,"is_reserved":false,"is_disabled":false,"rental_uris":{"android":"levelo://app?vid=13811d3f-5031-47dd-a60e-bff0c8cf5c7e","ios":"levelo://app?vid=13811d3f-5031-47dd-a60e-bff0c8cf5c7e"},"vehicle_type_id":"4","last_reported":1719162371,"current_range_meters":26400,"station_id":"","pricing_plan_id":"cebpf4jnsgd1na2vs0mg"},{"bike_id":"826aec98-b9f8-41df-a381-bf5fd786bf4e","system_id":"levelo_inurba_marseille","lat":43.281548,"lon":5.42643,"is_reserved":false,"is_disabled":false,"rental_uris":{"android":"levelo://app?vid=826aec98-b9f8-41df-a381-bf5fd786bf4e","ios":"levelo://app?vid=826aec98-b9f8-41df-a381-bf5fd786bf4e"},