{"last_updated":1746043886,"ttl":60,"version":"2.2","data":{"bikes":[{"bike_id":"ff5e65f6-5df8-4506-ad88-2ad7ed26bbc2","system_id":"levelo_inurba_marseille","lat":43.27493,"lon":5.424518,"is_reserved":false,"is_disabled":false,"rental_uris":{"android":"levelo://app?vid=ff5e65f6-5df8-4506-ad88-2ad7ed26bbc2","ios":"levelo://app?vid=ff5e65f6-5df8-4506-ad88-2ad7ed26bbc2"},"vehicle_type_id":"4","last_reported":1746043886,"current_range_meters":2800,"station_id":"ce4bhn92rcd13ifvqgrg","pricing_plan_id":"cebpf4jnsgd1na2vs0mg"},{"bike_id":"2d7fdb48-0747-4fd1-9f5c-b36a64f8f2ce","system_id":"levelo_inurba_marseille","lat":43.30787,"lon":5.37656,"is_reserved":false,"is_disabled":false,"rental_uris":{"android":"levelo://app?vid=2d7fdb48-0747-4fd1-9f5c-b36a64f8f2ce","ios":"levelo://app?vid=2d7fdb48-0747-4fd1-9f5c-b36a64f8f2ce"},"vehicle_type_id":"4","last_reported":1746043886,"current_range_meters":2800,"station_id":"ce4bgv92rcd13ifvqcq0","pricing_plan_id":"cebpf4jnsgd1na2vs0mg"},{"bike_id":"fa0013e1-384c-4a43-9dc8-c63fff3d2b7e","system_id":"levelo_inurba_marseille","lat":43.23188,"lon":5.39983,"is_reserved":false,"is_disabled":false,"rental_uris":{"android":"levelo://app?vid=fa0013e1-384c-4a43-9dc8-c63fff3d2b7e","ios":"levelo://app?vid=fa0013e1-384c-4a43-9dc8-c63fff3d2b7e"},"vehicle_type_id":"4","last_reported":1746043886,"current_range_meters":2800,"station_id":"ce4bhn12rcd13ifvqgqg","pricing_plan_id":"cebpf4jnsgd1na2vs0mg"},{"bike_id":"2a551b1b-4d87-48ae-97ba-2942b5cf47ee","system_id":"levelo_inurba_marseille","lat":43.28833,"lon":5.35841,"is_reserved":false,"is_disabled":false,"rental_uris":{"android":"levelo://app?vid=2a551b1b-4d87-48ae-97ba-2942b5cf47ee","ios":"levelo://app?vid=2a551b1b-4d87-48ae-97ba-2942b5cf47ee"},"vehicle_type_id":"4","last_reported":1746043886,"current_range_meters":3200,"station_id":"ce4bhb12rcd13ifvqem0","pricing_plan_id":"cebpf4jnsgd1na2vs0mg"},{"bike_id":"2c6255ff-eda1-4e3b-a811-5265580347d3","system_id":"levelo_inurba_marseille","lat":43.305908,"lon":5.372448,"is_reserved":false,"is_disabled":false,"rental_uris":{"android":"levelo://app?vid=2c6255ff-eda1-4e3b-a811-5265580347d3","ios":"levelo://app?vid=2c6255ff-eda1-4e3b-a811-5265580347d3"},"vehicle_type_id":"4","last_reported":1746043886,"current_range_meters":3200,"station_id":"ce4bgqh2rcd13ifvqc4g","pricing_plan_id":"cebpf4jnsgd1na2vs0mg"},{"bike_id":"e2371a4c-05c1-42c7-85e4-02b2e2b744ca","system_id":"levelo_inurba_marseille","lat":43.29411,"lon":5.38603,"is_reserved":false,"is_disabled":false,"rental_uris":{"android":"levelo://app?vid=e2371a4c-05c1-42c7-85e4-02b2e2b744ca","ios":"levelo://app?vid=e2371a4c-05c1-42c7-85e4-02b2e2b744ca"},"vehicle_type_id":"4","last_reported":1746043886,"current_range_meters":3600,"station_id":"ce4bh2h2rcd13ifvqdh0","pricing_plan_id":"cebpf4jnsgd1na2vs0mg"},{"bike_id":"83dd6c26-6b57-4452-9d59-efee847b56e6","system_id":"levelo_inurba_marseille","lat":43.324056,"lon":5.407182,"is_reserved":false,"is_disabled":false,"rental_uris":{"android":"levelo://app?vid=83dd6c26-6b57-4452-9d59-efee847b56e6","ios":"levelo://app?vid=83dd6c26-6b57-4452-9d59-efee847b56e6"},"vehicle_type_id":"4","last_reported":1746043886,"current_range_meters":3600,"station_id":"","pricing_plan_id":"cebpf4jnsgd1na2vs0mg"},{"bike_id":"bbd2c16f-e9d7-4104-a3ca-04e45cffbb51","system_id":"levelo_inurba_marseille","lat":43.29744,"lon":5.38069,"is_reserved":false,"is_disabled":false,"rental_uris":{"android":"levelo://app?vid=bbd2c16f-e9d7-4104-a3ca-04e45cffbb51","ios":"levelo://app?vid=bbd2c16f-e9d7-4104-a3ca-04e45cffbb51"},"vehicle_type_id":"4","last_reported":1746043886,"current_range_meters":3600,"station_id":"","pricing_plan_id":"cebpf4jnsgd1na2vs0mg"},{"bike_id":"9dc6c52b-5bad-470b-968b-2b16ec703c14","system_id":"levelo_inurba_marseille","lat":43.294451,"lon":5.386257,"is_reserved":false,"is_disabled":false,"rental_uris":{"android":"levelo://app?vid=9dc6c52b-5bad-470b-968b-2b16ec703c14","ios":"levelo://app?vid=9dc6c52b-5bad-470b-968b-2b16ec703c14"},"vehicle_type_id":"4","last_reported":1746043886,"current_range_meters":3600,"station_id":"ce4bgup2rcd13ifvqco0","pricing_plan_id":"cebpf4jnsgd1na2vs0mg"},{"bike_id":"d8834ec9-5a9c-4825-8f0d-cdf93fa7aaf0","system_id":"levelo_inurba_marseille","lat":43.29617,"lon":5.37304,"is_reserved":false,"is_disabled":false,"rental_uris":{"android":"levelo://app?vid=d8834ec9-5a9c-4825-8f0d-cdf93fa7aaf0","ios":"levelo://app?vid=d8834ec9-5a9c-4825-8f0d-cdf93fa7aaf0"},"vehicle_type_id":"4","last_reported":1746043886,"current_range_meters":3600,"station_id":"","pricing_plan_id":"cebpf4jnsgd1na2vs0mg"},{"bike_id":"59b7d06d-7759-4bc9-82b0-25b44c52d62d","system_id":"levelo_inurba_marseille","lat":43.24337,"lon":5.38537,"is_reserved":false,"is_disabled":false,"rental_uris":{"android":"levelo://app?vid=59b7d06d-7759-4bc9-82b0-25b44c52d62d","ios":"levelo://app?vid=59b7d06d-7759-4bc9-82b0-25b44c52d62d"},"vehicle_type_id":"4","last_reported":1746043886,"current_range_meters":4000,"station_id":"","pricing_plan_id":"cebpf4jnsgd1na2vs0mg"},{"bike_id":"d5b74762-40e9-46f4-8e27-c516360c5c22","system_id":"levelo_inurba_marseille","lat":43.25861,"lon":5.399,"is_reserved":false,"is_disabled":false,"rental_uris":{"android":"levelo://app?vid=d5b74762-40e9-46f4-8e27-c516360c5c22","ios":"levelo://app?vid=d5b74762-40e9-46f4-8e27-c516360c5c22"},"vehicle_type_id":"4","last_reported":1746043886,"current_range_meters":4000,"station_id":"ce4bhl92rcd13ifvqghg","pricing_plan_id":"cebpf4jnsgd1na2vs0mg"},{"bike_id":"cec52d84-e0c4-479a-b290-23ca1fc0ff17","system_id":"levelo_inurba_marseille","lat":43.291043,"lon":5.385581,"is_reserved":false,"is_disabled":false,"rental_uris":{"android":"levelo://app?vid=cec52d84-e0c4-479a-b290-23ca1fc0ff17","ios":"levelo://app?vid=cec52d84-e0c4-479a-b290-23ca1fc0ff17"},"vehicle_type_id":"4","last_reported":1746043886,"current_range_meters":4000,"station_id":"ce4bh4p2rcd13ifvqe0g","pricing_plan_id":"cebpf4jnsgd1na2vs0mg"},{"bike_id":"92632a21-608c-4cc2-b4a4-caed3c242bbb","system_id":"levelo_inurba_marseille","lat":43.29304,"lon":5.37449,"is_reserved":false,"is_disabled":false,"rental_uris":{"android":"levelo://app?vid=92632a21-608c-4cc2-b4a4-caed3c242bbb","ios":"levelo://app?vid=92632a21-608c-4cc2-b4a4-caed3c242bbb"},"vehicle_type_id":"4","last_reported":1746043886,"current_range_meters":4000,"station_id":"ce4bgi12rcd13ifvqb70","pricing_plan_id":"cebpf4jnsgd1na2vs0mg"},{"bike_id":"070d9ec9-4552-4356-b8dd-e218d2e2a527","system_id":"levelo_inurba_marseille","lat":43.30611,"lon":5.37231,"is_reserved":false,"is_disabled":false,"rental_uris":{"android":"levelo://app?vid=070d9ec9-4552-4356-b8dd-e218d2e2a527","ios":"levelo://app?vid=070d9ec9-4552-4356-b8dd-e218d2e2a527"},"vehicle_type_id":"4","last_reported":1746043886,"current_range_meters":4000,"station_id":"ce4bgqh2rcd13ifvqc4g","pricing_plan_id":"cebpf4jnsgd1na2vs0mg"},{"bike_id":"0b78bcb4-a7c7-4bb1-95b8-395710e47ec7","system_id":"levelo_inurba_marseille","lat":43.23194,"lon":5.35554,"is_reserved":false,"is_disabled":false,"rental_uris":{"android":"levelo://app?vid=0b78bcb4-a7c7-4bb1-95b8-395710e47ec7","ios":"levelo://app?vid=0b78bcb4-a7c7-4bb1-95b8-395710e47ec7"},"vehicle_type_id":"4","last_reported":1746043886,"current_range_meters":4000,"station_id":"ce4bhu92rcd13ifvqi70","pricing_plan_id":"cebpf4jnsgd1na2vs0mg"},{"bike_id":"36f67612-f7bd-48ab-881f-ec27633b29dc","system_id":"levelo_inurba_marseille","lat":43.25506,"lon":5.3765,"is_reserved":false,"is_disabled":false,"rental_uris":{"android":"levelo://app?vid=36f67612-f7bd-48ab-881f-ec27633b29dc","ios":"levelo://app?vid=36f67612-f7bd-48ab-881f-ec27633b29dc"},"vehicle_type_id":"4","last_reported":1746043886,"current_range_meters":4000,"station_id":"ce4bhh12rcd13ifvqff0","pricing_plan_id":"cebpf4jnsgd1na2vs0mg"},{"bike_id":"3490be7f-1799-4bee-ab78-bf84c1d4dfb1","system_id":"levelo_inurba_marseille","lat":43.2942,"lon":5.38607,"is_reserved":false,"is_disabled":false,"rental_uris":{"android":"levelo://app?vid=3490be7f-1799-4bee-ab78-bf84c1d4dfb1","ios":"levelo://app?vid=3490be7f-1799-4bee-ab78-bf84c1d4dfb1"},"vehicle_type_id":"4","last_reported":1746043886,"current_range_meters":4400,"station_id":"ce4bh2h2rcd13ifvqdh0","pricing_plan_id":"cebpf4jnsgd1na2vs0mg"},{"bike_id":"afcfc311-5904-4981-aa11-cdbf8a3ed35c","system_id":"levelo_inurba_marseille","lat":43.31753,"lon":5.39017,"is_reserved":false,"is_disabled":false,"rental_uris":{"android":"levelo://app?vid=afcfc311-5904-4981-aa11-cdbf8a3ed35c","ios":"levelo://app?vid=afcfc311-5904-4981-aa11-cdbf8a3ed35c"},"vehicle_type_id":"4","last_reported":1746043886,"current_range_meters":4000,"station_id":"ce4bhqp2rcd13ifvqhng","pricing_plan_id":"cebpf4jnsgd1na2vs0mg"},{"bike_id":"06bb3fbc-1701-4a06-9cc8-e6b4858e3eeb","system_id":"levelo_inurba_marseille","lat":43.29549,"lon":5.36517,"is_reserved":false,"is_disabled":false,"rental_uris":{"android":"levelo://app?vid=06bb3fbc-1701-4a06-9cc8-e6b4858e3eeb","ios":"levelo://app?vid=06bb3fbc-1701-4a06-9cc8-e6b4858e3eeb"},"vehicle_type_id":"4","last_reported":1746043886,"current_range_meters":4400,"station_id":"","pricing_plan_id":"cebpf4jnsgd1na2vs0mg"},{"bike_id":"3188dfe6-844c-4009-80df-323ec3cbeae7","system_id":"levelo_inurba_marseille","lat":43.24073,"lon":5.37769,"is_reserved":false,"is_disabled":false,"rental_uris":{"android":"levelo://app?vid=3188dfe6-844c-4009-80df-323ec3cbeae7","ios":"levelo://app?vid=3188dfe6-844c-4009-80df-323ec3cbeae7"},"vehicle_type_id":"4","last_reported":1746043886,"current_range_meters":4800,"station_id":"ce4bhnp2rcd13ifvqgvg","pricing_plan_id":"cebpf4jnsgd1na2vs0mg"},{"bike_id":"d7ba89d0-fc18-4530-aa32-d16c667a0ab7","system_id":"levelo_inurba_marseille","lat":43.267859,"lon":5.394146,"is_reserved":false,"is_disabled":false,"rental_uris":{"android":"levelo://app?vid=d7ba89d0-fc18-4530-aa32-d16c667a0ab7","ios":"levelo://app?vid=d7ba89d0-fc18-4530-aa32-d16c667a0ab7"},"vehicle_type_id":"4","last_reported":1746043886,"current_range_meters":5600,"station_id":"ce4bhh12rcd13ifvqfg0","pricing_plan_id":"cebpf4jnsgd1na2vs0mg"},{"bike_id":"016584e5-e34e-4aa6-a0e5-e4d77d5b834e","system_id":"levelo_inurba_marseille","lat":43.30903,"lon":5.39622,"is_reserved":false,"is_disabled":false,"rental_uris":{"android":"levelo://app?vid=016584e5-e34e-4aa6-a0e5-e4d77d5b834e","ios":"levelo://app?vid=016584e5-e34e-4aa6-a0e5-e4d77d5b834e"},"vehicle_type_id":"4","last_reported":1746043886,"current_range_meters":5600,"station_id":"ce4bh012rcd13ifvqcv0","pricing_plan_id":"cebpf4jnsgd1na2vs0mg"},{"bike_id":"1dcc446a-e68e-4301-8be7-ba7034d39f15","system_id":"levelo_inurba_marseille","lat":43.29028,"lon":5.38653,"is_reserved":false,"is_disabled":false,"rental_uris":{"android":"levelo://app?vid=1dcc446a-e68e-4301-8be7-ba7034d39f15","ios":"levelo://app?vid=1dcc446a-e68e-4301-8be7-ba7034d39f15"},"vehicle_type_id":"4","last_reported":1746043886,"current_range_meters":5600,"station_id":"ce4bh4p2rcd13ifvqe0g","pricing_plan_id":"cebpf4jnsgd1na2vs0mg"},{"bike_id":"84d5119e-4ad0-4c28-a7bd-d79dc78e2102","system_id":"levelo_inurba_marseille","lat":43.30513,"lon":5.36565,"is_reserved":false,"is_disabled":false,"rental_uris":{"android":"levelo://app?vid=84d5119e-4ad0-4c28-a7bd-d79dc78e2102","ios":"levelo://app?vid=84d5119e-4ad0-4c28-a7bd-d79dc78e2102"},"vehicle_type_id":"4","last_reported":1746043886,"current_range_meters":6000,"station_id":"","pricing_plan_id":"cebpf4jnsgd1na2vs0mg"},{"bike_id":"8dcba578-e473-407f-82df-a55453af72a1","system_id":"levelo_inurba_marseille","lat":43.28837,"lon":5.39291,"is_reserved":false,"is_disabled":false,"rental_uris":{"android":"levelo://app?vid=8dcba578-e473-407f-82df-a55453af72a1","ios":"levelo://app?vid=8dcba578-e473-407f-82df-a55453af72a1"},"vehicle_type_id":"4","last_reported":1746043886,"current_range_meters":6000,"station_id":"ce4bh2p2rcd13ifvqdi0","pricing_plan_id":"cebpf4jnsgd1na2vs0mg"},{"bike_id":"29ad9e7f-42f5-4555-97aa-da888956bdcb","system_id":"levelo_inurba_marseille","lat":43.29266,"lon":5.38425,"is_reserved":false,"is_disabled":false,"rental_uris":{"android":"levelo://app?vid=29ad9e7f-42f5-4555-97aa-da888956bdcb","ios":"levelo://app?vid=29ad9e7f-42f5-4555-97aa-da888956bdcb"},"vehicle_type_id":"4","last_reported":1746043886,"current_range_meters":6000,"station_id":"ce4bh692rcd13ifvqea0","pricing_plan_id":"cebpf4jnsgd1na2vs0mg"},{"bike_id":"90dc989c-b7c1-4cbf-8f6b-c8e6baf966e4","system_id":"levelo_inurba_marseille","lat":43.29538,"lon":5.37513,"is_reserved":false,"is_disabled":false,"rental_uris":{"android":"levelo://app?vid=90dc989c-b7c1-4cbf-8f6b-c8e6baf966e4","ios":"levelo://app?vid=90dc989c-b7c1-4cbf-8f6b-c8e6baf966e4"},"vehicle_type_id":"4","last_reported":1746043886,"current_range_meters":6000,"station_id":"ce4bgkp2rcd13ifvqbmg","pricing_plan_id":"cebpf4jnsgd1na2vs0mg"},{"bike_id":"e559a6eb-5f53-4cf6-b5a9-bad5f1dafb25","system_id":"levelo_inurba_marseille","lat":43.28607,"lon":5.37066,"is_reserved":false,"is_disabled":false,"rental_uris":{"android":"levelo://app?vid=e559a6eb-5f53-4cf6-b5a9-bad5f1dafb25","ios":"levelo://app?vid=e559a6eb-5f53-4cf6-b5a9-bad5f1dafb25"},"vehicle_type_id":"4","last_reported":1746043886,"current_range_meters":6000,"station_id":"","pricing_plan_id":"cebpf4jnsgd1na2vs0mg"},{"bike_id":"44fdd3df-8bd4-49c4-8184-662840da5053","system_id":"levelo_inurba_marseille","lat":43.29266,"lon":5.38441,"is_reserved":false,"is_disabled":false,"rental_uris":{"android":"levelo://app?vid=44fdd3df-8bd4-49c4-8184-662840da5053","ios":"levelo://app?vid=44fdd3df-8bd4-49c4-8184-662840da5053"},"vehicle_type_id":"4","last_reported":1746043886,"current_range_meters":6000,"station_id":"ce4bh692rcd13ifvqea0","pricing_plan_id":"cebpf4jnsgd1na2vs0mg"},{"bike_id":"abde27e7-624f-44f1-a961-501c3603e977","system_id":"levelo_inurba_marseille","lat":43.25584,"lon":5.38224,"is_reserved":false,"is_disabled":false,"rental_uris":{"android":"levelo://app?vid=abde27e7-624f-44f1-a961-501c3603e977","ios":"levelo://app?vid=abde27e7-624f-44f1-a961-501c3603e977"},"vehicle_type_id":"4","last_reported":1746043886,"current_range_meters":6000,"station_id":"ce4bhih2rcd13ifvqfs0","pricing_plan_id":"cebpf4jnsgd1na2vs0mg"},{"bike_id":"fbe19e2b-17c6-4131-8d5f-7a269dadee51","system_id":"levelo_inurba_marseille","lat":43.29031,"lon":5.38656,"is_reserved":false,"is_disabled":false,"rental_uris":{"android":"levelo://app?vid=fbe19e2b-17c6-4131-8d5f-7a269dadee51","ios":"levelo://app?vid=fbe19e2b-17c6-4131-8d5f-7a269dadee51"},"vehicle_type_id":"4","last_reported":1746043886,"current_range_meters":6400,"station_id":"ce4bh4p2rcd13ifvqe0g","pricing_plan_id":"cebpf4jnsgd1na2vs0mg"},{"bike_id":"549c7f42-f296-4dcf-be16-4439225a5f1d","system_id":"levelo_inurba_marseille","lat":43.287,"lon":5.37397,"is_reserved":false,"is_disabled":false,"rental_uris":{"android":"levelo://app?vid=549c7f42-f296-4dcf-be16-4439225a5f1d","ios":"levelo://app?vid=549c7f42-f296-4dcf-be16-4439225a5f1d"},"vehicle_type_id":"4","last_reported":1746043886,"current_range_meters":6400,"station_id":"ce4bh3p2rcd13ifvqdq0","pricing_plan_id":"cebpf4jnsgd1na2vs0mg"},{"bike_id":"d31798c5-fee8-4da1-b0f0-459796265741","system_id":"levelo_inurba_marseille","lat":43.314941,"lon":5.372964,"is_reserved":false,"is_disabled":false,"rental_uris":{"android":"levelo://app?vid=d31798c5-fee8-4da1-b0f0-459796265741","ios":"levelo://app?vid=d31798c5-fee8-4da1-b0f0-459796265741"},"vehicle_type_id":"4","last_reported":1746043886,"current_range_meters":6400,"station_id":"ce4bgt12rcd13ifvqcd0","pricing_plan_id":"cebpf4jnsgd1na2vs0mg"},{"bike_id":"8fe0cc0b-a043-4280-a5e4-0783063c5830","system_id":"levelo_inurba_marseille","lat":43.31782,"lon":5.38995,"is_reserved":false,"is_disabled":false,"rental_uris":{"android":"levelo://app?vid=8fe0cc0b-a043-4280-a5e4-0783063c5830","ios":"levelo://app?vid=8fe0cc0b-a043-4280-a5e4-0783063c5830"},"vehicle_type_id":"4","last_reported":1746043886,"current_range_meters":6400,"station_id":"ce4bhqp2rcd13ifvqhng","pricing_plan_id":"cebpf4jnsgd1na2vs0mg"},{"bike_id":"6bba96c3-fe35-4ca5-8ce3-5667831dd59d","system_id":"levelo_inurba_marseille","lat":43.30646,"lon":5.40065,"is_reserved":false,"is_disabled":false,"rental_uris":{"android":"levelo://app?vid=6bba96c3-fe35-4ca5-8ce3-5667831dd59d","ios":"levelo://app?vid=6bba96c3-fe35-4ca5-8ce3-5667831dd59d"},"vehicle_type_id":"4","last_reported":1746043886,"current_range_meters":6800,"station_id":"ce4bh112rcd13ifvqda0","pricing_plan_id":"cebpf4jnsgd1na2vs0mg"},{"bike_id":"d1c1af9f-ce84-48d6-9867-2327cc9c1c3b","system_id":"levelo_inurba_marseille","lat":43.2815,"lon":5.42643,"is_reserved":false,"is_disabled":false,"rental_uris":{"android":"levelo://app?vid=d1c1af9f-ce84-48d6-9867-2327cc9c1c3b","ios":"levelo://app?vid=d1c1af9f-ce84-48d6-9867-2327cc9c1c3b"},"vehicle_type_id":"4","last_reported":1746043886,"current_range_meters":6800,"station_id":"ce4bhnh2rcd13ifvqgug","pricing_plan_id":"cebpf4jnsgd1na2vs0mg"},{"bike_id":"673a0c3f-8ece-48df-a2aa-4780ac191d8f","system_id":"levelo_inurba_marseille","lat":43.32045,"lon":5.41583,"is_reserved":false,"is_disabled":false,"rental_uris":{"android":"levelo://app?vid=673a0c3f-8ece-48df-a2aa-4780ac191d8f","ios":"levelo://app?vid=673a0c3f-8ece-48df-a2aa-4780ac191d8f"},"vehicle_type_id":"4","last_reported":1746043886,"current_range_meters":6800,"station_id":"ce4bhq92rcd13ifvqhkg","pricing_plan_id":"cebpf4jnsgd1na2vs0mg"},{"bike_id":"2d0fea3e-041c-4d20-aeb7-63739e3d5c27","system_id":"levelo_inurba_marseille","lat":43.306236,"lon":5.366108,"is_reserved":false,"is_disabled":false,"rental_uris":{"android":"levelo://app?vid=2d0fea3e-041c-4d20-aeb7-63739e3d5c27","ios":"levelo://app?vid=2d0fea3e-041c-4d20-aeb7-63739e3d5c27"},"vehicle_type_id":"4","last_reported":1746043886,"current_range_meters":6800,"station_id":"","pricing_plan_id":"cebpf4jnsgd1na2vs0mg"},{"bike_id":"4dcc6411-fabd-4c3c-befe-c4beccc478e7","system_id":"levelo_inurba_marseille","lat":43.25495,"lon":5.37647,"is_reserved":false,"is_disabled":false,"rental_uris":{"android":"levelo://app?vid=4dcc6411-fabd-4c3c-befe-c4beccc478e7","ios":"levelo://app?vid=4dcc6411-fabd-4c3c-befe-c4beccc478e7"},"vehicle_type_id":"4","last_reported":1746043886,"current_range_meters":6800,"station_id":"ce4bhh12rcd13ifvqff0","pricing_plan_id":"cebpf4jnsgd1na2vs0mg"},{"bike_id":"e06e3ad6-0e5a-49f2-98bb-d0b7ffaaf745","system_id":"levelo_inurba_marseille","lat":43.2339,"lon":5.36107,"is_reserved":false,"is_disabled":false,"rental_uris":{"android":"levelo://app?vid=e06e3ad6-0e5a-49f2-98bb-d0b7ffaaf745","ios":"levelo://app?vid=e06e3ad6-0e5a-49f2-98bb-d0b7ffaaf745"},"vehicle_type_id":"4","last_reported":1746043886,"current_range_meters":6800,"station_id":"","pricing_plan_id":"cebpf4jnsgd1na2vs0mg"},{"bike_id":"96d8fc32-b347-4dde-8532-70e7917ccde6","system_id":"levelo_inurba_marseille","lat":43.30594,"lon":5.37222,"is_reserved":false,"is_disabled":true,"rental_uris":{"android":"levelo://app?vid=96d8fc32-b347-4dde-8532-70e7917ccde6","ios":"levelo://app?vid=96d8fc32-b347-4dde-8532-70e7917ccde6"},"vehicle_type_id":"4","last_reported":1746043886,"current_range_meters":6800,"station_id":"ce4bgqh2rcd13ifvqc4g","pricing_plan_id":"cebpf4jnsgd1na2vs0mg"},{"bike_id":"815a4b7d-1b1d-4e4c-bdf4-20a4d05cba92","system_id":"levelo_inurba_marseille","lat":43.303,"lon":5.39216,"is_reserved":false,"is_disabled":false,"rental_uris":{"android":"levelo://app?vid=815a4b7d-1b1d-4e4c-bdf4-20a4d05cba92","ios":"levelo://app?vid=815a4b7d-1b1d-4e4c-bdf4-20a4d05cba92"},"vehicle_type_id":"4","last_reported":1746043886,"current_range_meters":7200,"station_id":"ce4bgkh2rcd13ifvqbk0","pricing_plan_id":"cebpf4jnsgd1na2vs0mg"},{"bike_id":"d02b820a-e43f-475b-a3ba-9319e8ed0b8b","system_id":"levelo_inurba_marseille","lat":43.308,"lon":5.38143,"is_reserved":false,"is_disabled":false,"rental_uris":{"android":"levelo://app?vid=d02b820a-e43f-475b-a3ba-9319e8ed0b8b","ios":"levelo://app?vid=d02b820a-e43f-475b-a3ba-9319e8ed0b8b"},"vehicle_type_id":"4","last_reported":1746043886,"current_range_meters":6800,"station_id":"ce4bgt12rcd13ifvqce0","pricing_plan_id":"cebpf4jnsgd1na2vs0mg"},{"bike_id":"bb7527af-fd40-4ebd-8bc9-39045e4d0568","system_id":"levelo_inurba_marseille","lat":43.30951,"lon":5.39029,"is_reserved":false,"is_disabled":false,"rental_uris":{"android":"levelo://app?vid=bb7527af-fd40-4ebd-8bc9-39045e4d0568","ios":"levelo://app?vid=bb7527af-fd40-4ebd-8bc9-39045e4d0568"},"vehicle_type_id":"4","last_reported":1746043886,"current_range_meters":6800,"station_id":"ce4bgup2rcd13ifvqco0","pricing_plan_id":"cebpf4jnsgd1na2vs0mg"},{"bike_id":"305aaecf-eb32-42bd-917c-af78bc9b312f","system_id":"levelo_inurba_marseille","lat":43.306506,"lon":5.400964,"is_reserved":false,"is_disabled":false,"rental_uris":{"android":"levelo://app?vid=305aaecf-eb32-42bd-917c-af78bc9b312f","ios":"levelo://app?vid=305aaecf-eb32-42bd-917c-af78bc9b312f"},"vehicle_type_id":"4","last_reported":1746043886,"current_range_meters":7200,"station_id":"ce4bh112rcd13ifvqda0","pricing_plan_id":"cebpf4jnsgd1na2vs0mg"},{"bike_id":"c8dad6c4-eb04-460a-a0a1-b7fd070df3a0","system_id":"levelo_inurba_marseille","lat":43.298798,"lon":5.389092,"is_reserved":false,"is_disabled":false,"rental_uris":{"android":"levelo://app?vid=c8dad6c4-eb04-460a-a0a1-b7fd070df3a0","ios":"levelo://app?vid=c8dad6c4-eb04-460a-a0a1-b7fd070df3a0"},"vehicle_type_id":"4","last_reported":1746043886,"current_range_meters":11200,"station_id":"ce4bh392rcd13ifvqdl0","pricing_plan_id":"cebpf4jnsgd1na2vs0mg"},{"bike_id":"387bc5ea-7c2b-41e1-a1e6-3b4cc71c9638","system_id":"levelo_inurba_marseille","lat":43.241832,"lon":5.397258,"is_reserved":false,"is_disabled":false,"rental_uris":{"android":"levelo://app?vid=387bc5ea-7c2b-41e1-a1e6-3b4cc71c9638","ios":"levelo://app?vid=387bc5ea-7c2b-41e1-a1e6-3b4cc71c9638"},"vehicle_type_id":"4","last_reported":1746043886,"current_range_meters":7200,"station_id":"ce4bhn12rcd13ifvqgpg","pricing_plan_id":"cebpf4jnsgd1na2vs0mg"},{"bike_id":"cb1beb45-f5d1-415f-ae0d-d1e624219c50","system_id":"levelo_inurba_marseille","lat":43.241651,"lon":5.364073,"is_reserved":false,"is_disabled":false,"rental_uris":{"android":"levelo://app?vid=cb1beb45-f5d1-415f-ae0d-d1e624219c50","ios":"levelo://app?vid=cb1beb45-f5d1-415f-ae0d-d1e624219c50"},"vehicle_type_id":"4","last_reported":1746043886,"current_range_meters":7200,"station_id":"cpo36qri1sfpv3e86is0","pricing_plan_id":"cebpf4jnsgd1na2vs0mg"},{"bike_id":"51b00a0d-c1ca-4da5-9bf1-4f6ae049aba9","system_id":"levelo_inurba_marseille","lat":43.29529,"lon":5.38539,"is_reserved":false,"is_disabled":false,"rental_uris":{"android":"levelo://app?vid=51b00a0d-c1ca-4da5-9bf1-4f6ae049aba9","ios":"levelo://app?vid=51b00a0d-c1ca-4da5-9bf1-4f6ae049aba9"},"vehicle_type_id":"4","last_reported":1746043886,"current_range_meters":7200,"station_id":"ce4bgih2rcd13ifvqba0","pricing_plan_id":"cebpf4jnsgd1na2vs0mg"},{"bike_id":"cc1581ed-f872-4a20-bec4-692126ca36e4","system_id":"levelo_inurba_marseille","lat":43.27975,"lon":5.3874,"is_reserved":false,"is_disabled":false,"rental_uris":{"android":"levelo://app?vid=cc1581ed-f872-4a20-bec4-692126ca36e4","ios":"levelo://app?vid=cc1581ed-f872-4a20-bec4-692126ca36e4"},"vehicle_type_id":"4","last_reported":1746043886,"current_range_meters":7200,"station_id":"ce4bhg12rcd13ifvqf80","pricing_plan_id":"cebpf4jnsgd1na2vs0mg"},{"bike_id":"e8da093b-fcb4-4724-ab4d-60d2a2237513","system_id":"levelo_inurba_marseille","lat":43.29074,"lon":5.37173,"is_reserved":false,"is_disabled":false,"rental_uris":{"android":"levelo://app?vid=e8da093b-fcb4-4724-ab4d-60d2a2237513","ios":"levelo://app?vid=e8da093b-fcb4-4724-ab4d-60d2a2237513"},"vehicle_type_id":"4","last_reported":1746043886,"current_range_meters":6800,"station_id":"ce4bh5p2rcd13ifvqe4g","pricing_plan_id":"cebpf4jnsgd1na2vs0mg"},{"bike_id":"e9465a26-6eb4-452d-9445-01b94b27d68d","system_id":"levelo_inurba_marseille","lat":43.29643,"lon":5.3859,"is_reserved":false,"is_disabled":false,"rental_uris":{"android":"levelo://app?vid=e9465a26-6eb4-452d-9445-01b94b27d68d","ios":"levelo://app?vid=e9465a26-6eb4-452d-9445-01b94b27d68d"},"vehicle_type_id":"4","last_reported":1746043886,"current_range_meters":8000,"station_id":"ce4bgih2rcd13ifvqba0","pricing_plan_id":"cebpf4jnsgd1na2vs0mg"},{"bike_id":"01ec0e56-d85b-4d23-8eaa-dae40c055d6f","system_id":"levelo_inurba_marseille","lat":43.2811,"lon":5.37838,"is_reserved":false,"is_disabled":false,"rental_uris":{"android":"levelo://app?vid=01ec0e56-d85b-4d23-8eaa-dae40c055d6f","ios":"levelo://app?vid=01ec0e56-d85b-4d23-8eaa-dae40c055d6f"},"vehicle_type_id":"4","last_reported":1746043886,"current_range_meters":8000,"station_id":"ce4bha12rcd13ifvqee0","pricing_plan_id":"cebpf4jnsgd1na2vs0mg"},{"bike_id":"b48e7497-3136-4654-b6b9-aafd6599aacb","system_id":"levelo_inurba_marseille","lat":43.308075,"lon":5.38166,"is_reserved":false,"is_disabled":false,"rental_uris":{"android":"levelo://app?vid=b48e7497-3136-4654-b6b9-aafd6599aacb","ios":"levelo://app?vid=b48e7497-3136-4654-b6b9-aafd6599aacb"},"vehicle_type_id":"4","last_reported":1746043886,"current_range_meters":8000,"station_id":"ce4bgt12rcd13ifvqce0","pricing_plan_id":"cebpf4jnsgd1na2vs0mg"},{"bike_id":"5c96b426-328d-4bfd-a2b3-44b6c4d6dee9","system_id":"levelo_inurba_marseille","lat":43.28618,"lon":5.35106,"is_reserved":false,"is_disabled":false,"rental_uris":{"android":"levelo://app?vid=5c96b426-328d-4bfd-a2b3-44b6c4d6dee9","ios":"levelo://app?vid=5c96b426-328d-4bfd-a2b3-44b6c4d6dee9"},"vehicle_type_id":"4","last_reported":1746043886,"current_range_meters":8000,"station_id":"ce4bhch2rcd13ifvqeug","pricing_plan_id":"cebpf4jnsgd1na2vs0mg"},{"bike_id":"9965e496-e128-48a0-9487-d7af7b498698","system_id":"levelo_inurba_marseille","lat":43.292082,"lon":5.393207,"is_reserved":false,"is_disabled":true,"rental_uris":{"android":"levelo://app?vid=9965e496-e128-48a0-9487-d7af7b498698","ios":"levelo://app?vid=9965e496-e128-48a0-9487-d7af7b498698"},"vehicle_type_id":"4","last_reported":1746043886,"current_range_meters":8000,"station_id":"ce4bh192rcd13ifvqdd0","pricing_plan_id":"cebpf4jnsgd1na2vs0mg"},{"bike_id":"bc859335-0d0f-4be2-a38c-1f16424b9cb4","system_id":"levelo_inurba_marseille","lat":43.28081,"lon":5.39662,"is_reserved":false,"is_disabled":false,"rental_uris":{"android":"levelo://app?vid=bc859335-0d0f-4be2-a38c-1f16424b9cb4","ios":"levelo://app?vid=bc859335-0d0f-4be2-a38c-1f16424b9cb4"},"vehicle_type_id":"4","last_reported":1746043886,"current_range_meters":8000,"station_id":"ce4bho12rcd13ifvqh2g","pricing_plan_id":"cebpf4jnsgd1na2vs0mg"},{"bike_id":"38888685-ecee-457f-b7f2-6a456f769de8","system_id":"levelo_inurba_marseille","lat":43.32384,"lon":5.38858,"is_reserved":false,"is_disabled":false,"rental_uris":{"android":"levelo://app?vid=38888685-ecee-457f-b7f2-6a456f769de8","ios":"levelo://app?vid=38888685-ecee-457f-b7f2-6a456f769de8"},"vehicle_type_id":"4","last_reported":1746043886,"current_range_meters":8400,"station_id":"ce4bhqp2rcd13ifvqhog","pricing_plan_id":"cebpf4jnsgd1na2vs0mg"},{"bike_id":"489415b8-9254-45c1-b00c-e7554d56755c","system_id":"levelo_inurba_marseille","lat":43.245246,"lon":5.412161,"is_reserved":false,"is_disabled":false,"rental_uris":{"android":"levelo://app?vid=489415b8-9254-45c1-b00c-e7554d56755c","ios":"levelo://app?vid=489415b8-9254-45c1-b00c-e7554d56755c"},"vehicle_type_id":"4","last_reported":1746043886,"current_range_meters":8400,"station_id":"","pricing_plan_id":"cebpf4jnsgd1na2vs0mg"},{"bike_id":"ed06649f-af59-4b36-866b-dcc5fec40799","system_id":"levelo_inurba_marseille","lat":43.29161,"lon":5.37173,"is_reserved":false,"is_disabled":false,"rental_uris":{"android":"levelo://app?vid=ed06649f-af59-4b36-866b-dcc5fec40799","ios":"levelo://app?vid=ed06649f-af59-4b36-866b-dcc5fec40799"},"vehicle_type_id":"4","last_reported":1746043886,"current_range_meters":8400,"station_id":"ce4bha92rcd13ifvqeh0","pricing_plan_id":"cebpf4jnsgd1na2vs0mg"},{"bike_id":"2806b558-e7ec-472b-9609-45e5c29e99f3","system_id":"levelo_inurba_marseille","lat":43.28751,"lon":5.37709,"is_reserved":false,"is_disabled":false,"rental_uris":{"android":"levelo://app?vid=2806b558-e7ec-472b-9609-45e5c29e99f3","ios":"levelo://app?vid=2806b558-e7ec-472b-9609-45e5c29e99f3"},"vehicle_type_id":"4","last_reported":1746043886,"current_range_meters":8400,"station_id":"","pricing_plan_id":"cebpf4jnsgd1na2vs0mg"},{"bike_id":"08120e16-1470-41bb-bffd-dcb5f9549e27","system_id":"levelo_inurba_marseille","lat":43.29536,"lon":5.38539,"is_reserved":false,"is_disabled":false,"rental_uris":{"android":"levelo://app?vid=08120e16-1470-41bb-bffd-dcb5f9549e27","ios":"levelo://app?vid=08120e16-1470-41bb-bffd-dcb5f9549e27"},"vehicle_type_id":"4","last_reported":1746043886,"current_range_meters":8400,"station_id":"ce4bgih2rcd13ifvqba0","pricing_plan_id":"cebpf4jnsgd1na2vs0mg"},{"bike_id":"af45928f-99f5-4c10-8488-a1690bf972d2","system_id":"levelo_inurba_marseille","lat":43.2944,"lon":5.3975,"is_reserved":false,"is_disabled":true,"rental_uris":{"android":"levelo://app?vid=af45928f-99f5-4c10-8488-a1690bf972d2","ios":"levelo://app?vid=af45928f-99f5-4c10-8488-a1690bf972d2"},"vehicle_type_id":"4","last_reported":1746043886,"current_range_meters":8400,"station_id":"ce4bh3h2rcd13ifvqdo0","pricing_plan_id":"cebpf4jnsgd1na2vs0mg"},{"bike_id":"07edfd45-c3fa-4b57-b865-cf1bf9963264","system_id":"levelo_inurba_marseille","lat":43.23406,"lon":5.36431,"is_reserved":false,"is_disabled":false,"rental_uris":{"android":"levelo://app?vid=07edfd45-c3fa-4b57-b865-cf1bf9963264","ios":"levelo://app?vid=07edfd45-c3fa-4b57-b865-cf1bf9963264"},"vehicle_type_id":"4","last_reported":1746043886,"current_range_meters":8400,"station_id":"","pricing_plan_id":"cebpf4jnsgd1na2vs0mg"},{"bike_id":"75d8ad40-9ecf-4ba0-ac7a-4ad29a37b18b","system_id":"levelo_inurba_marseille","lat":43.27949,"lon":5.41034,"is_reserved":false,"is_disabled":false,"rental_uris":{"android":"levelo://app?vid=75d8ad40-9ecf-4ba0-ac7a-4ad29a37b18b","ios":"levelo://app?vid=75d8ad40-9ecf-4ba0-ac7a-4ad29a37b18b"},"vehicle_type_id":"4","last_reported":1746043886,"current_range_meters":8400,"station_id":"ce4bhnp2rcd13ifvqh0g","pricing_plan_id":"cebpf4jnsgd1na2vs0mg"},{"bike_id":"6a9e3969-3f80-4d9c-887c-e022f283363d","system_id":"levelo_inurba_marseille","lat":43.27977,"lon":5.38737,"is_reserved":false,"is_disabled":false,"rental_uris":{"android":"levelo://app?vid=6a9e3969-3f80-4d9c-887c-e022f283363d","ios":"levelo://app?vid=6a9e3969-3f80-4d9c-887c-e022f283363d"},"vehicle_type_id":"4","last_reported":1746043886,"current_range_meters":8400,"station_id":"ce4bhg12rcd13ifvqf80","pricing_plan_id":"cebpf4jnsgd1na2vs0mg"},{"bike_id":"05701cf0-8237-4298-a48f-9e9405c8247f","system_id":"levelo_inurba_marseille","lat":43.31022,"lon":5.37128,"is_reserved":false,"is_disabled":false,"rental_uris":{"android":"levelo://app?vid=05701cf0-8237-4298-a48f-9e9405c8247f","ios":"levelo://app?vid=05701cf0-8237-4298-a48f-9e9405c8247f"},"vehicle_type_id":"4","last_reported":1746043886,"current_range_meters":8400,"station_id":"","pricing_plan_id":"cebpf4jnsgd1na2vs0mg"},{"bike_id":"4b589260-3eac-4e23-8fe9-9b73f7b19f0f","system_id":"levelo_inurba_marseille","lat":43.29317,"lon":5.37171,"is_reserved":false,"is_disabled":false,"rental_uris":{"android":"levelo://app?vid=4b589260-3eac-4e23-8fe9-9b73f7b19f0f","ios":"levelo://app?vid=4b589260-3eac-4e23-8fe9-9b73f7b19f0f"},"vehicle_type_id":"4","last_reported":1746043886,"current_range_meters":8400,"station_id":"ce4bgh92rcd13ifvqb40","pricing_plan_id":"cebpf4jnsgd1na2vs0mg"},{"bike_id":"a08363ef-51e4-4e43-b32f-78efd4a9bd56","system_id":"levelo_inurba_marseille","lat":43.29687,"lon":5.37314,"is_reserved":false,"is_disabled":false,"rental_uris":{"android":"levelo://app?vid=a08363ef-51e4-4e43-b32f-78efd4a9bd56","ios":"levelo://app?vid=a08363ef-51e4-4e43-b32f-78efd4a9bd56"},"vehicle_type_id":"4","last_reported":1746043886,"current_range_meters":8400,"station_id":"ce4bgk12rcd13ifvqbj0","pricing_plan_id":"cebpf4jnsgd1na2vs0mg"},{"bike_id":"f467c09d-4dd9-4f85-b9f1-1ede5e6a6fe5","system_id":"levelo_inurba_marseille","lat":43.28702,"lon":5.39994,"is_reserved":false,"is_disabled":false,"rental_uris":{"android":"levelo://app?vid=f467c09d-4dd9-4f85-b9f1-1ede5e6a6fe5","ios":"levelo://app?vid=f467c09d-4dd9-4f85-b9f1-1ede5e6a6fe5"},"vehicle_type_id":"4","last_reported":1746043886,"current_range_meters":8800,"station_id":"ce4bho92rcd13ifvqh3g","pricing_plan_id":"cebpf4jnsgd1na2vs0mg"},{"bike_id":"221a0fe5-5897-40cf-800e-4d32819b7bcf","system_id":"levelo_inurba_marseille","lat":43.254941,"lon":5.376519,"is_reserved":false,"is_disabled":false,"rental_uris":{"android":"levelo://app?vid=221a0fe5-5897-40cf-800e-4d32819b7bcf","ios":"levelo://app?vid=221a0fe5-5897-40cf-800e-4d32819b7bcf"},"vehicle_type_id":"4","last_reported":1746043886,"current_range_meters":8800,"station_id":"ce4bhh12rcd13ifvqff0","pricing_plan_id":"cebpf4jnsgd1na2vs0mg"},{"bike_id":"ef6a0c73-5cad-49f9-90af-b369ac54372c","system_id":"levelo_inurba_marseille","lat":43.29256,"lon":5.38434,"is_reserved":false,"is_disabled":false,"rental_uris":{"android":"levelo://app?vid=ef6a0c73-5cad-49f9-90af-b369ac54372c","ios":"levelo://app?vid=ef6a0c73-5cad-49f9-90af-b369ac54372c"},"vehicle_type_id":"4","last_reported":1746043886,"current_range_meters":8800,"station_id":"ce4bh692rcd13ifvqea0","pricing_plan_id":"cebpf4jnsgd1na2vs0mg"},{"bike_id":"50d93333-e9ff-4d53-bb06-38b3e726edf7","system_id":"levelo_inurba_marseille","lat":43.29969,"lon":5.38494,"is_reserved":false,"is_disabled":false,"rental_uris":{"android":"levelo://app?vid=50d93333-e9ff-4d53-bb06-38b3e726edf7","ios":"levelo://app?vid=50d93333-e9ff-4d53-bb06-38b3e726edf7"},"vehicle_type_id":"4","last_reported":1746043886,"current_range_meters":8800,"station_id":"ce4bgj92rcd13ifvqbd0","pricing_plan_id":"cebpf4jnsgd1na2vs0mg"},{"bike_id":"8d442931-82f0-431e-b107-79da7f1176a3","system_id":"levelo_inurba_marseille","lat":43.29771,"lon":5.371,"is_reserved":false,"is_disabled":false,"rental_uris":{"android":"levelo://app?vid=8d442931-82f0-431e-b107-79da7f1176a3","ios":"levelo://app?vid=8d442931-82f0-431e-b107-79da7f1176a3"},"vehicle_type_id":"4","last_reported":1746043886,"current_range_meters":9200,"station_id":"ce4bgop2rcd13ifvqc1g","pricing_plan_id":"cebpf4jnsgd1na2vs0mg"},{"bike_id":"06d2d3c8-9fc9-4d69-a070-0ce5daa9cb28","system_id":"levelo_inurba_marseille","lat":43.26948,"lon":5.40256,"is_reserved":false,"is_disabled":true,"rental_uris":{"android":"levelo://app?vid=06d2d3c8-9fc9-4d69-a070-0ce5daa9cb28","ios":"levelo://app?vid=06d2d3c8-9fc9-4d69-a070-0ce5daa9cb28"},"vehicle_type_id":"4","last_reported":1746043886,"current_range_meters":9200,"station_id":"cjm6bp8fraef2m0cb0m0","pricing_plan_id":"cebpf4jnsgd1na2vs0mg"},{"bike_id":"61efe268-30c8-45ef-9f87-07a058f5e063","system_id":"levelo_inurba_marseille","lat":43.29416,"lon":5.38622,"is_reserved":false,"is_disabled":false,"rental_uris":{"android":"levelo://app?vid=61efe268-30c8-45ef-9f87-07a058f5e063","ios":"levelo://app?vid=61efe268-30c8-45ef-9f87-07a058f5e063"},"vehicle_type_id":"4","last_reported":1746043886,"current_range_meters":9200,"station_id":"ce4bh2h2rcd13ifvqdh0","pricing_plan_id":"cebpf4jnsgd1na2vs0mg"},{"bike_id":"605a12db-4145-42a5-877a-b4a375a7cf38","system_id":"levelo_inurba_marseille","lat":43.31695,"lon":5.40451,"is_reserved":false,"is_disabled":false,"rental_uris":{"android":"levelo://app?vid=605a12db-4145-42a5-877a-b4a375a7cf38","ios":"levelo://app?vid=605a12db-4145-42a5-877a-b4a375a7cf38"},"vehicle_type_id":"4","last_reported":1746043886,"current_range_meters":9200,"station_id":"ce4bh012rcd13ifvqd00","pricing_plan_id":"cebpf4jnsgd1na2vs0mg"},{"bike_id":"43010541-798b-409c-8f36-dcdb3024e9bb","system_id":"levelo_inurba_marseille","lat":43.29261,"lon":5.36848,"is_reserved":false,"is_disabled":false,"rental_uris":{"android":"levelo://app?vid=43010541-798b-409c-8f36-dcdb3024e9bb","ios":"levelo://app?vid=43010541-798b-409c-8f36-dcdb3024e9bb"},"vehicle_type_id":"4","last_reported":1746043886,"current_range_meters":9200,"station_id":"ce4bhbp2rcd13ifvqesg","pricing_plan_id":"cebpf4jnsgd1na2vs0mg"},{"bike_id":"0d5a4887-8013-4039-a0a0-44c0e5491619","system_id":"levelo_inurba_marseille","lat":43.30948,"lon":5.39041,"is_reserved":false,"is_disabled":false,"rental_uris":{"android":"levelo://app?vid=0d5a4887-8013-4039-a0a0-44c0e5491619","ios":"levelo://app?vid=0d5a4887-8013-4039-a0a0-44c0e5491619"},"vehicle_type_id":"4","last_reported":1746043886,"current_range_meters":9200,"station_id":"ce4bgup2rcd13ifvqco0","pricing_plan_id":"cebpf4jnsgd1na2vs0mg"},{"bike_id":"5f085fcc-6de8-4cef-81d6-34f8c75b6aae","system_id":"levelo_inurba_marseille","lat":43.29711,"lon":5.36601,"is_reserved":false,"is_disabled":false,"rental_uris":{"android":"levelo://app?vid=5f085fcc-6de8-4cef-81d6-34f8c75b6aae","ios":"levelo://app?vid=5f085fcc-6de8-4cef-81d6-34f8c75b6aae"},"vehicle_type_id":"4","last_reported":1746043886,"current_range_meters":9600,"station_id":"ce4bgn12rcd13ifvqbt0","pricing_plan_id":"cebpf4jnsgd1na2vs0mg"},{"bike_id":"6514463e-0024-441e-b85f-1609edaef144","system_id":"levelo_inurba_marseille","lat":43.2893,"lon":5.36647,"is_reserved":false,"is_disabled":false,"rental_uris":{"android":"levelo://app?vid=6514463e-0024-441e-b85f-1609edaef144","ios":"levelo://app?vid=6514463e-0024-441e-b85f-1609edaef144"},"vehicle_type_id":"4","last_reported":1746043886,"current_range_meters":9600,"station_id":"ce4bhap2rcd13ifvqek0","pricing_plan_id":"cebpf4jnsgd1na2vs0mg"},{"bike_id":"859fcba1-5f81-4c98-b556-190a2da25dc1","system_id":"levelo_inurba_marseille","lat":43.25119,"lon":5.40314,"is_reserved":false,"is_disabled":false,"rental_uris":{"android":"levelo://app?vid=859fcba1-5f81-4c98-b556-190a2da25dc1","ios":"levelo://app?vid=859fcba1-5f81-4c98-b556-190a2da25dc1"},"vehicle_type_id":"4","last_reported":1746043886,"current_range_meters":9600,"station_id":"ce4bhlh2rcd13ifvqgig","pricing_plan_id":"cebpf4jnsgd1na2vs0mg"},{"bike_id":"b0f25064-e460-4472-8409-913a57846912","system_id":"levelo_inurba_marseille","lat":43.29318,"lon":5.37156,"is_reserved":false,"is_disabled":false,"rental_uris":{"android":"levelo://app?vid=b0f25064-e460-4472-8409-913a57846912","ios":"levelo://app?vid=b0f25064-e460-4472-8409-913a57846912"},"vehicle_type_id":"4","last_reported":1746043886,"current_range_meters":9600,"station_id":"ce4bgh92rcd13ifvqb40","pricing_plan_id":"cebpf4jnsgd1na2vs0mg"},{"bike_id":"dcb0b990-89f9-495c-a9c1-10b17ae39667","system_id":"levelo_inurba_marseille","lat":43.234703,"lon":5.380503,"is_reserved":false,"is_disabled":false,"rental_uris":{"android":"levelo://app?vid=dcb0b990-89f9-495c-a9c1-10b17ae39667","ios":"levelo://app?vid=dcb0b990-89f9-495c-a9c1-10b17ae39667"},"vehicle_type_id":"4","last_reported":1746043886,"current_range_meters":9600,"station_id":"","pricing_plan_id":"cebpf4jnsgd1na2vs0mg"},{"bike_id":"8e048138-9566-43b0-9358-070278211880","system_id":"levelo_inurba_marseille","lat":43.29059,"lon":5.37168,"is_reserved":false,"is_disabled":false,"rental_uris":{"android":"levelo://app?vid=8e048138-9566-43b0-9358-070278211880","ios":"levelo://app?vid=8e048138-9566-43b0-9358-070278211880"},"vehicle_type_id":"4","last_reported":1746043886,"current_range_meters":9600,"station_id":"ce4bh5p2rcd13ifvqe4g","pricing_plan_id":"cebpf4jnsgd1na2vs0mg"},{"bike_id":"ee11c517-a089-4375-b017-c1f46dfd400d","system_id":"levelo_inurba_marseille","lat":43.29787,"lon":5.39334,"is_reserved":false,"is_disabled":false,"rental_uris":{"android":"levelo://app?vid=ee11c517-a089-4375-b017-c1f46dfd400d","ios":"levelo://app?vid=ee11c517-a089-4375-b017-c1f46dfd400d"},"vehicle_type_id":"4","last_reported":1746043886,"current_range_meters":9200,"station_id":"chh1huq6cuj3fo74tm60","pricing_plan_id":"cebpf4jnsgd1na2vs0mg"},{"bike_id":"e89ed09c-05b5-4eb1-ba63-5c508a194488","system_id":"levelo_inurba_marseille","lat":43.29274,"lon":5.36842,"is_reserved":false,"is_disabled":false,"rental_uris":{"android":"levelo://app?vid=e89ed09c-05b5-4eb1-ba63-5c508a194488","ios":"levelo://app?vid=e89ed09c-05b5-4eb1-ba63-5c508a194488"},"vehicle_type_id":"4","last_reported":1746043886,"current_range_meters":10000,"station_id":"ce4bhbp2rcd13ifvqesg","pricing_plan_id":"cebpf4jnsgd1na2vs0mg"},{"bike_id":"ab37347b-7f17-438c-9778-24c6d6ac057a","system_id":"levelo_inurba_marseille","lat":43.29301,"lon":5.37147,"is_reserved":false,"is_disabled":false,"rental_uris":{"android":"levelo://app?vid=ab37347b-7f17-438c-9778-24c6d6ac057a","ios":"levelo://app?vid=ab37347b-7f17-438c-9778-24c6d6ac057a"},"vehicle_type_id":"4","last_reported":1746043886,"current_range_meters":10000,"station_id":"ce4bgh92rcd13ifvqb40","pricing_plan_id":"cebpf4jnsgd1na2vs0mg"},{"bike_id":"94b747f6-d093-4a98-b447-1ca7985f966e","system_id":"levelo_inurba_marseille","lat":43.28702,"lon":5.39994,"is_reserved":false,"is_disabled":false,"rental_uris":{"android":"levelo://app?vid=94b747f6-d093-4a98-b447-1ca7985f966e","ios":"levelo://app?vid=94b747f6-d093-4a98-b447-1ca7985f966e"},"vehicle_type_id":"4","last_reported":1746043886,"current_range_meters":9600,"station_id":"ce4bho92rcd13ifvqh3g","pricing_plan_id":"cebpf4jnsgd1na2vs0mg"},{"bike_id":"7f770ba9-2e48-47c9-8bb4-942855273bad","system_id":"levelo_inurba_marseille","lat":43.25331,"lon":5.4242,"is_reserved":false,"is_disabled":false,"rental_uris":{"android":"levelo://app?vid=7f770ba9-2e48-47c9-8bb4-942855273bad","ios":"levelo://app?vid=7f770ba9-2e48-47c9-8bb4-942855273bad"},"vehicle_type_id":"4","last_reported":1746043886,"current_range_meters":10000,"station_id":"","pricing_plan_id":"cebpf4jnsgd1na2vs0mg"},{"bike_id":"d826cf04-d4ef-4edd-9c97-84cf6de8b261","system_id":"levelo_inurba_marseille","lat":43.30952,"lon":5.3903,"is_reserved":false,"is_disabled":false,"rental_uris":{"android":"levelo://app?vid=d826cf04-d4ef-4edd-9c97-84cf6de8b261","ios":"levelo://app?vid=d826cf04-d4ef-4edd-9c97-84cf6de8b261"},"vehicle_type_id":"4","last_reported":1746043886,"current_range_meters":10000,"station_id":"ce4bgup2rcd13ifvqco0","pricing_plan_id":"cebpf4jnsgd1na2vs0mg"},{"bike_id":"6cff70bb-1932-4200-8afc-2fd1b3eadffa","system_id":"levelo_inurba_marseille","lat":43.2926,"lon":5.38439,"is_reserved":false,"is_disabled":false,"rental_uris":{"android":"levelo://app?vid=6cff70bb-1932-4200-8afc-2fd1b3eadffa","ios":"levelo://app?vid=6cff70bb-1932-4200-8afc-2fd1b3eadffa"},"vehicle_type_id":"4","last_reported":1746043886,"current_range_meters":10800,"station_id":"ce4bh692rcd13ifvqea0","pricing_plan_id":"cebpf4jnsgd1na2vs0mg"},{"bike_id":"b6f35bf0-60f5-416d-83da-243505282065","system_id":"levelo_inurba_marseille","lat":43.33291,"lon":5.39626,"is_reserved":false,"is_disabled":false,"rental_uris":{"android":"levelo://app?vid=b6f35bf0-60f5-416d-83da-243505282065","ios":"levelo://app?vid=b6f35bf0-60f5-416d-83da-243505282065"},"vehicle_type_id":"4","last_reported":1746043886,"current_range_meters":10800,"station_id":"","pricing_plan_id":"cebpf4jnsgd1na2vs0mg"},{"bike_id":"92a444f5-a246-435e-824e-18918a093475","system_id":"levelo_inurba_marseille","lat":43.29419,"lon":5.386095,"is_reserved":false,"is_disabled":false,"rental_uris":{"android":"levelo://app?vid=92a444f5-a246-435e-824e-18918a093475","ios":"levelo://app?vid=92a444f5-a246-435e-824e-18918a093475"},"vehicle_type_id":"4","last_reported":1746043886,"current_range_meters":10800,"station_id":"ce4bh2h2rcd13ifvqdh0","pricing_plan_id":"cebpf4jnsgd1na2vs0mg"},{"bike_id":"51d4c4f6-1ace-4c18-b560-db3285b3d152","system_id":"levelo_inurba_marseille","lat":43.29162,"lon":5.37171,"is_reserved":false,"is_disabled":false,"rental_uris":{"android":"levelo://app?vid=51d4c4f6-1ace-4c18-b560-db3285b3d152","ios":"levelo://app?vid=51d4c4f6-1ace-4c18-b560-db3285b3d152"},"vehicle_type_id":"4","last_reported":1746043886,"current_range_meters":10800,"station_id":"ce4bha92rcd13ifvqeh0","pricing_plan_id":"cebpf4jnsgd1na2vs0mg"},{"bike_id":"e5e92a64-e709-4b1a-a9b1-cbffe85789ca","system_id":"levelo_inurba_marseille","lat":43.255462,"lon":5.381339,"is_reserved":false,"is_disabled":false,"rental_uris":{"android":"levelo://app?vid=e5e92a64-e709-4b1a-a9b1-cbffe85789ca","ios":"levelo://app?vid=e5e92a64-e709-4b1a-a9b1-cbffe85789ca"},"vehicle_type_id":"4","last_reported":1746043886,"current_range_meters":10800,"station_id":"","pricing_plan_id":"cebpf4jnsgd1na2vs0mg"},{"bike_id":"9f7dcf3b-5de8-4203-b8f3-1867275b9acd","system_id":"levelo_inurba_marseille","lat":43.31689,"lon":5.40466,"is_reserved":false,"is_disabled":false,"rental_uris":{"android":"levelo://app?vid=9f7dcf3b-5de8-4203-b8f3-1867275b9acd","ios":"levelo://app?vid=9f7dcf3b-5de8-4203-b8f3-1867275b9acd"},"vehicle_type_id":"4","last_reported":1746043886,"current_range_meters":10800,"station_id":"ce4bh012rcd13ifvqd00","pricing_plan_id":"cebpf4jnsgd1na2vs0mg"},{"bike_id":"8261973d-7fd9-4c15-8fb8-294a251b0456","system_id":"levelo_inurba_marseille","lat":43.29216,"lon":5.38598,"is_reserved":false,"is_disabled":false,"rental_uris":{"android":"levelo://app?vid=8261973d-7fd9-4c15-8fb8-294a251b0456","ios":"levelo://app?vid=8261973d-7fd9-4c15-8fb8-294a251b0456"},"vehicle_type_id":"4","last_reported":1746043886,"current_range_meters":10800,"station_id":"","pricing_plan_id":"cebpf4jnsgd1na2vs0mg"},{"bike_id":"4d2f825d-ede9-4f41-ad72-a0070aa47471","system_id":"levelo_inurba_marseille","lat":43.29417,"lon":5.38631,"is_reserved":false,"is_disabled":false,"rental_uris":{"android":"levelo://app?vid=4d2f825d-ede9-4f41-ad72-a0070aa47471","ios":"levelo://app?vid=4d2f825d-ede9-4f41-ad72-a0070aa47471"},"vehicle_type_id":"4","last_reported":1746043886,"current_range_meters":11200,"station_id":"ce4bh2h2rcd13ifvqdh0","pricing_plan_id":"cebpf4jnsgd1na2vs0mg"},{"bike_id":"41743f24-8e4e-45ce-9d01-3ee92166f200","system_id":"levelo_inurba_marseille","lat":43.30779,"lon":5.37659,"is_reserved":false,"is_disabled":false,"rental_uris":{"android":"levelo://app?vid=41743f24-8e4e-45ce-9d01-3ee92166f200","ios":"levelo://app?vid=41743f24-8e4e-45ce-9d01-3ee92166f200"},"vehicle_type_id":"4","last_reported":1746043886,"current_range_meters":11200,"station_id":"ce4bgv92rcd13ifvqcq0","pricing_plan_id":"cebpf4jnsgd1na2vs0mg"},{"bike_id":"7c805b41-1d4b-4ec3-9b62-6d7e2779e84a","system_id":"levelo_inurba_marseille","lat":43.29263,"lon":5.38442,"is_reserved":false,"is_disabled":false,"rental_uris":{"android":"levelo://app?vid=7c805b41-1d4b-4ec3-9b62-6d7e2779e84a","ios":"levelo://app?vid=7c805b41-1d4b-4ec3-9b62-6d7e2779e84a"},"vehicle_type_id":"4","last_reported":1746043886,"current_range_meters":11200,"station_id":"ce4bh692rcd13ifvqea0","pricing_plan_id":"cebpf4jnsgd1na2vs0mg"},{"bike_id":"5c92578a-6e63-47b1-8a67-2e12ef6914d3","system_id":"levelo_inurba_marseille","lat":43.34142,"lon":5.40909,"is_reserved":false,"is_disabled":false,"rental_uris":{"android":"levelo://app?vid=5c92578a-6e63-47b1-8a67-2e12ef6914d3","ios":"levelo://app?vid=5c92578a-6e63-47b1-8a67-2e12ef6914d3"},"vehicle_type_id":"4","last_reported":1746043886,"current_range_meters":11200,"station_id":"ce4bhqh2rcd13ifvqhlg","pricing_plan_id":"cebpf4jnsgd1na2vs0mg"},{"bike_id":"a732b3d6-472a-46b2-b5fc-7d86a14ed2fc","system_id":"levelo_inurba_marseille","lat":43.33032,"lon":5.39063,"is_reserved":false,"is_disabled":false,"rental_uris":{"android":"levelo://app?vid=a732b3d6-472a-46b2-b5fc-7d86a14ed2fc","ios":"levelo://app?vid=a732b3d6-472a-46b2-b5fc-7d86a14ed2fc"},"vehicle_type_id":"4","last_reported":1746043886,"current_range_meters":11200,"station_id":"ce4bhr92rcd13ifvqhrg","pricing_plan_id":"cebpf4jnsgd1na2vs0mg"},{"bike_id":"7924b638-6bb2-4d04-8752-d92a7a4ba43a","system_id":"levelo_inurba_marseille","lat":43.24178,"lon":5.39735,"is_reserved":false,"is_disabled":false,"rental_uris":{"android":"levelo://app?vid=7924b638-6bb2-4d04-8752-d92a7a4ba43a","ios":"levelo://app?vid=7924b638-6bb2-4d04-8752-d92a7a4ba43a"},"vehicle_type_id":"4","last_reported":1746043886,"current_range_meters":11200,"station_id":"ce4bhn12rcd13ifvqgpg","pricing_plan_id":"cebpf4jnsgd1na2vs0mg"},{"bike_id":"b5cf5cec-088b-4389-b8c2-fb19e5b3c633","system_id":"levelo_inurba_marseille","lat":43.29199,"lon":5.39315,"is_reserved":false,"is_disabled":false,"rental_uris":{"android":"levelo://app?vid=b5cf5cec-088b-4389-b8c2-fb19e5b3c633","ios":"levelo://app?vid=b5cf5cec-088b-4389-b8c2-fb19e5b3c633"},"vehicle_type_id":"4","last_reported":1746043886,"current_range_meters":10800,"station_id":"ce4bh192rcd13ifvqdd0","pricing_plan_id":"cebpf4jnsgd1na2vs0mg"},{"bike_id":"8485fdce-b3fb-43ef-9d91-25d0b94c9e46","system_id":"levelo_inurba_marseille","lat":43.33595,"lon":5.41029,"is_reserved":false,"is_disabled":false,"rental_uris":{"android":"levelo://app?vid=8485fdce-b3fb-43ef-9d91-25d0b94c9e46","ios":"levelo://app?vid=8485fdce-b3fb-43ef-9d91-25d0b94c9e46"},"vehicle_type_id":"4","last_reported":1746043886,"current_range_meters":10800,"station_id":"ce4bhqh2rcd13ifvqhmg","pricing_plan_id":"cebpf4jnsgd1na2vs0mg"},{"bike_id":"a7965e3b-af76-4093-905a-3fd15fe10ffd","system_id":"levelo_inurba_marseille","lat":43.30263,"lon":5.40037,"is_reserved":false,"is_disabled":false,"rental_uris":{"android":"levelo://app?vid=a7965e3b-af76-4093-905a-3fd15fe10ffd","ios":"levelo://app?vid=a7965e3b-af76-4093-905a-3fd15fe10ffd"},"vehicle_type_id":"4","last_reported":1746043886,"current_range_meters":11200,"station_id":"ce4bgvh2rcd13ifvqcs0","pricing_plan_id":"cebpf4jnsgd1na2vs0mg"},{"bike_id":"6cbb6e0f-ebf2-4fea-933b-4dc331dc9057","system_id":"levelo_inurba_marseille","lat":43.29934,"lon":5.38548,"is_reserved":false,"is_disabled":false,"rental_uris":{"android":"levelo://app?vid=6cbb6e0f-ebf2-4fea-933b-4dc331dc9057","ios":"levelo://app?vid=6cbb6e0f-ebf2-4fea-933b-4dc331dc9057"},"vehicle_type_id":"4","last_reported":1746043886,"current_range_meters":11600,"station_id":"","pricing_plan_id":"cebpf4jnsgd1na2vs0mg"},{"bike_id":"fca9dc8b-9c20-4eab-83ff-17d0ce9a6922","system_id":"levelo_inurba_marseille","lat":43.26043,"lon":5.4172,"is_reserved":false,"is_disabled":false,"rental_uris":{"android":"levelo://app?vid=fca9dc8b-9c20-4eab-83ff-17d0ce9a6922","ios":"levelo://app?vid=fca9dc8b-9c20-4eab-83ff-17d0ce9a6922"},"vehicle_type_id":"4","last_reported":1746043886,"current_range_meters":11600,"station_id":"","pricing_plan_id":"cebpf4jnsgd1na2vs0mg"},{"bike_id":"0e67c81a-0e5f-4899-ac46-4a5e225c8e7a","system_id":"levelo_inurba_marseille","lat":43.29299,"lon":5.3746,"is_reserved":false,"is_disabled":false,"rental_uris":{"android":"levelo://app?vid=0e67c81a-0e5f-4899-ac46-4a5e225c8e7a","ios":"levelo://app?vid=0e67c81a-0e5f-4899-ac46-4a5e225c8e7a"},"vehicle_type_id":"4","last_reported":1746043886,"current_range_meters":11600,"station_id":"","pricing_plan_id":"cebpf4jnsgd1na2vs0mg"},{"bike_id":"b78bad76-a221-4981-8aad-826b924bfb9c","system_id":"levelo_inurba_marseille","lat":43.31686,"lon":5.40473,"is_reserved":false,"is_disabled":false,"rental_uris":{"android":"levelo://app?vid=b78bad76-a221-4981-8aad-826b924bfb9c","ios":"levelo://app?vid=b78bad76-a221-4981-8aad-826b924bfb9c"},"vehicle_type_id":"4","last_reported":1746043886,"current_range_meters":11600,"station_id":"ce4bh012rcd13ifvqd00","pricing_plan_id":"cebpf4jnsgd1na2vs0mg"},{"bike_id":"c1cbc237-cfab-474a-aa26-81a87506105a","system_id":"levelo_inurba_marseille","lat":43.21771,"lon":5.34582,"is_reserved":false,"is_disabled":false,"rental_uris":{"android":"levelo://app?vid=c1cbc237-cfab-474a-aa26-81a87506105a","ios":"levelo://app?vid=c1cbc237-cfab-474a-aa26-81a87506105a"},"vehicle_type_id":"4","last_reported":1746043886,"current_range_meters":11600,"station_id":"st_cvj6r9ubvosntc0bgbag","pricing_plan_id":"cebpf4jnsgd1na2vs0mg"},{"bike_id":"195dccf3-f312-4123-bc4c-aeeb33652a6e","system_id":"levelo_inurba_marseille","lat":43.29074,"lon":5.37169,"is_reserved":false,"is_disabled":false,"rental_uris":{"android":"levelo://app?vid=195dccf3-f312-4123-bc4c-aeeb33652a6e","ios":"levelo://app?vid=195dccf3-f312-4123-bc4c-aeeb33652a6e"},"vehicle_type_id":"4","last_reported":1746043886,"current_range_meters":11600,"station_id":"ce4bh5p2rcd13ifvqe4g","pricing_plan_id":"cebpf4jnsgd1na2vs0mg"},{"bike_id":"ce2edcd9-612c-4f90-ac55-2d96398fbf93","system_id":"levelo_inurba_marseille","lat":43.29304,"lon":5.37163,"is_reserved":false,"is_disabled":false,"rental_uris":{"android":"levelo://app?vid=ce2edcd9-612c-4f90-ac55-2d96398fbf93","ios":"levelo://app?vid=ce2edcd9-612c-4f90-ac55-2d96398fbf93"},"vehicle_type_id":"4","last_reported":1746043886,"current_range_meters":12000,"station_id":"ce4bgh92rcd13ifvqb40","pricing_plan_id":"cebpf4jnsgd1na2vs0mg"},{"bike_id":"77942475-b9df-43a6-af61-b22087b935d2","system_id":"levelo_inurba_marseille","lat":43.29253,"lon":5.38441,"is_reserved":false,"is_disabled":true,"rental_uris":{"android":"levelo://app?vid=77942475-b9df-43a6-af61-b22087b935d2","ios":"levelo://app?vid=77942475-b9df-43a6-af61-b22087b935d2"},"vehicle_type_id":"4","last_reported":1746043886,"current_range_meters":12000,"station_id":"ce4bh692rcd13ifvqea0","pricing_plan_id":"cebpf4jnsgd1na2vs0mg"},{"bike_id":"47f6c0ec-30ec-43b5-8f95-a8e15c69543a","system_id":"levelo_inurba_marseille","lat":43.29203,"lon":5.39298,"is_reserved":false,"is_disabled":false,"rental_uris":{"android":"levelo://app?vid=47f6c0ec-30ec-43b5-8f95-a8e15c69543a","ios":"levelo://app?vid=47f6c0ec-30ec-43b5-8f95-a8e15c69543a"},"vehicle_type_id":"4","last_reported":1746043886,"current_range_meters":12000,"station_id":"ce4bh192rcd13ifvqdd0","pricing_plan_id":"cebpf4jnsgd1na2vs0mg"},{"bike_id":"7554057c-d062-45a9-bbba-61734221367a","system_id":"levelo_inurba_marseille","lat":43.29929,"lon":5.37463,"is_reserved":false,"is_disabled":false,"rental_uris":{"android":"levelo://app?vid=7554057c-d062-45a9-bbba-61734221367a","ios":"levelo://app?vid=7554057c-d062-45a9-bbba-61734221367a"},"vehicle_type_id":"4","last_reported":1746043886,"current_range_meters":12000,"station_id":"ce4bgjh2rcd13ifvqbg0","pricing_plan_id":"cebpf4jnsgd1na2vs0mg"},{"bike_id":"1eb61fd9-820e-4969-838f-02dbbfab2d00","system_id":"levelo_inurba_marseille","lat":43.29316,"lon":5.37164,"is_reserved":false,"is_disabled":false,"rental_uris":{"android":"levelo://app?vid=1eb61fd9-820e-4969-838f-02dbbfab2d00","ios":"levelo://app?vid=1eb61fd9-820e-4969-838f-02dbbfab2d00"},"vehicle_type_id":"4","last_reported":1746043886,"current_range_meters":12000,"station_id":"ce4bgh92rcd13ifvqb40","pricing_plan_id":"cebpf4jnsgd1na2vs0mg"},{"bike_id":"7fd30165-6156-4945-8c44-03bdc285b124","system_id":"levelo_inurba_marseille","lat":43.34143,"lon":5.40902,"is_reserved":false,"is_disabled":false,"rental_uris":{"android":"levelo://app?vid=7fd30165-6156-4945-8c44-03bdc285b124","ios":"levelo://app?vid=7fd30165-6156-4945-8c44-03bdc285b124"},"vehicle_type_id":"4","last_reported":1746043886,"current_range_meters":12000,"station_id":"ce4bhqh2rcd13ifvqhlg","pricing_plan_id":"cebpf4jnsgd1na2vs0mg"},{"bike_id":"3ce5a6a0-7c75-4b93-962c-2dd6ababc3c9","system_id":"levelo_inurba_marseille","lat":43.22498,"lon":5.34787,"is_reserved":false,"is_disabled":false,"rental_uris":{"android":"levelo://app?vid=3ce5a6a0-7c75-4b93-962c-2dd6ababc3c9","ios":"levelo://app?vid=3ce5a6a0-7c75-4b93-962c-2dd6ababc3c9"},"vehicle_type_id":"4","last_reported":1746043886,"current_range_meters":12000,"station_id":"st_cvj5dfep6f1abm77gieg","pricing_plan_id":"cebpf4jnsgd1na2vs0mg"},{"bike_id":"e76fa710-96e5-49b6-8e4c-a5ade4bcd2aa","system_id":"levelo_inurba_marseille","lat":43.28711,"lon":5.3999,"is_reserved":false,"is_disabled":false,"rental_uris":{"android":"levelo://app?vid=e76fa710-96e5-49b6-8e4c-a5ade4bcd2aa","ios":"levelo://app?vid=e76fa710-96e5-49b6-8e4c-a5ade4bcd2aa"},"vehicle_type_id":"4","last_reported":1746043886,"current_range_meters":12000,"station_id":"ce4bho92rcd13ifvqh3g","pricing_plan_id":"cebpf4jnsgd1na2vs0mg"},{"bike_id":"e22e3d7e-adb9-4920-b8be-418ea17d328a","system_id":"levelo_inurba_marseille","lat":43.27988,"lon":5.40031,"is_reserved":false,"is_disabled":false,"rental_uris":{"android":"levelo://app?vid=e22e3d7e-adb9-4920-b8be-418ea17d328a","ios":"levelo://app?vid=e22e3d7e-adb9-4920-b8be-418ea17d328a"},"vehicle_type_id":"4","last_reported":1746043886,"current_range_meters":12000,"station_id":"ce4bho92rcd13ifvqh4g","pricing_plan_id":"cebpf4jnsgd1na2vs0mg"},{"bike_id":"5b5ebdfd-e836-4fd6-9dc8-e499a37454f2","system_id":"levelo_inurba_marseille","lat":43.30891,"lon":5.39636,"is_reserved":false,"is_disabled":false,"rental_uris":{"android":"levelo://app?vid=5b5ebdfd-e836-4fd6-9dc8-e499a37454f2","ios":"levelo://app?vid=5b5ebdfd-e836-4fd6-9dc8-e499a37454f2"},"vehicle_type_id":"4","last_reported":1746043886,"current_range_meters":12400,"station_id":"ce4bh012rcd13ifvqcv0","pricing_plan_id":"cebpf4jnsgd1na2vs0mg"},{"bike_id":"a3845519-3b82-4050-bd6d-25f12fe73512","system_id":"levelo_inurba_marseille","lat":43.29417,"lon":5.38627,"is_reserved":false,"is_disabled":false,"rental_uris":{"android":"levelo://app?vid=a3845519-3b82-4050-bd6d-25f12fe73512","ios":"levelo://app?vid=a3845519-3b82-4050-bd6d-25f12fe73512"},"vehicle_type_id":"4","last_reported":1746043886,"current_range_meters":12400,"station_id":"ce4bh2h2rcd13ifvqdh0","pricing_plan_id":"cebpf4jnsgd1na2vs0mg"},{"bike_id":"8ab8f219-1642-4a0d-af2a-eaa8ea6c816f","system_id":"levelo_inurba_marseille","lat":43.31766,"lon":5.39031,"is_reserved":false,"is_disabled":false,"rental_uris":{"android":"levelo://app?vid=8ab8f219-1642-4a0d-af2a-eaa8ea6c816f","ios":"levelo://app?vid=8ab8f219-1642-4a0d-af2a-eaa8ea6c816f"},"vehicle_type_id":"4","last_reported":1746043886,"current_range_meters":12400,"station_id":"ce4bhqp2rcd13ifvqhng","pricing_plan_id":"cebpf4jnsgd1na2vs0mg"},{"bike_id":"93c3535d-3cb4-4d5e-8674-4af1ca712961","system_id":"levelo_inurba_marseille","lat":43.32287,"lon":5.38276,"is_reserved":false,"is_disabled":false,"rental_uris":{"android":"levelo://app?vid=93c3535d-3cb4-4d5e-8674-4af1ca712961","ios":"levelo://app?vid=93c3535d-3cb4-4d5e-8674-4af1ca712961"},"vehicle_type_id":"4","last_reported":1746043886,"current_range_meters":12400,"station_id":"ce4bhr12rcd13ifvqhqg","pricing_plan_id":"cebpf4jnsgd1na2vs0mg"},{"bike_id":"02e13467-4056-447a-93b9-cb9471367886","system_id":"levelo_inurba_marseille","lat":43.29871,"lon":5.3892,"is_reserved":false,"is_disabled":false,"rental_uris":{"android":"levelo://app?vid=02e13467-4056-447a-93b9-cb9471367886","ios":"levelo://app?vid=02e13467-4056-447a-93b9-cb9471367886"},"vehicle_type_id":"4","last_reported":1746043886,"current_range_meters":12400,"station_id":"ce4bh392rcd13ifvqdl0","pricing_plan_id":"cebpf4jnsgd1na2vs0mg"},{"bike_id":"379b8933-bc6e-4164-9d36-daaf2941e50f","system_id":"levelo_inurba_marseille","lat":43.30773,"lon":5.37442,"is_reserved":false,"is_disabled":false,"rental_uris":{"android":"levelo://app?vid=379b8933-bc6e-4164-9d36-daaf2941e50f","ios":"levelo://app?vid=379b8933-bc6e-4164-9d36-daaf2941e50f"},"vehicle_type_id":"4","last_reported":1746043886,"current_range_meters":12400,"station_id":"","pricing_plan_id":"cebpf4jnsgd1na2vs0mg"},{"bike_id":"ec656589-81cb-4c66-ab46-a750921fc170","system_id":"levelo_inurba_marseille","lat":43.293,"lon":5.37442,"is_reserved":false,"is_disabled":false,"rental_uris":{"android":"levelo://app?vid=ec656589-81cb-4c66-ab46-a750921fc170","ios":"levelo://app?vid=ec656589-81cb-4c66-ab46-a750921fc170"},"vehicle_type_id":"4","last_reported":1746043886,"current_range_meters":12400,"station_id":"ce4bgi12rcd13ifvqb70","pricing_plan_id":"cebpf4jnsgd1na2vs0mg"},{"bike_id":"70ea8790-d222-4b11-ac6e-d5f5f9c864df","system_id":"levelo_inurba_marseille","lat":43.291931,"lon":5.393114,"is_reserved":false,"is_disabled":false,"rental_uris":{"android":"levelo://app?vid=70ea8790-d222-4b11-ac6e-d5f5f9c864df","ios":"levelo://app?vid=70ea8790-d222-4b11-ac6e-d5f5f9c864df"},"vehicle_type_id":"4","last_reported":1746043886,"current_range_meters":12000,"station_id":"ce4bh192rcd13ifvqdd0","pricing_plan_id":"cebpf4jnsgd1na2vs0mg"},{"bike_id":"f331c66e-27bf-4106-a66e-ca8319290a03","system_id":"levelo_inurba_marseille","lat":43.30324,"lon":5.40445,"is_reserved":false,"is_disabled":false,"rental_uris":{"android":"levelo://app?vid=f331c66e-27bf-4106-a66e-ca8319290a03","ios":"levelo://app?vid=f331c66e-27bf-4106-a66e-ca8319290a03"},"vehicle_type_id":"4","last_reported":1746043886,"current_range_meters":12400,"station_id":"ce4bh012rcd13ifvqd10","pricing_plan_id":"cebpf4jnsgd1na2vs0mg"},{"bike_id":"d08fe425-042c-4938-b862-c3dc2ac034aa","system_id":"levelo_inurba_marseille","lat":43.32365,"lon":5.38884,"is_reserved":false,"is_disabled":false,"rental_uris":{"android":"levelo://app?vid=d08fe425-042c-4938-b862-c3dc2ac034aa","ios":"levelo://app?vid=d08fe425-042c-4938-b862-c3dc2ac034aa"},"vehicle_type_id":"4","last_reported":1746043886,"current_range_meters":12400,"station_id":"ce4bhqp2rcd13ifvqhog","pricing_plan_id":"cebpf4jnsgd1na2vs0mg"},{"bike_id":"f249c263-674c-4782-9b50-a10c05ed231f","system_id":"levelo_inurba_marseille","lat":43.29615,"lon":5.37731,"is_reserved":false,"is_disabled":false,"rental_uris":{"android":"levelo://app?vid=f249c263-674c-4782-9b50-a10c05ed231f","ios":"levelo://app?vid=f249c263-674c-4782-9b50-a10c05ed231f"},"vehicle_type_id":"4","last_reported":1746043886,"current_range_meters":12800,"station_id":"ce4bgi92rcd13ifvqb90","pricing_plan_id":"cebpf4jnsgd1na2vs0mg"},{"bike_id":"9bdba5ba-9504-4b11-9cd9-6201f570a053","system_id":"levelo_inurba_marseille","lat":43.29262,"lon":5.38431,"is_reserved":false,"is_disabled":false,"rental_uris":{"android":"levelo://app?vid=9bdba5ba-9504-4b11-9cd9-6201f570a053","ios":"levelo://app?vid=9bdba5ba-9504-4b11-9cd9-6201f570a053"},"vehicle_type_id":"4","last_reported":1746043886,"current_range_meters":12800,"station_id":"ce4bh692rcd13ifvqea0","pricing_plan_id":"cebpf4jnsgd1na2vs0mg"},{"bike_id":"6c9be10a-c832-40c2-95a2-ed10e011f039","system_id":"levelo_inurba_marseille","lat":43.29312,"lon":5.3744,"is_reserved":false,"is_disabled":false,"rental_uris":{"android":"levelo://app?vid=6c9be10a-c832-40c2-95a2-ed10e011f039","ios":"levelo://app?vid=6c9be10a-c832-40c2-95a2-ed10e011f039"},"vehicle_type_id":"4","last_reported":1746043886,"current_range_meters":12800,"station_id":"ce4bgi12rcd13ifvqb70","pricing_plan_id":"cebpf4jnsgd1na2vs0mg"},{"bike_id":"6555eae8-ee89-4931-9d34-307f8c436ad9","system_id":"levelo_inurba_marseille","lat":43.324707,"lon":5.365662,"is_reserved":false,"is_disabled":false,"rental_uris":{"android":"levelo://app?vid=6555eae8-ee89-4931-9d34-307f8c436ad9","ios":"levelo://app?vid=6555eae8-ee89-4931-9d34-307f8c436ad9"},"vehicle_type_id":"4","last_reported":1746043886,"current_range_meters":12800,"station_id":"ce4bhs12rcd13ifvqhvg","pricing_plan_id":"cebpf4jnsgd1na2vs0mg"},{"bike_id":"31f9b6f2-6350-43e6-af3a-bd46591c9ba5","system_id":"levelo_inurba_marseille","lat":43.28994,"lon":5.35618,"is_reserved":false,"is_disabled":true,"rental_uris":{"android":"levelo://app?vid=31f9b6f2-6350-43e6-af3a-bd46591c9ba5","ios":"levelo://app?vid=31f9b6f2-6350-43e6-af3a-bd46591c9ba5"},"vehicle_type_id":"4","last_reported":1746043886,"current_range_meters":12800,"station_id":"ce4bhb92rcd13ifvqen0","pricing_plan_id":"cebpf4jnsgd1na2vs0mg"},{"bike_id":"923d6a61-1396-471c-ab9e-77894b2b3496","system_id":"levelo_inurba_marseille","lat":43.29267,"lon":5.38442,"is_reserved":false,"is_disabled":false,"rental_uris":{"android":"levelo://app?vid=923d6a61-1396-471c-ab9e-77894b2b3496","ios":"levelo://app?vid=923d6a61-1396-471c-ab9e-77894b2b3496"},"vehicle_type_id":"4","last_reported":1746043886,"current_range_meters":12800,"station_id":"ce4bh692rcd13ifvqea0","pricing_plan_id":"cebpf4jnsgd1na2vs0mg"},{"bike_id":"be94bf91-c067-4c56-8962-64046c4c83a5","system_id":"levelo_inurba_marseille","lat":43.28008,"lon":5.40002,"is_reserved":false,"is_disabled":false,"rental_uris":{"android":"levelo://app?vid=be94bf91-c067-4c56-8962-64046c4c83a5","ios":"levelo://app?vid=be94bf91-c067-4c56-8962-64046c4c83a5"},"vehicle_type_id":"4","last_reported":1746043886,"current_range_meters":12800,"station_id":"ce4bho92rcd13ifvqh4g","pricing_plan_id":"cebpf4jnsgd1na2vs0mg"},{"bike_id":"6bd030a4-6608-42a4-87e6-6fc2dd858cd8","system_id":"levelo_inurba_marseille","lat":43.29416,"lon":5.3862,"is_reserved":false,"is_disabled":false,"rental_uris":{"android":"levelo://app?vid=6bd030a4-6608-42a4-87e6-6fc2dd858cd8","ios":"levelo://app?vid=6bd030a4-6608-42a4-87e6-6fc2dd858cd8"},"vehicle_type_id":"4","last_reported":1746043886,"current_range_meters":12800,"station_id":"ce4bh2h2rcd13ifvqdh0","pricing_plan_id":"cebpf4jnsgd1na2vs0mg"},{"bike_id":"3b132564-b414-452e-9137-47460ee72816","system_id":"levelo_inurba_marseille","lat":43.2998,"lon":5.3848,"is_reserved":false,"is_disabled":false,"rental_uris":{"android":"levelo://app?vid=3b132564-b414-452e-9137-47460ee72816","ios":"levelo://app?vid=3b132564-b414-452e-9137-47460ee72816"},"vehicle_type_id":"4","last_reported":1746043886,"current_range_meters":12800,"station_id":"ce4bgj92rcd13ifvqbd0","pricing_plan_id":"cebpf4jnsgd1na2vs0mg"},{"bike_id":"5e230a83-db77-4b7e-ba48-92a392ef31bd","system_id":"levelo_inurba_marseille","lat":43.292766,"lon":5.384357,"is_reserved":false,"is_disabled":false,"rental_uris":{"android":"levelo://app?vid=5e230a83-db77-4b7e-ba48-92a392ef31bd","ios":"levelo://app?vid=5e230a83-db77-4b7e-ba48-92a392ef31bd"},"vehicle_type_id":"4","last_reported":1746043886,"current_range_meters":13600,"station_id":"ce4bh692rcd13ifvqea0","pricing_plan_id":"cebpf4jnsgd1na2vs0mg"},{"bike_id":"0e527c09-f51f-47dc-9431-1a4db485a885","system_id":"levelo_inurba_marseille","lat":43.30253,"lon":5.40057,"is_reserved":false,"is_disabled":false,"rental_uris":{"android":"levelo://app?vid=0e527c09-f51f-47dc-9431-1a4db485a885","ios":"levelo://app?vid=0e527c09-f51f-47dc-9431-1a4db485a885"},"vehicle_type_id":"4","last_reported":1746043886,"current_range_meters":13600,"station_id":"ce4bgvh2rcd13ifvqcs0","pricing_plan_id":"cebpf4jnsgd1na2vs0mg"},{"bike_id":"85ea9e1f-37a8-4bd5-a8e6-66e47a3d13bb","system_id":"levelo_inurba_marseille","lat":43.33021,"lon":5.39061,"is_reserved":false,"is_disabled":false,"rental_uris":{"android":"levelo://app?vid=85ea9e1f-37a8-4bd5-a8e6-66e47a3d13bb","ios":"levelo://app?vid=85ea9e1f-37a8-4bd5-a8e6-66e47a3d13bb"},"vehicle_type_id":"4","last_reported":1746043886,"current_range_meters":13600,"station_id":"ce4bhr92rcd13ifvqhrg","pricing_plan_id":"cebpf4jnsgd1na2vs0mg"},{"bike_id":"a22f1270-1f6e-43ba-9f32-74abea75174b","system_id":"levelo_inurba_marseille","lat":43.305535,"lon":5.36543,"is_reserved":false,"is_disabled":false,"rental_uris":{"android":"levelo://app?vid=a22f1270-1f6e-43ba-9f32-74abea75174b","ios":"levelo://app?vid=a22f1270-1f6e-43ba-9f32-74abea75174b"},"vehicle_type_id":"4","last_reported":1746043886,"current_range_meters":13600,"station_id":"ce4bgs12rcd13ifvqcag","pricing_plan_id":"cebpf4jnsgd1na2vs0mg"},{"bike_id":"cc0345af-fcfa-4914-a250-4230833a11af","system_id":"levelo_inurba_marseille","lat":43.26579,"lon":5.39041,"is_reserved":false,"is_disabled":false,"rental_uris":{"android":"levelo://app?vid=cc0345af-fcfa-4914-a250-4230833a11af","ios":"levelo://app?vid=cc0345af-fcfa-4914-a250-4230833a11af"},"vehicle_type_id":"4","last_reported":1746043886,"current_range_meters":13600,"station_id":"ce4bhe12rcd13ifvqf30","pricing_plan_id":"cebpf4jnsgd1na2vs0mg"},{"bike_id":"39dfeace-3311-43ae-aedc-d114bfab0195","system_id":"levelo_inurba_marseille","lat":43.28453,"lon":5.35892,"is_reserved":false,"is_disabled":false,"rental_uris":{"android":"levelo://app?vid=39dfeace-3311-43ae-aedc-d114bfab0195","ios":"levelo://app?vid=39dfeace-3311-43ae-aedc-d114bfab0195"},"vehicle_type_id":"4","last_reported":1746043886,"current_range_meters":12800,"station_id":"ce4bhah2rcd13ifvqei0","pricing_plan_id":"cebpf4jnsgd1na2vs0mg"},{"bike_id":"9f87d872-9836-4a68-a4bb-b0ab837e0461","system_id":"levelo_inurba_marseille","lat":43.30565,"lon":5.36704,"is_reserved":false,"is_disabled":true,"rental_uris":{"android":"levelo://app?vid=9f87d872-9836-4a68-a4bb-b0ab837e0461","ios":"levelo://app?vid=9f87d872-9836-4a68-a4bb-b0ab837e0461"},"vehicle_type_id":"4","last_reported":1746043886,"current_range_meters":13600,"station_id":"ce4bgrp2rcd13ifvqc9g","pricing_plan_id":"cebpf4jnsgd1na2vs0mg"},{"bike_id":"31e43f84-57a0-46e7-a0a0-677ab8ace7a6","system_id":"levelo_inurba_marseille","lat":43.31881,"lon":5.40731,"is_reserved":false,"is_disabled":false,"rental_uris":{"android":"levelo://app?vid=31e43f84-57a0-46e7-a0a0-677ab8ace7a6","ios":"levelo://app?vid=31e43f84-57a0-46e7-a0a0-677ab8ace7a6"},"vehicle_type_id":"4","last_reported":1746043886,"current_range_meters":8400,"station_id":"ce4bhq12rcd13ifvqhig","pricing_plan_id":"cebpf4jnsgd1na2vs0mg"},{"bike_id":"c1c4a9e3-30bb-49bb-8635-848d029c3925","system_id":"levelo_inurba_marseille","lat":43.30301,"lon":5.36874,"is_reserved":false,"is_disabled":false,"rental_uris":{"android":"levelo://app?vid=c1c4a9e3-30bb-49bb-8635-848d029c3925","ios":"levelo://app?vid=c1c4a9e3-30bb-49bb-8635-848d029c3925"},"vehicle_type_id":"4","last_reported":1746043886,"current_range_meters":13600,"station_id":"ce4bgqh2rcd13ifvqc5g","pricing_plan_id":"cebpf4jnsgd1na2vs0mg"},{"bike_id":"0b036f43-db79-489b-833f-29d4260019f1","system_id":"levelo_inurba_marseille","lat":43.29558,"lon":5.42288,"is_reserved":false,"is_disabled":false,"rental_uris":{"android":"levelo://app?vid=0b036f43-db79-489b-833f-29d4260019f1","ios":"levelo://app?vid=0b036f43-db79-489b-833f-29d4260019f1"},"vehicle_type_id":"4","last_reported":1746043886,"current_range_meters":13600,"station_id":"ce4bhph2rcd13ifvqhdg","pricing_plan_id":"cebpf4jnsgd1na2vs0mg"},{"bike_id":"7c8d16fe-e6c5-42af-a599-a87c876dbdd4","system_id":"levelo_inurba_marseille","lat":43.3046,"lon":5.37907,"is_reserved":false,"is_disabled":false,"rental_uris":{"android":"levelo://app?vid=7c8d16fe-e6c5-42af-a599-a87c876dbdd4","ios":"levelo://app?vid=7c8d16fe-e6c5-42af-a599-a87c876dbdd4"},"vehicle_type_id":"4","last_reported":1746043886,"current_range_meters":14400,"station_id":"ce4bgup2rcd13ifvqcn0","pricing_plan_id":"cebpf4jnsgd1na2vs0mg"},{"bike_id":"ed0d42df-6b94-4572-8864-54a40101e001","system_id":"levelo_inurba_marseille","lat":43.304491,"lon":5.418528,"is_reserved":false,"is_disabled":false,"rental_uris":{"android":"levelo://app?vid=ed0d42df-6b94-4572-8864-54a40101e001","ios":"levelo://app?vid=ed0d42df-6b94-4572-8864-54a40101e001"},"vehicle_type_id":"4","last_reported":1746043886,"current_range_meters":14000,"station_id":"ce4bhp92rcd13ifvqhag","pricing_plan_id":"cebpf4jnsgd1na2vs0mg"},{"bike_id":"86c2979e-8cf6-48ed-bdb1-835ff11e3adc","system_id":"levelo_inurba_marseille","lat":43.25389,"lon":5.41846,"is_reserved":false,"is_disabled":false,"rental_uris":{"android":"levelo://app?vid=86c2979e-8cf6-48ed-bdb1-835ff11e3adc","ios":"levelo://app?vid=86c2979e-8cf6-48ed-bdb1-835ff11e3adc"},"vehicle_type_id":"4","last_reported":1746043886,"current_range_meters":14400,"station_id":"","pricing_plan_id":"cebpf4jnsgd1na2vs0mg"},{"bike_id":"28df68d2-726b-4117-b368-e6a4c12d9319","system_id":"levelo_inurba_marseille","lat":43.27173,"lon":5.40992,"is_reserved":false,"is_disabled":false,"rental_uris":{"android":"levelo://app?vid=28df68d2-726b-4117-b368-e6a4c12d9319","ios":"levelo://app?vid=28df68d2-726b-4117-b368-e6a4c12d9319"},"vehicle_type_id":"4","last_reported":1746043886,"current_range_meters":14400,"station_id":"ce4bhl12rcd13ifvqgf0","pricing_plan_id":"cebpf4jnsgd1na2vs0mg"},{"bike_id":"da557341-b4a1-447e-9606-415e0f9c6127","system_id":"levelo_inurba_marseille","lat":43.30474,"lon":5.37921,"is_reserved":false,"is_disabled":true,"rental_uris":{"android":"levelo://app?vid=da557341-b4a1-447e-9606-415e0f9c6127","ios":"levelo://app?vid=da557341-b4a1-447e-9606-415e0f9c6127"},"vehicle_type_id":"4","last_reported":1746043886,"current_range_meters":14400,"station_id":"ce4bgup2rcd13ifvqcn0","pricing_plan_id":"cebpf4jnsgd1na2vs0mg"},{"bike_id":"bc78c447-203e-480e-aaae-deef00849b1c","system_id":"levelo_inurba_marseille","lat":43.29532,"lon":5.38532,"is_reserved":false,"is_disabled":false,"rental_uris":{"android":"levelo://app?vid=bc78c447-203e-480e-aaae-deef00849b1c","ios":"levelo://app?vid=bc78c447-203e-480e-aaae-deef00849b1c"},"vehicle_type_id":"4","last_reported":1746043886,"current_range_meters":14400,"station_id":"ce4bgih2rcd13ifvqba0","pricing_plan_id":"cebpf4jnsgd1na2vs0mg"},{"bike_id":"01c644b8-3092-4734-a43a-37fdd8885367","system_id":"levelo_inurba_marseille","lat":43.29265,"lon":5.38452,"is_reserved":false,"is_disabled":false,"rental_uris":{"android":"levelo://app?vid=01c644b8-3092-4734-a43a-37fdd8885367","ios":"levelo://app?vid=01c644b8-3092-4734-a43a-37fdd8885367"},"vehicle_type_id":"4","last_reported":1746043886,"current_range_meters":14800,"station_id":"ce4bh692rcd13ifvqea0","pricing_plan_id":"cebpf4jnsgd1na2vs0mg"},{"bike_id":"bded5638-5663-46d5-b164-b8214836c3ea","system_id":"levelo_inurba_marseille","lat":43.27302,"lon":5.39202,"is_reserved":false,"is_disabled":false,"rental_uris":{"android":"levelo://app?vid=bded5638-5663-46d5-b164-b8214836c3ea","ios":"levelo://app?vid=bded5638-5663-46d5-b164-b8214836c3ea"},"vehicle_type_id":"4","last_reported":1746043886,"current_range_meters":14800,"station_id":"","pricing_plan_id":"cebpf4jnsgd1na2vs0mg"},{"bike_id":"8ace81f6-8ca7-456c-b76a-7cfc58af2c42","system_id":"levelo_inurba_marseille","lat":43.2655,"lon":5.39062,"is_reserved":false,"is_disabled":false,"rental_uris":{"android":"levelo://app?vid=8ace81f6-8ca7-456c-b76a-7cfc58af2c42","ios":"levelo://app?vid=8ace81f6-8ca7-456c-b76a-7cfc58af2c42"},"vehicle_type_id":"4","last_reported":1746043886,"current_range_meters":14800,"station_id":"ce4bhe12rcd13ifvqf30","pricing_plan_id":"cebpf4jnsgd1na2vs0mg"},{"bike_id":"fd427e05-8ad1-4dac-ba3a-e42fe8245eb3","system_id":"levelo_inurba_marseille","lat":43.28419,"lon":5.34989,"is_reserved":false,"is_disabled":true,"rental_uris":{"android":"levelo://app?vid=fd427e05-8ad1-4dac-ba3a-e42fe8245eb3","ios":"levelo://app?vid=fd427e05-8ad1-4dac-ba3a-e42fe8245eb3"},"vehicle_type_id":"4","last_reported":1746043886,"current_range_meters":14800,"station_id":"ce4bhbh2rcd13ifvqepg","pricing_plan_id":"cebpf4jnsgd1na2vs0mg"},{"bike_id":"a2651633-85d8-49ec-a36e-e3d3b8590bd6","system_id":"levelo_inurba_marseille","lat":43.29526,"lon":5.38536,"is_reserved":false,"is_disabled":false,"rental_uris":{"android":"levelo://app?vid=a2651633-85d8-49ec-a36e-e3d3b8590bd6","ios":"levelo://app?vid=a2651633-85d8-49ec-a36e-e3d3b8590bd6"},"vehicle_type_id":"4","last_reported":1746043886,"current_range_meters":14800,"station_id":"ce4bgih2rcd13ifvqba0","pricing_plan_id":"cebpf4jnsgd1na2vs0mg"},{"bike_id":"754a7dd5-d466-4547-ad3f-a98e4724e18d","system_id":"levelo_inurba_marseille","lat":43.292937,"lon":5.374563,"is_reserved":false,"is_disabled":false,"rental_uris":{"android":"levelo://app?vid=754a7dd5-d466-4547-ad3f-a98e4724e18d","ios":"levelo://app?vid=754a7dd5-d466-4547-ad3f-a98e4724e18d"},"vehicle_type_id":"4","last_reported":1746043886,"current_range_meters":15200,"station_id":"ce4bgi12rcd13ifvqb70","pricing_plan_id":"cebpf4jnsgd1na2vs0mg"},{"bike_id":"55b29bfc-37ea-488e-92fa-27009e04ca86","system_id":"levelo_inurba_marseille","lat":43.2942,"lon":5.386155,"is_reserved":false,"is_disabled":false,"rental_uris":{"android":"levelo://app?vid=55b29bfc-37ea-488e-92fa-27009e04ca86","ios":"levelo://app?vid=55b29bfc-37ea-488e-92fa-27009e04ca86"},"vehicle_type_id":"4","last_reported":1746043886,"current_range_meters":16000,"station_id":"ce4bh2h2rcd13ifvqdh0","pricing_plan_id":"cebpf4jnsgd1na2vs0mg"},{"bike_id":"dd9f8a39-762a-475d-86ee-cced83312794","system_id":"levelo_inurba_marseille","lat":43.31373,"lon":5.38483,"is_reserved":false,"is_disabled":false,"rental_uris":{"android":"levelo://app?vid=dd9f8a39-762a-475d-86ee-cced83312794","ios":"levelo://app?vid=dd9f8a39-762a-475d-86ee-cced83312794"},"vehicle_type_id":"4","last_reported":1746043886,"current_range_meters":15200,"station_id":"ce4bgt92rcd13ifvqcf0","pricing_plan_id":"cebpf4jnsgd1na2vs0mg"},{"bike_id":"dfc1c3a3-70ef-4cd6-b877-158060dd1768","system_id":"levelo_inurba_marseille","lat":43.28041,"lon":5.36943,"is_reserved":false,"is_disabled":false,"rental_uris":{"android":"levelo://app?vid=dfc1c3a3-70ef-4cd6-b877-158060dd1768","ios":"levelo://app?vid=dfc1c3a3-70ef-4cd6-b877-158060dd1768"},"vehicle_type_id":"4","last_reported":1746043886,"current_range_meters":16000,"station_id":"ce4bha12rcd13ifvqef0","pricing_plan_id":"cebpf4jnsgd1na2vs0mg"},{"bike_id":"70e6076b-a660-4e7b-ad52-86611de1528b","system_id":"levelo_inurba_marseille","lat":43.30135,"lon":5.39865,"is_reserved":false,"is_disabled":false,"rental_uris":{"android":"levelo://app?vid=70e6076b-a660-4e7b-ad52-86611de1528b","ios":"levelo://app?vid=70e6076b-a660-4e7b-ad52-86611de1528b"},"vehicle_type_id":"4","last_reported":1746043886,"current_range_meters":16000,"station_id":"ce4bh0h2rcd13ifvqd40","pricing_plan_id":"cebpf4jnsgd1na2vs0mg"},{"bike_id":"a688b131-ae29-4f11-8812-f85f61aa6706","system_id":"levelo_inurba_marseille","lat":43.292101,"lon":5.393194,"is_reserved":false,"is_disabled":true,"rental_uris":{"android":"levelo://app?vid=a688b131-ae29-4f11-8812-f85f61aa6706","ios":"levelo://app?vid=a688b131-ae29-4f11-8812-f85f61aa6706"},"vehicle_type_id":"4","last_reported":1746043886,"current_range_meters":16000,"station_id":"ce4bhbh2rcd13ifvqeo0","pricing_plan_id":"cebpf4jnsgd1na2vs0mg"},{"bike_id":"94ea22f8-487d-4eb2-b899-3e213f2ea5db","system_id":"levelo_inurba_marseille","lat":43.30909,"lon":5.39655,"is_reserved":false,"is_disabled":false,"rental_uris":{"android":"levelo://app?vid=94ea22f8-487d-4eb2-b899-3e213f2ea5db","ios":"levelo://app?vid=94ea22f8-487d-4eb2-b899-3e213f2ea5db"},"vehicle_type_id":"4","last_reported":1746043886,"current_range_meters":16000,"station_id":"ce4bh012rcd13ifvqcv0","pricing_plan_id":"cebpf4jnsgd1na2vs0mg"},{"bike_id":"083163f5-e2fd-40d2-9e4f-7b3d2d85df31","system_id":"levelo_inurba_marseille","lat":43.27003,"lon":5.38742,"is_reserved":false,"is_disabled":true,"rental_uris":{"android":"levelo://app?vid=083163f5-e2fd-40d2-9e4f-7b3d2d85df31","ios":"levelo://app?vid=083163f5-e2fd-40d2-9e4f-7b3d2d85df31"},"vehicle_type_id":"4","last_reported":1746043886,"current_range_meters":16000,"station_id":"","pricing_plan_id":"cebpf4jnsgd1na2vs0mg"},{"bike_id":"1177233e-dded-4fa5-9078-fb733cad22a4","system_id":"levelo_inurba_marseille","lat":43.29867,"lon":5.39732,"is_reserved":false,"is_disabled":false,"rental_uris":{"android":"levelo://app?vid=1177233e-dded-4fa5-9078-fb733cad22a4","ios":"levelo://app?vid=1177233e-dded-4fa5-9078-fb733cad22a4"},"vehicle_type_id":"4","last_reported":1746043886,"current_range_meters":16000,"station_id":"ce4bh0h2rcd13ifvqd50","pricing_plan_id":"cebpf4jnsgd1na2vs0mg"},{"bike_id":"fd7875a1-1cd0-47f8-880b-6ef58a6b7e2e","system_id":"levelo_inurba_marseille","lat":43.22861,"lon":5.35319,"is_reserved":false,"is_disabled":false,"rental_uris":{"android":"levelo://app?vid=fd7875a1-1cd0-47f8-880b-6ef58a6b7e2e","ios":"levelo://app?vid=fd7875a1-1cd0-47f8-880b-6ef58a6b7e2e"},"vehicle_type_id":"4","last_reported":1746043886,"current_range_meters":16000,"station_id":"cpo3532slgdg3j2ikp40","pricing_plan_id":"cebpf4jnsgd1na2vs0mg"},{"bike_id":"7940bc1b-eaa7-4f49-a435-46dc9391f6a1","system_id":"levelo_inurba_marseille","lat":43.21208,"lon":5.35049,"is_reserved":false,"is_disabled":false,"rental_uris":{"android":"levelo://app?vid=7940bc1b-eaa7-4f49-a435-46dc9391f6a1","ios":"levelo://app?vid=7940bc1b-eaa7-4f49-a435-46dc9391f6a1"},"vehicle_type_id":"4","last_reported":1746043886,"current_range_meters":16000,"station_id":"st_cvj6sg6p6f1abm77japg","pricing_plan_id":"cebpf4jnsgd1na2vs0mg"},{"bike_id":"34b484ab-c0f1-4e55-b51a-e2bafdafb63e","system_id":"levelo_inurba_marseille","lat":43.230547,"lon":5.354952,"is_reserved":false,"is_disabled":false,"rental_uris":{"android":"levelo://app?vid=34b484ab-c0f1-4e55-b51a-e2bafdafb63e","ios":"levelo://app?vid=34b484ab-c0f1-4e55-b51a-e2bafdafb63e"},"vehicle_type_id":"4","last_reported":1746043886,"current_range_meters":16000,"station_id":"cpo3342slgdg3j2ifvpg","pricing_plan_id":"cebpf4jnsgd1na2vs0mg"},{"bike_id":"66cf9de5-17de-4e38-9ee0-8d2cef3b4ab3","system_id":"levelo_inurba_marseille","lat":43.306642,"lon":5.400965,"is_reserved":false,"is_disabled":true,"rental_uris":{"android":"levelo://app?vid=66cf9de5-17de-4e38-9ee0-8d2cef3b4ab3","ios":"levelo://app?vid=66cf9de5-17de-4e38-9ee0-8d2cef3b4ab3"},"vehicle_type_id":"4","last_reported":1746043886,"current_range_meters":16000,"station_id":"ce4bh112rcd13ifvqda0","pricing_plan_id":"cebpf4jnsgd1na2vs0mg"},{"bike_id":"3098cac7-e464-414a-ab74-6d2177d3f806","system_id":"levelo_inurba_marseille","lat":43.29272,"lon":5.38414,"is_reserved":false,"is_disabled":false,"rental_uris":{"android":"levelo://app?vid=3098cac7-e464-414a-ab74-6d2177d3f806","ios":"levelo://app?vid=3098cac7-e464-414a-ab74-6d2177d3f806"},"vehicle_type_id":"4","last_reported":1746043886,"current_range_meters":16000,"station_id":"ce4bh692rcd13ifvqea0","pricing_plan_id":"cebpf4jnsgd1na2vs0mg"},{"bike_id":"eba926d0-a22e-4eec-9de3-d8b6db8c0601","system_id":"levelo_inurba_marseille","lat":43.29869,"lon":5.39728,"is_reserved":false,"is_disabled":false,"rental_uris":{"android":"levelo://app?vid=eba926d0-a22e-4eec-9de3-d8b6db8c0601","ios":"levelo://app?vid=eba926d0-a22e-4eec-9de3-d8b6db8c0601"},"vehicle_type_id":"4","last_reported":1746043886,"current_range_meters":16400,"station_id":"ce4bh0h2rcd13ifvqd50","pricing_plan_id":"cebpf4jnsgd1na2vs0mg"},{"bike_id":"fd474a4c-e4f0-45e4-bb5e-22aea07fb998","system_id":"levelo_inurba_marseille","lat":43.29393,"lon":5.38603,"is_reserved":false,"is_disabled":false,"rental_uris":{"android":"levelo://app?vid=fd474a4c-e4f0-45e4-bb5e-22aea07fb998","ios":"levelo://app?vid=fd474a4c-e4f0-45e4-bb5e-22aea07fb998"},"vehicle_type_id":"4","last_reported":1746043886,"current_range_meters":16400,"station_id":"ce4bh2h2rcd13ifvqdh0","pricing_plan_id":"cebpf4jnsgd1na2vs0mg"},{"bike_id":"da62e04f-aabf-4f2b-9e7f-761fdf6d967b","system_id":"levelo_inurba_marseille","lat":43.28399,"lon":5.37507,"is_reserved":false,"is_disabled":false,"rental_uris":{"android":"levelo://app?vid=da62e04f-aabf-4f2b-9e7f-761fdf6d967b","ios":"levelo://app?vid=da62e04f-aabf-4f2b-9e7f-761fdf6d967b"},"vehicle_type_id":"4","last_reported":1746043886,"current_range_meters":16400,"station_id":"ce4bh412rcd13ifvqds0","pricing_plan_id":"cebpf4jnsgd1na2vs0mg"},{"bike_id":"cf213cd4-8cf9-49b1-a970-a877125b76dc","system_id":"levelo_inurba_marseille","lat":43.3057,"lon":5.36536,"is_reserved":false,"is_disabled":false,"rental_uris":{"android":"levelo://app?vid=cf213cd4-8cf9-49b1-a970-a877125b76dc","ios":"levelo://app?vid=cf213cd4-8cf9-49b1-a970-a877125b76dc"},"vehicle_type_id":"4","last_reported":1746043886,"current_range_meters":16000,"station_id":"ce4bgs12rcd13ifvqcag","pricing_plan_id":"cebpf4jnsgd1na2vs0mg"},{"bike_id":"0ad2c942-0be1-4f61-b4bb-39b79780a914","system_id":"levelo_inurba_marseille","lat":43.29246,"lon":5.38436,"is_reserved":false,"is_disabled":false,"rental_uris":{"android":"levelo://app?vid=0ad2c942-0be1-4f61-b4bb-39b79780a914","ios":"levelo://app?vid=0ad2c942-0be1-4f61-b4bb-39b79780a914"},"vehicle_type_id":"4","last_reported":1746043886,"current_range_meters":16400,"station_id":"ce4bh692rcd13ifvqea0","pricing_plan_id":"cebpf4jnsgd1na2vs0mg"},{"bike_id":"3d13519f-8c59-4500-915b-0e3325a7d2e1","system_id":"levelo_inurba_marseille","lat":43.29872,"lon":5.38331,"is_reserved":false,"is_disabled":false,"rental_uris":{"android":"levelo://app?vid=3d13519f-8c59-4500-915b-0e3325a7d2e1","ios":"levelo://app?vid=3d13519f-8c59-4500-915b-0e3325a7d2e1"},"vehicle_type_id":"4","last_reported":1746043886,"current_range_meters":16400,"station_id":"","pricing_plan_id":"cebpf4jnsgd1na2vs0mg"},{"bike_id":"8a929bfe-23d1-4806-af94-ec712d7bf2f2","system_id":"levelo_inurba_marseille","lat":43.25085,"lon":5.39504,"is_reserved":false,"is_disabled":false,"rental_uris":{"android":"levelo://app?vid=8a929bfe-23d1-4806-af94-ec712d7bf2f2","ios":"levelo://app?vid=8a929bfe-23d1-4806-af94-ec712d7bf2f2"},"vehicle_type_id":"4","last_reported":1746043886,"current_range_meters":16000,"station_id":"ce4bhm12rcd13ifvqgkg","pricing_plan_id":"cebpf4jnsgd1na2vs0mg"},{"bike_id":"3ca9954e-b989-4ca7-93c5-394d47cadd3f","system_id":"levelo_inurba_marseille","lat":43.29418,"lon":5.38625,"is_reserved":false,"is_disabled":false,"rental_uris":{"android":"levelo://app?vid=3ca9954e-b989-4ca7-93c5-394d47cadd3f","ios":"levelo://app?vid=3ca9954e-b989-4ca7-93c5-394d47cadd3f"},"vehicle_type_id":"4","last_reported":1746043886,"current_range_meters":16400,"station_id":"ce4bh2h2rcd13ifvqdh0","pricing_plan_id":"cebpf4jnsgd1na2vs0mg"},{"bike_id":"0ab54b88-535d-45ef-8fa1-fc2ee720860a","system_id":"levelo_inurba_marseille","lat":43.29414,"lon":5.3863,"is_reserved":false,"is_disabled":false,"rental_uris":{"android":"levelo://app?vid=0ab54b88-535d-45ef-8fa1-fc2ee720860a","ios":"levelo://app?vid=0ab54b88-535d-45ef-8fa1-fc2ee720860a"},"vehicle_type_id":"4","last_reported":1746043886,"current_range_meters":16400,"station_id":"ce4bh2h2rcd13ifvqdh0","pricing_plan_id":"cebpf4jnsgd1na2vs0mg"},{"bike_id":"0442e366-80b6-4fa0-81a2-2dd04f9d5ce4","system_id":"levelo_inurba_marseille","lat":43.29268,"lon":5.38412,"is_reserved":false,"is_disabled":false,"rental_uris":{"android":"levelo://app?vid=0442e366-80b6-4fa0-81a2-2dd04f9d5ce4","ios":"levelo://app?vid=0442e366-80b6-4fa0-81a2-2dd04f9d5ce4"},"vehicle_type_id":"4","last_reported":1746043886,"current_range_meters":16400,"station_id":"ce4bh692rcd13ifvqea0","pricing_plan_id":"cebpf4jnsgd1na2vs0mg"},{"bike_id":"68387bcf-91b9-4d94-9345-8087e5f6d466","system_id":"levelo_inurba_marseille","lat":43.31333,"lon":5.36771,"is_reserved":false,"is_disabled":true,"rental_uris":{"android":"levelo://app?vid=68387bcf-91b9-4d94-9345-8087e5f6d466","ios":"levelo://app?vid=68387bcf-91b9-4d94-9345-8087e5f6d466"},"vehicle_type_id":"4","last_reported":1746043886,"current_range_meters":16800,"station_id":"","pricing_plan_id":"cebpf4jnsgd1na2vs0mg"},{"bike_id":"f74df9e9-c631-4735-a8bb-5ed84d54cf7a","system_id":"levelo_inurba_marseille","lat":43.29302,"lon":5.37462,"is_reserved":false,"is_disabled":false,"rental_uris":{"android":"levelo://app?vid=f74df9e9-c631-4735-a8bb-5ed84d54cf7a","ios":"levelo://app?vid=f74df9e9-c631-4735-a8bb-5ed84d54cf7a"},"vehicle_type_id":"4","last_reported":1746043886,"current_range_meters":16800,"station_id":"ce4bgi12rcd13ifvqb70","pricing_plan_id":"cebpf4jnsgd1na2vs0mg"},{"bike_id":"d40ff685-bbf1-4e39-99e9-156007dd5d0a","system_id":"levelo_inurba_marseille","lat":43.29258,"lon":5.3844,"is_reserved":false,"is_disabled":false,"rental_uris":{"android":"levelo://app?vid=d40ff685-bbf1-4e39-99e9-156007dd5d0a","ios":"levelo://app?vid=d40ff685-bbf1-4e39-99e9-156007dd5d0a"},"vehicle_type_id":"4","last_reported":1746043886,"current_range_meters":17200,"station_id":"ce4bh692rcd13ifvqea0","pricing_plan_id":"cebpf4jnsgd1na2vs0mg"},{"bike_id":"33f2aba3-5cb9-4116-90ed-7927061afb26","system_id":"levelo_inurba_marseille","lat":43.30562,"lon":5.36543,"is_reserved":false,"is_disabled":false,"rental_uris":{"android":"levelo://app?vid=33f2aba3-5cb9-4116-90ed-7927061afb26","ios":"levelo://app?vid=33f2aba3-5cb9-4116-90ed-7927061afb26"},"vehicle_type_id":"4","last_reported":1746043886,"current_range_meters":16800,"station_id":"ce4bgs12rcd13ifvqcag","pricing_plan_id":"cebpf4jnsgd1na2vs0mg"},{"bike_id":"f3cbe0d2-bcbf-4440-9f70-835a858ddb5a","system_id":"levelo_inurba_marseille","lat":43.28699,"lon":5.37388,"is_reserved":false,"is_disabled":false,"rental_uris":{"android":"levelo://app?vid=f3cbe0d2-bcbf-4440-9f70-835a858ddb5a","ios":"levelo://app?vid=f3cbe0d2-bcbf-4440-9f70-835a858ddb5a"},"vehicle_type_id":"4","last_reported":1746043886,"current_range_meters":16800,"station_id":"ce4bh3p2rcd13ifvqdq0","pricing_plan_id":"cebpf4jnsgd1na2vs0mg"},{"bike_id":"ff603d25-dfd6-4d27-b977-b9e13e227afc","system_id":"levelo_inurba_marseille","lat":43.245769,"lon":5.388106,"is_reserved":false,"is_disabled":false,"rental_uris":{"android":"levelo://app?vid=ff603d25-dfd6-4d27-b977-b9e13e227afc","ios":"levelo://app?vid=ff603d25-dfd6-4d27-b977-b9e13e227afc"},"vehicle_type_id":"4","last_reported":1746043886,"current_range_meters":16400,"station_id":"ce4bhg12rcd13ifvqf60","pricing_plan_id":"cebpf4jnsgd1na2vs0mg"},{"bike_id":"9a7b980a-42a2-43c2-943b-94992ea7eb94","system_id":"levelo_inurba_marseille","lat":43.29531,"lon":5.3854,"is_reserved":false,"is_disabled":false,"rental_uris":{"android":"levelo://app?vid=9a7b980a-42a2-43c2-943b-94992ea7eb94","ios":"levelo://app?vid=9a7b980a-42a2-43c2-943b-94992ea7eb94"},"vehicle_type_id":"4","last_reported":1746043886,"current_range_meters":16800,"station_id":"ce4bgih2rcd13ifvqba0","pricing_plan_id":"cebpf4jnsgd1na2vs0mg"},{"bike_id":"dc2dfdc7-73a2-4f18-837a-0677b3a23fbe","system_id":"levelo_inurba_marseille","lat":43.33598,"lon":5.41033,"is_reserved":false,"is_disabled":false,"rental_uris":{"android":"levelo://app?vid=dc2dfdc7-73a2-4f18-837a-0677b3a23fbe","ios":"levelo://app?vid=dc2dfdc7-73a2-4f18-837a-0677b3a23fbe"},"vehicle_type_id":"4","last_reported":1746043886,"current_range_meters":16800,"station_id":"ce4bhqh2rcd13ifvqhmg","pricing_plan_id":"cebpf4jnsgd1na2vs0mg"},{"bike_id":"eb90eeeb-0452-4885-88cd-e7be48a4b051","system_id":"levelo_inurba_marseille","lat":43.247598,"lon":5.400218,"is_reserved":false,"is_disabled":false,"rental_uris":{"android":"levelo://app?vid=eb90eeeb-0452-4885-88cd-e7be48a4b051","ios":"levelo://app?vid=eb90eeeb-0452-4885-88cd-e7be48a4b051"},"vehicle_type_id":"4","last_reported":1746043886,"current_range_meters":16800,"station_id":"ce4bhlh2rcd13ifvqgig","pricing_plan_id":"cebpf4jnsgd1na2vs0mg"},{"bike_id":"f02ae64c-9233-4a17-8305-23ebd345c78b","system_id":"levelo_inurba_marseille","lat":43.23184,"lon":5.39995,"is_reserved":false,"is_disabled":false,"rental_uris":{"android":"levelo://app?vid=f02ae64c-9233-4a17-8305-23ebd345c78b","ios":"levelo://app?vid=f02ae64c-9233-4a17-8305-23ebd345c78b"},"vehicle_type_id":"4","last_reported":1746043886,"current_range_meters":16800,"station_id":"ce4bhn12rcd13ifvqgqg","pricing_plan_id":"cebpf4jnsgd1na2vs0mg"},{"bike_id":"1276ff5c-0e07-4a84-8274-86c8fab8119b","system_id":"levelo_inurba_marseille","lat":43.290308,"lon":5.386421,"is_reserved":false,"is_disabled":true,"rental_uris":{"android":"levelo://app?vid=1276ff5c-0e07-4a84-8274-86c8fab8119b","ios":"levelo://app?vid=1276ff5c-0e07-4a84-8274-86c8fab8119b"},"vehicle_type_id":"4","last_reported":1746043886,"current_range_meters":16800,"station_id":"ce4bh4p2rcd13ifvqe0g","pricing_plan_id":"cebpf4jnsgd1na2vs0mg"},{"bike_id":"3cc87f65-e46d-4407-b242-cdee4fb12ff9","system_id":"levelo_inurba_marseille","lat":43.29427,"lon":5.38627,"is_reserved":false,"is_disabled":false,"rental_uris":{"android":"levelo://app?vid=3cc87f65-e46d-4407-b242-cdee4fb12ff9","ios":"levelo://app?vid=3cc87f65-e46d-4407-b242-cdee4fb12ff9"},"vehicle_type_id":"4","last_reported":1746043886,"current_range_meters":17200,"station_id":"ce4bh2h2rcd13ifvqdh0","pricing_plan_id":"cebpf4jnsgd1na2vs0mg"},{"bike_id":"a80efe56-7ec7-41b2-959d-a20ff548881b","system_id":"levelo_inurba_marseille","lat":43.32365,"lon":5.38882,"is_reserved":false,"is_disabled":false,"rental_uris":{"android":"levelo://app?vid=a80efe56-7ec7-41b2-959d-a20ff548881b","ios":"levelo://app?vid=a80efe56-7ec7-41b2-959d-a20ff548881b"},"vehicle_type_id":"4","last_reported":1746043886,"current_range_meters":17200,"station_id":"ce4bhqp2rcd13ifvqhog","pricing_plan_id":"cebpf4jnsgd1na2vs0mg"},{"bike_id":"4a6186b9-77ab-4d1b-bee4-89e8c8d0eedc","system_id":"levelo_inurba_marseille","lat":43.279078,"lon":5.380109,"is_reserved":false,"is_disabled":false,"rental_uris":{"android":"levelo://app?vid=4a6186b9-77ab-4d1b-bee4-89e8c8d0eedc","ios":"levelo://app?vid=4a6186b9-77ab-4d1b-bee4-89e8c8d0eedc"},"vehicle_type_id":"4","last_reported":1746043886,"current_range_meters":17200,"station_id":"","pricing_plan_id":"cebpf4jnsgd1na2vs0mg"},{"bike_id":"b58385b2-d1b2-4ecc-af75-eb7cf4772905","system_id":"levelo_inurba_marseille","lat":43.23059,"lon":5.35485,"is_reserved":false,"is_disabled":false,"rental_uris":{"android":"levelo://app?vid=b58385b2-d1b2-4ecc-af75-eb7cf4772905","ios":"levelo://app?vid=b58385b2-d1b2-4ecc-af75-eb7cf4772905"},"vehicle_type_id":"4","last_reported":1746043886,"current_range_meters":17200,"station_id":"cpo3342slgdg3j2ifvpg","pricing_plan_id":"cebpf4jnsgd1na2vs0mg"},{"bike_id":"206ec3bd-f182-4640-85de-4ddfaa2f0ead","system_id":"levelo_inurba_marseille","lat":43.29523,"lon":5.37552,"is_reserved":false,"is_disabled":false,"rental_uris":{"android":"levelo://app?vid=206ec3bd-f182-4640-85de-4ddfaa2f0ead","ios":"levelo://app?vid=206ec3bd-f182-4640-85de-4ddfaa2f0ead"},"vehicle_type_id":"4","last_reported":1746043886,"current_range_meters":17200,"station_id":"ce4bgkp2rcd13ifvqbmg","pricing_plan_id":"cebpf4jnsgd1na2vs0mg"},{"bike_id":"1651a5b4-f1bc-4a6c-b565-6fe9f91e43e2","system_id":"levelo_inurba_marseille","lat":43.29302,"lon":5.37444,"is_reserved":false,"is_disabled":false,"rental_uris":{"android":"levelo://app?vid=1651a5b4-f1bc-4a6c-b565-6fe9f91e43e2","ios":"levelo://app?vid=1651a5b4-f1bc-4a6c-b565-6fe9f91e43e2"},"vehicle_type_id":"4","last_reported":1746043886,"current_range_meters":17200,"station_id":"ce4bgi12rcd13ifvqb70","pricing_plan_id":"cebpf4jnsgd1na2vs0mg"},{"bike_id":"3dface62-a694-436c-aff8-0f4ae1ce3b56","system_id":"levelo_inurba_marseille","lat":43.2942,"lon":5.38629,"is_reserved":false,"is_disabled":false,"rental_uris":{"android":"levelo://app?vid=3dface62-a694-436c-aff8-0f4ae1ce3b56","ios":"levelo://app?vid=3dface62-a694-436c-aff8-0f4ae1ce3b56"},"vehicle_type_id":"4","last_reported":1746043886,"current_range_meters":17200,"station_id":"ce4bh2h2rcd13ifvqdh0","pricing_plan_id":"cebpf4jnsgd1na2vs0mg"},{"bike_id":"d3f96192-b5bb-4eec-97f1-4b6d3aacffce","system_id":"levelo_inurba_marseille","lat":43.29704,"lon":5.37698,"is_reserved":false,"is_disabled":false,"rental_uris":{"android":"levelo://app?vid=d3f96192-b5bb-4eec-97f1-4b6d3aacffce","ios":"levelo://app?vid=d3f96192-b5bb-4eec-97f1-4b6d3aacffce"},"vehicle_type_id":"4","last_reported":1746043886,"current_range_meters":17600,"station_id":"ce4bgkh2rcd13ifvqbl0","pricing_plan_id":"cebpf4jnsgd1na2vs0mg"},{"bike_id":"e14f59a5-0222-4844-97b7-07de15de0abb","system_id":"levelo_inurba_marseille","lat":43.30598,"lon":5.37197,"is_reserved":false,"is_disabled":false,"rental_uris":{"android":"levelo://app?vid=e14f59a5-0222-4844-97b7-07de15de0abb","ios":"levelo://app?vid=e14f59a5-0222-4844-97b7-07de15de0abb"},"vehicle_type_id":"4","last_reported":1746043886,"current_range_meters":17600,"station_id":"ce4bgqh2rcd13ifvqc4g","pricing_plan_id":"cebpf4jnsgd1na2vs0mg"},{"bike_id":"7cf74ad7-98d3-419a-be4c-7da7088dd8d2","system_id":"levelo_inurba_marseille","lat":43.29424,"lon":5.38619,"is_reserved":false,"is_disabled":false,"rental_uris":{"android":"levelo://app?vid=7cf74ad7-98d3-419a-be4c-7da7088dd8d2","ios":"levelo://app?vid=7cf74ad7-98d3-419a-be4c-7da7088dd8d2"},"vehicle_type_id":"4","last_reported":1746043886,"current_range_meters":17600,"station_id":"ce4bh2h2rcd13ifvqdh0","pricing_plan_id":"cebpf4jnsgd1na2vs0mg"},{"bike_id":"49b7fc22-ecd2-470a-8566-04a7acca8396","system_id":"levelo_inurba_marseille","lat":43.29538,"lon":5.38542,"is_reserved":false,"is_disabled":false,"rental_uris":{"android":"levelo://app?vid=49b7fc22-ecd2-470a-8566-04a7acca8396","ios":"levelo://app?vid=49b7fc22-ecd2-470a-8566-04a7acca8396"},"vehicle_type_id":"4","last_reported":1746043886,"current_range_meters":17600,"station_id":"ce4bgih2rcd13ifvqba0","pricing_plan_id":"cebpf4jnsgd1na2vs0mg"},{"bike_id":"2e1ce04f-74c7-4d68-a96b-b9dc1d6897ee","system_id":"levelo_inurba_marseille","lat":43.32302,"lon":5.38281,"is_reserved":false,"is_disabled":false,"rental_uris":{"android":"levelo://app?vid=2e1ce04f-74c7-4d68-a96b-b9dc1d6897ee","ios":"levelo://app?vid=2e1ce04f-74c7-4d68-a96b-b9dc1d6897ee"},"vehicle_type_id":"4","last_reported":1746043886,"current_range_meters":17600,"station_id":"ce4bhr12rcd13ifvqhqg","pricing_plan_id":"cebpf4jnsgd1na2vs0mg"},{"bike_id":"5f7d9cad-d756-4750-aa11-d67d0a4fb8fa","system_id":"levelo_inurba_marseille","lat":43.26562,"lon":5.37279,"is_reserved":false,"is_disabled":false,"rental_uris":{"android":"levelo://app?vid=5f7d9cad-d756-4750-aa11-d67d0a4fb8fa","ios":"levelo://app?vid=5f7d9cad-d756-4750-aa11-d67d0a4fb8fa"},"vehicle_type_id":"4","last_reported":1746043886,"current_range_meters":17600,"station_id":"ce4bhg12rcd13ifvqf70","pricing_plan_id":"cebpf4jnsgd1na2vs0mg"},{"bike_id":"b1b4d74f-092b-476b-abae-f60870c92748","system_id":"levelo_inurba_marseille","lat":43.25096,"lon":5.39519,"is_reserved":false,"is_disabled":false,"rental_uris":{"android":"levelo://app?vid=b1b4d74f-092b-476b-abae-f60870c92748","ios":"levelo://app?vid=b1b4d74f-092b-476b-abae-f60870c92748"},"vehicle_type_id":"4","last_reported":1746043886,"current_range_meters":18000,"station_id":"ce4bhm12rcd13ifvqgkg","pricing_plan_id":"cebpf4jnsgd1na2vs0mg"},{"bike_id":"cfa5ac29-a0c7-4279-9e91-046d69435543","system_id":"levelo_inurba_marseille","lat":43.28348,"lon":5.38113,"is_reserved":false,"is_disabled":false,"rental_uris":{"android":"levelo://app?vid=cfa5ac29-a0c7-4279-9e91-046d69435543","ios":"levelo://app?vid=cfa5ac29-a0c7-4279-9e91-046d69435543"},"vehicle_type_id":"4","last_reported":1746043886,"current_range_meters":18000,"station_id":"ce4bh412rcd13ifvqdr0","pricing_plan_id":"cebpf4jnsgd1na2vs0mg"},{"bike_id":"ae230b9f-3241-4a7a-86b9-45080a25e276","system_id":"levelo_inurba_marseille","lat":43.27564,"lon":5.38423,"is_reserved":false,"is_disabled":false,"rental_uris":{"android":"levelo://app?vid=ae230b9f-3241-4a7a-86b9-45080a25e276","ios":"levelo://app?vid=ae230b9f-3241-4a7a-86b9-45080a25e276"},"vehicle_type_id":"4","last_reported":1746043886,"current_range_meters":18000,"station_id":"ce4bhh92rcd13ifvqfi0","pricing_plan_id":"cebpf4jnsgd1na2vs0mg"},{"bike_id":"e8d80cf9-fb1d-4d6a-b79d-7a9d11621920","system_id":"levelo_inurba_marseille","lat":43.29422,"lon":5.38617,"is_reserved":false,"is_disabled":false,"rental_uris":{"android":"levelo://app?vid=e8d80cf9-fb1d-4d6a-b79d-7a9d11621920","ios":"levelo://app?vid=e8d80cf9-fb1d-4d6a-b79d-7a9d11621920"},"vehicle_type_id":"4","last_reported":1746043886,"current_range_meters":18000,"station_id":"ce4bh2h2rcd13ifvqdh0","pricing_plan_id":"cebpf4jnsgd1na2vs0mg"},{"bike_id":"a61b5a94-958b-4984-8f21-c4f7e2ae7f3a","system_id":"levelo_inurba_marseille","lat":43.24161,"lon":5.36389,"is_reserved":false,"is_disabled":false,"rental_uris":{"android":"levelo://app?vid=a61b5a94-958b-4984-8f21-c4f7e2ae7f3a","ios":"levelo://app?vid=a61b5a94-958b-4984-8f21-c4f7e2ae7f3a"},"vehicle_type_id":"4","last_reported":1746043886,"current_range_meters":18000,"station_id":"cpo36qri1sfpv3e86is0","pricing_plan_id":"cebpf4jnsgd1na2vs0mg"},{"bike_id":"51fab5ef-a00d-4e32-90af-91019d86dee9","system_id":"levelo_inurba_marseille","lat":43.32021,"lon":5.38104,"is_reserved":false,"is_disabled":true,"rental_uris":{"android":"levelo://app?vid=51fab5ef-a00d-4e32-90af-91019d86dee9","ios":"levelo://app?vid=51fab5ef-a00d-4e32-90af-91019d86dee9"},"vehicle_type_id":"4","last_reported":1746043886,"current_range_meters":18000,"station_id":"","pricing_plan_id":"cebpf4jnsgd1na2vs0mg"},{"bike_id":"e04d8849-6803-4a6a-8b19-f0f319b80140","system_id":"levelo_inurba_marseille","lat":43.29539,"lon":5.38531,"is_reserved":false,"is_disabled":false,"rental_uris":{"android":"levelo://app?vid=e04d8849-6803-4a6a-8b19-f0f319b80140","ios":"levelo://app?vid=e04d8849-6803-4a6a-8b19-f0f319b80140"},"vehicle_type_id":"4","last_reported":1746043886,"current_range_meters":18800,"station_id":"ce4bgih2rcd13ifvqba0","pricing_plan_id":"cebpf4jnsgd1na2vs0mg"},{"bike_id":"51a5e045-97e9-43a4-b9f0-40b340753da1","system_id":"levelo_inurba_marseille","lat":43.3088,"lon":5.39649,"is_reserved":false,"is_disabled":false,"rental_uris":{"android":"levelo://app?vid=51a5e045-97e9-43a4-b9f0-40b340753da1","ios":"levelo://app?vid=51a5e045-97e9-43a4-b9f0-40b340753da1"},"vehicle_type_id":"4","last_reported":1746043886,"current_range_meters":18800,"station_id":"ce4bh012rcd13ifvqcv0","pricing_plan_id":"cebpf4jnsgd1na2vs0mg"},{"bike_id":"486e3137-cb9e-4085-8e47-f0813ef8f535","system_id":"levelo_inurba_marseille","lat":43.29409,"lon":5.3865,"is_reserved":false,"is_disabled":false,"rental_uris":{"android":"levelo://app?vid=486e3137-cb9e-4085-8e47-f0813ef8f535","ios":"levelo://app?vid=486e3137-cb9e-4085-8e47-f0813ef8f535"},"vehicle_type_id":"4","last_reported":1746043886,"current_range_meters":18800,"station_id":"ce4bh2h2rcd13ifvqdh0","pricing_plan_id":"cebpf4jnsgd1na2vs0mg"},