{"last_updated":1729707150,"ttl":60,"version":"2.2","data":{"bikes":[{"bike_id":"1ba4fac4-2099-4987-b572-7bda99a09ac0","system_id":"levelo_inurba_marseille","lat":43.27623,"lon":5.36107,"is_reserved":false,"is_disabled":false,"rental_uris":{"android":"levelo://app?vid=1ba4fac4-2099-4987-b572-7bda99a09ac0","ios":"levelo://app?vid=1ba4fac4-2099-4987-b572-7bda99a09ac0"},"vehicle_type_id":"4","last_reported":1729707150,"current_range_meters":8000,"station_id":"ce4bgj92rcd13ifvqbe0","pricing_plan_id":"cebpf4jnsgd1na2vs0mg"},{"bike_id":"2f8114b4-de1e-44ec-a474-c32c53bd4f7d","system_id":"levelo_inurba_marseille","lat":43.28463,"lon":5.35885,"is_reserved":false,"is_disabled":false,"rental_uris":{"android":"levelo://app?vid=2f8114b4-de1e-44ec-a474-c32c53bd4f7d","ios":"levelo://app?vid=2f8114b4-de1e-44ec-a474-c32c53bd4f7d"},"vehicle_type_id":"4","last_reported":1729707150,"current_range_meters":20000,"station_id":"ce4bhah2rcd13ifvqei0","pricing_plan_id":"cebpf4jnsgd1na2vs0mg"},{"bike_id":"a0495abb-9c75-421a-9aa6-4b5d48b7b7f8","system_id":"levelo_inurba_marseille","lat":43.2926,"lon":5.40895,"is_reserved":false,"is_disabled":false,"rental_uris":{"android":"levelo://app?vid=a0495abb-9c75-421a-9aa6-4b5d48b7b7f8","ios":"levelo://app?vid=a0495abb-9c75-421a-9aa6-4b5d48b7b7f8"},"vehicle_type_id":"4","last_reported":1729707150,"current_range_meters":35600,"station_id":"ce4bh192rcd13ifvqdc0","pricing_plan_id":"cebpf4jnsgd1na2vs0mg"},{"bike_id":"3eb4fc21-7bbd-49a7-be87-becbf28a48f7","system_id":"levelo_inurba_marseille","lat":43.24178,"lon":5.39734,"is_reserved":false,"is_disabled":false,"rental_uris":{"android":"levelo://app?vid=3eb4fc21-7bbd-49a7-be87-becbf28a48f7","ios":"levelo://app?vid=3eb4fc21-7bbd-49a7-be87-becbf28a48f7"},"vehicle_type_id":"4","last_reported":1729707150,"current_range_meters":9600,"station_id":"ce4bhn12rcd13ifvqgpg","pricing_plan_id":"cebpf4jnsgd1na2vs0mg"},{"bike_id":"6db39c2e-83f3-4085-a9d2-cd430ac37f46","system_id":"levelo_inurba_marseille","lat":43.27187,"lon":5.40995,"is_reserved":false,"is_disabled":false,"rental_uris":{"android":"levelo://app?vid=6db39c2e-83f3-4085-a9d2-cd430ac37f46","ios":"levelo://app?vid=6db39c2e-83f3-4085-a9d2-cd430ac37f46"},"vehicle_type_id":"4","last_reported":1729707150,"current_range_meters":17200,"station_id":"ce4bhl12rcd13ifvqgf0","pricing_plan_id":"cebpf4jnsgd1na2vs0mg"},{"bike_id":"9a4dcf10-7370-40f8-b425-7efc649c3024","system_id":"levelo_inurba_marseille","lat":43.30934,"lon":5.4014,"is_reserved":false,"is_disabled":false,"rental_uris":{"android":"levelo://app?vid=9a4dcf10-7370-40f8-b425-7efc649c3024","ios":"levelo://app?vid=9a4dcf10-7370-40f8-b425-7efc649c3024"},"vehicle_type_id":"4","last_reported":1729707150,"current_range_meters":24000,"station_id":"ce4bgvp2rcd13ifvqct0","pricing_plan_id":"cebpf4jnsgd1na2vs0mg"},{"bike_id":"f307cb71-ae51-4738-a200-b6638ac19ca9","system_id":"levelo_inurba_marseille","lat":43.29192,"lon":5.35806,"is_reserved":false,"is_disabled":false,"rental_uris":{"android":"levelo://app?vid=f307cb71-ae51-4738-a200-b6638ac19ca9","ios":"levelo://app?vid=f307cb71-ae51-4738-a200-b6638ac19ca9"},"vehicle_type_id":"4","last_reported":1729707150,"current_range_meters":31200,"station_id":"ce4bhb12rcd13ifvqel0","pricing_plan_id":"cebpf4jnsgd1na2vs0mg"},{"bike_id":"469d3d44-a8c5-4c6e-8b24-4b908cc79e0b","system_id":"levelo_inurba_marseille","lat":43.30245,"lon":5.40083,"is_reserved":false,"is_disabled":false,"rental_uris":{"android":"levelo://app?vid=469d3d44-a8c5-4c6e-8b24-4b908cc79e0b","ios":"levelo://app?vid=469d3d44-a8c5-4c6e-8b24-4b908cc79e0b"},"vehicle_type_id":"4","last_reported":1729707150,"current_range_meters":20800,"station_id":"ce4bgvh2rcd13ifvqcs0","pricing_plan_id":"cebpf4jnsgd1na2vs0mg"},{"bike_id":"533d621c-8cc4-4dac-b752-24b23a6f634b","system_id":"levelo_inurba_marseille","lat":43.288239,"lon":5.392466,"is_reserved":false,"is_disabled":false,"rental_uris":{"android":"levelo://app?vid=533d621c-8cc4-4dac-b752-24b23a6f634b","ios":"levelo://app?vid=533d621c-8cc4-4dac-b752-24b23a6f634b"},"vehicle_type_id":"4","last_reported":1729707150,"current_range_meters":28400,"station_id":"ce4bh2p2rcd13ifvqdi0","pricing_plan_id":"cebpf4jnsgd1na2vs0mg"},{"bike_id":"72d66fb8-f7a7-4fe3-a522-bd2bf6abb98f","system_id":"levelo_inurba_marseille","lat":43.29871,"lon":5.39729,"is_reserved":false,"is_disabled":false,"rental_uris":{"android":"levelo://app?vid=72d66fb8-f7a7-4fe3-a522-bd2bf6abb98f","ios":"levelo://app?vid=72d66fb8-f7a7-4fe3-a522-bd2bf6abb98f"},"vehicle_type_id":"4","last_reported":1729707150,"current_range_meters":40000,"station_id":"ce4bh0h2rcd13ifvqd50","pricing_plan_id":"cebpf4jnsgd1na2vs0mg"},{"bike_id":"b4914009-bda3-4e41-b8f5-59c1a845d4ea","system_id":"levelo_inurba_marseille","lat":43.29204,"lon":5.39325,"is_reserved":false,"is_disabled":false,"rental_uris":{"android":"levelo://app?vid=b4914009-bda3-4e41-b8f5-59c1a845d4ea","ios":"levelo://app?vid=b4914009-bda3-4e41-b8f5-59c1a845d4ea"},"vehicle_type_id":"4","last_reported":1729707150,"current_range_meters":28800,"station_id":"ce4bh192rcd13ifvqdd0","pricing_plan_id":"cebpf4jnsgd1na2vs0mg"},{"bike_id":"c0a78757-7939-4731-8361-29859e84afa0","system_id":"levelo_inurba_marseille","lat":43.296082,"lon":5.380926,"is_reserved":false,"is_disabled":false,"rental_uris":{"android":"levelo://app?vid=c0a78757-7939-4731-8361-29859e84afa0","ios":"levelo://app?vid=c0a78757-7939-4731-8361-29859e84afa0"},"vehicle_type_id":"4","last_reported":1729707150,"current_range_meters":28400,"station_id":"ce4bh492rcd13ifvqdvg","pricing_plan_id":"cebpf4jnsgd1na2vs0mg"},{"bike_id":"cc0538ad-15fa-4526-b972-b6c4bd89aeeb","system_id":"levelo_inurba_marseille","lat":43.29595,"lon":5.38106,"is_reserved":false,"is_disabled":false,"rental_uris":{"android":"levelo://app?vid=cc0538ad-15fa-4526-b972-b6c4bd89aeeb","ios":"levelo://app?vid=cc0538ad-15fa-4526-b972-b6c4bd89aeeb"},"vehicle_type_id":"4","last_reported":1729707150,"current_range_meters":39200,"station_id":"ce4bgl12rcd13ifvqbo0","pricing_plan_id":"cebpf4jnsgd1na2vs0mg"},{"bike_id":"de69ba9e-3f8a-46d5-9be9-d6326fe46371","system_id":"levelo_inurba_marseille","lat":43.28365,"lon":5.35006,"is_reserved":false,"is_disabled":false,"rental_uris":{"android":"levelo://app?vid=de69ba9e-3f8a-46d5-9be9-d6326fe46371","ios":"levelo://app?vid=de69ba9e-3f8a-46d5-9be9-d6326fe46371"},"vehicle_type_id":"4","last_reported":1729707150,"current_range_meters":14000,"station_id":"ce4bgr92rcd13ifvqc7g","pricing_plan_id":"cebpf4jnsgd1na2vs0mg"},{"bike_id":"034ba5be-3f6f-481e-9a8b-8cc70f66e4f3","system_id":"levelo_inurba_marseille","lat":43.24667,"lon":5.38172,"is_reserved":false,"is_disabled":false,"rental_uris":{"android":"levelo://app?vid=034ba5be-3f6f-481e-9a8b-8cc70f66e4f3","ios":"levelo://app?vid=034ba5be-3f6f-481e-9a8b-8cc70f66e4f3"},"vehicle_type_id":"4","last_reported":1729707150,"current_range_meters":28400,"station_id":"ce4bhih2rcd13ifvqfr0","pricing_plan_id":"cebpf4jnsgd1na2vs0mg"},{"bike_id":"8c0b84d9-8797-4a27-bcf7-9e41bf9aa752","system_id":"levelo_inurba_marseille","lat":43.26056,"lon":5.39402,"is_reserved":false,"is_disabled":false,"rental_uris":{"android":"levelo://app?vid=8c0b84d9-8797-4a27-bcf7-9e41bf9aa752","ios":"levelo://app?vid=8c0b84d9-8797-4a27-bcf7-9e41bf9aa752"},"vehicle_type_id":"4","last_reported":1729707150,"current_range_meters":27600,"station_id":"ce4bhh92rcd13ifvqfj0","pricing_plan_id":"cebpf4jnsgd1na2vs0mg"},{"bike_id":"67051f55-1cfd-4fb5-847e-85b5c9bbd331","system_id":"levelo_inurba_marseille","lat":43.308888,"lon":5.371889,"is_reserved":false,"is_disabled":false,"rental_uris":{"android":"levelo://app?vid=67051f55-1cfd-4fb5-847e-85b5c9bbd331","ios":"levelo://app?vid=67051f55-1cfd-4fb5-847e-85b5c9bbd331"},"vehicle_type_id":"4","last_reported":1729707150,"current_range_meters":37600,"station_id":"ce4bguh2rcd13ifvqckg","pricing_plan_id":"cebpf4jnsgd1na2vs0mg"},{"bike_id":"006ef5d4-f812-412b-9d70-01fa1757f453","system_id":"levelo_inurba_marseille","lat":43.31075,"lon":5.38348,"is_reserved":false,"is_disabled":false,"rental_uris":{"android":"levelo://app?vid=006ef5d4-f812-412b-9d70-01fa1757f453","ios":"levelo://app?vid=006ef5d4-f812-412b-9d70-01fa1757f453"},"vehicle_type_id":"4","last_reported":1729707150,"current_range_meters":27600,"station_id":"ce4bgv92rcd13ifvqcr0","pricing_plan_id":"cebpf4jnsgd1na2vs0mg"},{"bike_id":"629a1d83-8dd6-432a-a224-7069ae46cbb1","system_id":"levelo_inurba_marseille","lat":43.29421,"lon":5.38613,"is_reserved":false,"is_disabled":false,"rental_uris":{"android":"levelo://app?vid=629a1d83-8dd6-432a-a224-7069ae46cbb1","ios":"levelo://app?vid=629a1d83-8dd6-432a-a224-7069ae46cbb1"},"vehicle_type_id":"4","last_reported":1729707150,"current_range_meters":11200,"station_id":"ce4bh2h2rcd13ifvqdh0","pricing_plan_id":"cebpf4jnsgd1na2vs0mg"},{"bike_id":"0dca5d1d-2e02-4606-8359-fe93bdd4c3d8","system_id":"levelo_inurba_marseille","lat":43.30547,"lon":5.38429,"is_reserved":false,"is_disabled":false,"rental_uris":{"android":"levelo://app?vid=0dca5d1d-2e02-4606-8359-fe93bdd4c3d8","ios":"levelo://app?vid=0dca5d1d-2e02-4606-8359-fe93bdd4c3d8"},"vehicle_type_id":"4","last_reported":1729707150,"current_range_meters":32800,"station_id":"ce4bgg92rcd13ifvqb30","pricing_plan_id":"cebpf4jnsgd1na2vs0mg"},{"bike_id":"a88ebcd2-56d8-4676-ad59-e423373b57b8","system_id":"levelo_inurba_marseille","lat":43.313679,"lon":5.384985,"is_reserved":false,"is_disabled":false,"rental_uris":{"android":"levelo://app?vid=a88ebcd2-56d8-4676-ad59-e423373b57b8","ios":"levelo://app?vid=a88ebcd2-56d8-4676-ad59-e423373b57b8"},"vehicle_type_id":"4","last_reported":1729707150,"current_range_meters":3600,"station_id":"ce4bgt92rcd13ifvqcf0","pricing_plan_id":"cebpf4jnsgd1na2vs0mg"},{"bike_id":"29714e1b-b2ca-4947-a281-4137ae0c9c7f","system_id":"levelo_inurba_marseille","lat":43.28459,"lon":5.35879,"is_reserved":false,"is_disabled":false,"rental_uris":{"android":"levelo://app?vid=29714e1b-b2ca-4947-a281-4137ae0c9c7f","ios":"levelo://app?vid=29714e1b-b2ca-4947-a281-4137ae0c9c7f"},"vehicle_type_id":"4","last_reported":1729707150,"current_range_meters":39200,"station_id":"ce4bhah2rcd13ifvqei0","pricing_plan_id":"cebpf4jnsgd1na2vs0mg"},{"bike_id":"2a30bbc1-454c-42f6-a499-6fb323b5a4a1","system_id":"levelo_inurba_marseille","lat":43.29527,"lon":5.38551,"is_reserved":false,"is_disabled":false,"rental_uris":{"android":"levelo://app?vid=2a30bbc1-454c-42f6-a499-6fb323b5a4a1","ios":"levelo://app?vid=2a30bbc1-454c-42f6-a499-6fb323b5a4a1"},"vehicle_type_id":"4","last_reported":1729707150,"current_range_meters":16400,"station_id":"ce4bgih2rcd13ifvqba0","pricing_plan_id":"cebpf4jnsgd1na2vs0mg"},{"bike_id":"c25b41f3-3e96-4fc2-a7e8-81a3359411d2","system_id":"levelo_inurba_marseille","lat":43.2846,"lon":5.35882,"is_reserved":false,"is_disabled":false,"rental_uris":{"android":"levelo://app?vid=c25b41f3-3e96-4fc2-a7e8-81a3359411d2","ios":"levelo://app?vid=c25b41f3-3e96-4fc2-a7e8-81a3359411d2"},"vehicle_type_id":"4","last_reported":1729707150,"current_range_meters":16800,"station_id":"ce4bhah2rcd13ifvqei0","pricing_plan_id":"cebpf4jnsgd1na2vs0mg"},{"bike_id":"fb69fb84-2214-4086-af0e-28a3a6b05ea2","system_id":"levelo_inurba_marseille","lat":43.29432,"lon":5.3975,"is_reserved":false,"is_disabled":false,"rental_uris":{"android":"levelo://app?vid=fb69fb84-2214-4086-af0e-28a3a6b05ea2","ios":"levelo://app?vid=fb69fb84-2214-4086-af0e-28a3a6b05ea2"},"vehicle_type_id":"4","last_reported":1729707150,"current_range_meters":39200,"station_id":"ce4bh3h2rcd13ifvqdo0","pricing_plan_id":"cebpf4jnsgd1na2vs0mg"},{"bike_id":"5c449356-4ac4-4d08-a405-c433fbe21a80","system_id":"levelo_inurba_marseille","lat":43.33737,"lon":5.37458,"is_reserved":false,"is_disabled":false,"rental_uris":{"android":"levelo://app?vid=5c449356-4ac4-4d08-a405-c433fbe21a80","ios":"levelo://app?vid=5c449356-4ac4-4d08-a405-c433fbe21a80"},"vehicle_type_id":"4","last_reported":1729707150,"current_range_meters":28400,"station_id":"","pricing_plan_id":"cebpf4jnsgd1na2vs0mg"},{"bike_id":"9e202d46-d051-4326-a224-4b36888e6d2f","system_id":"levelo_inurba_marseille","lat":43.291972,"lon":5.358017,"is_reserved":false,"is_disabled":false,"rental_uris":{"android":"levelo://app?vid=9e202d46-d051-4326-a224-4b36888e6d2f","ios":"levelo://app?vid=9e202d46-d051-4326-a224-4b36888e6d2f"},"vehicle_type_id":"4","last_reported":1729707150,"current_range_meters":4800,"station_id":"ce4bhb12rcd13ifvqel0","pricing_plan_id":"cebpf4jnsgd1na2vs0mg"},{"bike_id":"440ef4d4-8dfe-43c3-9a9f-d026a3a122ce","system_id":"levelo_inurba_marseille","lat":43.275665,"lon":5.389672,"is_reserved":false,"is_disabled":false,"rental_uris":{"android":"levelo://app?vid=440ef4d4-8dfe-43c3-9a9f-d026a3a122ce","ios":"levelo://app?vid=440ef4d4-8dfe-43c3-9a9f-d026a3a122ce"},"vehicle_type_id":"4","last_reported":1729707150,"current_range_meters":11600,"station_id":"ce4bhi12rcd13ifvqfo0","pricing_plan_id":"cebpf4jnsgd1na2vs0mg"},{"bike_id":"375ccb9a-5b07-450d-8d97-29ce8b87c156","system_id":"levelo_inurba_marseille","lat":43.29528,"lon":5.39033,"is_reserved":false,"is_disabled":false,"rental_uris":{"android":"levelo://app?vid=375ccb9a-5b07-450d-8d97-29ce8b87c156","ios":"levelo://app?vid=375ccb9a-5b07-450d-8d97-29ce8b87c156"},"vehicle_type_id":"4","last_reported":1729707150,"current_range_meters":28000,"station_id":"ce4bh3p2rcd13ifvqdp0","pricing_plan_id":"cebpf4jnsgd1na2vs0mg"},{"bike_id":"bfe71645-1566-4059-b6eb-9d46f9ecc855","system_id":"levelo_inurba_marseille","lat":43.26194,"lon":5.37449,"is_reserved":false,"is_disabled":false,"rental_uris":{"android":"levelo://app?vid=bfe71645-1566-4059-b6eb-9d46f9ecc855","ios":"levelo://app?vid=bfe71645-1566-4059-b6eb-9d46f9ecc855"},"vehicle_type_id":"4","last_reported":1729707150,"current_range_meters":38800,"station_id":"ce4bhgp2rcd13ifvqfc0","pricing_plan_id":"cebpf4jnsgd1na2vs0mg"},{"bike_id":"74001895-f230-4e75-94d7-e23bdef761d3","system_id":"levelo_inurba_marseille","lat":43.24653,"lon":5.38889,"is_reserved":false,"is_disabled":false,"rental_uris":{"android":"levelo://app?vid=74001895-f230-4e75-94d7-e23bdef761d3","ios":"levelo://app?vid=74001895-f230-4e75-94d7-e23bdef761d3"},"vehicle_type_id":"4","last_reported":1729707150,"current_range_meters":4400,"station_id":"ce4bhg12rcd13ifvqf60","pricing_plan_id":"cebpf4jnsgd1na2vs0mg"},{"bike_id":"c769be1b-4262-45e1-ae17-91133a0a1d6c","system_id":"levelo_inurba_marseille","lat":43.3053,"lon":5.36659,"is_reserved":false,"is_disabled":false,"rental_uris":{"android":"levelo://app?vid=c769be1b-4262-45e1-ae17-91133a0a1d6c","ios":"levelo://app?vid=c769be1b-4262-45e1-ae17-91133a0a1d6c"},"vehicle_type_id":"4","last_reported":1729707150,"current_range_meters":10800,"station_id":"","pricing_plan_id":"cebpf4jnsgd1na2vs0mg"},{"bike_id":"3bb3af60-2bcb-42a1-bc08-61d8ea2cf744","system_id":"levelo_inurba_marseille","lat":43.306061,"lon":5.372232,"is_reserved":false,"is_disabled":false,"rental_uris":{"android":"levelo://app?vid=3bb3af60-2bcb-42a1-bc08-61d8ea2cf744","ios":"levelo://app?vid=3bb3af60-2bcb-42a1-bc08-61d8ea2cf744"},"vehicle_type_id":"4","last_reported":1729707150,"current_range_meters":30000,"station_id":"ce4bgqh2rcd13ifvqc4g","pricing_plan_id":"cebpf4jnsgd1na2vs0mg"},{"bike_id":"4583c0c5-c3c9-4d00-9828-c3205a8dfd7e","system_id":"levelo_inurba_marseille","lat":43.30155,"lon":5.39198,"is_reserved":false,"is_disabled":false,"rental_uris":{"android":"levelo://app?vid=4583c0c5-c3c9-4d00-9828-c3205a8dfd7e","ios":"levelo://app?vid=4583c0c5-c3c9-4d00-9828-c3205a8dfd7e"},"vehicle_type_id":"4","last_reported":1729707150,"current_range_meters":8000,"station_id":"","pricing_plan_id":"cebpf4jnsgd1na2vs0mg"},{"bike_id":"abbca22d-b2ce-4e37-867c-33df7523b59f","system_id":"levelo_inurba_marseille","lat":43.25828,"lon":5.39428,"is_reserved":false,"is_disabled":false,"rental_uris":{"android":"levelo://app?vid=abbca22d-b2ce-4e37-867c-33df7523b59f","ios":"levelo://app?vid=abbca22d-b2ce-4e37-867c-33df7523b59f"},"vehicle_type_id":"4","last_reported":1729707150,"current_range_meters":35200,"station_id":"ce4bhip2rcd13ifvqft0","pricing_plan_id":"cebpf4jnsgd1na2vs0mg"},{"bike_id":"5f226615-4855-4cd3-9a51-f145088067d3","system_id":"levelo_inurba_marseille","lat":43.29191,"lon":5.35801,"is_reserved":false,"is_disabled":false,"rental_uris":{"android":"levelo://app?vid=5f226615-4855-4cd3-9a51-f145088067d3","ios":"levelo://app?vid=5f226615-4855-4cd3-9a51-f145088067d3"},"vehicle_type_id":"4","last_reported":1729707150,"current_range_meters":38400,"station_id":"ce4bhb12rcd13ifvqel0","pricing_plan_id":"cebpf4jnsgd1na2vs0mg"},{"bike_id":"1facd6ec-c2d6-4ccd-99c0-d9090d703c83","system_id":"levelo_inurba_marseille","lat":43.290412,"lon":5.386369,"is_reserved":false,"is_disabled":false,"rental_uris":{"android":"levelo://app?vid=1facd6ec-c2d6-4ccd-99c0-d9090d703c83","ios":"levelo://app?vid=1facd6ec-c2d6-4ccd-99c0-d9090d703c83"},"vehicle_type_id":"4","last_reported":1729707150,"current_range_meters":17200,"station_id":"ce4bh4p2rcd13ifvqe0g","pricing_plan_id":"cebpf4jnsgd1na2vs0mg"},{"bike_id":"766e9b3d-891c-42b5-8450-503c216e7572","system_id":"levelo_inurba_marseille","lat":43.2942,"lon":5.38632,"is_reserved":false,"is_disabled":false,"rental_uris":{"android":"levelo://app?vid=766e9b3d-891c-42b5-8450-503c216e7572","ios":"levelo://app?vid=766e9b3d-891c-42b5-8450-503c216e7572"},"vehicle_type_id":"4","last_reported":1729707150,"current_range_meters":38800,"station_id":"ce4bh2h2rcd13ifvqdh0","pricing_plan_id":"cebpf4jnsgd1na2vs0mg"},{"bike_id":"d02751ad-304f-4bf7-a306-56a377beb2e1","system_id":"levelo_inurba_marseille","lat":43.30126,"lon":5.39857,"is_reserved":false,"is_disabled":false,"rental_uris":{"android":"levelo://app?vid=d02751ad-304f-4bf7-a306-56a377beb2e1","ios":"levelo://app?vid=d02751ad-304f-4bf7-a306-56a377beb2e1"},"vehicle_type_id":"4","last_reported":1729707150,"current_range_meters":28400,"station_id":"ce4bh0h2rcd13ifvqd40","pricing_plan_id":"cebpf4jnsgd1na2vs0mg"},{"bike_id":"d1103c44-e8ca-4a46-9fe8-d6c96216480f","system_id":"levelo_inurba_marseille","lat":43.29299,"lon":5.37447,"is_reserved":false,"is_disabled":false,"rental_uris":{"android":"levelo://app?vid=d1103c44-e8ca-4a46-9fe8-d6c96216480f","ios":"levelo://app?vid=d1103c44-e8ca-4a46-9fe8-d6c96216480f"},"vehicle_type_id":"4","last_reported":1729707150,"current_range_meters":6000,"station_id":"","pricing_plan_id":"cebpf4jnsgd1na2vs0mg"},{"bike_id":"ff2082e7-99a7-41c7-9ff1-0d6516d9b8f7","system_id":"levelo_inurba_marseille","lat":43.25581,"lon":5.38233,"is_reserved":false,"is_disabled":false,"rental_uris":{"android":"levelo://app?vid=ff2082e7-99a7-41c7-9ff1-0d6516d9b8f7","ios":"levelo://app?vid=ff2082e7-99a7-41c7-9ff1-0d6516d9b8f7"},"vehicle_type_id":"4","last_reported":1729707150,"current_range_meters":28000,"station_id":"ce4bhih2rcd13ifvqfs0","pricing_plan_id":"cebpf4jnsgd1na2vs0mg"},{"bike_id":"8d183ae3-8d17-4e6c-af7b-9e9258b01820","system_id":"levelo_inurba_marseille","lat":43.30932,"lon":5.40127,"is_reserved":false,"is_disabled":false,"rental_uris":{"android":"levelo://app?vid=8d183ae3-8d17-4e6c-af7b-9e9258b01820","ios":"levelo://app?vid=8d183ae3-8d17-4e6c-af7b-9e9258b01820"},"vehicle_type_id":"4","last_reported":1729707150,"current_range_meters":36000,"station_id":"ce4bgvp2rcd13ifvqct0","pricing_plan_id":"cebpf4jnsgd1na2vs0mg"},{"bike_id":"67127234-0fcf-4c9d-8ebb-0512bb11f3c1","system_id":"levelo_inurba_marseille","lat":43.30932,"lon":5.40142,"is_reserved":false,"is_disabled":false,"rental_uris":{"android":"levelo://app?vid=67127234-0fcf-4c9d-8ebb-0512bb11f3c1","ios":"levelo://app?vid=67127234-0fcf-4c9d-8ebb-0512bb11f3c1"},"vehicle_type_id":"4","last_reported":1729707150,"current_range_meters":27600,"station_id":"ce4bgvp2rcd13ifvqct0","pricing_plan_id":"cebpf4jnsgd1na2vs0mg"},{"bike_id":"21c69f73-fa6f-4348-bb45-cf4fd017e13d","system_id":"levelo_inurba_marseille","lat":43.29267,"lon":5.38439,"is_reserved":false,"is_disabled":false,"rental_uris":{"android":"levelo://app?vid=21c69f73-fa6f-4348-bb45-cf4fd017e13d","ios":"levelo://app?vid=21c69f73-fa6f-4348-bb45-cf4fd017e13d"},"vehicle_type_id":"4","last_reported":1729707150,"current_range_meters":7200,"station_id":"ce4bh692rcd13ifvqea0","pricing_plan_id":"cebpf4jnsgd1na2vs0mg"},{"bike_id":"eb30d8bf-5934-4b26-b90f-5395b067fd3d","system_id":"levelo_inurba_marseille","lat":43.29261,"lon":5.38436,"is_reserved":false,"is_disabled":false,"rental_uris":{"android":"levelo://app?vid=eb30d8bf-5934-4b26-b90f-5395b067fd3d","ios":"levelo://app?vid=eb30d8bf-5934-4b26-b90f-5395b067fd3d"},"vehicle_type_id":"4","last_reported":1729707150,"current_range_meters":8800,"station_id":"ce4bh692rcd13ifvqea0","pricing_plan_id":"cebpf4jnsgd1na2vs0mg"},{"bike_id":"92db86b2-c324-4bda-a984-f7bc024a59af","system_id":"levelo_inurba_marseille","lat":43.27906,"lon":5.38003,"is_reserved":false,"is_disabled":false,"rental_uris":{"android":"levelo://app?vid=92db86b2-c324-4bda-a984-f7bc024a59af","ios":"levelo://app?vid=92db86b2-c324-4bda-a984-f7bc024a59af"},"vehicle_type_id":"4","last_reported":1729707150,"current_range_meters":40000,"station_id":"ce4bhf92rcd13ifvqf50","pricing_plan_id":"cebpf4jnsgd1na2vs0mg"},{"bike_id":"56ca28b0-7c2b-4c3c-bd9e-eff49780559d","system_id":"levelo_inurba_marseille","lat":43.26564,"lon":5.38993,"is_reserved":false,"is_disabled":false,"rental_uris":{"android":"levelo://app?vid=56ca28b0-7c2b-4c3c-bd9e-eff49780559d","ios":"levelo://app?vid=56ca28b0-7c2b-4c3c-bd9e-eff49780559d"},"vehicle_type_id":"4","last_reported":1729707150,"current_range_meters":19200,"station_id":"ce4bhe12rcd13ifvqf30","pricing_plan_id":"cebpf4jnsgd1na2vs0mg"},{"bike_id":"0b144a21-bc1d-440f-8437-0794928899e6","system_id":"levelo_inurba_marseille","lat":43.33023,"lon":5.3904,"is_reserved":false,"is_disabled":false,"rental_uris":{"android":"levelo://app?vid=0b144a21-bc1d-440f-8437-0794928899e6","ios":"levelo://app?vid=0b144a21-bc1d-440f-8437-0794928899e6"},"vehicle_type_id":"4","last_reported":1729707150,"current_range_meters":38800,"station_id":"ce4bhr92rcd13ifvqhrg","pricing_plan_id":"cebpf4jnsgd1na2vs0mg"},{"bike_id":"af0eb2bf-b987-4ac8-ba29-fb367ffc6b9c","system_id":"levelo_inurba_marseille","lat":43.29614,"lon":5.37726,"is_reserved":false,"is_disabled":false,"rental_uris":{"android":"levelo://app?vid=af0eb2bf-b987-4ac8-ba29-fb367ffc6b9c","ios":"levelo://app?vid=af0eb2bf-b987-4ac8-ba29-fb367ffc6b9c"},"vehicle_type_id":"4","last_reported":1729707150,"current_range_meters":39200,"station_id":"ce4bgi92rcd13ifvqb90","pricing_plan_id":"cebpf4jnsgd1na2vs0mg"},{"bike_id":"5df79437-8791-4a70-b062-6201aa1f4526","system_id":"levelo_inurba_marseille","lat":43.28858,"lon":5.35851,"is_reserved":false,"is_disabled":false,"rental_uris":{"android":"levelo://app?vid=5df79437-8791-4a70-b062-6201aa1f4526","ios":"levelo://app?vid=5df79437-8791-4a70-b062-6201aa1f4526"},"vehicle_type_id":"4","last_reported":1729707150,"current_range_meters":38400,"station_id":"ce4bhb12rcd13ifvqem0","pricing_plan_id":"cebpf4jnsgd1na2vs0mg"},{"bike_id":"4640c3cf-861b-4850-8ec2-0be8a63dabd0","system_id":"levelo_inurba_marseille","lat":43.29524,"lon":5.39036,"is_reserved":false,"is_disabled":false,"rental_uris":{"android":"levelo://app?vid=4640c3cf-861b-4850-8ec2-0be8a63dabd0","ios":"levelo://app?vid=4640c3cf-861b-4850-8ec2-0be8a63dabd0"},"vehicle_type_id":"4","last_reported":1729707150,"current_range_meters":16400,"station_id":"ce4bh3p2rcd13ifvqdp0","pricing_plan_id":"cebpf4jnsgd1na2vs0mg"},{"bike_id":"56a74156-c683-4af0-b1eb-1306495a4b31","system_id":"levelo_inurba_marseille","lat":43.27812,"lon":5.4072,"is_reserved":false,"is_disabled":false,"rental_uris":{"android":"levelo://app?vid=56a74156-c683-4af0-b1eb-1306495a4b31","ios":"levelo://app?vid=56a74156-c683-4af0-b1eb-1306495a4b31"},"vehicle_type_id":"4","last_reported":1729707150,"current_range_meters":30800,"station_id":"ce4bhnh2rcd13ifvqgtg","pricing_plan_id":"cebpf4jnsgd1na2vs0mg"},{"bike_id":"3e41417e-0b0c-4908-8670-c6d49ee292be","system_id":"levelo_inurba_marseille","lat":43.33757,"lon":5.3744,"is_reserved":false,"is_disabled":false,"rental_uris":{"android":"levelo://app?vid=3e41417e-0b0c-4908-8670-c6d49ee292be","ios":"levelo://app?vid=3e41417e-0b0c-4908-8670-c6d49ee292be"},"vehicle_type_id":"4","last_reported":1729707150,"current_range_meters":33600,"station_id":"","pricing_plan_id":"cebpf4jnsgd1na2vs0mg"},{"bike_id":"aad71c74-5686-42c5-a904-d1364d102a70","system_id":"levelo_inurba_marseille","lat":43.28348,"lon":5.38104,"is_reserved":false,"is_disabled":false,"rental_uris":{"android":"levelo://app?vid=aad71c74-5686-42c5-a904-d1364d102a70","ios":"levelo://app?vid=aad71c74-5686-42c5-a904-d1364d102a70"},"vehicle_type_id":"4","last_reported":1729707150,"current_range_meters":38800,"station_id":"ce4bh412rcd13ifvqdr0","pricing_plan_id":"cebpf4jnsgd1na2vs0mg"},{"bike_id":"025df8b3-3508-44fc-8e5b-f41c88d506da","system_id":"levelo_inurba_marseille","lat":43.32657,"lon":5.40996,"is_reserved":false,"is_disabled":false,"rental_uris":{"android":"levelo://app?vid=025df8b3-3508-44fc-8e5b-f41c88d506da","ios":"levelo://app?vid=025df8b3-3508-44fc-8e5b-f41c88d506da"},"vehicle_type_id":"4","last_reported":1729707150,"current_range_meters":39200,"station_id":"ce4bhpp2rcd13ifvqhgg","pricing_plan_id":"cebpf4jnsgd1na2vs0mg"},{"bike_id":"3997b4fd-2d02-4d47-a543-9eea358436f7","system_id":"levelo_inurba_marseille","lat":43.30929,"lon":5.40144,"is_reserved":false,"is_disabled":false,"rental_uris":{"android":"levelo://app?vid=3997b4fd-2d02-4d47-a543-9eea358436f7","ios":"levelo://app?vid=3997b4fd-2d02-4d47-a543-9eea358436f7"},"vehicle_type_id":"4","last_reported":1729707150,"current_range_meters":38800,"station_id":"ce4bgvp2rcd13ifvqct0","pricing_plan_id":"cebpf4jnsgd1na2vs0mg"},{"bike_id":"e024eb93-1388-4b38-b4ea-c427c9954604","system_id":"levelo_inurba_marseille","lat":43.29029,"lon":5.38634,"is_reserved":false,"is_disabled":false,"rental_uris":{"android":"levelo://app?vid=e024eb93-1388-4b38-b4ea-c427c9954604","ios":"levelo://app?vid=e024eb93-1388-4b38-b4ea-c427c9954604"},"vehicle_type_id":"4","last_reported":1729707150,"current_range_meters":34800,"station_id":"ce4bh4p2rcd13ifvqe0g","pricing_plan_id":"cebpf4jnsgd1na2vs0mg"},{"bike_id":"c5cd86c7-b418-464e-b1a3-329423a007ed","system_id":"levelo_inurba_marseille","lat":43.29278,"lon":5.38452,"is_reserved":false,"is_disabled":false,"rental_uris":{"android":"levelo://app?vid=c5cd86c7-b418-464e-b1a3-329423a007ed","ios":"levelo://app?vid=c5cd86c7-b418-464e-b1a3-329423a007ed"},"vehicle_type_id":"4","last_reported":1729707150,"current_range_meters":29600,"station_id":"ce4bh692rcd13ifvqea0","pricing_plan_id":"cebpf4jnsgd1na2vs0mg"},{"bike_id":"62265919-a7e6-43b6-ab19-cd2e135a3168","system_id":"levelo_inurba_marseille","lat":43.29966,"lon":5.37169,"is_reserved":false,"is_disabled":false,"rental_uris":{"android":"levelo://app?vid=62265919-a7e6-43b6-ab19-cd2e135a3168","ios":"levelo://app?vid=62265919-a7e6-43b6-ab19-cd2e135a3168"},"vehicle_type_id":"4","last_reported":1729707150,"current_range_meters":24800,"station_id":"ce4bgr92rcd13ifvqc7g","pricing_plan_id":"cebpf4jnsgd1na2vs0mg"},{"bike_id":"2063202e-9558-49e7-9cfe-831085732c3f","system_id":"levelo_inurba_marseille","lat":43.28926,"lon":5.38401,"is_reserved":false,"is_disabled":false,"rental_uris":{"android":"levelo://app?vid=2063202e-9558-49e7-9cfe-831085732c3f","ios":"levelo://app?vid=2063202e-9558-49e7-9cfe-831085732c3f"},"vehicle_type_id":"4","last_reported":1729707150,"current_range_meters":4800,"station_id":"ce4bh612rcd13ifvqe6g","pricing_plan_id":"cebpf4jnsgd1na2vs0mg"},{"bike_id":"de607bcc-571f-4360-bf95-17eeed182c1b","system_id":"levelo_inurba_marseille","lat":43.31329,"lon":5.39693,"is_reserved":false,"is_disabled":false,"rental_uris":{"android":"levelo://app?vid=de607bcc-571f-4360-bf95-17eeed182c1b","ios":"levelo://app?vid=de607bcc-571f-4360-bf95-17eeed182c1b"},"vehicle_type_id":"4","last_reported":1729707150,"current_range_meters":6000,"station_id":"ce4bgvp2rcd13ifvqcu0","pricing_plan_id":"cebpf4jnsgd1na2vs0mg"},{"bike_id":"6a689503-084e-42e8-8bd8-fc4c83906d6a","system_id":"levelo_inurba_marseille","lat":43.26028,"lon":5.3755,"is_reserved":false,"is_disabled":false,"rental_uris":{"android":"levelo://app?vid=6a689503-084e-42e8-8bd8-fc4c83906d6a","ios":"levelo://app?vid=6a689503-084e-42e8-8bd8-fc4c83906d6a"},"vehicle_type_id":"4","last_reported":1729707150,"current_range_meters":38800,"station_id":"ce4bhgh2rcd13ifvqfa0","pricing_plan_id":"cebpf4jnsgd1na2vs0mg"},{"bike_id":"ed15dd75-24f2-4854-8f75-50e7c0a4eef9","system_id":"levelo_inurba_marseille","lat":43.2707,"lon":5.42282,"is_reserved":false,"is_disabled":false,"rental_uris":{"android":"levelo://app?vid=ed15dd75-24f2-4854-8f75-50e7c0a4eef9","ios":"levelo://app?vid=ed15dd75-24f2-4854-8f75-50e7c0a4eef9"},"vehicle_type_id":"4","last_reported":1729707150,"current_range_meters":22000,"station_id":"ce4bhk92rcd13ifvqgb0","pricing_plan_id":"cebpf4jnsgd1na2vs0mg"},{"bike_id":"f4e5ea43-5c46-45cd-9e23-480bdc5c4119","system_id":"levelo_inurba_marseille","lat":43.31485,"lon":5.37313,"is_reserved":false,"is_disabled":false,"rental_uris":{"android":"levelo://app?vid=f4e5ea43-5c46-45cd-9e23-480bdc5c4119","ios":"levelo://app?vid=f4e5ea43-5c46-45cd-9e23-480bdc5c4119"},"vehicle_type_id":"4","last_reported":1729707150,"current_range_meters":10000,"station_id":"ce4bgt12rcd13ifvqcd0","pricing_plan_id":"cebpf4jnsgd1na2vs0mg"},{"bike_id":"dbe0fb42-88bc-4d6c-aaf7-3803e8d3f0c5","system_id":"levelo_inurba_marseille","lat":43.25112,"lon":5.40315,"is_reserved":false,"is_disabled":false,"rental_uris":{"android":"levelo://app?vid=dbe0fb42-88bc-4d6c-aaf7-3803e8d3f0c5","ios":"levelo://app?vid=dbe0fb42-88bc-4d6c-aaf7-3803e8d3f0c5"},"vehicle_type_id":"4","last_reported":1729707150,"current_range_meters":36400,"station_id":"ce4bhlh2rcd13ifvqgig","pricing_plan_id":"cebpf4jnsgd1na2vs0mg"},{"bike_id":"e3ed94af-ef61-447f-a92d-a1ac20da8860","system_id":"levelo_inurba_marseille","lat":43.26809,"lon":5.40269,"is_reserved":false,"is_disabled":false,"rental_uris":{"android":"levelo://app?vid=e3ed94af-ef61-447f-a92d-a1ac20da8860","ios":"levelo://app?vid=e3ed94af-ef61-447f-a92d-a1ac20da8860"},"vehicle_type_id":"4","last_reported":1729707150,"current_range_meters":3200,"station_id":"ce501612rcd8frsf0b60","pricing_plan_id":"cebpf4jnsgd1na2vs0mg"},{"bike_id":"85333cb8-55d0-4a1a-9d75-50e19da35598","system_id":"levelo_inurba_marseille","lat":43.28934,"lon":5.36399,"is_reserved":false,"is_disabled":false,"rental_uris":{"android":"levelo://app?vid=85333cb8-55d0-4a1a-9d75-50e19da35598","ios":"levelo://app?vid=85333cb8-55d0-4a1a-9d75-50e19da35598"},"vehicle_type_id":"4","last_reported":1729707150,"current_range_meters":7200,"station_id":"ce4bhc92rcd13ifvqetg","pricing_plan_id":"cebpf4jnsgd1na2vs0mg"},{"bike_id":"afea88b7-4b93-4828-80d0-707a1795fba5","system_id":"levelo_inurba_marseille","lat":43.25579,"lon":5.38225,"is_reserved":false,"is_disabled":false,"rental_uris":{"android":"levelo://app?vid=afea88b7-4b93-4828-80d0-707a1795fba5","ios":"levelo://app?vid=afea88b7-4b93-4828-80d0-707a1795fba5"},"vehicle_type_id":"4","last_reported":1729707150,"current_range_meters":28800,"station_id":"ce4bhih2rcd13ifvqfs0","pricing_plan_id":"cebpf4jnsgd1na2vs0mg"},{"bike_id":"f0c65a5f-0899-4ffa-929d-14e878b86fb1","system_id":"levelo_inurba_marseille","lat":43.34139,"lon":5.40901,"is_reserved":false,"is_disabled":false,"rental_uris":{"android":"levelo://app?vid=f0c65a5f-0899-4ffa-929d-14e878b86fb1","ios":"levelo://app?vid=f0c65a5f-0899-4ffa-929d-14e878b86fb1"},"vehicle_type_id":"4","last_reported":1729707150,"current_range_meters":20400,"station_id":"ce4bhqh2rcd13ifvqhlg","pricing_plan_id":"cebpf4jnsgd1na2vs0mg"},{"bike_id":"2a215e81-0ee9-4177-82d5-634ce42d69eb","system_id":"levelo_inurba_marseille","lat":43.29874,"lon":5.38902,"is_reserved":false,"is_disabled":false,"rental_uris":{"android":"levelo://app?vid=2a215e81-0ee9-4177-82d5-634ce42d69eb","ios":"levelo://app?vid=2a215e81-0ee9-4177-82d5-634ce42d69eb"},"vehicle_type_id":"4","last_reported":1729707150,"current_range_meters":16800,"station_id":"ce4bh392rcd13ifvqdl0","pricing_plan_id":"cebpf4jnsgd1na2vs0mg"},{"bike_id":"44bcd4b3-06f2-4377-9340-cc99d11816e8","system_id":"levelo_inurba_marseille","lat":43.32663,"lon":5.40993,"is_reserved":false,"is_disabled":false,"rental_uris":{"android":"levelo://app?vid=44bcd4b3-06f2-4377-9340-cc99d11816e8","ios":"levelo://app?vid=44bcd4b3-06f2-4377-9340-cc99d11816e8"},"vehicle_type_id":"4","last_reported":1729707150,"current_range_meters":38400,"station_id":"ce4bhpp2rcd13ifvqhgg","pricing_plan_id":"cebpf4jnsgd1na2vs0mg"},{"bike_id":"2fae2540-9d40-4bb7-aad7-41b4173da4a2","system_id":"levelo_inurba_marseille","lat":43.25928,"lon":5.40914,"is_reserved":false,"is_disabled":false,"rental_uris":{"android":"levelo://app?vid=2fae2540-9d40-4bb7-aad7-41b4173da4a2","ios":"levelo://app?vid=2fae2540-9d40-4bb7-aad7-41b4173da4a2"},"vehicle_type_id":"4","last_reported":1729707150,"current_range_meters":6400,"station_id":"ce4bhm92rcd13ifvqglg","pricing_plan_id":"cebpf4jnsgd1na2vs0mg"},{"bike_id":"14e7bc4b-45ae-4648-b7ec-6894b7286c5b","system_id":"levelo_inurba_marseille","lat":43.29417,"lon":5.38605,"is_reserved":false,"is_disabled":false,"rental_uris":{"android":"levelo://app?vid=14e7bc4b-45ae-4648-b7ec-6894b7286c5b","ios":"levelo://app?vid=14e7bc4b-45ae-4648-b7ec-6894b7286c5b"},"vehicle_type_id":"4","last_reported":1729707150,"current_range_meters":38800,"station_id":"ce4bh2h2rcd13ifvqdh0","pricing_plan_id":"cebpf4jnsgd1na2vs0mg"},{"bike_id":"987d85d7-7427-4a84-acff-6545ca5a8bcf","system_id":"levelo_inurba_marseille","lat":43.330282,"lon":5.390432,"is_reserved":false,"is_disabled":false,"rental_uris":{"android":"levelo://app?vid=987d85d7-7427-4a84-acff-6545ca5a8bcf","ios":"levelo://app?vid=987d85d7-7427-4a84-acff-6545ca5a8bcf"},"vehicle_type_id":"4","last_reported":1729707150,"current_range_meters":37600,"station_id":"ce4bhr92rcd13ifvqhrg","pricing_plan_id":"cebpf4jnsgd1na2vs0mg"},{"bike_id":"b5b7b9cd-376a-425d-8b66-03120503a1b8","system_id":"levelo_inurba_marseille","lat":43.3302,"lon":5.39039,"is_reserved":false,"is_disabled":false,"rental_uris":{"android":"levelo://app?vid=b5b7b9cd-376a-425d-8b66-03120503a1b8","ios":"levelo://app?vid=b5b7b9cd-376a-425d-8b66-03120503a1b8"},"vehicle_type_id":"4","last_reported":1729707150,"current_range_meters":6800,"station_id":"ce4bhr92rcd13ifvqhrg","pricing_plan_id":"cebpf4jnsgd1na2vs0mg"},{"bike_id":"97773253-7b05-4cec-8715-9becbc975b64","system_id":"levelo_inurba_marseille","lat":43.30126,"lon":5.39855,"is_reserved":false,"is_disabled":false,"rental_uris":{"android":"levelo://app?vid=97773253-7b05-4cec-8715-9becbc975b64","ios":"levelo://app?vid=97773253-7b05-4cec-8715-9becbc975b64"},"vehicle_type_id":"4","last_reported":1729707150,"current_range_meters":38800,"station_id":"ce4bh0h2rcd13ifvqd40","pricing_plan_id":"cebpf4jnsgd1na2vs0mg"},{"bike_id":"6fb0e852-6847-4eba-8878-ad7ced9824c7","system_id":"levelo_inurba_marseille","lat":43.2979,"lon":5.39355,"is_reserved":false,"is_disabled":false,"rental_uris":{"android":"levelo://app?vid=6fb0e852-6847-4eba-8878-ad7ced9824c7","ios":"levelo://app?vid=6fb0e852-6847-4eba-8878-ad7ced9824c7"},"vehicle_type_id":"4","last_reported":1729707150,"current_range_meters":10800,"station_id":"chh1huq6cuj3fo74tm60","pricing_plan_id":"cebpf4jnsgd1na2vs0mg"},{"bike_id":"26544c47-13ba-40a0-affa-6c9daa374698","system_id":"levelo_inurba_marseille","lat":43.29616,"lon":5.4059,"is_reserved":false,"is_disabled":false,"rental_uris":{"android":"levelo://app?vid=26544c47-13ba-40a0-affa-6c9daa374698","ios":"levelo://app?vid=26544c47-13ba-40a0-affa-6c9daa374698"},"vehicle_type_id":"4","last_reported":1729707150,"current_range_meters":36800,"station_id":"ce4bh0h2rcd13ifvqd60","pricing_plan_id":"cebpf4jnsgd1na2vs0mg"},{"bike_id":"0db385a8-0928-464b-bde2-45704220e29a","system_id":"levelo_inurba_marseille","lat":43.23841,"lon":5.43547,"is_reserved":false,"is_disabled":false,"rental_uris":{"android":"levelo://app?vid=0db385a8-0928-464b-bde2-45704220e29a","ios":"levelo://app?vid=0db385a8-0928-464b-bde2-45704220e29a"},"vehicle_type_id":"4","last_reported":1729707150,"current_range_meters":35200,"station_id":"","pricing_plan_id":"cebpf4jnsgd1na2vs0mg"},{"bike_id":"acf342d3-0e18-47a6-abae-3bcdb71d7add","system_id":"levelo_inurba_marseille","lat":43.24184,"lon":5.39728,"is_reserved":false,"is_disabled":false,"rental_uris":{"android":"levelo://app?vid=acf342d3-0e18-47a6-abae-3bcdb71d7add","ios":"levelo://app?vid=acf342d3-0e18-47a6-abae-3bcdb71d7add"},"vehicle_type_id":"4","last_reported":1729707150,"current_range_meters":19600,"station_id":"ce4bhn12rcd13ifvqgpg","pricing_plan_id":"cebpf4jnsgd1na2vs0mg"},{"bike_id":"51685599-8c83-4bcf-9b63-fd347674b6fc","system_id":"levelo_inurba_marseille","lat":43.2846,"lon":5.35885,"is_reserved":false,"is_disabled":false,"rental_uris":{"android":"levelo://app?vid=51685599-8c83-4bcf-9b63-fd347674b6fc","ios":"levelo://app?vid=51685599-8c83-4bcf-9b63-fd347674b6fc"},"vehicle_type_id":"4","last_reported":1729707150,"current_range_meters":21600,"station_id":"ce4bhah2rcd13ifvqei0","pricing_plan_id":"cebpf4jnsgd1na2vs0mg"},{"bike_id":"98a134a6-b72c-4fd4-9556-7a1d7ab3312c","system_id":"levelo_inurba_marseille","lat":43.28273,"lon":5.35063,"is_reserved":false,"is_disabled":false,"rental_uris":{"android":"levelo://app?vid=98a134a6-b72c-4fd4-9556-7a1d7ab3312c","ios":"levelo://app?vid=98a134a6-b72c-4fd4-9556-7a1d7ab3312c"},"vehicle_type_id":"4","last_reported":1729707150,"current_range_meters":24400,"station_id":"ce4bhbp2rcd13ifvqerg","pricing_plan_id":"cebpf4jnsgd1na2vs0mg"},{"bike_id":"a862e632-b591-4a82-b88c-0c185d2125b7","system_id":"levelo_inurba_marseille","lat":43.30932,"lon":5.4014,"is_reserved":false,"is_disabled":false,"rental_uris":{"android":"levelo://app?vid=a862e632-b591-4a82-b88c-0c185d2125b7","ios":"levelo://app?vid=a862e632-b591-4a82-b88c-0c185d2125b7"},"vehicle_type_id":"4","last_reported":1729707150,"current_range_meters":18800,"station_id":"ce4bgvp2rcd13ifvqct0","pricing_plan_id":"cebpf4jnsgd1na2vs0mg"},{"bike_id":"cb858dcc-f52d-4cdd-a5a6-3d716027f3d4","system_id":"levelo_inurba_marseille","lat":43.30136,"lon":5.39864,"is_reserved":false,"is_disabled":false,"rental_uris":{"android":"levelo://app?vid=cb858dcc-f52d-4cdd-a5a6-3d716027f3d4","ios":"levelo://app?vid=cb858dcc-f52d-4cdd-a5a6-3d716027f3d4"},"vehicle_type_id":"4","last_reported":1729707150,"current_range_meters":38800,"station_id":"ce4bh0h2rcd13ifvqd40","pricing_plan_id":"cebpf4jnsgd1na2vs0mg"},{"bike_id":"94e4e2a4-8669-481c-bbae-a4a7392593e6","system_id":"levelo_inurba_marseille","lat":43.30529,"lon":5.36715,"is_reserved":false,"is_disabled":false,"rental_uris":{"android":"levelo://app?vid=94e4e2a4-8669-481c-bbae-a4a7392593e6","ios":"levelo://app?vid=94e4e2a4-8669-481c-bbae-a4a7392593e6"},"vehicle_type_id":"4","last_reported":1729707150,"current_range_meters":16000,"station_id":"ce4bgrp2rcd13ifvqc9g","pricing_plan_id":"cebpf4jnsgd1na2vs0mg"},{"bike_id":"05972504-015f-49d5-ae6b-1aeb738379d5","system_id":"levelo_inurba_marseille","lat":43.29268,"lon":5.38439,"is_reserved":false,"is_disabled":false,"rental_uris":{"android":"levelo://app?vid=05972504-015f-49d5-ae6b-1aeb738379d5","ios":"levelo://app?vid=05972504-015f-49d5-ae6b-1aeb738379d5"},"vehicle_type_id":"4","last_reported":1729707150,"current_range_meters":6800,"station_id":"ce4bh692rcd13ifvqea0","pricing_plan_id":"cebpf4jnsgd1na2vs0mg"},{"bike_id":"d3834dbd-20f2-4a27-b7c3-2a94ff1de0d5","system_id":"levelo_inurba_marseille","lat":43.25106,"lon":5.40323,"is_reserved":false,"is_disabled":false,"rental_uris":{"android":"levelo://app?vid=d3834dbd-20f2-4a27-b7c3-2a94ff1de0d5","ios":"levelo://app?vid=d3834dbd-20f2-4a27-b7c3-2a94ff1de0d5"},"vehicle_type_id":"4","last_reported":1729707150,"current_range_meters":36400,"station_id":"ce4bhlh2rcd13ifvqgig","pricing_plan_id":"cebpf4jnsgd1na2vs0mg"},{"bike_id":"39c8b112-9a49-4084-8901-d901b56d2fee","system_id":"levelo_inurba_marseille","lat":43.30673,"lon":5.38186,"is_reserved":false,"is_disabled":false,"rental_uris":{"android":"levelo://app?vid=39c8b112-9a49-4084-8901-d901b56d2fee","ios":"levelo://app?vid=39c8b112-9a49-4084-8901-d901b56d2fee"},"vehicle_type_id":"4","last_reported":1729707150,"current_range_meters":32400,"station_id":"","pricing_plan_id":"cebpf4jnsgd1na2vs0mg"},{"bike_id":"9429b0b7-a6da-4796-8219-366e9b50357c","system_id":"levelo_inurba_marseille","lat":43.32661,"lon":5.40988,"is_reserved":false,"is_disabled":false,"rental_uris":{"android":"levelo://app?vid=9429b0b7-a6da-4796-8219-366e9b50357c","ios":"levelo://app?vid=9429b0b7-a6da-4796-8219-366e9b50357c"},"vehicle_type_id":"4","last_reported":1729707150,"current_range_meters":28800,"station_id":"ce4bhpp2rcd13ifvqhgg","pricing_plan_id":"cebpf4jnsgd1na2vs0mg"},{"bike_id":"0878f0be-ee74-4e14-b961-a99e2658adc0","system_id":"levelo_inurba_marseille","lat":43.27068,"lon":5.42271,"is_reserved":false,"is_disabled":false,"rental_uris":{"android":"levelo://app?vid=0878f0be-ee74-4e14-b961-a99e2658adc0","ios":"levelo://app?vid=0878f0be-ee74-4e14-b961-a99e2658adc0"},"vehicle_type_id":"4","last_reported":1729707150,"current_range_meters":30800,"station_id":"ce4bhk92rcd13ifvqgb0","pricing_plan_id":"cebpf4jnsgd1na2vs0mg"},{"bike_id":"61ff86f4-0285-48e4-aa0f-06c08e1adda6","system_id":"levelo_inurba_marseille","lat":43.32661,"lon":5.40986,"is_reserved":false,"is_disabled":false,"rental_uris":{"android":"levelo://app?vid=61ff86f4-0285-48e4-aa0f-06c08e1adda6","ios":"levelo://app?vid=61ff86f4-0285-48e4-aa0f-06c08e1adda6"},"vehicle_type_id":"4","last_reported":1729707150,"current_range_meters":12800,"station_id":"ce4bhpp2rcd13ifvqhgg","pricing_plan_id":"cebpf4jnsgd1na2vs0mg"},{"bike_id":"7cf3319a-12e0-48e0-b967-0086f781e2b6","system_id":"levelo_inurba_marseille","lat":43.30431,"lon":5.38894,"is_reserved":false,"is_disabled":false,"rental_uris":{"android":"levelo://app?vid=7cf3319a-12e0-48e0-b967-0086f781e2b6","ios":"levelo://app?vid=7cf3319a-12e0-48e0-b967-0086f781e2b6"},"vehicle_type_id":"4","last_reported":1729707150,"current_range_meters":35200,"station_id":"ce4bgk12rcd13ifvqbi0","pricing_plan_id":"cebpf4jnsgd1na2vs0mg"},{"bike_id":"10acd08e-2c97-4dd2-8024-94bf5f911bfa","system_id":"levelo_inurba_marseille","lat":43.29256,"lon":5.38444,"is_reserved":false,"is_disabled":false,"rental_uris":{"android":"levelo://app?vid=10acd08e-2c97-4dd2-8024-94bf5f911bfa","ios":"levelo://app?vid=10acd08e-2c97-4dd2-8024-94bf5f911bfa"},"vehicle_type_id":"4","last_reported":1729707150,"current_range_meters":29600,"station_id":"ce4bh692rcd13ifvqea0","pricing_plan_id":"cebpf4jnsgd1na2vs0mg"},{"bike_id":"ad50098e-f195-4482-93f0-88a3265e562c","system_id":"levelo_inurba_marseille","lat":43.30793,"lon":5.43524,"is_reserved":false,"is_disabled":false,"rental_uris":{"android":"levelo://app?vid=ad50098e-f195-4482-93f0-88a3265e562c","ios":"levelo://app?vid=ad50098e-f195-4482-93f0-88a3265e562c"},"vehicle_type_id":"4","last_reported":1729707150,"current_range_meters":5600,"station_id":"ce4bhph2rcd13ifvqheg","pricing_plan_id":"cebpf4jnsgd1na2vs0mg"},{"bike_id":"e88b7720-217c-4297-bb68-edc7c4ca0fe5","system_id":"levelo_inurba_marseille","lat":43.31488,"lon":5.37311,"is_reserved":false,"is_disabled":false,"rental_uris":{"android":"levelo://app?vid=e88b7720-217c-4297-bb68-edc7c4ca0fe5","ios":"levelo://app?vid=e88b7720-217c-4297-bb68-edc7c4ca0fe5"},"vehicle_type_id":"4","last_reported":1729707150,"current_range_meters":16800,"station_id":"ce4bgt12rcd13ifvqcd0","pricing_plan_id":"cebpf4jnsgd1na2vs0mg"},{"bike_id":"3f269d90-1a06-4f41-a8c6-63ceb83357ae","system_id":"levelo_inurba_marseille","lat":43.26808,"lon":5.4027,"is_reserved":false,"is_disabled":false,"rental_uris":{"android":"levelo://app?vid=3f269d90-1a06-4f41-a8c6-63ceb83357ae","ios":"levelo://app?vid=3f269d90-1a06-4f41-a8c6-63ceb83357ae"},"vehicle_type_id":"4","last_reported":1729707150,"current_range_meters":30400,"station_id":"ce501612rcd8frsf0b60","pricing_plan_id":"cebpf4jnsgd1na2vs0mg"},{"bike_id":"4852d38b-3417-405f-91b2-8cad7f5673b4","system_id":"levelo_inurba_marseille","lat":43.27176,"lon":5.40995,"is_reserved":false,"is_disabled":false,"rental_uris":{"android":"levelo://app?vid=4852d38b-3417-405f-91b2-8cad7f5673b4","ios":"levelo://app?vid=4852d38b-3417-405f-91b2-8cad7f5673b4"},"vehicle_type_id":"4","last_reported":1729707150,"current_range_meters":9600,"station_id":"ce4bhl12rcd13ifvqgf0","pricing_plan_id":"cebpf4jnsgd1na2vs0mg"},{"bike_id":"6afcaa1d-e7ea-4857-b6b7-702d82974a7a","system_id":"levelo_inurba_marseille","lat":43.29868,"lon":5.39737,"is_reserved":false,"is_disabled":false,"rental_uris":{"android":"levelo://app?vid=6afcaa1d-e7ea-4857-b6b7-702d82974a7a","ios":"levelo://app?vid=6afcaa1d-e7ea-4857-b6b7-702d82974a7a"},"vehicle_type_id":"4","last_reported":1729707150,"current_range_meters":39200,"station_id":"ce4bh0h2rcd13ifvqd50","pricing_plan_id":"cebpf4jnsgd1na2vs0mg"},{"bike_id":"94b68278-f3f5-4f33-b450-5fd42775275c","system_id":"levelo_inurba_marseille","lat":43.29533,"lon":5.38534,"is_reserved":false,"is_disabled":false,"rental_uris":{"android":"levelo://app?vid=94b68278-f3f5-4f33-b450-5fd42775275c","ios":"levelo://app?vid=94b68278-f3f5-4f33-b450-5fd42775275c"},"vehicle_type_id":"4","last_reported":1729707150,"current_range_meters":38800,"station_id":"ce4bgih2rcd13ifvqba0","pricing_plan_id":"cebpf4jnsgd1na2vs0mg"},{"bike_id":"b60b03d7-4cec-48b9-9b0f-2cba737299a3","system_id":"levelo_inurba_marseille","lat":43.29782,"lon":5.40412,"is_reserved":false,"is_disabled":false,"rental_uris":{"android":"levelo://app?vid=b60b03d7-4cec-48b9-9b0f-2cba737299a3","ios":"levelo://app?vid=b60b03d7-4cec-48b9-9b0f-2cba737299a3"},"vehicle_type_id":"4","last_reported":1729707150,"current_range_meters":38800,"station_id":"ce4bh112rcd13ifvqd90","pricing_plan_id":"cebpf4jnsgd1na2vs0mg"},{"bike_id":"0aa8fa79-750b-49b0-9cee-14cce0a3b82c","system_id":"levelo_inurba_marseille","lat":43.262,"lon":5.37934,"is_reserved":false,"is_disabled":false,"rental_uris":{"android":"levelo://app?vid=0aa8fa79-750b-49b0-9cee-14cce0a3b82c","ios":"levelo://app?vid=0aa8fa79-750b-49b0-9cee-14cce0a3b82c"},"vehicle_type_id":"4","last_reported":1729707150,"current_range_meters":38400,"station_id":"ce4bhjp2rcd13ifvqg90","pricing_plan_id":"cebpf4jnsgd1na2vs0mg"},{"bike_id":"37a3e676-89f4-4c84-87e1-5480709aef1d","system_id":"levelo_inurba_marseille","lat":43.2903,"lon":5.37565,"is_reserved":false,"is_disabled":false,"rental_uris":{"android":"levelo://app?vid=37a3e676-89f4-4c84-87e1-5480709aef1d","ios":"levelo://app?vid=37a3e676-89f4-4c84-87e1-5480709aef1d"},"vehicle_type_id":"4","last_reported":1729707150,"current_range_meters":29600,"station_id":"ce4bh692rcd13ifvqe90","pricing_plan_id":"cebpf4jnsgd1na2vs0mg"},{"bike_id":"47b019d6-87ab-4ccb-91b0-6caec524db8f","system_id":"levelo_inurba_marseille","lat":43.2465,"lon":5.3889,"is_reserved":false,"is_disabled":false,"rental_uris":{"android":"levelo://app?vid=47b019d6-87ab-4ccb-91b0-6caec524db8f","ios":"levelo://app?vid=47b019d6-87ab-4ccb-91b0-6caec524db8f"},"vehicle_type_id":"4","last_reported":1729707150,"current_range_meters":30800,"station_id":"ce4bhg12rcd13ifvqf60","pricing_plan_id":"cebpf4jnsgd1na2vs0mg"},{"bike_id":"fcdf7e9a-6f08-4ed8-95cd-03f190fc454d","system_id":"levelo_inurba_marseille","lat":43.29965,"lon":5.37163,"is_reserved":false,"is_disabled":false,"rental_uris":{"android":"levelo://app?vid=fcdf7e9a-6f08-4ed8-95cd-03f190fc454d","ios":"levelo://app?vid=fcdf7e9a-6f08-4ed8-95cd-03f190fc454d"},"vehicle_type_id":"4","last_reported":1729707150,"current_range_meters":6000,"station_id":"ce4bgr92rcd13ifvqc7g","pricing_plan_id":"cebpf4jnsgd1na2vs0mg"},{"bike_id":"bdb5f1e3-126d-499e-a835-1843a92a834a","system_id":"levelo_inurba_marseille","lat":43.27369,"lon":5.36266,"is_reserved":false,"is_disabled":false,"rental_uris":{"android":"levelo://app?vid=bdb5f1e3-126d-499e-a835-1843a92a834a","ios":"levelo://app?vid=bdb5f1e3-126d-499e-a835-1843a92a834a"},"vehicle_type_id":"4","last_reported":1729707150,"current_range_meters":32800,"station_id":"ce4bhbh2rcd13ifvqeo0","pricing_plan_id":"cebpf4jnsgd1na2vs0mg"},{"bike_id":"dd408a1b-ebf8-4821-97ae-2380768db906","system_id":"levelo_inurba_marseille","lat":43.29531,"lon":5.38552,"is_reserved":false,"is_disabled":false,"rental_uris":{"android":"levelo://app?vid=dd408a1b-ebf8-4821-97ae-2380768db906","ios":"levelo://app?vid=dd408a1b-ebf8-4821-97ae-2380768db906"},"vehicle_type_id":"4","last_reported":1729707150,"current_range_meters":38000,"station_id":"ce4bgih2rcd13ifvqba0","pricing_plan_id":"cebpf4jnsgd1na2vs0mg"},{"bike_id":"1799daef-05f3-419e-bbe3-51a6b4575a5c","system_id":"levelo_inurba_marseille","lat":43.28296,"lon":5.4085,"is_reserved":false,"is_disabled":false,"rental_uris":{"android":"levelo://app?vid=1799daef-05f3-419e-bbe3-51a6b4575a5c","ios":"levelo://app?vid=1799daef-05f3-419e-bbe3-51a6b4575a5c"},"vehicle_type_id":"4","last_reported":1729707150,"current_range_meters":11200,"station_id":"","pricing_plan_id":"cebpf4jnsgd1na2vs0mg"},{"bike_id":"a9785df7-49e8-4ffc-b2ac-7dee29d432d2","system_id":"levelo_inurba_marseille","lat":43.26803,"lon":5.40271,"is_reserved":false,"is_disabled":false,"rental_uris":{"android":"levelo://app?vid=a9785df7-49e8-4ffc-b2ac-7dee29d432d2","ios":"levelo://app?vid=a9785df7-49e8-4ffc-b2ac-7dee29d432d2"},"vehicle_type_id":"4","last_reported":1729707150,"current_range_meters":23200,"station_id":"ce501612rcd8frsf0b60","pricing_plan_id":"cebpf4jnsgd1na2vs0mg"},{"bike_id":"8c30f820-32c9-4e7a-a0f1-1291be6458c9","system_id":"levelo_inurba_marseille","lat":43.29545,"lon":5.39401,"is_reserved":false,"is_disabled":false,"rental_uris":{"android":"levelo://app?vid=8c30f820-32c9-4e7a-a0f1-1291be6458c9","ios":"levelo://app?vid=8c30f820-32c9-4e7a-a0f1-1291be6458c9"},"vehicle_type_id":"4","last_reported":1729707150,"current_range_meters":30000,"station_id":"ce4bh292rcd13ifvqdf0","pricing_plan_id":"cebpf4jnsgd1na2vs0mg"},{"bike_id":"6eb3a0bb-d2a3-49b8-a9bc-f12220a22dd0","system_id":"levelo_inurba_marseille","lat":43.29523,"lon":5.38545,"is_reserved":false,"is_disabled":false,"rental_uris":{"android":"levelo://app?vid=6eb3a0bb-d2a3-49b8-a9bc-f12220a22dd0","ios":"levelo://app?vid=6eb3a0bb-d2a3-49b8-a9bc-f12220a22dd0"},"vehicle_type_id":"4","last_reported":1729707150,"current_range_meters":25200,"station_id":"ce4bgih2rcd13ifvqba0","pricing_plan_id":"cebpf4jnsgd1na2vs0mg"},{"bike_id":"c3969c76-c484-480f-b0d7-5ac7166aeb01","system_id":"levelo_inurba_marseille","lat":43.29531,"lon":5.38537,"is_reserved":false,"is_disabled":false,"rental_uris":{"android":"levelo://app?vid=c3969c76-c484-480f-b0d7-5ac7166aeb01","ios":"levelo://app?vid=c3969c76-c484-480f-b0d7-5ac7166aeb01"},"vehicle_type_id":"4","last_reported":1729707150,"current_range_meters":19600,"station_id":"ce4bgih2rcd13ifvqba0","pricing_plan_id":"cebpf4jnsgd1na2vs0mg"},{"bike_id":"f54ec824-4a1a-4907-9eb9-6f7e89a75319","system_id":"levelo_inurba_marseille","lat":43.29528,"lon":5.38553,"is_reserved":false,"is_disabled":false,"rental_uris":{"android":"levelo://app?vid=f54ec824-4a1a-4907-9eb9-6f7e89a75319","ios":"levelo://app?vid=f54ec824-4a1a-4907-9eb9-6f7e89a75319"},"vehicle_type_id":"4","last_reported":1729707150,"current_range_meters":25200,"station_id":"ce4bgih2rcd13ifvqba0","pricing_plan_id":"cebpf4jnsgd1na2vs0mg"},{"bike_id":"5d45141c-ec72-49e6-a0ab-d91ad6cf4360","system_id":"levelo_inurba_marseille","lat":43.30932,"lon":5.40141,"is_reserved":false,"is_disabled":false,"rental_uris":{"android":"levelo://app?vid=5d45141c-ec72-49e6-a0ab-d91ad6cf4360","ios":"levelo://app?vid=5d45141c-ec72-49e6-a0ab-d91ad6cf4360"},"vehicle_type_id":"4","last_reported":1729707150,"current_range_meters":8400,"station_id":"ce4bgvp2rcd13ifvqct0","pricing_plan_id":"cebpf4jnsgd1na2vs0mg"},{"bike_id":"70c0db28-8045-42ba-a534-2532b86d3455","system_id":"levelo_inurba_marseille","lat":43.22932,"lon":5.35376,"is_reserved":false,"is_disabled":false,"rental_uris":{"android":"levelo://app?vid=70c0db28-8045-42ba-a534-2532b86d3455","ios":"levelo://app?vid=70c0db28-8045-42ba-a534-2532b86d3455"},"vehicle_type_id":"4","last_reported":1729707150,"current_range_meters":16400,"station_id":"cpo3532slgdg3j2ikp40","pricing_plan_id":"cebpf4jnsgd1na2vs0mg"},{"bike_id":"f4693878-a9ba-4159-a4b6-87b130c9621b","system_id":"levelo_inurba_marseille","lat":43.28336,"lon":5.38087,"is_reserved":false,"is_disabled":false,"rental_uris":{"android":"levelo://app?vid=f4693878-a9ba-4159-a4b6-87b130c9621b","ios":"levelo://app?vid=f4693878-a9ba-4159-a4b6-87b130c9621b"},"vehicle_type_id":"4","last_reported":1729707150,"current_range_meters":38800,"station_id":"ce4bh412rcd13ifvqdr0","pricing_plan_id":"cebpf4jnsgd1na2vs0mg"},{"bike_id":"c0af99cc-a2d7-486c-b220-51762427a35e","system_id":"levelo_inurba_marseille","lat":43.30126,"lon":5.39854,"is_reserved":false,"is_disabled":false,"rental_uris":{"android":"levelo://app?vid=c0af99cc-a2d7-486c-b220-51762427a35e","ios":"levelo://app?vid=c0af99cc-a2d7-486c-b220-51762427a35e"},"vehicle_type_id":"4","last_reported":1729707150,"current_range_meters":37600,"station_id":"ce4bh0h2rcd13ifvqd40","pricing_plan_id":"cebpf4jnsgd1na2vs0mg"},{"bike_id":"43b7e2eb-7d38-4f88-a91d-36314d58a2cc","system_id":"levelo_inurba_marseille","lat":43.33731,"lon":5.39185,"is_reserved":false,"is_disabled":false,"rental_uris":{"android":"levelo://app?vid=43b7e2eb-7d38-4f88-a91d-36314d58a2cc","ios":"levelo://app?vid=43b7e2eb-7d38-4f88-a91d-36314d58a2cc"},"vehicle_type_id":"4","last_reported":1729707150,"current_range_meters":39200,"station_id":"ce4bhr92rcd13ifvqhsg","pricing_plan_id":"cebpf4jnsgd1na2vs0mg"},{"bike_id":"54dce5d6-e653-4a38-898b-a67fd395a524","system_id":"levelo_inurba_marseille","lat":43.28415,"lon":5.3751,"is_reserved":false,"is_disabled":false,"rental_uris":{"android":"levelo://app?vid=54dce5d6-e653-4a38-898b-a67fd395a524","ios":"levelo://app?vid=54dce5d6-e653-4a38-898b-a67fd395a524"},"vehicle_type_id":"4","last_reported":1729707150,"current_range_meters":8400,"station_id":"ce4bh412rcd13ifvqds0","pricing_plan_id":"cebpf4jnsgd1na2vs0mg"},{"bike_id":"15f2c7fa-f6af-4996-96df-f77f67495ec5","system_id":"levelo_inurba_marseille","lat":43.28456,"lon":5.3589,"is_reserved":false,"is_disabled":false,"rental_uris":{"android":"levelo://app?vid=15f2c7fa-f6af-4996-96df-f77f67495ec5","ios":"levelo://app?vid=15f2c7fa-f6af-4996-96df-f77f67495ec5"},"vehicle_type_id":"4","last_reported":1729707150,"current_range_meters":32800,"station_id":"ce4bhah2rcd13ifvqei0","pricing_plan_id":"cebpf4jnsgd1na2vs0mg"},{"bike_id":"1c3687d1-db9e-4fd8-9171-226571834376","system_id":"levelo_inurba_marseille","lat":43.28155,"lon":5.4264,"is_reserved":false,"is_disabled":false,"rental_uris":{"android":"levelo://app?vid=1c3687d1-db9e-4fd8-9171-226571834376","ios":"levelo://app?vid=1c3687d1-db9e-4fd8-9171-226571834376"},"vehicle_type_id":"4","last_reported":1729707150,"current_range_meters":36400,"station_id":"ce4bhnh2rcd13ifvqgug","pricing_plan_id":"cebpf4jnsgd1na2vs0mg"},{"bike_id":"32140e32-f834-4995-a719-2df8e8b53dfd","system_id":"levelo_inurba_marseille","lat":43.29422,"lon":5.38613,"is_reserved":false,"is_disabled":false,"rental_uris":{"android":"levelo://app?vid=32140e32-f834-4995-a719-2df8e8b53dfd","ios":"levelo://app?vid=32140e32-f834-4995-a719-2df8e8b53dfd"},"vehicle_type_id":"4","last_reported":1729707150,"current_range_meters":36800,"station_id":"ce4bh2h2rcd13ifvqdh0","pricing_plan_id":"cebpf4jnsgd1na2vs0mg"},{"bike_id":"51555d17-a635-40c0-8c92-11978ec4b442","system_id":"levelo_inurba_marseille","lat":43.28574,"lon":5.39504,"is_reserved":false,"is_disabled":false,"rental_uris":{"android":"levelo://app?vid=51555d17-a635-40c0-8c92-11978ec4b442","ios":"levelo://app?vid=51555d17-a635-40c0-8c92-11978ec4b442"},"vehicle_type_id":"4","last_reported":1729707150,"current_range_meters":16400,"station_id":"ce4bh292rcd13ifvqdg0","pricing_plan_id":"cebpf4jnsgd1na2vs0mg"},{"bike_id":"68b76984-b436-4df6-9dde-3ef537ed18bc","system_id":"levelo_inurba_marseille","lat":43.29194,"lon":5.3933,"is_reserved":false,"is_disabled":false,"rental_uris":{"android":"levelo://app?vid=68b76984-b436-4df6-9dde-3ef537ed18bc","ios":"levelo://app?vid=68b76984-b436-4df6-9dde-3ef537ed18bc"},"vehicle_type_id":"4","last_reported":1729707150,"current_range_meters":36800,"station_id":"ce4bh192rcd13ifvqdd0","pricing_plan_id":"cebpf4jnsgd1na2vs0mg"},{"bike_id":"e49ef59c-c6f6-4695-96ae-01a40266ab7a","system_id":"levelo_inurba_marseille","lat":43.25577,"lon":5.38236,"is_reserved":false,"is_disabled":false,"rental_uris":{"android":"levelo://app?vid=e49ef59c-c6f6-4695-96ae-01a40266ab7a","ios":"levelo://app?vid=e49ef59c-c6f6-4695-96ae-01a40266ab7a"},"vehicle_type_id":"4","last_reported":1729707150,"current_range_meters":14000,"station_id":"ce4bhih2rcd13ifvqfs0","pricing_plan_id":"cebpf4jnsgd1na2vs0mg"},{"bike_id":"9f20e08f-a7bb-4080-989a-41f6aca34cdc","system_id":"levelo_inurba_marseille","lat":43.29278,"lon":5.36847,"is_reserved":false,"is_disabled":false,"rental_uris":{"android":"levelo://app?vid=9f20e08f-a7bb-4080-989a-41f6aca34cdc","ios":"levelo://app?vid=9f20e08f-a7bb-4080-989a-41f6aca34cdc"},"vehicle_type_id":"4","last_reported":1729707150,"current_range_meters":6000,"station_id":"ce4bhbp2rcd13ifvqesg","pricing_plan_id":"cebpf4jnsgd1na2vs0mg"},{"bike_id":"26ebd71f-7bc7-4bad-bbb2-6d15881ecc4c","system_id":"levelo_inurba_marseille","lat":43.30663,"lon":5.39475,"is_reserved":false,"is_disabled":false,"rental_uris":{"android":"levelo://app?vid=26ebd71f-7bc7-4bad-bbb2-6d15881ecc4c","ios":"levelo://app?vid=26ebd71f-7bc7-4bad-bbb2-6d15881ecc4c"},"vehicle_type_id":"4","last_reported":1729707150,"current_range_meters":25600,"station_id":"","pricing_plan_id":"cebpf4jnsgd1na2vs0mg"},{"bike_id":"6ff7dfb9-d8af-461e-9639-4f36babf1919","system_id":"levelo_inurba_marseille","lat":43.279059,"lon":5.380105,"is_reserved":false,"is_disabled":false,"rental_uris":{"android":"levelo://app?vid=6ff7dfb9-d8af-461e-9639-4f36babf1919","ios":"levelo://app?vid=6ff7dfb9-d8af-461e-9639-4f36babf1919"},"vehicle_type_id":"4","last_reported":1729707150,"current_range_meters":37600,"station_id":"ce4bhf92rcd13ifvqf50","pricing_plan_id":"cebpf4jnsgd1na2vs0mg"},{"bike_id":"bc35f0b6-68b6-421f-ac9f-8460040e28e5","system_id":"levelo_inurba_marseille","lat":43.29028,"lon":5.38636,"is_reserved":false,"is_disabled":false,"rental_uris":{"android":"levelo://app?vid=bc35f0b6-68b6-421f-ac9f-8460040e28e5","ios":"levelo://app?vid=bc35f0b6-68b6-421f-ac9f-8460040e28e5"},"vehicle_type_id":"4","last_reported":1729707150,"current_range_meters":12800,"station_id":"ce4bh4p2rcd13ifvqe0g","pricing_plan_id":"cebpf4jnsgd1na2vs0mg"},{"bike_id":"c3945b60-e38d-4106-8f18-92c7f436cc4f","system_id":"levelo_inurba_marseille","lat":43.33759,"lon":5.37455,"is_reserved":false,"is_disabled":false,"rental_uris":{"android":"levelo://app?vid=c3945b60-e38d-4106-8f18-92c7f436cc4f","ios":"levelo://app?vid=c3945b60-e38d-4106-8f18-92c7f436cc4f"},"vehicle_type_id":"4","last_reported":1729707150,"current_range_meters":26000,"station_id":"","pricing_plan_id":"cebpf4jnsgd1na2vs0mg"},{"bike_id":"59d6598a-bda9-4cb6-a5d9-e592f50f44d4","system_id":"levelo_inurba_marseille","lat":43.279663,"lon":5.38742,"is_reserved":false,"is_disabled":false,"rental_uris":{"android":"levelo://app?vid=59d6598a-bda9-4cb6-a5d9-e592f50f44d4","ios":"levelo://app?vid=59d6598a-bda9-4cb6-a5d9-e592f50f44d4"},"vehicle_type_id":"4","last_reported":1729707150,"current_range_meters":31200,"station_id":"ce4bhg12rcd13ifvqf80","pricing_plan_id":"cebpf4jnsgd1na2vs0mg"},{"bike_id":"060f1b5d-5697-4542-b686-7d28fcb7f5db","system_id":"levelo_inurba_marseille","lat":43.28852,"lon":5.3584,"is_reserved":false,"is_disabled":false,"rental_uris":{"android":"levelo://app?vid=060f1b5d-5697-4542-b686-7d28fcb7f5db","ios":"levelo://app?vid=060f1b5d-5697-4542-b686-7d28fcb7f5db"},"vehicle_type_id":"4","last_reported":1729707150,"current_range_meters":3600,"station_id":"ce4bhb12rcd13ifvqem0","pricing_plan_id":"cebpf4jnsgd1na2vs0mg"},{"bike_id":"3ad287eb-b959-4265-b428-61bf2b8d9c9d","system_id":"levelo_inurba_marseille","lat":43.28938,"lon":5.39636,"is_reserved":false,"is_disabled":false,"rental_uris":{"android":"levelo://app?vid=3ad287eb-b959-4265-b428-61bf2b8d9c9d","ios":"levelo://app?vid=3ad287eb-b959-4265-b428-61bf2b8d9c9d"},"vehicle_type_id":"4","last_reported":1729707150,"current_range_meters":13600,"station_id":"ce4bh3h2rcd13ifvqdn0","pricing_plan_id":"cebpf4jnsgd1na2vs0mg"},{"bike_id":"a9135070-c622-4962-aa90-64f005b6bed7","system_id":"levelo_inurba_marseille","lat":43.2557,"lon":5.38234,"is_reserved":false,"is_disabled":false,"rental_uris":{"android":"levelo://app?vid=a9135070-c622-4962-aa90-64f005b6bed7","ios":"levelo://app?vid=a9135070-c622-4962-aa90-64f005b6bed7"},"vehicle_type_id":"4","last_reported":1729707150,"current_range_meters":36800,"station_id":"ce4bhih2rcd13ifvqfs0","pricing_plan_id":"cebpf4jnsgd1na2vs0mg"},{"bike_id":"78018770-86ea-4404-8452-ce018255cd17","system_id":"levelo_inurba_marseille","lat":43.22936,"lon":5.3538,"is_reserved":false,"is_disabled":false,"rental_uris":{"android":"levelo://app?vid=78018770-86ea-4404-8452-ce018255cd17","ios":"levelo://app?vid=78018770-86ea-4404-8452-ce018255cd17"},"vehicle_type_id":"4","last_reported":1729707150,"current_range_meters":20800,"station_id":"cpo3532slgdg3j2ikp40","pricing_plan_id":"cebpf4jnsgd1na2vs0mg"},{"bike_id":"7bf2430c-ebc8-4a70-9e4d-0f8de6dba628","system_id":"levelo_inurba_marseille","lat":43.29307,"lon":5.37173,"is_reserved":false,"is_disabled":false,"rental_uris":{"android":"levelo://app?vid=7bf2430c-ebc8-4a70-9e4d-0f8de6dba628","ios":"levelo://app?vid=7bf2430c-ebc8-4a70-9e4d-0f8de6dba628"},"vehicle_type_id":"4","last_reported":1729707150,"current_range_meters":38000,"station_id":"ce4bgh92rcd13ifvqb40","pricing_plan_id":"cebpf4jnsgd1na2vs0mg"},{"bike_id":"977af8bb-8d71-4f4e-979a-84c69d741df3","system_id":"levelo_inurba_marseille","lat":43.29895,"lon":5.38904,"is_reserved":false,"is_disabled":false,"rental_uris":{"android":"levelo://app?vid=977af8bb-8d71-4f4e-979a-84c69d741df3","ios":"levelo://app?vid=977af8bb-8d71-4f4e-979a-84c69d741df3"},"vehicle_type_id":"4","last_reported":1729707150,"current_range_meters":8800,"station_id":"ce4bh392rcd13ifvqdl0","pricing_plan_id":"cebpf4jnsgd1na2vs0mg"},{"bike_id":"abf2f1e0-3be2-43e4-99b1-e4d71ea2cc24","system_id":"levelo_inurba_marseille","lat":43.27913,"lon":5.3958,"is_reserved":false,"is_disabled":false,"rental_uris":{"android":"levelo://app?vid=abf2f1e0-3be2-43e4-99b1-e4d71ea2cc24","ios":"levelo://app?vid=abf2f1e0-3be2-43e4-99b1-e4d71ea2cc24"},"vehicle_type_id":"4","last_reported":1729707150,"current_range_meters":33600,"station_id":"ce4bhf92rcd13ifvqf40","pricing_plan_id":"cebpf4jnsgd1na2vs0mg"},{"bike_id":"3665a759-e605-4644-ab7d-65a4baf894a4","system_id":"levelo_inurba_marseille","lat":43.27614,"lon":5.3611,"is_reserved":false,"is_disabled":false,"rental_uris":{"android":"levelo://app?vid=3665a759-e605-4644-ab7d-65a4baf894a4","ios":"levelo://app?vid=3665a759-e605-4644-ab7d-65a4baf894a4"},"vehicle_type_id":"4","last_reported":1729707150,"current_range_meters":4800,"station_id":"ce4bgj92rcd13ifvqbe0","pricing_plan_id":"cebpf4jnsgd1na2vs0mg"},{"bike_id":"493b01db-acd4-435e-9137-70f3a36abff7","system_id":"levelo_inurba_marseille","lat":43.27952,"lon":5.38708,"is_reserved":false,"is_disabled":false,"rental_uris":{"android":"levelo://app?vid=493b01db-acd4-435e-9137-70f3a36abff7","ios":"levelo://app?vid=493b01db-acd4-435e-9137-70f3a36abff7"},"vehicle_type_id":"4","last_reported":1729707150,"current_range_meters":24000,"station_id":"ce4bhg12rcd13ifvqf80","pricing_plan_id":"cebpf4jnsgd1na2vs0mg"},{"bike_id":"cd4c3bbe-d2b7-402d-8f00-84732ca3ae6a","system_id":"levelo_inurba_marseille","lat":43.292623,"lon":5.384291,"is_reserved":false,"is_disabled":false,"rental_uris":{"android":"levelo://app?vid=cd4c3bbe-d2b7-402d-8f00-84732ca3ae6a","ios":"levelo://app?vid=cd4c3bbe-d2b7-402d-8f00-84732ca3ae6a"},"vehicle_type_id":"4","last_reported":1729707150,"current_range_meters":36400,"station_id":"ce4bh692rcd13ifvqea0","pricing_plan_id":"cebpf4jnsgd1na2vs0mg"},{"bike_id":"e0f591a5-4a49-47dc-9aa6-eb75178c5760","system_id":"levelo_inurba_marseille","lat":43.22936,"lon":5.35381,"is_reserved":false,"is_disabled":false,"rental_uris":{"android":"levelo://app?vid=e0f591a5-4a49-47dc-9aa6-eb75178c5760","ios":"levelo://app?vid=e0f591a5-4a49-47dc-9aa6-eb75178c5760"},"vehicle_type_id":"4","last_reported":1729707150,"current_range_meters":36000,"station_id":"cpo3532slgdg3j2ikp40","pricing_plan_id":"cebpf4jnsgd1na2vs0mg"},{"bike_id":"ba5a6b88-4b4a-488f-8f40-1c0fcf687051","system_id":"levelo_inurba_marseille","lat":43.30305,"lon":5.3921,"is_reserved":false,"is_disabled":false,"rental_uris":{"android":"levelo://app?vid=ba5a6b88-4b4a-488f-8f40-1c0fcf687051","ios":"levelo://app?vid=ba5a6b88-4b4a-488f-8f40-1c0fcf687051"},"vehicle_type_id":"4","last_reported":1729707150,"current_range_meters":28800,"station_id":"ce4bgkh2rcd13ifvqbk0","pricing_plan_id":"cebpf4jnsgd1na2vs0mg"},{"bike_id":"3758e8e1-6774-4a6d-8d44-4f39d30cb7cf","system_id":"levelo_inurba_marseille","lat":43.22932,"lon":5.35373,"is_reserved":false,"is_disabled":false,"rental_uris":{"android":"levelo://app?vid=3758e8e1-6774-4a6d-8d44-4f39d30cb7cf","ios":"levelo://app?vid=3758e8e1-6774-4a6d-8d44-4f39d30cb7cf"},"vehicle_type_id":"4","last_reported":1729707150,"current_range_meters":36000,"station_id":"cpo3532slgdg3j2ikp40","pricing_plan_id":"cebpf4jnsgd1na2vs0mg"},{"bike_id":"1b241118-1172-421f-9582-81ec58de4fe9","system_id":"levelo_inurba_marseille","lat":43.24387,"lon":5.37085,"is_reserved":false,"is_disabled":false,"rental_uris":{"android":"levelo://app?vid=1b241118-1172-421f-9582-81ec58de4fe9","ios":"levelo://app?vid=1b241118-1172-421f-9582-81ec58de4fe9"},"vehicle_type_id":"4","last_reported":1729707150,"current_range_meters":19200,"station_id":"ce4bhhh2rcd13ifvqfk0","pricing_plan_id":"cebpf4jnsgd1na2vs0mg"},{"bike_id":"8022fe43-daaa-49e0-8153-f633b7f52aae","system_id":"levelo_inurba_marseille","lat":43.3116,"lon":5.3872,"is_reserved":false,"is_disabled":false,"rental_uris":{"android":"levelo://app?vid=8022fe43-daaa-49e0-8153-f633b7f52aae","ios":"levelo://app?vid=8022fe43-daaa-49e0-8153-f633b7f52aae"},"vehicle_type_id":"4","last_reported":1729707150,"current_range_meters":38000,"station_id":"ce4bgv12rcd13ifvqcp0","pricing_plan_id":"cebpf4jnsgd1na2vs0mg"},{"bike_id":"3b36c243-f23b-4beb-bb13-e38161a98509","system_id":"levelo_inurba_marseille","lat":43.30134,"lon":5.39871,"is_reserved":false,"is_disabled":false,"rental_uris":{"android":"levelo://app?vid=3b36c243-f23b-4beb-bb13-e38161a98509","ios":"levelo://app?vid=3b36c243-f23b-4beb-bb13-e38161a98509"},"vehicle_type_id":"4","last_reported":1729707150,"current_range_meters":30400,"station_id":"ce4bh0h2rcd13ifvqd40","pricing_plan_id":"cebpf4jnsgd1na2vs0mg"},{"bike_id":"1163c2ce-becf-41aa-b931-c0b03f4fe8d1","system_id":"levelo_inurba_marseille","lat":43.28662,"lon":5.36353,"is_reserved":false,"is_disabled":false,"rental_uris":{"android":"levelo://app?vid=1163c2ce-becf-41aa-b931-c0b03f4fe8d1","ios":"levelo://app?vid=1163c2ce-becf-41aa-b931-c0b03f4fe8d1"},"vehicle_type_id":"4","last_reported":1729707150,"current_range_meters":8800,"station_id":"ce4bhah2rcd13ifvqej0","pricing_plan_id":"cebpf4jnsgd1na2vs0mg"},{"bike_id":"7015840b-5002-4d3c-920e-b06a77696e0f","system_id":"levelo_inurba_marseille","lat":43.29236,"lon":5.36537,"is_reserved":false,"is_disabled":false,"rental_uris":{"android":"levelo://app?vid=7015840b-5002-4d3c-920e-b06a77696e0f","ios":"levelo://app?vid=7015840b-5002-4d3c-920e-b06a77696e0f"},"vehicle_type_id":"4","last_reported":1729707150,"current_range_meters":24000,"station_id":"","pricing_plan_id":"cebpf4jnsgd1na2vs0mg"},{"bike_id":"30874172-f8b0-47de-b0d4-6ebffa113c84","system_id":"levelo_inurba_marseille","lat":43.23193,"lon":5.35551,"is_reserved":false,"is_disabled":false,"rental_uris":{"android":"levelo://app?vid=30874172-f8b0-47de-b0d4-6ebffa113c84","ios":"levelo://app?vid=30874172-f8b0-47de-b0d4-6ebffa113c84"},"vehicle_type_id":"4","last_reported":1729707150,"current_range_meters":40000,"station_id":"ce4bhu92rcd13ifvqi70","pricing_plan_id":"cebpf4jnsgd1na2vs0mg"},{"bike_id":"2c6b1642-1f04-4127-9526-b144b79dafd5","system_id":"levelo_inurba_marseille","lat":43.28154,"lon":5.42645,"is_reserved":false,"is_disabled":false,"rental_uris":{"android":"levelo://app?vid=2c6b1642-1f04-4127-9526-b144b79dafd5","ios":"levelo://app?vid=2c6b1642-1f04-4127-9526-b144b79dafd5"},"vehicle_type_id":"4","last_reported":1729707150,"current_range_meters":2000,"station_id":"ce4bhnh2rcd13ifvqgug","pricing_plan_id":"cebpf4jnsgd1na2vs0mg"},{"bike_id":"b55ea397-7284-4350-9e1c-6726519c5849","system_id":"levelo_inurba_marseille","lat":43.2675,"lon":5.39292,"is_reserved":false,"is_disabled":false,"rental_uris":{"android":"levelo://app?vid=b55ea397-7284-4350-9e1c-6726519c5849","ios":"levelo://app?vid=b55ea397-7284-4350-9e1c-6726519c5849"},"vehicle_type_id":"4","last_reported":1729707150,"current_range_meters":6400,"station_id":"","pricing_plan_id":"cebpf4jnsgd1na2vs0mg"},{"bike_id":"4077aafb-568c-4827-ad22-dc1530eb6ec4","system_id":"levelo_inurba_marseille","lat":43.29528,"lon":5.385412,"is_reserved":false,"is_disabled":false,"rental_uris":{"android":"levelo://app?vid=4077aafb-568c-4827-ad22-dc1530eb6ec4","ios":"levelo://app?vid=4077aafb-568c-4827-ad22-dc1530eb6ec4"},"vehicle_type_id":"4","last_reported":1729707150,"current_range_meters":31200,"station_id":"ce4bgih2rcd13ifvqba0","pricing_plan_id":"cebpf4jnsgd1na2vs0mg"},{"bike_id":"9848f23e-9272-45f4-b325-ea1e89589b06","system_id":"levelo_inurba_marseille","lat":43.30127,"lon":5.39877,"is_reserved":false,"is_disabled":false,"rental_uris":{"android":"levelo://app?vid=9848f23e-9272-45f4-b325-ea1e89589b06","ios":"levelo://app?vid=9848f23e-9272-45f4-b325-ea1e89589b06"},"vehicle_type_id":"4","last_reported":1729707150,"current_range_meters":25200,"station_id":"ce4bh0h2rcd13ifvqd40","pricing_plan_id":"cebpf4jnsgd1na2vs0mg"},{"bike_id":"ae431240-5061-4906-8800-3dd281327c8f","system_id":"levelo_inurba_marseille","lat":43.258645,"lon":5.398954,"is_reserved":false,"is_disabled":false,"rental_uris":{"android":"levelo://app?vid=ae431240-5061-4906-8800-3dd281327c8f","ios":"levelo://app?vid=ae431240-5061-4906-8800-3dd281327c8f"},"vehicle_type_id":"4","last_reported":1729707150,"current_range_meters":27600,"station_id":"ce4bhl92rcd13ifvqghg","pricing_plan_id":"cebpf4jnsgd1na2vs0mg"},{"bike_id":"e4f42a47-6ba7-4109-bf1c-cedf107cbace","system_id":"levelo_inurba_marseille","lat":43.304667,"lon":5.40169,"is_reserved":false,"is_disabled":false,"rental_uris":{"android":"levelo://app?vid=e4f42a47-6ba7-4109-bf1c-cedf107cbace","ios":"levelo://app?vid=e4f42a47-6ba7-4109-bf1c-cedf107cbace"},"vehicle_type_id":"4","last_reported":1729707150,"current_range_meters":12000,"station_id":"","pricing_plan_id":"cebpf4jnsgd1na2vs0mg"},{"bike_id":"fed29e3d-ded9-4536-b5e9-762e6c2a1343","system_id":"levelo_inurba_marseille","lat":43.29942,"lon":5.39195,"is_reserved":false,"is_disabled":false,"rental_uris":{"android":"levelo://app?vid=fed29e3d-ded9-4536-b5e9-762e6c2a1343","ios":"levelo://app?vid=fed29e3d-ded9-4536-b5e9-762e6c2a1343"},"vehicle_type_id":"4","last_reported":1729707150,"current_range_meters":10800,"station_id":"ce4bghh2rcd13ifvqb60","pricing_plan_id":"cebpf4jnsgd1na2vs0mg"},{"bike_id":"4d934c20-af0a-4134-af24-ca947af692a7","system_id":"levelo_inurba_marseille","lat":43.31072,"lon":5.38345,"is_reserved":false,"is_disabled":false,"rental_uris":{"android":"levelo://app?vid=4d934c20-af0a-4134-af24-ca947af692a7","ios":"levelo://app?vid=4d934c20-af0a-4134-af24-ca947af692a7"},"vehicle_type_id":"4","last_reported":1729707150,"current_range_meters":29600,"station_id":"ce4bgv92rcd13ifvqcr0","pricing_plan_id":"cebpf4jnsgd1na2vs0mg"},{"bike_id":"409c7d05-8bd8-48e6-a031-312baafe8037","system_id":"levelo_inurba_marseille","lat":43.22934,"lon":5.35377,"is_reserved":false,"is_disabled":false,"rental_uris":{"android":"levelo://app?vid=409c7d05-8bd8-48e6-a031-312baafe8037","ios":"levelo://app?vid=409c7d05-8bd8-48e6-a031-312baafe8037"},"vehicle_type_id":"4","last_reported":1729707150,"current_range_meters":7200,"station_id":"cpo3532slgdg3j2ikp40","pricing_plan_id":"cebpf4jnsgd1na2vs0mg"},{"bike_id":"75785403-c74a-4e7f-93be-ce09638be4c9","system_id":"levelo_inurba_marseille","lat":43.29253,"lon":5.40912,"is_reserved":false,"is_disabled":false,"rental_uris":{"android":"levelo://app?vid=75785403-c74a-4e7f-93be-ce09638be4c9","ios":"levelo://app?vid=75785403-c74a-4e7f-93be-ce09638be4c9"},"vehicle_type_id":"4","last_reported":1729707150,"current_range_meters":38800,"station_id":"ce4bh192rcd13ifvqdc0","pricing_plan_id":"cebpf4jnsgd1na2vs0mg"},{"bike_id":"629ffe0b-2177-475e-a0fc-0cb051e559df","system_id":"levelo_inurba_marseille","lat":43.29026,"lon":5.38645,"is_reserved":false,"is_disabled":false,"rental_uris":{"android":"levelo://app?vid=629ffe0b-2177-475e-a0fc-0cb051e559df","ios":"levelo://app?vid=629ffe0b-2177-475e-a0fc-0cb051e559df"},"vehicle_type_id":"4","last_reported":1729707150,"current_range_meters":2800,"station_id":"ce4bh4p2rcd13ifvqe0g","pricing_plan_id":"cebpf4jnsgd1na2vs0mg"},{"bike_id":"219cc90d-d038-45a9-b15d-07fa27af991a","system_id":"levelo_inurba_marseille","lat":43.32622,"lon":5.37727,"is_reserved":false,"is_disabled":false,"rental_uris":{"android":"levelo://app?vid=219cc90d-d038-45a9-b15d-07fa27af991a","ios":"levelo://app?vid=219cc90d-d038-45a9-b15d-07fa27af991a"},"vehicle_type_id":"4","last_reported":1729707150,"current_range_meters":9200,"station_id":"ce4bhr12rcd13ifvqhqg","pricing_plan_id":"cebpf4jnsgd1na2vs0mg"},{"bike_id":"919c18b4-1795-4aa3-a8d6-47a44880f930","system_id":"levelo_inurba_marseille","lat":43.30307,"lon":5.368841,"is_reserved":false,"is_disabled":false,"rental_uris":{"android":"levelo://app?vid=919c18b4-1795-4aa3-a8d6-47a44880f930","ios":"levelo://app?vid=919c18b4-1795-4aa3-a8d6-47a44880f930"},"vehicle_type_id":"4","last_reported":1729707150,"current_range_meters":19200,"station_id":"ce4bgqh2rcd13ifvqc5g","pricing_plan_id":"cebpf4jnsgd1na2vs0mg"},{"bike_id":"0edcdf46-9f68-4c25-b20c-06af3956b592","system_id":"levelo_inurba_marseille","lat":43.29936,"lon":5.36563,"is_reserved":false,"is_disabled":false,"rental_uris":{"android":"levelo://app?vid=0edcdf46-9f68-4c25-b20c-06af3956b592","ios":"levelo://app?vid=0edcdf46-9f68-4c25-b20c-06af3956b592"},"vehicle_type_id":"4","last_reported":1729707150,"current_range_meters":7200,"station_id":"ce4bgm92rcd13ifvqbr0","pricing_plan_id":"cebpf4jnsgd1na2vs0mg"},{"bike_id":"31b2f4f2-73dd-4e55-98d1-5eadcc9793f8","system_id":"levelo_inurba_marseille","lat":43.29025,"lon":5.38646,"is_reserved":false,"is_disabled":false,"rental_uris":{"android":"levelo://app?vid=31b2f4f2-73dd-4e55-98d1-5eadcc9793f8","ios":"levelo://app?vid=31b2f4f2-73dd-4e55-98d1-5eadcc9793f8"},"vehicle_type_id":"4","last_reported":1729707150,"current_range_meters":16400,"station_id":"ce4bh4p2rcd13ifvqe0g","pricing_plan_id":"cebpf4jnsgd1na2vs0mg"},{"bike_id":"a00d2fce-eaba-4d9a-8ff7-da4826778c8d","system_id":"levelo_inurba_marseille","lat":43.27991,"lon":5.40017,"is_reserved":false,"is_disabled":false,"rental_uris":{"android":"levelo://app?vid=a00d2fce-eaba-4d9a-8ff7-da4826778c8d","ios":"levelo://app?vid=a00d2fce-eaba-4d9a-8ff7-da4826778c8d"},"vehicle_type_id":"4","last_reported":1729707150,"current_range_meters":38000,"station_id":"ce4bho92rcd13ifvqh4g","pricing_plan_id":"cebpf4jnsgd1na2vs0mg"},{"bike_id":"383f6f35-c806-4eb3-8e46-999beedbe454","system_id":"levelo_inurba_marseille","lat":43.3025,"lon":5.40075,"is_reserved":false,"is_disabled":false,"rental_uris":{"android":"levelo://app?vid=383f6f35-c806-4eb3-8e46-999beedbe454","ios":"levelo://app?vid=383f6f35-c806-4eb3-8e46-999beedbe454"},"vehicle_type_id":"4","last_reported":1729707150,"current_range_meters":33200,"station_id":"ce4bgvh2rcd13ifvqcs0","pricing_plan_id":"cebpf4jnsgd1na2vs0mg"},{"bike_id":"ddb046a8-ced9-45df-a908-77ad6b7fdc14","system_id":"levelo_inurba_marseille","lat":43.25827,"lon":5.39438,"is_reserved":false,"is_disabled":false,"rental_uris":{"android":"levelo://app?vid=ddb046a8-ced9-45df-a908-77ad6b7fdc14","ios":"levelo://app?vid=ddb046a8-ced9-45df-a908-77ad6b7fdc14"},"vehicle_type_id":"4","last_reported":1729707150,"current_range_meters":7200,"station_id":"ce4bhip2rcd13ifvqft0","pricing_plan_id":"cebpf4jnsgd1na2vs0mg"},{"bike_id":"5a73c92d-fea0-4340-907a-2b9093a3010a","system_id":"levelo_inurba_marseille","lat":43.31083,"lon":5.42431,"is_reserved":false,"is_disabled":false,"rental_uris":{"android":"levelo://app?vid=5a73c92d-fea0-4340-907a-2b9093a3010a","ios":"levelo://app?vid=5a73c92d-fea0-4340-907a-2b9093a3010a"},"vehicle_type_id":"4","last_reported":1729707150,"current_range_meters":4400,"station_id":"ce4bhp92rcd13ifvqhag","pricing_plan_id":"cebpf4jnsgd1na2vs0mg"},{"bike_id":"4ff8928f-f9c3-4616-86ad-fec1cc892029","system_id":"levelo_inurba_marseille","lat":43.26053,"lon":5.39396,"is_reserved":false,"is_disabled":false,"rental_uris":{"android":"levelo://app?vid=4ff8928f-f9c3-4616-86ad-fec1cc892029","ios":"levelo://app?vid=4ff8928f-f9c3-4616-86ad-fec1cc892029"},"vehicle_type_id":"4","last_reported":1729707150,"current_range_meters":39200,"station_id":"ce4bhh92rcd13ifvqfj0","pricing_plan_id":"cebpf4jnsgd1na2vs0mg"},{"bike_id":"4dd6b2a7-e097-434b-aaa6-e31904130667","system_id":"levelo_inurba_marseille","lat":43.29167,"lon":5.37168,"is_reserved":false,"is_disabled":false,"rental_uris":{"android":"levelo://app?vid=4dd6b2a7-e097-434b-aaa6-e31904130667","ios":"levelo://app?vid=4dd6b2a7-e097-434b-aaa6-e31904130667"},"vehicle_type_id":"4","last_reported":1729707150,"current_range_meters":18800,"station_id":"ce4bha92rcd13ifvqeh0","pricing_plan_id":"cebpf4jnsgd1na2vs0mg"},{"bike_id":"d55cb384-a40c-47ef-8484-d482606c2483","system_id":"levelo_inurba_marseille","lat":43.2953,"lon":5.38545,"is_reserved":false,"is_disabled":false,"rental_uris":{"android":"levelo://app?vid=d55cb384-a40c-47ef-8484-d482606c2483","ios":"levelo://app?vid=d55cb384-a40c-47ef-8484-d482606c2483"},"vehicle_type_id":"4","last_reported":1729707150,"current_range_meters":8400,"station_id":"ce4bgih2rcd13ifvqba0","pricing_plan_id":"cebpf4jnsgd1na2vs0mg"},{"bike_id":"9464a5eb-716c-4872-8b6f-40b3ff7460ca","system_id":"levelo_inurba_marseille","lat":43.29532,"lon":5.38549,"is_reserved":false,"is_disabled":false,"rental_uris":{"android":"levelo://app?vid=9464a5eb-716c-4872-8b6f-40b3ff7460ca","ios":"levelo://app?vid=9464a5eb-716c-4872-8b6f-40b3ff7460ca"},"vehicle_type_id":"4","last_reported":1729707150,"current_range_meters":14000,"station_id":"ce4bgih2rcd13ifvqba0","pricing_plan_id":"cebpf4jnsgd1na2vs0mg"},{"bike_id":"959c807f-a5be-43da-a093-beff628a052e","system_id":"levelo_inurba_marseille","lat":43.26804,"lon":5.40272,"is_reserved":false,"is_disabled":false,"rental_uris":{"android":"levelo://app?vid=959c807f-a5be-43da-a093-beff628a052e","ios":"levelo://app?vid=959c807f-a5be-43da-a093-beff628a052e"},"vehicle_type_id":"4","last_reported":1729707150,"current_range_meters":25600,"station_id":"ce501612rcd8frsf0b60","pricing_plan_id":"cebpf4jnsgd1na2vs0mg"},{"bike_id":"995dedfc-6623-4e07-92b7-58785cc57a73","system_id":"levelo_inurba_marseille","lat":43.28656,"lon":5.36342,"is_reserved":false,"is_disabled":false,"rental_uris":{"android":"levelo://app?vid=995dedfc-6623-4e07-92b7-58785cc57a73","ios":"levelo://app?vid=995dedfc-6623-4e07-92b7-58785cc57a73"},"vehicle_type_id":"4","last_reported":1729707150,"current_range_meters":39200,"station_id":"ce4bhah2rcd13ifvqej0","pricing_plan_id":"cebpf4jnsgd1na2vs0mg"},{"bike_id":"61a86f70-e86a-45e7-93da-58d06608f9be","system_id":"levelo_inurba_marseille","lat":43.25105,"lon":5.40323,"is_reserved":false,"is_disabled":false,"rental_uris":{"android":"levelo://app?vid=61a86f70-e86a-45e7-93da-58d06608f9be","ios":"levelo://app?vid=61a86f70-e86a-45e7-93da-58d06608f9be"},"vehicle_type_id":"4","last_reported":1729707150,"current_range_meters":11200,"station_id":"ce4bhlh2rcd13ifvqgig","pricing_plan_id":"cebpf4jnsgd1na2vs0mg"},{"bike_id":"137eb9fd-4759-4502-aa35-6180f3730dcf","system_id":"levelo_inurba_marseille","lat":43.28415,"lon":5.37509,"is_reserved":false,"is_disabled":false,"rental_uris":{"android":"levelo://app?vid=137eb9fd-4759-4502-aa35-6180f3730dcf","ios":"levelo://app?vid=137eb9fd-4759-4502-aa35-6180f3730dcf"},"vehicle_type_id":"4","last_reported":1729707150,"current_range_meters":11200,"station_id":"ce4bh412rcd13ifvqds0","pricing_plan_id":"cebpf4jnsgd1na2vs0mg"},{"bike_id":"df10868e-90ef-48b9-bd0c-8259eb55e871","system_id":"levelo_inurba_marseille","lat":43.27377,"lon":5.36265,"is_reserved":false,"is_disabled":false,"rental_uris":{"android":"levelo://app?vid=df10868e-90ef-48b9-bd0c-8259eb55e871","ios":"levelo://app?vid=df10868e-90ef-48b9-bd0c-8259eb55e871"},"vehicle_type_id":"4","last_reported":1729707150,"current_range_meters":14400,"station_id":"ce4bhbh2rcd13ifvqeo0","pricing_plan_id":"cebpf4jnsgd1na2vs0mg"},{"bike_id":"d814f499-462e-48b1-9ab9-95f7fbcd2586","system_id":"levelo_inurba_marseille","lat":43.29517,"lon":5.39033,"is_reserved":false,"is_disabled":false,"rental_uris":{"android":"levelo://app?vid=d814f499-462e-48b1-9ab9-95f7fbcd2586","ios":"levelo://app?vid=d814f499-462e-48b1-9ab9-95f7fbcd2586"},"vehicle_type_id":"4","last_reported":1729707150,"current_range_meters":38800,"station_id":"ce4bh3p2rcd13ifvqdp0","pricing_plan_id":"cebpf4jnsgd1na2vs0mg"},{"bike_id":"3f91794d-5198-4459-8019-969034f427c9","system_id":"levelo_inurba_marseille","lat":43.30801,"lon":5.43528,"is_reserved":false,"is_disabled":false,"rental_uris":{"android":"levelo://app?vid=3f91794d-5198-4459-8019-969034f427c9","ios":"levelo://app?vid=3f91794d-5198-4459-8019-969034f427c9"},"vehicle_type_id":"4","last_reported":1729707150,"current_range_meters":35600,"station_id":"ce4bhph2rcd13ifvqheg","pricing_plan_id":"cebpf4jnsgd1na2vs0mg"},{"bike_id":"923ae20a-a458-4c99-beb6-18a9f6bf8bad","system_id":"levelo_inurba_marseille","lat":43.29041,"lon":5.39961,"is_reserved":false,"is_disabled":false,"rental_uris":{"android":"levelo://app?vid=923ae20a-a458-4c99-beb6-18a9f6bf8bad","ios":"levelo://app?vid=923ae20a-a458-4c99-beb6-18a9f6bf8bad"},"vehicle_type_id":"4","last_reported":1729707150,"current_range_meters":33200,"station_id":"ce4bh392rcd13ifvqdm0","pricing_plan_id":"cebpf4jnsgd1na2vs0mg"},{"bike_id":"8036aa70-7da7-4cfb-a1a5-7b6faa00eab6","system_id":"levelo_inurba_marseille","lat":43.30293,"lon":5.36884,"is_reserved":false,"is_disabled":false,"rental_uris":{"android":"levelo://app?vid=8036aa70-7da7-4cfb-a1a5-7b6faa00eab6","ios":"levelo://app?vid=8036aa70-7da7-4cfb-a1a5-7b6faa00eab6"},"vehicle_type_id":"4","last_reported":1729707150,"current_range_meters":38400,"station_id":"ce4bgqh2rcd13ifvqc5g","pricing_plan_id":"cebpf4jnsgd1na2vs0mg"},{"bike_id":"f5fba0db-1b35-4230-96eb-f25822e393c9","system_id":"levelo_inurba_marseille","lat":43.31494,"lon":5.3731,"is_reserved":false,"is_disabled":false,"rental_uris":{"android":"levelo://app?vid=f5fba0db-1b35-4230-96eb-f25822e393c9","ios":"levelo://app?vid=f5fba0db-1b35-4230-96eb-f25822e393c9"},"vehicle_type_id":"4","last_reported":1729707150,"current_range_meters":24800,"station_id":"ce4bgt12rcd13ifvqcd0","pricing_plan_id":"cebpf4jnsgd1na2vs0mg"},{"bike_id":"c5a45262-9c22-444f-90e0-18716c3f0935","system_id":"levelo_inurba_marseille","lat":43.31696,"lon":5.40469,"is_reserved":false,"is_disabled":false,"rental_uris":{"android":"levelo://app?vid=c5a45262-9c22-444f-90e0-18716c3f0935","ios":"levelo://app?vid=c5a45262-9c22-444f-90e0-18716c3f0935"},"vehicle_type_id":"4","last_reported":1729707150,"current_range_meters":16800,"station_id":"ce4bh012rcd13ifvqd00","pricing_plan_id":"cebpf4jnsgd1na2vs0mg"},{"bike_id":"be6fc052-f5e3-49fc-98c7-08f4f0677855","system_id":"levelo_inurba_marseille","lat":43.29892,"lon":5.388049,"is_reserved":false,"is_disabled":false,"rental_uris":{"android":"levelo://app?vid=be6fc052-f5e3-49fc-98c7-08f4f0677855","ios":"levelo://app?vid=be6fc052-f5e3-49fc-98c7-08f4f0677855"},"vehicle_type_id":"4","last_reported":1729707150,"current_range_meters":27600,"station_id":"ce4bh392rcd13ifvqdl0","pricing_plan_id":"cebpf4jnsgd1na2vs0mg"},{"bike_id":"2f3ff144-aa0c-47a0-9e25-802c732e748f","system_id":"levelo_inurba_marseille","lat":43.26195,"lon":5.37462,"is_reserved":false,"is_disabled":false,"rental_uris":{"android":"levelo://app?vid=2f3ff144-aa0c-47a0-9e25-802c732e748f","ios":"levelo://app?vid=2f3ff144-aa0c-47a0-9e25-802c732e748f"},"vehicle_type_id":"4","last_reported":1729707150,"current_range_meters":39200,"station_id":"ce4bhgp2rcd13ifvqfc0","pricing_plan_id":"cebpf4jnsgd1na2vs0mg"},{"bike_id":"d0d8a773-d417-41b4-934b-69aa80015f89","system_id":"levelo_inurba_marseille","lat":43.29268,"lon":5.38445,"is_reserved":false,"is_disabled":false,"rental_uris":{"android":"levelo://app?vid=d0d8a773-d417-41b4-934b-69aa80015f89","ios":"levelo://app?vid=d0d8a773-d417-41b4-934b-69aa80015f89"},"vehicle_type_id":"4","last_reported":1729707150,"current_range_meters":38800,"station_id":"ce4bh692rcd13ifvqea0","pricing_plan_id":"cebpf4jnsgd1na2vs0mg"},{"bike_id":"012c99b9-2960-4489-8374-42c5a5fe2392","system_id":"levelo_inurba_marseille","lat":43.31084,"lon":5.42434,"is_reserved":false,"is_disabled":false,"rental_uris":{"android":"levelo://app?vid=012c99b9-2960-4489-8374-42c5a5fe2392","ios":"levelo://app?vid=012c99b9-2960-4489-8374-42c5a5fe2392"},"vehicle_type_id":"4","last_reported":1729707150,"current_range_meters":11600,"station_id":"ce4bhp92rcd13ifvqhag","pricing_plan_id":"cebpf4jnsgd1na2vs0mg"},{"bike_id":"1a9660a1-4710-4062-bb96-bf6a6fc2c7da","system_id":"levelo_inurba_marseille","lat":43.31754,"lon":5.39015,"is_reserved":false,"is_disabled":false,"rental_uris":{"android":"levelo://app?vid=1a9660a1-4710-4062-bb96-bf6a6fc2c7da","ios":"levelo://app?vid=1a9660a1-4710-4062-bb96-bf6a6fc2c7da"},"vehicle_type_id":"4","last_reported":1729707150,"current_range_meters":28000,"station_id":"ce4bhqp2rcd13ifvqhng","pricing_plan_id":"cebpf4jnsgd1na2vs0mg"},{"bike_id":"e0616f23-ce3e-413f-902e-efb2b0f00a3a","system_id":"levelo_inurba_marseille","lat":43.337444,"lon":5.374475,"is_reserved":false,"is_disabled":false,"rental_uris":{"android":"levelo://app?vid=e0616f23-ce3e-413f-902e-efb2b0f00a3a","ios":"levelo://app?vid=e0616f23-ce3e-413f-902e-efb2b0f00a3a"},"vehicle_type_id":"4","last_reported":1729707150,"current_range_meters":16800,"station_id":"","pricing_plan_id":"cebpf4jnsgd1na2vs0mg"},{"bike_id":"0323a3dd-72fb-4f73-82c9-622daefa68a1","system_id":"levelo_inurba_marseille","lat":43.28353,"lon":5.38106,"is_reserved":false,"is_disabled":false,"rental_uris":{"android":"levelo://app?vid=0323a3dd-72fb-4f73-82c9-622daefa68a1","ios":"levelo://app?vid=0323a3dd-72fb-4f73-82c9-622daefa68a1"},"vehicle_type_id":"4","last_reported":1729707150,"current_range_meters":22400,"station_id":"ce4bh412rcd13ifvqdr0","pricing_plan_id":"cebpf4jnsgd1na2vs0mg"},{"bike_id":"d88dad7b-2032-4845-a6c8-3344cc282bef","system_id":"levelo_inurba_marseille","lat":43.29902,"lon":5.39802,"is_reserved":false,"is_disabled":false,"rental_uris":{"android":"levelo://app?vid=d88dad7b-2032-4845-a6c8-3344cc282bef","ios":"levelo://app?vid=d88dad7b-2032-4845-a6c8-3344cc282bef"},"vehicle_type_id":"4","last_reported":1729707150,"current_range_meters":19600,"station_id":"","pricing_plan_id":"cebpf4jnsgd1na2vs0mg"},{"bike_id":"a0374b60-68e0-4f7c-b821-2cbdb02f123f","system_id":"levelo_inurba_marseille","lat":43.26063,"lon":5.39394,"is_reserved":false,"is_disabled":false,"rental_uris":{"android":"levelo://app?vid=a0374b60-68e0-4f7c-b821-2cbdb02f123f","ios":"levelo://app?vid=a0374b60-68e0-4f7c-b821-2cbdb02f123f"},"vehicle_type_id":"4","last_reported":1729707150,"current_range_meters":39200,"station_id":"ce4bhh92rcd13ifvqfj0","pricing_plan_id":"cebpf4jnsgd1na2vs0mg"},{"bike_id":"7c9953ca-d353-472f-9a60-5d241a9b8e40","system_id":"levelo_inurba_marseille","lat":43.29428,"lon":5.38622,"is_reserved":false,"is_disabled":false,"rental_uris":{"android":"levelo://app?vid=7c9953ca-d353-472f-9a60-5d241a9b8e40","ios":"levelo://app?vid=7c9953ca-d353-472f-9a60-5d241a9b8e40"},"vehicle_type_id":"4","last_reported":1729707150,"current_range_meters":27600,"station_id":"ce4bh2h2rcd13ifvqdh0","pricing_plan_id":"cebpf4jnsgd1na2vs0mg"},{"bike_id":"915b77b9-1abb-42b2-a2a1-2bd18d3d74b5","system_id":"levelo_inurba_marseille","lat":43.30549,"lon":5.38427,"is_reserved":false,"is_disabled":false,"rental_uris":{"android":"levelo://app?vid=915b77b9-1abb-42b2-a2a1-2bd18d3d74b5","ios":"levelo://app?vid=915b77b9-1abb-42b2-a2a1-2bd18d3d74b5"},"vehicle_type_id":"4","last_reported":1729707150,"current_range_meters":25200,"station_id":"ce4bgg92rcd13ifvqb30","pricing_plan_id":"cebpf4jnsgd1na2vs0mg"},{"bike_id":"a89f18bc-6f6d-4584-bb86-3e0712e807c8","system_id":"levelo_inurba_marseille","lat":43.3013,"lon":5.39861,"is_reserved":false,"is_disabled":false,"rental_uris":{"android":"levelo://app?vid=a89f18bc-6f6d-4584-bb86-3e0712e807c8","ios":"levelo://app?vid=a89f18bc-6f6d-4584-bb86-3e0712e807c8"},"vehicle_type_id":"4","last_reported":1729707150,"current_range_meters":4800,"station_id":"ce4bh0h2rcd13ifvqd40","pricing_plan_id":"cebpf4jnsgd1na2vs0mg"},{"bike_id":"7f171e1a-0921-40ad-b60b-7af9fd268e7f","system_id":"levelo_inurba_marseille","lat":43.264815,"lon":5.395375,"is_reserved":false,"is_disabled":false,"rental_uris":{"android":"levelo://app?vid=7f171e1a-0921-40ad-b60b-7af9fd268e7f","ios":"levelo://app?vid=7f171e1a-0921-40ad-b60b-7af9fd268e7f"},"vehicle_type_id":"4","last_reported":1729707150,"current_range_meters":35200,"station_id":"ce4bhi12rcd13ifvqfq0","pricing_plan_id":"cebpf4jnsgd1na2vs0mg"},{"bike_id":"17378021-bf11-4d19-bb8d-855ef26ae5e6","system_id":"levelo_inurba_marseille","lat":43.29096,"lon":5.37226,"is_reserved":false,"is_disabled":false,"rental_uris":{"android":"levelo://app?vid=17378021-bf11-4d19-bb8d-855ef26ae5e6","ios":"levelo://app?vid=17378021-bf11-4d19-bb8d-855ef26ae5e6"},"vehicle_type_id":"4","last_reported":1729707150,"current_range_meters":8000,"station_id":"ce4bh5p2rcd13ifvqe4g","pricing_plan_id":"cebpf4jnsgd1na2vs0mg"},{"bike_id":"229df528-b356-4c03-8595-a9a55aee1fb9","system_id":"levelo_inurba_marseille","lat":43.29032,"lon":5.37567,"is_reserved":false,"is_disabled":false,"rental_uris":{"android":"levelo://app?vid=229df528-b356-4c03-8595-a9a55aee1fb9","ios":"levelo://app?vid=229df528-b356-4c03-8595-a9a55aee1fb9"},"vehicle_type_id":"4","last_reported":1729707150,"current_range_meters":37600,"station_id":"ce4bh692rcd13ifvqe90","pricing_plan_id":"cebpf4jnsgd1na2vs0mg"},{"bike_id":"6a79ecb5-8956-4da9-ba7a-69326f6fa15a","system_id":"levelo_inurba_marseille","lat":43.26821,"lon":5.41099,"is_reserved":false,"is_disabled":false,"rental_uris":{"android":"levelo://app?vid=6a79ecb5-8956-4da9-ba7a-69326f6fa15a","ios":"levelo://app?vid=6a79ecb5-8956-4da9-ba7a-69326f6fa15a"},"vehicle_type_id":"4","last_reported":1729707150,"current_range_meters":20000,"station_id":"","pricing_plan_id":"cebpf4jnsgd1na2vs0mg"},{"bike_id":"6e6315f4-de12-47ed-b249-5ebf5d0e8194","system_id":"levelo_inurba_marseille","lat":43.28662,"lon":5.36359,"is_reserved":false,"is_disabled":false,"rental_uris":{"android":"levelo://app?vid=6e6315f4-de12-47ed-b249-5ebf5d0e8194","ios":"levelo://app?vid=6e6315f4-de12-47ed-b249-5ebf5d0e8194"},"vehicle_type_id":"4","last_reported":1729707150,"current_range_meters":18800,"station_id":"ce4bhah2rcd13ifvqej0","pricing_plan_id":"cebpf4jnsgd1na2vs0mg"},{"bike_id":"69d065f5-183a-4a22-ae0f-d2b034d38f0d","system_id":"levelo_inurba_marseille","lat":43.29787,"lon":5.39353,"is_reserved":false,"is_disabled":false,"rental_uris":{"android":"levelo://app?vid=69d065f5-183a-4a22-ae0f-d2b034d38f0d","ios":"levelo://app?vid=69d065f5-183a-4a22-ae0f-d2b034d38f0d"},"vehicle_type_id":"4","last_reported":1729707150,"current_range_meters":37600,"station_id":"chh1huq6cuj3fo74tm60","pricing_plan_id":"cebpf4jnsgd1na2vs0mg"},{"bike_id":"6e65c27b-b802-4d9a-9bb9-aab73ffab438","system_id":"levelo_inurba_marseille","lat":43.29976,"lon":5.37181,"is_reserved":false,"is_disabled":false,"rental_uris":{"android":"levelo://app?vid=6e65c27b-b802-4d9a-9bb9-aab73ffab438","ios":"levelo://app?vid=6e65c27b-b802-4d9a-9bb9-aab73ffab438"},"vehicle_type_id":"4","last_reported":1729707150,"current_range_meters":6000,"station_id":"ce4bgr92rcd13ifvqc7g","pricing_plan_id":"cebpf4jnsgd1na2vs0mg"},{"bike_id":"af0f37bc-5ec1-4653-b75f-537c60dc8108","system_id":"levelo_inurba_marseille","lat":43.29789,"lon":5.39341,"is_reserved":false,"is_disabled":false,"rental_uris":{"android":"levelo://app?vid=af0f37bc-5ec1-4653-b75f-537c60dc8108","ios":"levelo://app?vid=af0f37bc-5ec1-4653-b75f-537c60dc8108"},"vehicle_type_id":"4","last_reported":1729707150,"current_range_meters":36800,"station_id":"chh1huq6cuj3fo74tm60","pricing_plan_id":"cebpf4jnsgd1na2vs0mg"},{"bike_id":"ddbe3bae-87eb-41ef-a821-fad497761bb2","system_id":"levelo_inurba_marseille","lat":43.28946,"lon":5.38385,"is_reserved":false,"is_disabled":false,"rental_uris":{"android":"levelo://app?vid=ddbe3bae-87eb-41ef-a821-fad497761bb2","ios":"levelo://app?vid=ddbe3bae-87eb-41ef-a821-fad497761bb2"},"vehicle_type_id":"4","last_reported":1729707150,"current_range_meters":35200,"station_id":"ce4bh612rcd13ifvqe6g","pricing_plan_id":"cebpf4jnsgd1na2vs0mg"},{"bike_id":"29e78f82-83b9-4f33-bc89-7d9a4a1d22d4","system_id":"levelo_inurba_marseille","lat":43.27556,"lon":5.38423,"is_reserved":false,"is_disabled":false,"rental_uris":{"android":"levelo://app?vid=29e78f82-83b9-4f33-bc89-7d9a4a1d22d4","ios":"levelo://app?vid=29e78f82-83b9-4f33-bc89-7d9a4a1d22d4"},"vehicle_type_id":"4","last_reported":1729707150,"current_range_meters":24400,"station_id":"ce4bhh92rcd13ifvqfi0","pricing_plan_id":"cebpf4jnsgd1na2vs0mg"},{"bike_id":"10de038b-3058-4324-8acf-68c56e6d8e1e","system_id":"levelo_inurba_marseille","lat":43.276673,"lon":5.389045,"is_reserved":false,"is_disabled":false,"rental_uris":{"android":"levelo://app?vid=10de038b-3058-4324-8acf-68c56e6d8e1e","ios":"levelo://app?vid=10de038b-3058-4324-8acf-68c56e6d8e1e"},"vehicle_type_id":"4","last_reported":1729707150,"current_range_meters":35200,"station_id":"ce4bhi12rcd13ifvqfo0","pricing_plan_id":"cebpf4jnsgd1na2vs0mg"},{"bike_id":"e8c2a011-aa77-4e13-b68d-88c8cf6857eb","system_id":"levelo_inurba_marseille","lat":43.23964,"lon":5.366295,"is_reserved":false,"is_disabled":false,"rental_uris":{"android":"levelo://app?vid=e8c2a011-aa77-4e13-b68d-88c8cf6857eb","ios":"levelo://app?vid=e8c2a011-aa77-4e13-b68d-88c8cf6857eb"},"vehicle_type_id":"4","last_reported":1729707150,"current_range_meters":38800,"station_id":"ce4bhi12rcd13ifvqfp0","pricing_plan_id":"cebpf4jnsgd1na2vs0mg"},{"bike_id":"c08bef15-99b6-45b0-8722-76fd5aeea7b1","system_id":"levelo_inurba_marseille","lat":43.29267,"lon":5.36846,"is_reserved":false,"is_disabled":false,"rental_uris":{"android":"levelo://app?vid=c08bef15-99b6-45b0-8722-76fd5aeea7b1","ios":"levelo://app?vid=c08bef15-99b6-45b0-8722-76fd5aeea7b1"},"vehicle_type_id":"4","last_reported":1729707150,"current_range_meters":28000,"station_id":"ce4bhbp2rcd13ifvqesg","pricing_plan_id":"cebpf4jnsgd1na2vs0mg"},{"bike_id":"c91f94a8-bfa7-4d5f-b650-a822e8c56622","system_id":"levelo_inurba_marseille","lat":43.28463,"lon":5.35883,"is_reserved":false,"is_disabled":false,"rental_uris":{"android":"levelo://app?vid=c91f94a8-bfa7-4d5f-b650-a822e8c56622","ios":"levelo://app?vid=c91f94a8-bfa7-4d5f-b650-a822e8c56622"},"vehicle_type_id":"4","last_reported":1729707150,"current_range_meters":38800,"station_id":"ce4bhah2rcd13ifvqei0","pricing_plan_id":"cebpf4jnsgd1na2vs0mg"},{"bike_id":"e6f112c8-6672-4470-8373-bf1be0d9d913","system_id":"levelo_inurba_marseille","lat":43.27972,"lon":5.38744,"is_reserved":false,"is_disabled":false,"rental_uris":{"android":"levelo://app?vid=e6f112c8-6672-4470-8373-bf1be0d9d913","ios":"levelo://app?vid=e6f112c8-6672-4470-8373-bf1be0d9d913"},"vehicle_type_id":"4","last_reported":1729707150,"current_range_meters":8800,"station_id":"ce4bhg12rcd13ifvqf80","pricing_plan_id":"cebpf4jnsgd1na2vs0mg"},{"bike_id":"18c84ea8-ed9d-42e8-8953-40fb97718912","system_id":"levelo_inurba_marseille","lat":43.302792,"lon":5.400009,"is_reserved":false,"is_disabled":false,"rental_uris":{"android":"levelo://app?vid=18c84ea8-ed9d-42e8-8953-40fb97718912","ios":"levelo://app?vid=18c84ea8-ed9d-42e8-8953-40fb97718912"},"vehicle_type_id":"4","last_reported":1729707150,"current_range_meters":23200,"station_id":"ce4bgvh2rcd13ifvqcs0","pricing_plan_id":"cebpf4jnsgd1na2vs0mg"},{"bike_id":"c7fc1a05-2059-4eec-bfe9-74cfdd637940","system_id":"levelo_inurba_marseille","lat":43.29006,"lon":5.35607,"is_reserved":false,"is_disabled":false,"rental_uris":{"android":"levelo://app?vid=c7fc1a05-2059-4eec-bfe9-74cfdd637940","ios":"levelo://app?vid=c7fc1a05-2059-4eec-bfe9-74cfdd637940"},"vehicle_type_id":"4","last_reported":1729707150,"current_range_meters":37600,"station_id":"ce4bhb92rcd13ifvqen0","pricing_plan_id":"cebpf4jnsgd1na2vs0mg"},{"bike_id":"c4a46aad-6ac0-4457-8316-c9518e9f9276","system_id":"levelo_inurba_marseille","lat":43.25003,"lon":5.38929,"is_reserved":false,"is_disabled":false,"rental_uris":{"android":"levelo://app?vid=c4a46aad-6ac0-4457-8316-c9518e9f9276","ios":"levelo://app?vid=c4a46aad-6ac0-4457-8316-c9518e9f9276"},"vehicle_type_id":"4","last_reported":1729707150,"current_range_meters":22400,"station_id":"ce4bhgp2rcd13ifvqfd0","pricing_plan_id":"cebpf4jnsgd1na2vs0mg"},{"bike_id":"04efcd0f-49a7-42b0-83dc-5414d57e4bc8","system_id":"levelo_inurba_marseille","lat":43.25002,"lon":5.38925,"is_reserved":false,"is_disabled":false,"rental_uris":{"android":"levelo://app?vid=04efcd0f-49a7-42b0-83dc-5414d57e4bc8","ios":"levelo://app?vid=04efcd0f-49a7-42b0-83dc-5414d57e4bc8"},"vehicle_type_id":"4","last_reported":1729707150,"current_range_meters":27600,"station_id":"ce4bhgp2rcd13ifvqfd0","pricing_plan_id":"cebpf4jnsgd1na2vs0mg"},{"bike_id":"3449e420-5fee-46ab-80e1-e7d3c05d3774","system_id":"levelo_inurba_marseille","lat":43.26809,"lon":5.40273,"is_reserved":false,"is_disabled":false,"rental_uris":{"android":"levelo://app?vid=3449e420-5fee-46ab-80e1-e7d3c05d3774","ios":"levelo://app?vid=3449e420-5fee-46ab-80e1-e7d3c05d3774"},"vehicle_type_id":"4","last_reported":1729707150,"current_range_meters":39200,"station_id":"ce501612rcd8frsf0b60","pricing_plan_id":"cebpf4jnsgd1na2vs0mg"},{"bike_id":"4a04c4fa-c7ef-4268-95ad-6603d4e680bc","system_id":"levelo_inurba_marseille","lat":43.28446,"lon":5.39211,"is_reserved":false,"is_disabled":false,"rental_uris":{"android":"levelo://app?vid=4a04c4fa-c7ef-4268-95ad-6603d4e680bc","ios":"levelo://app?vid=4a04c4fa-c7ef-4268-95ad-6603d4e680bc"},"vehicle_type_id":"4","last_reported":1729707150,"current_range_meters":27200,"station_id":"ce4bhoh2rcd13ifvqh5g","pricing_plan_id":"cebpf4jnsgd1na2vs0mg"},{"bike_id":"517ecd69-925a-40c6-a887-d6451e845ef8","system_id":"levelo_inurba_marseille","lat":43.28152,"lon":5.42634,"is_reserved":false,"is_disabled":false,"rental_uris":{"android":"levelo://app?vid=517ecd69-925a-40c6-a887-d6451e845ef8","ios":"levelo://app?vid=517ecd69-925a-40c6-a887-d6451e845ef8"},"vehicle_type_id":"4","last_reported":1729707150,"current_range_meters":37600,"station_id":"ce4bhnh2rcd13ifvqgug","pricing_plan_id":"cebpf4jnsgd1na2vs0mg"},{"bike_id":"f2580320-2dc1-4cd7-a333-4f76cf6d7c82","system_id":"levelo_inurba_marseille","lat":43.30422,"lon":5.41288,"is_reserved":false,"is_disabled":false,"rental_uris":{"android":"levelo://app?vid=f2580320-2dc1-4cd7-a333-4f76cf6d7c82","ios":"levelo://app?vid=f2580320-2dc1-4cd7-a333-4f76cf6d7c82"},"vehicle_type_id":"4","last_reported":1729707150,"current_range_meters":18000,"station_id":"ce4bhop2rcd13ifvqh8g","pricing_plan_id":"cebpf4jnsgd1na2vs0mg"},{"bike_id":"92cde19f-9fb8-4a8f-a043-f65754f16144","system_id":"levelo_inurba_marseille","lat":43.23961,"lon":5.36628,"is_reserved":false,"is_disabled":false,"rental_uris":{"android":"levelo://app?vid=92cde19f-9fb8-4a8f-a043-f65754f16144","ios":"levelo://app?vid=92cde19f-9fb8-4a8f-a043-f65754f16144"},"vehicle_type_id":"4","last_reported":1729707150,"current_range_meters":10000,"station_id":"ce4bhi12rcd13ifvqfp0","pricing_plan_id":"cebpf4jnsgd1na2vs0mg"},