{"last_updated":1738922991,"ttl":60,"version":"2.2","data":{"bikes":[{"bike_id":"437e305b-35ff-4376-9b04-d8045452ed3b","system_id":"levelo_inurba_marseille","lat":43.29005,"lon":5.37849,"is_reserved":false,"is_disabled":false,"rental_uris":{"android":"levelo://app?vid=437e305b-35ff-4376-9b04-d8045452ed3b","ios":"levelo://app?vid=437e305b-35ff-4376-9b04-d8045452ed3b"},"vehicle_type_id":"4","last_reported":1738922991,"current_range_meters":38800,"station_id":"ce4bh9p2rcd13ifvqed0","pricing_plan_id":"cebpf4jnsgd1na2vs0mg"},{"bike_id":"1a0e67de-9597-4d47-8182-41732e9786f3","system_id":"levelo_inurba_marseille","lat":43.32466,"lon":5.36577,"is_reserved":false,"is_disabled":true,"rental_uris":{"android":"levelo://app?vid=1a0e67de-9597-4d47-8182-41732e9786f3","ios":"levelo://app?vid=1a0e67de-9597-4d47-8182-41732e9786f3"},"vehicle_type_id":"4","last_reported":1738922991,"current_range_meters":0,"station_id":"ce4bhs12rcd13ifvqhvg","pricing_plan_id":"cebpf4jnsgd1na2vs0mg"},{"bike_id":"e7fa4c94-bff4-4680-b6c0-06ddcf0d06ea","system_id":"levelo_inurba_marseille","lat":43.25004,"lon":5.38944,"is_reserved":false,"is_disabled":false,"rental_uris":{"android":"levelo://app?vid=e7fa4c94-bff4-4680-b6c0-06ddcf0d06ea","ios":"levelo://app?vid=e7fa4c94-bff4-4680-b6c0-06ddcf0d06ea"},"vehicle_type_id":"4","last_reported":1738922991,"current_range_meters":38800,"station_id":"ce4bhgp2rcd13ifvqfd0","pricing_plan_id":"cebpf4jnsgd1na2vs0mg"},{"bike_id":"dc0d8996-ffcf-4544-98ed-43b2e4ccf0cd","system_id":"levelo_inurba_marseille","lat":43.325405,"lon":5.414439,"is_reserved":false,"is_disabled":false,"rental_uris":{"android":"levelo://app?vid=dc0d8996-ffcf-4544-98ed-43b2e4ccf0cd","ios":"levelo://app?vid=dc0d8996-ffcf-4544-98ed-43b2e4ccf0cd"},"vehicle_type_id":"4","last_reported":1738922991,"current_range_meters":39200,"station_id":"ce4bhq12rcd13ifvqhhg","pricing_plan_id":"cebpf4jnsgd1na2vs0mg"},{"bike_id":"178b9a92-e21d-44c0-bf1c-3694afc2f50c","system_id":"levelo_inurba_marseille","lat":43.23138,"lon":5.43733,"is_reserved":false,"is_disabled":false,"rental_uris":{"android":"levelo://app?vid=178b9a92-e21d-44c0-bf1c-3694afc2f50c","ios":"levelo://app?vid=178b9a92-e21d-44c0-bf1c-3694afc2f50c"},"vehicle_type_id":"4","last_reported":1738922991,"current_range_meters":25600,"station_id":"ce4bhmp2rcd13ifvqgog","pricing_plan_id":"cebpf4jnsgd1na2vs0mg"},{"bike_id":"665ac7cf-15eb-4109-b67b-da3fa6c857ca","system_id":"levelo_inurba_marseille","lat":43.3047,"lon":5.3675,"is_reserved":false,"is_disabled":true,"rental_uris":{"android":"levelo://app?vid=665ac7cf-15eb-4109-b67b-da3fa6c857ca","ios":"levelo://app?vid=665ac7cf-15eb-4109-b67b-da3fa6c857ca"},"vehicle_type_id":"4","last_reported":1738922991,"current_range_meters":38800,"station_id":"ce4bgrp2rcd13ifvqc9g","pricing_plan_id":"cebpf4jnsgd1na2vs0mg"},{"bike_id":"ab892e41-9cc7-4b06-9f7e-c61761202cb3","system_id":"levelo_inurba_marseille","lat":43.28342,"lon":5.38113,"is_reserved":false,"is_disabled":false,"rental_uris":{"android":"levelo://app?vid=ab892e41-9cc7-4b06-9f7e-c61761202cb3","ios":"levelo://app?vid=ab892e41-9cc7-4b06-9f7e-c61761202cb3"},"vehicle_type_id":"4","last_reported":1738922991,"current_range_meters":38800,"station_id":"ce4bh412rcd13ifvqdr0","pricing_plan_id":"cebpf4jnsgd1na2vs0mg"},{"bike_id":"b1e8e490-6de6-4c84-af8d-7e134ba8efdd","system_id":"levelo_inurba_marseille","lat":43.31707,"lon":5.43708,"is_reserved":false,"is_disabled":false,"rental_uris":{"android":"levelo://app?vid=b1e8e490-6de6-4c84-af8d-7e134ba8efdd","ios":"levelo://app?vid=b1e8e490-6de6-4c84-af8d-7e134ba8efdd"},"vehicle_type_id":"4","last_reported":1738922991,"current_range_meters":34800,"station_id":"ce4bhp92rcd13ifvqhcg","pricing_plan_id":"cebpf4jnsgd1na2vs0mg"},{"bike_id":"0b370460-2bdc-4346-a1f4-7aeb9dd2a707","system_id":"levelo_inurba_marseille","lat":43.28632,"lon":5.39138,"is_reserved":false,"is_disabled":true,"rental_uris":{"android":"levelo://app?vid=0b370460-2bdc-4346-a1f4-7aeb9dd2a707","ios":"levelo://app?vid=0b370460-2bdc-4346-a1f4-7aeb9dd2a707"},"vehicle_type_id":"4","last_reported":1738922991,"current_range_meters":15200,"station_id":"","pricing_plan_id":"cebpf4jnsgd1na2vs0mg"},{"bike_id":"9d31fb59-26e0-4e13-8364-dc44fa582ce7","system_id":"levelo_inurba_marseille","lat":43.28034,"lon":5.36922,"is_reserved":false,"is_disabled":false,"rental_uris":{"android":"levelo://app?vid=9d31fb59-26e0-4e13-8364-dc44fa582ce7","ios":"levelo://app?vid=9d31fb59-26e0-4e13-8364-dc44fa582ce7"},"vehicle_type_id":"4","last_reported":1738922991,"current_range_meters":38800,"station_id":"ce4bha12rcd13ifvqef0","pricing_plan_id":"cebpf4jnsgd1na2vs0mg"},{"bike_id":"c9cdb5e2-6331-40ad-bf40-96563397df39","system_id":"levelo_inurba_marseille","lat":43.29094,"lon":5.381454,"is_reserved":false,"is_disabled":false,"rental_uris":{"android":"levelo://app?vid=c9cdb5e2-6331-40ad-bf40-96563397df39","ios":"levelo://app?vid=c9cdb5e2-6331-40ad-bf40-96563397df39"},"vehicle_type_id":"4","last_reported":1738922991,"current_range_meters":39200,"station_id":"ce4bh512rcd13ifvqe2g","pricing_plan_id":"cebpf4jnsgd1na2vs0mg"},{"bike_id":"e0c5e844-cf3d-4c0a-a0f4-f0ded2743cff","system_id":"levelo_inurba_marseille","lat":43.29128,"lon":5.4003,"is_reserved":false,"is_disabled":false,"rental_uris":{"android":"levelo://app?vid=e0c5e844-cf3d-4c0a-a0f4-f0ded2743cff","ios":"levelo://app?vid=e0c5e844-cf3d-4c0a-a0f4-f0ded2743cff"},"vehicle_type_id":"4","last_reported":1738922991,"current_range_meters":38000,"station_id":"ce4bh392rcd13ifvqdm0","pricing_plan_id":"cebpf4jnsgd1na2vs0mg"},{"bike_id":"cdd38823-51c7-44f0-b54f-a9c4558b6ae9","system_id":"levelo_inurba_marseille","lat":43.24066,"lon":5.37758,"is_reserved":false,"is_disabled":false,"rental_uris":{"android":"levelo://app?vid=cdd38823-51c7-44f0-b54f-a9c4558b6ae9","ios":"levelo://app?vid=cdd38823-51c7-44f0-b54f-a9c4558b6ae9"},"vehicle_type_id":"4","last_reported":1738922991,"current_range_meters":36800,"station_id":"ce4bhnp2rcd13ifvqgvg","pricing_plan_id":"cebpf4jnsgd1na2vs0mg"},{"bike_id":"0f0967b4-1d54-4b6c-9905-1046537ac41b","system_id":"levelo_inurba_marseille","lat":43.301534,"lon":5.380796,"is_reserved":false,"is_disabled":false,"rental_uris":{"android":"levelo://app?vid=0f0967b4-1d54-4b6c-9905-1046537ac41b","ios":"levelo://app?vid=0f0967b4-1d54-4b6c-9905-1046537ac41b"},"vehicle_type_id":"4","last_reported":1738922991,"current_range_meters":34800,"station_id":"ce4bgjp2rcd13ifvqbh0","pricing_plan_id":"cebpf4jnsgd1na2vs0mg"},{"bike_id":"0a84bc02-c535-4ad2-bd8f-bafd16ec85e8","system_id":"levelo_inurba_marseille","lat":43.25935,"lon":5.40898,"is_reserved":false,"is_disabled":false,"rental_uris":{"android":"levelo://app?vid=0a84bc02-c535-4ad2-bd8f-bafd16ec85e8","ios":"levelo://app?vid=0a84bc02-c535-4ad2-bd8f-bafd16ec85e8"},"vehicle_type_id":"4","last_reported":1738922991,"current_range_meters":33200,"station_id":"ce4bhm92rcd13ifvqglg","pricing_plan_id":"cebpf4jnsgd1na2vs0mg"},{"bike_id":"0e3e205c-def0-409b-93d1-6bd9975a7ce8","system_id":"levelo_inurba_marseille","lat":43.33772,"lon":5.37434,"is_reserved":false,"is_disabled":false,"rental_uris":{"android":"levelo://app?vid=0e3e205c-def0-409b-93d1-6bd9975a7ce8","ios":"levelo://app?vid=0e3e205c-def0-409b-93d1-6bd9975a7ce8"},"vehicle_type_id":"4","last_reported":1738922991,"current_range_meters":7200,"station_id":"","pricing_plan_id":"cebpf4jnsgd1na2vs0mg"},{"bike_id":"69b72854-c8e6-4ffa-9a95-7c81ba8074a7","system_id":"levelo_inurba_marseille","lat":43.24542,"lon":5.3953,"is_reserved":false,"is_disabled":false,"rental_uris":{"android":"levelo://app?vid=69b72854-c8e6-4ffa-9a95-7c81ba8074a7","ios":"levelo://app?vid=69b72854-c8e6-4ffa-9a95-7c81ba8074a7"},"vehicle_type_id":"4","last_reported":1738922991,"current_range_meters":19600,"station_id":"ce4bhlp2rcd13ifvqgjg","pricing_plan_id":"cebpf4jnsgd1na2vs0mg"},{"bike_id":"7e001a59-f792-4a53-98ee-7627b89ec917","system_id":"levelo_inurba_marseille","lat":43.30552,"lon":5.36707,"is_reserved":false,"is_disabled":false,"rental_uris":{"android":"levelo://app?vid=7e001a59-f792-4a53-98ee-7627b89ec917","ios":"levelo://app?vid=7e001a59-f792-4a53-98ee-7627b89ec917"},"vehicle_type_id":"4","last_reported":1738922991,"current_range_meters":30000,"station_id":"ce4bgrp2rcd13ifvqc9g","pricing_plan_id":"cebpf4jnsgd1na2vs0mg"},{"bike_id":"f1db5486-5535-43f9-871f-a7948532b780","system_id":"levelo_inurba_marseille","lat":43.3017,"lon":5.38114,"is_reserved":false,"is_disabled":false,"rental_uris":{"android":"levelo://app?vid=f1db5486-5535-43f9-871f-a7948532b780","ios":"levelo://app?vid=f1db5486-5535-43f9-871f-a7948532b780"},"vehicle_type_id":"4","last_reported":1738922991,"current_range_meters":28000,"station_id":"ce4bgjp2rcd13ifvqbh0","pricing_plan_id":"cebpf4jnsgd1na2vs0mg"},{"bike_id":"6bd15c5e-d6b2-43ab-8fc9-854cbe9e9385","system_id":"levelo_inurba_marseille","lat":43.26062,"lon":5.39381,"is_reserved":false,"is_disabled":false,"rental_uris":{"android":"levelo://app?vid=6bd15c5e-d6b2-43ab-8fc9-854cbe9e9385","ios":"levelo://app?vid=6bd15c5e-d6b2-43ab-8fc9-854cbe9e9385"},"vehicle_type_id":"4","last_reported":1738922991,"current_range_meters":39200,"station_id":"ce4bhh92rcd13ifvqfj0","pricing_plan_id":"cebpf4jnsgd1na2vs0mg"},{"bike_id":"5f2172a2-f883-4786-872c-dc0a5649ef78","system_id":"levelo_inurba_marseille","lat":43.25867,"lon":5.39901,"is_reserved":false,"is_disabled":false,"rental_uris":{"android":"levelo://app?vid=5f2172a2-f883-4786-872c-dc0a5649ef78","ios":"levelo://app?vid=5f2172a2-f883-4786-872c-dc0a5649ef78"},"vehicle_type_id":"4","last_reported":1738922991,"current_range_meters":23200,"station_id":"ce4bhl92rcd13ifvqghg","pricing_plan_id":"cebpf4jnsgd1na2vs0mg"},{"bike_id":"3528aa62-06b4-44de-92de-1aa1318d56b7","system_id":"levelo_inurba_marseille","lat":43.26198,"lon":5.37474,"is_reserved":false,"is_disabled":false,"rental_uris":{"android":"levelo://app?vid=3528aa62-06b4-44de-92de-1aa1318d56b7","ios":"levelo://app?vid=3528aa62-06b4-44de-92de-1aa1318d56b7"},"vehicle_type_id":"4","last_reported":1738922991,"current_range_meters":36800,"station_id":"ce4bhgp2rcd13ifvqfc0","pricing_plan_id":"cebpf4jnsgd1na2vs0mg"},{"bike_id":"aa874f21-4899-4c94-ac56-d6c355723cbb","system_id":"levelo_inurba_marseille","lat":43.23202,"lon":5.39986,"is_reserved":false,"is_disabled":false,"rental_uris":{"android":"levelo://app?vid=aa874f21-4899-4c94-ac56-d6c355723cbb","ios":"levelo://app?vid=aa874f21-4899-4c94-ac56-d6c355723cbb"},"vehicle_type_id":"4","last_reported":1738922991,"current_range_meters":34000,"station_id":"ce4bhn12rcd13ifvqgqg","pricing_plan_id":"cebpf4jnsgd1na2vs0mg"},{"bike_id":"ff76c6e9-316d-475d-9f19-7e3b447f3b23","system_id":"levelo_inurba_marseille","lat":43.30316,"lon":5.36905,"is_reserved":false,"is_disabled":false,"rental_uris":{"android":"levelo://app?vid=ff76c6e9-316d-475d-9f19-7e3b447f3b23","ios":"levelo://app?vid=ff76c6e9-316d-475d-9f19-7e3b447f3b23"},"vehicle_type_id":"4","last_reported":1738922991,"current_range_meters":24800,"station_id":"ce4bgqh2rcd13ifvqc5g","pricing_plan_id":"cebpf4jnsgd1na2vs0mg"},{"bike_id":"79a50c87-77f6-4170-bc3e-48fd603b4b62","system_id":"levelo_inurba_marseille","lat":43.26679,"lon":5.38276,"is_reserved":false,"is_disabled":false,"rental_uris":{"android":"levelo://app?vid=79a50c87-77f6-4170-bc3e-48fd603b4b62","ios":"levelo://app?vid=79a50c87-77f6-4170-bc3e-48fd603b4b62"},"vehicle_type_id":"4","last_reported":1738922991,"current_range_meters":38400,"station_id":"ce4bhg92rcd13ifvqf90","pricing_plan_id":"cebpf4jnsgd1na2vs0mg"},{"bike_id":"9c237d69-0854-4218-90a2-eb9c09fc8013","system_id":"levelo_inurba_marseille","lat":43.27502,"lon":5.42439,"is_reserved":false,"is_disabled":false,"rental_uris":{"android":"levelo://app?vid=9c237d69-0854-4218-90a2-eb9c09fc8013","ios":"levelo://app?vid=9c237d69-0854-4218-90a2-eb9c09fc8013"},"vehicle_type_id":"4","last_reported":1738922991,"current_range_meters":32400,"station_id":"ce4bhn92rcd13ifvqgrg","pricing_plan_id":"cebpf4jnsgd1na2vs0mg"},{"bike_id":"08f30387-f7f9-47f8-9d0a-b4db93a8689d","system_id":"levelo_inurba_marseille","lat":43.29787,"lon":5.37111,"is_reserved":false,"is_disabled":false,"rental_uris":{"android":"levelo://app?vid=08f30387-f7f9-47f8-9d0a-b4db93a8689d","ios":"levelo://app?vid=08f30387-f7f9-47f8-9d0a-b4db93a8689d"},"vehicle_type_id":"4","last_reported":1738922991,"current_range_meters":28800,"station_id":"ce4bgop2rcd13ifvqc1g","pricing_plan_id":"cebpf4jnsgd1na2vs0mg"},{"bike_id":"422d1ae9-3f23-4c23-952d-112dc4aaa449","system_id":"levelo_inurba_marseille","lat":43.30364,"lon":5.36546,"is_reserved":false,"is_disabled":false,"rental_uris":{"android":"levelo://app?vid=422d1ae9-3f23-4c23-952d-112dc4aaa449","ios":"levelo://app?vid=422d1ae9-3f23-4c23-952d-112dc4aaa449"},"vehicle_type_id":"4","last_reported":1738922991,"current_range_meters":9600,"station_id":"","pricing_plan_id":"cebpf4jnsgd1na2vs0mg"},{"bike_id":"73040312-c166-43ba-a41a-fb3b6a2beca6","system_id":"levelo_inurba_marseille","lat":43.26194,"lon":5.3745,"is_reserved":false,"is_disabled":false,"rental_uris":{"android":"levelo://app?vid=73040312-c166-43ba-a41a-fb3b6a2beca6","ios":"levelo://app?vid=73040312-c166-43ba-a41a-fb3b6a2beca6"},"vehicle_type_id":"4","last_reported":1738922991,"current_range_meters":28800,"station_id":"ce4bhgp2rcd13ifvqfc0","pricing_plan_id":"cebpf4jnsgd1na2vs0mg"},{"bike_id":"a1341899-4f3a-4823-b10a-9027870c66dc","system_id":"levelo_inurba_marseille","lat":43.29801,"lon":5.38123,"is_reserved":false,"is_disabled":false,"rental_uris":{"android":"levelo://app?vid=a1341899-4f3a-4823-b10a-9027870c66dc","ios":"levelo://app?vid=a1341899-4f3a-4823-b10a-9027870c66dc"},"vehicle_type_id":"4","last_reported":1738922991,"current_range_meters":39200,"station_id":"ce4bgip2rcd13ifvqbb0","pricing_plan_id":"cebpf4jnsgd1na2vs0mg"},{"bike_id":"50aaf715-ec4a-43e9-8138-4cff01f0f726","system_id":"levelo_inurba_marseille","lat":43.28267,"lon":5.35059,"is_reserved":false,"is_disabled":false,"rental_uris":{"android":"levelo://app?vid=50aaf715-ec4a-43e9-8138-4cff01f0f726","ios":"levelo://app?vid=50aaf715-ec4a-43e9-8138-4cff01f0f726"},"vehicle_type_id":"4","last_reported":1738922991,"current_range_meters":37600,"station_id":"ce4bhbp2rcd13ifvqerg","pricing_plan_id":"cebpf4jnsgd1na2vs0mg"},{"bike_id":"098d220b-e449-43ea-8d6d-9fc78e0abad9","system_id":"levelo_inurba_marseille","lat":43.22932,"lon":5.3537,"is_reserved":false,"is_disabled":false,"rental_uris":{"android":"levelo://app?vid=098d220b-e449-43ea-8d6d-9fc78e0abad9","ios":"levelo://app?vid=098d220b-e449-43ea-8d6d-9fc78e0abad9"},"vehicle_type_id":"4","last_reported":1738922991,"current_range_meters":38800,"station_id":"cpo3532slgdg3j2ikp40","pricing_plan_id":"cebpf4jnsgd1na2vs0mg"},{"bike_id":"3de2a62f-ee8b-4633-8581-80f610f7d857","system_id":"levelo_inurba_marseille","lat":43.24541,"lon":5.395333,"is_reserved":false,"is_disabled":false,"rental_uris":{"android":"levelo://app?vid=3de2a62f-ee8b-4633-8581-80f610f7d857","ios":"levelo://app?vid=3de2a62f-ee8b-4633-8581-80f610f7d857"},"vehicle_type_id":"4","last_reported":1738922991,"current_range_meters":30400,"station_id":"ce4bhlp2rcd13ifvqgjg","pricing_plan_id":"cebpf4jnsgd1na2vs0mg"},{"bike_id":"c833eddb-9922-4231-8de9-3b5b20da4485","system_id":"levelo_inurba_marseille","lat":43.289747,"lon":5.378442,"is_reserved":false,"is_disabled":false,"rental_uris":{"android":"levelo://app?vid=c833eddb-9922-4231-8de9-3b5b20da4485","ios":"levelo://app?vid=c833eddb-9922-4231-8de9-3b5b20da4485"},"vehicle_type_id":"4","last_reported":1738922991,"current_range_meters":38000,"station_id":"ce4bh9p2rcd13ifvqed0","pricing_plan_id":"cebpf4jnsgd1na2vs0mg"},{"bike_id":"25265f47-6177-48e9-b4ee-d5d5e25bf867","system_id":"levelo_inurba_marseille","lat":43.25738,"lon":5.41085,"is_reserved":false,"is_disabled":false,"rental_uris":{"android":"levelo://app?vid=25265f47-6177-48e9-b4ee-d5d5e25bf867","ios":"levelo://app?vid=25265f47-6177-48e9-b4ee-d5d5e25bf867"},"vehicle_type_id":"4","last_reported":1738922991,"current_range_meters":18800,"station_id":"ce4bhkp2rcd13ifvqgd0","pricing_plan_id":"cebpf4jnsgd1na2vs0mg"},{"bike_id":"56397ef4-9289-43f5-afee-07a35a6d4649","system_id":"levelo_inurba_marseille","lat":43.29555,"lon":5.37525,"is_reserved":false,"is_disabled":false,"rental_uris":{"android":"levelo://app?vid=56397ef4-9289-43f5-afee-07a35a6d4649","ios":"levelo://app?vid=56397ef4-9289-43f5-afee-07a35a6d4649"},"vehicle_type_id":"4","last_reported":1738922991,"current_range_meters":8400,"station_id":"ce4bgh92rcd13ifvqb50","pricing_plan_id":"cebpf4jnsgd1na2vs0mg"},{"bike_id":"8134c42b-15c7-43df-91b1-9cea8c89299b","system_id":"levelo_inurba_marseille","lat":43.25834,"lon":5.39929,"is_reserved":false,"is_disabled":false,"rental_uris":{"android":"levelo://app?vid=8134c42b-15c7-43df-91b1-9cea8c89299b","ios":"levelo://app?vid=8134c42b-15c7-43df-91b1-9cea8c89299b"},"vehicle_type_id":"4","last_reported":1738922991,"current_range_meters":29600,"station_id":"ce4bhl92rcd13ifvqghg","pricing_plan_id":"cebpf4jnsgd1na2vs0mg"},{"bike_id":"109d8d07-d605-45c4-912d-3e7b38f9a9ae","system_id":"levelo_inurba_marseille","lat":43.24168,"lon":5.36398,"is_reserved":false,"is_disabled":false,"rental_uris":{"android":"levelo://app?vid=109d8d07-d605-45c4-912d-3e7b38f9a9ae","ios":"levelo://app?vid=109d8d07-d605-45c4-912d-3e7b38f9a9ae"},"vehicle_type_id":"4","last_reported":1738922991,"current_range_meters":19200,"station_id":"cpo36qri1sfpv3e86is0","pricing_plan_id":"cebpf4jnsgd1na2vs0mg"},{"bike_id":"2b63c631-0c86-4c30-9d9d-19707e195ae1","system_id":"levelo_inurba_marseille","lat":43.23149,"lon":5.43729,"is_reserved":false,"is_disabled":false,"rental_uris":{"android":"levelo://app?vid=2b63c631-0c86-4c30-9d9d-19707e195ae1","ios":"levelo://app?vid=2b63c631-0c86-4c30-9d9d-19707e195ae1"},"vehicle_type_id":"4","last_reported":1738922991,"current_range_meters":24000,"station_id":"ce4bhmp2rcd13ifvqgog","pricing_plan_id":"cebpf4jnsgd1na2vs0mg"},{"bike_id":"d08886d9-f3a8-4cd2-86a6-500122438ce3","system_id":"levelo_inurba_marseille","lat":43.29261,"lon":5.4091,"is_reserved":false,"is_disabled":false,"rental_uris":{"android":"levelo://app?vid=d08886d9-f3a8-4cd2-86a6-500122438ce3","ios":"levelo://app?vid=d08886d9-f3a8-4cd2-86a6-500122438ce3"},"vehicle_type_id":"4","last_reported":1738922991,"current_range_meters":14000,"station_id":"ce4bh192rcd13ifvqdc0","pricing_plan_id":"cebpf4jnsgd1na2vs0mg"},{"bike_id":"af40deb1-f640-4b70-95d2-0b44fe79a0b8","system_id":"levelo_inurba_marseille","lat":43.23123,"lon":5.39859,"is_reserved":false,"is_disabled":false,"rental_uris":{"android":"levelo://app?vid=af40deb1-f640-4b70-95d2-0b44fe79a0b8","ios":"levelo://app?vid=af40deb1-f640-4b70-95d2-0b44fe79a0b8"},"vehicle_type_id":"4","last_reported":1738922991,"current_range_meters":22000,"station_id":"","pricing_plan_id":"cebpf4jnsgd1na2vs0mg"},{"bike_id":"21b12264-f29d-4fca-845a-96ca913cc1a6","system_id":"levelo_inurba_marseille","lat":43.29598,"lon":5.36733,"is_reserved":false,"is_disabled":false,"rental_uris":{"android":"levelo://app?vid=21b12264-f29d-4fca-845a-96ca913cc1a6","ios":"levelo://app?vid=21b12264-f29d-4fca-845a-96ca913cc1a6"},"vehicle_type_id":"4","last_reported":1738922991,"current_range_meters":38000,"station_id":"ce4bgph2rcd13ifvqc2g","pricing_plan_id":"cebpf4jnsgd1na2vs0mg"},{"bike_id":"6850b23e-5e80-4fd6-856a-27e743c90765","system_id":"levelo_inurba_marseille","lat":43.298405,"lon":5.362698,"is_reserved":false,"is_disabled":false,"rental_uris":{"android":"levelo://app?vid=6850b23e-5e80-4fd6-856a-27e743c90765","ios":"levelo://app?vid=6850b23e-5e80-4fd6-856a-27e743c90765"},"vehicle_type_id":"4","last_reported":1738922991,"current_range_meters":37600,"station_id":"ce4bgpp2rcd13ifvqc3g","pricing_plan_id":"cebpf4jnsgd1na2vs0mg"},{"bike_id":"1ab79c5f-a904-4941-9d6c-fe4d3e370f70","system_id":"levelo_inurba_marseille","lat":43.30598,"lon":5.39363,"is_reserved":false,"is_disabled":true,"rental_uris":{"android":"levelo://app?vid=1ab79c5f-a904-4941-9d6c-fe4d3e370f70","ios":"levelo://app?vid=1ab79c5f-a904-4941-9d6c-fe4d3e370f70"},"vehicle_type_id":"4","last_reported":1738922991,"current_range_meters":16400,"station_id":"ce4bh0p2rcd13ifvqd80","pricing_plan_id":"cebpf4jnsgd1na2vs0mg"},{"bike_id":"3078e8ce-5d59-4082-8b1a-8d753b4f6935","system_id":"levelo_inurba_marseille","lat":43.23186,"lon":5.39996,"is_reserved":false,"is_disabled":false,"rental_uris":{"android":"levelo://app?vid=3078e8ce-5d59-4082-8b1a-8d753b4f6935","ios":"levelo://app?vid=3078e8ce-5d59-4082-8b1a-8d753b4f6935"},"vehicle_type_id":"4","last_reported":1738922991,"current_range_meters":38800,"station_id":"ce4bhn12rcd13ifvqgqg","pricing_plan_id":"cebpf4jnsgd1na2vs0mg"},{"bike_id":"4e77c942-5283-4ab5-a272-ed6b7f325de2","system_id":"levelo_inurba_marseille","lat":43.2731,"lon":5.39075,"is_reserved":false,"is_disabled":false,"rental_uris":{"android":"levelo://app?vid=4e77c942-5283-4ab5-a272-ed6b7f325de2","ios":"levelo://app?vid=4e77c942-5283-4ab5-a272-ed6b7f325de2"},"vehicle_type_id":"4","last_reported":1738922991,"current_range_meters":30400,"station_id":"ce4bhgp2rcd13ifvqfe0","pricing_plan_id":"cebpf4jnsgd1na2vs0mg"},{"bike_id":"d63dd219-1986-4b43-9904-d72ec9015c63","system_id":"levelo_inurba_marseille","lat":43.29835,"lon":5.36272,"is_reserved":false,"is_disabled":false,"rental_uris":{"android":"levelo://app?vid=d63dd219-1986-4b43-9904-d72ec9015c63","ios":"levelo://app?vid=d63dd219-1986-4b43-9904-d72ec9015c63"},"vehicle_type_id":"4","last_reported":1738922991,"current_range_meters":11600,"station_id":"ce4bgpp2rcd13ifvqc3g","pricing_plan_id":"cebpf4jnsgd1na2vs0mg"},{"bike_id":"5e9bcc01-b6dd-42e4-a066-d7d915379c07","system_id":"levelo_inurba_marseille","lat":43.30295,"lon":5.36882,"is_reserved":false,"is_disabled":false,"rental_uris":{"android":"levelo://app?vid=5e9bcc01-b6dd-42e4-a066-d7d915379c07","ios":"levelo://app?vid=5e9bcc01-b6dd-42e4-a066-d7d915379c07"},"vehicle_type_id":"4","last_reported":1738922991,"current_range_meters":6400,"station_id":"ce4bgqh2rcd13ifvqc5g","pricing_plan_id":"cebpf4jnsgd1na2vs0mg"},{"bike_id":"d9ab6823-bbd8-43e6-9a6b-b0e016f7c723","system_id":"levelo_inurba_marseille","lat":43.25915,"lon":5.40921,"is_reserved":false,"is_disabled":false,"rental_uris":{"android":"levelo://app?vid=d9ab6823-bbd8-43e6-9a6b-b0e016f7c723","ios":"levelo://app?vid=d9ab6823-bbd8-43e6-9a6b-b0e016f7c723"},"vehicle_type_id":"4","last_reported":1738922991,"current_range_meters":38800,"station_id":"ce4bhm92rcd13ifvqglg","pricing_plan_id":"cebpf4jnsgd1na2vs0mg"},{"bike_id":"c1a7df6c-1872-498d-9cb5-5f5c18ba5d2c","system_id":"levelo_inurba_marseille","lat":43.30459,"lon":5.37912,"is_reserved":false,"is_disabled":false,"rental_uris":{"android":"levelo://app?vid=c1a7df6c-1872-498d-9cb5-5f5c18ba5d2c","ios":"levelo://app?vid=c1a7df6c-1872-498d-9cb5-5f5c18ba5d2c"},"vehicle_type_id":"4","last_reported":1738922991,"current_range_meters":38800,"station_id":"ce4bgup2rcd13ifvqcn0","pricing_plan_id":"cebpf4jnsgd1na2vs0mg"},{"bike_id":"51376c78-c057-4d8f-b28b-d95a8dc0deac","system_id":"levelo_inurba_marseille","lat":43.28691,"lon":5.37401,"is_reserved":false,"is_disabled":false,"rental_uris":{"android":"levelo://app?vid=51376c78-c057-4d8f-b28b-d95a8dc0deac","ios":"levelo://app?vid=51376c78-c057-4d8f-b28b-d95a8dc0deac"},"vehicle_type_id":"4","last_reported":1738922991,"current_range_meters":37600,"station_id":"ce4bh3p2rcd13ifvqdq0","pricing_plan_id":"cebpf4jnsgd1na2vs0mg"},{"bike_id":"bebe8c20-6319-4764-a5b8-3de216df4503","system_id":"levelo_inurba_marseille","lat":43.25121,"lon":5.40313,"is_reserved":false,"is_disabled":false,"rental_uris":{"android":"levelo://app?vid=bebe8c20-6319-4764-a5b8-3de216df4503","ios":"levelo://app?vid=bebe8c20-6319-4764-a5b8-3de216df4503"},"vehicle_type_id":"4","last_reported":1738922991,"current_range_meters":18000,"station_id":"ce4bhlh2rcd13ifvqgig","pricing_plan_id":"cebpf4jnsgd1na2vs0mg"},{"bike_id":"846128a2-c79d-4f22-8b7e-bd8125590138","system_id":"levelo_inurba_marseille","lat":43.30134,"lon":5.37427,"is_reserved":false,"is_disabled":false,"rental_uris":{"android":"levelo://app?vid=846128a2-c79d-4f22-8b7e-bd8125590138","ios":"levelo://app?vid=846128a2-c79d-4f22-8b7e-bd8125590138"},"vehicle_type_id":"4","last_reported":1738922991,"current_range_meters":27600,"station_id":"ce4bgs92rcd13ifvqcc0","pricing_plan_id":"cebpf4jnsgd1na2vs0mg"},{"bike_id":"89912e32-c5f0-448f-82d2-e236e4d6d653","system_id":"levelo_inurba_marseille","lat":43.27794,"lon":5.39876,"is_reserved":false,"is_disabled":true,"rental_uris":{"android":"levelo://app?vid=89912e32-c5f0-448f-82d2-e236e4d6d653","ios":"levelo://app?vid=89912e32-c5f0-448f-82d2-e236e4d6d653"},"vehicle_type_id":"4","last_reported":1738922991,"current_range_meters":5600,"station_id":"","pricing_plan_id":"cebpf4jnsgd1na2vs0mg"},{"bike_id":"a80cc501-6091-457a-842f-9c5759e0bddd","system_id":"levelo_inurba_marseille","lat":43.2794,"lon":5.41047,"is_reserved":false,"is_disabled":false,"rental_uris":{"android":"levelo://app?vid=a80cc501-6091-457a-842f-9c5759e0bddd","ios":"levelo://app?vid=a80cc501-6091-457a-842f-9c5759e0bddd"},"vehicle_type_id":"4","last_reported":1738922991,"current_range_meters":36000,"station_id":"ce4bhnp2rcd13ifvqh0g","pricing_plan_id":"cebpf4jnsgd1na2vs0mg"},{"bike_id":"cca80919-b73f-431e-8d2d-b5618fa256de","system_id":"levelo_inurba_marseille","lat":43.26196,"lon":5.37934,"is_reserved":false,"is_disabled":false,"rental_uris":{"android":"levelo://app?vid=cca80919-b73f-431e-8d2d-b5618fa256de","ios":"levelo://app?vid=cca80919-b73f-431e-8d2d-b5618fa256de"},"vehicle_type_id":"4","last_reported":1738922991,"current_range_meters":18000,"station_id":"ce4bhjp2rcd13ifvqg90","pricing_plan_id":"cebpf4jnsgd1na2vs0mg"},{"bike_id":"542f46de-ec7c-476c-b5a5-101fe8b3cd87","system_id":"levelo_inurba_marseille","lat":43.29348,"lon":5.37845,"is_reserved":false,"is_disabled":false,"rental_uris":{"android":"levelo://app?vid=542f46de-ec7c-476c-b5a5-101fe8b3cd87","ios":"levelo://app?vid=542f46de-ec7c-476c-b5a5-101fe8b3cd87"},"vehicle_type_id":"4","last_reported":1738922991,"current_range_meters":19200,"station_id":"ce4bgjh2rcd13ifvqbf0","pricing_plan_id":"cebpf4jnsgd1na2vs0mg"},{"bike_id":"e7977921-668a-4b47-b045-ad8749063367","system_id":"levelo_inurba_marseille","lat":43.29524,"lon":5.39039,"is_reserved":false,"is_disabled":false,"rental_uris":{"android":"levelo://app?vid=e7977921-668a-4b47-b045-ad8749063367","ios":"levelo://app?vid=e7977921-668a-4b47-b045-ad8749063367"},"vehicle_type_id":"4","last_reported":1738922991,"current_range_meters":38800,"station_id":"ce4bh3p2rcd13ifvqdp0","pricing_plan_id":"cebpf4jnsgd1na2vs0mg"},{"bike_id":"23143502-ceee-44da-89f0-72f6c6ad3c2a","system_id":"levelo_inurba_marseille","lat":43.26674,"lon":5.38281,"is_reserved":false,"is_disabled":false,"rental_uris":{"android":"levelo://app?vid=23143502-ceee-44da-89f0-72f6c6ad3c2a","ios":"levelo://app?vid=23143502-ceee-44da-89f0-72f6c6ad3c2a"},"vehicle_type_id":"4","last_reported":1738922991,"current_range_meters":22400,"station_id":"ce4bhg92rcd13ifvqf90","pricing_plan_id":"cebpf4jnsgd1na2vs0mg"},{"bike_id":"fb5a704f-a51b-458c-a6e9-f5586a789b94","system_id":"levelo_inurba_marseille","lat":43.24174,"lon":5.36395,"is_reserved":false,"is_disabled":false,"rental_uris":{"android":"levelo://app?vid=fb5a704f-a51b-458c-a6e9-f5586a789b94","ios":"levelo://app?vid=fb5a704f-a51b-458c-a6e9-f5586a789b94"},"vehicle_type_id":"4","last_reported":1738922991,"current_range_meters":6400,"station_id":"cpo36qri1sfpv3e86is0","pricing_plan_id":"cebpf4jnsgd1na2vs0mg"},{"bike_id":"3982593f-4426-4d01-aa48-c9a5c2a038f7","system_id":"levelo_inurba_marseille","lat":43.25118,"lon":5.40321,"is_reserved":false,"is_disabled":false,"rental_uris":{"android":"levelo://app?vid=3982593f-4426-4d01-aa48-c9a5c2a038f7","ios":"levelo://app?vid=3982593f-4426-4d01-aa48-c9a5c2a038f7"},"vehicle_type_id":"4","last_reported":1738922991,"current_range_meters":29600,"station_id":"ce4bhlh2rcd13ifvqgig","pricing_plan_id":"cebpf4jnsgd1na2vs0mg"},{"bike_id":"d531b060-4b1e-4e31-a63a-8eaa24db5591","system_id":"levelo_inurba_marseille","lat":43.29277,"lon":5.40114,"is_reserved":false,"is_disabled":false,"rental_uris":{"android":"levelo://app?vid=d531b060-4b1e-4e31-a63a-8eaa24db5591","ios":"levelo://app?vid=d531b060-4b1e-4e31-a63a-8eaa24db5591"},"vehicle_type_id":"4","last_reported":1738922991,"current_range_meters":8000,"station_id":"ce4bh312rcd13ifvqdk0","pricing_plan_id":"cebpf4jnsgd1na2vs0mg"},{"bike_id":"b73937ba-05e4-41c7-8959-6f24613e2797","system_id":"levelo_inurba_marseille","lat":43.22928,"lon":5.35389,"is_reserved":false,"is_disabled":false,"rental_uris":{"android":"levelo://app?vid=b73937ba-05e4-41c7-8959-6f24613e2797","ios":"levelo://app?vid=b73937ba-05e4-41c7-8959-6f24613e2797"},"vehicle_type_id":"4","last_reported":1738922991,"current_range_meters":34800,"station_id":"cpo3532slgdg3j2ikp40","pricing_plan_id":"cebpf4jnsgd1na2vs0mg"},{"bike_id":"57d2f359-aa56-45f0-bd2e-b5ed21f9da83","system_id":"levelo_inurba_marseille","lat":43.30303,"lon":5.36883,"is_reserved":false,"is_disabled":false,"rental_uris":{"android":"levelo://app?vid=57d2f359-aa56-45f0-bd2e-b5ed21f9da83","ios":"levelo://app?vid=57d2f359-aa56-45f0-bd2e-b5ed21f9da83"},"vehicle_type_id":"4","last_reported":1738922991,"current_range_meters":17600,"station_id":"ce4bgqh2rcd13ifvqc5g","pricing_plan_id":"cebpf4jnsgd1na2vs0mg"},{"bike_id":"9dbc66af-ff64-41a8-a57c-5ef86f5cb77a","system_id":"levelo_inurba_marseille","lat":43.26813,"lon":5.4028,"is_reserved":false,"is_disabled":true,"rental_uris":{"android":"levelo://app?vid=9dbc66af-ff64-41a8-a57c-5ef86f5cb77a","ios":"levelo://app?vid=9dbc66af-ff64-41a8-a57c-5ef86f5cb77a"},"vehicle_type_id":"4","last_reported":1738922991,"current_range_meters":38400,"station_id":"ce501612rcd8frsf0b60","pricing_plan_id":"cebpf4jnsgd1na2vs0mg"},{"bike_id":"ab54e2d0-4c2c-486a-84c7-811ed9008ddc","system_id":"levelo_inurba_marseille","lat":43.27871,"lon":5.42558,"is_reserved":false,"is_disabled":true,"rental_uris":{"android":"levelo://app?vid=ab54e2d0-4c2c-486a-84c7-811ed9008ddc","ios":"levelo://app?vid=ab54e2d0-4c2c-486a-84c7-811ed9008ddc"},"vehicle_type_id":"4","last_reported":1738922991,"current_range_meters":0,"station_id":"","pricing_plan_id":"cebpf4jnsgd1na2vs0mg"},{"bike_id":"f1e9399a-c62d-4210-bc5f-f431eced8b39","system_id":"levelo_inurba_marseille","lat":43.32355,"lon":5.3678,"is_reserved":false,"is_disabled":false,"rental_uris":{"android":"levelo://app?vid=f1e9399a-c62d-4210-bc5f-f431eced8b39","ios":"levelo://app?vid=f1e9399a-c62d-4210-bc5f-f431eced8b39"},"vehicle_type_id":"4","last_reported":1738922991,"current_range_meters":8000,"station_id":"ce4bhsh2rcd13ifvqi2g","pricing_plan_id":"cebpf4jnsgd1na2vs0mg"},{"bike_id":"254eef42-3fd5-433f-aac6-bb2fa01578a9","system_id":"levelo_inurba_marseille","lat":43.30131,"lon":5.37419,"is_reserved":false,"is_disabled":false,"rental_uris":{"android":"levelo://app?vid=254eef42-3fd5-433f-aac6-bb2fa01578a9","ios":"levelo://app?vid=254eef42-3fd5-433f-aac6-bb2fa01578a9"},"vehicle_type_id":"4","last_reported":1738922991,"current_range_meters":12800,"station_id":"ce4bgs92rcd13ifvqcc0","pricing_plan_id":"cebpf4jnsgd1na2vs0mg"},{"bike_id":"85423e3e-4144-454b-a03d-159c22f85bad","system_id":"levelo_inurba_marseille","lat":43.30187,"lon":5.37374,"is_reserved":false,"is_disabled":false,"rental_uris":{"android":"levelo://app?vid=85423e3e-4144-454b-a03d-159c22f85bad","ios":"levelo://app?vid=85423e3e-4144-454b-a03d-159c22f85bad"},"vehicle_type_id":"4","last_reported":1738922991,"current_range_meters":19200,"station_id":"ce4bgs92rcd13ifvqcc0","pricing_plan_id":"cebpf4jnsgd1na2vs0mg"},{"bike_id":"e539e183-c0f1-49ba-8dd6-c6872560b272","system_id":"levelo_inurba_marseille","lat":43.33613,"lon":5.41001,"is_reserved":false,"is_disabled":false,"rental_uris":{"android":"levelo://app?vid=e539e183-c0f1-49ba-8dd6-c6872560b272","ios":"levelo://app?vid=e539e183-c0f1-49ba-8dd6-c6872560b272"},"vehicle_type_id":"4","last_reported":1738922991,"current_range_meters":39200,"station_id":"ce4bhqh2rcd13ifvqhmg","pricing_plan_id":"cebpf4jnsgd1na2vs0mg"},{"bike_id":"56e7f5f1-2770-4107-8a2c-87a8a5a3d58d","system_id":"levelo_inurba_marseille","lat":43.2897,"lon":5.3783,"is_reserved":false,"is_disabled":false,"rental_uris":{"android":"levelo://app?vid=56e7f5f1-2770-4107-8a2c-87a8a5a3d58d","ios":"levelo://app?vid=56e7f5f1-2770-4107-8a2c-87a8a5a3d58d"},"vehicle_type_id":"4","last_reported":1738922991,"current_range_meters":36800,"station_id":"ce4bh9p2rcd13ifvqed0","pricing_plan_id":"cebpf4jnsgd1na2vs0mg"},{"bike_id":"fa09e36c-a47b-4001-9a8d-150d04be1d51","system_id":"levelo_inurba_marseille","lat":43.27562,"lon":5.38421,"is_reserved":false,"is_disabled":false,"rental_uris":{"android":"levelo://app?vid=fa09e36c-a47b-4001-9a8d-150d04be1d51","ios":"levelo://app?vid=fa09e36c-a47b-4001-9a8d-150d04be1d51"},"vehicle_type_id":"4","last_reported":1738922991,"current_range_meters":36000,"station_id":"ce4bhh92rcd13ifvqfi0","pricing_plan_id":"cebpf4jnsgd1na2vs0mg"},{"bike_id":"363f89dc-7a31-4716-bf7c-5e8b960f961f","system_id":"levelo_inurba_marseille","lat":43.3108,"lon":5.42442,"is_reserved":false,"is_disabled":false,"rental_uris":{"android":"levelo://app?vid=363f89dc-7a31-4716-bf7c-5e8b960f961f","ios":"levelo://app?vid=363f89dc-7a31-4716-bf7c-5e8b960f961f"},"vehicle_type_id":"4","last_reported":1738922991,"current_range_meters":38800,"station_id":"ce4bhp92rcd13ifvqhag","pricing_plan_id":"cebpf4jnsgd1na2vs0mg"},{"bike_id":"7f759bda-18b2-4322-a322-8baa6fac3a3e","system_id":"levelo_inurba_marseille","lat":43.26209,"lon":5.37445,"is_reserved":false,"is_disabled":false,"rental_uris":{"android":"levelo://app?vid=7f759bda-18b2-4322-a322-8baa6fac3a3e","ios":"levelo://app?vid=7f759bda-18b2-4322-a322-8baa6fac3a3e"},"vehicle_type_id":"4","last_reported":1738922991,"current_range_meters":24800,"station_id":"ce4bhgp2rcd13ifvqfc0","pricing_plan_id":"cebpf4jnsgd1na2vs0mg"},{"bike_id":"3b5a67f4-14ab-4c02-8383-a4628630738c","system_id":"levelo_inurba_marseille","lat":43.27052,"lon":5.40267,"is_reserved":false,"is_disabled":false,"rental_uris":{"android":"levelo://app?vid=3b5a67f4-14ab-4c02-8383-a4628630738c","ios":"levelo://app?vid=3b5a67f4-14ab-4c02-8383-a4628630738c"},"vehicle_type_id":"4","last_reported":1738922991,"current_range_meters":38000,"station_id":"ce4bhk92rcd13ifvqgc0","pricing_plan_id":"cebpf4jnsgd1na2vs0mg"},{"bike_id":"61fdedc9-7148-4375-9a55-000cff9b4dc5","system_id":"levelo_inurba_marseille","lat":43.29881,"lon":5.39728,"is_reserved":false,"is_disabled":false,"rental_uris":{"android":"levelo://app?vid=61fdedc9-7148-4375-9a55-000cff9b4dc5","ios":"levelo://app?vid=61fdedc9-7148-4375-9a55-000cff9b4dc5"},"vehicle_type_id":"4","last_reported":1738922991,"current_range_meters":38800,"station_id":"ce4bh0h2rcd13ifvqd50","pricing_plan_id":"cebpf4jnsgd1na2vs0mg"},{"bike_id":"b8829ab2-1487-4b8c-ae59-08c14afad745","system_id":"levelo_inurba_marseille","lat":43.32364,"lon":5.38881,"is_reserved":false,"is_disabled":false,"rental_uris":{"android":"levelo://app?vid=b8829ab2-1487-4b8c-ae59-08c14afad745","ios":"levelo://app?vid=b8829ab2-1487-4b8c-ae59-08c14afad745"},"vehicle_type_id":"4","last_reported":1738922991,"current_range_meters":20000,"station_id":"ce4bhqp2rcd13ifvqhog","pricing_plan_id":"cebpf4jnsgd1na2vs0mg"},{"bike_id":"504915e8-ed4c-46bf-8848-616160935064","system_id":"levelo_inurba_marseille","lat":43.23151,"lon":5.43726,"is_reserved":false,"is_disabled":false,"rental_uris":{"android":"levelo://app?vid=504915e8-ed4c-46bf-8848-616160935064","ios":"levelo://app?vid=504915e8-ed4c-46bf-8848-616160935064"},"vehicle_type_id":"4","last_reported":1738922991,"current_range_meters":9600,"station_id":"ce4bhmp2rcd13ifvqgog","pricing_plan_id":"cebpf4jnsgd1na2vs0mg"},{"bike_id":"1aafd4aa-ba2a-4c94-bc8a-0a2b42d0be90","system_id":"levelo_inurba_marseille","lat":43.27804,"lon":5.40715,"is_reserved":false,"is_disabled":false,"rental_uris":{"android":"levelo://app?vid=1aafd4aa-ba2a-4c94-bc8a-0a2b42d0be90","ios":"levelo://app?vid=1aafd4aa-ba2a-4c94-bc8a-0a2b42d0be90"},"vehicle_type_id":"4","last_reported":1738922991,"current_range_meters":8400,"station_id":"ce4bhnh2rcd13ifvqgtg","pricing_plan_id":"cebpf4jnsgd1na2vs0mg"},{"bike_id":"99edfd39-ea2c-4152-9a67-579e3aa4a733","system_id":"levelo_inurba_marseille","lat":43.23962,"lon":5.36642,"is_reserved":false,"is_disabled":false,"rental_uris":{"android":"levelo://app?vid=99edfd39-ea2c-4152-9a67-579e3aa4a733","ios":"levelo://app?vid=99edfd39-ea2c-4152-9a67-579e3aa4a733"},"vehicle_type_id":"4","last_reported":1738922991,"current_range_meters":38400,"station_id":"ce4bhi12rcd13ifvqfp0","pricing_plan_id":"cebpf4jnsgd1na2vs0mg"},{"bike_id":"134b7d5f-18cf-4a5f-8b9e-60b9671db7fc","system_id":"levelo_inurba_marseille","lat":43.29788,"lon":5.38111,"is_reserved":false,"is_disabled":false,"rental_uris":{"android":"levelo://app?vid=134b7d5f-18cf-4a5f-8b9e-60b9671db7fc","ios":"levelo://app?vid=134b7d5f-18cf-4a5f-8b9e-60b9671db7fc"},"vehicle_type_id":"4","last_reported":1738922991,"current_range_meters":39200,"station_id":"ce4bgip2rcd13ifvqbb0","pricing_plan_id":"cebpf4jnsgd1na2vs0mg"},{"bike_id":"9c634dd9-1983-4331-aac4-81caafdedb2b","system_id":"levelo_inurba_marseille","lat":43.27308,"lon":5.3911,"is_reserved":false,"is_disabled":false,"rental_uris":{"android":"levelo://app?vid=9c634dd9-1983-4331-aac4-81caafdedb2b","ios":"levelo://app?vid=9c634dd9-1983-4331-aac4-81caafdedb2b"},"vehicle_type_id":"4","last_reported":1738922991,"current_range_meters":30800,"station_id":"ce4bhgp2rcd13ifvqfe0","pricing_plan_id":"cebpf4jnsgd1na2vs0mg"},{"bike_id":"89bad4de-9283-43de-abb5-342633ba3f91","system_id":"levelo_inurba_marseille","lat":43.32478,"lon":5.36565,"is_reserved":false,"is_disabled":false,"rental_uris":{"android":"levelo://app?vid=89bad4de-9283-43de-abb5-342633ba3f91","ios":"levelo://app?vid=89bad4de-9283-43de-abb5-342633ba3f91"},"vehicle_type_id":"4","last_reported":1738922991,"current_range_meters":24400,"station_id":"ce4bhs12rcd13ifvqhvg","pricing_plan_id":"cebpf4jnsgd1na2vs0mg"},{"bike_id":"4632dd20-fd44-4672-8864-e9adeb156ac4","system_id":"levelo_inurba_marseille","lat":43.30546,"lon":5.38423,"is_reserved":false,"is_disabled":false,"rental_uris":{"android":"levelo://app?vid=4632dd20-fd44-4672-8864-e9adeb156ac4","ios":"levelo://app?vid=4632dd20-fd44-4672-8864-e9adeb156ac4"},"vehicle_type_id":"4","last_reported":1738922991,"current_range_meters":33200,"station_id":"ce4bgg92rcd13ifvqb30","pricing_plan_id":"cebpf4jnsgd1na2vs0mg"},{"bike_id":"fca7ff50-9b37-4632-8fc1-883a64c093e9","system_id":"levelo_inurba_marseille","lat":43.30153,"lon":5.38776,"is_reserved":false,"is_disabled":false,"rental_uris":{"android":"levelo://app?vid=fca7ff50-9b37-4632-8fc1-883a64c093e9","ios":"levelo://app?vid=fca7ff50-9b37-4632-8fc1-883a64c093e9"},"vehicle_type_id":"4","last_reported":1738922991,"current_range_meters":35600,"station_id":"ce4bhoh2rcd13ifvqh6g","pricing_plan_id":"cebpf4jnsgd1na2vs0mg"},{"bike_id":"d094da60-0121-4672-b5b0-817285625761","system_id":"levelo_inurba_marseille","lat":43.30122,"lon":5.37438,"is_reserved":false,"is_disabled":false,"rental_uris":{"android":"levelo://app?vid=d094da60-0121-4672-b5b0-817285625761","ios":"levelo://app?vid=d094da60-0121-4672-b5b0-817285625761"},"vehicle_type_id":"4","last_reported":1738922991,"current_range_meters":27200,"station_id":"ce4bgs92rcd13ifvqcc0","pricing_plan_id":"cebpf4jnsgd1na2vs0mg"},{"bike_id":"4ccd7a71-f983-472a-bdc7-c6e21e34264c","system_id":"levelo_inurba_marseille","lat":43.29352,"lon":5.37848,"is_reserved":false,"is_disabled":false,"rental_uris":{"android":"levelo://app?vid=4ccd7a71-f983-472a-bdc7-c6e21e34264c","ios":"levelo://app?vid=4ccd7a71-f983-472a-bdc7-c6e21e34264c"},"vehicle_type_id":"4","last_reported":1738922991,"current_range_meters":39200,"station_id":"ce4bgjh2rcd13ifvqbf0","pricing_plan_id":"cebpf4jnsgd1na2vs0mg"},{"bike_id":"4b44671c-15f3-402b-89fc-7fed4cccabaf","system_id":"levelo_inurba_marseille","lat":43.3035,"lon":5.37691,"is_reserved":false,"is_disabled":false,"rental_uris":{"android":"levelo://app?vid=4b44671c-15f3-402b-89fc-7fed4cccabaf","ios":"levelo://app?vid=4b44671c-15f3-402b-89fc-7fed4cccabaf"},"vehicle_type_id":"4","last_reported":1738922991,"current_range_meters":26000,"station_id":"ce4bguh2rcd13ifvqcj0","pricing_plan_id":"cebpf4jnsgd1na2vs0mg"},{"bike_id":"aabe1f0b-89a1-4652-9d45-ac5bc92d0c24","system_id":"levelo_inurba_marseille","lat":43.3016,"lon":5.37417,"is_reserved":false,"is_disabled":false,"rental_uris":{"android":"levelo://app?vid=aabe1f0b-89a1-4652-9d45-ac5bc92d0c24","ios":"levelo://app?vid=aabe1f0b-89a1-4652-9d45-ac5bc92d0c24"},"vehicle_type_id":"4","last_reported":1738922991,"current_range_meters":9600,"station_id":"ce4bgs92rcd13ifvqcc0","pricing_plan_id":"cebpf4jnsgd1na2vs0mg"},{"bike_id":"e433e074-e11b-43d4-9613-a601b65f8b04","system_id":"levelo_inurba_marseille","lat":43.30909,"lon":5.36845,"is_reserved":false,"is_disabled":false,"rental_uris":{"android":"levelo://app?vid=e433e074-e11b-43d4-9613-a601b65f8b04","ios":"levelo://app?vid=e433e074-e11b-43d4-9613-a601b65f8b04"},"vehicle_type_id":"4","last_reported":1738922991,"current_range_meters":27600,"station_id":"ce4bgn92rcd13ifvqbvg","pricing_plan_id":"cebpf4jnsgd1na2vs0mg"},{"bike_id":"7e33b631-2c72-4ce9-95d9-ad17f00376cb","system_id":"levelo_inurba_marseille","lat":43.30544,"lon":5.36713,"is_reserved":false,"is_disabled":false,"rental_uris":{"android":"levelo://app?vid=7e33b631-2c72-4ce9-95d9-ad17f00376cb","ios":"levelo://app?vid=7e33b631-2c72-4ce9-95d9-ad17f00376cb"},"vehicle_type_id":"4","last_reported":1738922991,"current_range_meters":38800,"station_id":"ce4bgrp2rcd13ifvqc9g","pricing_plan_id":"cebpf4jnsgd1na2vs0mg"},{"bike_id":"73525c1d-a4a8-43be-9032-5138cf9566c3","system_id":"levelo_inurba_marseille","lat":43.23154,"lon":5.4373,"is_reserved":false,"is_disabled":false,"rental_uris":{"android":"levelo://app?vid=73525c1d-a4a8-43be-9032-5138cf9566c3","ios":"levelo://app?vid=73525c1d-a4a8-43be-9032-5138cf9566c3"},"vehicle_type_id":"4","last_reported":1738922991,"current_range_meters":39200,"station_id":"ce4bhmp2rcd13ifvqgog","pricing_plan_id":"cebpf4jnsgd1na2vs0mg"},{"bike_id":"db322422-c517-446e-a70d-da6e38f4bd2f","system_id":"levelo_inurba_marseille","lat":43.24183,"lon":5.39727,"is_reserved":false,"is_disabled":false,"rental_uris":{"android":"levelo://app?vid=db322422-c517-446e-a70d-da6e38f4bd2f","ios":"levelo://app?vid=db322422-c517-446e-a70d-da6e38f4bd2f"},"vehicle_type_id":"4","last_reported":1738922991,"current_range_meters":32000,"station_id":"ce4bhn12rcd13ifvqgpg","pricing_plan_id":"cebpf4jnsgd1na2vs0mg"},{"bike_id":"f67b7531-6c63-4f46-a9d4-4fdf588facb0","system_id":"levelo_inurba_marseille","lat":43.27882,"lon":5.40616,"is_reserved":false,"is_disabled":true,"rental_uris":{"android":"levelo://app?vid=f67b7531-6c63-4f46-a9d4-4fdf588facb0","ios":"levelo://app?vid=f67b7531-6c63-4f46-a9d4-4fdf588facb0"},"vehicle_type_id":"4","last_reported":1738922991,"current_range_meters":400,"station_id":"","pricing_plan_id":"cebpf4jnsgd1na2vs0mg"},{"bike_id":"d9eff926-2d4a-417c-9178-221575c14456","system_id":"levelo_inurba_marseille","lat":43.23151,"lon":5.43703,"is_reserved":false,"is_disabled":false,"rental_uris":{"android":"levelo://app?vid=d9eff926-2d4a-417c-9178-221575c14456","ios":"levelo://app?vid=d9eff926-2d4a-417c-9178-221575c14456"},"vehicle_type_id":"4","last_reported":1738922991,"current_range_meters":38800,"station_id":"ce4bhmp2rcd13ifvqgog","pricing_plan_id":"cebpf4jnsgd1na2vs0mg"},{"bike_id":"ccc0d99a-4f06-4847-88ea-bfbf26a9a708","system_id":"levelo_inurba_marseille","lat":43.27369,"lon":5.36268,"is_reserved":false,"is_disabled":false,"rental_uris":{"android":"levelo://app?vid=ccc0d99a-4f06-4847-88ea-bfbf26a9a708","ios":"levelo://app?vid=ccc0d99a-4f06-4847-88ea-bfbf26a9a708"},"vehicle_type_id":"4","last_reported":1738922991,"current_range_meters":38800,"station_id":"ce4bhbh2rcd13ifvqeo0","pricing_plan_id":"cebpf4jnsgd1na2vs0mg"},{"bike_id":"eb334662-88cc-4ee0-9692-5c72e540acea","system_id":"levelo_inurba_marseille","lat":43.30457,"lon":5.37918,"is_reserved":false,"is_disabled":false,"rental_uris":{"android":"levelo://app?vid=eb334662-88cc-4ee0-9692-5c72e540acea","ios":"levelo://app?vid=eb334662-88cc-4ee0-9692-5c72e540acea"},"vehicle_type_id":"4","last_reported":1738922991,"current_range_meters":38800,"station_id":"ce4bgup2rcd13ifvqcn0","pricing_plan_id":"cebpf4jnsgd1na2vs0mg"},{"bike_id":"d90800d2-0b28-4666-b04d-68e5f6c3e9ab","system_id":"levelo_inurba_marseille","lat":43.23196,"lon":5.39983,"is_reserved":false,"is_disabled":false,"rental_uris":{"android":"levelo://app?vid=d90800d2-0b28-4666-b04d-68e5f6c3e9ab","ios":"levelo://app?vid=d90800d2-0b28-4666-b04d-68e5f6c3e9ab"},"vehicle_type_id":"4","last_reported":1738922991,"current_range_meters":37600,"station_id":"ce4bhn12rcd13ifvqgqg","pricing_plan_id":"cebpf4jnsgd1na2vs0mg"},{"bike_id":"38a651c3-ba2c-4772-87b9-27136d31b42d","system_id":"levelo_inurba_marseille","lat":43.28702,"lon":5.3999,"is_reserved":false,"is_disabled":false,"rental_uris":{"android":"levelo://app?vid=38a651c3-ba2c-4772-87b9-27136d31b42d","ios":"levelo://app?vid=38a651c3-ba2c-4772-87b9-27136d31b42d"},"vehicle_type_id":"4","last_reported":1738922991,"current_range_meters":17200,"station_id":"ce4bho92rcd13ifvqh3g","pricing_plan_id":"cebpf4jnsgd1na2vs0mg"},{"bike_id":"530d3cae-aa9a-4844-8494-c6334be27ce7","system_id":"levelo_inurba_marseille","lat":43.24165,"lon":5.3975,"is_reserved":false,"is_disabled":false,"rental_uris":{"android":"levelo://app?vid=530d3cae-aa9a-4844-8494-c6334be27ce7","ios":"levelo://app?vid=530d3cae-aa9a-4844-8494-c6334be27ce7"},"vehicle_type_id":"4","last_reported":1738922991,"current_range_meters":38800,"station_id":"ce4bhn12rcd13ifvqgpg","pricing_plan_id":"cebpf4jnsgd1na2vs0mg"},{"bike_id":"55c531ba-cb99-413a-81f9-84f3b3d5979e","system_id":"levelo_inurba_marseille","lat":43.22923,"lon":5.35389,"is_reserved":false,"is_disabled":false,"rental_uris":{"android":"levelo://app?vid=55c531ba-cb99-413a-81f9-84f3b3d5979e","ios":"levelo://app?vid=55c531ba-cb99-413a-81f9-84f3b3d5979e"},"vehicle_type_id":"4","last_reported":1738922991,"current_range_meters":25600,"station_id":"cpo3532slgdg3j2ikp40","pricing_plan_id":"cebpf4jnsgd1na2vs0mg"},{"bike_id":"89160215-2cac-4a9a-967a-86e4f11043ec","system_id":"levelo_inurba_marseille","lat":43.30806,"lon":5.38152,"is_reserved":false,"is_disabled":false,"rental_uris":{"android":"levelo://app?vid=89160215-2cac-4a9a-967a-86e4f11043ec","ios":"levelo://app?vid=89160215-2cac-4a9a-967a-86e4f11043ec"},"vehicle_type_id":"4","last_reported":1738922991,"current_range_meters":38800,"station_id":"ce4bgt12rcd13ifvqce0","pricing_plan_id":"cebpf4jnsgd1na2vs0mg"},{"bike_id":"6a3ebbcf-ee39-47ea-b689-f3b066371aa9","system_id":"levelo_inurba_marseille","lat":43.29839,"lon":5.36279,"is_reserved":false,"is_disabled":false,"rental_uris":{"android":"levelo://app?vid=6a3ebbcf-ee39-47ea-b689-f3b066371aa9","ios":"levelo://app?vid=6a3ebbcf-ee39-47ea-b689-f3b066371aa9"},"vehicle_type_id":"4","last_reported":1738922991,"current_range_meters":27200,"station_id":"ce4bgpp2rcd13ifvqc3g","pricing_plan_id":"cebpf4jnsgd1na2vs0mg"},{"bike_id":"c3842c5d-66fd-424c-b9f9-2a0b519d57b3","system_id":"levelo_inurba_marseille","lat":43.24662,"lon":5.38183,"is_reserved":false,"is_disabled":false,"rental_uris":{"android":"levelo://app?vid=c3842c5d-66fd-424c-b9f9-2a0b519d57b3","ios":"levelo://app?vid=c3842c5d-66fd-424c-b9f9-2a0b519d57b3"},"vehicle_type_id":"4","last_reported":1738922991,"current_range_meters":34800,"station_id":"ce4bhih2rcd13ifvqfr0","pricing_plan_id":"cebpf4jnsgd1na2vs0mg"},{"bike_id":"3b6fc1a1-1e64-4698-a113-588a2563418f","system_id":"levelo_inurba_marseille","lat":43.28028,"lon":5.36989,"is_reserved":false,"is_disabled":false,"rental_uris":{"android":"levelo://app?vid=3b6fc1a1-1e64-4698-a113-588a2563418f","ios":"levelo://app?vid=3b6fc1a1-1e64-4698-a113-588a2563418f"},"vehicle_type_id":"4","last_reported":1738922991,"current_range_meters":38400,"station_id":"ce4bha12rcd13ifvqef0","pricing_plan_id":"cebpf4jnsgd1na2vs0mg"},{"bike_id":"42b00d6b-70d0-4750-bdd2-377deb18497e","system_id":"levelo_inurba_marseille","lat":43.22933,"lon":5.35394,"is_reserved":false,"is_disabled":false,"rental_uris":{"android":"levelo://app?vid=42b00d6b-70d0-4750-bdd2-377deb18497e","ios":"levelo://app?vid=42b00d6b-70d0-4750-bdd2-377deb18497e"},"vehicle_type_id":"4","last_reported":1738922991,"current_range_meters":28400,"station_id":"cpo3532slgdg3j2ikp40","pricing_plan_id":"cebpf4jnsgd1na2vs0mg"},{"bike_id":"2caee8af-3b84-4559-adac-f9b969718658","system_id":"levelo_inurba_marseille","lat":43.29018,"lon":5.37564,"is_reserved":false,"is_disabled":false,"rental_uris":{"android":"levelo://app?vid=2caee8af-3b84-4559-adac-f9b969718658","ios":"levelo://app?vid=2caee8af-3b84-4559-adac-f9b969718658"},"vehicle_type_id":"4","last_reported":1738922991,"current_range_meters":37600,"station_id":"ce4bh692rcd13ifvqe90","pricing_plan_id":"cebpf4jnsgd1na2vs0mg"},{"bike_id":"e0dd7050-657b-435d-8e69-83dc339c6c06","system_id":"levelo_inurba_marseille","lat":43.28161,"lon":5.42667,"is_reserved":false,"is_disabled":false,"rental_uris":{"android":"levelo://app?vid=e0dd7050-657b-435d-8e69-83dc339c6c06","ios":"levelo://app?vid=e0dd7050-657b-435d-8e69-83dc339c6c06"},"vehicle_type_id":"4","last_reported":1738922991,"current_range_meters":24800,"station_id":"ce4bhnh2rcd13ifvqgug","pricing_plan_id":"cebpf4jnsgd1na2vs0mg"},{"bike_id":"6b522836-a8f5-4cc5-8b7b-63447e86fb52","system_id":"levelo_inurba_marseille","lat":43.26188,"lon":5.37466,"is_reserved":false,"is_disabled":false,"rental_uris":{"android":"levelo://app?vid=6b522836-a8f5-4cc5-8b7b-63447e86fb52","ios":"levelo://app?vid=6b522836-a8f5-4cc5-8b7b-63447e86fb52"},"vehicle_type_id":"4","last_reported":1738922991,"current_range_meters":19600,"station_id":"ce4bhgp2rcd13ifvqfc0","pricing_plan_id":"cebpf4jnsgd1na2vs0mg"},{"bike_id":"f1bbac45-5b32-4b97-b4ef-d7ee065546b1","system_id":"levelo_inurba_marseille","lat":43.26018,"lon":5.37569,"is_reserved":false,"is_disabled":false,"rental_uris":{"android":"levelo://app?vid=f1bbac45-5b32-4b97-b4ef-d7ee065546b1","ios":"levelo://app?vid=f1bbac45-5b32-4b97-b4ef-d7ee065546b1"},"vehicle_type_id":"4","last_reported":1738922991,"current_range_meters":38000,"station_id":"ce4bhgh2rcd13ifvqfa0","pricing_plan_id":"cebpf4jnsgd1na2vs0mg"},{"bike_id":"0a4693fe-7f43-4180-a9b7-8bdcb33c85c2","system_id":"levelo_inurba_marseille","lat":43.27682,"lon":5.38889,"is_reserved":false,"is_disabled":false,"rental_uris":{"android":"levelo://app?vid=0a4693fe-7f43-4180-a9b7-8bdcb33c85c2","ios":"levelo://app?vid=0a4693fe-7f43-4180-a9b7-8bdcb33c85c2"},"vehicle_type_id":"4","last_reported":1738922991,"current_range_meters":38400,"station_id":"ce4bhi12rcd13ifvqfo0","pricing_plan_id":"cebpf4jnsgd1na2vs0mg"},{"bike_id":"273ce1ec-c001-406c-8596-421bf4063a4a","system_id":"levelo_inurba_marseille","lat":43.29525,"lon":5.39049,"is_reserved":false,"is_disabled":false,"rental_uris":{"android":"levelo://app?vid=273ce1ec-c001-406c-8596-421bf4063a4a","ios":"levelo://app?vid=273ce1ec-c001-406c-8596-421bf4063a4a"},"vehicle_type_id":"4","last_reported":1738922991,"current_range_meters":33200,"station_id":"ce4bh3p2rcd13ifvqdp0","pricing_plan_id":"cebpf4jnsgd1na2vs0mg"},{"bike_id":"5eb997aa-ba06-470a-b7fd-cd40e9642b35","system_id":"levelo_inurba_marseille","lat":43.23109,"lon":5.39849,"is_reserved":false,"is_disabled":false,"rental_uris":{"android":"levelo://app?vid=5eb997aa-ba06-470a-b7fd-cd40e9642b35","ios":"levelo://app?vid=5eb997aa-ba06-470a-b7fd-cd40e9642b35"},"vehicle_type_id":"4","last_reported":1738922991,"current_range_meters":38400,"station_id":"","pricing_plan_id":"cebpf4jnsgd1na2vs0mg"},{"bike_id":"5e14d97f-7a6f-485b-a711-17b8d31a4670","system_id":"levelo_inurba_marseille","lat":43.27218,"lon":5.39187,"is_reserved":false,"is_disabled":false,"rental_uris":{"android":"levelo://app?vid=5e14d97f-7a6f-485b-a711-17b8d31a4670","ios":"levelo://app?vid=5e14d97f-7a6f-485b-a711-17b8d31a4670"},"vehicle_type_id":"4","last_reported":1738922991,"current_range_meters":36800,"station_id":"ce4bhhp2rcd13ifvqfm0","pricing_plan_id":"cebpf4jnsgd1na2vs0mg"},{"bike_id":"74e03b58-092f-49df-8d5a-96d67891a646","system_id":"levelo_inurba_marseille","lat":43.2904,"lon":5.39963,"is_reserved":false,"is_disabled":false,"rental_uris":{"android":"levelo://app?vid=74e03b58-092f-49df-8d5a-96d67891a646","ios":"levelo://app?vid=74e03b58-092f-49df-8d5a-96d67891a646"},"vehicle_type_id":"4","last_reported":1738922991,"current_range_meters":19600,"station_id":"ce4bh392rcd13ifvqdm0","pricing_plan_id":"cebpf4jnsgd1na2vs0mg"},{"bike_id":"c6fc4b4a-5347-4905-8d96-67ea4d004656","system_id":"levelo_inurba_marseille","lat":43.23202,"lon":5.35549,"is_reserved":false,"is_disabled":false,"rental_uris":{"android":"levelo://app?vid=c6fc4b4a-5347-4905-8d96-67ea4d004656","ios":"levelo://app?vid=c6fc4b4a-5347-4905-8d96-67ea4d004656"},"vehicle_type_id":"4","last_reported":1738922991,"current_range_meters":11200,"station_id":"ce4bhu92rcd13ifvqi70","pricing_plan_id":"cebpf4jnsgd1na2vs0mg"},{"bike_id":"1da8b17b-ad28-4780-a711-431647c244ed","system_id":"levelo_inurba_marseille","lat":43.2395,"lon":5.36621,"is_reserved":false,"is_disabled":false,"rental_uris":{"android":"levelo://app?vid=1da8b17b-ad28-4780-a711-431647c244ed","ios":"levelo://app?vid=1da8b17b-ad28-4780-a711-431647c244ed"},"vehicle_type_id":"4","last_reported":1738922991,"current_range_meters":28400,"station_id":"ce4bhi12rcd13ifvqfp0","pricing_plan_id":"cebpf4jnsgd1na2vs0mg"},{"bike_id":"7970d074-41e9-4c89-86d6-1be4aa414413","system_id":"levelo_inurba_marseille","lat":43.2884,"lon":5.39318,"is_reserved":false,"is_disabled":false,"rental_uris":{"android":"levelo://app?vid=7970d074-41e9-4c89-86d6-1be4aa414413","ios":"levelo://app?vid=7970d074-41e9-4c89-86d6-1be4aa414413"},"vehicle_type_id":"4","last_reported":1738922991,"current_range_meters":17200,"station_id":"ce4bh2p2rcd13ifvqdi0","pricing_plan_id":"cebpf4jnsgd1na2vs0mg"},{"bike_id":"54630ec0-92ce-4c84-ba54-45269fbd607e","system_id":"levelo_inurba_marseille","lat":43.30356,"lon":5.41878,"is_reserved":false,"is_disabled":false,"rental_uris":{"android":"levelo://app?vid=54630ec0-92ce-4c84-ba54-45269fbd607e","ios":"levelo://app?vid=54630ec0-92ce-4c84-ba54-45269fbd607e"},"vehicle_type_id":"4","last_reported":1738922991,"current_range_meters":38800,"station_id":"ce4bhop2rcd13ifvqh7g","pricing_plan_id":"cebpf4jnsgd1na2vs0mg"},{"bike_id":"b2557e44-f517-4fd5-ad27-e5f8af6b2e67","system_id":"levelo_inurba_marseille","lat":43.24385,"lon":5.37069,"is_reserved":false,"is_disabled":false,"rental_uris":{"android":"levelo://app?vid=b2557e44-f517-4fd5-ad27-e5f8af6b2e67","ios":"levelo://app?vid=b2557e44-f517-4fd5-ad27-e5f8af6b2e67"},"vehicle_type_id":"4","last_reported":1738922991,"current_range_meters":38400,"station_id":"ce4bhhh2rcd13ifvqfk0","pricing_plan_id":"cebpf4jnsgd1na2vs0mg"},{"bike_id":"b9a24e4c-4b77-494e-818f-3ac0d8f4bba7","system_id":"levelo_inurba_marseille","lat":43.27824,"lon":5.39203,"is_reserved":false,"is_disabled":false,"rental_uris":{"android":"levelo://app?vid=b9a24e4c-4b77-494e-818f-3ac0d8f4bba7","ios":"levelo://app?vid=b9a24e4c-4b77-494e-818f-3ac0d8f4bba7"},"vehicle_type_id":"4","last_reported":1738922991,"current_range_meters":38800,"station_id":"ce4bhjp2rcd13ifvqga0","pricing_plan_id":"cebpf4jnsgd1na2vs0mg"},{"bike_id":"b49e677c-3e48-4e1d-86b1-fa17f0e39ea8","system_id":"levelo_inurba_marseille","lat":43.2621,"lon":5.37461,"is_reserved":false,"is_disabled":false,"rental_uris":{"android":"levelo://app?vid=b49e677c-3e48-4e1d-86b1-fa17f0e39ea8","ios":"levelo://app?vid=b49e677c-3e48-4e1d-86b1-fa17f0e39ea8"},"vehicle_type_id":"4","last_reported":1738922991,"current_range_meters":35600,"station_id":"ce4bhgp2rcd13ifvqfc0","pricing_plan_id":"cebpf4jnsgd1na2vs0mg"},{"bike_id":"e408d721-1719-4f3b-bfb2-ee76b97560c7","system_id":"levelo_inurba_marseille","lat":43.24647,"lon":5.38899,"is_reserved":false,"is_disabled":false,"rental_uris":{"android":"levelo://app?vid=e408d721-1719-4f3b-bfb2-ee76b97560c7","ios":"levelo://app?vid=e408d721-1719-4f3b-bfb2-ee76b97560c7"},"vehicle_type_id":"4","last_reported":1738922991,"current_range_meters":38800,"station_id":"ce4bhg12rcd13ifvqf60","pricing_plan_id":"cebpf4jnsgd1na2vs0mg"},{"bike_id":"943eb673-c399-4501-9459-4e2f171a7665","system_id":"levelo_inurba_marseille","lat":43.30172,"lon":5.38113,"is_reserved":false,"is_disabled":false,"rental_uris":{"android":"levelo://app?vid=943eb673-c399-4501-9459-4e2f171a7665","ios":"levelo://app?vid=943eb673-c399-4501-9459-4e2f171a7665"},"vehicle_type_id":"4","last_reported":1738922991,"current_range_meters":39200,"station_id":"ce4bgjp2rcd13ifvqbh0","pricing_plan_id":"cebpf4jnsgd1na2vs0mg"},{"bike_id":"a1cf4082-a27a-41d6-bff1-336691c49132","system_id":"levelo_inurba_marseille","lat":43.30058,"lon":5.39086,"is_reserved":false,"is_disabled":false,"rental_uris":{"android":"levelo://app?vid=a1cf4082-a27a-41d6-bff1-336691c49132","ios":"levelo://app?vid=a1cf4082-a27a-41d6-bff1-336691c49132"},"vehicle_type_id":"4","last_reported":1738922991,"current_range_meters":36000,"station_id":"ce4bh192rcd13ifvqdb0","pricing_plan_id":"cebpf4jnsgd1na2vs0mg"},{"bike_id":"a7e2494c-4fcf-45ec-9d7e-c2e2256264e9","system_id":"levelo_inurba_marseille","lat":43.32539,"lon":5.4146,"is_reserved":false,"is_disabled":false,"rental_uris":{"android":"levelo://app?vid=a7e2494c-4fcf-45ec-9d7e-c2e2256264e9","ios":"levelo://app?vid=a7e2494c-4fcf-45ec-9d7e-c2e2256264e9"},"vehicle_type_id":"4","last_reported":1738922991,"current_range_meters":4000,"station_id":"ce4bhq12rcd13ifvqhhg","pricing_plan_id":"cebpf4jnsgd1na2vs0mg"},{"bike_id":"2b671ea3-0fd8-49ca-add6-64b6d7709dd0","system_id":"levelo_inurba_marseille","lat":43.31302,"lon":5.38506,"is_reserved":false,"is_disabled":false,"rental_uris":{"android":"levelo://app?vid=2b671ea3-0fd8-49ca-add6-64b6d7709dd0","ios":"levelo://app?vid=2b671ea3-0fd8-49ca-add6-64b6d7709dd0"},"vehicle_type_id":"4","last_reported":1738922991,"current_range_meters":4400,"station_id":"","pricing_plan_id":"cebpf4jnsgd1na2vs0mg"},{"bike_id":"d2243453-0fdd-44e2-b094-902ca8b1c6d1","system_id":"levelo_inurba_marseille","lat":43.27677,"lon":5.38953,"is_reserved":false,"is_disabled":false,"rental_uris":{"android":"levelo://app?vid=d2243453-0fdd-44e2-b094-902ca8b1c6d1","ios":"levelo://app?vid=d2243453-0fdd-44e2-b094-902ca8b1c6d1"},"vehicle_type_id":"4","last_reported":1738922991,"current_range_meters":38800,"station_id":"ce4bhi12rcd13ifvqfo0","pricing_plan_id":"cebpf4jnsgd1na2vs0mg"},{"bike_id":"921e8e41-d29a-46f3-9136-8ab416f52e4f","system_id":"levelo_inurba_marseille","lat":43.30141,"lon":5.3743,"is_reserved":false,"is_disabled":false,"rental_uris":{"android":"levelo://app?vid=921e8e41-d29a-46f3-9136-8ab416f52e4f","ios":"levelo://app?vid=921e8e41-d29a-46f3-9136-8ab416f52e4f"},"vehicle_type_id":"4","last_reported":1738922991,"current_range_meters":26000,"station_id":"ce4bgs92rcd13ifvqcc0","pricing_plan_id":"cebpf4jnsgd1na2vs0mg"},{"bike_id":"0831c67e-6d3e-41f8-8429-2cada861521c","system_id":"levelo_inurba_marseille","lat":43.29592,"lon":5.37688,"is_reserved":false,"is_disabled":false,"rental_uris":{"android":"levelo://app?vid=0831c67e-6d3e-41f8-8429-2cada861521c","ios":"levelo://app?vid=0831c67e-6d3e-41f8-8429-2cada861521c"},"vehicle_type_id":"4","last_reported":1738922991,"current_range_meters":39200,"station_id":"ce4bgi92rcd13ifvqb90","pricing_plan_id":"cebpf4jnsgd1na2vs0mg"},{"bike_id":"cd79f58f-9702-431d-ac37-95dcbfa35705","system_id":"levelo_inurba_marseille","lat":43.32483,"lon":5.36569,"is_reserved":false,"is_disabled":false,"rental_uris":{"android":"levelo://app?vid=cd79f58f-9702-431d-ac37-95dcbfa35705","ios":"levelo://app?vid=cd79f58f-9702-431d-ac37-95dcbfa35705"},"vehicle_type_id":"4","last_reported":1738922991,"current_range_meters":38400,"station_id":"ce4bhs12rcd13ifvqhvg","pricing_plan_id":"cebpf4jnsgd1na2vs0mg"},{"bike_id":"29b89577-5ba4-4a1c-a2ad-cff10e490f1a","system_id":"levelo_inurba_marseille","lat":43.24092,"lon":5.37735,"is_reserved":false,"is_disabled":false,"rental_uris":{"android":"levelo://app?vid=29b89577-5ba4-4a1c-a2ad-cff10e490f1a","ios":"levelo://app?vid=29b89577-5ba4-4a1c-a2ad-cff10e490f1a"},"vehicle_type_id":"4","last_reported":1738922991,"current_range_meters":21600,"station_id":"ce4bhnp2rcd13ifvqgvg","pricing_plan_id":"cebpf4jnsgd1na2vs0mg"},{"bike_id":"cfc6d84c-2030-49fa-bd57-83b6275518c2","system_id":"levelo_inurba_marseille","lat":43.24063,"lon":5.3772,"is_reserved":false,"is_disabled":false,"rental_uris":{"android":"levelo://app?vid=cfc6d84c-2030-49fa-bd57-83b6275518c2","ios":"levelo://app?vid=cfc6d84c-2030-49fa-bd57-83b6275518c2"},"vehicle_type_id":"4","last_reported":1738922991,"current_range_meters":16000,"station_id":"ce4bhnp2rcd13ifvqgvg","pricing_plan_id":"cebpf4jnsgd1na2vs0mg"},{"bike_id":"6aaf3bd2-7610-42ed-8f59-14639efb102f","system_id":"levelo_inurba_marseille","lat":43.31366,"lon":5.384959,"is_reserved":false,"is_disabled":false,"rental_uris":{"android":"levelo://app?vid=6aaf3bd2-7610-42ed-8f59-14639efb102f","ios":"levelo://app?vid=6aaf3bd2-7610-42ed-8f59-14639efb102f"},"vehicle_type_id":"4","last_reported":1738922991,"current_range_meters":18800,"station_id":"ce4bgt92rcd13ifvqcf0","pricing_plan_id":"cebpf4jnsgd1na2vs0mg"},{"bike_id":"6964e144-0c20-439f-8e52-e9a10a7db7cf","system_id":"levelo_inurba_marseille","lat":43.302504,"lon":5.377314,"is_reserved":false,"is_disabled":false,"rental_uris":{"android":"levelo://app?vid=6964e144-0c20-439f-8e52-e9a10a7db7cf","ios":"levelo://app?vid=6964e144-0c20-439f-8e52-e9a10a7db7cf"},"vehicle_type_id":"4","last_reported":1738922991,"current_range_meters":32400,"station_id":"ce4bguh2rcd13ifvqcj0","pricing_plan_id":"cebpf4jnsgd1na2vs0mg"},{"bike_id":"0bc38e38-92c3-4ed1-b28d-79cb5f04f246","system_id":"levelo_inurba_marseille","lat":43.26694,"lon":5.3827,"is_reserved":false,"is_disabled":false,"rental_uris":{"android":"levelo://app?vid=0bc38e38-92c3-4ed1-b28d-79cb5f04f246","ios":"levelo://app?vid=0bc38e38-92c3-4ed1-b28d-79cb5f04f246"},"vehicle_type_id":"4","last_reported":1738922991,"current_range_meters":38000,"station_id":"ce4bhg92rcd13ifvqf90","pricing_plan_id":"cebpf4jnsgd1na2vs0mg"},{"bike_id":"da10d3b6-6e7d-4a1f-958a-0b25eceb1fc4","system_id":"levelo_inurba_marseille","lat":43.33019,"lon":5.39037,"is_reserved":false,"is_disabled":false,"rental_uris":{"android":"levelo://app?vid=da10d3b6-6e7d-4a1f-958a-0b25eceb1fc4","ios":"levelo://app?vid=da10d3b6-6e7d-4a1f-958a-0b25eceb1fc4"},"vehicle_type_id":"4","last_reported":1738922991,"current_range_meters":38800,"station_id":"ce4bhr92rcd13ifvqhrg","pricing_plan_id":"cebpf4jnsgd1na2vs0mg"},{"bike_id":"b1950598-35f8-4faa-8175-9f6ebce1c34f","system_id":"levelo_inurba_marseille","lat":43.30553,"lon":5.38438,"is_reserved":false,"is_disabled":false,"rental_uris":{"android":"levelo://app?vid=b1950598-35f8-4faa-8175-9f6ebce1c34f","ios":"levelo://app?vid=b1950598-35f8-4faa-8175-9f6ebce1c34f"},"vehicle_type_id":"4","last_reported":1738922991,"current_range_meters":37600,"station_id":"ce4bgg92rcd13ifvqb30","pricing_plan_id":"cebpf4jnsgd1na2vs0mg"},{"bike_id":"48e4415f-4bfa-4dd7-b8c6-72b96454ae71","system_id":"levelo_inurba_marseille","lat":43.26821,"lon":5.40258,"is_reserved":false,"is_disabled":false,"rental_uris":{"android":"levelo://app?vid=48e4415f-4bfa-4dd7-b8c6-72b96454ae71","ios":"levelo://app?vid=48e4415f-4bfa-4dd7-b8c6-72b96454ae71"},"vehicle_type_id":"4","last_reported":1738922991,"current_range_meters":39200,"station_id":"ce501612rcd8frsf0b60","pricing_plan_id":"cebpf4jnsgd1na2vs0mg"},{"bike_id":"921e3fac-428b-40ff-9224-c3f13b9034c3","system_id":"levelo_inurba_marseille","lat":43.29605,"lon":5.36736,"is_reserved":false,"is_disabled":false,"rental_uris":{"android":"levelo://app?vid=921e3fac-428b-40ff-9224-c3f13b9034c3","ios":"levelo://app?vid=921e3fac-428b-40ff-9224-c3f13b9034c3"},"vehicle_type_id":"4","last_reported":1738922991,"current_range_meters":38800,"station_id":"ce4bgph2rcd13ifvqc2g","pricing_plan_id":"cebpf4jnsgd1na2vs0mg"},{"bike_id":"ff367720-d345-4894-b2da-040da08574ca","system_id":"levelo_inurba_marseille","lat":43.3054,"lon":5.36744,"is_reserved":false,"is_disabled":false,"rental_uris":{"android":"levelo://app?vid=ff367720-d345-4894-b2da-040da08574ca","ios":"levelo://app?vid=ff367720-d345-4894-b2da-040da08574ca"},"vehicle_type_id":"4","last_reported":1738922991,"current_range_meters":35200,"station_id":"ce4bgrp2rcd13ifvqc9g","pricing_plan_id":"cebpf4jnsgd1na2vs0mg"},{"bike_id":"0e6ab3e7-15b7-4eed-aa04-3a1458acb532","system_id":"levelo_inurba_marseille","lat":43.23965,"lon":5.36628,"is_reserved":false,"is_disabled":false,"rental_uris":{"android":"levelo://app?vid=0e6ab3e7-15b7-4eed-aa04-3a1458acb532","ios":"levelo://app?vid=0e6ab3e7-15b7-4eed-aa04-3a1458acb532"},"vehicle_type_id":"4","last_reported":1738922991,"current_range_meters":22800,"station_id":"ce4bhi12rcd13ifvqfp0","pricing_plan_id":"cebpf4jnsgd1na2vs0mg"},{"bike_id":"f6e36dd0-6e67-421a-9873-e68da406d5dc","system_id":"levelo_inurba_marseille","lat":43.27821,"lon":5.39211,"is_reserved":false,"is_disabled":false,"rental_uris":{"android":"levelo://app?vid=f6e36dd0-6e67-421a-9873-e68da406d5dc","ios":"levelo://app?vid=f6e36dd0-6e67-421a-9873-e68da406d5dc"},"vehicle_type_id":"4","last_reported":1738922991,"current_range_meters":38400,"station_id":"ce4bhjp2rcd13ifvqga0","pricing_plan_id":"cebpf4jnsgd1na2vs0mg"},{"bike_id":"664962be-acc7-4677-844a-5178817526eb","system_id":"levelo_inurba_marseille","lat":43.34142,"lon":5.40907,"is_reserved":false,"is_disabled":false,"rental_uris":{"android":"levelo://app?vid=664962be-acc7-4677-844a-5178817526eb","ios":"levelo://app?vid=664962be-acc7-4677-844a-5178817526eb"},"vehicle_type_id":"4","last_reported":1738922991,"current_range_meters":26000,"station_id":"ce4bhqh2rcd13ifvqhlg","pricing_plan_id":"cebpf4jnsgd1na2vs0mg"},{"bike_id":"0fc2b2ac-22e8-4906-aedc-cd11dcfd1df7","system_id":"levelo_inurba_marseille","lat":43.27492,"lon":5.42471,"is_reserved":false,"is_disabled":false,"rental_uris":{"android":"levelo://app?vid=0fc2b2ac-22e8-4906-aedc-cd11dcfd1df7","ios":"levelo://app?vid=0fc2b2ac-22e8-4906-aedc-cd11dcfd1df7"},"vehicle_type_id":"4","last_reported":1738922991,"current_range_meters":33200,"station_id":"ce4bhn92rcd13ifvqgrg","pricing_plan_id":"cebpf4jnsgd1na2vs0mg"},{"bike_id":"d24de62b-f43d-4ee9-8636-eae3f9e1d596","system_id":"levelo_inurba_marseille","lat":43.27211,"lon":5.4099,"is_reserved":false,"is_disabled":false,"rental_uris":{"android":"levelo://app?vid=d24de62b-f43d-4ee9-8636-eae3f9e1d596","ios":"levelo://app?vid=d24de62b-f43d-4ee9-8636-eae3f9e1d596"},"vehicle_type_id":"4","last_reported":1738922991,"current_range_meters":33200,"station_id":"ce4bhl12rcd13ifvqgf0","pricing_plan_id":"cebpf4jnsgd1na2vs0mg"},{"bike_id":"45a63924-d03f-4bba-a9a6-3edee7c97c94","system_id":"levelo_inurba_marseille","lat":43.30105,"lon":5.39075,"is_reserved":false,"is_disabled":false,"rental_uris":{"android":"levelo://app?vid=45a63924-d03f-4bba-a9a6-3edee7c97c94","ios":"levelo://app?vid=45a63924-d03f-4bba-a9a6-3edee7c97c94"},"vehicle_type_id":"4","last_reported":1738922991,"current_range_meters":36800,"station_id":"ce4bh192rcd13ifvqdb0","pricing_plan_id":"cebpf4jnsgd1na2vs0mg"},{"bike_id":"b0b2e4a5-cf7b-4a0d-bb9f-3bd141029616","system_id":"levelo_inurba_marseille","lat":43.30916,"lon":5.37212,"is_reserved":false,"is_disabled":false,"rental_uris":{"android":"levelo://app?vid=b0b2e4a5-cf7b-4a0d-bb9f-3bd141029616","ios":"levelo://app?vid=b0b2e4a5-cf7b-4a0d-bb9f-3bd141029616"},"vehicle_type_id":"4","last_reported":1738922991,"current_range_meters":38400,"station_id":"ce4bguh2rcd13ifvqckg","pricing_plan_id":"cebpf4jnsgd1na2vs0mg"},{"bike_id":"19780fea-eb01-4c15-ab82-e742a85898ab","system_id":"levelo_inurba_marseille","lat":43.32471,"lon":5.36587,"is_reserved":false,"is_disabled":false,"rental_uris":{"android":"levelo://app?vid=19780fea-eb01-4c15-ab82-e742a85898ab","ios":"levelo://app?vid=19780fea-eb01-4c15-ab82-e742a85898ab"},"vehicle_type_id":"4","last_reported":1738922991,"current_range_meters":36800,"station_id":"ce4bhs12rcd13ifvqhvg","pricing_plan_id":"cebpf4jnsgd1na2vs0mg"},{"bike_id":"2849b7f6-52af-4ac8-9db1-b17b0910ec1a","system_id":"levelo_inurba_marseille","lat":43.27821,"lon":5.39211,"is_reserved":false,"is_disabled":false,"rental_uris":{"android":"levelo://app?vid=2849b7f6-52af-4ac8-9db1-b17b0910ec1a","ios":"levelo://app?vid=2849b7f6-52af-4ac8-9db1-b17b0910ec1a"},"vehicle_type_id":"4","last_reported":1738922991,"current_range_meters":34000,"station_id":"ce4bhjp2rcd13ifvqga0","pricing_plan_id":"cebpf4jnsgd1na2vs0mg"},{"bike_id":"af843207-9b15-4ff0-9b4c-0fe75b6548e3","system_id":"levelo_inurba_marseille","lat":43.29056,"lon":5.3716,"is_reserved":false,"is_disabled":false,"rental_uris":{"android":"levelo://app?vid=af843207-9b15-4ff0-9b4c-0fe75b6548e3","ios":"levelo://app?vid=af843207-9b15-4ff0-9b4c-0fe75b6548e3"},"vehicle_type_id":"4","last_reported":1738922991,"current_range_meters":32000,"station_id":"ce4bh5p2rcd13ifvqe4g","pricing_plan_id":"cebpf4jnsgd1na2vs0mg"},{"bike_id":"775e7c57-7e2a-41a4-bb53-8e81069898dc","system_id":"levelo_inurba_marseille","lat":43.2558,"lon":5.3823,"is_reserved":false,"is_disabled":false,"rental_uris":{"android":"levelo://app?vid=775e7c57-7e2a-41a4-bb53-8e81069898dc","ios":"levelo://app?vid=775e7c57-7e2a-41a4-bb53-8e81069898dc"},"vehicle_type_id":"4","last_reported":1738922991,"current_range_meters":38800,"station_id":"ce4bhih2rcd13ifvqfs0","pricing_plan_id":"cebpf4jnsgd1na2vs0mg"},{"bike_id":"b3963e70-96e6-456d-b001-ed5cf011d887","system_id":"levelo_inurba_marseille","lat":43.30474,"lon":5.37908,"is_reserved":false,"is_disabled":true,"rental_uris":{"android":"levelo://app?vid=b3963e70-96e6-456d-b001-ed5cf011d887","ios":"levelo://app?vid=b3963e70-96e6-456d-b001-ed5cf011d887"},"vehicle_type_id":"4","last_reported":1738922991,"current_range_meters":400,"station_id":"ce4bgup2rcd13ifvqcn0","pricing_plan_id":"cebpf4jnsgd1na2vs0mg"},{"bike_id":"e5303a04-91c7-4fb5-8a8d-548491569627","system_id":"levelo_inurba_marseille","lat":43.28722,"lon":5.37953,"is_reserved":false,"is_disabled":false,"rental_uris":{"android":"levelo://app?vid=e5303a04-91c7-4fb5-8a8d-548491569627","ios":"levelo://app?vid=e5303a04-91c7-4fb5-8a8d-548491569627"},"vehicle_type_id":"4","last_reported":1738922991,"current_range_meters":30800,"station_id":"ce4bh9p2rcd13ifvqec0","pricing_plan_id":"cebpf4jnsgd1na2vs0mg"},{"bike_id":"223095b3-c2e8-4b11-a7be-36f06c3b36a2","system_id":"levelo_inurba_marseille","lat":43.30519,"lon":5.36729,"is_reserved":false,"is_disabled":false,"rental_uris":{"android":"levelo://app?vid=223095b3-c2e8-4b11-a7be-36f06c3b36a2","ios":"levelo://app?vid=223095b3-c2e8-4b11-a7be-36f06c3b36a2"},"vehicle_type_id":"4","last_reported":1738922991,"current_range_meters":38000,"station_id":"ce4bgrp2rcd13ifvqc9g","pricing_plan_id":"cebpf4jnsgd1na2vs0mg"},{"bike_id":"c5789181-d252-4c46-b75d-908f3a6a38fe","system_id":"levelo_inurba_marseille","lat":43.33729,"lon":5.39205,"is_reserved":false,"is_disabled":false,"rental_uris":{"android":"levelo://app?vid=c5789181-d252-4c46-b75d-908f3a6a38fe","ios":"levelo://app?vid=c5789181-d252-4c46-b75d-908f3a6a38fe"},"vehicle_type_id":"4","last_reported":1738922991,"current_range_meters":32400,"station_id":"ce4bhr92rcd13ifvqhsg","pricing_plan_id":"cebpf4jnsgd1na2vs0mg"},{"bike_id":"70680240-c0ce-4c00-ba26-bfa78895a67c","system_id":"levelo_inurba_marseille","lat":43.28598,"lon":5.37074,"is_reserved":false,"is_disabled":true,"rental_uris":{"android":"levelo://app?vid=70680240-c0ce-4c00-ba26-bfa78895a67c","ios":"levelo://app?vid=70680240-c0ce-4c00-ba26-bfa78895a67c"},"vehicle_type_id":"4","last_reported":1738922991,"current_range_meters":38800,"station_id":"ce4bht12rcd13ifvqi60","pricing_plan_id":"cebpf4jnsgd1na2vs0mg"},{"bike_id":"c0860f29-00a1-43bc-a59a-93baa2420893","system_id":"levelo_inurba_marseille","lat":43.29375,"lon":5.37832,"is_reserved":false,"is_disabled":false,"rental_uris":{"android":"levelo://app?vid=c0860f29-00a1-43bc-a59a-93baa2420893","ios":"levelo://app?vid=c0860f29-00a1-43bc-a59a-93baa2420893"},"vehicle_type_id":"4","last_reported":1738922991,"current_range_meters":32400,"station_id":"ce4bgjh2rcd13ifvqbf0","pricing_plan_id":"cebpf4jnsgd1na2vs0mg"},{"bike_id":"ef9b62b4-8d02-4e23-970e-3e7fcb88040b","system_id":"levelo_inurba_marseille","lat":43.26232,"lon":5.38828,"is_reserved":false,"is_disabled":false,"rental_uris":{"android":"levelo://app?vid=ef9b62b4-8d02-4e23-970e-3e7fcb88040b","ios":"levelo://app?vid=ef9b62b4-8d02-4e23-970e-3e7fcb88040b"},"vehicle_type_id":"4","last_reported":1738922991,"current_range_meters":11200,"station_id":"","pricing_plan_id":"cebpf4jnsgd1na2vs0mg"},{"bike_id":"e385d642-48aa-4e8d-9486-5f57838c0307","system_id":"levelo_inurba_marseille","lat":43.30356,"lon":5.41914,"is_reserved":false,"is_disabled":false,"rental_uris":{"android":"levelo://app?vid=e385d642-48aa-4e8d-9486-5f57838c0307","ios":"levelo://app?vid=e385d642-48aa-4e8d-9486-5f57838c0307"},"vehicle_type_id":"4","last_reported":1738922991,"current_range_meters":38800,"station_id":"ce4bhop2rcd13ifvqh7g","pricing_plan_id":"cebpf4jnsgd1na2vs0mg"},{"bike_id":"59bbc581-6def-41e5-a432-768ddc1babeb","system_id":"levelo_inurba_marseille","lat":43.2781,"lon":5.40713,"is_reserved":false,"is_disabled":false,"rental_uris":{"android":"levelo://app?vid=59bbc581-6def-41e5-a432-768ddc1babeb","ios":"levelo://app?vid=59bbc581-6def-41e5-a432-768ddc1babeb"},"vehicle_type_id":"4","last_reported":1738922991,"current_range_meters":38400,"station_id":"ce4bhnh2rcd13ifvqgtg","pricing_plan_id":"cebpf4jnsgd1na2vs0mg"},{"bike_id":"eb3fd904-badc-499a-a549-c5ec6801c1d1","system_id":"levelo_inurba_marseille","lat":43.30185,"lon":5.3807,"is_reserved":false,"is_disabled":false,"rental_uris":{"android":"levelo://app?vid=eb3fd904-badc-499a-a549-c5ec6801c1d1","ios":"levelo://app?vid=eb3fd904-badc-499a-a549-c5ec6801c1d1"},"vehicle_type_id":"4","last_reported":1738922991,"current_range_meters":39200,"station_id":"ce4bgjp2rcd13ifvqbh0","pricing_plan_id":"cebpf4jnsgd1na2vs0mg"},{"bike_id":"e0c0d5bd-2c3b-46d9-9a6c-42bde9a7c747","system_id":"levelo_inurba_marseille","lat":43.28162,"lon":5.42658,"is_reserved":false,"is_disabled":false,"rental_uris":{"android":"levelo://app?vid=e0c0d5bd-2c3b-46d9-9a6c-42bde9a7c747","ios":"levelo://app?vid=e0c0d5bd-2c3b-46d9-9a6c-42bde9a7c747"},"vehicle_type_id":"4","last_reported":1738922991,"current_range_meters":8800,"station_id":"ce4bhnh2rcd13ifvqgug","pricing_plan_id":"cebpf4jnsgd1na2vs0mg"},{"bike_id":"c204f03f-a67e-4bd0-a04c-f14ecf273ff1","system_id":"levelo_inurba_marseille","lat":43.269453,"lon":5.38642,"is_reserved":false,"is_disabled":false,"rental_uris":{"android":"levelo://app?vid=c204f03f-a67e-4bd0-a04c-f14ecf273ff1","ios":"levelo://app?vid=c204f03f-a67e-4bd0-a04c-f14ecf273ff1"},"vehicle_type_id":"4","last_reported":1738922991,"current_range_meters":27200,"station_id":"ce4bhh92rcd13ifvqfh0","pricing_plan_id":"cebpf4jnsgd1na2vs0mg"},{"bike_id":"33f37d6b-08fe-4642-b4da-79d2133e4243","system_id":"levelo_inurba_marseille","lat":43.2732,"lon":5.42338,"is_reserved":false,"is_disabled":true,"rental_uris":{"android":"levelo://app?vid=33f37d6b-08fe-4642-b4da-79d2133e4243","ios":"levelo://app?vid=33f37d6b-08fe-4642-b4da-79d2133e4243"},"vehicle_type_id":"4","last_reported":1738922991,"current_range_meters":1200,"station_id":"","pricing_plan_id":"cebpf4jnsgd1na2vs0mg"},{"bike_id":"61fa4b26-20c8-466a-9fd1-66899d5ff713","system_id":"levelo_inurba_marseille","lat":43.32338,"lon":5.40637,"is_reserved":false,"is_disabled":false,"rental_uris":{"android":"levelo://app?vid=61fa4b26-20c8-466a-9fd1-66899d5ff713","ios":"levelo://app?vid=61fa4b26-20c8-466a-9fd1-66899d5ff713"},"vehicle_type_id":"4","last_reported":1738922991,"current_range_meters":24400,"station_id":"ce4bhq92rcd13ifvqhjg","pricing_plan_id":"cebpf4jnsgd1na2vs0mg"},{"bike_id":"7bc2d4b6-7844-46be-a947-040b3c3e100d","system_id":"levelo_inurba_marseille","lat":43.27913,"lon":5.39572,"is_reserved":false,"is_disabled":false,"rental_uris":{"android":"levelo://app?vid=7bc2d4b6-7844-46be-a947-040b3c3e100d","ios":"levelo://app?vid=7bc2d4b6-7844-46be-a947-040b3c3e100d"},"vehicle_type_id":"4","last_reported":1738922991,"current_range_meters":37600,"station_id":"ce4bhf92rcd13ifvqf40","pricing_plan_id":"cebpf4jnsgd1na2vs0mg"},{"bike_id":"254048ed-538f-43db-8dbf-2f9d8ee68a52","system_id":"levelo_inurba_marseille","lat":43.271849,"lon":5.410195,"is_reserved":false,"is_disabled":false,"rental_uris":{"android":"levelo://app?vid=254048ed-538f-43db-8dbf-2f9d8ee68a52","ios":"levelo://app?vid=254048ed-538f-43db-8dbf-2f9d8ee68a52"},"vehicle_type_id":"4","last_reported":1738922991,"current_range_meters":34800,"station_id":"ce4bhl12rcd13ifvqgf0","pricing_plan_id":"cebpf4jnsgd1na2vs0mg"},{"bike_id":"570e43dd-e616-4888-9e3c-236fbdf74433","system_id":"levelo_inurba_marseille","lat":43.30353,"lon":5.41892,"is_reserved":false,"is_disabled":false,"rental_uris":{"android":"levelo://app?vid=570e43dd-e616-4888-9e3c-236fbdf74433","ios":"levelo://app?vid=570e43dd-e616-4888-9e3c-236fbdf74433"},"vehicle_type_id":"4","last_reported":1738922991,"current_range_meters":38800,"station_id":"ce4bhop2rcd13ifvqh7g","pricing_plan_id":"cebpf4jnsgd1na2vs0mg"},{"bike_id":"04774d96-0ee0-4e87-855e-b975ebe820bc","system_id":"levelo_inurba_marseille","lat":43.25927,"lon":5.40906,"is_reserved":false,"is_disabled":false,"rental_uris":{"android":"levelo://app?vid=04774d96-0ee0-4e87-855e-b975ebe820bc","ios":"levelo://app?vid=04774d96-0ee0-4e87-855e-b975ebe820bc"},"vehicle_type_id":"4","last_reported":1738922991,"current_range_meters":11600,"station_id":"ce4bhm92rcd13ifvqglg","pricing_plan_id":"cebpf4jnsgd1na2vs0mg"},{"bike_id":"c8de6b0e-d38f-4aa5-b1f3-a3f87b8c1537","system_id":"levelo_inurba_marseille","lat":43.30201,"lon":5.38079,"is_reserved":false,"is_disabled":false,"rental_uris":{"android":"levelo://app?vid=c8de6b0e-d38f-4aa5-b1f3-a3f87b8c1537","ios":"levelo://app?vid=c8de6b0e-d38f-4aa5-b1f3-a3f87b8c1537"},"vehicle_type_id":"4","last_reported":1738922991,"current_range_meters":27600,"station_id":"ce4bgjp2rcd13ifvqbh0","pricing_plan_id":"cebpf4jnsgd1na2vs0mg"},{"bike_id":"caf21bc2-f8a9-48ca-9710-f61abe2378ad","system_id":"levelo_inurba_marseille","lat":43.26059,"lon":5.394,"is_reserved":false,"is_disabled":false,"rental_uris":{"android":"levelo://app?vid=caf21bc2-f8a9-48ca-9710-f61abe2378ad","ios":"levelo://app?vid=caf21bc2-f8a9-48ca-9710-f61abe2378ad"},"vehicle_type_id":"4","last_reported":1738922991,"current_range_meters":34800,"station_id":"ce4bhh92rcd13ifvqfj0","pricing_plan_id":"cebpf4jnsgd1na2vs0mg"},{"bike_id":"adea3fe0-0d5f-493f-bc7a-8db19cd779cc","system_id":"levelo_inurba_marseille","lat":43.26191,"lon":5.37952,"is_reserved":false,"is_disabled":false,"rental_uris":{"android":"levelo://app?vid=adea3fe0-0d5f-493f-bc7a-8db19cd779cc","ios":"levelo://app?vid=adea3fe0-0d5f-493f-bc7a-8db19cd779cc"},"vehicle_type_id":"4","last_reported":1738922991,"current_range_meters":36800,"station_id":"ce4bhjp2rcd13ifvqg90","pricing_plan_id":"cebpf4jnsgd1na2vs0mg"},{"bike_id":"6c20833b-b57b-4a5e-8f8c-e4faad3f5b61","system_id":"levelo_inurba_marseille","lat":43.28936,"lon":5.36402,"is_reserved":false,"is_disabled":false,"rental_uris":{"android":"levelo://app?vid=6c20833b-b57b-4a5e-8f8c-e4faad3f5b61","ios":"levelo://app?vid=6c20833b-b57b-4a5e-8f8c-e4faad3f5b61"},"vehicle_type_id":"4","last_reported":1738922991,"current_range_meters":36000,"station_id":"ce4bhc92rcd13ifvqetg","pricing_plan_id":"cebpf4jnsgd1na2vs0mg"},{"bike_id":"a399fbde-6a19-48c8-9e8b-fa1033ce7027","system_id":"levelo_inurba_marseille","lat":43.28698,"lon":5.37972,"is_reserved":false,"is_disabled":false,"rental_uris":{"android":"levelo://app?vid=a399fbde-6a19-48c8-9e8b-fa1033ce7027","ios":"levelo://app?vid=a399fbde-6a19-48c8-9e8b-fa1033ce7027"},"vehicle_type_id":"4","last_reported":1738922991,"current_range_meters":17200,"station_id":"ce4bh9p2rcd13ifvqec0","pricing_plan_id":"cebpf4jnsgd1na2vs0mg"},{"bike_id":"07bbbb02-8103-472b-8e2d-b8e1fb21467e","system_id":"levelo_inurba_marseille","lat":43.26563,"lon":5.39007,"is_reserved":false,"is_disabled":false,"rental_uris":{"android":"levelo://app?vid=07bbbb02-8103-472b-8e2d-b8e1fb21467e","ios":"levelo://app?vid=07bbbb02-8103-472b-8e2d-b8e1fb21467e"},"vehicle_type_id":"4","last_reported":1738922991,"current_range_meters":20000,"station_id":"ce4bhe12rcd13ifvqf30","pricing_plan_id":"cebpf4jnsgd1na2vs0mg"},{"bike_id":"c24a0944-9686-4c99-bfcb-6448fb0e1bb6","system_id":"levelo_inurba_marseille","lat":43.24065,"lon":5.3778,"is_reserved":false,"is_disabled":false,"rental_uris":{"android":"levelo://app?vid=c24a0944-9686-4c99-bfcb-6448fb0e1bb6","ios":"levelo://app?vid=c24a0944-9686-4c99-bfcb-6448fb0e1bb6"},"vehicle_type_id":"4","last_reported":1738922991,"current_range_meters":28400,"station_id":"ce4bhnp2rcd13ifvqgvg","pricing_plan_id":"cebpf4jnsgd1na2vs0mg"},{"bike_id":"8b11bba1-d0cf-40c9-9463-3c4eba99b678","system_id":"levelo_inurba_marseille","lat":43.30147,"lon":5.38086,"is_reserved":false,"is_disabled":false,"rental_uris":{"android":"levelo://app?vid=8b11bba1-d0cf-40c9-9463-3c4eba99b678","ios":"levelo://app?vid=8b11bba1-d0cf-40c9-9463-3c4eba99b678"},"vehicle_type_id":"4","last_reported":1738922991,"current_range_meters":24800,"station_id":"ce4bgjp2rcd13ifvqbh0","pricing_plan_id":"cebpf4jnsgd1na2vs0mg"},{"bike_id":"0c7b73f6-06cf-4f30-a5b5-cc680ecfa71d","system_id":"levelo_inurba_marseille","lat":43.33613,"lon":5.40985,"is_reserved":false,"is_disabled":true,"rental_uris":{"android":"levelo://app?vid=0c7b73f6-06cf-4f30-a5b5-cc680ecfa71d","ios":"levelo://app?vid=0c7b73f6-06cf-4f30-a5b5-cc680ecfa71d"},"vehicle_type_id":"4","last_reported":1738922991,"current_range_meters":0,"station_id":"ce4bhqh2rcd13ifvqhmg","pricing_plan_id":"cebpf4jnsgd1na2vs0mg"},{"bike_id":"c75b89e0-59d2-46d2-be44-d415eca050e6","system_id":"levelo_inurba_marseille","lat":43.26791,"lon":5.39413,"is_reserved":false,"is_disabled":false,"rental_uris":{"android":"levelo://app?vid=c75b89e0-59d2-46d2-be44-d415eca050e6","ios":"levelo://app?vid=c75b89e0-59d2-46d2-be44-d415eca050e6"},"vehicle_type_id":"4","last_reported":1738922991,"current_range_meters":24800,"station_id":"ce4bhh12rcd13ifvqfg0","pricing_plan_id":"cebpf4jnsgd1na2vs0mg"},{"bike_id":"15c8ffa4-0d0b-4a1a-b4c5-f4440cea02f2","system_id":"levelo_inurba_marseille","lat":43.23131,"lon":5.43743,"is_reserved":false,"is_disabled":false,"rental_uris":{"android":"levelo://app?vid=15c8ffa4-0d0b-4a1a-b4c5-f4440cea02f2","ios":"levelo://app?vid=15c8ffa4-0d0b-4a1a-b4c5-f4440cea02f2"},"vehicle_type_id":"4","last_reported":1738922991,"current_range_meters":4400,"station_id":"ce4bhmp2rcd13ifvqgog","pricing_plan_id":"cebpf4jnsgd1na2vs0mg"},{"bike_id":"f2df57fd-48fb-42b4-9b53-5e639c9b06ad","system_id":"levelo_inurba_marseille","lat":43.32308,"lon":5.38947,"is_reserved":false,"is_disabled":false,"rental_uris":{"android":"levelo://app?vid=f2df57fd-48fb-42b4-9b53-5e639c9b06ad","ios":"levelo://app?vid=f2df57fd-48fb-42b4-9b53-5e639c9b06ad"},"vehicle_type_id":"4","last_reported":1738922991,"current_range_meters":38000,"station_id":"ce4bhqp2rcd13ifvqhog","pricing_plan_id":"cebpf4jnsgd1na2vs0mg"},{"bike_id":"b0870ecf-4632-4fdf-a9ca-dd576a682e60","system_id":"levelo_inurba_marseille","lat":43.2905,"lon":5.37165,"is_reserved":false,"is_disabled":false,"rental_uris":{"android":"levelo://app?vid=b0870ecf-4632-4fdf-a9ca-dd576a682e60","ios":"levelo://app?vid=b0870ecf-4632-4fdf-a9ca-dd576a682e60"},"vehicle_type_id":"4","last_reported":1738922991,"current_range_meters":2800,"station_id":"ce4bh5p2rcd13ifvqe4g","pricing_plan_id":"cebpf4jnsgd1na2vs0mg"},{"bike_id":"1f817628-675a-46e7-8767-c97b0a6a2259","system_id":"levelo_inurba_marseille","lat":43.26785,"lon":5.39409,"is_reserved":false,"is_disabled":false,"rental_uris":{"android":"levelo://app?vid=1f817628-675a-46e7-8767-c97b0a6a2259","ios":"levelo://app?vid=1f817628-675a-46e7-8767-c97b0a6a2259"},"vehicle_type_id":"4","last_reported":1738922991,"current_range_meters":27600,"station_id":"ce4bhh12rcd13ifvqfg0","pricing_plan_id":"cebpf4jnsgd1na2vs0mg"},{"bike_id":"30848e21-3842-49e6-b9e8-e3d9163bf6f6","system_id":"levelo_inurba_marseille","lat":43.2592,"lon":5.4092,"is_reserved":false,"is_disabled":false,"rental_uris":{"android":"levelo://app?vid=30848e21-3842-49e6-b9e8-e3d9163bf6f6","ios":"levelo://app?vid=30848e21-3842-49e6-b9e8-e3d9163bf6f6"},"vehicle_type_id":"4","last_reported":1738922991,"current_range_meters":28400,"station_id":"ce4bhm92rcd13ifvqglg","pricing_plan_id":"cebpf4jnsgd1na2vs0mg"},{"bike_id":"59db9156-837c-4bef-bdf0-6cb05d00fb23","system_id":"levelo_inurba_marseille","lat":43.24167,"lon":5.36402,"is_reserved":false,"is_disabled":false,"rental_uris":{"android":"levelo://app?vid=59db9156-837c-4bef-bdf0-6cb05d00fb23","ios":"levelo://app?vid=59db9156-837c-4bef-bdf0-6cb05d00fb23"},"vehicle_type_id":"4","last_reported":1738922991,"current_range_meters":32000,"station_id":"cpo36qri1sfpv3e86is0","pricing_plan_id":"cebpf4jnsgd1na2vs0mg"},{"bike_id":"8a67da58-cf32-4163-a9c0-454a297e60c9","system_id":"levelo_inurba_marseille","lat":43.29556,"lon":5.42277,"is_reserved":false,"is_disabled":false,"rental_uris":{"android":"levelo://app?vid=8a67da58-cf32-4163-a9c0-454a297e60c9","ios":"levelo://app?vid=8a67da58-cf32-4163-a9c0-454a297e60c9"},"vehicle_type_id":"4","last_reported":1738922991,"current_range_meters":16000,"station_id":"ce4bhph2rcd13ifvqhdg","pricing_plan_id":"cebpf4jnsgd1na2vs0mg"},{"bike_id":"f4bb6310-503b-4031-bc2a-b8d2cc2fc4bd","system_id":"levelo_inurba_marseille","lat":43.26508,"lon":5.39536,"is_reserved":false,"is_disabled":false,"rental_uris":{"android":"levelo://app?vid=f4bb6310-503b-4031-bc2a-b8d2cc2fc4bd","ios":"levelo://app?vid=f4bb6310-503b-4031-bc2a-b8d2cc2fc4bd"},"vehicle_type_id":"4","last_reported":1738922991,"current_range_meters":8400,"station_id":"ce4bhi12rcd13ifvqfq0","pricing_plan_id":"cebpf4jnsgd1na2vs0mg"},{"bike_id":"19c91191-64ee-4803-94d7-14a4a66340df","system_id":"levelo_inurba_marseille","lat":43.31708,"lon":5.42404,"is_reserved":false,"is_disabled":true,"rental_uris":{"android":"levelo://app?vid=19c91191-64ee-4803-94d7-14a4a66340df","ios":"levelo://app?vid=19c91191-64ee-4803-94d7-14a4a66340df"},"vehicle_type_id":"4","last_reported":1738922991,"current_range_meters":0,"station_id":"ce4bhp92rcd13ifvqhbg","pricing_plan_id":"cebpf4jnsgd1na2vs0mg"},{"bike_id":"8c695e9c-cbe7-4113-bccc-bc20b1379ba4","system_id":"levelo_inurba_marseille","lat":43.29373,"lon":5.37836,"is_reserved":false,"is_disabled":false,"rental_uris":{"android":"levelo://app?vid=8c695e9c-cbe7-4113-bccc-bc20b1379ba4","ios":"levelo://app?vid=8c695e9c-cbe7-4113-bccc-bc20b1379ba4"},"vehicle_type_id":"4","last_reported":1738922991,"current_range_meters":32800,"station_id":"ce4bgjh2rcd13ifvqbf0","pricing_plan_id":"cebpf4jnsgd1na2vs0mg"},{"bike_id":"8c3627bd-35ae-43cc-9c2d-d41ac4ad716c","system_id":"levelo_inurba_marseille","lat":43.31497,"lon":5.37309,"is_reserved":false,"is_disabled":false,"rental_uris":{"android":"levelo://app?vid=8c3627bd-35ae-43cc-9c2d-d41ac4ad716c","ios":"levelo://app?vid=8c3627bd-35ae-43cc-9c2d-d41ac4ad716c"},"vehicle_type_id":"4","last_reported":1738922991,"current_range_meters":38800,"station_id":"ce4bgt12rcd13ifvqcd0","pricing_plan_id":"cebpf4jnsgd1na2vs0mg"},{"bike_id":"e8ee01f7-00f0-492d-b043-8999ad578173","system_id":"levelo_inurba_marseille","lat":43.29688,"lon":5.36598,"is_reserved":false,"is_disabled":false,"rental_uris":{"android":"levelo://app?vid=e8ee01f7-00f0-492d-b043-8999ad578173","ios":"levelo://app?vid=e8ee01f7-00f0-492d-b043-8999ad578173"},"vehicle_type_id":"4","last_reported":1738922991,"current_range_meters":11600,"station_id":"ce4bgn12rcd13ifvqbt0","pricing_plan_id":"cebpf4jnsgd1na2vs0mg"},{"bike_id":"c2254ed0-0838-424f-99f8-8eb5410c1ec3","system_id":"levelo_inurba_marseille","lat":43.24155,"lon":5.36413,"is_reserved":false,"is_disabled":false,"rental_uris":{"android":"levelo://app?vid=c2254ed0-0838-424f-99f8-8eb5410c1ec3","ios":"levelo://app?vid=c2254ed0-0838-424f-99f8-8eb5410c1ec3"},"vehicle_type_id":"4","last_reported":1738922991,"current_range_meters":30400,"station_id":"cpo36qri1sfpv3e86is0","pricing_plan_id":"cebpf4jnsgd1na2vs0mg"},{"bike_id":"63502e7d-71b3-44d6-b82d-6352b6e3809f","system_id":"levelo_inurba_marseille","lat":43.25795,"lon":5.39445,"is_reserved":false,"is_disabled":false,"rental_uris":{"android":"levelo://app?vid=63502e7d-71b3-44d6-b82d-6352b6e3809f","ios":"levelo://app?vid=63502e7d-71b3-44d6-b82d-6352b6e3809f"},"vehicle_type_id":"4","last_reported":1738922991,"current_range_meters":37600,"station_id":"ce4bhip2rcd13ifvqft0","pricing_plan_id":"cebpf4jnsgd1na2vs0mg"},{"bike_id":"ede7cb4e-21e3-4f60-b3e2-c06c1766d8c6","system_id":"levelo_inurba_marseille","lat":43.29796,"lon":5.37096,"is_reserved":false,"is_disabled":false,"rental_uris":{"android":"levelo://app?vid=ede7cb4e-21e3-4f60-b3e2-c06c1766d8c6","ios":"levelo://app?vid=ede7cb4e-21e3-4f60-b3e2-c06c1766d8c6"},"vehicle_type_id":"4","last_reported":1738922991,"current_range_meters":35600,"station_id":"ce4bgop2rcd13ifvqc1g","pricing_plan_id":"cebpf4jnsgd1na2vs0mg"},{"bike_id":"1ee45343-9eb3-4093-af39-176108dbf5fc","system_id":"levelo_inurba_marseille","lat":43.32483,"lon":5.36577,"is_reserved":false,"is_disabled":false,"rental_uris":{"android":"levelo://app?vid=1ee45343-9eb3-4093-af39-176108dbf5fc","ios":"levelo://app?vid=1ee45343-9eb3-4093-af39-176108dbf5fc"},"vehicle_type_id":"4","last_reported":1738922991,"current_range_meters":39200,"station_id":"ce4bhs12rcd13ifvqhvg","pricing_plan_id":"cebpf4jnsgd1na2vs0mg"},{"bike_id":"744f4122-a65c-499d-80ba-7729a1ce92fe","system_id":"levelo_inurba_marseille","lat":43.28449,"lon":5.3921,"is_reserved":false,"is_disabled":true,"rental_uris":{"android":"levelo://app?vid=744f4122-a65c-499d-80ba-7729a1ce92fe","ios":"levelo://app?vid=744f4122-a65c-499d-80ba-7729a1ce92fe"},"vehicle_type_id":"4","last_reported":1738922991,"current_range_meters":36400,"station_id":"ce4bhoh2rcd13ifvqh5g","pricing_plan_id":"cebpf4jnsgd1na2vs0mg"},{"bike_id":"5d1dacf3-3fa1-40ba-8373-ce163dd2d283","system_id":"levelo_inurba_marseille","lat":43.26183,"lon":5.37942,"is_reserved":false,"is_disabled":false,"rental_uris":{"android":"levelo://app?vid=5d1dacf3-3fa1-40ba-8373-ce163dd2d283","ios":"levelo://app?vid=5d1dacf3-3fa1-40ba-8373-ce163dd2d283"},"vehicle_type_id":"4","last_reported":1738922991,"current_range_meters":38800,"station_id":"ce4bhjp2rcd13ifvqg90","pricing_plan_id":"cebpf4jnsgd1na2vs0mg"},{"bike_id":"060a4ff1-665e-4d86-8eef-d19188356a04","system_id":"levelo_inurba_marseille","lat":43.30546,"lon":5.36714,"is_reserved":false,"is_disabled":false,"rental_uris":{"android":"levelo://app?vid=060a4ff1-665e-4d86-8eef-d19188356a04","ios":"levelo://app?vid=060a4ff1-665e-4d86-8eef-d19188356a04"},"vehicle_type_id":"4","last_reported":1738922991,"current_range_meters":22800,"station_id":"ce4bgrp2rcd13ifvqc9g","pricing_plan_id":"cebpf4jnsgd1na2vs0mg"},{"bike_id":"e608cc64-2730-4a71-8ccf-956d2b8dc5e0","system_id":"levelo_inurba_marseille","lat":43.30909,"lon":5.3687,"is_reserved":false,"is_disabled":false,"rental_uris":{"android":"levelo://app?vid=e608cc64-2730-4a71-8ccf-956d2b8dc5e0","ios":"levelo://app?vid=e608cc64-2730-4a71-8ccf-956d2b8dc5e0"},"vehicle_type_id":"4","last_reported":1738922991,"current_range_meters":14800,"station_id":"ce4bgn92rcd13ifvqbvg","pricing_plan_id":"cebpf4jnsgd1na2vs0mg"},{"bike_id":"d9ac6c63-7b82-4f28-a9da-9476c9e1285c","system_id":"levelo_inurba_marseille","lat":43.29971,"lon":5.37181,"is_reserved":false,"is_disabled":false,"rental_uris":{"android":"levelo://app?vid=d9ac6c63-7b82-4f28-a9da-9476c9e1285c","ios":"levelo://app?vid=d9ac6c63-7b82-4f28-a9da-9476c9e1285c"},"vehicle_type_id":"4","last_reported":1738922991,"current_range_meters":26800,"station_id":"ce4bgr92rcd13ifvqc7g","pricing_plan_id":"cebpf4jnsgd1na2vs0mg"},{"bike_id":"394fb33f-d9d4-4f64-9580-174995fc4b80","system_id":"levelo_inurba_marseille","lat":43.30549,"lon":5.36552,"is_reserved":false,"is_disabled":false,"rental_uris":{"android":"levelo://app?vid=394fb33f-d9d4-4f64-9580-174995fc4b80","ios":"levelo://app?vid=394fb33f-d9d4-4f64-9580-174995fc4b80"},"vehicle_type_id":"4","last_reported":1738922991,"current_range_meters":39200,"station_id":"ce4bgs12rcd13ifvqcag","pricing_plan_id":"cebpf4jnsgd1na2vs0mg"},{"bike_id":"77878ebe-fac7-4acf-beea-b400f4d95da7","system_id":"levelo_inurba_marseille","lat":43.26483,"lon":5.3957,"is_reserved":false,"is_disabled":false,"rental_uris":{"android":"levelo://app?vid=77878ebe-fac7-4acf-beea-b400f4d95da7","ios":"levelo://app?vid=77878ebe-fac7-4acf-beea-b400f4d95da7"},"vehicle_type_id":"4","last_reported":1738922991,"current_range_meters":28000,"station_id":"ce4bhi12rcd13ifvqfq0","pricing_plan_id":"cebpf4jnsgd1na2vs0mg"},{"bike_id":"1bd0ed6d-66a1-4d24-8429-2532d0103fd2","system_id":"levelo_inurba_marseille","lat":43.26209,"lon":5.37455,"is_reserved":false,"is_disabled":false,"rental_uris":{"android":"levelo://app?vid=1bd0ed6d-66a1-4d24-8429-2532d0103fd2","ios":"levelo://app?vid=1bd0ed6d-66a1-4d24-8429-2532d0103fd2"},"vehicle_type_id":"4","last_reported":1738922991,"current_range_meters":28000,"station_id":"ce4bhgp2rcd13ifvqfc0","pricing_plan_id":"cebpf4jnsgd1na2vs0mg"},{"bike_id":"09a9ac53-cd06-4438-9a55-77242cbf0611","system_id":"levelo_inurba_marseille","lat":43.24165,"lon":5.39755,"is_reserved":false,"is_disabled":false,"rental_uris":{"android":"levelo://app?vid=09a9ac53-cd06-4438-9a55-77242cbf0611","ios":"levelo://app?vid=09a9ac53-cd06-4438-9a55-77242cbf0611"},"vehicle_type_id":"4","last_reported":1738922991,"current_range_meters":38800,"station_id":"ce4bhn12rcd13ifvqgpg","pricing_plan_id":"cebpf4jnsgd1na2vs0mg"},{"bike_id":"013966e3-238f-4f27-83d7-59548e859f1f","system_id":"levelo_inurba_marseille","lat":43.29588,"lon":5.36741,"is_reserved":false,"is_disabled":false,"rental_uris":{"android":"levelo://app?vid=013966e3-238f-4f27-83d7-59548e859f1f","ios":"levelo://app?vid=013966e3-238f-4f27-83d7-59548e859f1f"},"vehicle_type_id":"4","last_reported":1738922991,"current_range_meters":35600,"station_id":"ce4bgph2rcd13ifvqc2g","pricing_plan_id":"cebpf4jnsgd1na2vs0mg"},{"bike_id":"528241cb-7275-47c1-85e9-ff7a37a61cca","system_id":"levelo_inurba_marseille","lat":43.304648,"lon":5.37906,"is_reserved":false,"is_disabled":false,"rental_uris":{"android":"levelo://app?vid=528241cb-7275-47c1-85e9-ff7a37a61cca","ios":"levelo://app?vid=528241cb-7275-47c1-85e9-ff7a37a61cca"},"vehicle_type_id":"4","last_reported":1738922991,"current_range_meters":32000,"station_id":"ce4bgup2rcd13ifvqcn0","pricing_plan_id":"cebpf4jnsgd1na2vs0mg"},{"bike_id":"7f015044-497d-43f0-82a7-ccbcbe7df214","system_id":"levelo_inurba_marseille","lat":43.2871,"lon":5.37945,"is_reserved":false,"is_disabled":false,"rental_uris":{"android":"levelo://app?vid=7f015044-497d-43f0-82a7-ccbcbe7df214","ios":"levelo://app?vid=7f015044-497d-43f0-82a7-ccbcbe7df214"},"vehicle_type_id":"4","last_reported":1738922991,"current_range_meters":8400,"station_id":"ce4bh9p2rcd13ifvqec0","pricing_plan_id":"cebpf4jnsgd1na2vs0mg"},{"bike_id":"c1f69703-9b05-4581-8fd1-87fea2a4b5e4","system_id":"levelo_inurba_marseille","lat":43.30935,"lon":5.40144,"is_reserved":false,"is_disabled":false,"rental_uris":{"android":"levelo://app?vid=c1f69703-9b05-4581-8fd1-87fea2a4b5e4","ios":"levelo://app?vid=c1f69703-9b05-4581-8fd1-87fea2a4b5e4"},"vehicle_type_id":"4","last_reported":1738922991,"current_range_meters":3200,"station_id":"ce4bgvp2rcd13ifvqct0","pricing_plan_id":"cebpf4jnsgd1na2vs0mg"},{"bike_id":"77c6b6f5-5373-48ab-902f-22c5dcf41d52","system_id":"levelo_inurba_marseille","lat":43.2953,"lon":5.38545,"is_reserved":false,"is_disabled":false,"rental_uris":{"android":"levelo://app?vid=77c6b6f5-5373-48ab-902f-22c5dcf41d52","ios":"levelo://app?vid=77c6b6f5-5373-48ab-902f-22c5dcf41d52"},"vehicle_type_id":"4","last_reported":1738922991,"current_range_meters":24000,"station_id":"ce4bgih2rcd13ifvqba0","pricing_plan_id":"cebpf4jnsgd1na2vs0mg"},{"bike_id":"ed7e7ad0-5cb0-46c0-b26f-7e6a29732a1c","system_id":"levelo_inurba_marseille","lat":43.29959,"lon":5.41331,"is_reserved":false,"is_disabled":false,"rental_uris":{"android":"levelo://app?vid=ed7e7ad0-5cb0-46c0-b26f-7e6a29732a1c","ios":"levelo://app?vid=ed7e7ad0-5cb0-46c0-b26f-7e6a29732a1c"},"vehicle_type_id":"4","last_reported":1738922991,"current_range_meters":38800,"station_id":"ce4bhp12rcd13ifvqh9g","pricing_plan_id":"cebpf4jnsgd1na2vs0mg"},{"bike_id":"04fd108b-ac27-4f4f-bb01-1a3a4f96b7e7","system_id":"levelo_inurba_marseille","lat":43.3149,"lon":5.37307,"is_reserved":false,"is_disabled":false,"rental_uris":{"android":"levelo://app?vid=04fd108b-ac27-4f4f-bb01-1a3a4f96b7e7","ios":"levelo://app?vid=04fd108b-ac27-4f4f-bb01-1a3a4f96b7e7"},"vehicle_type_id":"4","last_reported":1738922991,"current_range_meters":38800,"station_id":"ce4bgt12rcd13ifvqcd0","pricing_plan_id":"cebpf4jnsgd1na2vs0mg"},{"bike_id":"f8f56e4e-0d59-4f7d-8198-05b735cac00d","system_id":"levelo_inurba_marseille","lat":43.27222,"lon":5.39173,"is_reserved":false,"is_disabled":false,"rental_uris":{"android":"levelo://app?vid=f8f56e4e-0d59-4f7d-8198-05b735cac00d","ios":"levelo://app?vid=f8f56e4e-0d59-4f7d-8198-05b735cac00d"},"vehicle_type_id":"4","last_reported":1738922991,"current_range_meters":22400,"station_id":"ce4bhhp2rcd13ifvqfm0","pricing_plan_id":"cebpf4jnsgd1na2vs0mg"},{"bike_id":"fe146960-7d51-43a8-8d5f-97dd150b0e2d","system_id":"levelo_inurba_marseille","lat":43.2605,"lon":5.39401,"is_reserved":false,"is_disabled":false,"rental_uris":{"android":"levelo://app?vid=fe146960-7d51-43a8-8d5f-97dd150b0e2d","ios":"levelo://app?vid=fe146960-7d51-43a8-8d5f-97dd150b0e2d"},"vehicle_type_id":"4","last_reported":1738922991,"current_range_meters":38800,"station_id":"ce4bhh92rcd13ifvqfj0","pricing_plan_id":"cebpf4jnsgd1na2vs0mg"},{"bike_id":"20a0debd-d939-4c2a-b08f-6028cb9297fa","system_id":"levelo_inurba_marseille","lat":43.3015,"lon":5.38095,"is_reserved":false,"is_disabled":false,"rental_uris":{"android":"levelo://app?vid=20a0debd-d939-4c2a-b08f-6028cb9297fa","ios":"levelo://app?vid=20a0debd-d939-4c2a-b08f-6028cb9297fa"},"vehicle_type_id":"4","last_reported":1738922991,"current_range_meters":30400,"station_id":"ce4bgjp2rcd13ifvqbh0","pricing_plan_id":"cebpf4jnsgd1na2vs0mg"},{"bike_id":"79eab85b-411d-47b7-ba8c-c70679ea549f","system_id":"levelo_inurba_marseille","lat":43.23123,"lon":5.39832,"is_reserved":false,"is_disabled":false,"rental_uris":{"android":"levelo://app?vid=79eab85b-411d-47b7-ba8c-c70679ea549f","ios":"levelo://app?vid=79eab85b-411d-47b7-ba8c-c70679ea549f"},"vehicle_type_id":"4","last_reported":1738922991,"current_range_meters":38800,"station_id":"","pricing_plan_id":"cebpf4jnsgd1na2vs0mg"},{"bike_id":"bec99846-c6d9-4983-8a05-58ed5efc4a7e","system_id":"levelo_inurba_marseille","lat":43.30531,"lon":5.36716,"is_reserved":false,"is_disabled":false,"rental_uris":{"android":"levelo://app?vid=bec99846-c6d9-4983-8a05-58ed5efc4a7e","ios":"levelo://app?vid=bec99846-c6d9-4983-8a05-58ed5efc4a7e"},"vehicle_type_id":"4","last_reported":1738922991,"current_range_meters":39200,"station_id":"ce4bgrp2rcd13ifvqc9g","pricing_plan_id":"cebpf4jnsgd1na2vs0mg"},{"bike_id":"0b1868a8-af44-41b2-ad81-b59c1c92136a","system_id":"levelo_inurba_marseille","lat":43.305331,"lon":5.365379,"is_reserved":false,"is_disabled":false,"rental_uris":{"android":"levelo://app?vid=0b1868a8-af44-41b2-ad81-b59c1c92136a","ios":"levelo://app?vid=0b1868a8-af44-41b2-ad81-b59c1c92136a"},"vehicle_type_id":"4","last_reported":1738922991,"current_range_meters":30400,"station_id":"ce4bgs12rcd13ifvqcag","pricing_plan_id":"cebpf4jnsgd1na2vs0mg"},{"bike_id":"341067f4-d7ed-4f99-954f-691c64a92e97","system_id":"levelo_inurba_marseille","lat":43.23187,"lon":5.39992,"is_reserved":false,"is_disabled":false,"rental_uris":{"android":"levelo://app?vid=341067f4-d7ed-4f99-954f-691c64a92e97","ios":"levelo://app?vid=341067f4-d7ed-4f99-954f-691c64a92e97"},"vehicle_type_id":"4","last_reported":1738922991,"current_range_meters":14400,"station_id":"ce4bhn12rcd13ifvqgqg","pricing_plan_id":"cebpf4jnsgd1na2vs0mg"},