{"last_updated":1762895388,"ttl":60,"version":"2.2","data":{"bikes":[{"bike_id":"d7db12ce-11cc-4c98-8751-ac59baa5d7aa","system_id":"levelo_inurba_marseille","lat":43.337444,"lon":5.374475,"is_reserved":false,"is_disabled":false,"rental_uris":{"android":"levelo://app?vid=d7db12ce-11cc-4c98-8751-ac59baa5d7aa","ios":"levelo://app?vid=d7db12ce-11cc-4c98-8751-ac59baa5d7aa"},"vehicle_type_id":"4","last_reported":1762895388,"current_range_meters":0,"station_id":"","pricing_plan_id":"cebpf4jnsgd1na2vs0mg"},{"bike_id":"1b267de1-bcca-40ed-87d1-2e39c381830d","system_id":"levelo_inurba_marseille","lat":43.225342,"lon":5.348387,"is_reserved":false,"is_disabled":false,"rental_uris":{"android":"levelo://app?vid=1b267de1-bcca-40ed-87d1-2e39c381830d","ios":"levelo://app?vid=1b267de1-bcca-40ed-87d1-2e39c381830d"},"vehicle_type_id":"4","last_reported":1762895388,"current_range_meters":3200,"station_id":"","pricing_plan_id":"cebpf4jnsgd1na2vs0mg"},{"bike_id":"653cd1b2-09fb-446a-b9a7-1badbc538d8c","system_id":"levelo_inurba_marseille","lat":43.237849,"lon":5.366305,"is_reserved":false,"is_disabled":false,"rental_uris":{"android":"levelo://app?vid=653cd1b2-09fb-446a-b9a7-1badbc538d8c","ios":"levelo://app?vid=653cd1b2-09fb-446a-b9a7-1badbc538d8c"},"vehicle_type_id":"4","last_reported":1762895388,"current_range_meters":3200,"station_id":"st_d3nk18o9ro0c73en2l3g","pricing_plan_id":"cebpf4jnsgd1na2vs0mg"},{"bike_id":"b862ac0d-5687-48a4-9779-9d4d0c5eb49e","system_id":"levelo_inurba_marseille","lat":43.28486,"lon":5.38416,"is_reserved":false,"is_disabled":false,"rental_uris":{"android":"levelo://app?vid=b862ac0d-5687-48a4-9779-9d4d0c5eb49e","ios":"levelo://app?vid=b862ac0d-5687-48a4-9779-9d4d0c5eb49e"},"vehicle_type_id":"4","last_reported":1762895388,"current_range_meters":3600,"station_id":"ce4bh512rcd13ifvqe3g","pricing_plan_id":"cebpf4jnsgd1na2vs0mg"},{"bike_id":"d91f7b77-628b-406f-9c6d-db5e5cfcadca","system_id":"levelo_inurba_marseille","lat":43.28482,"lon":5.48392,"is_reserved":false,"is_disabled":false,"rental_uris":{"android":"levelo://app?vid=d91f7b77-628b-406f-9c6d-db5e5cfcadca","ios":"levelo://app?vid=d91f7b77-628b-406f-9c6d-db5e5cfcadca"},"vehicle_type_id":"4","last_reported":1762895388,"current_range_meters":4000,"station_id":"st_d3svhcjqgbts73a3dn0g","pricing_plan_id":"cebpf4jnsgd1na2vs0mg"},{"bike_id":"184239b1-01dd-4bfd-9925-3fe462e1448f","system_id":"levelo_inurba_marseille","lat":43.29629,"lon":5.40595,"is_reserved":false,"is_disabled":false,"rental_uris":{"android":"levelo://app?vid=184239b1-01dd-4bfd-9925-3fe462e1448f","ios":"levelo://app?vid=184239b1-01dd-4bfd-9925-3fe462e1448f"},"vehicle_type_id":"4","last_reported":1762895388,"current_range_meters":4000,"station_id":"ce4bh0h2rcd13ifvqd60","pricing_plan_id":"cebpf4jnsgd1na2vs0mg"},{"bike_id":"ae669d9f-32d8-4c47-a9e8-99f21d5a9afe","system_id":"levelo_inurba_marseille","lat":43.29435,"lon":5.39753,"is_reserved":false,"is_disabled":false,"rental_uris":{"android":"levelo://app?vid=ae669d9f-32d8-4c47-a9e8-99f21d5a9afe","ios":"levelo://app?vid=ae669d9f-32d8-4c47-a9e8-99f21d5a9afe"},"vehicle_type_id":"4","last_reported":1762895388,"current_range_meters":4400,"station_id":"ce4bh3h2rcd13ifvqdo0","pricing_plan_id":"cebpf4jnsgd1na2vs0mg"},{"bike_id":"56252eb9-8e9f-40dd-80e3-62657c8ad531","system_id":"levelo_inurba_marseille","lat":43.288524,"lon":5.393242,"is_reserved":false,"is_disabled":false,"rental_uris":{"android":"levelo://app?vid=56252eb9-8e9f-40dd-80e3-62657c8ad531","ios":"levelo://app?vid=56252eb9-8e9f-40dd-80e3-62657c8ad531"},"vehicle_type_id":"4","last_reported":1762895388,"current_range_meters":4400,"station_id":"","pricing_plan_id":"cebpf4jnsgd1na2vs0mg"},{"bike_id":"18ddb359-6d3a-42e0-ae1e-5cd244df844d","system_id":"levelo_inurba_marseille","lat":43.29899,"lon":5.3758,"is_reserved":false,"is_disabled":false,"rental_uris":{"android":"levelo://app?vid=18ddb359-6d3a-42e0-ae1e-5cd244df844d","ios":"levelo://app?vid=18ddb359-6d3a-42e0-ae1e-5cd244df844d"},"vehicle_type_id":"4","last_reported":1762895388,"current_range_meters":4800,"station_id":"","pricing_plan_id":"cebpf4jnsgd1na2vs0mg"},{"bike_id":"355d0a72-63a4-43ac-addc-15604eb0aa69","system_id":"levelo_inurba_marseille","lat":43.2993,"lon":5.36382,"is_reserved":false,"is_disabled":false,"rental_uris":{"android":"levelo://app?vid=355d0a72-63a4-43ac-addc-15604eb0aa69","ios":"levelo://app?vid=355d0a72-63a4-43ac-addc-15604eb0aa69"},"vehicle_type_id":"4","last_reported":1762895388,"current_range_meters":4800,"station_id":"","pricing_plan_id":"cebpf4jnsgd1na2vs0mg"},{"bike_id":"285edc02-c40d-4315-906b-2d38b29ac259","system_id":"levelo_inurba_marseille","lat":43.33772,"lon":5.37464,"is_reserved":false,"is_disabled":false,"rental_uris":{"android":"levelo://app?vid=285edc02-c40d-4315-906b-2d38b29ac259","ios":"levelo://app?vid=285edc02-c40d-4315-906b-2d38b29ac259"},"vehicle_type_id":"4","last_reported":1762895388,"current_range_meters":6000,"station_id":"","pricing_plan_id":"cebpf4jnsgd1na2vs0mg"},{"bike_id":"477562a0-78b9-41f9-b755-044b0307dbff","system_id":"levelo_inurba_marseille","lat":43.29799,"lon":5.40399,"is_reserved":false,"is_disabled":false,"rental_uris":{"android":"levelo://app?vid=477562a0-78b9-41f9-b755-044b0307dbff","ios":"levelo://app?vid=477562a0-78b9-41f9-b755-044b0307dbff"},"vehicle_type_id":"4","last_reported":1762895388,"current_range_meters":6000,"station_id":"ce4bh112rcd13ifvqd90","pricing_plan_id":"cebpf4jnsgd1na2vs0mg"},{"bike_id":"b74e28c0-42f9-4e73-84b2-a4b897682c6e","system_id":"levelo_inurba_marseille","lat":43.28376,"lon":5.3878,"is_reserved":false,"is_disabled":false,"rental_uris":{"android":"levelo://app?vid=b74e28c0-42f9-4e73-84b2-a4b897682c6e","ios":"levelo://app?vid=b74e28c0-42f9-4e73-84b2-a4b897682c6e"},"vehicle_type_id":"4","last_reported":1762895388,"current_range_meters":6000,"station_id":"","pricing_plan_id":"cebpf4jnsgd1na2vs0mg"},{"bike_id":"a153bb7a-facf-4d89-8fb0-01e6272ba505","system_id":"levelo_inurba_marseille","lat":43.26978,"lon":5.3881,"is_reserved":false,"is_disabled":false,"rental_uris":{"android":"levelo://app?vid=a153bb7a-facf-4d89-8fb0-01e6272ba505","ios":"levelo://app?vid=a153bb7a-facf-4d89-8fb0-01e6272ba505"},"vehicle_type_id":"4","last_reported":1762895388,"current_range_meters":6000,"station_id":"","pricing_plan_id":"cebpf4jnsgd1na2vs0mg"},{"bike_id":"4194148e-e45c-4a24-be37-7d0769204487","system_id":"levelo_inurba_marseille","lat":43.301654,"lon":5.373785,"is_reserved":false,"is_disabled":false,"rental_uris":{"android":"levelo://app?vid=4194148e-e45c-4a24-be37-7d0769204487","ios":"levelo://app?vid=4194148e-e45c-4a24-be37-7d0769204487"},"vehicle_type_id":"4","last_reported":1762895388,"current_range_meters":6400,"station_id":"ce4bgs92rcd13ifvqcc0","pricing_plan_id":"cebpf4jnsgd1na2vs0mg"},{"bike_id":"9a7c2dc7-2180-4633-bc7e-23c0c093b3c2","system_id":"levelo_inurba_marseille","lat":43.33026,"lon":5.3903,"is_reserved":false,"is_disabled":false,"rental_uris":{"android":"levelo://app?vid=9a7c2dc7-2180-4633-bc7e-23c0c093b3c2","ios":"levelo://app?vid=9a7c2dc7-2180-4633-bc7e-23c0c093b3c2"},"vehicle_type_id":"4","last_reported":1762895388,"current_range_meters":6400,"station_id":"ce4bhr92rcd13ifvqhrg","pricing_plan_id":"cebpf4jnsgd1na2vs0mg"},{"bike_id":"ae8df7c2-dced-4c87-8be6-83ffc212bba9","system_id":"levelo_inurba_marseille","lat":43.282608,"lon":5.350607,"is_reserved":false,"is_disabled":true,"rental_uris":{"android":"levelo://app?vid=ae8df7c2-dced-4c87-8be6-83ffc212bba9","ios":"levelo://app?vid=ae8df7c2-dced-4c87-8be6-83ffc212bba9"},"vehicle_type_id":"4","last_reported":1762895388,"current_range_meters":6400,"station_id":"ce4bhbp2rcd13ifvqerg","pricing_plan_id":"cebpf4jnsgd1na2vs0mg"},{"bike_id":"41aeabc1-9035-4e06-a213-c274eace9205","system_id":"levelo_inurba_marseille","lat":43.28873,"lon":5.42527,"is_reserved":false,"is_disabled":false,"rental_uris":{"android":"levelo://app?vid=41aeabc1-9035-4e06-a213-c274eace9205","ios":"levelo://app?vid=41aeabc1-9035-4e06-a213-c274eace9205"},"vehicle_type_id":"4","last_reported":1762895388,"current_range_meters":6400,"station_id":"st_d3b462108ojc7389ooeg","pricing_plan_id":"cebpf4jnsgd1na2vs0mg"},{"bike_id":"1e76820b-593d-43f6-8430-a20304a3aad9","system_id":"levelo_inurba_marseille","lat":43.28932,"lon":5.36628,"is_reserved":false,"is_disabled":false,"rental_uris":{"android":"levelo://app?vid=1e76820b-593d-43f6-8430-a20304a3aad9","ios":"levelo://app?vid=1e76820b-593d-43f6-8430-a20304a3aad9"},"vehicle_type_id":"4","last_reported":1762895388,"current_range_meters":6400,"station_id":"ce4bhap2rcd13ifvqek0","pricing_plan_id":"cebpf4jnsgd1na2vs0mg"},{"bike_id":"99f555dd-b87a-4899-bc4d-afec626c1e28","system_id":"levelo_inurba_marseille","lat":43.28476,"lon":5.48402,"is_reserved":false,"is_disabled":false,"rental_uris":{"android":"levelo://app?vid=99f555dd-b87a-4899-bc4d-afec626c1e28","ios":"levelo://app?vid=99f555dd-b87a-4899-bc4d-afec626c1e28"},"vehicle_type_id":"4","last_reported":1762895388,"current_range_meters":6400,"station_id":"","pricing_plan_id":"cebpf4jnsgd1na2vs0mg"},{"bike_id":"272ec4df-f760-4b78-b278-d4935816cd67","system_id":"levelo_inurba_marseille","lat":43.23786,"lon":5.36616,"is_reserved":false,"is_disabled":false,"rental_uris":{"android":"levelo://app?vid=272ec4df-f760-4b78-b278-d4935816cd67","ios":"levelo://app?vid=272ec4df-f760-4b78-b278-d4935816cd67"},"vehicle_type_id":"4","last_reported":1762895388,"current_range_meters":6400,"station_id":"st_d3nk18o9ro0c73en2l3g","pricing_plan_id":"cebpf4jnsgd1na2vs0mg"},{"bike_id":"61ac2166-8eab-4037-8edc-88a39df7891a","system_id":"levelo_inurba_marseille","lat":43.28477,"lon":5.38422,"is_reserved":false,"is_disabled":false,"rental_uris":{"android":"levelo://app?vid=61ac2166-8eab-4037-8edc-88a39df7891a","ios":"levelo://app?vid=61ac2166-8eab-4037-8edc-88a39df7891a"},"vehicle_type_id":"4","last_reported":1762895388,"current_range_meters":6800,"station_id":"ce4bh512rcd13ifvqe3g","pricing_plan_id":"cebpf4jnsgd1na2vs0mg"},{"bike_id":"4e29f98b-075b-4451-a342-4b8bfe111ae3","system_id":"levelo_inurba_marseille","lat":43.29228,"lon":5.36074,"is_reserved":false,"is_disabled":false,"rental_uris":{"android":"levelo://app?vid=4e29f98b-075b-4451-a342-4b8bfe111ae3","ios":"levelo://app?vid=4e29f98b-075b-4451-a342-4b8bfe111ae3"},"vehicle_type_id":"4","last_reported":1762895388,"current_range_meters":6800,"station_id":"ce4bhbh2rcd13ifvqeqg","pricing_plan_id":"cebpf4jnsgd1na2vs0mg"},{"bike_id":"9ade1fe7-d83f-4045-9bd3-74892e77626e","system_id":"levelo_inurba_marseille","lat":43.24092,"lon":5.37731,"is_reserved":false,"is_disabled":true,"rental_uris":{"android":"levelo://app?vid=9ade1fe7-d83f-4045-9bd3-74892e77626e","ios":"levelo://app?vid=9ade1fe7-d83f-4045-9bd3-74892e77626e"},"vehicle_type_id":"4","last_reported":1762895388,"current_range_meters":6800,"station_id":"ce4bhnp2rcd13ifvqgvg","pricing_plan_id":"cebpf4jnsgd1na2vs0mg"},{"bike_id":"d315980f-e55c-4a2b-8743-e45ce3622e8d","system_id":"levelo_inurba_marseille","lat":43.28474,"lon":5.48394,"is_reserved":false,"is_disabled":false,"rental_uris":{"android":"levelo://app?vid=d315980f-e55c-4a2b-8743-e45ce3622e8d","ios":"levelo://app?vid=d315980f-e55c-4a2b-8743-e45ce3622e8d"},"vehicle_type_id":"4","last_reported":1762895388,"current_range_meters":6800,"station_id":"","pricing_plan_id":"cebpf4jnsgd1na2vs0mg"},{"bike_id":"b2be4fa2-44ee-40dc-acc7-1755c74f1c5d","system_id":"levelo_inurba_marseille","lat":43.29749,"lon":5.41101,"is_reserved":false,"is_disabled":false,"rental_uris":{"android":"levelo://app?vid=b2be4fa2-44ee-40dc-acc7-1755c74f1c5d","ios":"levelo://app?vid=b2be4fa2-44ee-40dc-acc7-1755c74f1c5d"},"vehicle_type_id":"4","last_reported":1762895388,"current_range_meters":6800,"station_id":"","pricing_plan_id":"cebpf4jnsgd1na2vs0mg"},{"bike_id":"a8b59da6-3f08-4943-ba0d-ba12842ac9ed","system_id":"levelo_inurba_marseille","lat":43.295501,"lon":5.423021,"is_reserved":false,"is_disabled":false,"rental_uris":{"android":"levelo://app?vid=a8b59da6-3f08-4943-ba0d-ba12842ac9ed","ios":"levelo://app?vid=a8b59da6-3f08-4943-ba0d-ba12842ac9ed"},"vehicle_type_id":"4","last_reported":1762895388,"current_range_meters":6800,"station_id":"ce4bho92rcd13ifvqh3g","pricing_plan_id":"cebpf4jnsgd1na2vs0mg"},{"bike_id":"349b2ad9-adea-4dd9-9ac9-fffb121b5424","system_id":"levelo_inurba_marseille","lat":43.29892,"lon":5.37537,"is_reserved":false,"is_disabled":false,"rental_uris":{"android":"levelo://app?vid=349b2ad9-adea-4dd9-9ac9-fffb121b5424","ios":"levelo://app?vid=349b2ad9-adea-4dd9-9ac9-fffb121b5424"},"vehicle_type_id":"4","last_reported":1762895388,"current_range_meters":7200,"station_id":"","pricing_plan_id":"cebpf4jnsgd1na2vs0mg"},{"bike_id":"30efddd0-6453-4796-81a6-738ca9aad512","system_id":"levelo_inurba_marseille","lat":43.31055,"lon":5.38695,"is_reserved":false,"is_disabled":true,"rental_uris":{"android":"levelo://app?vid=30efddd0-6453-4796-81a6-738ca9aad512","ios":"levelo://app?vid=30efddd0-6453-4796-81a6-738ca9aad512"},"vehicle_type_id":"4","last_reported":1762895388,"current_range_meters":7200,"station_id":"ce4bgv12rcd13ifvqcp0","pricing_plan_id":"cebpf4jnsgd1na2vs0mg"},{"bike_id":"c620c9fc-398f-4dca-8fdd-2b652311235d","system_id":"levelo_inurba_marseille","lat":43.211906,"lon":5.350706,"is_reserved":false,"is_disabled":true,"rental_uris":{"android":"levelo://app?vid=c620c9fc-398f-4dca-8fdd-2b652311235d","ios":"levelo://app?vid=c620c9fc-398f-4dca-8fdd-2b652311235d"},"vehicle_type_id":"4","last_reported":1762895388,"current_range_meters":7200,"station_id":"st_cvj6sg6p6f1abm77japg","pricing_plan_id":"cebpf4jnsgd1na2vs0mg"},{"bike_id":"1316d07b-eadd-4696-8874-2ae418407f54","system_id":"levelo_inurba_marseille","lat":43.24947,"lon":5.40486,"is_reserved":false,"is_disabled":false,"rental_uris":{"android":"levelo://app?vid=1316d07b-eadd-4696-8874-2ae418407f54","ios":"levelo://app?vid=1316d07b-eadd-4696-8874-2ae418407f54"},"vehicle_type_id":"4","last_reported":1762895388,"current_range_meters":7200,"station_id":"st_d2ngiaodas8pm72gd1h0","pricing_plan_id":"cebpf4jnsgd1na2vs0mg"},{"bike_id":"1648104b-81bc-4751-ace2-e97e844cd43d","system_id":"levelo_inurba_marseille","lat":43.28482,"lon":5.48389,"is_reserved":false,"is_disabled":false,"rental_uris":{"android":"levelo://app?vid=1648104b-81bc-4751-ace2-e97e844cd43d","ios":"levelo://app?vid=1648104b-81bc-4751-ace2-e97e844cd43d"},"vehicle_type_id":"4","last_reported":1762895388,"current_range_meters":7200,"station_id":"","pricing_plan_id":"cebpf4jnsgd1na2vs0mg"},{"bike_id":"536cfea4-1af6-4127-8811-f4fa8c84e97a","system_id":"levelo_inurba_marseille","lat":43.30802,"lon":5.38158,"is_reserved":false,"is_disabled":false,"rental_uris":{"android":"levelo://app?vid=536cfea4-1af6-4127-8811-f4fa8c84e97a","ios":"levelo://app?vid=536cfea4-1af6-4127-8811-f4fa8c84e97a"},"vehicle_type_id":"4","last_reported":1762895388,"current_range_meters":8000,"station_id":"ce4bgt12rcd13ifvqce0","pricing_plan_id":"cebpf4jnsgd1na2vs0mg"},{"bike_id":"b41e24d8-65c5-426b-bb45-4cabc1a8ec44","system_id":"levelo_inurba_marseille","lat":43.2958,"lon":5.37699,"is_reserved":false,"is_disabled":true,"rental_uris":{"android":"levelo://app?vid=b41e24d8-65c5-426b-bb45-4cabc1a8ec44","ios":"levelo://app?vid=b41e24d8-65c5-426b-bb45-4cabc1a8ec44"},"vehicle_type_id":"4","last_reported":1762895388,"current_range_meters":8000,"station_id":"","pricing_plan_id":"cebpf4jnsgd1na2vs0mg"},{"bike_id":"3771e837-9d8d-46f0-9fb2-f42c2abd1843","system_id":"levelo_inurba_marseille","lat":43.30127,"lon":5.39863,"is_reserved":false,"is_disabled":false,"rental_uris":{"android":"levelo://app?vid=3771e837-9d8d-46f0-9fb2-f42c2abd1843","ios":"levelo://app?vid=3771e837-9d8d-46f0-9fb2-f42c2abd1843"},"vehicle_type_id":"4","last_reported":1762895388,"current_range_meters":8000,"station_id":"ce4bh0h2rcd13ifvqd40","pricing_plan_id":"cebpf4jnsgd1na2vs0mg"},{"bike_id":"37515d30-ce80-46d6-b20d-7c741c29b1a7","system_id":"levelo_inurba_marseille","lat":43.29439,"lon":5.39746,"is_reserved":false,"is_disabled":false,"rental_uris":{"android":"levelo://app?vid=37515d30-ce80-46d6-b20d-7c741c29b1a7","ios":"levelo://app?vid=37515d30-ce80-46d6-b20d-7c741c29b1a7"},"vehicle_type_id":"4","last_reported":1762895388,"current_range_meters":8000,"station_id":"ce4bh3h2rcd13ifvqdo0","pricing_plan_id":"cebpf4jnsgd1na2vs0mg"},{"bike_id":"1e23153f-aa7c-4061-91a3-0a8e5d6008da","system_id":"levelo_inurba_marseille","lat":43.30893,"lon":5.37182,"is_reserved":false,"is_disabled":false,"rental_uris":{"android":"levelo://app?vid=1e23153f-aa7c-4061-91a3-0a8e5d6008da","ios":"levelo://app?vid=1e23153f-aa7c-4061-91a3-0a8e5d6008da"},"vehicle_type_id":"4","last_reported":1762895388,"current_range_meters":8400,"station_id":"ce4bguh2rcd13ifvqckg","pricing_plan_id":"cebpf4jnsgd1na2vs0mg"},{"bike_id":"3d10f454-c8d1-4f75-8368-8aa2c2fea651","system_id":"levelo_inurba_marseille","lat":43.24385,"lon":5.37075,"is_reserved":false,"is_disabled":false,"rental_uris":{"android":"levelo://app?vid=3d10f454-c8d1-4f75-8368-8aa2c2fea651","ios":"levelo://app?vid=3d10f454-c8d1-4f75-8368-8aa2c2fea651"},"vehicle_type_id":"4","last_reported":1762895388,"current_range_meters":8400,"station_id":"ce4bhhh2rcd13ifvqfk0","pricing_plan_id":"cebpf4jnsgd1na2vs0mg"},{"bike_id":"6b7b8014-e62e-43f3-93cc-a99b3f08b39a","system_id":"levelo_inurba_marseille","lat":43.28493,"lon":5.38571,"is_reserved":false,"is_disabled":false,"rental_uris":{"android":"levelo://app?vid=6b7b8014-e62e-43f3-93cc-a99b3f08b39a","ios":"levelo://app?vid=6b7b8014-e62e-43f3-93cc-a99b3f08b39a"},"vehicle_type_id":"4","last_reported":1762895388,"current_range_meters":8400,"station_id":"ce4bh8p2rcd13ifvqeb0","pricing_plan_id":"cebpf4jnsgd1na2vs0mg"},{"bike_id":"6aa07b68-711b-419b-97fb-4f0267b95509","system_id":"levelo_inurba_marseille","lat":43.29012,"lon":5.38664,"is_reserved":false,"is_disabled":true,"rental_uris":{"android":"levelo://app?vid=6aa07b68-711b-419b-97fb-4f0267b95509","ios":"levelo://app?vid=6aa07b68-711b-419b-97fb-4f0267b95509"},"vehicle_type_id":"4","last_reported":1762895388,"current_range_meters":8400,"station_id":"ce4bh4p2rcd13ifvqe0g","pricing_plan_id":"cebpf4jnsgd1na2vs0mg"},{"bike_id":"651a486f-4b3c-4c35-8939-cd992be3a6f8","system_id":"levelo_inurba_marseille","lat":43.29004,"lon":5.35607,"is_reserved":false,"is_disabled":false,"rental_uris":{"android":"levelo://app?vid=651a486f-4b3c-4c35-8939-cd992be3a6f8","ios":"levelo://app?vid=651a486f-4b3c-4c35-8939-cd992be3a6f8"},"vehicle_type_id":"4","last_reported":1762895388,"current_range_meters":8400,"station_id":"ce4bhb92rcd13ifvqen0","pricing_plan_id":"cebpf4jnsgd1na2vs0mg"},{"bike_id":"df3cfee6-7493-4255-9f42-39c00be42c13","system_id":"levelo_inurba_marseille","lat":43.29563,"lon":5.36754,"is_reserved":false,"is_disabled":false,"rental_uris":{"android":"levelo://app?vid=df3cfee6-7493-4255-9f42-39c00be42c13","ios":"levelo://app?vid=df3cfee6-7493-4255-9f42-39c00be42c13"},"vehicle_type_id":"4","last_reported":1762895388,"current_range_meters":8400,"station_id":"ce4bgph2rcd13ifvqc2g","pricing_plan_id":"cebpf4jnsgd1na2vs0mg"},{"bike_id":"e9096c85-7648-4fa6-80d3-640340cb2c13","system_id":"levelo_inurba_marseille","lat":43.2823,"lon":5.39071,"is_reserved":false,"is_disabled":false,"rental_uris":{"android":"levelo://app?vid=e9096c85-7648-4fa6-80d3-640340cb2c13","ios":"levelo://app?vid=e9096c85-7648-4fa6-80d3-640340cb2c13"},"vehicle_type_id":"4","last_reported":1762895388,"current_range_meters":8400,"station_id":"ce4bhn92rcd13ifvqgsg","pricing_plan_id":"cebpf4jnsgd1na2vs0mg"},{"bike_id":"e0467342-2ee8-4c36-aeb9-27d25d94ead5","system_id":"levelo_inurba_marseille","lat":43.28146,"lon":5.42628,"is_reserved":false,"is_disabled":true,"rental_uris":{"android":"levelo://app?vid=e0467342-2ee8-4c36-aeb9-27d25d94ead5","ios":"levelo://app?vid=e0467342-2ee8-4c36-aeb9-27d25d94ead5"},"vehicle_type_id":"4","last_reported":1762895388,"current_range_meters":8400,"station_id":"ce4bhnh2rcd13ifvqgug","pricing_plan_id":"cebpf4jnsgd1na2vs0mg"},{"bike_id":"d14a3070-960e-421d-b5dc-419b8cc88005","system_id":"levelo_inurba_marseille","lat":43.31595,"lon":5.37646,"is_reserved":false,"is_disabled":false,"rental_uris":{"android":"levelo://app?vid=d14a3070-960e-421d-b5dc-419b8cc88005","ios":"levelo://app?vid=d14a3070-960e-421d-b5dc-419b8cc88005"},"vehicle_type_id":"4","last_reported":1762895388,"current_range_meters":8400,"station_id":"","pricing_plan_id":"cebpf4jnsgd1na2vs0mg"},{"bike_id":"e45501cc-3d1e-46df-a086-3efed18eb993","system_id":"levelo_inurba_marseille","lat":43.282337,"lon":5.365123,"is_reserved":false,"is_disabled":false,"rental_uris":{"android":"levelo://app?vid=e45501cc-3d1e-46df-a086-3efed18eb993","ios":"levelo://app?vid=e45501cc-3d1e-46df-a086-3efed18eb993"},"vehicle_type_id":"4","last_reported":1762895388,"current_range_meters":8800,"station_id":"","pricing_plan_id":"cebpf4jnsgd1na2vs0mg"},{"bike_id":"4b75f4f1-28cd-4ac7-9b5c-b069daf52b29","system_id":"levelo_inurba_marseille","lat":43.3185,"lon":5.37386,"is_reserved":false,"is_disabled":true,"rental_uris":{"android":"levelo://app?vid=4b75f4f1-28cd-4ac7-9b5c-b069daf52b29","ios":"levelo://app?vid=4b75f4f1-28cd-4ac7-9b5c-b069daf52b29"},"vehicle_type_id":"4","last_reported":1762895388,"current_range_meters":9200,"station_id":"","pricing_plan_id":"cebpf4jnsgd1na2vs0mg"},{"bike_id":"16b7cbee-1611-4dba-8d48-d0b10fc81867","system_id":"levelo_inurba_marseille","lat":43.28152,"lon":5.42638,"is_reserved":false,"is_disabled":false,"rental_uris":{"android":"levelo://app?vid=16b7cbee-1611-4dba-8d48-d0b10fc81867","ios":"levelo://app?vid=16b7cbee-1611-4dba-8d48-d0b10fc81867"},"vehicle_type_id":"4","last_reported":1762895388,"current_range_meters":9200,"station_id":"ce4bhnh2rcd13ifvqgug","pricing_plan_id":"cebpf4jnsgd1na2vs0mg"},{"bike_id":"520598b3-96c3-46e0-842d-f88d56b5e32a","system_id":"levelo_inurba_marseille","lat":43.27222,"lon":5.392,"is_reserved":false,"is_disabled":true,"rental_uris":{"android":"levelo://app?vid=520598b3-96c3-46e0-842d-f88d56b5e32a","ios":"levelo://app?vid=520598b3-96c3-46e0-842d-f88d56b5e32a"},"vehicle_type_id":"4","last_reported":1762895388,"current_range_meters":9600,"station_id":"ce4bhhp2rcd13ifvqfm0","pricing_plan_id":"cebpf4jnsgd1na2vs0mg"},{"bike_id":"38060efd-ed0d-4fc8-a558-2a407ef2a801","system_id":"levelo_inurba_marseille","lat":43.31717,"lon":5.43704,"is_reserved":false,"is_disabled":false,"rental_uris":{"android":"levelo://app?vid=38060efd-ed0d-4fc8-a558-2a407ef2a801","ios":"levelo://app?vid=38060efd-ed0d-4fc8-a558-2a407ef2a801"},"vehicle_type_id":"4","last_reported":1762895388,"current_range_meters":9600,"station_id":"ce4bhp92rcd13ifvqhcg","pricing_plan_id":"cebpf4jnsgd1na2vs0mg"},{"bike_id":"0ea66b8e-ee71-4dee-9a44-0fe9f1baf397","system_id":"levelo_inurba_marseille","lat":43.30509,"lon":5.401,"is_reserved":false,"is_disabled":false,"rental_uris":{"android":"levelo://app?vid=0ea66b8e-ee71-4dee-9a44-0fe9f1baf397","ios":"levelo://app?vid=0ea66b8e-ee71-4dee-9a44-0fe9f1baf397"},"vehicle_type_id":"4","last_reported":1762895388,"current_range_meters":9600,"station_id":"","pricing_plan_id":"cebpf4jnsgd1na2vs0mg"},{"bike_id":"4585539a-ba80-465b-83a6-4a31cabac938","system_id":"levelo_inurba_marseille","lat":43.284698,"lon":5.483897,"is_reserved":false,"is_disabled":false,"rental_uris":{"android":"levelo://app?vid=4585539a-ba80-465b-83a6-4a31cabac938","ios":"levelo://app?vid=4585539a-ba80-465b-83a6-4a31cabac938"},"vehicle_type_id":"4","last_reported":1762895388,"current_range_meters":9600,"station_id":"st_d3svhcjqgbts73a3dn0g","pricing_plan_id":"cebpf4jnsgd1na2vs0mg"},{"bike_id":"8673fcf8-df1e-43f0-b24f-4785c3fa24ee","system_id":"levelo_inurba_marseille","lat":43.32111,"lon":5.36765,"is_reserved":false,"is_disabled":false,"rental_uris":{"android":"levelo://app?vid=8673fcf8-df1e-43f0-b24f-4785c3fa24ee","ios":"levelo://app?vid=8673fcf8-df1e-43f0-b24f-4785c3fa24ee"},"vehicle_type_id":"4","last_reported":1762895388,"current_range_meters":9600,"station_id":"ce4bhrh2rcd13ifvqhug","pricing_plan_id":"cebpf4jnsgd1na2vs0mg"},{"bike_id":"29e2584a-230c-452d-979b-14506e060750","system_id":"levelo_inurba_marseille","lat":43.28729,"lon":5.36077,"is_reserved":false,"is_disabled":false,"rental_uris":{"android":"levelo://app?vid=29e2584a-230c-452d-979b-14506e060750","ios":"levelo://app?vid=29e2584a-230c-452d-979b-14506e060750"},"vehicle_type_id":"4","last_reported":1762895388,"current_range_meters":10000,"station_id":"cki0cbj6b192h4jlfktg","pricing_plan_id":"cebpf4jnsgd1na2vs0mg"},{"bike_id":"38c922e6-37cd-47dc-af88-f07475112c2a","system_id":"levelo_inurba_marseille","lat":43.32132,"lon":5.38834,"is_reserved":false,"is_disabled":false,"rental_uris":{"android":"levelo://app?vid=38c922e6-37cd-47dc-af88-f07475112c2a","ios":"levelo://app?vid=38c922e6-37cd-47dc-af88-f07475112c2a"},"vehicle_type_id":"4","last_reported":1762895388,"current_range_meters":10000,"station_id":"","pricing_plan_id":"cebpf4jnsgd1na2vs0mg"},{"bike_id":"62a14efb-5f7a-4e0d-bbfa-d4a60d07f475","system_id":"levelo_inurba_marseille","lat":43.297392,"lon":5.373031,"is_reserved":false,"is_disabled":false,"rental_uris":{"android":"levelo://app?vid=62a14efb-5f7a-4e0d-bbfa-d4a60d07f475","ios":"levelo://app?vid=62a14efb-5f7a-4e0d-bbfa-d4a60d07f475"},"vehicle_type_id":"4","last_reported":1762895388,"current_range_meters":10000,"station_id":"","pricing_plan_id":"cebpf4jnsgd1na2vs0mg"},{"bike_id":"36391dde-703b-4d08-a77e-59ae2408da11","system_id":"levelo_inurba_marseille","lat":43.29603,"lon":5.38108,"is_reserved":false,"is_disabled":false,"rental_uris":{"android":"levelo://app?vid=36391dde-703b-4d08-a77e-59ae2408da11","ios":"levelo://app?vid=36391dde-703b-4d08-a77e-59ae2408da11"},"vehicle_type_id":"4","last_reported":1762895388,"current_range_meters":10000,"station_id":"ce4bgl12rcd13ifvqbo0","pricing_plan_id":"cebpf4jnsgd1na2vs0mg"},{"bike_id":"dc6753bb-8787-4755-aacc-d26daee24a0d","system_id":"levelo_inurba_marseille","lat":43.28869,"lon":5.35862,"is_reserved":false,"is_disabled":false,"rental_uris":{"android":"levelo://app?vid=dc6753bb-8787-4755-aacc-d26daee24a0d","ios":"levelo://app?vid=dc6753bb-8787-4755-aacc-d26daee24a0d"},"vehicle_type_id":"4","last_reported":1762895388,"current_range_meters":10000,"station_id":"ce4bhb12rcd13ifvqem0","pricing_plan_id":"cebpf4jnsgd1na2vs0mg"},{"bike_id":"cfdb3f05-27fa-4622-9e1b-9a2e69838b7b","system_id":"levelo_inurba_marseille","lat":43.2992,"lon":5.385972,"is_reserved":false,"is_disabled":false,"rental_uris":{"android":"levelo://app?vid=cfdb3f05-27fa-4622-9e1b-9a2e69838b7b","ios":"levelo://app?vid=cfdb3f05-27fa-4622-9e1b-9a2e69838b7b"},"vehicle_type_id":"4","last_reported":1762895388,"current_range_meters":10000,"station_id":"ce4bgvh2rcd13ifvqcs0","pricing_plan_id":"cebpf4jnsgd1na2vs0mg"},{"bike_id":"4c85224a-42d3-42cf-b201-3ad5081d3a26","system_id":"levelo_inurba_marseille","lat":43.307953,"lon":5.381201,"is_reserved":false,"is_disabled":false,"rental_uris":{"android":"levelo://app?vid=4c85224a-42d3-42cf-b201-3ad5081d3a26","ios":"levelo://app?vid=4c85224a-42d3-42cf-b201-3ad5081d3a26"},"vehicle_type_id":"4","last_reported":1762895388,"current_range_meters":10000,"station_id":"ce4bgt12rcd13ifvqce0","pricing_plan_id":"cebpf4jnsgd1na2vs0mg"},{"bike_id":"f66fdcb4-acc8-4a90-88ec-9926db65e0d3","system_id":"levelo_inurba_marseille","lat":43.28039,"lon":5.369439,"is_reserved":false,"is_disabled":false,"rental_uris":{"android":"levelo://app?vid=f66fdcb4-acc8-4a90-88ec-9926db65e0d3","ios":"levelo://app?vid=f66fdcb4-acc8-4a90-88ec-9926db65e0d3"},"vehicle_type_id":"4","last_reported":1762895388,"current_range_meters":10000,"station_id":"ce4bha12rcd13ifvqef0","pricing_plan_id":"cebpf4jnsgd1na2vs0mg"},{"bike_id":"c6a7c47e-2218-47bc-98d0-1b9db17fc18d","system_id":"levelo_inurba_marseille","lat":43.2894,"lon":5.38409,"is_reserved":false,"is_disabled":false,"rental_uris":{"android":"levelo://app?vid=c6a7c47e-2218-47bc-98d0-1b9db17fc18d","ios":"levelo://app?vid=c6a7c47e-2218-47bc-98d0-1b9db17fc18d"},"vehicle_type_id":"4","last_reported":1762895388,"current_range_meters":10800,"station_id":"ce4bh612rcd13ifvqe6g","pricing_plan_id":"cebpf4jnsgd1na2vs0mg"},{"bike_id":"1b5be03e-768e-46f0-b152-16af9f81cff1","system_id":"levelo_inurba_marseille","lat":43.309322,"lon":5.401366,"is_reserved":false,"is_disabled":true,"rental_uris":{"android":"levelo://app?vid=1b5be03e-768e-46f0-b152-16af9f81cff1","ios":"levelo://app?vid=1b5be03e-768e-46f0-b152-16af9f81cff1"},"vehicle_type_id":"4","last_reported":1762895388,"current_range_meters":10800,"station_id":"","pricing_plan_id":"cebpf4jnsgd1na2vs0mg"},{"bike_id":"172a1479-a5a8-4a14-96d6-945fbc77b377","system_id":"levelo_inurba_marseille","lat":43.31989,"lon":5.38132,"is_reserved":false,"is_disabled":false,"rental_uris":{"android":"levelo://app?vid=172a1479-a5a8-4a14-96d6-945fbc77b377","ios":"levelo://app?vid=172a1479-a5a8-4a14-96d6-945fbc77b377"},"vehicle_type_id":"4","last_reported":1762895388,"current_range_meters":11200,"station_id":"ce4bhr12rcd13ifvqhpg","pricing_plan_id":"cebpf4jnsgd1na2vs0mg"},{"bike_id":"722f7e0f-46d9-4be9-997c-6a53c83a7527","system_id":"levelo_inurba_marseille","lat":43.28043,"lon":5.36951,"is_reserved":false,"is_disabled":true,"rental_uris":{"android":"levelo://app?vid=722f7e0f-46d9-4be9-997c-6a53c83a7527","ios":"levelo://app?vid=722f7e0f-46d9-4be9-997c-6a53c83a7527"},"vehicle_type_id":"4","last_reported":1762895388,"current_range_meters":11200,"station_id":"ce4bha12rcd13ifvqef0","pricing_plan_id":"cebpf4jnsgd1na2vs0mg"},{"bike_id":"4a8ea99f-b39a-401a-9c8e-0832b530973f","system_id":"levelo_inurba_marseille","lat":43.28417,"lon":5.37526,"is_reserved":false,"is_disabled":false,"rental_uris":{"android":"levelo://app?vid=4a8ea99f-b39a-401a-9c8e-0832b530973f","ios":"levelo://app?vid=4a8ea99f-b39a-401a-9c8e-0832b530973f"},"vehicle_type_id":"4","last_reported":1762895388,"current_range_meters":11200,"station_id":"ce4bh412rcd13ifvqds0","pricing_plan_id":"cebpf4jnsgd1na2vs0mg"},{"bike_id":"69bcc9c9-16ef-4b05-a281-a3669c844e4b","system_id":"levelo_inurba_marseille","lat":43.22531,"lon":5.34843,"is_reserved":false,"is_disabled":false,"rental_uris":{"android":"levelo://app?vid=69bcc9c9-16ef-4b05-a281-a3669c844e4b","ios":"levelo://app?vid=69bcc9c9-16ef-4b05-a281-a3669c844e4b"},"vehicle_type_id":"4","last_reported":1762895388,"current_range_meters":11600,"station_id":"","pricing_plan_id":"cebpf4jnsgd1na2vs0mg"},{"bike_id":"9170ba35-650b-4067-9108-ba178d838950","system_id":"levelo_inurba_marseille","lat":43.29279,"lon":5.36851,"is_reserved":false,"is_disabled":false,"rental_uris":{"android":"levelo://app?vid=9170ba35-650b-4067-9108-ba178d838950","ios":"levelo://app?vid=9170ba35-650b-4067-9108-ba178d838950"},"vehicle_type_id":"4","last_reported":1762895388,"current_range_meters":11600,"station_id":"ce4bhbp2rcd13ifvqesg","pricing_plan_id":"cebpf4jnsgd1na2vs0mg"},{"bike_id":"ac571466-1dc3-4aea-b277-4afec8514b82","system_id":"levelo_inurba_marseille","lat":43.27972,"lon":5.41009,"is_reserved":false,"is_disabled":false,"rental_uris":{"android":"levelo://app?vid=ac571466-1dc3-4aea-b277-4afec8514b82","ios":"levelo://app?vid=ac571466-1dc3-4aea-b277-4afec8514b82"},"vehicle_type_id":"4","last_reported":1762895388,"current_range_meters":11600,"station_id":"ce4bhnp2rcd13ifvqh0g","pricing_plan_id":"cebpf4jnsgd1na2vs0mg"},{"bike_id":"035e03df-e41b-4cf7-9eb1-51683218cb2e","system_id":"levelo_inurba_marseille","lat":43.29523,"lon":5.39399,"is_reserved":false,"is_disabled":false,"rental_uris":{"android":"levelo://app?vid=035e03df-e41b-4cf7-9eb1-51683218cb2e","ios":"levelo://app?vid=035e03df-e41b-4cf7-9eb1-51683218cb2e"},"vehicle_type_id":"4","last_reported":1762895388,"current_range_meters":11600,"station_id":"ce4bh292rcd13ifvqdf0","pricing_plan_id":"cebpf4jnsgd1na2vs0mg"},{"bike_id":"dc9399a6-68ac-4bce-a28c-89dbbb7d0681","system_id":"levelo_inurba_marseille","lat":43.28781,"lon":5.40819,"is_reserved":false,"is_disabled":true,"rental_uris":{"android":"levelo://app?vid=dc9399a6-68ac-4bce-a28c-89dbbb7d0681","ios":"levelo://app?vid=dc9399a6-68ac-4bce-a28c-89dbbb7d0681"},"vehicle_type_id":"4","last_reported":1762895388,"current_range_meters":11600,"station_id":"","pricing_plan_id":"cebpf4jnsgd1na2vs0mg"},{"bike_id":"0958b64e-fe9a-4a3a-b0a3-5768b1d0a4d1","system_id":"levelo_inurba_marseille","lat":43.2893,"lon":5.38392,"is_reserved":false,"is_disabled":false,"rental_uris":{"android":"levelo://app?vid=0958b64e-fe9a-4a3a-b0a3-5768b1d0a4d1","ios":"levelo://app?vid=0958b64e-fe9a-4a3a-b0a3-5768b1d0a4d1"},"vehicle_type_id":"4","last_reported":1762895388,"current_range_meters":11600,"station_id":"ce4bh612rcd13ifvqe6g","pricing_plan_id":"cebpf4jnsgd1na2vs0mg"},{"bike_id":"a1fde1f4-1860-4e49-88db-aacdf02b72c8","system_id":"levelo_inurba_marseille","lat":43.25113,"lon":5.40318,"is_reserved":false,"is_disabled":true,"rental_uris":{"android":"levelo://app?vid=a1fde1f4-1860-4e49-88db-aacdf02b72c8","ios":"levelo://app?vid=a1fde1f4-1860-4e49-88db-aacdf02b72c8"},"vehicle_type_id":"4","last_reported":1762895388,"current_range_meters":12000,"station_id":"ce4bhlh2rcd13ifvqgig","pricing_plan_id":"cebpf4jnsgd1na2vs0mg"},{"bike_id":"5a04390a-ad60-4fd6-bcf6-e75b8899a404","system_id":"levelo_inurba_marseille","lat":43.29029,"lon":5.39948,"is_reserved":false,"is_disabled":true,"rental_uris":{"android":"levelo://app?vid=5a04390a-ad60-4fd6-bcf6-e75b8899a404","ios":"levelo://app?vid=5a04390a-ad60-4fd6-bcf6-e75b8899a404"},"vehicle_type_id":"4","last_reported":1762895388,"current_range_meters":12000,"station_id":"ce4bh392rcd13ifvqdm0","pricing_plan_id":"cebpf4jnsgd1na2vs0mg"},{"bike_id":"b168279c-966e-4f97-8577-f8c06e3e1119","system_id":"levelo_inurba_marseille","lat":43.29262,"lon":5.38455,"is_reserved":false,"is_disabled":false,"rental_uris":{"android":"levelo://app?vid=b168279c-966e-4f97-8577-f8c06e3e1119","ios":"levelo://app?vid=b168279c-966e-4f97-8577-f8c06e3e1119"},"vehicle_type_id":"4","last_reported":1762895388,"current_range_meters":12400,"station_id":"ce4bh692rcd13ifvqea0","pricing_plan_id":"cebpf4jnsgd1na2vs0mg"},{"bike_id":"af85d454-33a4-4085-9874-54b416bbd81a","system_id":"levelo_inurba_marseille","lat":43.29869,"lon":5.39733,"is_reserved":false,"is_disabled":false,"rental_uris":{"android":"levelo://app?vid=af85d454-33a4-4085-9874-54b416bbd81a","ios":"levelo://app?vid=af85d454-33a4-4085-9874-54b416bbd81a"},"vehicle_type_id":"4","last_reported":1762895388,"current_range_meters":12400,"station_id":"ce4bh0h2rcd13ifvqd50","pricing_plan_id":"cebpf4jnsgd1na2vs0mg"},{"bike_id":"e625197c-7c08-4e0a-8444-f4b2d820cbf4","system_id":"levelo_inurba_marseille","lat":43.28348,"lon":5.38104,"is_reserved":false,"is_disabled":false,"rental_uris":{"android":"levelo://app?vid=e625197c-7c08-4e0a-8444-f4b2d820cbf4","ios":"levelo://app?vid=e625197c-7c08-4e0a-8444-f4b2d820cbf4"},"vehicle_type_id":"4","last_reported":1762895388,"current_range_meters":12400,"station_id":"ce4bh412rcd13ifvqdr0","pricing_plan_id":"cebpf4jnsgd1na2vs0mg"},{"bike_id":"e82ebaff-68f7-48b2-94d4-66206d67d323","system_id":"levelo_inurba_marseille","lat":43.26567,"lon":5.40326,"is_reserved":false,"is_disabled":false,"rental_uris":{"android":"levelo://app?vid=e82ebaff-68f7-48b2-94d4-66206d67d323","ios":"levelo://app?vid=e82ebaff-68f7-48b2-94d4-66206d67d323"},"vehicle_type_id":"4","last_reported":1762895388,"current_range_meters":12400,"station_id":"ce4bhmp2rcd13ifvqgng","pricing_plan_id":"cebpf4jnsgd1na2vs0mg"},{"bike_id":"a4fa6491-252e-4621-9e69-e4232817646e","system_id":"levelo_inurba_marseille","lat":43.29595,"lon":5.38118,"is_reserved":false,"is_disabled":false,"rental_uris":{"android":"levelo://app?vid=a4fa6491-252e-4621-9e69-e4232817646e","ios":"levelo://app?vid=a4fa6491-252e-4621-9e69-e4232817646e"},"vehicle_type_id":"4","last_reported":1762895388,"current_range_meters":12400,"station_id":"ce4bgl12rcd13ifvqbo0","pricing_plan_id":"cebpf4jnsgd1na2vs0mg"},{"bike_id":"28e36cd3-4665-4002-a55e-04a45eaa3992","system_id":"levelo_inurba_marseille","lat":43.331543,"lon":5.376792,"is_reserved":false,"is_disabled":false,"rental_uris":{"android":"levelo://app?vid=28e36cd3-4665-4002-a55e-04a45eaa3992","ios":"levelo://app?vid=28e36cd3-4665-4002-a55e-04a45eaa3992"},"vehicle_type_id":"4","last_reported":1762895388,"current_range_meters":12400,"station_id":"st_d46cu089ee8s73dldbu0","pricing_plan_id":"cebpf4jnsgd1na2vs0mg"},{"bike_id":"b259621f-2fe6-4b30-92e0-2292fee32f1f","system_id":"levelo_inurba_marseille","lat":43.28039,"lon":5.36947,"is_reserved":false,"is_disabled":true,"rental_uris":{"android":"levelo://app?vid=b259621f-2fe6-4b30-92e0-2292fee32f1f","ios":"levelo://app?vid=b259621f-2fe6-4b30-92e0-2292fee32f1f"},"vehicle_type_id":"4","last_reported":1762895388,"current_range_meters":12400,"station_id":"ce4bha12rcd13ifvqef0","pricing_plan_id":"cebpf4jnsgd1na2vs0mg"},{"bike_id":"b245a3be-a57e-4cbf-8322-e75d97ee7e98","system_id":"levelo_inurba_marseille","lat":43.275634,"lon":5.384245,"is_reserved":false,"is_disabled":false,"rental_uris":{"android":"levelo://app?vid=b245a3be-a57e-4cbf-8322-e75d97ee7e98","ios":"levelo://app?vid=b245a3be-a57e-4cbf-8322-e75d97ee7e98"},"vehicle_type_id":"4","last_reported":1762895388,"current_range_meters":12400,"station_id":"ce4bhh92rcd13ifvqfi0","pricing_plan_id":"cebpf4jnsgd1na2vs0mg"},{"bike_id":"63a93af9-98d9-4fd8-823e-565cc55bf0a6","system_id":"levelo_inurba_marseille","lat":43.29263,"lon":5.37624,"is_reserved":false,"is_disabled":false,"rental_uris":{"android":"levelo://app?vid=63a93af9-98d9-4fd8-823e-565cc55bf0a6","ios":"levelo://app?vid=63a93af9-98d9-4fd8-823e-565cc55bf0a6"},"vehicle_type_id":"4","last_reported":1762895388,"current_range_meters":12800,"station_id":"ce4bgi12rcd13ifvqb80","pricing_plan_id":"cebpf4jnsgd1na2vs0mg"},{"bike_id":"b9133198-a2f5-4376-ae2f-4a522c41fac1","system_id":"levelo_inurba_marseille","lat":43.287532,"lon":5.3854,"is_reserved":false,"is_disabled":false,"rental_uris":{"android":"levelo://app?vid=b9133198-a2f5-4376-ae2f-4a522c41fac1","ios":"levelo://app?vid=b9133198-a2f5-4376-ae2f-4a522c41fac1"},"vehicle_type_id":"4","last_reported":1762895388,"current_range_meters":12800,"station_id":"","pricing_plan_id":"cebpf4jnsgd1na2vs0mg"},{"bike_id":"c47023ab-2905-4a00-af93-ffd0b768cdc9","system_id":"levelo_inurba_marseille","lat":43.288622,"lon":5.425274,"is_reserved":false,"is_disabled":false,"rental_uris":{"android":"levelo://app?vid=c47023ab-2905-4a00-af93-ffd0b768cdc9","ios":"levelo://app?vid=c47023ab-2905-4a00-af93-ffd0b768cdc9"},"vehicle_type_id":"4","last_reported":1762895388,"current_range_meters":12800,"station_id":"st_d3b462108ojc7389ooeg","pricing_plan_id":"cebpf4jnsgd1na2vs0mg"},{"bike_id":"84aade2c-4b39-4bce-814f-cfa3d6ed46f7","system_id":"levelo_inurba_marseille","lat":43.28483,"lon":5.48382,"is_reserved":false,"is_disabled":false,"rental_uris":{"android":"levelo://app?vid=84aade2c-4b39-4bce-814f-cfa3d6ed46f7","ios":"levelo://app?vid=84aade2c-4b39-4bce-814f-cfa3d6ed46f7"},"vehicle_type_id":"4","last_reported":1762895388,"current_range_meters":12800,"station_id":"st_d3svhcjqgbts73a3dn0g","pricing_plan_id":"cebpf4jnsgd1na2vs0mg"},{"bike_id":"c3d54e2e-34c7-4083-996e-d27e15abb20b","system_id":"levelo_inurba_marseille","lat":43.31715,"lon":5.40419,"is_reserved":false,"is_disabled":false,"rental_uris":{"android":"levelo://app?vid=c3d54e2e-34c7-4083-996e-d27e15abb20b","ios":"levelo://app?vid=c3d54e2e-34c7-4083-996e-d27e15abb20b"},"vehicle_type_id":"4","last_reported":1762895388,"current_range_meters":12800,"station_id":"ce4bh012rcd13ifvqd00","pricing_plan_id":"cebpf4jnsgd1na2vs0mg"},{"bike_id":"b700749c-e8e2-432d-a1e8-7c81164c57a8","system_id":"levelo_inurba_marseille","lat":43.28001,"lon":5.40005,"is_reserved":false,"is_disabled":false,"rental_uris":{"android":"levelo://app?vid=b700749c-e8e2-432d-a1e8-7c81164c57a8","ios":"levelo://app?vid=b700749c-e8e2-432d-a1e8-7c81164c57a8"},"vehicle_type_id":"4","last_reported":1762895388,"current_range_meters":12800,"station_id":"ce4bho92rcd13ifvqh4g","pricing_plan_id":"cebpf4jnsgd1na2vs0mg"},{"bike_id":"230da423-9d7a-4f32-9be8-74df97a4e84a","system_id":"levelo_inurba_marseille","lat":43.2862,"lon":5.35099,"is_reserved":false,"is_disabled":false,"rental_uris":{"android":"levelo://app?vid=230da423-9d7a-4f32-9be8-74df97a4e84a","ios":"levelo://app?vid=230da423-9d7a-4f32-9be8-74df97a4e84a"},"vehicle_type_id":"4","last_reported":1762895388,"current_range_meters":12800,"station_id":"ce4bhch2rcd13ifvqeug","pricing_plan_id":"cebpf4jnsgd1na2vs0mg"},{"bike_id":"445699dd-a363-445d-97c0-01dd3cb01644","system_id":"levelo_inurba_marseille","lat":43.28009,"lon":5.40003,"is_reserved":false,"is_disabled":false,"rental_uris":{"android":"levelo://app?vid=445699dd-a363-445d-97c0-01dd3cb01644","ios":"levelo://app?vid=445699dd-a363-445d-97c0-01dd3cb01644"},"vehicle_type_id":"4","last_reported":1762895388,"current_range_meters":12800,"station_id":"ce4bho92rcd13ifvqh4g","pricing_plan_id":"cebpf4jnsgd1na2vs0mg"},{"bike_id":"43e66452-3e4a-4398-a9da-dbe70bb59878","system_id":"levelo_inurba_marseille","lat":43.278445,"lon":5.406526,"is_reserved":false,"is_disabled":false,"rental_uris":{"android":"levelo://app?vid=43e66452-3e4a-4398-a9da-dbe70bb59878","ios":"levelo://app?vid=43e66452-3e4a-4398-a9da-dbe70bb59878"},"vehicle_type_id":"4","last_reported":1762895388,"current_range_meters":13600,"station_id":"ce4bhnh2rcd13ifvqgtg","pricing_plan_id":"cebpf4jnsgd1na2vs0mg"},{"bike_id":"76fc4c63-a0f2-44a8-a895-ca7619257281","system_id":"levelo_inurba_marseille","lat":43.29584,"lon":5.38124,"is_reserved":false,"is_disabled":false,"rental_uris":{"android":"levelo://app?vid=76fc4c63-a0f2-44a8-a895-ca7619257281","ios":"levelo://app?vid=76fc4c63-a0f2-44a8-a895-ca7619257281"},"vehicle_type_id":"4","last_reported":1762895388,"current_range_meters":13600,"station_id":"ce4bgl12rcd13ifvqbo0","pricing_plan_id":"cebpf4jnsgd1na2vs0mg"},{"bike_id":"2b971a67-a1a4-4be8-bf83-3f4cfa65ae8d","system_id":"levelo_inurba_marseille","lat":43.28698,"lon":5.3999,"is_reserved":false,"is_disabled":false,"rental_uris":{"android":"levelo://app?vid=2b971a67-a1a4-4be8-bf83-3f4cfa65ae8d","ios":"levelo://app?vid=2b971a67-a1a4-4be8-bf83-3f4cfa65ae8d"},"vehicle_type_id":"4","last_reported":1762895388,"current_range_meters":13600,"station_id":"ce4bho92rcd13ifvqh3g","pricing_plan_id":"cebpf4jnsgd1na2vs0mg"},{"bike_id":"b170fb66-dbdc-4121-9673-2c815fcea0c6","system_id":"levelo_inurba_marseille","lat":43.29253,"lon":5.38434,"is_reserved":false,"is_disabled":false,"rental_uris":{"android":"levelo://app?vid=b170fb66-dbdc-4121-9673-2c815fcea0c6","ios":"levelo://app?vid=b170fb66-dbdc-4121-9673-2c815fcea0c6"},"vehicle_type_id":"4","last_reported":1762895388,"current_range_meters":13600,"station_id":"ce4bh692rcd13ifvqea0","pricing_plan_id":"cebpf4jnsgd1na2vs0mg"},{"bike_id":"58be3ff3-3206-4b8f-bf9f-31d2a07e9ad7","system_id":"levelo_inurba_marseille","lat":43.295911,"lon":5.380918,"is_reserved":false,"is_disabled":false,"rental_uris":{"android":"levelo://app?vid=58be3ff3-3206-4b8f-bf9f-31d2a07e9ad7","ios":"levelo://app?vid=58be3ff3-3206-4b8f-bf9f-31d2a07e9ad7"},"vehicle_type_id":"4","last_reported":1762895388,"current_range_meters":13600,"station_id":"ce4bgl12rcd13ifvqbo0","pricing_plan_id":"cebpf4jnsgd1na2vs0mg"},{"bike_id":"393ebba5-f26f-4f5b-ba37-0d7b5bd9041d","system_id":"levelo_inurba_marseille","lat":43.21743,"lon":5.34604,"is_reserved":false,"is_disabled":false,"rental_uris":{"android":"levelo://app?vid=393ebba5-f26f-4f5b-ba37-0d7b5bd9041d","ios":"levelo://app?vid=393ebba5-f26f-4f5b-ba37-0d7b5bd9041d"},"vehicle_type_id":"4","last_reported":1762895388,"current_range_meters":13600,"station_id":"","pricing_plan_id":"cebpf4jnsgd1na2vs0mg"},{"bike_id":"9afa5cbf-8616-411d-848e-86050b9bcdcd","system_id":"levelo_inurba_marseille","lat":43.28531,"lon":5.44092,"is_reserved":false,"is_disabled":false,"rental_uris":{"android":"levelo://app?vid=9afa5cbf-8616-411d-848e-86050b9bcdcd","ios":"levelo://app?vid=9afa5cbf-8616-411d-848e-86050b9bcdcd"},"vehicle_type_id":"4","last_reported":1762895388,"current_range_meters":13600,"station_id":"st_d3j3df2ikq2c7380ej80","pricing_plan_id":"cebpf4jnsgd1na2vs0mg"},{"bike_id":"55b7e291-072b-4042-a272-a038a9f41f7f","system_id":"levelo_inurba_marseille","lat":43.27947,"lon":5.41033,"is_reserved":false,"is_disabled":false,"rental_uris":{"android":"levelo://app?vid=55b7e291-072b-4042-a272-a038a9f41f7f","ios":"levelo://app?vid=55b7e291-072b-4042-a272-a038a9f41f7f"},"vehicle_type_id":"4","last_reported":1762895388,"current_range_meters":14000,"station_id":"ce4bhnp2rcd13ifvqh0g","pricing_plan_id":"cebpf4jnsgd1na2vs0mg"},{"bike_id":"3954e85c-6388-4912-a8e4-1a119632bec9","system_id":"levelo_inurba_marseille","lat":43.25083,"lon":5.39522,"is_reserved":false,"is_disabled":false,"rental_uris":{"android":"levelo://app?vid=3954e85c-6388-4912-a8e4-1a119632bec9","ios":"levelo://app?vid=3954e85c-6388-4912-a8e4-1a119632bec9"},"vehicle_type_id":"4","last_reported":1762895388,"current_range_meters":14000,"station_id":"ce4bhm12rcd13ifvqgkg","pricing_plan_id":"cebpf4jnsgd1na2vs0mg"},{"bike_id":"0ee5ed68-17b0-4de5-8497-c5a52ae4e738","system_id":"levelo_inurba_marseille","lat":43.29441,"lon":5.3975,"is_reserved":false,"is_disabled":false,"rental_uris":{"android":"levelo://app?vid=0ee5ed68-17b0-4de5-8497-c5a52ae4e738","ios":"levelo://app?vid=0ee5ed68-17b0-4de5-8497-c5a52ae4e738"},"vehicle_type_id":"4","last_reported":1762895388,"current_range_meters":14000,"station_id":"ce4bh3h2rcd13ifvqdo0","pricing_plan_id":"cebpf4jnsgd1na2vs0mg"},{"bike_id":"22d19dd2-68d8-4778-ae53-80f9a09d9db1","system_id":"levelo_inurba_marseille","lat":43.25106,"lon":5.40317,"is_reserved":false,"is_disabled":false,"rental_uris":{"android":"levelo://app?vid=22d19dd2-68d8-4778-ae53-80f9a09d9db1","ios":"levelo://app?vid=22d19dd2-68d8-4778-ae53-80f9a09d9db1"},"vehicle_type_id":"4","last_reported":1762895388,"current_range_meters":14000,"station_id":"ce4bhlh2rcd13ifvqgig","pricing_plan_id":"cebpf4jnsgd1na2vs0mg"},{"bike_id":"32162483-923a-4e23-8738-bf029245f9f0","system_id":"levelo_inurba_marseille","lat":43.284756,"lon":5.384418,"is_reserved":false,"is_disabled":true,"rental_uris":{"android":"levelo://app?vid=32162483-923a-4e23-8738-bf029245f9f0","ios":"levelo://app?vid=32162483-923a-4e23-8738-bf029245f9f0"},"vehicle_type_id":"4","last_reported":1762895388,"current_range_meters":14400,"station_id":"ce4bh512rcd13ifvqe3g","pricing_plan_id":"cebpf4jnsgd1na2vs0mg"},{"bike_id":"43599706-aeab-41b2-859f-99807479547f","system_id":"levelo_inurba_marseille","lat":43.25336,"lon":5.4218,"is_reserved":false,"is_disabled":false,"rental_uris":{"android":"levelo://app?vid=43599706-aeab-41b2-859f-99807479547f","ios":"levelo://app?vid=43599706-aeab-41b2-859f-99807479547f"},"vehicle_type_id":"4","last_reported":1762895388,"current_range_meters":14400,"station_id":"st_d2m65c5bi1j21697t3ng","pricing_plan_id":"cebpf4jnsgd1na2vs0mg"},{"bike_id":"7c4511b3-ba2f-484e-8d7e-e346df2035bd","system_id":"levelo_inurba_marseille","lat":43.32358,"lon":5.36751,"is_reserved":false,"is_disabled":false,"rental_uris":{"android":"levelo://app?vid=7c4511b3-ba2f-484e-8d7e-e346df2035bd","ios":"levelo://app?vid=7c4511b3-ba2f-484e-8d7e-e346df2035bd"},"vehicle_type_id":"4","last_reported":1762895388,"current_range_meters":14400,"station_id":"ce4bhsh2rcd13ifvqi2g","pricing_plan_id":"cebpf4jnsgd1na2vs0mg"},{"bike_id":"5b03e7e5-b6d3-4556-bcf0-2db757804703","system_id":"levelo_inurba_marseille","lat":43.27908,"lon":5.38018,"is_reserved":false,"is_disabled":false,"rental_uris":{"android":"levelo://app?vid=5b03e7e5-b6d3-4556-bcf0-2db757804703","ios":"levelo://app?vid=5b03e7e5-b6d3-4556-bcf0-2db757804703"},"vehicle_type_id":"4","last_reported":1762895388,"current_range_meters":14400,"station_id":"ce4bhf92rcd13ifvqf50","pricing_plan_id":"cebpf4jnsgd1na2vs0mg"},{"bike_id":"50b661f0-112f-4780-95bd-167a8c61a238","system_id":"levelo_inurba_marseille","lat":43.21204,"lon":5.35073,"is_reserved":false,"is_disabled":true,"rental_uris":{"android":"levelo://app?vid=50b661f0-112f-4780-95bd-167a8c61a238","ios":"levelo://app?vid=50b661f0-112f-4780-95bd-167a8c61a238"},"vehicle_type_id":"4","last_reported":1762895388,"current_range_meters":14400,"station_id":"st_cvj6sg6p6f1abm77japg","pricing_plan_id":"cebpf4jnsgd1na2vs0mg"},{"bike_id":"f09b69fd-4220-4b51-8365-9a85828617f1","system_id":"levelo_inurba_marseille","lat":43.330268,"lon":5.390397,"is_reserved":false,"is_disabled":false,"rental_uris":{"android":"levelo://app?vid=f09b69fd-4220-4b51-8365-9a85828617f1","ios":"levelo://app?vid=f09b69fd-4220-4b51-8365-9a85828617f1"},"vehicle_type_id":"4","last_reported":1762895388,"current_range_meters":14800,"station_id":"ce4bhr92rcd13ifvqhrg","pricing_plan_id":"cebpf4jnsgd1na2vs0mg"},{"bike_id":"3b15451b-9ca4-4b75-9fab-bb81fed744ea","system_id":"levelo_inurba_marseille","lat":43.30311,"lon":5.39204,"is_reserved":false,"is_disabled":true,"rental_uris":{"android":"levelo://app?vid=3b15451b-9ca4-4b75-9fab-bb81fed744ea","ios":"levelo://app?vid=3b15451b-9ca4-4b75-9fab-bb81fed744ea"},"vehicle_type_id":"4","last_reported":1762895388,"current_range_meters":14800,"station_id":"ce4bgkh2rcd13ifvqbk0","pricing_plan_id":"cebpf4jnsgd1na2vs0mg"},{"bike_id":"cb7a5799-c024-4519-bb5c-6f2896731a81","system_id":"levelo_inurba_marseille","lat":43.33161,"lon":5.37692,"is_reserved":false,"is_disabled":false,"rental_uris":{"android":"levelo://app?vid=cb7a5799-c024-4519-bb5c-6f2896731a81","ios":"levelo://app?vid=cb7a5799-c024-4519-bb5c-6f2896731a81"},"vehicle_type_id":"4","last_reported":1762895388,"current_range_meters":14800,"station_id":"st_d46cu089ee8s73dldbu0","pricing_plan_id":"cebpf4jnsgd1na2vs0mg"},{"bike_id":"90b7b1ac-129d-4f5e-9e36-1417be0b1559","system_id":"levelo_inurba_marseille","lat":43.3038,"lon":5.42487,"is_reserved":false,"is_disabled":true,"rental_uris":{"android":"levelo://app?vid=90b7b1ac-129d-4f5e-9e36-1417be0b1559","ios":"levelo://app?vid=90b7b1ac-129d-4f5e-9e36-1417be0b1559"},"vehicle_type_id":"4","last_reported":1762895388,"current_range_meters":14800,"station_id":"ce4bhoh2rcd13ifvqh6g","pricing_plan_id":"cebpf4jnsgd1na2vs0mg"},{"bike_id":"c31c777a-98fe-41ff-97ce-d6c4cffecca1","system_id":"levelo_inurba_marseille","lat":43.29851,"lon":5.38276,"is_reserved":false,"is_disabled":false,"rental_uris":{"android":"levelo://app?vid=c31c777a-98fe-41ff-97ce-d6c4cffecca1","ios":"levelo://app?vid=c31c777a-98fe-41ff-97ce-d6c4cffecca1"},"vehicle_type_id":"4","last_reported":1762895388,"current_range_meters":14800,"station_id":"","pricing_plan_id":"cebpf4jnsgd1na2vs0mg"},{"bike_id":"0f91c4cd-ea5a-42f8-9272-beafe4513254","system_id":"levelo_inurba_marseille","lat":43.29528,"lon":5.38544,"is_reserved":false,"is_disabled":false,"rental_uris":{"android":"levelo://app?vid=0f91c4cd-ea5a-42f8-9272-beafe4513254","ios":"levelo://app?vid=0f91c4cd-ea5a-42f8-9272-beafe4513254"},"vehicle_type_id":"4","last_reported":1762895388,"current_range_meters":15200,"station_id":"ce4bgih2rcd13ifvqba0","pricing_plan_id":"cebpf4jnsgd1na2vs0mg"},{"bike_id":"b147f1a9-c303-40fc-a009-88b90d822a1a","system_id":"levelo_inurba_marseille","lat":43.2789,"lon":5.3959,"is_reserved":false,"is_disabled":false,"rental_uris":{"android":"levelo://app?vid=b147f1a9-c303-40fc-a009-88b90d822a1a","ios":"levelo://app?vid=b147f1a9-c303-40fc-a009-88b90d822a1a"},"vehicle_type_id":"4","last_reported":1762895388,"current_range_meters":15200,"station_id":"ce4bhf92rcd13ifvqf40","pricing_plan_id":"cebpf4jnsgd1na2vs0mg"},{"bike_id":"e13b78db-2231-48a0-b9e0-a153f32a43f4","system_id":"levelo_inurba_marseille","lat":43.23056,"lon":5.35484,"is_reserved":false,"is_disabled":false,"rental_uris":{"android":"levelo://app?vid=e13b78db-2231-48a0-b9e0-a153f32a43f4","ios":"levelo://app?vid=e13b78db-2231-48a0-b9e0-a153f32a43f4"},"vehicle_type_id":"4","last_reported":1762895388,"current_range_meters":15200,"station_id":"cpo3342slgdg3j2ifvpg","pricing_plan_id":"cebpf4jnsgd1na2vs0mg"},{"bike_id":"d731143d-f1c2-4aee-af0b-774279eeb971","system_id":"levelo_inurba_marseille","lat":43.30885,"lon":5.39631,"is_reserved":false,"is_disabled":false,"rental_uris":{"android":"levelo://app?vid=d731143d-f1c2-4aee-af0b-774279eeb971","ios":"levelo://app?vid=d731143d-f1c2-4aee-af0b-774279eeb971"},"vehicle_type_id":"4","last_reported":1762895388,"current_range_meters":15200,"station_id":"ce4bh012rcd13ifvqcv0","pricing_plan_id":"cebpf4jnsgd1na2vs0mg"},{"bike_id":"8f46184c-a384-4c67-879f-ebea38b3bb9f","system_id":"levelo_inurba_marseille","lat":43.29259,"lon":5.38447,"is_reserved":false,"is_disabled":false,"rental_uris":{"android":"levelo://app?vid=8f46184c-a384-4c67-879f-ebea38b3bb9f","ios":"levelo://app?vid=8f46184c-a384-4c67-879f-ebea38b3bb9f"},"vehicle_type_id":"4","last_reported":1762895388,"current_range_meters":15200,"station_id":"ce4bh692rcd13ifvqea0","pricing_plan_id":"cebpf4jnsgd1na2vs0mg"},{"bike_id":"e5072903-b867-4d8e-a478-9934ce296bde","system_id":"levelo_inurba_marseille","lat":43.29132,"lon":5.39075,"is_reserved":false,"is_disabled":false,"rental_uris":{"android":"levelo://app?vid=e5072903-b867-4d8e-a478-9934ce296bde","ios":"levelo://app?vid=e5072903-b867-4d8e-a478-9934ce296bde"},"vehicle_type_id":"4","last_reported":1762895388,"current_range_meters":15200,"station_id":"","pricing_plan_id":"cebpf4jnsgd1na2vs0mg"},{"bike_id":"3ec966b6-6065-4863-b9cf-2be9aab39cca","system_id":"levelo_inurba_marseille","lat":43.311876,"lon":5.387251,"is_reserved":false,"is_disabled":false,"rental_uris":{"android":"levelo://app?vid=3ec966b6-6065-4863-b9cf-2be9aab39cca","ios":"levelo://app?vid=3ec966b6-6065-4863-b9cf-2be9aab39cca"},"vehicle_type_id":"4","last_reported":1762895388,"current_range_meters":15200,"station_id":"ce4bgv12rcd13ifvqcp0","pricing_plan_id":"cebpf4jnsgd1na2vs0mg"},{"bike_id":"9da95f54-f3a7-464d-9f02-f44102ed4e51","system_id":"levelo_inurba_marseille","lat":43.29517,"lon":5.39398,"is_reserved":false,"is_disabled":false,"rental_uris":{"android":"levelo://app?vid=9da95f54-f3a7-464d-9f02-f44102ed4e51","ios":"levelo://app?vid=9da95f54-f3a7-464d-9f02-f44102ed4e51"},"vehicle_type_id":"4","last_reported":1762895388,"current_range_meters":15200,"station_id":"ce4bh292rcd13ifvqdf0","pricing_plan_id":"cebpf4jnsgd1na2vs0mg"},{"bike_id":"72de2437-0636-4722-95b6-d252b0fa572a","system_id":"levelo_inurba_marseille","lat":43.24999,"lon":5.38928,"is_reserved":false,"is_disabled":false,"rental_uris":{"android":"levelo://app?vid=72de2437-0636-4722-95b6-d252b0fa572a","ios":"levelo://app?vid=72de2437-0636-4722-95b6-d252b0fa572a"},"vehicle_type_id":"4","last_reported":1762895388,"current_range_meters":15200,"station_id":"ce4bhgp2rcd13ifvqfd0","pricing_plan_id":"cebpf4jnsgd1na2vs0mg"},{"bike_id":"7853a813-0949-48bc-9da8-6f66b0f8768a","system_id":"levelo_inurba_marseille","lat":43.24389,"lon":5.37068,"is_reserved":false,"is_disabled":true,"rental_uris":{"android":"levelo://app?vid=7853a813-0949-48bc-9da8-6f66b0f8768a","ios":"levelo://app?vid=7853a813-0949-48bc-9da8-6f66b0f8768a"},"vehicle_type_id":"4","last_reported":1762895388,"current_range_meters":15200,"station_id":"ce4bhhh2rcd13ifvqfk0","pricing_plan_id":"cebpf4jnsgd1na2vs0mg"},{"bike_id":"ad96ece5-6a2f-494c-a1cd-bd2ba6aa3023","system_id":"levelo_inurba_marseille","lat":43.24176,"lon":5.39732,"is_reserved":false,"is_disabled":false,"rental_uris":{"android":"levelo://app?vid=ad96ece5-6a2f-494c-a1cd-bd2ba6aa3023","ios":"levelo://app?vid=ad96ece5-6a2f-494c-a1cd-bd2ba6aa3023"},"vehicle_type_id":"4","last_reported":1762895388,"current_range_meters":16000,"station_id":"ce4bhn12rcd13ifvqgpg","pricing_plan_id":"cebpf4jnsgd1na2vs0mg"},{"bike_id":"be65cb22-9eee-453a-97f0-1425091fb4c7","system_id":"levelo_inurba_marseille","lat":43.30951,"lon":5.39022,"is_reserved":false,"is_disabled":false,"rental_uris":{"android":"levelo://app?vid=be65cb22-9eee-453a-97f0-1425091fb4c7","ios":"levelo://app?vid=be65cb22-9eee-453a-97f0-1425091fb4c7"},"vehicle_type_id":"4","last_reported":1762895388,"current_range_meters":16000,"station_id":"ce4bgup2rcd13ifvqco0","pricing_plan_id":"cebpf4jnsgd1na2vs0mg"},{"bike_id":"b9f893f5-d17f-41db-9804-1587bbbfae53","system_id":"levelo_inurba_marseille","lat":43.31689,"lon":5.40471,"is_reserved":false,"is_disabled":false,"rental_uris":{"android":"levelo://app?vid=b9f893f5-d17f-41db-9804-1587bbbfae53","ios":"levelo://app?vid=b9f893f5-d17f-41db-9804-1587bbbfae53"},"vehicle_type_id":"4","last_reported":1762895388,"current_range_meters":16000,"station_id":"ce4bh012rcd13ifvqd00","pricing_plan_id":"cebpf4jnsgd1na2vs0mg"},{"bike_id":"1ce752b0-fa49-429d-9734-2f06993f4bd6","system_id":"levelo_inurba_marseille","lat":43.32002,"lon":5.38136,"is_reserved":false,"is_disabled":false,"rental_uris":{"android":"levelo://app?vid=1ce752b0-fa49-429d-9734-2f06993f4bd6","ios":"levelo://app?vid=1ce752b0-fa49-429d-9734-2f06993f4bd6"},"vehicle_type_id":"4","last_reported":1762895388,"current_range_meters":16000,"station_id":"ce4bhr12rcd13ifvqhpg","pricing_plan_id":"cebpf4jnsgd1na2vs0mg"},{"bike_id":"f0413c71-e0c3-427b-98cb-cdf950c219e3","system_id":"levelo_inurba_marseille","lat":43.31017,"lon":5.40054,"is_reserved":false,"is_disabled":false,"rental_uris":{"android":"levelo://app?vid=f0413c71-e0c3-427b-98cb-cdf950c219e3","ios":"levelo://app?vid=f0413c71-e0c3-427b-98cb-cdf950c219e3"},"vehicle_type_id":"4","last_reported":1762895388,"current_range_meters":16000,"station_id":"","pricing_plan_id":"cebpf4jnsgd1na2vs0mg"},{"bike_id":"438d7a62-f358-4ec9-8eec-1107534a0ed3","system_id":"levelo_inurba_marseille","lat":43.284496,"lon":5.358153,"is_reserved":false,"is_disabled":false,"rental_uris":{"android":"levelo://app?vid=438d7a62-f358-4ec9-8eec-1107534a0ed3","ios":"levelo://app?vid=438d7a62-f358-4ec9-8eec-1107534a0ed3"},"vehicle_type_id":"4","last_reported":1762895388,"current_range_meters":16000,"station_id":"ce4bhah2rcd13ifvqei0","pricing_plan_id":"cebpf4jnsgd1na2vs0mg"},{"bike_id":"9076ae51-9410-4c1b-9986-f30d66fd9259","system_id":"levelo_inurba_marseille","lat":43.23194,"lon":5.35555,"is_reserved":false,"is_disabled":false,"rental_uris":{"android":"levelo://app?vid=9076ae51-9410-4c1b-9986-f30d66fd9259","ios":"levelo://app?vid=9076ae51-9410-4c1b-9986-f30d66fd9259"},"vehicle_type_id":"4","last_reported":1762895388,"current_range_meters":16000,"station_id":"ce4bhu92rcd13ifvqi70","pricing_plan_id":"cebpf4jnsgd1na2vs0mg"},{"bike_id":"d3929b97-d527-4b58-ac20-1f968c8f9b12","system_id":"levelo_inurba_marseille","lat":43.2928,"lon":5.4011,"is_reserved":false,"is_disabled":false,"rental_uris":{"android":"levelo://app?vid=d3929b97-d527-4b58-ac20-1f968c8f9b12","ios":"levelo://app?vid=d3929b97-d527-4b58-ac20-1f968c8f9b12"},"vehicle_type_id":"4","last_reported":1762895388,"current_range_meters":16000,"station_id":"ce4bh312rcd13ifvqdk0","pricing_plan_id":"cebpf4jnsgd1na2vs0mg"},{"bike_id":"816ee6d1-f26e-4bc1-b448-91a59f9d6a64","system_id":"levelo_inurba_marseille","lat":43.29527,"lon":5.39404,"is_reserved":false,"is_disabled":false,"rental_uris":{"android":"levelo://app?vid=816ee6d1-f26e-4bc1-b448-91a59f9d6a64","ios":"levelo://app?vid=816ee6d1-f26e-4bc1-b448-91a59f9d6a64"},"vehicle_type_id":"4","last_reported":1762895388,"current_range_meters":16000,"station_id":"ce4bh292rcd13ifvqdf0","pricing_plan_id":"cebpf4jnsgd1na2vs0mg"},{"bike_id":"d5ac6468-7672-4783-9488-e1dd4575c8ac","system_id":"levelo_inurba_marseille","lat":43.287,"lon":5.39984,"is_reserved":false,"is_disabled":false,"rental_uris":{"android":"levelo://app?vid=d5ac6468-7672-4783-9488-e1dd4575c8ac","ios":"levelo://app?vid=d5ac6468-7672-4783-9488-e1dd4575c8ac"},"vehicle_type_id":"4","last_reported":1762895388,"current_range_meters":16000,"station_id":"ce4bho92rcd13ifvqh3g","pricing_plan_id":"cebpf4jnsgd1na2vs0mg"},{"bike_id":"558d6336-8c01-4b7e-9c90-98f020bc4f34","system_id":"levelo_inurba_marseille","lat":43.31894,"lon":5.4073,"is_reserved":false,"is_disabled":false,"rental_uris":{"android":"levelo://app?vid=558d6336-8c01-4b7e-9c90-98f020bc4f34","ios":"levelo://app?vid=558d6336-8c01-4b7e-9c90-98f020bc4f34"},"vehicle_type_id":"4","last_reported":1762895388,"current_range_meters":16000,"station_id":"ce4bhq12rcd13ifvqhig","pricing_plan_id":"cebpf4jnsgd1na2vs0mg"},{"bike_id":"a9600783-7f3b-45d0-96e7-33abbce41e90","system_id":"levelo_inurba_marseille","lat":43.289337,"lon":5.363728,"is_reserved":false,"is_disabled":false,"rental_uris":{"android":"levelo://app?vid=a9600783-7f3b-45d0-96e7-33abbce41e90","ios":"levelo://app?vid=a9600783-7f3b-45d0-96e7-33abbce41e90"},"vehicle_type_id":"4","last_reported":1762895388,"current_range_meters":16000,"station_id":"ce4bhc92rcd13ifvqetg","pricing_plan_id":"cebpf4jnsgd1na2vs0mg"},{"bike_id":"3664f7af-3e86-419e-b36c-8dae5c863934","system_id":"levelo_inurba_marseille","lat":43.293078,"lon":5.399649,"is_reserved":false,"is_disabled":false,"rental_uris":{"android":"levelo://app?vid=3664f7af-3e86-419e-b36c-8dae5c863934","ios":"levelo://app?vid=3664f7af-3e86-419e-b36c-8dae5c863934"},"vehicle_type_id":"4","last_reported":1762895388,"current_range_meters":16000,"station_id":"","pricing_plan_id":"cebpf4jnsgd1na2vs0mg"},{"bike_id":"456c3b77-50a7-458c-9a10-8138e2e89389","system_id":"levelo_inurba_marseille","lat":43.252167,"lon":5.380375,"is_reserved":false,"is_disabled":false,"rental_uris":{"android":"levelo://app?vid=456c3b77-50a7-458c-9a10-8138e2e89389","ios":"levelo://app?vid=456c3b77-50a7-458c-9a10-8138e2e89389"},"vehicle_type_id":"4","last_reported":1762895388,"current_range_meters":16000,"station_id":"","pricing_plan_id":"cebpf4jnsgd1na2vs0mg"},{"bike_id":"55f24f19-a4bf-43f3-96d8-f53f1b6a63ab","system_id":"levelo_inurba_marseille","lat":43.28092,"lon":5.39673,"is_reserved":false,"is_disabled":false,"rental_uris":{"android":"levelo://app?vid=55f24f19-a4bf-43f3-96d8-f53f1b6a63ab","ios":"levelo://app?vid=55f24f19-a4bf-43f3-96d8-f53f1b6a63ab"},"vehicle_type_id":"4","last_reported":1762895388,"current_range_meters":16000,"station_id":"ce4bho12rcd13ifvqh2g","pricing_plan_id":"cebpf4jnsgd1na2vs0mg"},{"bike_id":"138acbc8-a44a-45ec-9d4e-f41258a8778e","system_id":"levelo_inurba_marseille","lat":43.298188,"lon":5.440651,"is_reserved":false,"is_disabled":false,"rental_uris":{"android":"levelo://app?vid=138acbc8-a44a-45ec-9d4e-f41258a8778e","ios":"levelo://app?vid=138acbc8-a44a-45ec-9d4e-f41258a8778e"},"vehicle_type_id":"4","last_reported":1762895388,"current_range_meters":16000,"station_id":"st_d3jp68qikq2c7381ktn0","pricing_plan_id":"cebpf4jnsgd1na2vs0mg"},{"bike_id":"bea5b510-bd03-4311-9858-b4755df7b315","system_id":"levelo_inurba_marseille","lat":43.247568,"lon":5.389722,"is_reserved":false,"is_disabled":false,"rental_uris":{"android":"levelo://app?vid=bea5b510-bd03-4311-9858-b4755df7b315","ios":"levelo://app?vid=bea5b510-bd03-4311-9858-b4755df7b315"},"vehicle_type_id":"4","last_reported":1762895388,"current_range_meters":16000,"station_id":"ce4bhg12rcd13ifvqf60","pricing_plan_id":"cebpf4jnsgd1na2vs0mg"},{"bike_id":"fbb4adc7-67e1-422c-813d-41c673b2d86f","system_id":"levelo_inurba_marseille","lat":43.24547,"lon":5.39521,"is_reserved":false,"is_disabled":false,"rental_uris":{"android":"levelo://app?vid=fbb4adc7-67e1-422c-813d-41c673b2d86f","ios":"levelo://app?vid=fbb4adc7-67e1-422c-813d-41c673b2d86f"},"vehicle_type_id":"4","last_reported":1762895388,"current_range_meters":16400,"station_id":"ce4bhlp2rcd13ifvqgjg","pricing_plan_id":"cebpf4jnsgd1na2vs0mg"},{"bike_id":"5804ac99-3bd4-4091-bff1-7487e9285e0c","system_id":"levelo_inurba_marseille","lat":43.29199,"lon":5.37606,"is_reserved":false,"is_disabled":false,"rental_uris":{"android":"levelo://app?vid=5804ac99-3bd4-4091-bff1-7487e9285e0c","ios":"levelo://app?vid=5804ac99-3bd4-4091-bff1-7487e9285e0c"},"vehicle_type_id":"4","last_reported":1762895388,"current_range_meters":16400,"station_id":"","pricing_plan_id":"cebpf4jnsgd1na2vs0mg"},{"bike_id":"708e5d9c-6010-445e-9709-4a84a19902b1","system_id":"levelo_inurba_marseille","lat":43.29193,"lon":5.35806,"is_reserved":false,"is_disabled":false,"rental_uris":{"android":"levelo://app?vid=708e5d9c-6010-445e-9709-4a84a19902b1","ios":"levelo://app?vid=708e5d9c-6010-445e-9709-4a84a19902b1"},"vehicle_type_id":"4","last_reported":1762895388,"current_range_meters":16400,"station_id":"ce4bhb12rcd13ifvqel0","pricing_plan_id":"cebpf4jnsgd1na2vs0mg"},{"bike_id":"ca832d9b-2460-4423-a8ce-5f7543cdec32","system_id":"levelo_inurba_marseille","lat":43.31313,"lon":5.39674,"is_reserved":false,"is_disabled":false,"rental_uris":{"android":"levelo://app?vid=ca832d9b-2460-4423-a8ce-5f7543cdec32","ios":"levelo://app?vid=ca832d9b-2460-4423-a8ce-5f7543cdec32"},"vehicle_type_id":"4","last_reported":1762895388,"current_range_meters":16400,"station_id":"ce4bgvp2rcd13ifvqcu0","pricing_plan_id":"cebpf4jnsgd1na2vs0mg"},{"bike_id":"e95c7a5e-2ca6-4704-beef-c914118730ac","system_id":"levelo_inurba_marseille","lat":43.2338,"lon":5.41225,"is_reserved":false,"is_disabled":false,"rental_uris":{"android":"levelo://app?vid=e95c7a5e-2ca6-4704-beef-c914118730ac","ios":"levelo://app?vid=e95c7a5e-2ca6-4704-beef-c914118730ac"},"vehicle_type_id":"4","last_reported":1762895388,"current_range_meters":16400,"station_id":"","pricing_plan_id":"cebpf4jnsgd1na2vs0mg"},{"bike_id":"01e8cce2-ff84-43ff-914a-c0c695f60ca4","system_id":"levelo_inurba_marseille","lat":43.29443,"lon":5.38035,"is_reserved":false,"is_disabled":false,"rental_uris":{"android":"levelo://app?vid=01e8cce2-ff84-43ff-914a-c0c695f60ca4","ios":"levelo://app?vid=01e8cce2-ff84-43ff-914a-c0c695f60ca4"},"vehicle_type_id":"4","last_reported":1762895388,"current_range_meters":16800,"station_id":"","pricing_plan_id":"cebpf4jnsgd1na2vs0mg"},{"bike_id":"4106200b-b535-4faf-bbe8-a92e413df539","system_id":"levelo_inurba_marseille","lat":43.295178,"lon":5.394041,"is_reserved":false,"is_disabled":false,"rental_uris":{"android":"levelo://app?vid=4106200b-b535-4faf-bbe8-a92e413df539","ios":"levelo://app?vid=4106200b-b535-4faf-bbe8-a92e413df539"},"vehicle_type_id":"4","last_reported":1762895388,"current_range_meters":16800,"station_id":"ce4bh292rcd13ifvqdf0","pricing_plan_id":"cebpf4jnsgd1na2vs0mg"},{"bike_id":"8b027115-1a9e-4312-923f-dbf5aec10ee4","system_id":"levelo_inurba_marseille","lat":43.30236,"lon":5.36524,"is_reserved":false,"is_disabled":false,"rental_uris":{"android":"levelo://app?vid=8b027115-1a9e-4312-923f-dbf5aec10ee4","ios":"levelo://app?vid=8b027115-1a9e-4312-923f-dbf5aec10ee4"},"vehicle_type_id":"4","last_reported":1762895388,"current_range_meters":16800,"station_id":"","pricing_plan_id":"cebpf4jnsgd1na2vs0mg"},{"bike_id":"75eb0a8c-4a7d-43c8-b7cb-9fbd78fdeb6e","system_id":"levelo_inurba_marseille","lat":43.237802,"lon":5.366261,"is_reserved":false,"is_disabled":false,"rental_uris":{"android":"levelo://app?vid=75eb0a8c-4a7d-43c8-b7cb-9fbd78fdeb6e","ios":"levelo://app?vid=75eb0a8c-4a7d-43c8-b7cb-9fbd78fdeb6e"},"vehicle_type_id":"4","last_reported":1762895388,"current_range_meters":16800,"station_id":"st_d3nk18o9ro0c73en2l3g","pricing_plan_id":"cebpf4jnsgd1na2vs0mg"},{"bike_id":"a181b69a-fd1c-4d3f-af0e-bfa9a7521c4e","system_id":"levelo_inurba_marseille","lat":43.25343,"lon":5.42178,"is_reserved":false,"is_disabled":false,"rental_uris":{"android":"levelo://app?vid=a181b69a-fd1c-4d3f-af0e-bfa9a7521c4e","ios":"levelo://app?vid=a181b69a-fd1c-4d3f-af0e-bfa9a7521c4e"},"vehicle_type_id":"4","last_reported":1762895388,"current_range_meters":16800,"station_id":"st_d2m65c5bi1j21697t3ng","pricing_plan_id":"cebpf4jnsgd1na2vs0mg"},{"bike_id":"9929ce0b-a325-4efe-a97e-1048db4f23fc","system_id":"levelo_inurba_marseille","lat":43.299857,"lon":5.385024,"is_reserved":false,"is_disabled":false,"rental_uris":{"android":"levelo://app?vid=9929ce0b-a325-4efe-a97e-1048db4f23fc","ios":"levelo://app?vid=9929ce0b-a325-4efe-a97e-1048db4f23fc"},"vehicle_type_id":"4","last_reported":1762895388,"current_range_meters":17200,"station_id":"ce4bgj92rcd13ifvqbd0","pricing_plan_id":"cebpf4jnsgd1na2vs0mg"},{"bike_id":"2bccb523-1eaf-4cea-87ae-5a77f3315ae6","system_id":"levelo_inurba_marseille","lat":43.29587,"lon":5.37691,"is_reserved":false,"is_disabled":false,"rental_uris":{"android":"levelo://app?vid=2bccb523-1eaf-4cea-87ae-5a77f3315ae6","ios":"levelo://app?vid=2bccb523-1eaf-4cea-87ae-5a77f3315ae6"},"vehicle_type_id":"4","last_reported":1762895388,"current_range_meters":17200,"station_id":"ce4bgi92rcd13ifvqb90","pricing_plan_id":"cebpf4jnsgd1na2vs0mg"},{"bike_id":"d6d9a3e0-e0aa-4aa2-bf84-1c4e64c5c8a2","system_id":"levelo_inurba_marseille","lat":43.25539,"lon":5.3908,"is_reserved":false,"is_disabled":false,"rental_uris":{"android":"levelo://app?vid=d6d9a3e0-e0aa-4aa2-bf84-1c4e64c5c8a2","ios":"levelo://app?vid=d6d9a3e0-e0aa-4aa2-bf84-1c4e64c5c8a2"},"vehicle_type_id":"4","last_reported":1762895388,"current_range_meters":17200,"station_id":"","pricing_plan_id":"cebpf4jnsgd1na2vs0mg"},{"bike_id":"f877e24b-ff58-49c0-b40f-7b93fc466d09","system_id":"levelo_inurba_marseille","lat":43.293182,"lon":5.385357,"is_reserved":false,"is_disabled":false,"rental_uris":{"android":"levelo://app?vid=f877e24b-ff58-49c0-b40f-7b93fc466d09","ios":"levelo://app?vid=f877e24b-ff58-49c0-b40f-7b93fc466d09"},"vehicle_type_id":"4","last_reported":1762895388,"current_range_meters":17200,"station_id":"ce4bh692rcd13ifvqea0","pricing_plan_id":"cebpf4jnsgd1na2vs0mg"},{"bike_id":"d97d1671-36ff-4f0e-b146-69c560265632","system_id":"levelo_inurba_marseille","lat":43.2798,"lon":5.4076,"is_reserved":false,"is_disabled":false,"rental_uris":{"android":"levelo://app?vid=d97d1671-36ff-4f0e-b146-69c560265632","ios":"levelo://app?vid=d97d1671-36ff-4f0e-b146-69c560265632"},"vehicle_type_id":"4","last_reported":1762895388,"current_range_meters":17200,"station_id":"","pricing_plan_id":"cebpf4jnsgd1na2vs0mg"},{"bike_id":"25ff1596-8d93-46ac-bdb5-e25a518d41ee","system_id":"levelo_inurba_marseille","lat":43.28937,"lon":5.38408,"is_reserved":false,"is_disabled":true,"rental_uris":{"android":"levelo://app?vid=25ff1596-8d93-46ac-bdb5-e25a518d41ee","ios":"levelo://app?vid=25ff1596-8d93-46ac-bdb5-e25a518d41ee"},"vehicle_type_id":"4","last_reported":1762895388,"current_range_meters":17200,"station_id":"ce4bh612rcd13ifvqe6g","pricing_plan_id":"cebpf4jnsgd1na2vs0mg"},{"bike_id":"7debdec4-db33-4dad-83bf-2f83639d0f53","system_id":"levelo_inurba_marseille","lat":43.2499,"lon":5.38925,"is_reserved":false,"is_disabled":false,"rental_uris":{"android":"levelo://app?vid=7debdec4-db33-4dad-83bf-2f83639d0f53","ios":"levelo://app?vid=7debdec4-db33-4dad-83bf-2f83639d0f53"},"vehicle_type_id":"4","last_reported":1762895388,"current_range_meters":17200,"station_id":"ce4bhgp2rcd13ifvqfd0","pricing_plan_id":"cebpf4jnsgd1na2vs0mg"},{"bike_id":"a38b499d-f66f-4f43-bcf5-7ca9af21ec79","system_id":"levelo_inurba_marseille","lat":43.2816,"lon":5.42647,"is_reserved":false,"is_disabled":false,"rental_uris":{"android":"levelo://app?vid=a38b499d-f66f-4f43-bcf5-7ca9af21ec79","ios":"levelo://app?vid=a38b499d-f66f-4f43-bcf5-7ca9af21ec79"},"vehicle_type_id":"4","last_reported":1762895388,"current_range_meters":17200,"station_id":"ce4bhnh2rcd13ifvqgug","pricing_plan_id":"cebpf4jnsgd1na2vs0mg"},{"bike_id":"21a1c427-8a44-4cdc-bdc4-820ecb76f74b","system_id":"levelo_inurba_marseille","lat":43.308868,"lon":5.396513,"is_reserved":false,"is_disabled":false,"rental_uris":{"android":"levelo://app?vid=21a1c427-8a44-4cdc-bdc4-820ecb76f74b","ios":"levelo://app?vid=21a1c427-8a44-4cdc-bdc4-820ecb76f74b"},"vehicle_type_id":"4","last_reported":1762895388,"current_range_meters":17600,"station_id":"ce4bh012rcd13ifvqcv0","pricing_plan_id":"cebpf4jnsgd1na2vs0mg"},{"bike_id":"5e6e0c2c-5aff-425c-b9f5-69ee0b364303","system_id":"levelo_inurba_marseille","lat":43.23207,"lon":5.35562,"is_reserved":false,"is_disabled":false,"rental_uris":{"android":"levelo://app?vid=5e6e0c2c-5aff-425c-b9f5-69ee0b364303","ios":"levelo://app?vid=5e6e0c2c-5aff-425c-b9f5-69ee0b364303"},"vehicle_type_id":"4","last_reported":1762895388,"current_range_meters":17600,"station_id":"ce4bhu92rcd13ifvqi70","pricing_plan_id":"cebpf4jnsgd1na2vs0mg"},{"bike_id":"bea5e61f-3456-43f4-b71d-1632e9a75e8e","system_id":"levelo_inurba_marseille","lat":43.28613,"lon":5.35098,"is_reserved":false,"is_disabled":false,"rental_uris":{"android":"levelo://app?vid=bea5e61f-3456-43f4-b71d-1632e9a75e8e","ios":"levelo://app?vid=bea5e61f-3456-43f4-b71d-1632e9a75e8e"},"vehicle_type_id":"4","last_reported":1762895388,"current_range_meters":17600,"station_id":"ce4bhch2rcd13ifvqeug","pricing_plan_id":"cebpf4jnsgd1na2vs0mg"},{"bike_id":"e3df63a1-f3d2-4d82-8bf6-df212c4e8b69","system_id":"levelo_inurba_marseille","lat":43.28485,"lon":5.4839,"is_reserved":false,"is_disabled":false,"rental_uris":{"android":"levelo://app?vid=e3df63a1-f3d2-4d82-8bf6-df212c4e8b69","ios":"levelo://app?vid=e3df63a1-f3d2-4d82-8bf6-df212c4e8b69"},"vehicle_type_id":"4","last_reported":1762895388,"current_range_meters":17600,"station_id":"","pricing_plan_id":"cebpf4jnsgd1na2vs0mg"},{"bike_id":"c87d49cf-734d-463f-aad1-fad6864686cb","system_id":"levelo_inurba_marseille","lat":43.30694,"lon":5.42249,"is_reserved":false,"is_disabled":false,"rental_uris":{"android":"levelo://app?vid=c87d49cf-734d-463f-aad1-fad6864686cb","ios":"levelo://app?vid=c87d49cf-734d-463f-aad1-fad6864686cb"},"vehicle_type_id":"4","last_reported":1762895388,"current_range_meters":17600,"station_id":"","pricing_plan_id":"cebpf4jnsgd1na2vs0mg"},{"bike_id":"0a2dcb04-b73c-44da-be8b-9db8405e24cb","system_id":"levelo_inurba_marseille","lat":43.29258,"lon":5.40921,"is_reserved":false,"is_disabled":false,"rental_uris":{"android":"levelo://app?vid=0a2dcb04-b73c-44da-be8b-9db8405e24cb","ios":"levelo://app?vid=0a2dcb04-b73c-44da-be8b-9db8405e24cb"},"vehicle_type_id":"4","last_reported":1762895388,"current_range_meters":17600,"station_id":"ce4bh192rcd13ifvqdc0","pricing_plan_id":"cebpf4jnsgd1na2vs0mg"},{"bike_id":"4a75a27c-50de-4bbd-a626-fc1051103d57","system_id":"levelo_inurba_marseille","lat":43.23206,"lon":5.35559,"is_reserved":false,"is_disabled":false,"rental_uris":{"android":"levelo://app?vid=4a75a27c-50de-4bbd-a626-fc1051103d57","ios":"levelo://app?vid=4a75a27c-50de-4bbd-a626-fc1051103d57"},"vehicle_type_id":"4","last_reported":1762895388,"current_range_meters":17600,"station_id":"ce4bhu92rcd13ifvqi70","pricing_plan_id":"cebpf4jnsgd1na2vs0mg"},{"bike_id":"e51f6c7c-0fd0-4469-bc44-ad743ad6ed36","system_id":"levelo_inurba_marseille","lat":43.30647,"lon":5.375613,"is_reserved":false,"is_disabled":false,"rental_uris":{"android":"levelo://app?vid=e51f6c7c-0fd0-4469-bc44-ad743ad6ed36","ios":"levelo://app?vid=e51f6c7c-0fd0-4469-bc44-ad743ad6ed36"},"vehicle_type_id":"4","last_reported":1762895388,"current_range_meters":18000,"station_id":"ce4bgv92rcd13ifvqcq0","pricing_plan_id":"cebpf4jnsgd1na2vs0mg"},{"bike_id":"68d1e22a-dbd7-4fcb-9c88-fac686cf775e","system_id":"levelo_inurba_marseille","lat":43.33766,"lon":5.37481,"is_reserved":false,"is_disabled":false,"rental_uris":{"android":"levelo://app?vid=68d1e22a-dbd7-4fcb-9c88-fac686cf775e","ios":"levelo://app?vid=68d1e22a-dbd7-4fcb-9c88-fac686cf775e"},"vehicle_type_id":"4","last_reported":1762895388,"current_range_meters":18000,"station_id":"","pricing_plan_id":"cebpf4jnsgd1na2vs0mg"},{"bike_id":"0528378f-1b50-41df-b328-6686306ee922","system_id":"levelo_inurba_marseille","lat":43.21624,"lon":5.34444,"is_reserved":false,"is_disabled":false,"rental_uris":{"android":"levelo://app?vid=0528378f-1b50-41df-b328-6686306ee922","ios":"levelo://app?vid=0528378f-1b50-41df-b328-6686306ee922"},"vehicle_type_id":"4","last_reported":1762895388,"current_range_meters":18000,"station_id":"","pricing_plan_id":"cebpf4jnsgd1na2vs0mg"},{"bike_id":"0e1ba582-c06a-482f-b7d0-001c3f3645ce","system_id":"levelo_inurba_marseille","lat":43.31363,"lon":5.38505,"is_reserved":false,"is_disabled":false,"rental_uris":{"android":"levelo://app?vid=0e1ba582-c06a-482f-b7d0-001c3f3645ce","ios":"levelo://app?vid=0e1ba582-c06a-482f-b7d0-001c3f3645ce"},"vehicle_type_id":"4","last_reported":1762895388,"current_range_meters":18000,"station_id":"ce4bgt92rcd13ifvqcf0","pricing_plan_id":"cebpf4jnsgd1na2vs0mg"},{"bike_id":"1272c006-74e4-44dd-afd8-eafe715317c4","system_id":"levelo_inurba_marseille","lat":43.29436,"lon":5.39745,"is_reserved":false,"is_disabled":false,"rental_uris":{"android":"levelo://app?vid=1272c006-74e4-44dd-afd8-eafe715317c4","ios":"levelo://app?vid=1272c006-74e4-44dd-afd8-eafe715317c4"},"vehicle_type_id":"4","last_reported":1762895388,"current_range_meters":18000,"station_id":"ce4bh3h2rcd13ifvqdo0","pricing_plan_id":"cebpf4jnsgd1na2vs0mg"},{"bike_id":"88ac6c0f-71e4-4061-a3d4-cf7d3133ceac","system_id":"levelo_inurba_marseille","lat":43.28671,"lon":5.38662,"is_reserved":false,"is_disabled":false,"rental_uris":{"android":"levelo://app?vid=88ac6c0f-71e4-4061-a3d4-cf7d3133ceac","ios":"levelo://app?vid=88ac6c0f-71e4-4061-a3d4-cf7d3133ceac"},"vehicle_type_id":"4","last_reported":1762895388,"current_range_meters":18000,"station_id":"ce4bh492rcd13ifvqdug","pricing_plan_id":"cebpf4jnsgd1na2vs0mg"},{"bike_id":"6c4d02e5-bce9-45af-8446-e07b99ad5b76","system_id":"levelo_inurba_marseille","lat":43.29025,"lon":5.35734,"is_reserved":false,"is_disabled":false,"rental_uris":{"android":"levelo://app?vid=6c4d02e5-bce9-45af-8446-e07b99ad5b76","ios":"levelo://app?vid=6c4d02e5-bce9-45af-8446-e07b99ad5b76"},"vehicle_type_id":"4","last_reported":1762895388,"current_range_meters":18000,"station_id":"","pricing_plan_id":"cebpf4jnsgd1na2vs0mg"},{"bike_id":"7f40f0c5-ec52-4f82-a8ba-51ca788fb557","system_id":"levelo_inurba_marseille","lat":43.30882,"lon":5.39656,"is_reserved":false,"is_disabled":false,"rental_uris":{"android":"levelo://app?vid=7f40f0c5-ec52-4f82-a8ba-51ca788fb557","ios":"levelo://app?vid=7f40f0c5-ec52-4f82-a8ba-51ca788fb557"},"vehicle_type_id":"4","last_reported":1762895388,"current_range_meters":18000,"station_id":"ce4bh012rcd13ifvqcv0","pricing_plan_id":"cebpf4jnsgd1na2vs0mg"},{"bike_id":"84026268-d7e2-40d8-8c7f-b2e30263873c","system_id":"levelo_inurba_marseille","lat":43.22942,"lon":5.35383,"is_reserved":false,"is_disabled":false,"rental_uris":{"android":"levelo://app?vid=84026268-d7e2-40d8-8c7f-b2e30263873c","ios":"levelo://app?vid=84026268-d7e2-40d8-8c7f-b2e30263873c"},"vehicle_type_id":"4","last_reported":1762895388,"current_range_meters":18800,"station_id":"cpo3532slgdg3j2ikp40","pricing_plan_id":"cebpf4jnsgd1na2vs0mg"},{"bike_id":"8bc3fe3e-6b9a-4b5a-9f5f-2a7883be02e1","system_id":"levelo_inurba_marseille","lat":43.3075,"lon":5.37162,"is_reserved":false,"is_disabled":false,"rental_uris":{"android":"levelo://app?vid=8bc3fe3e-6b9a-4b5a-9f5f-2a7883be02e1","ios":"levelo://app?vid=8bc3fe3e-6b9a-4b5a-9f5f-2a7883be02e1"},"vehicle_type_id":"4","last_reported":1762895388,"current_range_meters":18800,"station_id":"","pricing_plan_id":"cebpf4jnsgd1na2vs0mg"},{"bike_id":"c22fce2f-af95-4414-8249-7e1709b8e538","system_id":"levelo_inurba_marseille","lat":43.25329,"lon":5.42159,"is_reserved":false,"is_disabled":false,"rental_uris":{"android":"levelo://app?vid=c22fce2f-af95-4414-8249-7e1709b8e538","ios":"levelo://app?vid=c22fce2f-af95-4414-8249-7e1709b8e538"},"vehicle_type_id":"4","last_reported":1762895388,"current_range_meters":18800,"station_id":"st_d2m65c5bi1j21697t3ng","pricing_plan_id":"cebpf4jnsgd1na2vs0mg"},{"bike_id":"65f02636-4ec0-4b0a-a748-f609f9120a58","system_id":"levelo_inurba_marseille","lat":43.284,"lon":5.37526,"is_reserved":false,"is_disabled":false,"rental_uris":{"android":"levelo://app?vid=65f02636-4ec0-4b0a-a748-f609f9120a58","ios":"levelo://app?vid=65f02636-4ec0-4b0a-a748-f609f9120a58"},"vehicle_type_id":"4","last_reported":1762895388,"current_range_meters":18800,"station_id":"","pricing_plan_id":"cebpf4jnsgd1na2vs0mg"},{"bike_id":"9f77fce6-b576-455d-a43d-b1e175676c28","system_id":"levelo_inurba_marseille","lat":43.33773,"lon":5.37473,"is_reserved":false,"is_disabled":false,"rental_uris":{"android":"levelo://app?vid=9f77fce6-b576-455d-a43d-b1e175676c28","ios":"levelo://app?vid=9f77fce6-b576-455d-a43d-b1e175676c28"},"vehicle_type_id":"4","last_reported":1762895388,"current_range_meters":18800,"station_id":"","pricing_plan_id":"cebpf4jnsgd1na2vs0mg"},{"bike_id":"47b1f308-123a-4f3d-bd00-7930ede1c782","system_id":"levelo_inurba_marseille","lat":43.25448,"lon":5.41853,"is_reserved":false,"is_disabled":false,"rental_uris":{"android":"levelo://app?vid=47b1f308-123a-4f3d-bd00-7930ede1c782","ios":"levelo://app?vid=47b1f308-123a-4f3d-bd00-7930ede1c782"},"vehicle_type_id":"4","last_reported":1762895388,"current_range_meters":18800,"station_id":"","pricing_plan_id":"cebpf4jnsgd1na2vs0mg"},{"bike_id":"c5742480-ee75-4c3f-94f3-a721d0bfdfa0","system_id":"levelo_inurba_marseille","lat":43.29229,"lon":5.37816,"is_reserved":false,"is_disabled":false,"rental_uris":{"android":"levelo://app?vid=c5742480-ee75-4c3f-94f3-a721d0bfdfa0","ios":"levelo://app?vid=c5742480-ee75-4c3f-94f3-a721d0bfdfa0"},"vehicle_type_id":"4","last_reported":1762895388,"current_range_meters":18800,"station_id":"","pricing_plan_id":"cebpf4jnsgd1na2vs0mg"},{"bike_id":"a48dc282-7357-40f9-afe2-39ddd0587c54","system_id":"levelo_inurba_marseille","lat":43.2931,"lon":5.37179,"is_reserved":false,"is_disabled":false,"rental_uris":{"android":"levelo://app?vid=a48dc282-7357-40f9-afe2-39ddd0587c54","ios":"levelo://app?vid=a48dc282-7357-40f9-afe2-39ddd0587c54"},"vehicle_type_id":"4","last_reported":1762895388,"current_range_meters":18800,"station_id":"ce4bgh92rcd13ifvqb40","pricing_plan_id":"cebpf4jnsgd1na2vs0mg"},{"bike_id":"2aac0eaf-3eae-4f84-b7ae-2c44c3dd78a6","system_id":"levelo_inurba_marseille","lat":43.25111,"lon":5.4032,"is_reserved":false,"is_disabled":false,"rental_uris":{"android":"levelo://app?vid=2aac0eaf-3eae-4f84-b7ae-2c44c3dd78a6","ios":"levelo://app?vid=2aac0eaf-3eae-4f84-b7ae-2c44c3dd78a6"},"vehicle_type_id":"4","last_reported":1762895388,"current_range_meters":18800,"station_id":"ce4bhlh2rcd13ifvqgig","pricing_plan_id":"cebpf4jnsgd1na2vs0mg"},{"bike_id":"9c848cff-016c-4a3e-a617-081155435b00","system_id":"levelo_inurba_marseille","lat":43.297077,"lon":5.36598,"is_reserved":false,"is_disabled":false,"rental_uris":{"android":"levelo://app?vid=9c848cff-016c-4a3e-a617-081155435b00","ios":"levelo://app?vid=9c848cff-016c-4a3e-a617-081155435b00"},"vehicle_type_id":"4","last_reported":1762895388,"current_range_meters":19200,"station_id":"ce4bgn12rcd13ifvqbt0","pricing_plan_id":"cebpf4jnsgd1na2vs0mg"},{"bike_id":"ef8f49e5-0be1-48cb-9cf1-4513139c3f05","system_id":"levelo_inurba_marseille","lat":43.295284,"lon":5.38547,"is_reserved":false,"is_disabled":false,"rental_uris":{"android":"levelo://app?vid=ef8f49e5-0be1-48cb-9cf1-4513139c3f05","ios":"levelo://app?vid=ef8f49e5-0be1-48cb-9cf1-4513139c3f05"},"vehicle_type_id":"4","last_reported":1762895388,"current_range_meters":19200,"station_id":"ce4bgih2rcd13ifvqba0","pricing_plan_id":"cebpf4jnsgd1na2vs0mg"},{"bike_id":"6418340e-0d22-4824-ba95-f54271b6387f","system_id":"levelo_inurba_marseille","lat":43.28409,"lon":5.3753,"is_reserved":false,"is_disabled":false,"rental_uris":{"android":"levelo://app?vid=6418340e-0d22-4824-ba95-f54271b6387f","ios":"levelo://app?vid=6418340e-0d22-4824-ba95-f54271b6387f"},"vehicle_type_id":"4","last_reported":1762895388,"current_range_meters":19200,"station_id":"ce4bh412rcd13ifvqds0","pricing_plan_id":"cebpf4jnsgd1na2vs0mg"},{"bike_id":"ed881d76-ab82-42f6-af08-4bcdbfad41ed","system_id":"levelo_inurba_marseille","lat":43.28925,"lon":5.384,"is_reserved":false,"is_disabled":false,"rental_uris":{"android":"levelo://app?vid=ed881d76-ab82-42f6-af08-4bcdbfad41ed","ios":"levelo://app?vid=ed881d76-ab82-42f6-af08-4bcdbfad41ed"},"vehicle_type_id":"4","last_reported":1762895388,"current_range_meters":19200,"station_id":"ce4bh612rcd13ifvqe6g","pricing_plan_id":"cebpf4jnsgd1na2vs0mg"},{"bike_id":"52d4b8ef-bd3b-4594-9933-6de587b7e338","system_id":"levelo_inurba_marseille","lat":43.22925,"lon":5.35389,"is_reserved":false,"is_disabled":false,"rental_uris":{"android":"levelo://app?vid=52d4b8ef-bd3b-4594-9933-6de587b7e338","ios":"levelo://app?vid=52d4b8ef-bd3b-4594-9933-6de587b7e338"},"vehicle_type_id":"4","last_reported":1762895388,"current_range_meters":19200,"station_id":"cpo3532slgdg3j2ikp40","pricing_plan_id":"cebpf4jnsgd1na2vs0mg"},{"bike_id":"817e1ddc-4799-4955-9571-85f7e8edbdf0","system_id":"levelo_inurba_marseille","lat":43.2849,"lon":5.38435,"is_reserved":false,"is_disabled":true,"rental_uris":{"android":"levelo://app?vid=817e1ddc-4799-4955-9571-85f7e8edbdf0","ios":"levelo://app?vid=817e1ddc-4799-4955-9571-85f7e8edbdf0"},"vehicle_type_id":"4","last_reported":1762895388,"current_range_meters":19200,"station_id":"ce4bh512rcd13ifvqe3g","pricing_plan_id":"cebpf4jnsgd1na2vs0mg"},{"bike_id":"b3a0f61c-c7fc-47ef-aa28-0e52552e9049","system_id":"levelo_inurba_marseille","lat":43.28365,"lon":5.38642,"is_reserved":false,"is_disabled":false,"rental_uris":{"android":"levelo://app?vid=b3a0f61c-c7fc-47ef-aa28-0e52552e9049","ios":"levelo://app?vid=b3a0f61c-c7fc-47ef-aa28-0e52552e9049"},"vehicle_type_id":"4","last_reported":1762895388,"current_range_meters":19200,"station_id":"ce4bh492rcd13ifvqdvg","pricing_plan_id":"cebpf4jnsgd1na2vs0mg"},{"bike_id":"97168b05-59a0-4cdb-bdce-272a25f23a17","system_id":"levelo_inurba_marseille","lat":43.284036,"lon":5.375063,"is_reserved":false,"is_disabled":false,"rental_uris":{"android":"levelo://app?vid=97168b05-59a0-4cdb-bdce-272a25f23a17","ios":"levelo://app?vid=97168b05-59a0-4cdb-bdce-272a25f23a17"},"vehicle_type_id":"4","last_reported":1762895388,"current_range_meters":19200,"station_id":"","pricing_plan_id":"cebpf4jnsgd1na2vs0mg"},{"bike_id":"1a76271a-206d-4efb-a82f-6a45ff76d141","system_id":"levelo_inurba_marseille","lat":43.28944,"lon":5.36639,"is_reserved":false,"is_disabled":false,"rental_uris":{"android":"levelo://app?vid=1a76271a-206d-4efb-a82f-6a45ff76d141","ios":"levelo://app?vid=1a76271a-206d-4efb-a82f-6a45ff76d141"},"vehicle_type_id":"4","last_reported":1762895388,"current_range_meters":19200,"station_id":"ce4bhap2rcd13ifvqek0","pricing_plan_id":"cebpf4jnsgd1na2vs0mg"},{"bike_id":"ddecc36d-ee6d-4544-a364-28c6512b4f94","system_id":"levelo_inurba_marseille","lat":43.25827,"lon":5.39428,"is_reserved":false,"is_disabled":false,"rental_uris":{"android":"levelo://app?vid=ddecc36d-ee6d-4544-a364-28c6512b4f94","ios":"levelo://app?vid=ddecc36d-ee6d-4544-a364-28c6512b4f94"},"vehicle_type_id":"4","last_reported":1762895388,"current_range_meters":19200,"station_id":"ce4bhip2rcd13ifvqft0","pricing_plan_id":"cebpf4jnsgd1na2vs0mg"},{"bike_id":"0d1a1fe5-cf19-43f0-b2e2-12612db29a2a","system_id":"levelo_inurba_marseille","lat":43.28899,"lon":5.36101,"is_reserved":false,"is_disabled":false,"rental_uris":{"android":"levelo://app?vid=0d1a1fe5-cf19-43f0-b2e2-12612db29a2a","ios":"levelo://app?vid=0d1a1fe5-cf19-43f0-b2e2-12612db29a2a"},"vehicle_type_id":"4","last_reported":1762895388,"current_range_meters":19600,"station_id":"","pricing_plan_id":"cebpf4jnsgd1na2vs0mg"},{"bike_id":"766b19a9-6b87-44f3-a4c5-634274757c1a","system_id":"levelo_inurba_marseille","lat":43.29241,"lon":5.38261,"is_reserved":false,"is_disabled":false,"rental_uris":{"android":"levelo://app?vid=766b19a9-6b87-44f3-a4c5-634274757c1a","ios":"levelo://app?vid=766b19a9-6b87-44f3-a4c5-634274757c1a"},"vehicle_type_id":"4","last_reported":1762895388,"current_range_meters":19600,"station_id":"","pricing_plan_id":"cebpf4jnsgd1na2vs0mg"},{"bike_id":"527da7ec-3f07-4e67-b311-b5aee5aaec5d","system_id":"levelo_inurba_marseille","lat":43.27188,"lon":5.40969,"is_reserved":false,"is_disabled":false,"rental_uris":{"android":"levelo://app?vid=527da7ec-3f07-4e67-b311-b5aee5aaec5d","ios":"levelo://app?vid=527da7ec-3f07-4e67-b311-b5aee5aaec5d"},"vehicle_type_id":"4","last_reported":1762895388,"current_range_meters":19600,"station_id":"ce4bhl12rcd13ifvqgf0","pricing_plan_id":"cebpf4jnsgd1na2vs0mg"},{"bike_id":"3b8f8c31-20b9-4636-9e15-9efa93955276","system_id":"levelo_inurba_marseille","lat":43.295807,"lon":5.399751,"is_reserved":false,"is_disabled":true,"rental_uris":{"android":"levelo://app?vid=3b8f8c31-20b9-4636-9e15-9efa93955276","ios":"levelo://app?vid=3b8f8c31-20b9-4636-9e15-9efa93955276"},"vehicle_type_id":"4","last_reported":1762895388,"current_range_meters":19600,"station_id":"ce4bh312rcd13ifvqdj0","pricing_plan_id":"cebpf4jnsgd1na2vs0mg"},{"bike_id":"90ed4b4b-cbc1-4b8f-b89b-2d97028e02fb","system_id":"levelo_inurba_marseille","lat":43.29254,"lon":5.38436,"is_reserved":false,"is_disabled":false,"rental_uris":{"android":"levelo://app?vid=90ed4b4b-cbc1-4b8f-b89b-2d97028e02fb","ios":"levelo://app?vid=90ed4b4b-cbc1-4b8f-b89b-2d97028e02fb"},"vehicle_type_id":"4","last_reported":1762895388,"current_range_meters":19600,"station_id":"ce4bh692rcd13ifvqea0","pricing_plan_id":"cebpf4jnsgd1na2vs0mg"},{"bike_id":"b4122acc-a65d-4a6f-b61a-41b83538e9e9","system_id":"levelo_inurba_marseille","lat":43.25326,"lon":5.42163,"is_reserved":false,"is_disabled":false,"rental_uris":{"android":"levelo://app?vid=b4122acc-a65d-4a6f-b61a-41b83538e9e9","ios":"levelo://app?vid=b4122acc-a65d-4a6f-b61a-41b83538e9e9"},"vehicle_type_id":"4","last_reported":1762895388,"current_range_meters":19600,"station_id":"st_d2m65c5bi1j21697t3ng","pricing_plan_id":"cebpf4jnsgd1na2vs0mg"},{"bike_id":"668846e2-d946-49b7-8c0b-3f63fa81e934","system_id":"levelo_inurba_marseille","lat":43.28942,"lon":5.36647,"is_reserved":false,"is_disabled":false,"rental_uris":{"android":"levelo://app?vid=668846e2-d946-49b7-8c0b-3f63fa81e934","ios":"levelo://app?vid=668846e2-d946-49b7-8c0b-3f63fa81e934"},"vehicle_type_id":"4","last_reported":1762895388,"current_range_meters":19600,"station_id":"ce4bhap2rcd13ifvqek0","pricing_plan_id":"cebpf4jnsgd1na2vs0mg"},{"bike_id":"98d9ed27-1c51-4232-bb05-142a9e7f98db","system_id":"levelo_inurba_marseille","lat":43.31067,"lon":5.38361,"is_reserved":false,"is_disabled":true,"rental_uris":{"android":"levelo://app?vid=98d9ed27-1c51-4232-bb05-142a9e7f98db","ios":"levelo://app?vid=98d9ed27-1c51-4232-bb05-142a9e7f98db"},"vehicle_type_id":"4","last_reported":1762895388,"current_range_meters":19600,"station_id":"ce4bgv92rcd13ifvqcr0","pricing_plan_id":"cebpf4jnsgd1na2vs0mg"},{"bike_id":"a76ed384-8adb-4855-8ea9-608b64e9d92b","system_id":"levelo_inurba_marseille","lat":43.3227,"lon":5.36954,"is_reserved":false,"is_disabled":false,"rental_uris":{"android":"levelo://app?vid=a76ed384-8adb-4855-8ea9-608b64e9d92b","ios":"levelo://app?vid=a76ed384-8adb-4855-8ea9-608b64e9d92b"},"vehicle_type_id":"4","last_reported":1762895388,"current_range_meters":19600,"station_id":"","pricing_plan_id":"cebpf4jnsgd1na2vs0mg"},{"bike_id":"6faca5e0-f5f3-4419-a7e2-34fda1621326","system_id":"levelo_inurba_marseille","lat":43.211879,"lon":5.350773,"is_reserved":false,"is_disabled":true,"rental_uris":{"android":"levelo://app?vid=6faca5e0-f5f3-4419-a7e2-34fda1621326","ios":"levelo://app?vid=6faca5e0-f5f3-4419-a7e2-34fda1621326"},"vehicle_type_id":"4","last_reported":1762895388,"current_range_meters":19600,"station_id":"st_cvj6sg6p6f1abm77japg","pricing_plan_id":"cebpf4jnsgd1na2vs0mg"},{"bike_id":"316e9176-1dea-447e-8619-699d401755c0","system_id":"levelo_inurba_marseille","lat":43.27603,"lon":5.36125,"is_reserved":false,"is_disabled":true,"rental_uris":{"android":"levelo://app?vid=316e9176-1dea-447e-8619-699d401755c0","ios":"levelo://app?vid=316e9176-1dea-447e-8619-699d401755c0"},"vehicle_type_id":"4","last_reported":1762895388,"current_range_meters":20000,"station_id":"ce4bgj92rcd13ifvqbe0","pricing_plan_id":"cebpf4jnsgd1na2vs0mg"},{"bike_id":"65a4abe7-288e-4d53-9a3a-9c7ef2e7d4a6","system_id":"levelo_inurba_marseille","lat":43.28175,"lon":5.42644,"is_reserved":false,"is_disabled":false,"rental_uris":{"android":"levelo://app?vid=65a4abe7-288e-4d53-9a3a-9c7ef2e7d4a6","ios":"levelo://app?vid=65a4abe7-288e-4d53-9a3a-9c7ef2e7d4a6"},"vehicle_type_id":"4","last_reported":1762895388,"current_range_meters":20000,"station_id":"ce4bhnh2rcd13ifvqgug","pricing_plan_id":"cebpf4jnsgd1na2vs0mg"},{"bike_id":"4dc51680-cd9a-4415-8ec0-481aee339c68","system_id":"levelo_inurba_marseille","lat":43.27819,"lon":5.40711,"is_reserved":false,"is_disabled":false,"rental_uris":{"android":"levelo://app?vid=4dc51680-cd9a-4415-8ec0-481aee339c68","ios":"levelo://app?vid=4dc51680-cd9a-4415-8ec0-481aee339c68"},"vehicle_type_id":"4","last_reported":1762895388,"current_range_meters":20000,"station_id":"ce4bhnh2rcd13ifvqgtg","pricing_plan_id":"cebpf4jnsgd1na2vs0mg"},{"bike_id":"1960523f-0a6e-4b30-80d9-f332576b8781","system_id":"levelo_inurba_marseille","lat":43.30597,"lon":5.39369,"is_reserved":false,"is_disabled":false,"rental_uris":{"android":"levelo://app?vid=1960523f-0a6e-4b30-80d9-f332576b8781","ios":"levelo://app?vid=1960523f-0a6e-4b30-80d9-f332576b8781"},"vehicle_type_id":"4","last_reported":1762895388,"current_range_meters":20000,"station_id":"ce4bh0p2rcd13ifvqd80","pricing_plan_id":"cebpf4jnsgd1na2vs0mg"},{"bike_id":"cee2621e-afa0-420e-bda0-9f8f78053570","system_id":"levelo_inurba_marseille","lat":43.302502,"lon":5.400708,"is_reserved":false,"is_disabled":false,"rental_uris":{"android":"levelo://app?vid=cee2621e-afa0-420e-bda0-9f8f78053570","ios":"levelo://app?vid=cee2621e-afa0-420e-bda0-9f8f78053570"},"vehicle_type_id":"4","last_reported":1762895388,"current_range_meters":20000,"station_id":"ce4bgvh2rcd13ifvqcs0","pricing_plan_id":"cebpf4jnsgd1na2vs0mg"},{"bike_id":"f636f27c-a30c-4c40-abb0-9d55eee8197e","system_id":"levelo_inurba_marseille","lat":43.283447,"lon":5.375251,"is_reserved":false,"is_disabled":false,"rental_uris":{"android":"levelo://app?vid=f636f27c-a30c-4c40-abb0-9d55eee8197e","ios":"levelo://app?vid=f636f27c-a30c-4c40-abb0-9d55eee8197e"},"vehicle_type_id":"4","last_reported":1762895388,"current_range_meters":20000,"station_id":"","pricing_plan_id":"cebpf4jnsgd1na2vs0mg"},{"bike_id":"801e6308-ea8b-4cb8-9fe9-7b54d1f4c2ef","system_id":"levelo_inurba_marseille","lat":43.25085,"lon":5.39509,"is_reserved":false,"is_disabled":false,"rental_uris":{"android":"levelo://app?vid=801e6308-ea8b-4cb8-9fe9-7b54d1f4c2ef","ios":"levelo://app?vid=801e6308-ea8b-4cb8-9fe9-7b54d1f4c2ef"},"vehicle_type_id":"4","last_reported":1762895388,"current_range_meters":20000,"station_id":"ce4bhm12rcd13ifvqgkg","pricing_plan_id":"cebpf4jnsgd1na2vs0mg"},{"bike_id":"c317c916-e826-46b4-b006-c0ea66f4f629","system_id":"levelo_inurba_marseille","lat":43.26793,"lon":5.39422,"is_reserved":false,"is_disabled":false,"rental_uris":{"android":"levelo://app?vid=c317c916-e826-46b4-b006-c0ea66f4f629","ios":"levelo://app?vid=c317c916-e826-46b4-b006-c0ea66f4f629"},"vehicle_type_id":"4","last_reported":1762895388,"current_range_meters":20400,"station_id":"ce4bhh12rcd13ifvqfg0","pricing_plan_id":"cebpf4jnsgd1na2vs0mg"},{"bike_id":"c1abe8b7-38c5-404a-921d-af109f9054fa","system_id":"levelo_inurba_marseille","lat":43.28446,"lon":5.39198,"is_reserved":false,"is_disabled":false,"rental_uris":{"android":"levelo://app?vid=c1abe8b7-38c5-404a-921d-af109f9054fa","ios":"levelo://app?vid=c1abe8b7-38c5-404a-921d-af109f9054fa"},"vehicle_type_id":"4","last_reported":1762895388,"current_range_meters":20400,"station_id":"ce4bhoh2rcd13ifvqh5g","pricing_plan_id":"cebpf4jnsgd1na2vs0mg"},{"bike_id":"ce0ce839-db9a-4918-b5a5-e5936f70ce7b","system_id":"levelo_inurba_marseille","lat":43.28412,"lon":5.37508,"is_reserved":false,"is_disabled":false,"rental_uris":{"android":"levelo://app?vid=ce0ce839-db9a-4918-b5a5-e5936f70ce7b","ios":"levelo://app?vid=ce0ce839-db9a-4918-b5a5-e5936f70ce7b"},"vehicle_type_id":"4","last_reported":1762895388,"current_range_meters":20400,"station_id":"ce4bh412rcd13ifvqds0","pricing_plan_id":"cebpf4jnsgd1na2vs0mg"},{"bike_id":"6e2caa74-d1f5-4152-855d-e673413d500d","system_id":"levelo_inurba_marseille","lat":43.243881,"lon":5.370601,"is_reserved":false,"is_disabled":false,"rental_uris":{"android":"levelo://app?vid=6e2caa74-d1f5-4152-855d-e673413d500d","ios":"levelo://app?vid=6e2caa74-d1f5-4152-855d-e673413d500d"},"vehicle_type_id":"4","last_reported":1762895388,"current_range_meters":20400,"station_id":"ce4bhhh2rcd13ifvqfk0","pricing_plan_id":"cebpf4jnsgd1na2vs0mg"},{"bike_id":"23f9c78c-ca0a-48be-8a9d-156c748920c2","system_id":"levelo_inurba_marseille","lat":43.27923,"lon":5.4101,"is_reserved":false,"is_disabled":false,"rental_uris":{"android":"levelo://app?vid=23f9c78c-ca0a-48be-8a9d-156c748920c2","ios":"levelo://app?vid=23f9c78c-ca0a-48be-8a9d-156c748920c2"},"vehicle_type_id":"4","last_reported":1762895388,"current_range_meters":20400,"station_id":"ce4bhnp2rcd13ifvqh0g","pricing_plan_id":"cebpf4jnsgd1na2vs0mg"},{"bike_id":"1b0b7981-696f-4ec5-932c-764cd2899c70","system_id":"levelo_inurba_marseille","lat":43.28477,"lon":5.484,"is_reserved":false,"is_disabled":false,"rental_uris":{"android":"levelo://app?vid=1b0b7981-696f-4ec5-932c-764cd2899c70","ios":"levelo://app?vid=1b0b7981-696f-4ec5-932c-764cd2899c70"},"vehicle_type_id":"4","last_reported":1762895388,"current_range_meters":20400,"station_id":"","pricing_plan_id":"cebpf4jnsgd1na2vs0mg"},{"bike_id":"c7450521-d755-4a9f-b086-70e9a327b30f","system_id":"levelo_inurba_marseille","lat":43.30554,"lon":5.38403,"is_reserved":false,"is_disabled":false,"rental_uris":{"android":"levelo://app?vid=c7450521-d755-4a9f-b086-70e9a327b30f","ios":"levelo://app?vid=c7450521-d755-4a9f-b086-70e9a327b30f"},"vehicle_type_id":"4","last_reported":1762895388,"current_range_meters":20400,"station_id":"ce4bgg92rcd13ifvqb30","pricing_plan_id":"cebpf4jnsgd1na2vs0mg"},{"bike_id":"97322d8c-d38c-47c3-850d-0d18a05c18c9","system_id":"levelo_inurba_marseille","lat":43.309357,"lon":5.401434,"is_reserved":false,"is_disabled":false,"rental_uris":{"android":"levelo://app?vid=97322d8c-d38c-47c3-850d-0d18a05c18c9","ios":"levelo://app?vid=97322d8c-d38c-47c3-850d-0d18a05c18c9"},"vehicle_type_id":"4","last_reported":1762895388,"current_range_meters":20400,"station_id":"ce4bh4p2rcd13ifvqe0g","pricing_plan_id":"cebpf4jnsgd1na2vs0mg"},{"bike_id":"1f10aa07-17b5-420e-b6f2-b695d3cbb769","system_id":"levelo_inurba_marseille","lat":43.30598,"lon":5.3936,"is_reserved":false,"is_disabled":true,"rental_uris":{"android":"levelo://app?vid=1f10aa07-17b5-420e-b6f2-b695d3cbb769","ios":"levelo://app?vid=1f10aa07-17b5-420e-b6f2-b695d3cbb769"},"vehicle_type_id":"4","last_reported":1762895388,"current_range_meters":20800,"station_id":"ce4bh0p2rcd13ifvqd80","pricing_plan_id":"cebpf4jnsgd1na2vs0mg"},{"bike_id":"bde68cd8-1b25-4aa4-afd9-6cc910e106d2","system_id":"levelo_inurba_marseille","lat":43.3376,"lon":5.37417,"is_reserved":false,"is_disabled":false,"rental_uris":{"android":"levelo://app?vid=bde68cd8-1b25-4aa4-afd9-6cc910e106d2","ios":"levelo://app?vid=bde68cd8-1b25-4aa4-afd9-6cc910e106d2"},"vehicle_type_id":"4","last_reported":1762895388,"current_range_meters":20800,"station_id":"","pricing_plan_id":"cebpf4jnsgd1na2vs0mg"},{"bike_id":"58be8180-967b-40b9-b299-90937a7eea47","system_id":"levelo_inurba_marseille","lat":43.28547,"lon":5.44091,"is_reserved":false,"is_disabled":false,"rental_uris":{"android":"levelo://app?vid=58be8180-967b-40b9-b299-90937a7eea47","ios":"levelo://app?vid=58be8180-967b-40b9-b299-90937a7eea47"},"vehicle_type_id":"4","last_reported":1762895388,"current_range_meters":20800,"station_id":"st_d3j3df2ikq2c7380ej80","pricing_plan_id":"cebpf4jnsgd1na2vs0mg"},{"bike_id":"84b55eed-27f2-4e91-afc0-8f6eda98d67e","system_id":"levelo_inurba_marseille","lat":43.312064,"lon":5.384711,"is_reserved":false,"is_disabled":false,"rental_uris":{"android":"levelo://app?vid=84b55eed-27f2-4e91-afc0-8f6eda98d67e","ios":"levelo://app?vid=84b55eed-27f2-4e91-afc0-8f6eda98d67e"},"vehicle_type_id":"4","last_reported":1762895388,"current_range_meters":20800,"station_id":"ce4bgt92rcd13ifvqcf0","pricing_plan_id":"cebpf4jnsgd1na2vs0mg"},{"bike_id":"248197b1-56da-49a0-ae3c-2d115c2e7768","system_id":"levelo_inurba_marseille","lat":43.267637,"lon":5.389208,"is_reserved":false,"is_disabled":false,"rental_uris":{"android":"levelo://app?vid=248197b1-56da-49a0-ae3c-2d115c2e7768","ios":"levelo://app?vid=248197b1-56da-49a0-ae3c-2d115c2e7768"},"vehicle_type_id":"4","last_reported":1762895388,"current_range_meters":20800,"station_id":"ce4bgih2rcd13ifvqba0","pricing_plan_id":"cebpf4jnsgd1na2vs0mg"},{"bike_id":"d6c318ec-de00-4180-a017-0a717b75d8da","system_id":"levelo_inurba_marseille","lat":43.24067,"lon":5.37753,"is_reserved":false,"is_disabled":false,"rental_uris":{"android":"levelo://app?vid=d6c318ec-de00-4180-a017-0a717b75d8da","ios":"levelo://app?vid=d6c318ec-de00-4180-a017-0a717b75d8da"},