{"last_updated":1744747888,"ttl":60,"version":"2.2","data":{"bikes":[{"bike_id":"0adb803e-8258-4988-9399-09ec6ebbc636","system_id":"levelo_inurba_marseille","lat":43.29957,"lon":5.38501,"is_reserved":false,"is_disabled":false,"rental_uris":{"android":"levelo://app?vid=0adb803e-8258-4988-9399-09ec6ebbc636","ios":"levelo://app?vid=0adb803e-8258-4988-9399-09ec6ebbc636"},"vehicle_type_id":"4","last_reported":1744747888,"current_range_meters":2000,"station_id":"ce4bgj92rcd13ifvqbd0","pricing_plan_id":"cebpf4jnsgd1na2vs0mg"},{"bike_id":"839cd8ff-4338-4b44-9167-8b9afbbf8442","system_id":"levelo_inurba_marseille","lat":43.28377,"lon":5.38631,"is_reserved":false,"is_disabled":false,"rental_uris":{"android":"levelo://app?vid=839cd8ff-4338-4b44-9167-8b9afbbf8442","ios":"levelo://app?vid=839cd8ff-4338-4b44-9167-8b9afbbf8442"},"vehicle_type_id":"4","last_reported":1744747888,"current_range_meters":2800,"station_id":"ce4bh492rcd13ifvqdvg","pricing_plan_id":"cebpf4jnsgd1na2vs0mg"},{"bike_id":"757e1c68-c7a9-45de-8515-da10156e677f","system_id":"levelo_inurba_marseille","lat":43.29033,"lon":5.38643,"is_reserved":false,"is_disabled":false,"rental_uris":{"android":"levelo://app?vid=757e1c68-c7a9-45de-8515-da10156e677f","ios":"levelo://app?vid=757e1c68-c7a9-45de-8515-da10156e677f"},"vehicle_type_id":"4","last_reported":1744747888,"current_range_meters":2800,"station_id":"ce4bh4p2rcd13ifvqe0g","pricing_plan_id":"cebpf4jnsgd1na2vs0mg"},{"bike_id":"af1decd3-5f35-47a8-98ba-e370f95aee5d","system_id":"levelo_inurba_marseille","lat":43.30523,"lon":5.38435,"is_reserved":false,"is_disabled":false,"rental_uris":{"android":"levelo://app?vid=af1decd3-5f35-47a8-98ba-e370f95aee5d","ios":"levelo://app?vid=af1decd3-5f35-47a8-98ba-e370f95aee5d"},"vehicle_type_id":"4","last_reported":1744747888,"current_range_meters":3600,"station_id":"ce4bgg92rcd13ifvqb30","pricing_plan_id":"cebpf4jnsgd1na2vs0mg"},{"bike_id":"7fbdf396-4d02-4110-8e0a-79461605b04f","system_id":"levelo_inurba_marseille","lat":43.281006,"lon":5.378416,"is_reserved":false,"is_disabled":false,"rental_uris":{"android":"levelo://app?vid=7fbdf396-4d02-4110-8e0a-79461605b04f","ios":"levelo://app?vid=7fbdf396-4d02-4110-8e0a-79461605b04f"},"vehicle_type_id":"4","last_reported":1744747888,"current_range_meters":3600,"station_id":"ce4bha12rcd13ifvqee0","pricing_plan_id":"cebpf4jnsgd1na2vs0mg"},{"bike_id":"bc549da8-7040-4e71-b0ff-4d9c594a2dfc","system_id":"levelo_inurba_marseille","lat":43.28151,"lon":5.42632,"is_reserved":false,"is_disabled":false,"rental_uris":{"android":"levelo://app?vid=bc549da8-7040-4e71-b0ff-4d9c594a2dfc","ios":"levelo://app?vid=bc549da8-7040-4e71-b0ff-4d9c594a2dfc"},"vehicle_type_id":"4","last_reported":1744747888,"current_range_meters":4000,"station_id":"ce4bhnh2rcd13ifvqgug","pricing_plan_id":"cebpf4jnsgd1na2vs0mg"},{"bike_id":"66d9901e-dd09-493e-abc0-647b0a2cb05d","system_id":"levelo_inurba_marseille","lat":43.21761,"lon":5.34638,"is_reserved":false,"is_disabled":false,"rental_uris":{"android":"levelo://app?vid=66d9901e-dd09-493e-abc0-647b0a2cb05d","ios":"levelo://app?vid=66d9901e-dd09-493e-abc0-647b0a2cb05d"},"vehicle_type_id":"4","last_reported":1744747888,"current_range_meters":4000,"station_id":"st_cvj6r9ubvosntc0bgbag","pricing_plan_id":"cebpf4jnsgd1na2vs0mg"},{"bike_id":"2ef68483-6643-4843-bcc8-0e46e0985a9d","system_id":"levelo_inurba_marseille","lat":43.25497,"lon":5.37648,"is_reserved":false,"is_disabled":false,"rental_uris":{"android":"levelo://app?vid=2ef68483-6643-4843-bcc8-0e46e0985a9d","ios":"levelo://app?vid=2ef68483-6643-4843-bcc8-0e46e0985a9d"},"vehicle_type_id":"4","last_reported":1744747888,"current_range_meters":4000,"station_id":"ce4bhh12rcd13ifvqff0","pricing_plan_id":"cebpf4jnsgd1na2vs0mg"},{"bike_id":"6873a504-6aea-4ea6-8f0a-fe1207771100","system_id":"levelo_inurba_marseille","lat":43.303089,"lon":5.391977,"is_reserved":false,"is_disabled":false,"rental_uris":{"android":"levelo://app?vid=6873a504-6aea-4ea6-8f0a-fe1207771100","ios":"levelo://app?vid=6873a504-6aea-4ea6-8f0a-fe1207771100"},"vehicle_type_id":"4","last_reported":1744747888,"current_range_meters":4400,"station_id":"ce4bgkh2rcd13ifvqbk0","pricing_plan_id":"cebpf4jnsgd1na2vs0mg"},{"bike_id":"1064b9a7-5947-42b0-b3ab-02b74ee64902","system_id":"levelo_inurba_marseille","lat":43.25006,"lon":5.38911,"is_reserved":false,"is_disabled":true,"rental_uris":{"android":"levelo://app?vid=1064b9a7-5947-42b0-b3ab-02b74ee64902","ios":"levelo://app?vid=1064b9a7-5947-42b0-b3ab-02b74ee64902"},"vehicle_type_id":"4","last_reported":1744747888,"current_range_meters":4800,"station_id":"ce4bhgp2rcd13ifvqfd0","pricing_plan_id":"cebpf4jnsgd1na2vs0mg"},{"bike_id":"0df259cd-a825-47f8-9fd5-28a596190fc0","system_id":"levelo_inurba_marseille","lat":43.28847,"lon":5.3931,"is_reserved":false,"is_disabled":false,"rental_uris":{"android":"levelo://app?vid=0df259cd-a825-47f8-9fd5-28a596190fc0","ios":"levelo://app?vid=0df259cd-a825-47f8-9fd5-28a596190fc0"},"vehicle_type_id":"4","last_reported":1744747888,"current_range_meters":5600,"station_id":"ce4bh2p2rcd13ifvqdi0","pricing_plan_id":"cebpf4jnsgd1na2vs0mg"},{"bike_id":"1c4e1731-9e75-4639-afec-6afd31db6cdf","system_id":"levelo_inurba_marseille","lat":43.30534,"lon":5.38418,"is_reserved":false,"is_disabled":false,"rental_uris":{"android":"levelo://app?vid=1c4e1731-9e75-4639-afec-6afd31db6cdf","ios":"levelo://app?vid=1c4e1731-9e75-4639-afec-6afd31db6cdf"},"vehicle_type_id":"4","last_reported":1744747888,"current_range_meters":6000,"station_id":"ce4bgg92rcd13ifvqb30","pricing_plan_id":"cebpf4jnsgd1na2vs0mg"},{"bike_id":"6e813554-554a-49dd-9009-02d95efd3de7","system_id":"levelo_inurba_marseille","lat":43.32427,"lon":5.3911,"is_reserved":false,"is_disabled":true,"rental_uris":{"android":"levelo://app?vid=6e813554-554a-49dd-9009-02d95efd3de7","ios":"levelo://app?vid=6e813554-554a-49dd-9009-02d95efd3de7"},"vehicle_type_id":"4","last_reported":1744747888,"current_range_meters":6000,"station_id":"","pricing_plan_id":"cebpf4jnsgd1na2vs0mg"},{"bike_id":"529a1c70-dcdc-420a-8199-d3437f56c524","system_id":"levelo_inurba_marseille","lat":43.29309,"lon":5.37155,"is_reserved":false,"is_disabled":false,"rental_uris":{"android":"levelo://app?vid=529a1c70-dcdc-420a-8199-d3437f56c524","ios":"levelo://app?vid=529a1c70-dcdc-420a-8199-d3437f56c524"},"vehicle_type_id":"4","last_reported":1744747888,"current_range_meters":6000,"station_id":"ce4bgh92rcd13ifvqb40","pricing_plan_id":"cebpf4jnsgd1na2vs0mg"},{"bike_id":"74fed4ac-1a06-47f3-85e0-c3aaae4a43a8","system_id":"levelo_inurba_marseille","lat":43.28719,"lon":5.36077,"is_reserved":false,"is_disabled":false,"rental_uris":{"android":"levelo://app?vid=74fed4ac-1a06-47f3-85e0-c3aaae4a43a8","ios":"levelo://app?vid=74fed4ac-1a06-47f3-85e0-c3aaae4a43a8"},"vehicle_type_id":"4","last_reported":1744747888,"current_range_meters":5600,"station_id":"cki0cbj6b192h4jlfktg","pricing_plan_id":"cebpf4jnsgd1na2vs0mg"},{"bike_id":"199910c8-c965-4472-894a-547fa8667c6b","system_id":"levelo_inurba_marseille","lat":43.28485,"lon":5.3587,"is_reserved":false,"is_disabled":false,"rental_uris":{"android":"levelo://app?vid=199910c8-c965-4472-894a-547fa8667c6b","ios":"levelo://app?vid=199910c8-c965-4472-894a-547fa8667c6b"},"vehicle_type_id":"4","last_reported":1744747888,"current_range_meters":6000,"station_id":"ce4bhah2rcd13ifvqei0","pricing_plan_id":"cebpf4jnsgd1na2vs0mg"},{"bike_id":"27d42bca-3c05-4b75-bab5-a758561ab609","system_id":"levelo_inurba_marseille","lat":43.284371,"lon":5.392044,"is_reserved":false,"is_disabled":false,"rental_uris":{"android":"levelo://app?vid=27d42bca-3c05-4b75-bab5-a758561ab609","ios":"levelo://app?vid=27d42bca-3c05-4b75-bab5-a758561ab609"},"vehicle_type_id":"4","last_reported":1744747888,"current_range_meters":6400,"station_id":"ce4bhoh2rcd13ifvqh5g","pricing_plan_id":"cebpf4jnsgd1na2vs0mg"},{"bike_id":"8fb9e7bc-8a04-4f5d-9440-892df4b1b295","system_id":"levelo_inurba_marseille","lat":43.309534,"lon":5.390224,"is_reserved":false,"is_disabled":true,"rental_uris":{"android":"levelo://app?vid=8fb9e7bc-8a04-4f5d-9440-892df4b1b295","ios":"levelo://app?vid=8fb9e7bc-8a04-4f5d-9440-892df4b1b295"},"vehicle_type_id":"4","last_reported":1744747888,"current_range_meters":6400,"station_id":"ce4bgup2rcd13ifvqco0","pricing_plan_id":"cebpf4jnsgd1na2vs0mg"},{"bike_id":"45c77ecd-980e-4383-ab9a-31be7a98a675","system_id":"levelo_inurba_marseille","lat":43.24076,"lon":5.37752,"is_reserved":false,"is_disabled":false,"rental_uris":{"android":"levelo://app?vid=45c77ecd-980e-4383-ab9a-31be7a98a675","ios":"levelo://app?vid=45c77ecd-980e-4383-ab9a-31be7a98a675"},"vehicle_type_id":"4","last_reported":1744747888,"current_range_meters":6400,"station_id":"ce4bhnp2rcd13ifvqgvg","pricing_plan_id":"cebpf4jnsgd1na2vs0mg"},{"bike_id":"4e6524b6-5132-41d3-a759-888a060ccf51","system_id":"levelo_inurba_marseille","lat":43.30048,"lon":5.36492,"is_reserved":false,"is_disabled":false,"rental_uris":{"android":"levelo://app?vid=4e6524b6-5132-41d3-a759-888a060ccf51","ios":"levelo://app?vid=4e6524b6-5132-41d3-a759-888a060ccf51"},"vehicle_type_id":"4","last_reported":1744747888,"current_range_meters":6800,"station_id":"","pricing_plan_id":"cebpf4jnsgd1na2vs0mg"},{"bike_id":"cbc427fb-38a2-4977-bce5-5c0b23cf8f99","system_id":"levelo_inurba_marseille","lat":43.28265,"lon":5.35084,"is_reserved":false,"is_disabled":false,"rental_uris":{"android":"levelo://app?vid=cbc427fb-38a2-4977-bce5-5c0b23cf8f99","ios":"levelo://app?vid=cbc427fb-38a2-4977-bce5-5c0b23cf8f99"},"vehicle_type_id":"4","last_reported":1744747888,"current_range_meters":6800,"station_id":"ce4bhbp2rcd13ifvqerg","pricing_plan_id":"cebpf4jnsgd1na2vs0mg"},{"bike_id":"0e262e1d-d85f-4b85-9573-166962666f8f","system_id":"levelo_inurba_marseille","lat":43.27063,"lon":5.42282,"is_reserved":false,"is_disabled":false,"rental_uris":{"android":"levelo://app?vid=0e262e1d-d85f-4b85-9573-166962666f8f","ios":"levelo://app?vid=0e262e1d-d85f-4b85-9573-166962666f8f"},"vehicle_type_id":"4","last_reported":1744747888,"current_range_meters":6800,"station_id":"ce4bhk92rcd13ifvqgb0","pricing_plan_id":"cebpf4jnsgd1na2vs0mg"},{"bike_id":"2f93173f-d02c-4e29-ab59-1fff882697d7","system_id":"levelo_inurba_marseille","lat":43.24064,"lon":5.37747,"is_reserved":false,"is_disabled":false,"rental_uris":{"android":"levelo://app?vid=2f93173f-d02c-4e29-ab59-1fff882697d7","ios":"levelo://app?vid=2f93173f-d02c-4e29-ab59-1fff882697d7"},"vehicle_type_id":"4","last_reported":1744747888,"current_range_meters":6800,"station_id":"ce4bhnp2rcd13ifvqgvg","pricing_plan_id":"cebpf4jnsgd1na2vs0mg"},{"bike_id":"e9ea4020-1e98-44a3-8789-412fa57cd95c","system_id":"levelo_inurba_marseille","lat":43.28839,"lon":5.39319,"is_reserved":false,"is_disabled":false,"rental_uris":{"android":"levelo://app?vid=e9ea4020-1e98-44a3-8789-412fa57cd95c","ios":"levelo://app?vid=e9ea4020-1e98-44a3-8789-412fa57cd95c"},"vehicle_type_id":"4","last_reported":1744747888,"current_range_meters":6400,"station_id":"ce4bh2p2rcd13ifvqdi0","pricing_plan_id":"cebpf4jnsgd1na2vs0mg"},{"bike_id":"5bab8e85-39ce-4674-b78b-7c9c30999b4a","system_id":"levelo_inurba_marseille","lat":43.280975,"lon":5.378319,"is_reserved":false,"is_disabled":false,"rental_uris":{"android":"levelo://app?vid=5bab8e85-39ce-4674-b78b-7c9c30999b4a","ios":"levelo://app?vid=5bab8e85-39ce-4674-b78b-7c9c30999b4a"},"vehicle_type_id":"4","last_reported":1744747888,"current_range_meters":800,"station_id":"ce4bha12rcd13ifvqee0","pricing_plan_id":"cebpf4jnsgd1na2vs0mg"},{"bike_id":"d64aa8f0-0884-41cf-84e6-ae25f8a6ae2a","system_id":"levelo_inurba_marseille","lat":43.28562,"lon":5.37763,"is_reserved":false,"is_disabled":false,"rental_uris":{"android":"levelo://app?vid=d64aa8f0-0884-41cf-84e6-ae25f8a6ae2a","ios":"levelo://app?vid=d64aa8f0-0884-41cf-84e6-ae25f8a6ae2a"},"vehicle_type_id":"4","last_reported":1744747888,"current_range_meters":6800,"station_id":"","pricing_plan_id":"cebpf4jnsgd1na2vs0mg"},{"bike_id":"e705baeb-f99f-4e66-8c31-5ba1b3f5805d","system_id":"levelo_inurba_marseille","lat":43.28467,"lon":5.35879,"is_reserved":false,"is_disabled":false,"rental_uris":{"android":"levelo://app?vid=e705baeb-f99f-4e66-8c31-5ba1b3f5805d","ios":"levelo://app?vid=e705baeb-f99f-4e66-8c31-5ba1b3f5805d"},"vehicle_type_id":"4","last_reported":1744747888,"current_range_meters":6400,"station_id":"ce4bhah2rcd13ifvqei0","pricing_plan_id":"cebpf4jnsgd1na2vs0mg"},{"bike_id":"a80e51e8-b9b7-4ef2-ae4a-c07765b39d73","system_id":"levelo_inurba_marseille","lat":43.28452,"lon":5.35883,"is_reserved":false,"is_disabled":false,"rental_uris":{"android":"levelo://app?vid=a80e51e8-b9b7-4ef2-ae4a-c07765b39d73","ios":"levelo://app?vid=a80e51e8-b9b7-4ef2-ae4a-c07765b39d73"},"vehicle_type_id":"4","last_reported":1744747888,"current_range_meters":7200,"station_id":"ce4bhah2rcd13ifvqei0","pricing_plan_id":"cebpf4jnsgd1na2vs0mg"},{"bike_id":"a548bab6-7dfb-457a-9a75-63b9e34d65d0","system_id":"levelo_inurba_marseille","lat":43.23187,"lon":5.3999,"is_reserved":false,"is_disabled":false,"rental_uris":{"android":"levelo://app?vid=a548bab6-7dfb-457a-9a75-63b9e34d65d0","ios":"levelo://app?vid=a548bab6-7dfb-457a-9a75-63b9e34d65d0"},"vehicle_type_id":"4","last_reported":1744747888,"current_range_meters":7200,"station_id":"ce4bhn12rcd13ifvqgqg","pricing_plan_id":"cebpf4jnsgd1na2vs0mg"},{"bike_id":"ed87816a-0690-4171-ac32-c3f2f170e77a","system_id":"levelo_inurba_marseille","lat":43.30249,"lon":5.400806,"is_reserved":false,"is_disabled":false,"rental_uris":{"android":"levelo://app?vid=ed87816a-0690-4171-ac32-c3f2f170e77a","ios":"levelo://app?vid=ed87816a-0690-4171-ac32-c3f2f170e77a"},"vehicle_type_id":"4","last_reported":1744747888,"current_range_meters":7200,"station_id":"ce4bgvh2rcd13ifvqcs0","pricing_plan_id":"cebpf4jnsgd1na2vs0mg"},{"bike_id":"8374ecc5-0b69-407b-88bb-a0fdea92e8be","system_id":"levelo_inurba_marseille","lat":43.27917,"lon":5.39584,"is_reserved":false,"is_disabled":false,"rental_uris":{"android":"levelo://app?vid=8374ecc5-0b69-407b-88bb-a0fdea92e8be","ios":"levelo://app?vid=8374ecc5-0b69-407b-88bb-a0fdea92e8be"},"vehicle_type_id":"4","last_reported":1744747888,"current_range_meters":7200,"station_id":"ce4bhf92rcd13ifvqf40","pricing_plan_id":"cebpf4jnsgd1na2vs0mg"},{"bike_id":"143d9ee1-6129-4ba3-86e1-b9274d441a83","system_id":"levelo_inurba_marseille","lat":43.28667,"lon":5.36339,"is_reserved":false,"is_disabled":false,"rental_uris":{"android":"levelo://app?vid=143d9ee1-6129-4ba3-86e1-b9274d441a83","ios":"levelo://app?vid=143d9ee1-6129-4ba3-86e1-b9274d441a83"},"vehicle_type_id":"4","last_reported":1744747888,"current_range_meters":7200,"station_id":"ce4bhah2rcd13ifvqej0","pricing_plan_id":"cebpf4jnsgd1na2vs0mg"},{"bike_id":"0bd58e5e-6bc1-43ab-a27d-11626e235c9a","system_id":"levelo_inurba_marseille","lat":43.32048,"lon":5.41569,"is_reserved":false,"is_disabled":false,"rental_uris":{"android":"levelo://app?vid=0bd58e5e-6bc1-43ab-a27d-11626e235c9a","ios":"levelo://app?vid=0bd58e5e-6bc1-43ab-a27d-11626e235c9a"},"vehicle_type_id":"4","last_reported":1744747888,"current_range_meters":7200,"station_id":"ce4bhq92rcd13ifvqhkg","pricing_plan_id":"cebpf4jnsgd1na2vs0mg"},{"bike_id":"3289406c-014c-4667-95e8-ffc11b8f5cda","system_id":"levelo_inurba_marseille","lat":43.29528,"lon":5.38542,"is_reserved":false,"is_disabled":false,"rental_uris":{"android":"levelo://app?vid=3289406c-014c-4667-95e8-ffc11b8f5cda","ios":"levelo://app?vid=3289406c-014c-4667-95e8-ffc11b8f5cda"},"vehicle_type_id":"4","last_reported":1744747888,"current_range_meters":7200,"station_id":"ce4bgih2rcd13ifvqba0","pricing_plan_id":"cebpf4jnsgd1na2vs0mg"},{"bike_id":"aadbb456-3ced-4608-8b71-1c88155ca242","system_id":"levelo_inurba_marseille","lat":43.27996,"lon":5.40016,"is_reserved":false,"is_disabled":false,"rental_uris":{"android":"levelo://app?vid=aadbb456-3ced-4608-8b71-1c88155ca242","ios":"levelo://app?vid=aadbb456-3ced-4608-8b71-1c88155ca242"},"vehicle_type_id":"4","last_reported":1744747888,"current_range_meters":7200,"station_id":"ce4bho92rcd13ifvqh4g","pricing_plan_id":"cebpf4jnsgd1na2vs0mg"},{"bike_id":"bb3fa259-4909-465e-99f8-7d363c8fd144","system_id":"levelo_inurba_marseille","lat":43.30632,"lon":5.40077,"is_reserved":false,"is_disabled":false,"rental_uris":{"android":"levelo://app?vid=bb3fa259-4909-465e-99f8-7d363c8fd144","ios":"levelo://app?vid=bb3fa259-4909-465e-99f8-7d363c8fd144"},"vehicle_type_id":"4","last_reported":1744747888,"current_range_meters":8000,"station_id":"ce4bh112rcd13ifvqda0","pricing_plan_id":"cebpf4jnsgd1na2vs0mg"},{"bike_id":"cae589eb-10af-4a8f-8ef6-1f6b43e97ea4","system_id":"levelo_inurba_marseille","lat":43.31069,"lon":5.38349,"is_reserved":false,"is_disabled":false,"rental_uris":{"android":"levelo://app?vid=cae589eb-10af-4a8f-8ef6-1f6b43e97ea4","ios":"levelo://app?vid=cae589eb-10af-4a8f-8ef6-1f6b43e97ea4"},"vehicle_type_id":"4","last_reported":1744747888,"current_range_meters":8000,"station_id":"ce4bgv92rcd13ifvqcr0","pricing_plan_id":"cebpf4jnsgd1na2vs0mg"},{"bike_id":"2aa60530-acd9-4f16-bd61-40754a4a77d3","system_id":"levelo_inurba_marseille","lat":43.29707,"lon":5.36616,"is_reserved":false,"is_disabled":false,"rental_uris":{"android":"levelo://app?vid=2aa60530-acd9-4f16-bd61-40754a4a77d3","ios":"levelo://app?vid=2aa60530-acd9-4f16-bd61-40754a4a77d3"},"vehicle_type_id":"4","last_reported":1744747888,"current_range_meters":8000,"station_id":"ce4bgn12rcd13ifvqbt0","pricing_plan_id":"cebpf4jnsgd1na2vs0mg"},{"bike_id":"207b15a7-69f1-4c4a-a29d-f91df1564475","system_id":"levelo_inurba_marseille","lat":43.2407,"lon":5.37723,"is_reserved":false,"is_disabled":false,"rental_uris":{"android":"levelo://app?vid=207b15a7-69f1-4c4a-a29d-f91df1564475","ios":"levelo://app?vid=207b15a7-69f1-4c4a-a29d-f91df1564475"},"vehicle_type_id":"4","last_reported":1744747888,"current_range_meters":8000,"station_id":"ce4bhnp2rcd13ifvqgvg","pricing_plan_id":"cebpf4jnsgd1na2vs0mg"},{"bike_id":"0ee6e897-9651-4b0c-92a1-8a45e96d9917","system_id":"levelo_inurba_marseille","lat":43.31323,"lon":5.3969,"is_reserved":false,"is_disabled":false,"rental_uris":{"android":"levelo://app?vid=0ee6e897-9651-4b0c-92a1-8a45e96d9917","ios":"levelo://app?vid=0ee6e897-9651-4b0c-92a1-8a45e96d9917"},"vehicle_type_id":"4","last_reported":1744747888,"current_range_meters":8000,"station_id":"ce4bgvp2rcd13ifvqcu0","pricing_plan_id":"cebpf4jnsgd1na2vs0mg"},{"bike_id":"ad4f0053-cdc4-4b5c-b1fa-51d4ed7339eb","system_id":"levelo_inurba_marseille","lat":43.28689,"lon":5.38648,"is_reserved":false,"is_disabled":false,"rental_uris":{"android":"levelo://app?vid=ad4f0053-cdc4-4b5c-b1fa-51d4ed7339eb","ios":"levelo://app?vid=ad4f0053-cdc4-4b5c-b1fa-51d4ed7339eb"},"vehicle_type_id":"4","last_reported":1744747888,"current_range_meters":8400,"station_id":"ce4bh492rcd13ifvqdug","pricing_plan_id":"cebpf4jnsgd1na2vs0mg"},{"bike_id":"2cc39d04-b391-482f-981c-35d8fb224818","system_id":"levelo_inurba_marseille","lat":43.27046,"lon":5.40259,"is_reserved":false,"is_disabled":false,"rental_uris":{"android":"levelo://app?vid=2cc39d04-b391-482f-981c-35d8fb224818","ios":"levelo://app?vid=2cc39d04-b391-482f-981c-35d8fb224818"},"vehicle_type_id":"4","last_reported":1744747888,"current_range_meters":8400,"station_id":"ce4bhk92rcd13ifvqgc0","pricing_plan_id":"cebpf4jnsgd1na2vs0mg"},{"bike_id":"c5107108-0687-4b26-9cb2-d45933dc9ad5","system_id":"levelo_inurba_marseille","lat":43.30641,"lon":5.40101,"is_reserved":false,"is_disabled":false,"rental_uris":{"android":"levelo://app?vid=c5107108-0687-4b26-9cb2-d45933dc9ad5","ios":"levelo://app?vid=c5107108-0687-4b26-9cb2-d45933dc9ad5"},"vehicle_type_id":"4","last_reported":1744747888,"current_range_meters":8400,"station_id":"ce4bh112rcd13ifvqda0","pricing_plan_id":"cebpf4jnsgd1na2vs0mg"},{"bike_id":"c273cedc-5337-4dec-91b4-1636fd7d09ad","system_id":"levelo_inurba_marseille","lat":43.31449,"lon":5.37616,"is_reserved":false,"is_disabled":false,"rental_uris":{"android":"levelo://app?vid=c273cedc-5337-4dec-91b4-1636fd7d09ad","ios":"levelo://app?vid=c273cedc-5337-4dec-91b4-1636fd7d09ad"},"vehicle_type_id":"4","last_reported":1744747888,"current_range_meters":8400,"station_id":"","pricing_plan_id":"cebpf4jnsgd1na2vs0mg"},{"bike_id":"427689a9-0cd4-4119-82a4-9e9bd7ecd185","system_id":"levelo_inurba_marseille","lat":43.2865,"lon":5.37027,"is_reserved":false,"is_disabled":false,"rental_uris":{"android":"levelo://app?vid=427689a9-0cd4-4119-82a4-9e9bd7ecd185","ios":"levelo://app?vid=427689a9-0cd4-4119-82a4-9e9bd7ecd185"},"vehicle_type_id":"4","last_reported":1744747888,"current_range_meters":8400,"station_id":"ce4bht12rcd13ifvqi60","pricing_plan_id":"cebpf4jnsgd1na2vs0mg"},{"bike_id":"a668abbc-a092-49f5-9124-b0b71b0d2e46","system_id":"levelo_inurba_marseille","lat":43.22941,"lon":5.3538,"is_reserved":false,"is_disabled":false,"rental_uris":{"android":"levelo://app?vid=a668abbc-a092-49f5-9124-b0b71b0d2e46","ios":"levelo://app?vid=a668abbc-a092-49f5-9124-b0b71b0d2e46"},"vehicle_type_id":"4","last_reported":1744747888,"current_range_meters":8400,"station_id":"cpo3532slgdg3j2ikp40","pricing_plan_id":"cebpf4jnsgd1na2vs0mg"},{"bike_id":"1395488a-de73-4c0c-99f8-ead07ddbb67d","system_id":"levelo_inurba_marseille","lat":43.24007,"lon":5.36676,"is_reserved":false,"is_disabled":false,"rental_uris":{"android":"levelo://app?vid=1395488a-de73-4c0c-99f8-ead07ddbb67d","ios":"levelo://app?vid=1395488a-de73-4c0c-99f8-ead07ddbb67d"},"vehicle_type_id":"4","last_reported":1744747888,"current_range_meters":8400,"station_id":"","pricing_plan_id":"cebpf4jnsgd1na2vs0mg"},{"bike_id":"376f754b-7bba-4962-babe-b49b1468281c","system_id":"levelo_inurba_marseille","lat":43.30922,"lon":5.40141,"is_reserved":false,"is_disabled":false,"rental_uris":{"android":"levelo://app?vid=376f754b-7bba-4962-babe-b49b1468281c","ios":"levelo://app?vid=376f754b-7bba-4962-babe-b49b1468281c"},"vehicle_type_id":"4","last_reported":1744747888,"current_range_meters":8400,"station_id":"ce4bgvp2rcd13ifvqct0","pricing_plan_id":"cebpf4jnsgd1na2vs0mg"},{"bike_id":"3a57fc53-9cb4-405e-b7b9-d474e79d8658","system_id":"levelo_inurba_marseille","lat":43.27839,"lon":5.39205,"is_reserved":false,"is_disabled":false,"rental_uris":{"android":"levelo://app?vid=3a57fc53-9cb4-405e-b7b9-d474e79d8658","ios":"levelo://app?vid=3a57fc53-9cb4-405e-b7b9-d474e79d8658"},"vehicle_type_id":"4","last_reported":1744747888,"current_range_meters":8400,"station_id":"ce4bhjp2rcd13ifvqga0","pricing_plan_id":"cebpf4jnsgd1na2vs0mg"},{"bike_id":"347598f2-7636-431d-aa2a-ee922a6e92de","system_id":"levelo_inurba_marseille","lat":43.28922,"lon":5.36393,"is_reserved":false,"is_disabled":false,"rental_uris":{"android":"levelo://app?vid=347598f2-7636-431d-aa2a-ee922a6e92de","ios":"levelo://app?vid=347598f2-7636-431d-aa2a-ee922a6e92de"},"vehicle_type_id":"4","last_reported":1744747888,"current_range_meters":8800,"station_id":"ce4bhc92rcd13ifvqetg","pricing_plan_id":"cebpf4jnsgd1na2vs0mg"},{"bike_id":"797dd5e2-da39-473a-b854-cceac2c9f546","system_id":"levelo_inurba_marseille","lat":43.28764,"lon":5.36058,"is_reserved":false,"is_disabled":false,"rental_uris":{"android":"levelo://app?vid=797dd5e2-da39-473a-b854-cceac2c9f546","ios":"levelo://app?vid=797dd5e2-da39-473a-b854-cceac2c9f546"},"vehicle_type_id":"4","last_reported":1744747888,"current_range_meters":8800,"station_id":"cki0cbj6b192h4jlfktg","pricing_plan_id":"cebpf4jnsgd1na2vs0mg"},{"bike_id":"3b74ab54-5151-41f4-a56c-2041acf8a2e0","system_id":"levelo_inurba_marseille","lat":43.31984,"lon":5.38281,"is_reserved":false,"is_disabled":false,"rental_uris":{"android":"levelo://app?vid=3b74ab54-5151-41f4-a56c-2041acf8a2e0","ios":"levelo://app?vid=3b74ab54-5151-41f4-a56c-2041acf8a2e0"},"vehicle_type_id":"4","last_reported":1744747888,"current_range_meters":8800,"station_id":"","pricing_plan_id":"cebpf4jnsgd1na2vs0mg"},{"bike_id":"27a55245-8dd2-4f1a-af63-95a9d7b71690","system_id":"levelo_inurba_marseille","lat":43.31073,"lon":5.378518,"is_reserved":false,"is_disabled":false,"rental_uris":{"android":"levelo://app?vid=27a55245-8dd2-4f1a-af63-95a9d7b71690","ios":"levelo://app?vid=27a55245-8dd2-4f1a-af63-95a9d7b71690"},"vehicle_type_id":"4","last_reported":1744747888,"current_range_meters":8800,"station_id":"","pricing_plan_id":"cebpf4jnsgd1na2vs0mg"},{"bike_id":"5fc32849-25a7-489e-845a-89ac8a2f42aa","system_id":"levelo_inurba_marseille","lat":43.2926,"lon":5.38435,"is_reserved":false,"is_disabled":false,"rental_uris":{"android":"levelo://app?vid=5fc32849-25a7-489e-845a-89ac8a2f42aa","ios":"levelo://app?vid=5fc32849-25a7-489e-845a-89ac8a2f42aa"},"vehicle_type_id":"4","last_reported":1744747888,"current_range_meters":9200,"station_id":"ce4bh692rcd13ifvqea0","pricing_plan_id":"cebpf4jnsgd1na2vs0mg"},{"bike_id":"78430a63-1c34-4f10-b7c2-6be0e5683ca9","system_id":"levelo_inurba_marseille","lat":43.295297,"lon":5.385463,"is_reserved":false,"is_disabled":false,"rental_uris":{"android":"levelo://app?vid=78430a63-1c34-4f10-b7c2-6be0e5683ca9","ios":"levelo://app?vid=78430a63-1c34-4f10-b7c2-6be0e5683ca9"},"vehicle_type_id":"4","last_reported":1744747888,"current_range_meters":9200,"station_id":"ce4bgih2rcd13ifvqba0","pricing_plan_id":"cebpf4jnsgd1na2vs0mg"},{"bike_id":"e1103876-639d-4bb4-8300-d22110ae76d3","system_id":"levelo_inurba_marseille","lat":43.27291,"lon":5.41079,"is_reserved":false,"is_disabled":false,"rental_uris":{"android":"levelo://app?vid=e1103876-639d-4bb4-8300-d22110ae76d3","ios":"levelo://app?vid=e1103876-639d-4bb4-8300-d22110ae76d3"},"vehicle_type_id":"4","last_reported":1744747888,"current_range_meters":9200,"station_id":"","pricing_plan_id":"cebpf4jnsgd1na2vs0mg"},{"bike_id":"a0636e31-c89e-4ae1-aea4-880988d0da0e","system_id":"levelo_inurba_marseille","lat":43.29566,"lon":5.42259,"is_reserved":false,"is_disabled":false,"rental_uris":{"android":"levelo://app?vid=a0636e31-c89e-4ae1-aea4-880988d0da0e","ios":"levelo://app?vid=a0636e31-c89e-4ae1-aea4-880988d0da0e"},"vehicle_type_id":"4","last_reported":1744747888,"current_range_meters":9200,"station_id":"ce4bhph2rcd13ifvqhdg","pricing_plan_id":"cebpf4jnsgd1na2vs0mg"},{"bike_id":"d2e989ff-73f4-4ec7-9c4d-c8889b226aaf","system_id":"levelo_inurba_marseille","lat":43.296309,"lon":5.377202,"is_reserved":false,"is_disabled":false,"rental_uris":{"android":"levelo://app?vid=d2e989ff-73f4-4ec7-9c4d-c8889b226aaf","ios":"levelo://app?vid=d2e989ff-73f4-4ec7-9c4d-c8889b226aaf"},"vehicle_type_id":"4","last_reported":1744747888,"current_range_meters":9200,"station_id":"ce4bh612rcd13ifvqe6g","pricing_plan_id":"cebpf4jnsgd1na2vs0mg"},{"bike_id":"3f6e6fd0-fab9-4f68-a6ca-15289375554f","system_id":"levelo_inurba_marseille","lat":43.27567,"lon":5.38421,"is_reserved":false,"is_disabled":false,"rental_uris":{"android":"levelo://app?vid=3f6e6fd0-fab9-4f68-a6ca-15289375554f","ios":"levelo://app?vid=3f6e6fd0-fab9-4f68-a6ca-15289375554f"},"vehicle_type_id":"4","last_reported":1744747888,"current_range_meters":9200,"station_id":"ce4bhh92rcd13ifvqfi0","pricing_plan_id":"cebpf4jnsgd1na2vs0mg"},{"bike_id":"45152fd8-c07c-4d52-b7a7-6670add35e00","system_id":"levelo_inurba_marseille","lat":43.261216,"lon":5.4207,"is_reserved":false,"is_disabled":false,"rental_uris":{"android":"levelo://app?vid=45152fd8-c07c-4d52-b7a7-6670add35e00","ios":"levelo://app?vid=45152fd8-c07c-4d52-b7a7-6670add35e00"},"vehicle_type_id":"4","last_reported":1744747888,"current_range_meters":9200,"station_id":"","pricing_plan_id":"cebpf4jnsgd1na2vs0mg"},{"bike_id":"8ad01582-139e-4521-af2b-dd4aedd66d09","system_id":"levelo_inurba_marseille","lat":43.25086,"lon":5.39511,"is_reserved":false,"is_disabled":false,"rental_uris":{"android":"levelo://app?vid=8ad01582-139e-4521-af2b-dd4aedd66d09","ios":"levelo://app?vid=8ad01582-139e-4521-af2b-dd4aedd66d09"},"vehicle_type_id":"4","last_reported":1744747888,"current_range_meters":9600,"station_id":"ce4bhm12rcd13ifvqgkg","pricing_plan_id":"cebpf4jnsgd1na2vs0mg"},{"bike_id":"b7ab99ba-94bb-4274-aca7-e6131d0e5ab1","system_id":"levelo_inurba_marseille","lat":43.2417,"lon":5.36394,"is_reserved":false,"is_disabled":false,"rental_uris":{"android":"levelo://app?vid=b7ab99ba-94bb-4274-aca7-e6131d0e5ab1","ios":"levelo://app?vid=b7ab99ba-94bb-4274-aca7-e6131d0e5ab1"},"vehicle_type_id":"4","last_reported":1744747888,"current_range_meters":9600,"station_id":"cpo36qri1sfpv3e86is0","pricing_plan_id":"cebpf4jnsgd1na2vs0mg"},{"bike_id":"ecc26774-7f80-4834-883f-3a8990a5fcbe","system_id":"levelo_inurba_marseille","lat":43.23929,"lon":5.36596,"is_reserved":false,"is_disabled":false,"rental_uris":{"android":"levelo://app?vid=ecc26774-7f80-4834-883f-3a8990a5fcbe","ios":"levelo://app?vid=ecc26774-7f80-4834-883f-3a8990a5fcbe"},"vehicle_type_id":"4","last_reported":1744747888,"current_range_meters":9600,"station_id":"ce4bhi12rcd13ifvqfp0","pricing_plan_id":"cebpf4jnsgd1na2vs0mg"},{"bike_id":"803ce35a-c634-48c2-a8a2-643b90ca630c","system_id":"levelo_inurba_marseille","lat":43.31072,"lon":5.38355,"is_reserved":false,"is_disabled":false,"rental_uris":{"android":"levelo://app?vid=803ce35a-c634-48c2-a8a2-643b90ca630c","ios":"levelo://app?vid=803ce35a-c634-48c2-a8a2-643b90ca630c"},"vehicle_type_id":"4","last_reported":1744747888,"current_range_meters":9600,"station_id":"ce4bgv92rcd13ifvqcr0","pricing_plan_id":"cebpf4jnsgd1na2vs0mg"},{"bike_id":"6086be1f-2f41-4b8c-9ce9-011bcea915da","system_id":"levelo_inurba_marseille","lat":43.31319,"lon":5.3733,"is_reserved":false,"is_disabled":false,"rental_uris":{"android":"levelo://app?vid=6086be1f-2f41-4b8c-9ce9-011bcea915da","ios":"levelo://app?vid=6086be1f-2f41-4b8c-9ce9-011bcea915da"},"vehicle_type_id":"4","last_reported":1744747888,"current_range_meters":9600,"station_id":"","pricing_plan_id":"cebpf4jnsgd1na2vs0mg"},{"bike_id":"4ca1fc76-01c8-4686-94a5-a46dd951837f","system_id":"levelo_inurba_marseille","lat":43.27843,"lon":5.40719,"is_reserved":false,"is_disabled":false,"rental_uris":{"android":"levelo://app?vid=4ca1fc76-01c8-4686-94a5-a46dd951837f","ios":"levelo://app?vid=4ca1fc76-01c8-4686-94a5-a46dd951837f"},"vehicle_type_id":"4","last_reported":1744747888,"current_range_meters":9600,"station_id":"ce4bhnh2rcd13ifvqgtg","pricing_plan_id":"cebpf4jnsgd1na2vs0mg"},{"bike_id":"00c43884-9cc5-4bc8-b29d-2fe7b64e043c","system_id":"levelo_inurba_marseille","lat":43.30926,"lon":5.40143,"is_reserved":false,"is_disabled":false,"rental_uris":{"android":"levelo://app?vid=00c43884-9cc5-4bc8-b29d-2fe7b64e043c","ios":"levelo://app?vid=00c43884-9cc5-4bc8-b29d-2fe7b64e043c"},"vehicle_type_id":"4","last_reported":1744747888,"current_range_meters":9600,"station_id":"ce4bgvp2rcd13ifvqct0","pricing_plan_id":"cebpf4jnsgd1na2vs0mg"},{"bike_id":"04af032a-b271-496d-a38e-8e0daf2b640a","system_id":"levelo_inurba_marseille","lat":43.31487,"lon":5.37307,"is_reserved":false,"is_disabled":false,"rental_uris":{"android":"levelo://app?vid=04af032a-b271-496d-a38e-8e0daf2b640a","ios":"levelo://app?vid=04af032a-b271-496d-a38e-8e0daf2b640a"},"vehicle_type_id":"4","last_reported":1744747888,"current_range_meters":9600,"station_id":"ce4bgt12rcd13ifvqcd0","pricing_plan_id":"cebpf4jnsgd1na2vs0mg"},{"bike_id":"3f2e7cd2-ff5b-43ff-bd98-5fc8e964cd33","system_id":"levelo_inurba_marseille","lat":43.302188,"lon":5.394728,"is_reserved":false,"is_disabled":false,"rental_uris":{"android":"levelo://app?vid=3f2e7cd2-ff5b-43ff-bd98-5fc8e964cd33","ios":"levelo://app?vid=3f2e7cd2-ff5b-43ff-bd98-5fc8e964cd33"},"vehicle_type_id":"4","last_reported":1744747888,"current_range_meters":10000,"station_id":"ce4bh0p2rcd13ifvqd70","pricing_plan_id":"cebpf4jnsgd1na2vs0mg"},{"bike_id":"f9e5186e-c8c6-4c32-a6e4-fada6cb1325e","system_id":"levelo_inurba_marseille","lat":43.29264,"lon":5.40883,"is_reserved":false,"is_disabled":false,"rental_uris":{"android":"levelo://app?vid=f9e5186e-c8c6-4c32-a6e4-fada6cb1325e","ios":"levelo://app?vid=f9e5186e-c8c6-4c32-a6e4-fada6cb1325e"},"vehicle_type_id":"4","last_reported":1744747888,"current_range_meters":10000,"station_id":"ce4bh192rcd13ifvqdc0","pricing_plan_id":"cebpf4jnsgd1na2vs0mg"},{"bike_id":"15565c3c-c3c7-4e13-8b84-8d4d4eb2e97f","system_id":"levelo_inurba_marseille","lat":43.29247,"lon":5.36682,"is_reserved":false,"is_disabled":false,"rental_uris":{"android":"levelo://app?vid=15565c3c-c3c7-4e13-8b84-8d4d4eb2e97f","ios":"levelo://app?vid=15565c3c-c3c7-4e13-8b84-8d4d4eb2e97f"},"vehicle_type_id":"4","last_reported":1744747888,"current_range_meters":10000,"station_id":"ce4bh412rcd13ifvqdr0","pricing_plan_id":"cebpf4jnsgd1na2vs0mg"},{"bike_id":"4a2fdfe9-5135-4bdb-800a-463a15252b7b","system_id":"levelo_inurba_marseille","lat":43.28195,"lon":5.42614,"is_reserved":false,"is_disabled":false,"rental_uris":{"android":"levelo://app?vid=4a2fdfe9-5135-4bdb-800a-463a15252b7b","ios":"levelo://app?vid=4a2fdfe9-5135-4bdb-800a-463a15252b7b"},"vehicle_type_id":"4","last_reported":1744747888,"current_range_meters":10000,"station_id":"","pricing_plan_id":"cebpf4jnsgd1na2vs0mg"},{"bike_id":"0fd099b3-408a-48e0-94de-f2c1ae3e1b4b","system_id":"levelo_inurba_marseille","lat":43.30299,"lon":5.36897,"is_reserved":false,"is_disabled":false,"rental_uris":{"android":"levelo://app?vid=0fd099b3-408a-48e0-94de-f2c1ae3e1b4b","ios":"levelo://app?vid=0fd099b3-408a-48e0-94de-f2c1ae3e1b4b"},"vehicle_type_id":"4","last_reported":1744747888,"current_range_meters":10000,"station_id":"ce4bgqh2rcd13ifvqc5g","pricing_plan_id":"cebpf4jnsgd1na2vs0mg"},{"bike_id":"37342bdf-d586-43ba-a25b-da22b3393da6","system_id":"levelo_inurba_marseille","lat":43.29163,"lon":5.37511,"is_reserved":false,"is_disabled":false,"rental_uris":{"android":"levelo://app?vid=37342bdf-d586-43ba-a25b-da22b3393da6","ios":"levelo://app?vid=37342bdf-d586-43ba-a25b-da22b3393da6"},"vehicle_type_id":"4","last_reported":1744747888,"current_range_meters":10000,"station_id":"","pricing_plan_id":"cebpf4jnsgd1na2vs0mg"},{"bike_id":"4c22d308-9236-442a-b4cb-a99690cb45a2","system_id":"levelo_inurba_marseille","lat":43.23183,"lon":5.39982,"is_reserved":false,"is_disabled":false,"rental_uris":{"android":"levelo://app?vid=4c22d308-9236-442a-b4cb-a99690cb45a2","ios":"levelo://app?vid=4c22d308-9236-442a-b4cb-a99690cb45a2"},"vehicle_type_id":"4","last_reported":1744747888,"current_range_meters":10000,"station_id":"ce4bhn12rcd13ifvqgqg","pricing_plan_id":"cebpf4jnsgd1na2vs0mg"},{"bike_id":"cdf46a3b-6926-43b1-bded-5b1a06e1a4e3","system_id":"levelo_inurba_marseille","lat":43.29282,"lon":5.40119,"is_reserved":false,"is_disabled":false,"rental_uris":{"android":"levelo://app?vid=cdf46a3b-6926-43b1-bded-5b1a06e1a4e3","ios":"levelo://app?vid=cdf46a3b-6926-43b1-bded-5b1a06e1a4e3"},"vehicle_type_id":"4","last_reported":1744747888,"current_range_meters":10000,"station_id":"ce4bh312rcd13ifvqdk0","pricing_plan_id":"cebpf4jnsgd1na2vs0mg"},{"bike_id":"288e7a5f-2cfb-4301-9dae-a03607404f51","system_id":"levelo_inurba_marseille","lat":43.3347,"lon":5.40091,"is_reserved":false,"is_disabled":false,"rental_uris":{"android":"levelo://app?vid=288e7a5f-2cfb-4301-9dae-a03607404f51","ios":"levelo://app?vid=288e7a5f-2cfb-4301-9dae-a03607404f51"},"vehicle_type_id":"4","last_reported":1744747888,"current_range_meters":10800,"station_id":"","pricing_plan_id":"cebpf4jnsgd1na2vs0mg"},{"bike_id":"7a2e094b-19fc-4112-8f78-d6e65b66137c","system_id":"levelo_inurba_marseille","lat":43.30319,"lon":5.40438,"is_reserved":false,"is_disabled":false,"rental_uris":{"android":"levelo://app?vid=7a2e094b-19fc-4112-8f78-d6e65b66137c","ios":"levelo://app?vid=7a2e094b-19fc-4112-8f78-d6e65b66137c"},"vehicle_type_id":"4","last_reported":1744747888,"current_range_meters":10800,"station_id":"ce4bh012rcd13ifvqd10","pricing_plan_id":"cebpf4jnsgd1na2vs0mg"},{"bike_id":"86889a30-090c-4f06-935c-a6b2cb813d4f","system_id":"levelo_inurba_marseille","lat":43.317623,"lon":5.424609,"is_reserved":false,"is_disabled":false,"rental_uris":{"android":"levelo://app?vid=86889a30-090c-4f06-935c-a6b2cb813d4f","ios":"levelo://app?vid=86889a30-090c-4f06-935c-a6b2cb813d4f"},"vehicle_type_id":"4","last_reported":1744747888,"current_range_meters":10800,"station_id":"ce4bhp92rcd13ifvqhbg","pricing_plan_id":"cebpf4jnsgd1na2vs0mg"},{"bike_id":"cc019aaa-33a8-42d2-a2d4-ef26fcdd651f","system_id":"levelo_inurba_marseille","lat":43.30797,"lon":5.37313,"is_reserved":false,"is_disabled":false,"rental_uris":{"android":"levelo://app?vid=cc019aaa-33a8-42d2-a2d4-ef26fcdd651f","ios":"levelo://app?vid=cc019aaa-33a8-42d2-a2d4-ef26fcdd651f"},"vehicle_type_id":"4","last_reported":1744747888,"current_range_meters":10800,"station_id":"","pricing_plan_id":"cebpf4jnsgd1na2vs0mg"},{"bike_id":"5bfcadf5-cd68-46cf-b192-1deb4b917e76","system_id":"levelo_inurba_marseille","lat":43.28176,"lon":5.42626,"is_reserved":false,"is_disabled":false,"rental_uris":{"android":"levelo://app?vid=5bfcadf5-cd68-46cf-b192-1deb4b917e76","ios":"levelo://app?vid=5bfcadf5-cd68-46cf-b192-1deb4b917e76"},"vehicle_type_id":"4","last_reported":1744747888,"current_range_meters":10800,"station_id":"ce4bhnh2rcd13ifvqgug","pricing_plan_id":"cebpf4jnsgd1na2vs0mg"},{"bike_id":"7ca5fc71-e75b-49aa-87e6-6273562461c3","system_id":"levelo_inurba_marseille","lat":43.29321,"lon":5.38418,"is_reserved":false,"is_disabled":false,"rental_uris":{"android":"levelo://app?vid=7ca5fc71-e75b-49aa-87e6-6273562461c3","ios":"levelo://app?vid=7ca5fc71-e75b-49aa-87e6-6273562461c3"},"vehicle_type_id":"4","last_reported":1744747888,"current_range_meters":10800,"station_id":"","pricing_plan_id":"cebpf4jnsgd1na2vs0mg"},{"bike_id":"64b02356-293d-479b-8d5c-aaa5e030ea0f","system_id":"levelo_inurba_marseille","lat":43.28096,"lon":5.37838,"is_reserved":false,"is_disabled":false,"rental_uris":{"android":"levelo://app?vid=64b02356-293d-479b-8d5c-aaa5e030ea0f","ios":"levelo://app?vid=64b02356-293d-479b-8d5c-aaa5e030ea0f"},"vehicle_type_id":"4","last_reported":1744747888,"current_range_meters":10800,"station_id":"ce4bha12rcd13ifvqee0","pricing_plan_id":"cebpf4jnsgd1na2vs0mg"},{"bike_id":"ef28e595-22b1-4e7c-8f9f-3d030b1f53eb","system_id":"levelo_inurba_marseille","lat":43.30167,"lon":5.37472,"is_reserved":false,"is_disabled":false,"rental_uris":{"android":"levelo://app?vid=ef28e595-22b1-4e7c-8f9f-3d030b1f53eb","ios":"levelo://app?vid=ef28e595-22b1-4e7c-8f9f-3d030b1f53eb"},"vehicle_type_id":"4","last_reported":1744747888,"current_range_meters":10800,"station_id":"","pricing_plan_id":"cebpf4jnsgd1na2vs0mg"},{"bike_id":"f8d7f4dc-52ba-4442-ad7a-69218560bc30","system_id":"levelo_inurba_marseille","lat":43.29288,"lon":5.40117,"is_reserved":false,"is_disabled":false,"rental_uris":{"android":"levelo://app?vid=f8d7f4dc-52ba-4442-ad7a-69218560bc30","ios":"levelo://app?vid=f8d7f4dc-52ba-4442-ad7a-69218560bc30"},"vehicle_type_id":"4","last_reported":1744747888,"current_range_meters":11200,"station_id":"ce4bh312rcd13ifvqdk0","pricing_plan_id":"cebpf4jnsgd1na2vs0mg"},{"bike_id":"d3a0fbcc-8789-46e3-ad8a-8c877abb0794","system_id":"levelo_inurba_marseille","lat":43.29896,"lon":5.39742,"is_reserved":false,"is_disabled":false,"rental_uris":{"android":"levelo://app?vid=d3a0fbcc-8789-46e3-ad8a-8c877abb0794","ios":"levelo://app?vid=d3a0fbcc-8789-46e3-ad8a-8c877abb0794"},"vehicle_type_id":"4","last_reported":1744747888,"current_range_meters":11600,"station_id":"ce4bh0h2rcd13ifvqd50","pricing_plan_id":"cebpf4jnsgd1na2vs0mg"},{"bike_id":"18c9790e-e49c-47a2-89e7-69addef36497","system_id":"levelo_inurba_marseille","lat":43.303313,"lon":5.40427,"is_reserved":false,"is_disabled":false,"rental_uris":{"android":"levelo://app?vid=18c9790e-e49c-47a2-89e7-69addef36497","ios":"levelo://app?vid=18c9790e-e49c-47a2-89e7-69addef36497"},"vehicle_type_id":"4","last_reported":1744747888,"current_range_meters":11200,"station_id":"ce4bh012rcd13ifvqd10","pricing_plan_id":"cebpf4jnsgd1na2vs0mg"},{"bike_id":"bb1ce8f3-c5d0-4a28-9d1b-a251f8019cc5","system_id":"levelo_inurba_marseille","lat":43.2909,"lon":5.38134,"is_reserved":false,"is_disabled":false,"rental_uris":{"android":"levelo://app?vid=bb1ce8f3-c5d0-4a28-9d1b-a251f8019cc5","ios":"levelo://app?vid=bb1ce8f3-c5d0-4a28-9d1b-a251f8019cc5"},"vehicle_type_id":"4","last_reported":1744747888,"current_range_meters":11200,"station_id":"ce4bh512rcd13ifvqe2g","pricing_plan_id":"cebpf4jnsgd1na2vs0mg"},{"bike_id":"d2d37f01-fa46-4fbc-a721-7789f4003663","system_id":"levelo_inurba_marseille","lat":43.2497,"lon":5.38946,"is_reserved":false,"is_disabled":false,"rental_uris":{"android":"levelo://app?vid=d2d37f01-fa46-4fbc-a721-7789f4003663","ios":"levelo://app?vid=d2d37f01-fa46-4fbc-a721-7789f4003663"},"vehicle_type_id":"4","last_reported":1744747888,"current_range_meters":11200,"station_id":"ce4bhgp2rcd13ifvqfd0","pricing_plan_id":"cebpf4jnsgd1na2vs0mg"},{"bike_id":"216d3497-6990-4841-8120-cedd33bcf19b","system_id":"levelo_inurba_marseille","lat":43.29429,"lon":5.39747,"is_reserved":false,"is_disabled":false,"rental_uris":{"android":"levelo://app?vid=216d3497-6990-4841-8120-cedd33bcf19b","ios":"levelo://app?vid=216d3497-6990-4841-8120-cedd33bcf19b"},"vehicle_type_id":"4","last_reported":1744747888,"current_range_meters":11200,"station_id":"ce4bh3h2rcd13ifvqdo0","pricing_plan_id":"cebpf4jnsgd1na2vs0mg"},{"bike_id":"45155c3e-d9dd-443f-9db5-3129e2339708","system_id":"levelo_inurba_marseille","lat":43.2319,"lon":5.39981,"is_reserved":false,"is_disabled":false,"rental_uris":{"android":"levelo://app?vid=45155c3e-d9dd-443f-9db5-3129e2339708","ios":"levelo://app?vid=45155c3e-d9dd-443f-9db5-3129e2339708"},"vehicle_type_id":"4","last_reported":1744747888,"current_range_meters":11200,"station_id":"ce4bhn12rcd13ifvqgqg","pricing_plan_id":"cebpf4jnsgd1na2vs0mg"},{"bike_id":"b8fc41cd-41c8-4b48-bacc-bbafb8e021c1","system_id":"levelo_inurba_marseille","lat":43.31324,"lon":5.39702,"is_reserved":false,"is_disabled":false,"rental_uris":{"android":"levelo://app?vid=b8fc41cd-41c8-4b48-bacc-bbafb8e021c1","ios":"levelo://app?vid=b8fc41cd-41c8-4b48-bacc-bbafb8e021c1"},"vehicle_type_id":"4","last_reported":1744747888,"current_range_meters":11600,"station_id":"ce4bgvp2rcd13ifvqcu0","pricing_plan_id":"cebpf4jnsgd1na2vs0mg"},{"bike_id":"2797dcdb-c4e1-48b2-82d6-5677d371fa39","system_id":"levelo_inurba_marseille","lat":43.24166,"lon":5.36386,"is_reserved":false,"is_disabled":false,"rental_uris":{"android":"levelo://app?vid=2797dcdb-c4e1-48b2-82d6-5677d371fa39","ios":"levelo://app?vid=2797dcdb-c4e1-48b2-82d6-5677d371fa39"},"vehicle_type_id":"4","last_reported":1744747888,"current_range_meters":11600,"station_id":"cpo36qri1sfpv3e86is0","pricing_plan_id":"cebpf4jnsgd1na2vs0mg"},{"bike_id":"98a1f66a-6008-4877-8fe3-0bca1c5aaa2a","system_id":"levelo_inurba_marseille","lat":43.28262,"lon":5.35082,"is_reserved":false,"is_disabled":false,"rental_uris":{"android":"levelo://app?vid=98a1f66a-6008-4877-8fe3-0bca1c5aaa2a","ios":"levelo://app?vid=98a1f66a-6008-4877-8fe3-0bca1c5aaa2a"},"vehicle_type_id":"4","last_reported":1744747888,"current_range_meters":11600,"station_id":"ce4bhbp2rcd13ifvqerg","pricing_plan_id":"cebpf4jnsgd1na2vs0mg"},{"bike_id":"46b9d12b-d4e5-481e-8406-452fd0e34662","system_id":"levelo_inurba_marseille","lat":43.31322,"lon":5.39685,"is_reserved":false,"is_disabled":false,"rental_uris":{"android":"levelo://app?vid=46b9d12b-d4e5-481e-8406-452fd0e34662","ios":"levelo://app?vid=46b9d12b-d4e5-481e-8406-452fd0e34662"},"vehicle_type_id":"4","last_reported":1744747888,"current_range_meters":11600,"station_id":"ce4bgvp2rcd13ifvqcu0","pricing_plan_id":"cebpf4jnsgd1na2vs0mg"},{"bike_id":"2ec1e437-5a23-4fcb-b9d7-0ae33e3d49ea","system_id":"levelo_inurba_marseille","lat":43.24062,"lon":5.37762,"is_reserved":false,"is_disabled":false,"rental_uris":{"android":"levelo://app?vid=2ec1e437-5a23-4fcb-b9d7-0ae33e3d49ea","ios":"levelo://app?vid=2ec1e437-5a23-4fcb-b9d7-0ae33e3d49ea"},"vehicle_type_id":"4","last_reported":1744747888,"current_range_meters":12000,"station_id":"ce4bhnp2rcd13ifvqgvg","pricing_plan_id":"cebpf4jnsgd1na2vs0mg"},{"bike_id":"68bb5c2f-fd19-492d-b0bb-5841e6724b4a","system_id":"levelo_inurba_marseille","lat":43.22956,"lon":5.35343,"is_reserved":false,"is_disabled":false,"rental_uris":{"android":"levelo://app?vid=68bb5c2f-fd19-492d-b0bb-5841e6724b4a","ios":"levelo://app?vid=68bb5c2f-fd19-492d-b0bb-5841e6724b4a"},"vehicle_type_id":"4","last_reported":1744747888,"current_range_meters":12000,"station_id":"cpo3532slgdg3j2ikp40","pricing_plan_id":"cebpf4jnsgd1na2vs0mg"},{"bike_id":"4bf95762-f540-4a84-9062-209f02f6ed6a","system_id":"levelo_inurba_marseille","lat":43.29242,"lon":5.38436,"is_reserved":false,"is_disabled":true,"rental_uris":{"android":"levelo://app?vid=4bf95762-f540-4a84-9062-209f02f6ed6a","ios":"levelo://app?vid=4bf95762-f540-4a84-9062-209f02f6ed6a"},"vehicle_type_id":"4","last_reported":1744747888,"current_range_meters":12000,"station_id":"ce4bh692rcd13ifvqea0","pricing_plan_id":"cebpf4jnsgd1na2vs0mg"},{"bike_id":"03c8cee0-a6a5-48f4-b783-f14451736b24","system_id":"levelo_inurba_marseille","lat":43.2716,"lon":5.41004,"is_reserved":false,"is_disabled":false,"rental_uris":{"android":"levelo://app?vid=03c8cee0-a6a5-48f4-b783-f14451736b24","ios":"levelo://app?vid=03c8cee0-a6a5-48f4-b783-f14451736b24"},"vehicle_type_id":"4","last_reported":1744747888,"current_range_meters":12000,"station_id":"ce4bhl12rcd13ifvqgf0","pricing_plan_id":"cebpf4jnsgd1na2vs0mg"},{"bike_id":"075fcdf5-b249-40b2-bc7e-7ad517887fb8","system_id":"levelo_inurba_marseille","lat":43.27501,"lon":5.42469,"is_reserved":false,"is_disabled":false,"rental_uris":{"android":"levelo://app?vid=075fcdf5-b249-40b2-bc7e-7ad517887fb8","ios":"levelo://app?vid=075fcdf5-b249-40b2-bc7e-7ad517887fb8"},"vehicle_type_id":"4","last_reported":1744747888,"current_range_meters":12000,"station_id":"ce4bhn92rcd13ifvqgrg","pricing_plan_id":"cebpf4jnsgd1na2vs0mg"},{"bike_id":"dd8f0ff9-117f-4fd9-bc7c-ef5d85c7f322","system_id":"levelo_inurba_marseille","lat":43.3199,"lon":5.38147,"is_reserved":false,"is_disabled":false,"rental_uris":{"android":"levelo://app?vid=dd8f0ff9-117f-4fd9-bc7c-ef5d85c7f322","ios":"levelo://app?vid=dd8f0ff9-117f-4fd9-bc7c-ef5d85c7f322"},"vehicle_type_id":"4","last_reported":1744747888,"current_range_meters":12400,"station_id":"ce4bhr12rcd13ifvqhpg","pricing_plan_id":"cebpf4jnsgd1na2vs0mg"},{"bike_id":"ddc48f36-a9f7-4cd3-be5d-6fc7efa3c3d9","system_id":"levelo_inurba_marseille","lat":43.31334,"lon":5.39685,"is_reserved":false,"is_disabled":false,"rental_uris":{"android":"levelo://app?vid=ddc48f36-a9f7-4cd3-be5d-6fc7efa3c3d9","ios":"levelo://app?vid=ddc48f36-a9f7-4cd3-be5d-6fc7efa3c3d9"},"vehicle_type_id":"4","last_reported":1744747888,"current_range_meters":12000,"station_id":"ce4bgvp2rcd13ifvqcu0","pricing_plan_id":"cebpf4jnsgd1na2vs0mg"},{"bike_id":"982b1a86-cd40-472c-8020-39a4110d0e44","system_id":"levelo_inurba_marseille","lat":43.31067,"lon":5.38349,"is_reserved":false,"is_disabled":false,"rental_uris":{"android":"levelo://app?vid=982b1a86-cd40-472c-8020-39a4110d0e44","ios":"levelo://app?vid=982b1a86-cd40-472c-8020-39a4110d0e44"},"vehicle_type_id":"4","last_reported":1744747888,"current_range_meters":12400,"station_id":"ce4bgv92rcd13ifvqcr0","pricing_plan_id":"cebpf4jnsgd1na2vs0mg"},{"bike_id":"ac93b782-2c24-4c21-8bf5-8e2a67f7cc1b","system_id":"levelo_inurba_marseille","lat":43.27551,"lon":5.38428,"is_reserved":false,"is_disabled":false,"rental_uris":{"android":"levelo://app?vid=ac93b782-2c24-4c21-8bf5-8e2a67f7cc1b","ios":"levelo://app?vid=ac93b782-2c24-4c21-8bf5-8e2a67f7cc1b"},"vehicle_type_id":"4","last_reported":1744747888,"current_range_meters":12400,"station_id":"ce4bhh92rcd13ifvqfi0","pricing_plan_id":"cebpf4jnsgd1na2vs0mg"},{"bike_id":"0c5eb354-565d-4f20-a51d-f9bf31d72b48","system_id":"levelo_inurba_marseille","lat":43.31886,"lon":5.4074,"is_reserved":false,"is_disabled":false,"rental_uris":{"android":"levelo://app?vid=0c5eb354-565d-4f20-a51d-f9bf31d72b48","ios":"levelo://app?vid=0c5eb354-565d-4f20-a51d-f9bf31d72b48"},"vehicle_type_id":"4","last_reported":1744747888,"current_range_meters":12800,"station_id":"ce4bhq12rcd13ifvqhig","pricing_plan_id":"cebpf4jnsgd1na2vs0mg"},{"bike_id":"20655b5c-59a4-4c2f-93a3-52336817ff17","system_id":"levelo_inurba_marseille","lat":43.3133,"lon":5.3969,"is_reserved":false,"is_disabled":false,"rental_uris":{"android":"levelo://app?vid=20655b5c-59a4-4c2f-93a3-52336817ff17","ios":"levelo://app?vid=20655b5c-59a4-4c2f-93a3-52336817ff17"},"vehicle_type_id":"4","last_reported":1744747888,"current_range_meters":12400,"station_id":"ce4bgvp2rcd13ifvqcu0","pricing_plan_id":"cebpf4jnsgd1na2vs0mg"},{"bike_id":"a8132d22-4ce6-4e24-9e2c-e02042e4181b","system_id":"levelo_inurba_marseille","lat":43.21739,"lon":5.34609,"is_reserved":false,"is_disabled":false,"rental_uris":{"android":"levelo://app?vid=a8132d22-4ce6-4e24-9e2c-e02042e4181b","ios":"levelo://app?vid=a8132d22-4ce6-4e24-9e2c-e02042e4181b"},"vehicle_type_id":"4","last_reported":1744747888,"current_range_meters":13600,"station_id":"st_cvj6r9ubvosntc0bgbag","pricing_plan_id":"cebpf4jnsgd1na2vs0mg"},{"bike_id":"19449470-4dcf-4781-a5fb-7c9ae281709b","system_id":"levelo_inurba_marseille","lat":43.30533,"lon":5.38425,"is_reserved":false,"is_disabled":false,"rental_uris":{"android":"levelo://app?vid=19449470-4dcf-4781-a5fb-7c9ae281709b","ios":"levelo://app?vid=19449470-4dcf-4781-a5fb-7c9ae281709b"},"vehicle_type_id":"4","last_reported":1744747888,"current_range_meters":13600,"station_id":"ce4bgg92rcd13ifvqb30","pricing_plan_id":"cebpf4jnsgd1na2vs0mg"},{"bike_id":"31ec0d9b-2863-4f99-981c-cc4e7c4c68bd","system_id":"levelo_inurba_marseille","lat":43.29238,"lon":5.38455,"is_reserved":false,"is_disabled":true,"rental_uris":{"android":"levelo://app?vid=31ec0d9b-2863-4f99-981c-cc4e7c4c68bd","ios":"levelo://app?vid=31ec0d9b-2863-4f99-981c-cc4e7c4c68bd"},"vehicle_type_id":"4","last_reported":1744747888,"current_range_meters":13600,"station_id":"ce4bh692rcd13ifvqea0","pricing_plan_id":"cebpf4jnsgd1na2vs0mg"},{"bike_id":"45c6b552-68fd-454d-84d3-cf79221aaee4","system_id":"levelo_inurba_marseille","lat":43.29874,"lon":5.40858,"is_reserved":false,"is_disabled":false,"rental_uris":{"android":"levelo://app?vid=45c6b552-68fd-454d-84d3-cf79221aaee4","ios":"levelo://app?vid=45c6b552-68fd-454d-84d3-cf79221aaee4"},"vehicle_type_id":"4","last_reported":1744747888,"current_range_meters":13600,"station_id":"","pricing_plan_id":"cebpf4jnsgd1na2vs0mg"},{"bike_id":"978f93e0-7c36-422d-9406-98e4e6340151","system_id":"levelo_inurba_marseille","lat":43.27921,"lon":5.39579,"is_reserved":false,"is_disabled":false,"rental_uris":{"android":"levelo://app?vid=978f93e0-7c36-422d-9406-98e4e6340151","ios":"levelo://app?vid=978f93e0-7c36-422d-9406-98e4e6340151"},"vehicle_type_id":"4","last_reported":1744747888,"current_range_meters":13600,"station_id":"ce4bhf92rcd13ifvqf40","pricing_plan_id":"cebpf4jnsgd1na2vs0mg"},{"bike_id":"7ab10ca2-69ab-465f-b78c-b4f45912b0a5","system_id":"levelo_inurba_marseille","lat":43.293102,"lon":5.371782,"is_reserved":false,"is_disabled":false,"rental_uris":{"android":"levelo://app?vid=7ab10ca2-69ab-465f-b78c-b4f45912b0a5","ios":"levelo://app?vid=7ab10ca2-69ab-465f-b78c-b4f45912b0a5"},"vehicle_type_id":"4","last_reported":1744747888,"current_range_meters":13600,"station_id":"ce4bhb92rcd13ifvqen0","pricing_plan_id":"cebpf4jnsgd1na2vs0mg"},{"bike_id":"26524d11-ba40-4c37-a632-dbcc9b84e9d5","system_id":"levelo_inurba_marseille","lat":43.31328,"lon":5.39694,"is_reserved":false,"is_disabled":false,"rental_uris":{"android":"levelo://app?vid=26524d11-ba40-4c37-a632-dbcc9b84e9d5","ios":"levelo://app?vid=26524d11-ba40-4c37-a632-dbcc9b84e9d5"},"vehicle_type_id":"4","last_reported":1744747888,"current_range_meters":13600,"station_id":"ce4bgvp2rcd13ifvqcu0","pricing_plan_id":"cebpf4jnsgd1na2vs0mg"},{"bike_id":"cc456307-4e57-4741-8544-99c65b3016d0","system_id":"levelo_inurba_marseille","lat":43.265614,"lon":5.390043,"is_reserved":false,"is_disabled":false,"rental_uris":{"android":"levelo://app?vid=cc456307-4e57-4741-8544-99c65b3016d0","ios":"levelo://app?vid=cc456307-4e57-4741-8544-99c65b3016d0"},"vehicle_type_id":"4","last_reported":1744747888,"current_range_meters":14000,"station_id":"ce4bhe12rcd13ifvqf30","pricing_plan_id":"cebpf4jnsgd1na2vs0mg"},{"bike_id":"aef80ba4-75b4-4007-8c96-beccf136b2d3","system_id":"levelo_inurba_marseille","lat":43.29286,"lon":5.40121,"is_reserved":false,"is_disabled":false,"rental_uris":{"android":"levelo://app?vid=aef80ba4-75b4-4007-8c96-beccf136b2d3","ios":"levelo://app?vid=aef80ba4-75b4-4007-8c96-beccf136b2d3"},"vehicle_type_id":"4","last_reported":1744747888,"current_range_meters":14400,"station_id":"ce4bh312rcd13ifvqdk0","pricing_plan_id":"cebpf4jnsgd1na2vs0mg"},{"bike_id":"7eacb872-0584-4b06-8fad-feb612d3799a","system_id":"levelo_inurba_marseille","lat":43.29694,"lon":5.38138,"is_reserved":false,"is_disabled":false,"rental_uris":{"android":"levelo://app?vid=7eacb872-0584-4b06-8fad-feb612d3799a","ios":"levelo://app?vid=7eacb872-0584-4b06-8fad-feb612d3799a"},"vehicle_type_id":"4","last_reported":1744747888,"current_range_meters":14400,"station_id":"","pricing_plan_id":"cebpf4jnsgd1na2vs0mg"},{"bike_id":"65939060-bb8f-4a23-b34c-33e31f1b6027","system_id":"levelo_inurba_marseille","lat":43.2718,"lon":5.40977,"is_reserved":false,"is_disabled":false,"rental_uris":{"android":"levelo://app?vid=65939060-bb8f-4a23-b34c-33e31f1b6027","ios":"levelo://app?vid=65939060-bb8f-4a23-b34c-33e31f1b6027"},"vehicle_type_id":"4","last_reported":1744747888,"current_range_meters":14400,"station_id":"ce4bhl12rcd13ifvqgf0","pricing_plan_id":"cebpf4jnsgd1na2vs0mg"},{"bike_id":"4aef0fa6-a0da-4fa2-9099-9fa1ba81c16a","system_id":"levelo_inurba_marseille","lat":43.28167,"lon":5.40421,"is_reserved":false,"is_disabled":false,"rental_uris":{"android":"levelo://app?vid=4aef0fa6-a0da-4fa2-9099-9fa1ba81c16a","ios":"levelo://app?vid=4aef0fa6-a0da-4fa2-9099-9fa1ba81c16a"},"vehicle_type_id":"4","last_reported":1744747888,"current_range_meters":14800,"station_id":"","pricing_plan_id":"cebpf4jnsgd1na2vs0mg"},{"bike_id":"b1bfdfb4-0a74-4837-9591-da041bdc6789","system_id":"levelo_inurba_marseille","lat":43.29962,"lon":5.38501,"is_reserved":false,"is_disabled":false,"rental_uris":{"android":"levelo://app?vid=b1bfdfb4-0a74-4837-9591-da041bdc6789","ios":"levelo://app?vid=b1bfdfb4-0a74-4837-9591-da041bdc6789"},"vehicle_type_id":"4","last_reported":1744747888,"current_range_meters":14800,"station_id":"ce4bgj92rcd13ifvqbd0","pricing_plan_id":"cebpf4jnsgd1na2vs0mg"},{"bike_id":"e4257eb6-3279-499f-8a4a-e01750851d1b","system_id":"levelo_inurba_marseille","lat":43.27984,"lon":5.41663,"is_reserved":false,"is_disabled":false,"rental_uris":{"android":"levelo://app?vid=e4257eb6-3279-499f-8a4a-e01750851d1b","ios":"levelo://app?vid=e4257eb6-3279-499f-8a4a-e01750851d1b"},"vehicle_type_id":"4","last_reported":1744747888,"current_range_meters":14800,"station_id":"ce4bho12rcd13ifvqh1g","pricing_plan_id":"cebpf4jnsgd1na2vs0mg"},{"bike_id":"239cd7f4-917e-4c24-bd0a-f985f6b10e66","system_id":"levelo_inurba_marseille","lat":43.31329,"lon":5.39695,"is_reserved":false,"is_disabled":false,"rental_uris":{"android":"levelo://app?vid=239cd7f4-917e-4c24-bd0a-f985f6b10e66","ios":"levelo://app?vid=239cd7f4-917e-4c24-bd0a-f985f6b10e66"},"vehicle_type_id":"4","last_reported":1744747888,"current_range_meters":14800,"station_id":"ce4bgvp2rcd13ifvqcu0","pricing_plan_id":"cebpf4jnsgd1na2vs0mg"},{"bike_id":"71dcdf63-c4df-4cfb-96b1-721706c0ab75","system_id":"levelo_inurba_marseille","lat":43.27949,"lon":5.41054,"is_reserved":false,"is_disabled":false,"rental_uris":{"android":"levelo://app?vid=71dcdf63-c4df-4cfb-96b1-721706c0ab75","ios":"levelo://app?vid=71dcdf63-c4df-4cfb-96b1-721706c0ab75"},"vehicle_type_id":"4","last_reported":1744747888,"current_range_meters":15200,"station_id":"ce4bhnp2rcd13ifvqh0g","pricing_plan_id":"cebpf4jnsgd1na2vs0mg"},{"bike_id":"e5a9eac7-5076-4439-8278-200c7d18a15e","system_id":"levelo_inurba_marseille","lat":43.29202,"lon":5.39302,"is_reserved":false,"is_disabled":false,"rental_uris":{"android":"levelo://app?vid=e5a9eac7-5076-4439-8278-200c7d18a15e","ios":"levelo://app?vid=e5a9eac7-5076-4439-8278-200c7d18a15e"},"vehicle_type_id":"4","last_reported":1744747888,"current_range_meters":15200,"station_id":"ce4bh192rcd13ifvqdd0","pricing_plan_id":"cebpf4jnsgd1na2vs0mg"},{"bike_id":"affbd74d-0372-4705-884a-a37bc87c2032","system_id":"levelo_inurba_marseille","lat":43.243835,"lon":5.370567,"is_reserved":false,"is_disabled":false,"rental_uris":{"android":"levelo://app?vid=affbd74d-0372-4705-884a-a37bc87c2032","ios":"levelo://app?vid=affbd74d-0372-4705-884a-a37bc87c2032"},"vehicle_type_id":"4","last_reported":1744747888,"current_range_meters":14800,"station_id":"ce4bhhh2rcd13ifvqfk0","pricing_plan_id":"cebpf4jnsgd1na2vs0mg"},{"bike_id":"9df4d04c-49c0-4cc9-90fb-8c204c2453c2","system_id":"levelo_inurba_marseille","lat":43.25928,"lon":5.40885,"is_reserved":false,"is_disabled":false,"rental_uris":{"android":"levelo://app?vid=9df4d04c-49c0-4cc9-90fb-8c204c2453c2","ios":"levelo://app?vid=9df4d04c-49c0-4cc9-90fb-8c204c2453c2"},"vehicle_type_id":"4","last_reported":1744747888,"current_range_meters":15200,"station_id":"ce4bhm92rcd13ifvqglg","pricing_plan_id":"cebpf4jnsgd1na2vs0mg"},{"bike_id":"04ed3b79-97ab-4ee3-a73d-59cd9b37901f","system_id":"levelo_inurba_marseille","lat":43.298859,"lon":5.36919,"is_reserved":false,"is_disabled":false,"rental_uris":{"android":"levelo://app?vid=04ed3b79-97ab-4ee3-a73d-59cd9b37901f","ios":"levelo://app?vid=04ed3b79-97ab-4ee3-a73d-59cd9b37901f"},"vehicle_type_id":"4","last_reported":1744747888,"current_range_meters":15200,"station_id":"ce4bgt12rcd13ifvqcd0","pricing_plan_id":"cebpf4jnsgd1na2vs0mg"},{"bike_id":"a64c1bf8-86bc-4c11-9879-81cd45d3d031","system_id":"levelo_inurba_marseille","lat":43.31315,"lon":5.39709,"is_reserved":false,"is_disabled":true,"rental_uris":{"android":"levelo://app?vid=a64c1bf8-86bc-4c11-9879-81cd45d3d031","ios":"levelo://app?vid=a64c1bf8-86bc-4c11-9879-81cd45d3d031"},"vehicle_type_id":"4","last_reported":1744747888,"current_range_meters":15200,"station_id":"ce4bgvp2rcd13ifvqcu0","pricing_plan_id":"cebpf4jnsgd1na2vs0mg"},{"bike_id":"5edfcb33-f5b3-40ad-8c59-c96eb2bba229","system_id":"levelo_inurba_marseille","lat":43.304227,"lon":5.397433,"is_reserved":false,"is_disabled":false,"rental_uris":{"android":"levelo://app?vid=5edfcb33-f5b3-40ad-8c59-c96eb2bba229","ios":"levelo://app?vid=5edfcb33-f5b3-40ad-8c59-c96eb2bba229"},"vehicle_type_id":"4","last_reported":1744747888,"current_range_meters":15200,"station_id":"ce4bh092rcd13ifvqd20","pricing_plan_id":"cebpf4jnsgd1na2vs0mg"},{"bike_id":"87d3cb23-74e5-4d1f-a783-4ecae9b406fe","system_id":"levelo_inurba_marseille","lat":43.31326,"lon":5.38518,"is_reserved":false,"is_disabled":false,"rental_uris":{"android":"levelo://app?vid=87d3cb23-74e5-4d1f-a783-4ecae9b406fe","ios":"levelo://app?vid=87d3cb23-74e5-4d1f-a783-4ecae9b406fe"},"vehicle_type_id":"4","last_reported":1744747888,"current_range_meters":15200,"station_id":"ce4bgt92rcd13ifvqcf0","pricing_plan_id":"cebpf4jnsgd1na2vs0mg"},{"bike_id":"67c5df41-b8f9-479f-8eb4-01212bb809db","system_id":"levelo_inurba_marseille","lat":43.29285,"lon":5.37188,"is_reserved":false,"is_disabled":true,"rental_uris":{"android":"levelo://app?vid=67c5df41-b8f9-479f-8eb4-01212bb809db","ios":"levelo://app?vid=67c5df41-b8f9-479f-8eb4-01212bb809db"},"vehicle_type_id":"4","last_reported":1744747888,"current_range_meters":16000,"station_id":"ce4bgh92rcd13ifvqb40","pricing_plan_id":"cebpf4jnsgd1na2vs0mg"},{"bike_id":"55b31d5e-102a-448f-ab81-1d9e5a49a7a7","system_id":"levelo_inurba_marseille","lat":43.29256,"lon":5.38433,"is_reserved":false,"is_disabled":false,"rental_uris":{"android":"levelo://app?vid=55b31d5e-102a-448f-ab81-1d9e5a49a7a7","ios":"levelo://app?vid=55b31d5e-102a-448f-ab81-1d9e5a49a7a7"},"vehicle_type_id":"4","last_reported":1744747888,"current_range_meters":16000,"station_id":"ce4bh692rcd13ifvqea0","pricing_plan_id":"cebpf4jnsgd1na2vs0mg"},{"bike_id":"e458d5a4-35ee-45f4-8308-6cd4ef90f061","system_id":"levelo_inurba_marseille","lat":43.3064,"lon":5.40086,"is_reserved":false,"is_disabled":false,"rental_uris":{"android":"levelo://app?vid=e458d5a4-35ee-45f4-8308-6cd4ef90f061","ios":"levelo://app?vid=e458d5a4-35ee-45f4-8308-6cd4ef90f061"},"vehicle_type_id":"4","last_reported":1744747888,"current_range_meters":16000,"station_id":"ce4bh112rcd13ifvqda0","pricing_plan_id":"cebpf4jnsgd1na2vs0mg"},{"bike_id":"98b073a9-6f8e-4345-ad47-65369c5611d5","system_id":"levelo_inurba_marseille","lat":43.28707,"lon":5.37385,"is_reserved":false,"is_disabled":false,"rental_uris":{"android":"levelo://app?vid=98b073a9-6f8e-4345-ad47-65369c5611d5","ios":"levelo://app?vid=98b073a9-6f8e-4345-ad47-65369c5611d5"},"vehicle_type_id":"4","last_reported":1744747888,"current_range_meters":16000,"station_id":"ce4bh3p2rcd13ifvqdq0","pricing_plan_id":"cebpf4jnsgd1na2vs0mg"},{"bike_id":"f1388600-1c0b-4a89-acda-80b209bfbed9","system_id":"levelo_inurba_marseille","lat":43.29982,"lon":5.37168,"is_reserved":false,"is_disabled":false,"rental_uris":{"android":"levelo://app?vid=f1388600-1c0b-4a89-acda-80b209bfbed9","ios":"levelo://app?vid=f1388600-1c0b-4a89-acda-80b209bfbed9"},"vehicle_type_id":"4","last_reported":1744747888,"current_range_meters":16000,"station_id":"ce4bgr92rcd13ifvqc7g","pricing_plan_id":"cebpf4jnsgd1na2vs0mg"},{"bike_id":"f14bce7a-b864-41f9-b089-fed11ce290ed","system_id":"levelo_inurba_marseille","lat":43.24074,"lon":5.37742,"is_reserved":false,"is_disabled":false,"rental_uris":{"android":"levelo://app?vid=f14bce7a-b864-41f9-b089-fed11ce290ed","ios":"levelo://app?vid=f14bce7a-b864-41f9-b089-fed11ce290ed"},"vehicle_type_id":"4","last_reported":1744747888,"current_range_meters":16000,"station_id":"ce4bhnp2rcd13ifvqgvg","pricing_plan_id":"cebpf4jnsgd1na2vs0mg"},{"bike_id":"b0b19754-995f-4d4b-bc89-b97285ed65c0","system_id":"levelo_inurba_marseille","lat":43.25526,"lon":5.37644,"is_reserved":false,"is_disabled":false,"rental_uris":{"android":"levelo://app?vid=b0b19754-995f-4d4b-bc89-b97285ed65c0","ios":"levelo://app?vid=b0b19754-995f-4d4b-bc89-b97285ed65c0"},"vehicle_type_id":"4","last_reported":1744747888,"current_range_meters":16000,"station_id":"ce4bhh12rcd13ifvqff0","pricing_plan_id":"cebpf4jnsgd1na2vs0mg"},{"bike_id":"561936ef-54e4-4d15-b2a7-dfd018b9e12e","system_id":"levelo_inurba_marseille","lat":43.29807,"lon":5.40269,"is_reserved":false,"is_disabled":false,"rental_uris":{"android":"levelo://app?vid=561936ef-54e4-4d15-b2a7-dfd018b9e12e","ios":"levelo://app?vid=561936ef-54e4-4d15-b2a7-dfd018b9e12e"},"vehicle_type_id":"4","last_reported":1744747888,"current_range_meters":16000,"station_id":"","pricing_plan_id":"cebpf4jnsgd1na2vs0mg"},{"bike_id":"32a0a3fc-a487-4709-9afc-a5fd8bdd9fb0","system_id":"levelo_inurba_marseille","lat":43.29604,"lon":5.38094,"is_reserved":false,"is_disabled":false,"rental_uris":{"android":"levelo://app?vid=32a0a3fc-a487-4709-9afc-a5fd8bdd9fb0","ios":"levelo://app?vid=32a0a3fc-a487-4709-9afc-a5fd8bdd9fb0"},"vehicle_type_id":"4","last_reported":1744747888,"current_range_meters":16000,"station_id":"ce4bgl12rcd13ifvqbo0","pricing_plan_id":"cebpf4jnsgd1na2vs0mg"},{"bike_id":"f5a893db-6988-4514-9982-73ab0004481c","system_id":"levelo_inurba_marseille","lat":43.27669,"lon":5.38878,"is_reserved":false,"is_disabled":false,"rental_uris":{"android":"levelo://app?vid=f5a893db-6988-4514-9982-73ab0004481c","ios":"levelo://app?vid=f5a893db-6988-4514-9982-73ab0004481c"},"vehicle_type_id":"4","last_reported":1744747888,"current_range_meters":16000,"station_id":"ce4bhi12rcd13ifvqfo0","pricing_plan_id":"cebpf4jnsgd1na2vs0mg"},{"bike_id":"14726489-e0ca-4890-881d-965e4e512a49","system_id":"levelo_inurba_marseille","lat":43.25714,"lon":5.41099,"is_reserved":false,"is_disabled":false,"rental_uris":{"android":"levelo://app?vid=14726489-e0ca-4890-881d-965e4e512a49","ios":"levelo://app?vid=14726489-e0ca-4890-881d-965e4e512a49"},"vehicle_type_id":"4","last_reported":1744747888,"current_range_meters":16400,"station_id":"ce4bhkp2rcd13ifvqgd0","pricing_plan_id":"cebpf4jnsgd1na2vs0mg"},{"bike_id":"09651454-ba98-489f-84d4-7c0b820526b4","system_id":"levelo_inurba_marseille","lat":43.31195,"lon":5.36829,"is_reserved":false,"is_disabled":true,"rental_uris":{"android":"levelo://app?vid=09651454-ba98-489f-84d4-7c0b820526b4","ios":"levelo://app?vid=09651454-ba98-489f-84d4-7c0b820526b4"},"vehicle_type_id":"4","last_reported":1744747888,"current_range_meters":16400,"station_id":"ce4bgl92rcd13ifvqbq0","pricing_plan_id":"cebpf4jnsgd1na2vs0mg"},{"bike_id":"ef9a3c6b-98ce-42f1-93a1-07ec5fc6435d","system_id":"levelo_inurba_marseille","lat":43.29265,"lon":5.37622,"is_reserved":false,"is_disabled":false,"rental_uris":{"android":"levelo://app?vid=ef9a3c6b-98ce-42f1-93a1-07ec5fc6435d","ios":"levelo://app?vid=ef9a3c6b-98ce-42f1-93a1-07ec5fc6435d"},"vehicle_type_id":"4","last_reported":1744747888,"current_range_meters":16400,"station_id":"ce4bgi12rcd13ifvqb80","pricing_plan_id":"cebpf4jnsgd1na2vs0mg"},{"bike_id":"ce86423c-7fda-4347-b51e-6014b639a5a1","system_id":"levelo_inurba_marseille","lat":43.310727,"lon":5.38357,"is_reserved":false,"is_disabled":false,"rental_uris":{"android":"levelo://app?vid=ce86423c-7fda-4347-b51e-6014b639a5a1","ios":"levelo://app?vid=ce86423c-7fda-4347-b51e-6014b639a5a1"},"vehicle_type_id":"4","last_reported":1744747888,"current_range_meters":16400,"station_id":"ce4bgv92rcd13ifvqcr0","pricing_plan_id":"cebpf4jnsgd1na2vs0mg"},{"bike_id":"32914e51-bb2b-4ce3-b069-f3bfc6bc1f01","system_id":"levelo_inurba_marseille","lat":43.28618,"lon":5.35108,"is_reserved":false,"is_disabled":false,"rental_uris":{"android":"levelo://app?vid=32914e51-bb2b-4ce3-b069-f3bfc6bc1f01","ios":"levelo://app?vid=32914e51-bb2b-4ce3-b069-f3bfc6bc1f01"},"vehicle_type_id":"4","last_reported":1744747888,"current_range_meters":16400,"station_id":"ce4bhch2rcd13ifvqeug","pricing_plan_id":"cebpf4jnsgd1na2vs0mg"},{"bike_id":"889e5f0e-836f-416e-9071-263d48ad5753","system_id":"levelo_inurba_marseille","lat":43.29541,"lon":5.38542,"is_reserved":false,"is_disabled":false,"rental_uris":{"android":"levelo://app?vid=889e5f0e-836f-416e-9071-263d48ad5753","ios":"levelo://app?vid=889e5f0e-836f-416e-9071-263d48ad5753"},"vehicle_type_id":"4","last_reported":1744747888,"current_range_meters":16800,"station_id":"ce4bgih2rcd13ifvqba0","pricing_plan_id":"cebpf4jnsgd1na2vs0mg"},{"bike_id":"834ec9e1-9d50-4bee-85ae-d1db335c55e5","system_id":"levelo_inurba_marseille","lat":43.31813,"lon":5.36802,"is_reserved":false,"is_disabled":false,"rental_uris":{"android":"levelo://app?vid=834ec9e1-9d50-4bee-85ae-d1db335c55e5","ios":"levelo://app?vid=834ec9e1-9d50-4bee-85ae-d1db335c55e5"},"vehicle_type_id":"4","last_reported":1744747888,"current_range_meters":16800,"station_id":"","pricing_plan_id":"cebpf4jnsgd1na2vs0mg"},{"bike_id":"f25d5c55-f29e-4e31-8934-909d551832a1","system_id":"levelo_inurba_marseille","lat":43.28957,"lon":5.37618,"is_reserved":false,"is_disabled":false,"rental_uris":{"android":"levelo://app?vid=f25d5c55-f29e-4e31-8934-909d551832a1","ios":"levelo://app?vid=f25d5c55-f29e-4e31-8934-909d551832a1"},"vehicle_type_id":"4","last_reported":1744747888,"current_range_meters":17200,"station_id":"","pricing_plan_id":"cebpf4jnsgd1na2vs0mg"},{"bike_id":"4c470df7-4cbb-413f-b587-893637313088","system_id":"levelo_inurba_marseille","lat":43.25127,"lon":5.40338,"is_reserved":false,"is_disabled":false,"rental_uris":{"android":"levelo://app?vid=4c470df7-4cbb-413f-b587-893637313088","ios":"levelo://app?vid=4c470df7-4cbb-413f-b587-893637313088"},"vehicle_type_id":"4","last_reported":1744747888,"current_range_meters":16800,"station_id":"ce4bhlh2rcd13ifvqgig","pricing_plan_id":"cebpf4jnsgd1na2vs0mg"},{"bike_id":"791a504b-4c70-41f6-ba42-5426811bca90","system_id":"levelo_inurba_marseille","lat":43.31278,"lon":5.40161,"is_reserved":false,"is_disabled":false,"rental_uris":{"android":"levelo://app?vid=791a504b-4c70-41f6-ba42-5426811bca90","ios":"levelo://app?vid=791a504b-4c70-41f6-ba42-5426811bca90"},"vehicle_type_id":"4","last_reported":1744747888,"current_range_meters":16800,"station_id":"ce4bh092rcd13ifvqd30","pricing_plan_id":"cebpf4jnsgd1na2vs0mg"},{"bike_id":"a88268f7-7d4e-425f-af3d-badb387bfdf2","system_id":"levelo_inurba_marseille","lat":43.26208,"lon":5.37442,"is_reserved":false,"is_disabled":false,"rental_uris":{"android":"levelo://app?vid=a88268f7-7d4e-425f-af3d-badb387bfdf2","ios":"levelo://app?vid=a88268f7-7d4e-425f-af3d-badb387bfdf2"},"vehicle_type_id":"4","last_reported":1744747888,"current_range_meters":16800,"station_id":"ce4bhgp2rcd13ifvqfc0","pricing_plan_id":"cebpf4jnsgd1na2vs0mg"},{"bike_id":"6f23923f-fc67-460a-b0b8-5119c016d5b0","system_id":"levelo_inurba_marseille","lat":43.26861,"lon":5.38722,"is_reserved":false,"is_disabled":true,"rental_uris":{"android":"levelo://app?vid=6f23923f-fc67-460a-b0b8-5119c016d5b0","ios":"levelo://app?vid=6f23923f-fc67-460a-b0b8-5119c016d5b0"},"vehicle_type_id":"4","last_reported":1744747888,"current_range_meters":16800,"station_id":"ce4bhh92rcd13ifvqfh0","pricing_plan_id":"cebpf4jnsgd1na2vs0mg"},{"bike_id":"0e1413b3-6e11-4e0a-b7e3-ab20baf2bea9","system_id":"levelo_inurba_marseille","lat":43.30642,"lon":5.40096,"is_reserved":false,"is_disabled":false,"rental_uris":{"android":"levelo://app?vid=0e1413b3-6e11-4e0a-b7e3-ab20baf2bea9","ios":"levelo://app?vid=0e1413b3-6e11-4e0a-b7e3-ab20baf2bea9"},"vehicle_type_id":"4","last_reported":1744747888,"current_range_meters":16800,"station_id":"ce4bh112rcd13ifvqda0","pricing_plan_id":"cebpf4jnsgd1na2vs0mg"},{"bike_id":"857ff0ed-8bc6-43b2-87aa-4266c1d75649","system_id":"levelo_inurba_marseille","lat":43.310712,"lon":5.401,"is_reserved":false,"is_disabled":false,"rental_uris":{"android":"levelo://app?vid=857ff0ed-8bc6-43b2-87aa-4266c1d75649","ios":"levelo://app?vid=857ff0ed-8bc6-43b2-87aa-4266c1d75649"},"vehicle_type_id":"4","last_reported":1744747888,"current_range_meters":16800,"station_id":"","pricing_plan_id":"cebpf4jnsgd1na2vs0mg"},{"bike_id":"a0ddb0a5-f7f0-4281-aa27-9e82747cc573","system_id":"levelo_inurba_marseille","lat":43.33776,"lon":5.37479,"is_reserved":false,"is_disabled":false,"rental_uris":{"android":"levelo://app?vid=a0ddb0a5-f7f0-4281-aa27-9e82747cc573","ios":"levelo://app?vid=a0ddb0a5-f7f0-4281-aa27-9e82747cc573"},"vehicle_type_id":"4","last_reported":1744747888,"current_range_meters":16800,"station_id":"","pricing_plan_id":"cebpf4jnsgd1na2vs0mg"},{"bike_id":"a3705f92-5e18-4360-b2a1-dabc7e4ffb84","system_id":"levelo_inurba_marseille","lat":43.2893,"lon":5.36642,"is_reserved":false,"is_disabled":false,"rental_uris":{"android":"levelo://app?vid=a3705f92-5e18-4360-b2a1-dabc7e4ffb84","ios":"levelo://app?vid=a3705f92-5e18-4360-b2a1-dabc7e4ffb84"},"vehicle_type_id":"4","last_reported":1744747888,"current_range_meters":17200,"station_id":"ce4bhap2rcd13ifvqek0","pricing_plan_id":"cebpf4jnsgd1na2vs0mg"},{"bike_id":"e98619ae-1cbf-4312-993a-cf2e62ab486c","system_id":"levelo_inurba_marseille","lat":43.27914,"lon":5.3958,"is_reserved":false,"is_disabled":false,"rental_uris":{"android":"levelo://app?vid=e98619ae-1cbf-4312-993a-cf2e62ab486c","ios":"levelo://app?vid=e98619ae-1cbf-4312-993a-cf2e62ab486c"},"vehicle_type_id":"4","last_reported":1744747888,"current_range_meters":17200,"station_id":"ce4bhf92rcd13ifvqf40","pricing_plan_id":"cebpf4jnsgd1na2vs0mg"},{"bike_id":"828b0227-ee3e-45fc-93b6-a6d6438b4fc9","system_id":"levelo_inurba_marseille","lat":43.31066,"lon":5.38354,"is_reserved":false,"is_disabled":false,"rental_uris":{"android":"levelo://app?vid=828b0227-ee3e-45fc-93b6-a6d6438b4fc9","ios":"levelo://app?vid=828b0227-ee3e-45fc-93b6-a6d6438b4fc9"},"vehicle_type_id":"4","last_reported":1744747888,"current_range_meters":17200,"station_id":"ce4bgv92rcd13ifvqcr0","pricing_plan_id":"cebpf4jnsgd1na2vs0mg"},{"bike_id":"d34693e3-4b7f-4ed5-8929-fa8011f280b8","system_id":"levelo_inurba_marseille","lat":43.28401,"lon":5.37542,"is_reserved":false,"is_disabled":false,"rental_uris":{"android":"levelo://app?vid=d34693e3-4b7f-4ed5-8929-fa8011f280b8","ios":"levelo://app?vid=d34693e3-4b7f-4ed5-8929-fa8011f280b8"},"vehicle_type_id":"4","last_reported":1744747888,"current_range_meters":17200,"station_id":"ce4bh412rcd13ifvqds0","pricing_plan_id":"cebpf4jnsgd1na2vs0mg"},{"bike_id":"3c927e60-820a-4f22-a2c8-7fd8d467248c","system_id":"levelo_inurba_marseille","lat":43.29903,"lon":5.37501,"is_reserved":false,"is_disabled":false,"rental_uris":{"android":"levelo://app?vid=3c927e60-820a-4f22-a2c8-7fd8d467248c","ios":"levelo://app?vid=3c927e60-820a-4f22-a2c8-7fd8d467248c"},"vehicle_type_id":"4","last_reported":1744747888,"current_range_meters":17200,"station_id":"ce4bgjh2rcd13ifvqbg0","pricing_plan_id":"cebpf4jnsgd1na2vs0mg"},{"bike_id":"8c56c378-ba62-4c07-a785-96e4ff05f191","system_id":"levelo_inurba_marseille","lat":43.2621,"lon":5.3744,"is_reserved":false,"is_disabled":false,"rental_uris":{"android":"levelo://app?vid=8c56c378-ba62-4c07-a785-96e4ff05f191","ios":"levelo://app?vid=8c56c378-ba62-4c07-a785-96e4ff05f191"},"vehicle_type_id":"4","last_reported":1744747888,"current_range_meters":17200,"station_id":"ce4bhgp2rcd13ifvqfc0","pricing_plan_id":"cebpf4jnsgd1na2vs0mg"},{"bike_id":"22360d30-36b9-4e98-8651-f94b98f596d4","system_id":"levelo_inurba_marseille","lat":43.30376,"lon":5.41876,"is_reserved":false,"is_disabled":false,"rental_uris":{"android":"levelo://app?vid=22360d30-36b9-4e98-8651-f94b98f596d4","ios":"levelo://app?vid=22360d30-36b9-4e98-8651-f94b98f596d4"},"vehicle_type_id":"4","last_reported":1744747888,"current_range_meters":17200,"station_id":"ce4bhop2rcd13ifvqh7g","pricing_plan_id":"cebpf4jnsgd1na2vs0mg"},{"bike_id":"65c3f0fa-c566-4adb-8170-55da4b1025c1","system_id":"levelo_inurba_marseille","lat":43.29024,"lon":5.37575,"is_reserved":false,"is_disabled":false,"rental_uris":{"android":"levelo://app?vid=65c3f0fa-c566-4adb-8170-55da4b1025c1","ios":"levelo://app?vid=65c3f0fa-c566-4adb-8170-55da4b1025c1"},"vehicle_type_id":"4","last_reported":1744747888,"current_range_meters":17200,"station_id":"ce4bh692rcd13ifvqe90","pricing_plan_id":"cebpf4jnsgd1na2vs0mg"},{"bike_id":"af558414-1197-4e30-b05b-ad7bfab8c66d","system_id":"levelo_inurba_marseille","lat":43.29906,"lon":5.37474,"is_reserved":false,"is_disabled":false,"rental_uris":{"android":"levelo://app?vid=af558414-1197-4e30-b05b-ad7bfab8c66d","ios":"levelo://app?vid=af558414-1197-4e30-b05b-ad7bfab8c66d"},"vehicle_type_id":"4","last_reported":1744747888,"current_range_meters":17200,"station_id":"ce4bgjh2rcd13ifvqbg0","pricing_plan_id":"cebpf4jnsgd1na2vs0mg"},{"bike_id":"15839d76-0879-42d7-9bf8-b60f30413855","system_id":"levelo_inurba_marseille","lat":43.29222,"lon":5.369,"is_reserved":false,"is_disabled":true,"rental_uris":{"android":"levelo://app?vid=15839d76-0879-42d7-9bf8-b60f30413855","ios":"levelo://app?vid=15839d76-0879-42d7-9bf8-b60f30413855"},"vehicle_type_id":"4","last_reported":1744747888,"current_range_meters":17200,"station_id":"ce4bhbp2rcd13ifvqesg","pricing_plan_id":"cebpf4jnsgd1na2vs0mg"},{"bike_id":"58835d9b-dd26-4e1e-9357-1501343d23dd","system_id":"levelo_inurba_marseille","lat":43.2827,"lon":5.35063,"is_reserved":false,"is_disabled":false,"rental_uris":{"android":"levelo://app?vid=58835d9b-dd26-4e1e-9357-1501343d23dd","ios":"levelo://app?vid=58835d9b-dd26-4e1e-9357-1501343d23dd"},"vehicle_type_id":"4","last_reported":1744747888,"current_range_meters":17200,"station_id":"ce4bhbp2rcd13ifvqerg","pricing_plan_id":"cebpf4jnsgd1na2vs0mg"},{"bike_id":"67cb0b5e-c439-49e5-be99-2828584ac2e2","system_id":"levelo_inurba_marseille","lat":43.26555,"lon":5.37281,"is_reserved":false,"is_disabled":false,"rental_uris":{"android":"levelo://app?vid=67cb0b5e-c439-49e5-be99-2828584ac2e2","ios":"levelo://app?vid=67cb0b5e-c439-49e5-be99-2828584ac2e2"},"vehicle_type_id":"4","last_reported":1744747888,"current_range_meters":17600,"station_id":"ce4bhg12rcd13ifvqf70","pricing_plan_id":"cebpf4jnsgd1na2vs0mg"},{"bike_id":"f7a098b3-954b-4b4a-9684-54abea7119bf","system_id":"levelo_inurba_marseille","lat":43.2931,"lon":5.37154,"is_reserved":false,"is_disabled":false,"rental_uris":{"android":"levelo://app?vid=f7a098b3-954b-4b4a-9684-54abea7119bf","ios":"levelo://app?vid=f7a098b3-954b-4b4a-9684-54abea7119bf"},"vehicle_type_id":"4","last_reported":1744747888,"current_range_meters":18000,"station_id":"ce4bgh92rcd13ifvqb40","pricing_plan_id":"cebpf4jnsgd1na2vs0mg"},{"bike_id":"0fdde2d8-8704-4cb8-bf3a-05cc3991d677","system_id":"levelo_inurba_marseille","lat":43.292624,"lon":5.38426,"is_reserved":false,"is_disabled":false,"rental_uris":{"android":"levelo://app?vid=0fdde2d8-8704-4cb8-bf3a-05cc3991d677","ios":"levelo://app?vid=0fdde2d8-8704-4cb8-bf3a-05cc3991d677"},"vehicle_type_id":"4","last_reported":1744747888,"current_range_meters":17600,"station_id":"ce4bgi92rcd13ifvqb90","pricing_plan_id":"cebpf4jnsgd1na2vs0mg"},{"bike_id":"145930c2-394c-4532-bb1f-e90c1f04e228","system_id":"levelo_inurba_marseille","lat":43.30535,"lon":5.3843,"is_reserved":false,"is_disabled":false,"rental_uris":{"android":"levelo://app?vid=145930c2-394c-4532-bb1f-e90c1f04e228","ios":"levelo://app?vid=145930c2-394c-4532-bb1f-e90c1f04e228"},"vehicle_type_id":"4","last_reported":1744747888,"current_range_meters":17600,"station_id":"ce4bgg92rcd13ifvqb30","pricing_plan_id":"cebpf4jnsgd1na2vs0mg"},{"bike_id":"3a9ef3e9-1414-4640-9b8a-68efc9824ff6","system_id":"levelo_inurba_marseille","lat":43.24544,"lon":5.3952,"is_reserved":false,"is_disabled":false,"rental_uris":{"android":"levelo://app?vid=3a9ef3e9-1414-4640-9b8a-68efc9824ff6","ios":"levelo://app?vid=3a9ef3e9-1414-4640-9b8a-68efc9824ff6"},"vehicle_type_id":"4","last_reported":1744747888,"current_range_meters":17600,"station_id":"ce4bhlp2rcd13ifvqgjg","pricing_plan_id":"cebpf4jnsgd1na2vs0mg"},{"bike_id":"d28362af-1f2f-467b-ae9f-5496d7fc2ba5","system_id":"levelo_inurba_marseille","lat":43.27564,"lon":5.38426,"is_reserved":false,"is_disabled":false,"rental_uris":{"android":"levelo://app?vid=d28362af-1f2f-467b-ae9f-5496d7fc2ba5","ios":"levelo://app?vid=d28362af-1f2f-467b-ae9f-5496d7fc2ba5"},"vehicle_type_id":"4","last_reported":1744747888,"current_range_meters":17600,"station_id":"ce4bhh92rcd13ifvqfi0","pricing_plan_id":"cebpf4jnsgd1na2vs0mg"},{"bike_id":"09cd9552-7d39-4084-ada7-a9c57d519ffe","system_id":"levelo_inurba_marseille","lat":43.290242,"lon":5.381449,"is_reserved":false,"is_disabled":false,"rental_uris":{"android":"levelo://app?vid=09cd9552-7d39-4084-ada7-a9c57d519ffe","ios":"levelo://app?vid=09cd9552-7d39-4084-ada7-a9c57d519ffe"},"vehicle_type_id":"4","last_reported":1744747888,"current_range_meters":18000,"station_id":"","pricing_plan_id":"cebpf4jnsgd1na2vs0mg"},{"bike_id":"74ec87ab-fa5e-44d2-83e9-d18666eb1af3","system_id":"levelo_inurba_marseille","lat":43.28418,"lon":5.37512,"is_reserved":false,"is_disabled":false,"rental_uris":{"android":"levelo://app?vid=74ec87ab-fa5e-44d2-83e9-d18666eb1af3","ios":"levelo://app?vid=74ec87ab-fa5e-44d2-83e9-d18666eb1af3"},"vehicle_type_id":"4","last_reported":1744747888,"current_range_meters":18000,"station_id":"ce4bh412rcd13ifvqds0","pricing_plan_id":"cebpf4jnsgd1na2vs0mg"},{"bike_id":"ac970bb3-90dc-4094-8656-acfc9f25827f","system_id":"levelo_inurba_marseille","lat":43.30103,"lon":5.39078,"is_reserved":false,"is_disabled":false,"rental_uris":{"android":"levelo://app?vid=ac970bb3-90dc-4094-8656-acfc9f25827f","ios":"levelo://app?vid=ac970bb3-90dc-4094-8656-acfc9f25827f"},"vehicle_type_id":"4","last_reported":1744747888,"current_range_meters":18000,"station_id":"ce4bh192rcd13ifvqdb0","pricing_plan_id":"cebpf4jnsgd1na2vs0mg"},{"bike_id":"f556879c-5c9c-404c-bfda-1bbcb0880b98","system_id":"levelo_inurba_marseille","lat":43.2954,"lon":5.37502,"is_reserved":false,"is_disabled":true,"rental_uris":{"android":"levelo://app?vid=f556879c-5c9c-404c-bfda-1bbcb0880b98","ios":"levelo://app?vid=f556879c-5c9c-404c-bfda-1bbcb0880b98"},"vehicle_type_id":"4","last_reported":1744747888,"current_range_meters":18000,"station_id":"ce4bgkp2rcd13ifvqbmg","pricing_plan_id":"cebpf4jnsgd1na2vs0mg"},{"bike_id":"ad954633-cbff-4cf3-b46c-9190d1a5c3ba","system_id":"levelo_inurba_marseille","lat":43.28709,"lon":5.37384,"is_reserved":false,"is_disabled":false,"rental_uris":{"android":"levelo://app?vid=ad954633-cbff-4cf3-b46c-9190d1a5c3ba","ios":"levelo://app?vid=ad954633-cbff-4cf3-b46c-9190d1a5c3ba"},"vehicle_type_id":"4","last_reported":1744747888,"current_range_meters":18000,"station_id":"ce4bh3p2rcd13ifvqdq0","pricing_plan_id":"cebpf4jnsgd1na2vs0mg"},{"bike_id":"4c0ede51-6b22-44f8-8575-b86906a20779","system_id":"levelo_inurba_marseille","lat":43.21799,"lon":5.34609,"is_reserved":false,"is_disabled":false,"rental_uris":{"android":"levelo://app?vid=4c0ede51-6b22-44f8-8575-b86906a20779","ios":"levelo://app?vid=4c0ede51-6b22-44f8-8575-b86906a20779"},"vehicle_type_id":"4","last_reported":1744747888,"current_range_meters":18000,"station_id":"","pricing_plan_id":"cebpf4jnsgd1na2vs0mg"},{"bike_id":"8c9323a4-884e-40ce-9c38-3aa09ef74228","system_id":"levelo_inurba_marseille","lat":43.31329,"lon":5.39698,"is_reserved":false,"is_disabled":false,"rental_uris":{"android":"levelo://app?vid=8c9323a4-884e-40ce-9c38-3aa09ef74228","ios":"levelo://app?vid=8c9323a4-884e-40ce-9c38-3aa09ef74228"},"vehicle_type_id":"4","last_reported":1744747888,"current_range_meters":18000,"station_id":"ce4bgvp2rcd13ifvqcu0","pricing_plan_id":"cebpf4jnsgd1na2vs0mg"},{"bike_id":"1d42bf00-ac3d-4bcd-b058-d356740cab40","system_id":"levelo_inurba_marseille","lat":43.30758,"lon":5.37671,"is_reserved":false,"is_disabled":false,"rental_uris":{"android":"levelo://app?vid=1d42bf00-ac3d-4bcd-b058-d356740cab40","ios":"levelo://app?vid=1d42bf00-ac3d-4bcd-b058-d356740cab40"},"vehicle_type_id":"4","last_reported":1744747888,"current_range_meters":18000,"station_id":"ce4bgv92rcd13ifvqcq0","pricing_plan_id":"cebpf4jnsgd1na2vs0mg"},{"bike_id":"5737e16f-b634-490e-bf1e-d54b06897554","system_id":"levelo_inurba_marseille","lat":43.29522,"lon":5.39033,"is_reserved":false,"is_disabled":false,"rental_uris":{"android":"levelo://app?vid=5737e16f-b634-490e-bf1e-d54b06897554","ios":"levelo://app?vid=5737e16f-b634-490e-bf1e-d54b06897554"},"vehicle_type_id":"4","last_reported":1744747888,"current_range_meters":17600,"station_id":"ce4bh3p2rcd13ifvqdp0","pricing_plan_id":"cebpf4jnsgd1na2vs0mg"},{"bike_id":"749d68ab-d999-4213-8b50-f5963d394e38","system_id":"levelo_inurba_marseille","lat":43.30781,"lon":5.37645,"is_reserved":false,"is_disabled":false,"rental_uris":{"android":"levelo://app?vid=749d68ab-d999-4213-8b50-f5963d394e38","ios":"levelo://app?vid=749d68ab-d999-4213-8b50-f5963d394e38"},"vehicle_type_id":"4","last_reported":1744747888,"current_range_meters":18000,"station_id":"ce4bgv92rcd13ifvqcq0","pricing_plan_id":"cebpf4jnsgd1na2vs0mg"},{"bike_id":"65aa51e9-6582-4d7d-8963-9254ae6adf28","system_id":"levelo_inurba_marseille","lat":43.2998,"lon":5.37177,"is_reserved":false,"is_disabled":false,"rental_uris":{"android":"levelo://app?vid=65aa51e9-6582-4d7d-8963-9254ae6adf28","ios":"levelo://app?vid=65aa51e9-6582-4d7d-8963-9254ae6adf28"},"vehicle_type_id":"4","last_reported":1744747888,"current_range_meters":18000,"station_id":"ce4bgr92rcd13ifvqc7g","pricing_plan_id":"cebpf4jnsgd1na2vs0mg"},{"bike_id":"fa8b5d88-c56b-4501-99c1-1b5a6dfd1f66","system_id":"levelo_inurba_marseille","lat":43.21205,"lon":5.35078,"is_reserved":false,"is_disabled":false,"rental_uris":{"android":"levelo://app?vid=fa8b5d88-c56b-4501-99c1-1b5a6dfd1f66","ios":"levelo://app?vid=fa8b5d88-c56b-4501-99c1-1b5a6dfd1f66"},"vehicle_type_id":"4","last_reported":1744747888,"current_range_meters":18000,"station_id":"st_cvj6sg6p6f1abm77japg","pricing_plan_id":"cebpf4jnsgd1na2vs0mg"},{"bike_id":"4cc60183-f086-4946-9e35-7a75728daa73","system_id":"levelo_inurba_marseille","lat":43.257339,"lon":5.386602,"is_reserved":false,"is_disabled":false,"rental_uris":{"android":"levelo://app?vid=4cc60183-f086-4946-9e35-7a75728daa73","ios":"levelo://app?vid=4cc60183-f086-4946-9e35-7a75728daa73"},"vehicle_type_id":"4","last_reported":1744747888,"current_range_meters":18000,"station_id":"","pricing_plan_id":"cebpf4jnsgd1na2vs0mg"},{"bike_id":"6bf5a380-400e-4cd6-bc1e-356afac9ee45","system_id":"levelo_inurba_marseille","lat":43.24168,"lon":5.36398,"is_reserved":false,"is_disabled":false,"rental_uris":{"android":"levelo://app?vid=6bf5a380-400e-4cd6-bc1e-356afac9ee45","ios":"levelo://app?vid=6bf5a380-400e-4cd6-bc1e-356afac9ee45"},"vehicle_type_id":"4","last_reported":1744747888,"current_range_meters":18800,"station_id":"cpo36qri1sfpv3e86is0","pricing_plan_id":"cebpf4jnsgd1na2vs0mg"},{"bike_id":"b4df9b3a-3c6e-41b2-a2e9-c941af47bac9","system_id":"levelo_inurba_marseille","lat":43.3266,"lon":5.41,"is_reserved":false,"is_disabled":false,"rental_uris":{"android":"levelo://app?vid=b4df9b3a-3c6e-41b2-a2e9-c941af47bac9","ios":"levelo://app?vid=b4df9b3a-3c6e-41b2-a2e9-c941af47bac9"},"vehicle_type_id":"4","last_reported":1744747888,"current_range_meters":18800,"station_id":"ce4bhpp2rcd13ifvqhgg","pricing_plan_id":"cebpf4jnsgd1na2vs0mg"},{"bike_id":"0315488a-ccbe-4287-82d0-bcd151af324b","system_id":"levelo_inurba_marseille","lat":43.3133,"lon":5.39688,"is_reserved":false,"is_disabled":false,"rental_uris":{"android":"levelo://app?vid=0315488a-ccbe-4287-82d0-bcd151af324b","ios":"levelo://app?vid=0315488a-ccbe-4287-82d0-bcd151af324b"},"vehicle_type_id":"4","last_reported":1744747888,"current_range_meters":18800,"station_id":"ce4bgvp2rcd13ifvqcu0","pricing_plan_id":"cebpf4jnsgd1na2vs0mg"},{"bike_id":"ba85b89a-d406-4f09-b4a2-d1c9dbfe70d6","system_id":"levelo_inurba_marseille","lat":43.231941,"lon":5.399812,"is_reserved":false,"is_disabled":false,"rental_uris":{"android":"levelo://app?vid=ba85b89a-d406-4f09-b4a2-d1c9dbfe70d6","ios":"levelo://app?vid=ba85b89a-d406-4f09-b4a2-d1c9dbfe70d6"},"vehicle_type_id":"4","last_reported":1744747888,"current_range_meters":18800,"station_id":"ce4bhn12rcd13ifvqgqg","pricing_plan_id":"cebpf4jnsgd1na2vs0mg"},{"bike_id":"3de426c9-05f1-467d-9020-cc2b6b85afd7","system_id":"levelo_inurba_marseille","lat":43.28342,"lon":5.38122,"is_reserved":false,"is_disabled":true,"rental_uris":{"android":"levelo://app?vid=3de426c9-05f1-467d-9020-cc2b6b85afd7","ios":"levelo://app?vid=3de426c9-05f1-467d-9020-cc2b6b85afd7"},"vehicle_type_id":"4","last_reported":1744747888,"current_range_meters":18800,"station_id":"ce4bh412rcd13ifvqdr0","pricing_plan_id":"cebpf4jnsgd1na2vs0mg"},{"bike_id":"20574aa9-213c-4d7c-853e-18430449b58a","system_id":"levelo_inurba_marseille","lat":43.29184,"lon":5.39323,"is_reserved":false,"is_disabled":false,"rental_uris":{"android":"levelo://app?vid=20574aa9-213c-4d7c-853e-18430449b58a","ios":"levelo://app?vid=20574aa9-213c-4d7c-853e-18430449b58a"},"vehicle_type_id":"4","last_reported":1744747888,"current_range_meters":19200,"station_id":"ce4bh192rcd13ifvqdd0","pricing_plan_id":"cebpf4jnsgd1na2vs0mg"},{"bike_id":"1a3a2f23-f780-4743-b697-72ddd12ef8c1","system_id":"levelo_inurba_marseille","lat":43.26678,"lon":5.38263,"is_reserved":false,"is_disabled":false,"rental_uris":{"android":"levelo://app?vid=1a3a2f23-f780-4743-b697-72ddd12ef8c1","ios":"levelo://app?vid=1a3a2f23-f780-4743-b697-72ddd12ef8c1"},"vehicle_type_id":"4","last_reported":1744747888,"current_range_meters":18800,"station_id":"ce4bhg92rcd13ifvqf90","pricing_plan_id":"cebpf4jnsgd1na2vs0mg"},{"bike_id":"37af77cd-da0b-4d48-87c4-b37ee2687136","system_id":"levelo_inurba_marseille","lat":43.28845,"lon":5.3593,"is_reserved":false,"is_disabled":false,"rental_uris":{"android":"levelo://app?vid=37af77cd-da0b-4d48-87c4-b37ee2687136","ios":"levelo://app?vid=37af77cd-da0b-4d48-87c4-b37ee2687136"},"vehicle_type_id":"4","last_reported":1744747888,"current_range_meters":19200,"station_id":"","pricing_plan_id":"cebpf4jnsgd1na2vs0mg"},{"bike_id":"82d1664a-7d8c-474b-b699-5a84661c6d85","system_id":"levelo_inurba_marseille","lat":43.29026,"lon":5.38141,"is_reserved":false,"is_disabled":false,"rental_uris":{"android":"levelo://app?vid=82d1664a-7d8c-474b-b699-5a84661c6d85","ios":"levelo://app?vid=82d1664a-7d8c-474b-b699-5a84661c6d85"},"vehicle_type_id":"4","last_reported":1744747888,"current_range_meters":18800,"station_id":"ce4bh4p2rcd13ifvqe1g","pricing_plan_id":"cebpf4jnsgd1na2vs0mg"},{"bike_id":"3f43a50c-05da-4e00-b1e1-be54458029bc","system_id":"levelo_inurba_marseille","lat":43.28278,"lon":5.350848,"is_reserved":false,"is_disabled":false,"rental_uris":{"android":"levelo://app?vid=3f43a50c-05da-4e00-b1e1-be54458029bc","ios":"levelo://app?vid=3f43a50c-05da-4e00-b1e1-be54458029bc"},"vehicle_type_id":"4","last_reported":1744747888,"current_range_meters":19200,"station_id":"ce4bhbp2rcd13ifvqerg","pricing_plan_id":"cebpf4jnsgd1na2vs0mg"},{"bike_id":"b082caf9-1aa9-41e8-8081-4da72e64e8e4","system_id":"levelo_inurba_marseille","lat":43.309249,"lon":5.401507,"is_reserved":false,"is_disabled":true,"rental_uris":{"android":"levelo://app?vid=b082caf9-1aa9-41e8-8081-4da72e64e8e4","ios":"levelo://app?vid=b082caf9-1aa9-41e8-8081-4da72e64e8e4"},"vehicle_type_id":"4","last_reported":1744747888,"current_range_meters":19200,"station_id":"ce4bgvp2rcd13ifvqct0","pricing_plan_id":"cebpf4jnsgd1na2vs0mg"},{"bike_id":"dce5e8ea-9442-4875-9be3-e585d2d3c5c4","system_id":"levelo_inurba_marseille","lat":43.2863,"lon":5.35084,"is_reserved":false,"is_disabled":false,"rental_uris":{"android":"levelo://app?vid=dce5e8ea-9442-4875-9be3-e585d2d3c5c4","ios":"levelo://app?vid=dce5e8ea-9442-4875-9be3-e585d2d3c5c4"},"vehicle_type_id":"4","last_reported":1744747888,"current_range_meters":19200,"station_id":"ce4bhch2rcd13ifvqeug","pricing_plan_id":"cebpf4jnsgd1na2vs0mg"},{"bike_id":"5ed36ec5-2e14-4398-bcf4-f688c76231b2","system_id":"levelo_inurba_marseille","lat":43.30793,"lon":5.38162,"is_reserved":false,"is_disabled":false,"rental_uris":{"android":"levelo://app?vid=5ed36ec5-2e14-4398-bcf4-f688c76231b2","ios":"levelo://app?vid=5ed36ec5-2e14-4398-bcf4-f688c76231b2"},"vehicle_type_id":"4","last_reported":1744747888,"current_range_meters":19600,"station_id":"ce4bgt12rcd13ifvqce0","pricing_plan_id":"cebpf4jnsgd1na2vs0mg"},{"bike_id":"ed97a721-7aee-47b1-b49b-a65ade99fd09","system_id":"levelo_inurba_marseille","lat":43.34305,"lon":5.378,"is_reserved":false,"is_disabled":false,"rental_uris":{"android":"levelo://app?vid=ed97a721-7aee-47b1-b49b-a65ade99fd09","ios":"levelo://app?vid=ed97a721-7aee-47b1-b49b-a65ade99fd09"},"vehicle_type_id":"4","last_reported":1744747888,"current_range_meters":19600,"station_id":"","pricing_plan_id":"cebpf4jnsgd1na2vs0mg"},{"bike_id":"57fe5364-417b-4e91-ad46-f3b13c97e14f","system_id":"levelo_inurba_marseille","lat":43.33006,"lon":5.43873,"is_reserved":false,"is_disabled":false,"rental_uris":{"android":"levelo://app?vid=57fe5364-417b-4e91-ad46-f3b13c97e14f","ios":"levelo://app?vid=57fe5364-417b-4e91-ad46-f3b13c97e14f"},"vehicle_type_id":"4","last_reported":1744747888,"current_range_meters":19600,"station_id":"","pricing_plan_id":"cebpf4jnsgd1na2vs0mg"},{"bike_id":"9d63fad2-a5c8-4ea3-aaf4-5603af3cf49a","system_id":"levelo_inurba_marseille","lat":43.31887,"lon":5.40728,"is_reserved":false,"is_disabled":false,"rental_uris":{"android":"levelo://app?vid=9d63fad2-a5c8-4ea3-aaf4-5603af3cf49a","ios":"levelo://app?vid=9d63fad2-a5c8-4ea3-aaf4-5603af3cf49a"},"vehicle_type_id":"4","last_reported":1744747888,"current_range_meters":19600,"station_id":"ce4bhq12rcd13ifvqhig","pricing_plan_id":"cebpf4jnsgd1na2vs0mg"},{"bike_id":"1f53e00c-9079-455a-b3f5-89432e5d0d5c","system_id":"levelo_inurba_marseille","lat":43.31274,"lon":5.40169,"is_reserved":false,"is_disabled":false,"rental_uris":{"android":"levelo://app?vid=1f53e00c-9079-455a-b3f5-89432e5d0d5c","ios":"levelo://app?vid=1f53e00c-9079-455a-b3f5-89432e5d0d5c"},"vehicle_type_id":"4","last_reported":1744747888,"current_range_meters":19600,"station_id":"ce4bh092rcd13ifvqd30","pricing_plan_id":"cebpf4jnsgd1na2vs0mg"},{"bike_id":"f0785399-bf85-4d3a-8f51-5f6af255955b","system_id":"levelo_inurba_marseille","lat":43.29535,"lon":5.38548,"is_reserved":false,"is_disabled":false,"rental_uris":{"android":"levelo://app?vid=f0785399-bf85-4d3a-8f51-5f6af255955b","ios":"levelo://app?vid=f0785399-bf85-4d3a-8f51-5f6af255955b"},"vehicle_type_id":"4","last_reported":1744747888,"current_range_meters":19600,"station_id":"ce4bgih2rcd13ifvqba0","pricing_plan_id":"cebpf4jnsgd1na2vs0mg"},{"bike_id":"dce739b5-7c7d-4e4a-81ce-b45e0a7e8bbc","system_id":"levelo_inurba_marseille","lat":43.27071,"lon":5.42272,"is_reserved":false,"is_disabled":false,"rental_uris":{"android":"levelo://app?vid=dce739b5-7c7d-4e4a-81ce-b45e0a7e8bbc","ios":"levelo://app?vid=dce739b5-7c7d-4e4a-81ce-b45e0a7e8bbc"},"vehicle_type_id":"4","last_reported":1744747888,"current_range_meters":19600,"station_id":"ce4bhk92rcd13ifvqgb0","pricing_plan_id":"cebpf4jnsgd1na2vs0mg"},{"bike_id":"d6fee597-3293-47ae-914e-c48760e9f772","system_id":"levelo_inurba_marseille","lat":43.24072,"lon":5.37778,"is_reserved":false,"is_disabled":false,"rental_uris":{"android":"levelo://app?vid=d6fee597-3293-47ae-914e-c48760e9f772","ios":"levelo://app?vid=d6fee597-3293-47ae-914e-c48760e9f772"},"vehicle_type_id":"4","last_reported":1744747888,"current_range_meters":19600,"station_id":"ce4bhnp2rcd13ifvqgvg","pricing_plan_id":"cebpf4jnsgd1na2vs0mg"},{"bike_id":"58422983-0d94-4112-993a-86a4c1f94262","system_id":"levelo_inurba_marseille","lat":43.2874,"lon":5.36079,"is_reserved":false,"is_disabled":false,"rental_uris":{"android":"levelo://app?vid=58422983-0d94-4112-993a-86a4c1f94262","ios":"levelo://app?vid=58422983-0d94-4112-993a-86a4c1f94262"},"vehicle_type_id":"4","last_reported":1744747888,"current_range_meters":20000,"station_id":"cki0cbj6b192h4jlfktg","pricing_plan_id":"cebpf4jnsgd1na2vs0mg"},{"bike_id":"b76a366b-6464-49b8-8aea-9aa46635f1d1","system_id":"levelo_inurba_marseille","lat":43.28392,"lon":5.37519,"is_reserved":false,"is_disabled":false,"rental_uris":{"android":"levelo://app?vid=b76a366b-6464-49b8-8aea-9aa46635f1d1","ios":"levelo://app?vid=b76a366b-6464-49b8-8aea-9aa46635f1d1"},"vehicle_type_id":"4","last_reported":1744747888,"current_range_meters":20000,"station_id":"ce4bh412rcd13ifvqds0","pricing_plan_id":"cebpf4jnsgd1na2vs0mg"},{"bike_id":"10a05b79-c3d5-4be7-a18b-8140be240501","system_id":"levelo_inurba_marseille","lat":43.2961,"lon":5.3811,"is_reserved":false,"is_disabled":true,"rental_uris":{"android":"levelo://app?vid=10a05b79-c3d5-4be7-a18b-8140be240501","ios":"levelo://app?vid=10a05b79-c3d5-4be7-a18b-8140be240501"},"vehicle_type_id":"4","last_reported":1744747888,"current_range_meters":20000,"station_id":"ce4bgl12rcd13ifvqbo0","pricing_plan_id":"cebpf4jnsgd1na2vs0mg"},{"bike_id":"f3a17301-f4cd-4211-8c74-a7b1a492d742","system_id":"levelo_inurba_marseille","lat":43.280766,"lon":5.407759,"is_reserved":false,"is_disabled":false,"rental_uris":{"android":"levelo://app?vid=f3a17301-f4cd-4211-8c74-a7b1a492d742","ios":"levelo://app?vid=f3a17301-f4cd-4211-8c74-a7b1a492d742"},"vehicle_type_id":"4","last_reported":1744747888,"current_range_meters":20000,"station_id":"","pricing_plan_id":"cebpf4jnsgd1na2vs0mg"},{"bike_id":"210c506a-59de-4682-b406-e4c495881ddb","system_id":"levelo_inurba_marseille","lat":43.23154,"lon":5.43705,"is_reserved":false,"is_disabled":false,"rental_uris":{"android":"levelo://app?vid=210c506a-59de-4682-b406-e4c495881ddb","ios":"levelo://app?vid=210c506a-59de-4682-b406-e4c495881ddb"},"vehicle_type_id":"4","last_reported":1744747888,"current_range_meters":19600,"station_id":"ce4bhmp2rcd13ifvqgog","pricing_plan_id":"cebpf4jnsgd1na2vs0mg"},{"bike_id":"90a27645-a5f6-487a-a1a8-67ca08ff4b5c","system_id":"levelo_inurba_marseille","lat":43.24379,"lon":5.37052,"is_reserved":false,"is_disabled":false,"rental_uris":{"android":"levelo://app?vid=90a27645-a5f6-487a-a1a8-67ca08ff4b5c","ios":"levelo://app?vid=90a27645-a5f6-487a-a1a8-67ca08ff4b5c"},"vehicle_type_id":"4","last_reported":1744747888,"current_range_meters":20000,"station_id":"ce4bhhh2rcd13ifvqfk0","pricing_plan_id":"cebpf4jnsgd1na2vs0mg"},{"bike_id":"9ae6a8ac-5836-4649-bd53-f348a84f4e34","system_id":"levelo_inurba_marseille","lat":43.28903,"lon":5.361513,"is_reserved":false,"is_disabled":false,"rental_uris":{"android":"levelo://app?vid=9ae6a8ac-5836-4649-bd53-f348a84f4e34","ios":"levelo://app?vid=9ae6a8ac-5836-4649-bd53-f348a84f4e34"},"vehicle_type_id":"4","last_reported":1744747888,"current_range_meters":20000,"station_id":"ce4bgjp2rcd13ifvqbh0","pricing_plan_id":"cebpf4jnsgd1na2vs0mg"},{"bike_id":"977692c3-1dbb-48f8-91ca-9a390e2dda0e","system_id":"levelo_inurba_marseille","lat":43.28269,"lon":5.35075,"is_reserved":false,"is_disabled":false,"rental_uris":{"android":"levelo://app?vid=977692c3-1dbb-48f8-91ca-9a390e2dda0e","ios":"levelo://app?vid=977692c3-1dbb-48f8-91ca-9a390e2dda0e"},"vehicle_type_id":"4","last_reported":1744747888,"current_range_meters":20000,"station_id":"ce4bhbp2rcd13ifvqerg","pricing_plan_id":"cebpf4jnsgd1na2vs0mg"},{"bike_id":"ad5fdcc4-c278-4bd4-93ef-e90d4068ce0d","system_id":"levelo_inurba_marseille","lat":43.26947,"lon":5.38637,"is_reserved":false,"is_disabled":false,"rental_uris":{"android":"levelo://app?vid=ad5fdcc4-c278-4bd4-93ef-e90d4068ce0d","ios":"levelo://app?vid=ad5fdcc4-c278-4bd4-93ef-e90d4068ce0d"},"vehicle_type_id":"4","last_reported":1744747888,"current_range_meters":20000,"station_id":"ce4bhh92rcd13ifvqfh0","pricing_plan_id":"cebpf4jnsgd1na2vs0mg"},{"bike_id":"6a8e9068-2a8d-4c93-8c2d-e30f03079545","system_id":"levelo_inurba_marseille","lat":43.25704,"lon":5.41115,"is_reserved":false,"is_disabled":true,"rental_uris":{"android":"levelo://app?vid=6a8e9068-2a8d-4c93-8c2d-e30f03079545","ios":"levelo://app?vid=6a8e9068-2a8d-4c93-8c2d-e30f03079545"},"vehicle_type_id":"4","last_reported":1744747888,"current_range_meters":20000,"station_id":"ce4bhkp2rcd13ifvqgd0","pricing_plan_id":"cebpf4jnsgd1na2vs0mg"},{"bike_id":"5b5d6779-3b49-4f97-b4f0-2cf71b671d0c","system_id":"levelo_inurba_marseille","lat":43.29196,"lon":5.39327,"is_reserved":false,"is_disabled":false,"rental_uris":{"android":"levelo://app?vid=5b5d6779-3b49-4f97-b4f0-2cf71b671d0c","ios":"levelo://app?vid=5b5d6779-3b49-4f97-b4f0-2cf71b671d0c"},"vehicle_type_id":"4","last_reported":1744747888,"current_range_meters":20000,"station_id":"ce4bh192rcd13ifvqdd0","pricing_plan_id":"cebpf4jnsgd1na2vs0mg"},{"bike_id":"a0175286-4469-4dd3-a4b7-1fdbc404dd0b","system_id":"levelo_inurba_marseille","lat":43.31714,"lon":5.43714,"is_reserved":false,"is_disabled":false,"rental_uris":{"android":"levelo://app?vid=a0175286-4469-4dd3-a4b7-1fdbc404dd0b","ios":"levelo://app?vid=a0175286-4469-4dd3-a4b7-1fdbc404dd0b"},"vehicle_type_id":"4","last_reported":1744747888,"current_range_meters":20400,"station_id":"ce4bhp92rcd13ifvqhcg","pricing_plan_id":"cebpf4jnsgd1na2vs0mg"},{"bike_id":"5e10fe67-b683-45bd-867f-7bcf9362603a","system_id":"levelo_inurba_marseille","lat":43.29041,"lon":5.37626,"is_reserved":false,"is_disabled":false,"rental_uris":{"android":"levelo://app?vid=5e10fe67-b683-45bd-867f-7bcf9362603a","ios":"levelo://app?vid=5e10fe67-b683-45bd-867f-7bcf9362603a"},"vehicle_type_id":"4","last_reported":1744747888,"current_range_meters":20400,"station_id":"","pricing_plan_id":"cebpf4jnsgd1na2vs0mg"},{"bike_id":"ab863a17-a8a2-4073-b516-607cb08fc41a","system_id":"levelo_inurba_marseille","lat":43.27477,"lon":5.42447,"is_reserved":false,"is_disabled":false,"rental_uris":{"android":"levelo://app?vid=ab863a17-a8a2-4073-b516-607cb08fc41a","ios":"levelo://app?vid=ab863a17-a8a2-4073-b516-607cb08fc41a"},"vehicle_type_id":"4","last_reported":1744747888,"current_range_meters":20400,"station_id":"ce4bhn92rcd13ifvqgrg","pricing_plan_id":"cebpf4jnsgd1na2vs0mg"},{"bike_id":"6c103f9f-c959-46ad-a2e8-e44f9660c68e","system_id":"levelo_inurba_marseille","lat":43.21193,"lon":5.35079,"is_reserved":false,"is_disabled":false,"rental_uris":{"android":"levelo://app?vid=6c103f9f-c959-46ad-a2e8-e44f9660c68e","ios":"levelo://app?vid=6c103f9f-c959-46ad-a2e8-e44f9660c68e"},"vehicle_type_id":"4","last_reported":1744747888,"current_range_meters":20400,"station_id":"st_cvj6sg6p6f1abm77japg","pricing_plan_id":"cebpf4jnsgd1na2vs0mg"},{"bike_id":"3659be84-4418-44c5-b7a1-77ced34277a2","system_id":"levelo_inurba_marseille","lat":43.30795,"lon":5.38151,"is_reserved":false,"is_disabled":false,"rental_uris":{"android":"levelo://app?vid=3659be84-4418-44c5-b7a1-77ced34277a2","ios":"levelo://app?vid=3659be84-4418-44c5-b7a1-77ced34277a2"},"vehicle_type_id":"4","last_reported":1744747888,"current_range_meters":20400,"station_id":"ce4bgt12rcd13ifvqce0","pricing_plan_id":"cebpf4jnsgd1na2vs0mg"},