{"last_updated":1713038786,"ttl":30,"version":"2.2","data":{"bikes":[{"bike_id":"d7dac225-5d68-4298-aaa0-4611d2ba8ed7","system_id":"levelo_inurba_marseille","lat":43.313391,"lon":5.36706,"is_reserved":false,"is_disabled":false,"rental_uris":{"android":"levelo://app?vid=d7dac225-5d68-4298-aaa0-4611d2ba8ed7","ios":"levelo://app?vid=d7dac225-5d68-4298-aaa0-4611d2ba8ed7"},"vehicle_type_id":"4","last_reported":1713038786,"current_range_meters":20400,"station_id":"ce4bgr92rcd13ifvqc6g","pricing_plan_id":"cebpf4jnsgd1na2vs0mg"},{"bike_id":"a474461a-0709-420b-8fd1-2831a1f4bc7b","system_id":"levelo_inurba_marseille","lat":43.312239,"lon":5.368562,"is_reserved":false,"is_disabled":false,"rental_uris":{"android":"levelo://app?vid=a474461a-0709-420b-8fd1-2831a1f4bc7b","ios":"levelo://app?vid=a474461a-0709-420b-8fd1-2831a1f4bc7b"},"vehicle_type_id":"4","last_reported":1713038786,"current_range_meters":5600,"station_id":"ce4bgl92rcd13ifvqbq0","pricing_plan_id":"cebpf4jnsgd1na2vs0mg"},{"bike_id":"ac478ff8-a872-4ce5-85cf-674e6be1a35c","system_id":"levelo_inurba_marseille","lat":43.312239,"lon":5.368562,"is_reserved":false,"is_disabled":false,"rental_uris":{"android":"levelo://app?vid=ac478ff8-a872-4ce5-85cf-674e6be1a35c","ios":"levelo://app?vid=ac478ff8-a872-4ce5-85cf-674e6be1a35c"},"vehicle_type_id":"4","last_reported":1713038786,"current_range_meters":3200,"station_id":"ce4bgl92rcd13ifvqbq0","pricing_plan_id":"cebpf4jnsgd1na2vs0mg"},{"bike_id":"fc4fdf98-f95e-4599-b1ce-b0e126d69951","system_id":"levelo_inurba_marseille","lat":43.31213,"lon":5.36856,"is_reserved":false,"is_disabled":false,"rental_uris":{"android":"levelo://app?vid=fc4fdf98-f95e-4599-b1ce-b0e126d69951","ios":"levelo://app?vid=fc4fdf98-f95e-4599-b1ce-b0e126d69951"},"vehicle_type_id":"4","last_reported":1713038786,"current_range_meters":0,"station_id":"ce4bgl92rcd13ifvqbq0","pricing_plan_id":"cebpf4jnsgd1na2vs0mg"},{"bike_id":"046ecfc8-0b8d-4006-a0a0-6abc501bb490","system_id":"levelo_inurba_marseille","lat":43.309076,"lon":5.368465,"is_reserved":false,"is_disabled":false,"rental_uris":{"android":"levelo://app?vid=046ecfc8-0b8d-4006-a0a0-6abc501bb490","ios":"levelo://app?vid=046ecfc8-0b8d-4006-a0a0-6abc501bb490"},"vehicle_type_id":"4","last_reported":1713038786,"current_range_meters":11200,"station_id":"ce4bgn92rcd13ifvqbvg","pricing_plan_id":"cebpf4jnsgd1na2vs0mg"},{"bike_id":"0740062b-184b-4985-b8b0-224980da8d11","system_id":"levelo_inurba_marseille","lat":43.31502,"lon":5.373,"is_reserved":false,"is_disabled":false,"rental_uris":{"android":"levelo://app?vid=0740062b-184b-4985-b8b0-224980da8d11","ios":"levelo://app?vid=0740062b-184b-4985-b8b0-224980da8d11"},"vehicle_type_id":"4","last_reported":1713038786,"current_range_meters":0,"station_id":"ce4bgt12rcd13ifvqcd0","pricing_plan_id":"cebpf4jnsgd1na2vs0mg"},{"bike_id":"76f6dbd9-d56e-4fd4-8cc7-c880b84f51f4","system_id":"levelo_inurba_marseille","lat":43.309039,"lon":5.371797,"is_reserved":false,"is_disabled":false,"rental_uris":{"android":"levelo://app?vid=76f6dbd9-d56e-4fd4-8cc7-c880b84f51f4","ios":"levelo://app?vid=76f6dbd9-d56e-4fd4-8cc7-c880b84f51f4"},"vehicle_type_id":"4","last_reported":1713038786,"current_range_meters":800,"station_id":"ce4bguh2rcd13ifvqckg","pricing_plan_id":"cebpf4jnsgd1na2vs0mg"},{"bike_id":"df2e3bb7-e4cf-4102-9bd4-9b7899b711b4","system_id":"levelo_inurba_marseille","lat":43.309039,"lon":5.371797,"is_reserved":false,"is_disabled":false,"rental_uris":{"android":"levelo://app?vid=df2e3bb7-e4cf-4102-9bd4-9b7899b711b4","ios":"levelo://app?vid=df2e3bb7-e4cf-4102-9bd4-9b7899b711b4"},"vehicle_type_id":"4","last_reported":1713038786,"current_range_meters":16000,"station_id":"ce4bguh2rcd13ifvqckg","pricing_plan_id":"cebpf4jnsgd1na2vs0mg"},{"bike_id":"3de62152-8e59-4acd-8160-e2be3c5eebc8","system_id":"levelo_inurba_marseille","lat":43.309039,"lon":5.371797,"is_reserved":false,"is_disabled":false,"rental_uris":{"android":"levelo://app?vid=3de62152-8e59-4acd-8160-e2be3c5eebc8","ios":"levelo://app?vid=3de62152-8e59-4acd-8160-e2be3c5eebc8"},"vehicle_type_id":"4","last_reported":1713038786,"current_range_meters":25600,"station_id":"ce4bguh2rcd13ifvqckg","pricing_plan_id":"cebpf4jnsgd1na2vs0mg"},{"bike_id":"65c9d116-03bb-4feb-b152-8bf4a6d2819d","system_id":"levelo_inurba_marseille","lat":43.30537,"lon":5.36548,"is_reserved":false,"is_disabled":false,"rental_uris":{"android":"levelo://app?vid=65c9d116-03bb-4feb-b152-8bf4a6d2819d","ios":"levelo://app?vid=65c9d116-03bb-4feb-b152-8bf4a6d2819d"},"vehicle_type_id":"4","last_reported":1713038786,"current_range_meters":28800,"station_id":"ce4bgs12rcd13ifvqcag","pricing_plan_id":"cebpf4jnsgd1na2vs0mg"},{"bike_id":"6740e3c9-312d-48aa-928f-4bab8997315b","system_id":"levelo_inurba_marseille","lat":43.305989,"lon":5.37225,"is_reserved":false,"is_disabled":false,"rental_uris":{"android":"levelo://app?vid=6740e3c9-312d-48aa-928f-4bab8997315b","ios":"levelo://app?vid=6740e3c9-312d-48aa-928f-4bab8997315b"},"vehicle_type_id":"4","last_reported":1713038786,"current_range_meters":4800,"station_id":"ce4bgqh2rcd13ifvqc4g","pricing_plan_id":"cebpf4jnsgd1na2vs0mg"},{"bike_id":"69f72f4f-6306-4a5c-9ebf-1cc3602f2761","system_id":"levelo_inurba_marseille","lat":43.305989,"lon":5.37225,"is_reserved":false,"is_disabled":false,"rental_uris":{"android":"levelo://app?vid=69f72f4f-6306-4a5c-9ebf-1cc3602f2761","ios":"levelo://app?vid=69f72f4f-6306-4a5c-9ebf-1cc3602f2761"},"vehicle_type_id":"4","last_reported":1713038786,"current_range_meters":10800,"station_id":"ce4bgqh2rcd13ifvqc4g","pricing_plan_id":"cebpf4jnsgd1na2vs0mg"},{"bike_id":"9a029e55-6359-4ab1-be4c-019cdec219f4","system_id":"levelo_inurba_marseille","lat":43.311125,"lon":5.377624,"is_reserved":false,"is_disabled":false,"rental_uris":{"android":"levelo://app?vid=9a029e55-6359-4ab1-be4c-019cdec219f4","ios":"levelo://app?vid=9a029e55-6359-4ab1-be4c-019cdec219f4"},"vehicle_type_id":"4","last_reported":1713038786,"current_range_meters":25600,"station_id":"ce4bgt92rcd13ifvqcg0","pricing_plan_id":"cebpf4jnsgd1na2vs0mg"},{"bike_id":"86c1926f-dda5-4451-b971-db548d76906c","system_id":"levelo_inurba_marseille","lat":43.311131,"lon":5.377651,"is_reserved":false,"is_disabled":false,"rental_uris":{"android":"levelo://app?vid=86c1926f-dda5-4451-b971-db548d76906c","ios":"levelo://app?vid=86c1926f-dda5-4451-b971-db548d76906c"},"vehicle_type_id":"4","last_reported":1713038786,"current_range_meters":400,"station_id":"ce4bgt92rcd13ifvqcg0","pricing_plan_id":"cebpf4jnsgd1na2vs0mg"},{"bike_id":"41bb2bfd-5693-4d14-a9fb-ed7f23aad875","system_id":"levelo_inurba_marseille","lat":43.315289,"lon":5.380349,"is_reserved":false,"is_disabled":false,"rental_uris":{"android":"levelo://app?vid=41bb2bfd-5693-4d14-a9fb-ed7f23aad875","ios":"levelo://app?vid=41bb2bfd-5693-4d14-a9fb-ed7f23aad875"},"vehicle_type_id":"4","last_reported":1713038786,"current_range_meters":26000,"station_id":"ce4bhsp2rcd13ifvqi50","pricing_plan_id":"cebpf4jnsgd1na2vs0mg"},{"bike_id":"c973c696-6cf3-4ef6-9922-20142626237f","system_id":"levelo_inurba_marseille","lat":43.30282,"lon":5.37259,"is_reserved":false,"is_disabled":false,"rental_uris":{"android":"levelo://app?vid=c973c696-6cf3-4ef6-9922-20142626237f","ios":"levelo://app?vid=c973c696-6cf3-4ef6-9922-20142626237f"},"vehicle_type_id":"4","last_reported":1713038786,"current_range_meters":14000,"station_id":"","pricing_plan_id":"cebpf4jnsgd1na2vs0mg"},{"bike_id":"863be548-8b59-4c47-b07c-2f0c31f632cd","system_id":"levelo_inurba_marseille","lat":43.301939,"lon":5.366286,"is_reserved":false,"is_disabled":false,"rental_uris":{"android":"levelo://app?vid=863be548-8b59-4c47-b07c-2f0c31f632cd","ios":"levelo://app?vid=863be548-8b59-4c47-b07c-2f0c31f632cd"},"vehicle_type_id":"4","last_reported":1713038786,"current_range_meters":3200,"station_id":"ce4bgrh2rcd13ifvqc8g","pricing_plan_id":"cebpf4jnsgd1na2vs0mg"},{"bike_id":"70e420b7-d083-46db-9dec-6d33b60adf06","system_id":"levelo_inurba_marseille","lat":43.301939,"lon":5.366286,"is_reserved":false,"is_disabled":false,"rental_uris":{"android":"levelo://app?vid=70e420b7-d083-46db-9dec-6d33b60adf06","ios":"levelo://app?vid=70e420b7-d083-46db-9dec-6d33b60adf06"},"vehicle_type_id":"4","last_reported":1713038786,"current_range_meters":0,"station_id":"ce4bgrh2rcd13ifvqc8g","pricing_plan_id":"cebpf4jnsgd1na2vs0mg"},{"bike_id":"f5a3f466-5519-44bf-977c-e286a7d55481","system_id":"levelo_inurba_marseille","lat":43.30805,"lon":5.38157,"is_reserved":false,"is_disabled":false,"rental_uris":{"android":"levelo://app?vid=f5a3f466-5519-44bf-977c-e286a7d55481","ios":"levelo://app?vid=f5a3f466-5519-44bf-977c-e286a7d55481"},"vehicle_type_id":"4","last_reported":1713038786,"current_range_meters":0,"station_id":"ce4bgt12rcd13ifvqce0","pricing_plan_id":"cebpf4jnsgd1na2vs0mg"},{"bike_id":"3d8d977e-dabf-4e0f-84b9-25af31a93565","system_id":"levelo_inurba_marseille","lat":43.30805,"lon":5.381592,"is_reserved":false,"is_disabled":false,"rental_uris":{"android":"levelo://app?vid=3d8d977e-dabf-4e0f-84b9-25af31a93565","ios":"levelo://app?vid=3d8d977e-dabf-4e0f-84b9-25af31a93565"},"vehicle_type_id":"4","last_reported":1713038786,"current_range_meters":0,"station_id":"ce4bgt12rcd13ifvqce0","pricing_plan_id":"cebpf4jnsgd1na2vs0mg"},{"bike_id":"c1a4e4fc-91e6-4d8c-b1ff-5893e3499cf7","system_id":"levelo_inurba_marseille","lat":43.324771,"lon":5.36557,"is_reserved":false,"is_disabled":false,"rental_uris":{"android":"levelo://app?vid=c1a4e4fc-91e6-4d8c-b1ff-5893e3499cf7","ios":"levelo://app?vid=c1a4e4fc-91e6-4d8c-b1ff-5893e3499cf7"},"vehicle_type_id":"4","last_reported":1713038786,"current_range_meters":4800,"station_id":"ce4bhs12rcd13ifvqhvg","pricing_plan_id":"cebpf4jnsgd1na2vs0mg"},{"bike_id":"32e22b54-e6ff-4b9d-97b2-2af4955bad10","system_id":"levelo_inurba_marseille","lat":43.324771,"lon":5.36557,"is_reserved":false,"is_disabled":false,"rental_uris":{"android":"levelo://app?vid=32e22b54-e6ff-4b9d-97b2-2af4955bad10","ios":"levelo://app?vid=32e22b54-e6ff-4b9d-97b2-2af4955bad10"},"vehicle_type_id":"4","last_reported":1713038786,"current_range_meters":11600,"station_id":"ce4bhs12rcd13ifvqhvg","pricing_plan_id":"cebpf4jnsgd1na2vs0mg"},{"bike_id":"9c1851c6-a6dd-42ae-ae48-8b471e25e7a1","system_id":"levelo_inurba_marseille","lat":43.310804,"lon":5.38359,"is_reserved":false,"is_disabled":false,"rental_uris":{"android":"levelo://app?vid=9c1851c6-a6dd-42ae-ae48-8b471e25e7a1","ios":"levelo://app?vid=9c1851c6-a6dd-42ae-ae48-8b471e25e7a1"},"vehicle_type_id":"4","last_reported":1713038786,"current_range_meters":15600,"station_id":"ce4bgv92rcd13ifvqcr0","pricing_plan_id":"cebpf4jnsgd1na2vs0mg"},{"bike_id":"731ac6c5-fcc0-4b86-a53e-7adc129e3fb4","system_id":"levelo_inurba_marseille","lat":43.324771,"lon":5.36557,"is_reserved":false,"is_disabled":false,"rental_uris":{"android":"levelo://app?vid=731ac6c5-fcc0-4b86-a53e-7adc129e3fb4","ios":"levelo://app?vid=731ac6c5-fcc0-4b86-a53e-7adc129e3fb4"},"vehicle_type_id":"4","last_reported":1713038786,"current_range_meters":5600,"station_id":"ce4bhs12rcd13ifvqhvg","pricing_plan_id":"cebpf4jnsgd1na2vs0mg"},{"bike_id":"8b432f7d-c47e-4352-ba65-55295a015a50","system_id":"levelo_inurba_marseille","lat":43.302784,"lon":5.377158,"is_reserved":false,"is_disabled":false,"rental_uris":{"android":"levelo://app?vid=8b432f7d-c47e-4352-ba65-55295a015a50","ios":"levelo://app?vid=8b432f7d-c47e-4352-ba65-55295a015a50"},"vehicle_type_id":"4","last_reported":1713038786,"current_range_meters":28400,"station_id":"ce4bguh2rcd13ifvqcj0","pricing_plan_id":"cebpf4jnsgd1na2vs0mg"},{"bike_id":"ad3d9e8a-c19a-430f-98d2-c2296cf735e6","system_id":"levelo_inurba_marseille","lat":43.30143,"lon":5.37413,"is_reserved":false,"is_disabled":false,"rental_uris":{"android":"levelo://app?vid=ad3d9e8a-c19a-430f-98d2-c2296cf735e6","ios":"levelo://app?vid=ad3d9e8a-c19a-430f-98d2-c2296cf735e6"},"vehicle_type_id":"4","last_reported":1713038786,"current_range_meters":4800,"station_id":"ce4bgs92rcd13ifvqcc0","pricing_plan_id":"cebpf4jnsgd1na2vs0mg"},{"bike_id":"f2319324-c16a-4667-a311-1e426cf73adf","system_id":"levelo_inurba_marseille","lat":43.31996,"lon":5.3814,"is_reserved":false,"is_disabled":false,"rental_uris":{"android":"levelo://app?vid=f2319324-c16a-4667-a311-1e426cf73adf","ios":"levelo://app?vid=f2319324-c16a-4667-a311-1e426cf73adf"},"vehicle_type_id":"4","last_reported":1713038786,"current_range_meters":0,"station_id":"ce4bhr12rcd13ifvqhpg","pricing_plan_id":"cebpf4jnsgd1na2vs0mg"},{"bike_id":"f20c6e9b-dcc7-4cfd-87f9-44495aae8f00","system_id":"levelo_inurba_marseille","lat":43.319935,"lon":5.381699,"is_reserved":false,"is_disabled":false,"rental_uris":{"android":"levelo://app?vid=f20c6e9b-dcc7-4cfd-87f9-44495aae8f00","ios":"levelo://app?vid=f20c6e9b-dcc7-4cfd-87f9-44495aae8f00"},"vehicle_type_id":"4","last_reported":1713038786,"current_range_meters":9600,"station_id":"ce4bhr12rcd13ifvqhpg","pricing_plan_id":"cebpf4jnsgd1na2vs0mg"},{"bike_id":"ddba843e-f6f7-43a7-ab6f-b9528806c4ff","system_id":"levelo_inurba_marseille","lat":43.31368,"lon":5.3849,"is_reserved":false,"is_disabled":false,"rental_uris":{"android":"levelo://app?vid=ddba843e-f6f7-43a7-ab6f-b9528806c4ff","ios":"levelo://app?vid=ddba843e-f6f7-43a7-ab6f-b9528806c4ff"},"vehicle_type_id":"4","last_reported":1713038786,"current_range_meters":0,"station_id":"ce4bgt92rcd13ifvqcf0","pricing_plan_id":"cebpf4jnsgd1na2vs0mg"},{"bike_id":"5d96616e-a590-418b-8f41-779c75d0735b","system_id":"levelo_inurba_marseille","lat":43.299724,"lon":5.371829,"is_reserved":false,"is_disabled":false,"rental_uris":{"android":"levelo://app?vid=5d96616e-a590-418b-8f41-779c75d0735b","ios":"levelo://app?vid=5d96616e-a590-418b-8f41-779c75d0735b"},"vehicle_type_id":"4","last_reported":1713038786,"current_range_meters":6800,"station_id":"ce4bgr92rcd13ifvqc7g","pricing_plan_id":"cebpf4jnsgd1na2vs0mg"},{"bike_id":"40bdfe9b-824d-4f0b-affe-256181a490b7","system_id":"levelo_inurba_marseille","lat":43.299724,"lon":5.371829,"is_reserved":false,"is_disabled":false,"rental_uris":{"android":"levelo://app?vid=40bdfe9b-824d-4f0b-affe-256181a490b7","ios":"levelo://app?vid=40bdfe9b-824d-4f0b-affe-256181a490b7"},"vehicle_type_id":"4","last_reported":1713038786,"current_range_meters":22400,"station_id":"ce4bgr92rcd13ifvqc7g","pricing_plan_id":"cebpf4jnsgd1na2vs0mg"},{"bike_id":"deccc378-ebf3-4d8e-a228-74dbaa109630","system_id":"levelo_inurba_marseille","lat":43.30525,"lon":5.38259,"is_reserved":false,"is_disabled":false,"rental_uris":{"android":"levelo://app?vid=deccc378-ebf3-4d8e-a228-74dbaa109630","ios":"levelo://app?vid=deccc378-ebf3-4d8e-a228-74dbaa109630"},"vehicle_type_id":"4","last_reported":1713038786,"current_range_meters":0,"station_id":"ce4bgup2rcd13ifvqcn0","pricing_plan_id":"cebpf4jnsgd1na2vs0mg"},{"bike_id":"16aef778-e5b2-4b52-a502-542000f26f04","system_id":"levelo_inurba_marseille","lat":43.317557,"lon":5.390173,"is_reserved":false,"is_disabled":false,"rental_uris":{"android":"levelo://app?vid=16aef778-e5b2-4b52-a502-542000f26f04","ios":"levelo://app?vid=16aef778-e5b2-4b52-a502-542000f26f04"},"vehicle_type_id":"4","last_reported":1713038786,"current_range_meters":6800,"station_id":"ce4bhqp2rcd13ifvqhng","pricing_plan_id":"cebpf4jnsgd1na2vs0mg"},{"bike_id":"059f4393-3c2d-41bb-8b42-d7f494ae0b5b","system_id":"levelo_inurba_marseille","lat":43.305364,"lon":5.384119,"is_reserved":false,"is_disabled":false,"rental_uris":{"android":"levelo://app?vid=059f4393-3c2d-41bb-8b42-d7f494ae0b5b","ios":"levelo://app?vid=059f4393-3c2d-41bb-8b42-d7f494ae0b5b"},"vehicle_type_id":"4","last_reported":1713038786,"current_range_meters":9600,"station_id":"ce4bgg92rcd13ifvqb30","pricing_plan_id":"cebpf4jnsgd1na2vs0mg"},{"bike_id":"5e1144de-6f5b-43e3-80ec-980822fb5f96","system_id":"levelo_inurba_marseille","lat":43.30549,"lon":5.38439,"is_reserved":false,"is_disabled":false,"rental_uris":{"android":"levelo://app?vid=5e1144de-6f5b-43e3-80ec-980822fb5f96","ios":"levelo://app?vid=5e1144de-6f5b-43e3-80ec-980822fb5f96"},"vehicle_type_id":"4","last_reported":1713038786,"current_range_meters":9600,"station_id":"ce4bgg92rcd13ifvqb30","pricing_plan_id":"cebpf4jnsgd1na2vs0mg"},{"bike_id":"795655b3-779f-49be-86c6-576e9ea0854c","system_id":"levelo_inurba_marseille","lat":43.298433,"lon":5.362774,"is_reserved":false,"is_disabled":false,"rental_uris":{"android":"levelo://app?vid=795655b3-779f-49be-86c6-576e9ea0854c","ios":"levelo://app?vid=795655b3-779f-49be-86c6-576e9ea0854c"},"vehicle_type_id":"4","last_reported":1713038786,"current_range_meters":17200,"station_id":"ce4bgpp2rcd13ifvqc3g","pricing_plan_id":"cebpf4jnsgd1na2vs0mg"},{"bike_id":"09ba3db7-a6f3-4e61-a389-a6ab5e903a92","system_id":"levelo_inurba_marseille","lat":43.299243,"lon":5.374807,"is_reserved":false,"is_disabled":false,"rental_uris":{"android":"levelo://app?vid=09ba3db7-a6f3-4e61-a389-a6ab5e903a92","ios":"levelo://app?vid=09ba3db7-a6f3-4e61-a389-a6ab5e903a92"},"vehicle_type_id":"4","last_reported":1713038786,"current_range_meters":9200,"station_id":"ce4bgjh2rcd13ifvqbg0","pricing_plan_id":"cebpf4jnsgd1na2vs0mg"},{"bike_id":"3689d52a-3312-461d-b53b-f344a252147d","system_id":"levelo_inurba_marseille","lat":43.311722,"lon":5.387247,"is_reserved":false,"is_disabled":false,"rental_uris":{"android":"levelo://app?vid=3689d52a-3312-461d-b53b-f344a252147d","ios":"levelo://app?vid=3689d52a-3312-461d-b53b-f344a252147d"},"vehicle_type_id":"4","last_reported":1713038786,"current_range_meters":800,"station_id":"ce4bgv12rcd13ifvqcp0","pricing_plan_id":"cebpf4jnsgd1na2vs0mg"},{"bike_id":"4e30049a-66a7-482e-bd59-d5efd80975f7","system_id":"levelo_inurba_marseille","lat":43.297774,"lon":5.370875,"is_reserved":false,"is_disabled":false,"rental_uris":{"android":"levelo://app?vid=4e30049a-66a7-482e-bd59-d5efd80975f7","ios":"levelo://app?vid=4e30049a-66a7-482e-bd59-d5efd80975f7"},"vehicle_type_id":"4","last_reported":1713038786,"current_range_meters":2400,"station_id":"ce4bgop2rcd13ifvqc1g","pricing_plan_id":"cebpf4jnsgd1na2vs0mg"},{"bike_id":"4b062aad-25db-4843-872d-d388d0410ce7","system_id":"levelo_inurba_marseille","lat":43.322872,"lon":5.382756,"is_reserved":false,"is_disabled":false,"rental_uris":{"android":"levelo://app?vid=4b062aad-25db-4843-872d-d388d0410ce7","ios":"levelo://app?vid=4b062aad-25db-4843-872d-d388d0410ce7"},"vehicle_type_id":"4","last_reported":1713038786,"current_range_meters":31200,"station_id":"ce4bhr12rcd13ifvqhqg","pricing_plan_id":"cebpf4jnsgd1na2vs0mg"},{"bike_id":"9ba0f6c2-60d9-4f16-8c91-d875d4f7b218","system_id":"levelo_inurba_marseille","lat":43.297794,"lon":5.370888,"is_reserved":false,"is_disabled":false,"rental_uris":{"android":"levelo://app?vid=9ba0f6c2-60d9-4f16-8c91-d875d4f7b218","ios":"levelo://app?vid=9ba0f6c2-60d9-4f16-8c91-d875d4f7b218"},"vehicle_type_id":"4","last_reported":1713038786,"current_range_meters":10400,"station_id":"ce4bgop2rcd13ifvqc1g","pricing_plan_id":"cebpf4jnsgd1na2vs0mg"},{"bike_id":"750d6de0-9694-455d-a9d6-286f5fc62a80","system_id":"levelo_inurba_marseille","lat":43.322872,"lon":5.382756,"is_reserved":false,"is_disabled":false,"rental_uris":{"android":"levelo://app?vid=750d6de0-9694-455d-a9d6-286f5fc62a80","ios":"levelo://app?vid=750d6de0-9694-455d-a9d6-286f5fc62a80"},"vehicle_type_id":"4","last_reported":1713038786,"current_range_meters":4400,"station_id":"ce4bhr12rcd13ifvqhqg","pricing_plan_id":"cebpf4jnsgd1na2vs0mg"},{"bike_id":"854461f8-f355-437a-a5b5-286b8dce7d1d","system_id":"levelo_inurba_marseille","lat":43.322872,"lon":5.382756,"is_reserved":false,"is_disabled":false,"rental_uris":{"android":"levelo://app?vid=854461f8-f355-437a-a5b5-286b8dce7d1d","ios":"levelo://app?vid=854461f8-f355-437a-a5b5-286b8dce7d1d"},"vehicle_type_id":"4","last_reported":1713038786,"current_range_meters":5600,"station_id":"ce4bhr12rcd13ifvqhqg","pricing_plan_id":"cebpf4jnsgd1na2vs0mg"},{"bike_id":"a0966fc8-2392-4139-a1c3-dfe66870b261","system_id":"levelo_inurba_marseille","lat":43.317557,"lon":5.390173,"is_reserved":false,"is_disabled":false,"rental_uris":{"android":"levelo://app?vid=a0966fc8-2392-4139-a1c3-dfe66870b261","ios":"levelo://app?vid=a0966fc8-2392-4139-a1c3-dfe66870b261"},"vehicle_type_id":"4","last_reported":1713038786,"current_range_meters":9600,"station_id":"ce4bhqp2rcd13ifvqhng","pricing_plan_id":"cebpf4jnsgd1na2vs0mg"},{"bike_id":"65154f79-f153-4b9e-8390-8a0b7ec4e570","system_id":"levelo_inurba_marseille","lat":43.29581,"lon":5.36738,"is_reserved":false,"is_disabled":false,"rental_uris":{"android":"levelo://app?vid=65154f79-f153-4b9e-8390-8a0b7ec4e570","ios":"levelo://app?vid=65154f79-f153-4b9e-8390-8a0b7ec4e570"},"vehicle_type_id":"4","last_reported":1713038786,"current_range_meters":0,"station_id":"ce4bgph2rcd13ifvqc2g","pricing_plan_id":"cebpf4jnsgd1na2vs0mg"},{"bike_id":"983d5755-c6b1-4358-a360-b371c06d1efe","system_id":"levelo_inurba_marseille","lat":43.2958,"lon":5.36742,"is_reserved":false,"is_disabled":false,"rental_uris":{"android":"levelo://app?vid=983d5755-c6b1-4358-a360-b371c06d1efe","ios":"levelo://app?vid=983d5755-c6b1-4358-a360-b371c06d1efe"},"vehicle_type_id":"4","last_reported":1713038786,"current_range_meters":2400,"station_id":"ce4bh692rcd13ifvqea0","pricing_plan_id":"cebpf4jnsgd1na2vs0mg"},{"bike_id":"75efae46-9095-4881-8bf1-8b2b011853f6","system_id":"levelo_inurba_marseille","lat":43.296131,"lon":5.370773,"is_reserved":false,"is_disabled":false,"rental_uris":{"android":"levelo://app?vid=75efae46-9095-4881-8bf1-8b2b011853f6","ios":"levelo://app?vid=75efae46-9095-4881-8bf1-8b2b011853f6"},"vehicle_type_id":"4","last_reported":1713038786,"current_range_meters":14400,"station_id":"ce4bgnh2rcd13ifvqc0g","pricing_plan_id":"cebpf4jnsgd1na2vs0mg"},{"bike_id":"bf75b2eb-2bab-4c90-84c2-89b6a267eb41","system_id":"levelo_inurba_marseille","lat":43.29617,"lon":5.372335,"is_reserved":false,"is_disabled":false,"rental_uris":{"android":"levelo://app?vid=bf75b2eb-2bab-4c90-84c2-89b6a267eb41","ios":"levelo://app?vid=bf75b2eb-2bab-4c90-84c2-89b6a267eb41"},"vehicle_type_id":"4","last_reported":1713038786,"current_range_meters":4800,"station_id":"","pricing_plan_id":"cebpf4jnsgd1na2vs0mg"},{"bike_id":"72db0963-7593-4245-9da6-8f09ecc3c33a","system_id":"levelo_inurba_marseille","lat":43.309589,"lon":5.390258,"is_reserved":false,"is_disabled":false,"rental_uris":{"android":"levelo://app?vid=72db0963-7593-4245-9da6-8f09ecc3c33a","ios":"levelo://app?vid=72db0963-7593-4245-9da6-8f09ecc3c33a"},"vehicle_type_id":"4","last_reported":1713038786,"current_range_meters":0,"station_id":"ce4bgup2rcd13ifvqco0","pricing_plan_id":"cebpf4jnsgd1na2vs0mg"},{"bike_id":"19fe547a-0bdb-468f-a9d8-30c51b6d9678","system_id":"levelo_inurba_marseille","lat":43.31759,"lon":5.39019,"is_reserved":false,"is_disabled":false,"rental_uris":{"android":"levelo://app?vid=19fe547a-0bdb-468f-a9d8-30c51b6d9678","ios":"levelo://app?vid=19fe547a-0bdb-468f-a9d8-30c51b6d9678"},"vehicle_type_id":"4","last_reported":1713038786,"current_range_meters":4800,"station_id":"ce4bhqp2rcd13ifvqhng","pricing_plan_id":"cebpf4jnsgd1na2vs0mg"},{"bike_id":"93a31bed-e6a3-4790-92e6-fd16050a2e2b","system_id":"levelo_inurba_marseille","lat":43.304278,"lon":5.388868,"is_reserved":false,"is_disabled":false,"rental_uris":{"android":"levelo://app?vid=93a31bed-e6a3-4790-92e6-fd16050a2e2b","ios":"levelo://app?vid=93a31bed-e6a3-4790-92e6-fd16050a2e2b"},"vehicle_type_id":"4","last_reported":1713038786,"current_range_meters":20400,"station_id":"ce4bgk12rcd13ifvqbi0","pricing_plan_id":"cebpf4jnsgd1na2vs0mg"},{"bike_id":"0e5b87e2-f99e-495c-9d23-02f41ba9fcfe","system_id":"levelo_inurba_marseille","lat":43.298039,"lon":5.380936,"is_reserved":false,"is_disabled":false,"rental_uris":{"android":"levelo://app?vid=0e5b87e2-f99e-495c-9d23-02f41ba9fcfe","ios":"levelo://app?vid=0e5b87e2-f99e-495c-9d23-02f41ba9fcfe"},"vehicle_type_id":"4","last_reported":1713038786,"current_range_meters":2800,"station_id":"ce4bgt92rcd13ifvqcf0","pricing_plan_id":"cebpf4jnsgd1na2vs0mg"},{"bike_id":"cae31c01-c1bc-45a2-8c58-96c5c76f55dc","system_id":"levelo_inurba_marseille","lat":43.298037,"lon":5.381066,"is_reserved":false,"is_disabled":false,"rental_uris":{"android":"levelo://app?vid=cae31c01-c1bc-45a2-8c58-96c5c76f55dc","ios":"levelo://app?vid=cae31c01-c1bc-45a2-8c58-96c5c76f55dc"},"vehicle_type_id":"4","last_reported":1713038786,"current_range_meters":0,"station_id":"ce4bgip2rcd13ifvqbb0","pricing_plan_id":"cebpf4jnsgd1na2vs0mg"},{"bike_id":"0cdf4cab-b4cc-4624-bc36-c4646fbe6b55","system_id":"levelo_inurba_marseille","lat":43.283998,"lon":5.375062,"is_reserved":false,"is_disabled":false,"rental_uris":{"android":"levelo://app?vid=0cdf4cab-b4cc-4624-bc36-c4646fbe6b55","ios":"levelo://app?vid=0cdf4cab-b4cc-4624-bc36-c4646fbe6b55"},"vehicle_type_id":"4","last_reported":1713038786,"current_range_meters":23200,"station_id":"ce4bh412rcd13ifvqds0","pricing_plan_id":"cebpf4jnsgd1na2vs0mg"},{"bike_id":"3448c4ee-2fb6-4cd5-b5c5-9baed8647e4d","system_id":"levelo_inurba_marseille","lat":43.29583,"lon":5.37526,"is_reserved":false,"is_disabled":false,"rental_uris":{"android":"levelo://app?vid=3448c4ee-2fb6-4cd5-b5c5-9baed8647e4d","ios":"levelo://app?vid=3448c4ee-2fb6-4cd5-b5c5-9baed8647e4d"},"vehicle_type_id":"4","last_reported":1713038786,"current_range_meters":0,"station_id":"ce4bgh92rcd13ifvqb50","pricing_plan_id":"cebpf4jnsgd1na2vs0mg"},{"bike_id":"a2f34c47-7aa4-4f33-9acf-1084de07f96e","system_id":"levelo_inurba_marseille","lat":43.29576,"lon":5.37515,"is_reserved":false,"is_disabled":false,"rental_uris":{"android":"levelo://app?vid=a2f34c47-7aa4-4f33-9acf-1084de07f96e","ios":"levelo://app?vid=a2f34c47-7aa4-4f33-9acf-1084de07f96e"},"vehicle_type_id":"4","last_reported":1713038786,"current_range_meters":0,"station_id":"ce4bgh92rcd13ifvqb50","pricing_plan_id":"cebpf4jnsgd1na2vs0mg"},{"bike_id":"979c3746-e0c6-45eb-aa25-9aa2353a72da","system_id":"levelo_inurba_marseille","lat":43.29576,"lon":5.37518,"is_reserved":false,"is_disabled":false,"rental_uris":{"android":"levelo://app?vid=979c3746-e0c6-45eb-aa25-9aa2353a72da","ios":"levelo://app?vid=979c3746-e0c6-45eb-aa25-9aa2353a72da"},"vehicle_type_id":"4","last_reported":1713038786,"current_range_meters":0,"station_id":"ce4bgh92rcd13ifvqb50","pricing_plan_id":"cebpf4jnsgd1na2vs0mg"},{"bike_id":"3ef58c0a-c011-40a9-b153-1422b3253cf7","system_id":"levelo_inurba_marseille","lat":43.29796,"lon":5.38111,"is_reserved":false,"is_disabled":false,"rental_uris":{"android":"levelo://app?vid=3ef58c0a-c011-40a9-b153-1422b3253cf7","ios":"levelo://app?vid=3ef58c0a-c011-40a9-b153-1422b3253cf7"},"vehicle_type_id":"4","last_reported":1713038786,"current_range_meters":0,"station_id":"ce4bgip2rcd13ifvqbb0","pricing_plan_id":"cebpf4jnsgd1na2vs0mg"},{"bike_id":"3ad96ebf-3315-4047-bb5e-0c76aaff59c7","system_id":"levelo_inurba_marseille","lat":43.297925,"lon":5.381088,"is_reserved":false,"is_disabled":false,"rental_uris":{"android":"levelo://app?vid=3ad96ebf-3315-4047-bb5e-0c76aaff59c7","ios":"levelo://app?vid=3ad96ebf-3315-4047-bb5e-0c76aaff59c7"},"vehicle_type_id":"4","last_reported":1713038786,"current_range_meters":0,"station_id":"ce4bgip2rcd13ifvqbb0","pricing_plan_id":"cebpf4jnsgd1na2vs0mg"},{"bike_id":"a525d210-2a7e-4cb7-aa93-b1b0051d33be","system_id":"levelo_inurba_marseille","lat":43.2957,"lon":5.37516,"is_reserved":false,"is_disabled":false,"rental_uris":{"android":"levelo://app?vid=a525d210-2a7e-4cb7-aa93-b1b0051d33be","ios":"levelo://app?vid=a525d210-2a7e-4cb7-aa93-b1b0051d33be"},"vehicle_type_id":"4","last_reported":1713038786,"current_range_meters":0,"station_id":"ce4bgh92rcd13ifvqb50","pricing_plan_id":"cebpf4jnsgd1na2vs0mg"},{"bike_id":"f81decfe-b114-4e7e-a015-0e136b627f7e","system_id":"levelo_inurba_marseille","lat":43.30429,"lon":5.38887,"is_reserved":false,"is_disabled":false,"rental_uris":{"android":"levelo://app?vid=f81decfe-b114-4e7e-a015-0e136b627f7e","ios":"levelo://app?vid=f81decfe-b114-4e7e-a015-0e136b627f7e"},"vehicle_type_id":"4","last_reported":1713038786,"current_range_meters":0,"station_id":"ce4bgk12rcd13ifvqbi0","pricing_plan_id":"cebpf4jnsgd1na2vs0mg"},{"bike_id":"56b4f8a3-098a-4a72-afab-f817afc4d6f4","system_id":"levelo_inurba_marseille","lat":43.304278,"lon":5.388868,"is_reserved":false,"is_disabled":false,"rental_uris":{"android":"levelo://app?vid=56b4f8a3-098a-4a72-afab-f817afc4d6f4","ios":"levelo://app?vid=56b4f8a3-098a-4a72-afab-f817afc4d6f4"},"vehicle_type_id":"4","last_reported":1713038786,"current_range_meters":6800,"station_id":"ce4bgk12rcd13ifvqbi0","pricing_plan_id":"cebpf4jnsgd1na2vs0mg"},{"bike_id":"276ad4d1-a97a-43e0-a3fd-f7462eae9d14","system_id":"levelo_inurba_marseille","lat":43.29621,"lon":5.37717,"is_reserved":false,"is_disabled":false,"rental_uris":{"android":"levelo://app?vid=276ad4d1-a97a-43e0-a3fd-f7462eae9d14","ios":"levelo://app?vid=276ad4d1-a97a-43e0-a3fd-f7462eae9d14"},"vehicle_type_id":"4","last_reported":1713038786,"current_range_meters":0,"station_id":"ce4bgi92rcd13ifvqb90","pricing_plan_id":"cebpf4jnsgd1na2vs0mg"},{"bike_id":"74c8a1c7-0425-430c-ae25-89e9377e18f6","system_id":"levelo_inurba_marseille","lat":43.29617,"lon":5.37708,"is_reserved":false,"is_disabled":false,"rental_uris":{"android":"levelo://app?vid=74c8a1c7-0425-430c-ae25-89e9377e18f6","ios":"levelo://app?vid=74c8a1c7-0425-430c-ae25-89e9377e18f6"},"vehicle_type_id":"4","last_reported":1713038786,"current_range_meters":0,"station_id":"ce4bgi92rcd13ifvqb90","pricing_plan_id":"cebpf4jnsgd1na2vs0mg"},{"bike_id":"fa88525a-f816-4ecf-9ad5-b87478a4bcc4","system_id":"levelo_inurba_marseille","lat":43.2978,"lon":5.38113,"is_reserved":false,"is_disabled":false,"rental_uris":{"android":"levelo://app?vid=fa88525a-f816-4ecf-9ad5-b87478a4bcc4","ios":"levelo://app?vid=fa88525a-f816-4ecf-9ad5-b87478a4bcc4"},"vehicle_type_id":"4","last_reported":1713038786,"current_range_meters":0,"station_id":"ce4bgip2rcd13ifvqbb0","pricing_plan_id":"cebpf4jnsgd1na2vs0mg"},{"bike_id":"aa73cfe3-6384-4a7f-8ddd-ec28982c6211","system_id":"levelo_inurba_marseille","lat":43.2962,"lon":5.37732,"is_reserved":false,"is_disabled":false,"rental_uris":{"android":"levelo://app?vid=aa73cfe3-6384-4a7f-8ddd-ec28982c6211","ios":"levelo://app?vid=aa73cfe3-6384-4a7f-8ddd-ec28982c6211"},"vehicle_type_id":"4","last_reported":1713038786,"current_range_meters":0,"station_id":"ce4bgi92rcd13ifvqb90","pricing_plan_id":"cebpf4jnsgd1na2vs0mg"},{"bike_id":"d6056fd0-5a78-4b53-99ff-08c7f4e01236","system_id":"levelo_inurba_marseille","lat":43.296183,"lon":5.377357,"is_reserved":false,"is_disabled":false,"rental_uris":{"android":"levelo://app?vid=d6056fd0-5a78-4b53-99ff-08c7f4e01236","ios":"levelo://app?vid=d6056fd0-5a78-4b53-99ff-08c7f4e01236"},"vehicle_type_id":"4","last_reported":1713038786,"current_range_meters":0,"station_id":"ce4bgi92rcd13ifvqb90","pricing_plan_id":"cebpf4jnsgd1na2vs0mg"},{"bike_id":"952898c0-486b-4754-b9b6-b2b14d78fa6b","system_id":"levelo_inurba_marseille","lat":43.299707,"lon":5.384859,"is_reserved":false,"is_disabled":false,"rental_uris":{"android":"levelo://app?vid=952898c0-486b-4754-b9b6-b2b14d78fa6b","ios":"levelo://app?vid=952898c0-486b-4754-b9b6-b2b14d78fa6b"},"vehicle_type_id":"4","last_reported":1713038786,"current_range_meters":31600,"station_id":"ce4bgj92rcd13ifvqbd0","pricing_plan_id":"cebpf4jnsgd1na2vs0mg"},{"bike_id":"0f52042e-a2f1-4958-a84e-8d00b04666ce","system_id":"levelo_inurba_marseille","lat":43.299707,"lon":5.384859,"is_reserved":false,"is_disabled":false,"rental_uris":{"android":"levelo://app?vid=0f52042e-a2f1-4958-a84e-8d00b04666ce","ios":"levelo://app?vid=0f52042e-a2f1-4958-a84e-8d00b04666ce"},"vehicle_type_id":"4","last_reported":1713038786,"current_range_meters":7200,"station_id":"ce4bgj92rcd13ifvqbd0","pricing_plan_id":"cebpf4jnsgd1na2vs0mg"},{"bike_id":"7ca6b6be-f52e-4954-88ca-7bad7c98624b","system_id":"levelo_inurba_marseille","lat":43.295279,"lon":5.375048,"is_reserved":false,"is_disabled":false,"rental_uris":{"android":"levelo://app?vid=7ca6b6be-f52e-4954-88ca-7bad7c98624b","ios":"levelo://app?vid=7ca6b6be-f52e-4954-88ca-7bad7c98624b"},"vehicle_type_id":"4","last_reported":1713038786,"current_range_meters":2800,"station_id":"ce4bgkp2rcd13ifvqbmg","pricing_plan_id":"cebpf4jnsgd1na2vs0mg"},{"bike_id":"8861dc79-f58b-4329-99db-16502c22ad6b","system_id":"levelo_inurba_marseille","lat":43.29526,"lon":5.37513,"is_reserved":false,"is_disabled":false,"rental_uris":{"android":"levelo://app?vid=8861dc79-f58b-4329-99db-16502c22ad6b","ios":"levelo://app?vid=8861dc79-f58b-4329-99db-16502c22ad6b"},"vehicle_type_id":"4","last_reported":1713038786,"current_range_meters":2000,"station_id":"ce4bgkp2rcd13ifvqbmg","pricing_plan_id":"cebpf4jnsgd1na2vs0mg"},{"bike_id":"f35c7fab-054c-4bea-be47-daa9657093a2","system_id":"levelo_inurba_marseille","lat":43.299717,"lon":5.384845,"is_reserved":false,"is_disabled":false,"rental_uris":{"android":"levelo://app?vid=f35c7fab-054c-4bea-be47-daa9657093a2","ios":"levelo://app?vid=f35c7fab-054c-4bea-be47-daa9657093a2"},"vehicle_type_id":"4","last_reported":1713038786,"current_range_meters":31200,"station_id":"ce4bgj92rcd13ifvqbd0","pricing_plan_id":"cebpf4jnsgd1na2vs0mg"},{"bike_id":"8bdf8775-7bdd-48a0-8d16-e7bcd2c04e2b","system_id":"levelo_inurba_marseille","lat":43.288497,"lon":5.393089,"is_reserved":false,"is_disabled":false,"rental_uris":{"android":"levelo://app?vid=8bdf8775-7bdd-48a0-8d16-e7bcd2c04e2b","ios":"levelo://app?vid=8bdf8775-7bdd-48a0-8d16-e7bcd2c04e2b"},"vehicle_type_id":"4","last_reported":1713038786,"current_range_meters":24400,"station_id":"ce4bh2p2rcd13ifvqdi0","pricing_plan_id":"cebpf4jnsgd1na2vs0mg"},{"bike_id":"839837e7-79a2-48b2-ac6b-3ff19f1b41bc","system_id":"levelo_inurba_marseille","lat":43.29965,"lon":5.38493,"is_reserved":false,"is_disabled":false,"rental_uris":{"android":"levelo://app?vid=839837e7-79a2-48b2-ac6b-3ff19f1b41bc","ios":"levelo://app?vid=839837e7-79a2-48b2-ac6b-3ff19f1b41bc"},"vehicle_type_id":"4","last_reported":1713038786,"current_range_meters":28400,"station_id":"ce4bgj92rcd13ifvqbd0","pricing_plan_id":"cebpf4jnsgd1na2vs0mg"},{"bike_id":"0432f803-99d0-43e9-b2a7-a9922ef33420","system_id":"levelo_inurba_marseille","lat":43.29967,"lon":5.38498,"is_reserved":false,"is_disabled":false,"rental_uris":{"android":"levelo://app?vid=0432f803-99d0-43e9-b2a7-a9922ef33420","ios":"levelo://app?vid=0432f803-99d0-43e9-b2a7-a9922ef33420"},"vehicle_type_id":"4","last_reported":1713038786,"current_range_meters":29600,"station_id":"ce4bgj92rcd13ifvqbd0","pricing_plan_id":"cebpf4jnsgd1na2vs0mg"},{"bike_id":"a5f98dc2-28af-4d41-b7ca-d39d3ba56d2a","system_id":"levelo_inurba_marseille","lat":43.299717,"lon":5.384845,"is_reserved":false,"is_disabled":false,"rental_uris":{"android":"levelo://app?vid=a5f98dc2-28af-4d41-b7ca-d39d3ba56d2a","ios":"levelo://app?vid=a5f98dc2-28af-4d41-b7ca-d39d3ba56d2a"},"vehicle_type_id":"4","last_reported":1713038786,"current_range_meters":29200,"station_id":"ce4bgj92rcd13ifvqbd0","pricing_plan_id":"cebpf4jnsgd1na2vs0mg"},{"bike_id":"6a590e87-745f-46bd-823e-cdcac98edcec","system_id":"levelo_inurba_marseille","lat":43.29636,"lon":5.3804,"is_reserved":false,"is_disabled":false,"rental_uris":{"android":"levelo://app?vid=6a590e87-745f-46bd-823e-cdcac98edcec","ios":"levelo://app?vid=6a590e87-745f-46bd-823e-cdcac98edcec"},"vehicle_type_id":"4","last_reported":1713038786,"current_range_meters":0,"station_id":"","pricing_plan_id":"cebpf4jnsgd1na2vs0mg"},{"bike_id":"a2e3e391-3722-46c9-bc73-7b0e1e720b48","system_id":"levelo_inurba_marseille","lat":43.296351,"lon":5.380744,"is_reserved":false,"is_disabled":false,"rental_uris":{"android":"levelo://app?vid=a2e3e391-3722-46c9-bc73-7b0e1e720b48","ios":"levelo://app?vid=a2e3e391-3722-46c9-bc73-7b0e1e720b48"},"vehicle_type_id":"4","last_reported":1713038786,"current_range_meters":1200,"station_id":"ce4bgl12rcd13ifvqbo0","pricing_plan_id":"cebpf4jnsgd1na2vs0mg"},{"bike_id":"1ad6c318-a8a1-45b4-846e-e5434a7e3903","system_id":"levelo_inurba_marseille","lat":43.32367,"lon":5.388836,"is_reserved":false,"is_disabled":false,"rental_uris":{"android":"levelo://app?vid=1ad6c318-a8a1-45b4-846e-e5434a7e3903","ios":"levelo://app?vid=1ad6c318-a8a1-45b4-846e-e5434a7e3903"},"vehicle_type_id":"4","last_reported":1713038786,"current_range_meters":11600,"station_id":"ce4bhqp2rcd13ifvqhog","pricing_plan_id":"cebpf4jnsgd1na2vs0mg"},{"bike_id":"5966a690-b678-4c04-95ed-5ce3b882a8bb","system_id":"levelo_inurba_marseille","lat":43.32367,"lon":5.388836,"is_reserved":false,"is_disabled":false,"rental_uris":{"android":"levelo://app?vid=5966a690-b678-4c04-95ed-5ce3b882a8bb","ios":"levelo://app?vid=5966a690-b678-4c04-95ed-5ce3b882a8bb"},"vehicle_type_id":"4","last_reported":1713038786,"current_range_meters":0,"station_id":"ce4bhqp2rcd13ifvqhog","pricing_plan_id":"cebpf4jnsgd1na2vs0mg"},{"bike_id":"e8313fa7-a3d9-412b-b83d-4a01787548cf","system_id":"levelo_inurba_marseille","lat":43.29602,"lon":5.381084,"is_reserved":false,"is_disabled":false,"rental_uris":{"android":"levelo://app?vid=e8313fa7-a3d9-412b-b83d-4a01787548cf","ios":"levelo://app?vid=e8313fa7-a3d9-412b-b83d-4a01787548cf"},"vehicle_type_id":"4","last_reported":1713038786,"current_range_meters":26800,"station_id":"ce4bgl12rcd13ifvqbo0","pricing_plan_id":"cebpf4jnsgd1na2vs0mg"},{"bike_id":"8c409a66-94fe-468a-9d72-2966c5ee34f9","system_id":"levelo_inurba_marseille","lat":43.29601,"lon":5.381084,"is_reserved":false,"is_disabled":false,"rental_uris":{"android":"levelo://app?vid=8c409a66-94fe-468a-9d72-2966c5ee34f9","ios":"levelo://app?vid=8c409a66-94fe-468a-9d72-2966c5ee34f9"},"vehicle_type_id":"4","last_reported":1713038786,"current_range_meters":0,"station_id":"ce4bgl12rcd13ifvqbo0","pricing_plan_id":"cebpf4jnsgd1na2vs0mg"},{"bike_id":"640524d3-a7a0-4430-8fbc-5525d689f1d5","system_id":"levelo_inurba_marseille","lat":43.29602,"lon":5.381084,"is_reserved":false,"is_disabled":false,"rental_uris":{"android":"levelo://app?vid=640524d3-a7a0-4430-8fbc-5525d689f1d5","ios":"levelo://app?vid=640524d3-a7a0-4430-8fbc-5525d689f1d5"},"vehicle_type_id":"4","last_reported":1713038786,"current_range_meters":16000,"station_id":"ce4bgl12rcd13ifvqbo0","pricing_plan_id":"cebpf4jnsgd1na2vs0mg"},{"bike_id":"f2f3aa8b-0f67-44aa-8be1-987957caf040","system_id":"levelo_inurba_marseille","lat":43.29601,"lon":5.381084,"is_reserved":false,"is_disabled":false,"rental_uris":{"android":"levelo://app?vid=f2f3aa8b-0f67-44aa-8be1-987957caf040","ios":"levelo://app?vid=f2f3aa8b-0f67-44aa-8be1-987957caf040"},"vehicle_type_id":"4","last_reported":1713038786,"current_range_meters":0,"station_id":"ce4bgl12rcd13ifvqbo0","pricing_plan_id":"cebpf4jnsgd1na2vs0mg"},{"bike_id":"3a8155b8-6ccb-45ef-9c40-4a71e98184f6","system_id":"levelo_inurba_marseille","lat":43.29601,"lon":5.381084,"is_reserved":false,"is_disabled":false,"rental_uris":{"android":"levelo://app?vid=3a8155b8-6ccb-45ef-9c40-4a71e98184f6","ios":"levelo://app?vid=3a8155b8-6ccb-45ef-9c40-4a71e98184f6"},"vehicle_type_id":"4","last_reported":1713038786,"current_range_meters":10800,"station_id":"ce4bgl12rcd13ifvqbo0","pricing_plan_id":"cebpf4jnsgd1na2vs0mg"},{"bike_id":"6e7e2ea2-adae-4d92-af46-7ce407a6e481","system_id":"levelo_inurba_marseille","lat":43.295968,"lon":5.381035,"is_reserved":false,"is_disabled":false,"rental_uris":{"android":"levelo://app?vid=6e7e2ea2-adae-4d92-af46-7ce407a6e481","ios":"levelo://app?vid=6e7e2ea2-adae-4d92-af46-7ce407a6e481"},"vehicle_type_id":"4","last_reported":1713038786,"current_range_meters":7600,"station_id":"ce4bgl12rcd13ifvqbo0","pricing_plan_id":"cebpf4jnsgd1na2vs0mg"},{"bike_id":"bb558318-a89c-48d2-9687-50c13c51f2cd","system_id":"levelo_inurba_marseille","lat":43.296,"lon":5.38117,"is_reserved":false,"is_disabled":false,"rental_uris":{"android":"levelo://app?vid=bb558318-a89c-48d2-9687-50c13c51f2cd","ios":"levelo://app?vid=bb558318-a89c-48d2-9687-50c13c51f2cd"},"vehicle_type_id":"4","last_reported":1713038786,"current_range_meters":0,"station_id":"ce4bgl12rcd13ifvqbo0","pricing_plan_id":"cebpf4jnsgd1na2vs0mg"},{"bike_id":"f6f4a7a8-d214-4ffd-b38e-fead96a843f5","system_id":"levelo_inurba_marseille","lat":43.29595,"lon":5.38106,"is_reserved":false,"is_disabled":false,"rental_uris":{"android":"levelo://app?vid=f6f4a7a8-d214-4ffd-b38e-fead96a843f5","ios":"levelo://app?vid=f6f4a7a8-d214-4ffd-b38e-fead96a843f5"},"vehicle_type_id":"4","last_reported":1713038786,"current_range_meters":0,"station_id":"ce4bgl12rcd13ifvqbo0","pricing_plan_id":"cebpf4jnsgd1na2vs0mg"},{"bike_id":"08915538-1dd2-4517-b1ff-92b559377809","system_id":"levelo_inurba_marseille","lat":43.293095,"lon":5.371885,"is_reserved":false,"is_disabled":false,"rental_uris":{"android":"levelo://app?vid=08915538-1dd2-4517-b1ff-92b559377809","ios":"levelo://app?vid=08915538-1dd2-4517-b1ff-92b559377809"},"vehicle_type_id":"4","last_reported":1713038786,"current_range_meters":0,"station_id":"ce4bgh92rcd13ifvqb40","pricing_plan_id":"cebpf4jnsgd1na2vs0mg"},{"bike_id":"8c7b8283-ed1e-44bc-8253-3a1ba960272a","system_id":"levelo_inurba_marseille","lat":43.292693,"lon":5.368423,"is_reserved":false,"is_disabled":false,"rental_uris":{"android":"levelo://app?vid=8c7b8283-ed1e-44bc-8253-3a1ba960272a","ios":"levelo://app?vid=8c7b8283-ed1e-44bc-8253-3a1ba960272a"},"vehicle_type_id":"4","last_reported":1713038786,"current_range_meters":28800,"station_id":"ce4bhbp2rcd13ifvqesg","pricing_plan_id":"cebpf4jnsgd1na2vs0mg"},{"bike_id":"c27241a8-5296-43c2-af55-2791daedbb08","system_id":"levelo_inurba_marseille","lat":43.292472,"lon":5.365943,"is_reserved":false,"is_disabled":false,"rental_uris":{"android":"levelo://app?vid=c27241a8-5296-43c2-af55-2791daedbb08","ios":"levelo://app?vid=c27241a8-5296-43c2-af55-2791daedbb08"},"vehicle_type_id":"4","last_reported":1713038786,"current_range_meters":0,"station_id":"","pricing_plan_id":"cebpf4jnsgd1na2vs0mg"},{"bike_id":"e5810bf0-9aa5-40d9-8335-a1dcc8410c0a","system_id":"levelo_inurba_marseille","lat":43.29306,"lon":5.37457,"is_reserved":false,"is_disabled":false,"rental_uris":{"android":"levelo://app?vid=e5810bf0-9aa5-40d9-8335-a1dcc8410c0a","ios":"levelo://app?vid=e5810bf0-9aa5-40d9-8335-a1dcc8410c0a"},"vehicle_type_id":"4","last_reported":1713038786,"current_range_meters":0,"station_id":"ce4bgi12rcd13ifvqb70","pricing_plan_id":"cebpf4jnsgd1na2vs0mg"},{"bike_id":"2c4bd9e3-fced-4a3b-9fb9-3ea4200c96d8","system_id":"levelo_inurba_marseille","lat":43.29299,"lon":5.37456,"is_reserved":false,"is_disabled":false,"rental_uris":{"android":"levelo://app?vid=2c4bd9e3-fced-4a3b-9fb9-3ea4200c96d8","ios":"levelo://app?vid=2c4bd9e3-fced-4a3b-9fb9-3ea4200c96d8"},"vehicle_type_id":"4","last_reported":1713038786,"current_range_meters":2400,"station_id":"ce4bgi12rcd13ifvqb70","pricing_plan_id":"cebpf4jnsgd1na2vs0mg"},{"bike_id":"0de3e49c-7c80-43b6-a34c-68b3b93a64eb","system_id":"levelo_inurba_marseille","lat":43.29299,"lon":5.37461,"is_reserved":false,"is_disabled":false,"rental_uris":{"android":"levelo://app?vid=0de3e49c-7c80-43b6-a34c-68b3b93a64eb","ios":"levelo://app?vid=0de3e49c-7c80-43b6-a34c-68b3b93a64eb"},"vehicle_type_id":"4","last_reported":1713038786,"current_range_meters":0,"station_id":"ce4bgi12rcd13ifvqb70","pricing_plan_id":"cebpf4jnsgd1na2vs0mg"},{"bike_id":"ebff243e-dd62-4c67-b6ae-d665efcbab68","system_id":"levelo_inurba_marseille","lat":43.29225,"lon":5.36443,"is_reserved":false,"is_disabled":false,"rental_uris":{"android":"levelo://app?vid=ebff243e-dd62-4c67-b6ae-d665efcbab68","ios":"levelo://app?vid=ebff243e-dd62-4c67-b6ae-d665efcbab68"},"vehicle_type_id":"4","last_reported":1713038786,"current_range_meters":0,"station_id":"ce4bgkp2rcd13ifvqbmg","pricing_plan_id":"cebpf4jnsgd1na2vs0mg"},{"bike_id":"6f84da71-05cc-4a84-b011-f2c8c96b6923","system_id":"levelo_inurba_marseille","lat":43.305994,"lon":5.393687,"is_reserved":false,"is_disabled":false,"rental_uris":{"android":"levelo://app?vid=6f84da71-05cc-4a84-b011-f2c8c96b6923","ios":"levelo://app?vid=6f84da71-05cc-4a84-b011-f2c8c96b6923"},"vehicle_type_id":"4","last_reported":1713038786,"current_range_meters":1600,"station_id":"ce4bh0p2rcd13ifvqd80","pricing_plan_id":"cebpf4jnsgd1na2vs0mg"},{"bike_id":"6921eac5-d118-4a12-a497-4bd8e05ab28c","system_id":"levelo_inurba_marseille","lat":43.305994,"lon":5.393687,"is_reserved":false,"is_disabled":false,"rental_uris":{"android":"levelo://app?vid=6921eac5-d118-4a12-a497-4bd8e05ab28c","ios":"levelo://app?vid=6921eac5-d118-4a12-a497-4bd8e05ab28c"},"vehicle_type_id":"4","last_reported":1713038786,"current_range_meters":5200,"station_id":"ce4bh0p2rcd13ifvqd80","pricing_plan_id":"cebpf4jnsgd1na2vs0mg"},{"bike_id":"ae8d75ea-64a5-4369-9441-5a3ff8f8d3d7","system_id":"levelo_inurba_marseille","lat":43.293009,"lon":5.374584,"is_reserved":false,"is_disabled":false,"rental_uris":{"android":"levelo://app?vid=ae8d75ea-64a5-4369-9441-5a3ff8f8d3d7","ios":"levelo://app?vid=ae8d75ea-64a5-4369-9441-5a3ff8f8d3d7"},"vehicle_type_id":"4","last_reported":1713038786,"current_range_meters":15200,"station_id":"ce4bgi12rcd13ifvqb70","pricing_plan_id":"cebpf4jnsgd1na2vs0mg"},{"bike_id":"1e0960a7-5cf5-4d41-8a6d-35b2068bac58","system_id":"levelo_inurba_marseille","lat":43.303093,"lon":5.391945,"is_reserved":false,"is_disabled":false,"rental_uris":{"android":"levelo://app?vid=1e0960a7-5cf5-4d41-8a6d-35b2068bac58","ios":"levelo://app?vid=1e0960a7-5cf5-4d41-8a6d-35b2068bac58"},"vehicle_type_id":"4","last_reported":1713038786,"current_range_meters":2000,"station_id":"ce4bgkh2rcd13ifvqbk0","pricing_plan_id":"cebpf4jnsgd1na2vs0mg"},{"bike_id":"f63aa3dc-19b2-4002-8528-f721be22e367","system_id":"levelo_inurba_marseille","lat":43.3031,"lon":5.392045,"is_reserved":false,"is_disabled":false,"rental_uris":{"android":"levelo://app?vid=f63aa3dc-19b2-4002-8528-f721be22e367","ios":"levelo://app?vid=f63aa3dc-19b2-4002-8528-f721be22e367"},"vehicle_type_id":"4","last_reported":1713038786,"current_range_meters":30800,"station_id":"ce4bgkh2rcd13ifvqbk0","pricing_plan_id":"cebpf4jnsgd1na2vs0mg"},{"bike_id":"7f2e6ad1-db7b-42f9-b335-b23bf723869a","system_id":"levelo_inurba_marseille","lat":43.30311,"lon":5.39209,"is_reserved":false,"is_disabled":false,"rental_uris":{"android":"levelo://app?vid=7f2e6ad1-db7b-42f9-b335-b23bf723869a","ios":"levelo://app?vid=7f2e6ad1-db7b-42f9-b335-b23bf723869a"},"vehicle_type_id":"4","last_reported":1713038786,"current_range_meters":31200,"station_id":"ce4bgkh2rcd13ifvqbk0","pricing_plan_id":"cebpf4jnsgd1na2vs0mg"},{"bike_id":"b2fd367d-2549-4a85-b327-71f316308b48","system_id":"levelo_inurba_marseille","lat":43.30303,"lon":5.39207,"is_reserved":false,"is_disabled":false,"rental_uris":{"android":"levelo://app?vid=b2fd367d-2549-4a85-b327-71f316308b48","ios":"levelo://app?vid=b2fd367d-2549-4a85-b327-71f316308b48"},"vehicle_type_id":"4","last_reported":1713038786,"current_range_meters":2800,"station_id":"ce4bgkh2rcd13ifvqbk0","pricing_plan_id":"cebpf4jnsgd1na2vs0mg"},{"bike_id":"a2fafef2-4266-42c0-8db8-bd216b75f44d","system_id":"levelo_inurba_marseille","lat":43.303002,"lon":5.392142,"is_reserved":false,"is_disabled":false,"rental_uris":{"android":"levelo://app?vid=a2fafef2-4266-42c0-8db8-bd216b75f44d","ios":"levelo://app?vid=a2fafef2-4266-42c0-8db8-bd216b75f44d"},"vehicle_type_id":"4","last_reported":1713038786,"current_range_meters":31600,"station_id":"ce4bgkh2rcd13ifvqbk0","pricing_plan_id":"cebpf4jnsgd1na2vs0mg"},{"bike_id":"9e70c8aa-69cf-460d-8300-fd0224c01f26","system_id":"levelo_inurba_marseille","lat":43.2936,"lon":5.37835,"is_reserved":false,"is_disabled":false,"rental_uris":{"android":"levelo://app?vid=9e70c8aa-69cf-460d-8300-fd0224c01f26","ios":"levelo://app?vid=9e70c8aa-69cf-460d-8300-fd0224c01f26"},"vehicle_type_id":"4","last_reported":1713038786,"current_range_meters":24000,"station_id":"ce4bgjh2rcd13ifvqbf0","pricing_plan_id":"cebpf4jnsgd1na2vs0mg"},{"bike_id":"e95b0e1a-4f21-44ae-b331-2eff6212b2aa","system_id":"levelo_inurba_marseille","lat":43.30308,"lon":5.39217,"is_reserved":false,"is_disabled":false,"rental_uris":{"android":"levelo://app?vid=e95b0e1a-4f21-44ae-b331-2eff6212b2aa","ios":"levelo://app?vid=e95b0e1a-4f21-44ae-b331-2eff6212b2aa"},"vehicle_type_id":"4","last_reported":1713038786,"current_range_meters":28400,"station_id":"ce4bgkh2rcd13ifvqbk0","pricing_plan_id":"cebpf4jnsgd1na2vs0mg"},{"bike_id":"056b88b0-d1ca-4217-b3f3-14cbded191fa","system_id":"levelo_inurba_marseille","lat":43.30296,"lon":5.392087,"is_reserved":false,"is_disabled":false,"rental_uris":{"android":"levelo://app?vid=056b88b0-d1ca-4217-b3f3-14cbded191fa","ios":"levelo://app?vid=056b88b0-d1ca-4217-b3f3-14cbded191fa"},"vehicle_type_id":"4","last_reported":1713038786,"current_range_meters":18400,"station_id":"ce4bgkh2rcd13ifvqbk0","pricing_plan_id":"cebpf4jnsgd1na2vs0mg"},{"bike_id":"ec9bca59-aba5-40bc-aeba-090c9008f474","system_id":"levelo_inurba_marseille","lat":43.303002,"lon":5.392142,"is_reserved":false,"is_disabled":false,"rental_uris":{"android":"levelo://app?vid=ec9bca59-aba5-40bc-aeba-090c9008f474","ios":"levelo://app?vid=ec9bca59-aba5-40bc-aeba-090c9008f474"},"vehicle_type_id":"4","last_reported":1713038786,"current_range_meters":30800,"station_id":"ce4bgkh2rcd13ifvqbk0","pricing_plan_id":"cebpf4jnsgd1na2vs0mg"},{"bike_id":"a7880c11-4b7f-4037-9b32-eeb5fc729cad","system_id":"levelo_inurba_marseille","lat":43.30304,"lon":5.39218,"is_reserved":false,"is_disabled":false,"rental_uris":{"android":"levelo://app?vid=a7880c11-4b7f-4037-9b32-eeb5fc729cad","ios":"levelo://app?vid=a7880c11-4b7f-4037-9b32-eeb5fc729cad"},"vehicle_type_id":"4","last_reported":1713038786,"current_range_meters":0,"station_id":"ce4bgkh2rcd13ifvqbk0","pricing_plan_id":"cebpf4jnsgd1na2vs0mg"},{"bike_id":"6e4b4748-58da-43be-bb76-58c53d4123fc","system_id":"levelo_inurba_marseille","lat":43.29372,"lon":5.37854,"is_reserved":false,"is_disabled":false,"rental_uris":{"android":"levelo://app?vid=6e4b4748-58da-43be-bb76-58c53d4123fc","ios":"levelo://app?vid=6e4b4748-58da-43be-bb76-58c53d4123fc"},"vehicle_type_id":"4","last_reported":1713038786,"current_range_meters":0,"station_id":"ce4bgjh2rcd13ifvqbf0","pricing_plan_id":"cebpf4jnsgd1na2vs0mg"},{"bike_id":"d7b4bc04-3e09-4085-80d5-8a3adb9cd8be","system_id":"levelo_inurba_marseille","lat":43.292311,"lon":5.360731,"is_reserved":false,"is_disabled":false,"rental_uris":{"android":"levelo://app?vid=d7b4bc04-3e09-4085-80d5-8a3adb9cd8be","ios":"levelo://app?vid=d7b4bc04-3e09-4085-80d5-8a3adb9cd8be"},"vehicle_type_id":"4","last_reported":1713038786,"current_range_meters":0,"station_id":"ce4bhbh2rcd13ifvqeqg","pricing_plan_id":"cebpf4jnsgd1na2vs0mg"},{"bike_id":"b54506d5-d36e-42e2-b8ed-89aa456a6bbd","system_id":"levelo_inurba_marseille","lat":43.299717,"lon":5.384845,"is_reserved":false,"is_disabled":false,"rental_uris":{"android":"levelo://app?vid=b54506d5-d36e-42e2-b8ed-89aa456a6bbd","ios":"levelo://app?vid=b54506d5-d36e-42e2-b8ed-89aa456a6bbd"},"vehicle_type_id":"4","last_reported":1713038786,"current_range_meters":17600,"station_id":"ce4bgj92rcd13ifvqbd0","pricing_plan_id":"cebpf4jnsgd1na2vs0mg"},{"bike_id":"1fb091ca-b1be-4b53-824b-3190429f717a","system_id":"levelo_inurba_marseille","lat":43.298764,"lon":5.388973,"is_reserved":false,"is_disabled":false,"rental_uris":{"android":"levelo://app?vid=1fb091ca-b1be-4b53-824b-3190429f717a","ios":"levelo://app?vid=1fb091ca-b1be-4b53-824b-3190429f717a"},"vehicle_type_id":"4","last_reported":1713038786,"current_range_meters":4400,"station_id":"ce4bh392rcd13ifvqdl0","pricing_plan_id":"cebpf4jnsgd1na2vs0mg"},{"bike_id":"fdf7ecae-6f67-44d6-a09c-7ce4c22e89fd","system_id":"levelo_inurba_marseille","lat":43.300852,"lon":5.390859,"is_reserved":false,"is_disabled":false,"rental_uris":{"android":"levelo://app?vid=fdf7ecae-6f67-44d6-a09c-7ce4c22e89fd","ios":"levelo://app?vid=fdf7ecae-6f67-44d6-a09c-7ce4c22e89fd"},"vehicle_type_id":"4","last_reported":1713038786,"current_range_meters":0,"station_id":"ce4bh192rcd13ifvqdb0","pricing_plan_id":"cebpf4jnsgd1na2vs0mg"},{"bike_id":"f0cfdc81-d92d-4280-8475-b531176f1495","system_id":"levelo_inurba_marseille","lat":43.291675,"lon":5.371583,"is_reserved":false,"is_disabled":false,"rental_uris":{"android":"levelo://app?vid=f0cfdc81-d92d-4280-8475-b531176f1495","ios":"levelo://app?vid=f0cfdc81-d92d-4280-8475-b531176f1495"},"vehicle_type_id":"4","last_reported":1713038786,"current_range_meters":2800,"station_id":"ce4bha92rcd13ifvqeh0","pricing_plan_id":"cebpf4jnsgd1na2vs0mg"},{"bike_id":"a6a49625-1569-47a9-b9b9-59780a0b060a","system_id":"levelo_inurba_marseille","lat":43.298764,"lon":5.388973,"is_reserved":false,"is_disabled":false,"rental_uris":{"android":"levelo://app?vid=a6a49625-1569-47a9-b9b9-59780a0b060a","ios":"levelo://app?vid=a6a49625-1569-47a9-b9b9-59780a0b060a"},"vehicle_type_id":"4","last_reported":1713038786,"current_range_meters":0,"station_id":"ce4bh392rcd13ifvqdl0","pricing_plan_id":"cebpf4jnsgd1na2vs0mg"},{"bike_id":"4021ef4e-f3b5-46d6-a468-60c0c2545080","system_id":"levelo_inurba_marseille","lat":43.29885,"lon":5.38909,"is_reserved":false,"is_disabled":false,"rental_uris":{"android":"levelo://app?vid=4021ef4e-f3b5-46d6-a468-60c0c2545080","ios":"levelo://app?vid=4021ef4e-f3b5-46d6-a468-60c0c2545080"},"vehicle_type_id":"4","last_reported":1713038786,"current_range_meters":0,"station_id":"ce4bh392rcd13ifvqdl0","pricing_plan_id":"cebpf4jnsgd1na2vs0mg"},{"bike_id":"faf8c463-b402-4417-85f0-5705f67183e6","system_id":"levelo_inurba_marseille","lat":43.29872,"lon":5.38907,"is_reserved":false,"is_disabled":false,"rental_uris":{"android":"levelo://app?vid=faf8c463-b402-4417-85f0-5705f67183e6","ios":"levelo://app?vid=faf8c463-b402-4417-85f0-5705f67183e6"},"vehicle_type_id":"4","last_reported":1713038786,"current_range_meters":0,"station_id":"ce4bh392rcd13ifvqdl0","pricing_plan_id":"cebpf4jnsgd1na2vs0mg"},{"bike_id":"ce9f5682-698b-4fa6-a2b0-f44435910b32","system_id":"levelo_inurba_marseille","lat":43.309038,"lon":5.396546,"is_reserved":false,"is_disabled":false,"rental_uris":{"android":"levelo://app?vid=ce9f5682-698b-4fa6-a2b0-f44435910b32","ios":"levelo://app?vid=ce9f5682-698b-4fa6-a2b0-f44435910b32"},"vehicle_type_id":"4","last_reported":1713038786,"current_range_meters":16800,"station_id":"ce4bh012rcd13ifvqcv0","pricing_plan_id":"cebpf4jnsgd1na2vs0mg"},{"bike_id":"7e1cbe44-9b73-470a-bcee-7dbbf9d409b6","system_id":"levelo_inurba_marseille","lat":43.31331,"lon":5.39686,"is_reserved":false,"is_disabled":false,"rental_uris":{"android":"levelo://app?vid=7e1cbe44-9b73-470a-bcee-7dbbf9d409b6","ios":"levelo://app?vid=7e1cbe44-9b73-470a-bcee-7dbbf9d409b6"},"vehicle_type_id":"4","last_reported":1713038786,"current_range_meters":7600,"station_id":"ce4bgvp2rcd13ifvqcu0","pricing_plan_id":"cebpf4jnsgd1na2vs0mg"},{"bike_id":"acc313a7-240a-4bd4-b0ea-f240fb40e411","system_id":"levelo_inurba_marseille","lat":43.291994,"lon":5.357886,"is_reserved":false,"is_disabled":false,"rental_uris":{"android":"levelo://app?vid=acc313a7-240a-4bd4-b0ea-f240fb40e411","ios":"levelo://app?vid=acc313a7-240a-4bd4-b0ea-f240fb40e411"},"vehicle_type_id":"4","last_reported":1713038786,"current_range_meters":29600,"station_id":"ce4bhb12rcd13ifvqel0","pricing_plan_id":"cebpf4jnsgd1na2vs0mg"},{"bike_id":"2e5c175d-dc45-4f98-abd7-74559810beb7","system_id":"levelo_inurba_marseille","lat":43.309038,"lon":5.396546,"is_reserved":false,"is_disabled":false,"rental_uris":{"android":"levelo://app?vid=2e5c175d-dc45-4f98-abd7-74559810beb7","ios":"levelo://app?vid=2e5c175d-dc45-4f98-abd7-74559810beb7"},"vehicle_type_id":"4","last_reported":1713038786,"current_range_meters":9200,"station_id":"ce4bh012rcd13ifvqcv0","pricing_plan_id":"cebpf4jnsgd1na2vs0mg"},{"bike_id":"29912f8f-526a-4acd-8a8d-0740fb03b153","system_id":"levelo_inurba_marseille","lat":43.309038,"lon":5.396546,"is_reserved":false,"is_disabled":false,"rental_uris":{"android":"levelo://app?vid=29912f8f-526a-4acd-8a8d-0740fb03b153","ios":"levelo://app?vid=29912f8f-526a-4acd-8a8d-0740fb03b153"},"vehicle_type_id":"4","last_reported":1713038786,"current_range_meters":18000,"station_id":"ce4bh012rcd13ifvqcv0","pricing_plan_id":"cebpf4jnsgd1na2vs0mg"},{"bike_id":"207d064a-4a26-42a5-aa6a-1a70031b1999","system_id":"levelo_inurba_marseille","lat":43.29542,"lon":5.38542,"is_reserved":false,"is_disabled":false,"rental_uris":{"android":"levelo://app?vid=207d064a-4a26-42a5-aa6a-1a70031b1999","ios":"levelo://app?vid=207d064a-4a26-42a5-aa6a-1a70031b1999"},"vehicle_type_id":"4","last_reported":1713038786,"current_range_meters":9600,"station_id":"ce4bgih2rcd13ifvqba0","pricing_plan_id":"cebpf4jnsgd1na2vs0mg"},{"bike_id":"d79f194c-1b20-418e-9790-98bf56fa5298","system_id":"levelo_inurba_marseille","lat":43.29529,"lon":5.385581,"is_reserved":false,"is_disabled":false,"rental_uris":{"android":"levelo://app?vid=d79f194c-1b20-418e-9790-98bf56fa5298","ios":"levelo://app?vid=d79f194c-1b20-418e-9790-98bf56fa5298"},"vehicle_type_id":"4","last_reported":1713038786,"current_range_meters":4000,"station_id":"ce4bgih2rcd13ifvqba0","pricing_plan_id":"cebpf4jnsgd1na2vs0mg"},{"bike_id":"e4a2a448-9656-42e5-950e-6fd339372107","system_id":"levelo_inurba_marseille","lat":43.29537,"lon":5.3854,"is_reserved":false,"is_disabled":false,"rental_uris":{"android":"levelo://app?vid=e4a2a448-9656-42e5-950e-6fd339372107","ios":"levelo://app?vid=e4a2a448-9656-42e5-950e-6fd339372107"},"vehicle_type_id":"4","last_reported":1713038786,"current_range_meters":3600,"station_id":"ce4bgih2rcd13ifvqba0","pricing_plan_id":"cebpf4jnsgd1na2vs0mg"},{"bike_id":"b00497bf-3307-4715-bfbf-dc5a7fbd4c9c","system_id":"levelo_inurba_marseille","lat":43.29529,"lon":5.385581,"is_reserved":false,"is_disabled":false,"rental_uris":{"android":"levelo://app?vid=b00497bf-3307-4715-bfbf-dc5a7fbd4c9c","ios":"levelo://app?vid=b00497bf-3307-4715-bfbf-dc5a7fbd4c9c"},"vehicle_type_id":"4","last_reported":1713038786,"current_range_meters":2800,"station_id":"ce4bgih2rcd13ifvqba0","pricing_plan_id":"cebpf4jnsgd1na2vs0mg"},{"bike_id":"237dfa2f-388f-4e67-b2b1-fce8652d1931","system_id":"levelo_inurba_marseille","lat":43.29535,"lon":5.38543,"is_reserved":false,"is_disabled":false,"rental_uris":{"android":"levelo://app?vid=237dfa2f-388f-4e67-b2b1-fce8652d1931","ios":"levelo://app?vid=237dfa2f-388f-4e67-b2b1-fce8652d1931"},"vehicle_type_id":"4","last_reported":1713038786,"current_range_meters":9200,"station_id":"ce4bgih2rcd13ifvqba0","pricing_plan_id":"cebpf4jnsgd1na2vs0mg"},{"bike_id":"95426f53-d98c-40cf-bcda-0a832463bb11","system_id":"levelo_inurba_marseille","lat":43.29529,"lon":5.385581,"is_reserved":false,"is_disabled":false,"rental_uris":{"android":"levelo://app?vid=95426f53-d98c-40cf-bcda-0a832463bb11","ios":"levelo://app?vid=95426f53-d98c-40cf-bcda-0a832463bb11"},"vehicle_type_id":"4","last_reported":1713038786,"current_range_meters":4800,"station_id":"ce4bgih2rcd13ifvqba0","pricing_plan_id":"cebpf4jnsgd1na2vs0mg"},{"bike_id":"88451521-8a5a-4d00-9525-5c4082690e4a","system_id":"levelo_inurba_marseille","lat":43.295321,"lon":5.385433,"is_reserved":false,"is_disabled":false,"rental_uris":{"android":"levelo://app?vid=88451521-8a5a-4d00-9525-5c4082690e4a","ios":"levelo://app?vid=88451521-8a5a-4d00-9525-5c4082690e4a"},"vehicle_type_id":"4","last_reported":1713038786,"current_range_meters":20000,"station_id":"ce4bgih2rcd13ifvqba0","pricing_plan_id":"cebpf4jnsgd1na2vs0mg"},{"bike_id":"262189e8-114c-4c0f-a83c-c96f98ba2e32","system_id":"levelo_inurba_marseille","lat":43.29529,"lon":5.385581,"is_reserved":false,"is_disabled":false,"rental_uris":{"android":"levelo://app?vid=262189e8-114c-4c0f-a83c-c96f98ba2e32","ios":"levelo://app?vid=262189e8-114c-4c0f-a83c-c96f98ba2e32"},"vehicle_type_id":"4","last_reported":1713038786,"current_range_meters":6800,"station_id":"ce4bgih2rcd13ifvqba0","pricing_plan_id":"cebpf4jnsgd1na2vs0mg"},{"bike_id":"2d77d9ec-fc6a-4641-86cf-6a33db6e4673","system_id":"levelo_inurba_marseille","lat":43.29529,"lon":5.38542,"is_reserved":false,"is_disabled":false,"rental_uris":{"android":"levelo://app?vid=2d77d9ec-fc6a-4641-86cf-6a33db6e4673","ios":"levelo://app?vid=2d77d9ec-fc6a-4641-86cf-6a33db6e4673"},"vehicle_type_id":"4","last_reported":1713038786,"current_range_meters":22800,"station_id":"ce4bgih2rcd13ifvqba0","pricing_plan_id":"cebpf4jnsgd1na2vs0mg"},{"bike_id":"ec33dc4e-b22b-4304-8e0b-026d3390cf10","system_id":"levelo_inurba_marseille","lat":43.29528,"lon":5.38544,"is_reserved":false,"is_disabled":false,"rental_uris":{"android":"levelo://app?vid=ec33dc4e-b22b-4304-8e0b-026d3390cf10","ios":"levelo://app?vid=ec33dc4e-b22b-4304-8e0b-026d3390cf10"},"vehicle_type_id":"4","last_reported":1713038786,"current_range_meters":6000,"station_id":"ce4bgih2rcd13ifvqba0","pricing_plan_id":"cebpf4jnsgd1na2vs0mg"},{"bike_id":"fc234bbb-ab52-4dfe-a10f-cbe63cba0452","system_id":"levelo_inurba_marseille","lat":43.2908,"lon":5.37161,"is_reserved":false,"is_disabled":false,"rental_uris":{"android":"levelo://app?vid=fc234bbb-ab52-4dfe-a10f-cbe63cba0452","ios":"levelo://app?vid=fc234bbb-ab52-4dfe-a10f-cbe63cba0452"},"vehicle_type_id":"4","last_reported":1713038786,"current_range_meters":22400,"station_id":"ce4bh5p2rcd13ifvqe4g","pricing_plan_id":"cebpf4jnsgd1na2vs0mg"},{"bike_id":"f444748c-4fd2-4075-9865-1f0f81bf6b2c","system_id":"levelo_inurba_marseille","lat":43.273613,"lon":5.362705,"is_reserved":false,"is_disabled":false,"rental_uris":{"android":"levelo://app?vid=f444748c-4fd2-4075-9865-1f0f81bf6b2c","ios":"levelo://app?vid=f444748c-4fd2-4075-9865-1f0f81bf6b2c"},"vehicle_type_id":"4","last_reported":1713038786,"current_range_meters":5200,"station_id":"ce4bhbh2rcd13ifvqeo0","pricing_plan_id":"cebpf4jnsgd1na2vs0mg"},{"bike_id":"0b3b9686-cc23-4a58-8485-ed95233aea59","system_id":"levelo_inurba_marseille","lat":43.29066,"lon":5.37151,"is_reserved":false,"is_disabled":false,"rental_uris":{"android":"levelo://app?vid=0b3b9686-cc23-4a58-8485-ed95233aea59","ios":"levelo://app?vid=0b3b9686-cc23-4a58-8485-ed95233aea59"},"vehicle_type_id":"4","last_reported":1713038786,"current_range_meters":23200,"station_id":"ce4bh5p2rcd13ifvqe4g","pricing_plan_id":"cebpf4jnsgd1na2vs0mg"},{"bike_id":"d56435f6-2777-43b3-b902-fac5c6c8d69e","system_id":"levelo_inurba_marseille","lat":43.290631,"lon":5.359244,"is_reserved":false,"is_disabled":false,"rental_uris":{"android":"levelo://app?vid=d56435f6-2777-43b3-b902-fac5c6c8d69e","ios":"levelo://app?vid=d56435f6-2777-43b3-b902-fac5c6c8d69e"},"vehicle_type_id":"4","last_reported":1713038786,"current_range_meters":0,"station_id":"ce4bha92rcd13ifvqeg0","pricing_plan_id":"cebpf4jnsgd1na2vs0mg"},{"bike_id":"52ffa198-4ffc-41f3-aa31-e9c2a9bc7922","system_id":"levelo_inurba_marseille","lat":43.294162,"lon":5.386292,"is_reserved":false,"is_disabled":false,"rental_uris":{"android":"levelo://app?vid=52ffa198-4ffc-41f3-aa31-e9c2a9bc7922","ios":"levelo://app?vid=52ffa198-4ffc-41f3-aa31-e9c2a9bc7922"},"vehicle_type_id":"4","last_reported":1713038786,"current_range_meters":30400,"station_id":"ce4bh2h2rcd13ifvqdh0","pricing_plan_id":"cebpf4jnsgd1na2vs0mg"},{"bike_id":"a185c0f4-9792-4fb2-ac71-7827fae1eb77","system_id":"levelo_inurba_marseille","lat":43.290392,"lon":5.375635,"is_reserved":false,"is_disabled":false,"rental_uris":{"android":"levelo://app?vid=a185c0f4-9792-4fb2-ac71-7827fae1eb77","ios":"levelo://app?vid=a185c0f4-9792-4fb2-ac71-7827fae1eb77"},"vehicle_type_id":"4","last_reported":1713038786,"current_range_meters":0,"station_id":"ce4bh692rcd13ifvqe90","pricing_plan_id":"cebpf4jnsgd1na2vs0mg"},{"bike_id":"466e1602-327a-4cce-b4b2-d4053dfa0870","system_id":"levelo_inurba_marseille","lat":43.294153,"lon":5.386305,"is_reserved":false,"is_disabled":false,"rental_uris":{"android":"levelo://app?vid=466e1602-327a-4cce-b4b2-d4053dfa0870","ios":"levelo://app?vid=466e1602-327a-4cce-b4b2-d4053dfa0870"},"vehicle_type_id":"4","last_reported":1713038786,"current_range_meters":0,"station_id":"ce4bh2h2rcd13ifvqdh0","pricing_plan_id":"cebpf4jnsgd1na2vs0mg"},{"bike_id":"6dbceb14-6e6b-4d4e-8cc1-02528dab458e","system_id":"levelo_inurba_marseille","lat":43.294162,"lon":5.386292,"is_reserved":false,"is_disabled":false,"rental_uris":{"android":"levelo://app?vid=6dbceb14-6e6b-4d4e-8cc1-02528dab458e","ios":"levelo://app?vid=6dbceb14-6e6b-4d4e-8cc1-02528dab458e"},"vehicle_type_id":"4","last_reported":1713038786,"current_range_meters":800,"station_id":"ce4bh2h2rcd13ifvqdh0","pricing_plan_id":"cebpf4jnsgd1na2vs0mg"},{"bike_id":"aec74368-4921-450a-8331-034289d0e0be","system_id":"levelo_inurba_marseille","lat":43.294153,"lon":5.386305,"is_reserved":false,"is_disabled":false,"rental_uris":{"android":"levelo://app?vid=aec74368-4921-450a-8331-034289d0e0be","ios":"levelo://app?vid=aec74368-4921-450a-8331-034289d0e0be"},"vehicle_type_id":"4","last_reported":1713038786,"current_range_meters":4800,"station_id":"ce4bh2h2rcd13ifvqdh0","pricing_plan_id":"cebpf4jnsgd1na2vs0mg"},{"bike_id":"a9501db0-cc6a-492a-b62d-3d8ea3cfb23c","system_id":"levelo_inurba_marseille","lat":43.294162,"lon":5.386292,"is_reserved":false,"is_disabled":false,"rental_uris":{"android":"levelo://app?vid=a9501db0-cc6a-492a-b62d-3d8ea3cfb23c","ios":"levelo://app?vid=a9501db0-cc6a-492a-b62d-3d8ea3cfb23c"},"vehicle_type_id":"4","last_reported":1713038786,"current_range_meters":30800,"station_id":"ce4bh2h2rcd13ifvqdh0","pricing_plan_id":"cebpf4jnsgd1na2vs0mg"},{"bike_id":"4ea8459e-004d-4704-8e20-8325c03fa404","system_id":"levelo_inurba_marseille","lat":43.29419,"lon":5.38629,"is_reserved":false,"is_disabled":false,"rental_uris":{"android":"levelo://app?vid=4ea8459e-004d-4704-8e20-8325c03fa404","ios":"levelo://app?vid=4ea8459e-004d-4704-8e20-8325c03fa404"},"vehicle_type_id":"4","last_reported":1713038786,"current_range_meters":0,"station_id":"ce4bh2h2rcd13ifvqdh0","pricing_plan_id":"cebpf4jnsgd1na2vs0mg"},{"bike_id":"a716d1bc-c0bc-4a8b-a3f4-56f55ed932ac","system_id":"levelo_inurba_marseille","lat":43.294162,"lon":5.386292,"is_reserved":false,"is_disabled":false,"rental_uris":{"android":"levelo://app?vid=a716d1bc-c0bc-4a8b-a3f4-56f55ed932ac","ios":"levelo://app?vid=a716d1bc-c0bc-4a8b-a3f4-56f55ed932ac"},"vehicle_type_id":"4","last_reported":1713038786,"current_range_meters":20800,"station_id":"ce4bh2h2rcd13ifvqdh0","pricing_plan_id":"cebpf4jnsgd1na2vs0mg"},{"bike_id":"b8431921-4a48-431d-ba04-196abaceec3e","system_id":"levelo_inurba_marseille","lat":43.294162,"lon":5.386292,"is_reserved":false,"is_disabled":false,"rental_uris":{"android":"levelo://app?vid=b8431921-4a48-431d-ba04-196abaceec3e","ios":"levelo://app?vid=b8431921-4a48-431d-ba04-196abaceec3e"},"vehicle_type_id":"4","last_reported":1713038786,"current_range_meters":0,"station_id":"ce4bh2h2rcd13ifvqdh0","pricing_plan_id":"cebpf4jnsgd1na2vs0mg"},{"bike_id":"5f2f33eb-a241-43b4-bc0e-faf42f4c9665","system_id":"levelo_inurba_marseille","lat":43.29415,"lon":5.38628,"is_reserved":false,"is_disabled":false,"rental_uris":{"android":"levelo://app?vid=5f2f33eb-a241-43b4-bc0e-faf42f4c9665","ios":"levelo://app?vid=5f2f33eb-a241-43b4-bc0e-faf42f4c9665"},"vehicle_type_id":"4","last_reported":1713038786,"current_range_meters":2000,"station_id":"ce4bh2h2rcd13ifvqdh0","pricing_plan_id":"cebpf4jnsgd1na2vs0mg"},{"bike_id":"f4299dda-644c-43a3-b4c0-7dd704fd3ac8","system_id":"levelo_inurba_marseille","lat":43.294162,"lon":5.386292,"is_reserved":false,"is_disabled":false,"rental_uris":{"android":"levelo://app?vid=f4299dda-644c-43a3-b4c0-7dd704fd3ac8","ios":"levelo://app?vid=f4299dda-644c-43a3-b4c0-7dd704fd3ac8"},"vehicle_type_id":"4","last_reported":1713038786,"current_range_meters":8400,"station_id":"ce4bh2h2rcd13ifvqdh0","pricing_plan_id":"cebpf4jnsgd1na2vs0mg"},{"bike_id":"2a7b9b0b-7513-4aa8-b7f7-696a4b6798e8","system_id":"levelo_inurba_marseille","lat":43.294162,"lon":5.386292,"is_reserved":false,"is_disabled":false,"rental_uris":{"android":"levelo://app?vid=2a7b9b0b-7513-4aa8-b7f7-696a4b6798e8","ios":"levelo://app?vid=2a7b9b0b-7513-4aa8-b7f7-696a4b6798e8"},"vehicle_type_id":"4","last_reported":1713038786,"current_range_meters":30000,"station_id":"ce4bh2h2rcd13ifvqdh0","pricing_plan_id":"cebpf4jnsgd1na2vs0mg"},{"bike_id":"f32ad56f-3211-4903-b661-a3e4cea62f2c","system_id":"levelo_inurba_marseille","lat":43.29413,"lon":5.38627,"is_reserved":false,"is_disabled":false,"rental_uris":{"android":"levelo://app?vid=f32ad56f-3211-4903-b661-a3e4cea62f2c","ios":"levelo://app?vid=f32ad56f-3211-4903-b661-a3e4cea62f2c"},"vehicle_type_id":"4","last_reported":1713038786,"current_range_meters":0,"station_id":"ce4bh2h2rcd13ifvqdh0","pricing_plan_id":"cebpf4jnsgd1na2vs0mg"},{"bike_id":"702b7d91-f0e6-48c4-939f-4b05c0136ae9","system_id":"levelo_inurba_marseille","lat":43.294162,"lon":5.386292,"is_reserved":false,"is_disabled":false,"rental_uris":{"android":"levelo://app?vid=702b7d91-f0e6-48c4-939f-4b05c0136ae9","ios":"levelo://app?vid=702b7d91-f0e6-48c4-939f-4b05c0136ae9"},"vehicle_type_id":"4","last_reported":1713038786,"current_range_meters":31200,"station_id":"ce4bh2h2rcd13ifvqdh0","pricing_plan_id":"cebpf4jnsgd1na2vs0mg"},{"bike_id":"a2a1bd01-8ed7-4c37-a911-320a1b8f31e2","system_id":"levelo_inurba_marseille","lat":43.289184,"lon":5.366408,"is_reserved":false,"is_disabled":false,"rental_uris":{"android":"levelo://app?vid=a2a1bd01-8ed7-4c37-a911-320a1b8f31e2","ios":"levelo://app?vid=a2a1bd01-8ed7-4c37-a911-320a1b8f31e2"},"vehicle_type_id":"4","last_reported":1713038786,"current_range_meters":0,"station_id":"ce4bhap2rcd13ifvqek0","pricing_plan_id":"cebpf4jnsgd1na2vs0mg"},{"bike_id":"0c20454a-8d48-485a-93ec-5c2375aefef1","system_id":"levelo_inurba_marseille","lat":43.294162,"lon":5.386292,"is_reserved":false,"is_disabled":false,"rental_uris":{"android":"levelo://app?vid=0c20454a-8d48-485a-93ec-5c2375aefef1","ios":"levelo://app?vid=0c20454a-8d48-485a-93ec-5c2375aefef1"},"vehicle_type_id":"4","last_reported":1713038786,"current_range_meters":30400,"station_id":"ce4bh2h2rcd13ifvqdh0","pricing_plan_id":"cebpf4jnsgd1na2vs0mg"},{"bike_id":"923c5932-411a-4230-bdb0-c129da1431f9","system_id":"levelo_inurba_marseille","lat":43.29275,"lon":5.38442,"is_reserved":false,"is_disabled":false,"rental_uris":{"android":"levelo://app?vid=923c5932-411a-4230-bdb0-c129da1431f9","ios":"levelo://app?vid=923c5932-411a-4230-bdb0-c129da1431f9"},"vehicle_type_id":"4","last_reported":1713038786,"current_range_meters":0,"station_id":"ce4bh692rcd13ifvqea0","pricing_plan_id":"cebpf4jnsgd1na2vs0mg"},{"bike_id":"d9f8d9cf-3b90-4357-b298-4285104e0f7e","system_id":"levelo_inurba_marseille","lat":43.29272,"lon":5.38448,"is_reserved":false,"is_disabled":false,"rental_uris":{"android":"levelo://app?vid=d9f8d9cf-3b90-4357-b298-4285104e0f7e","ios":"levelo://app?vid=d9f8d9cf-3b90-4357-b298-4285104e0f7e"},"vehicle_type_id":"4","last_reported":1713038786,"current_range_meters":0,"station_id":"ce4bh692rcd13ifvqea0","pricing_plan_id":"cebpf4jnsgd1na2vs0mg"},{"bike_id":"9d319d11-983a-4f32-9b87-f10d41d3ad4a","system_id":"levelo_inurba_marseille","lat":43.29273,"lon":5.38458,"is_reserved":false,"is_disabled":false,"rental_uris":{"android":"levelo://app?vid=9d319d11-983a-4f32-9b87-f10d41d3ad4a","ios":"levelo://app?vid=9d319d11-983a-4f32-9b87-f10d41d3ad4a"},"vehicle_type_id":"4","last_reported":1713038786,"current_range_meters":0,"station_id":"ce4bh692rcd13ifvqea0","pricing_plan_id":"cebpf4jnsgd1na2vs0mg"},{"bike_id":"694b9e7d-53ad-4744-8845-c133f1cdd0eb","system_id":"levelo_inurba_marseille","lat":43.30425,"lon":5.39759,"is_reserved":false,"is_disabled":false,"rental_uris":{"android":"levelo://app?vid=694b9e7d-53ad-4744-8845-c133f1cdd0eb","ios":"levelo://app?vid=694b9e7d-53ad-4744-8845-c133f1cdd0eb"},"vehicle_type_id":"4","last_reported":1713038786,"current_range_meters":1600,"station_id":"ce4bh092rcd13ifvqd20","pricing_plan_id":"cebpf4jnsgd1na2vs0mg"},{"bike_id":"3c7a0d57-dfc3-4743-87eb-8c51314a5291","system_id":"levelo_inurba_marseille","lat":43.303002,"lon":5.392142,"is_reserved":false,"is_disabled":false,"rental_uris":{"android":"levelo://app?vid=3c7a0d57-dfc3-4743-87eb-8c51314a5291","ios":"levelo://app?vid=3c7a0d57-dfc3-4743-87eb-8c51314a5291"},"vehicle_type_id":"4","last_reported":1713038786,"current_range_meters":22400,"station_id":"ce4bgkh2rcd13ifvqbk0","pricing_plan_id":"cebpf4jnsgd1na2vs0mg"},{"bike_id":"1335089d-2f16-42bb-8181-007d0f814d9d","system_id":"levelo_inurba_marseille","lat":43.290995,"lon":5.381361,"is_reserved":false,"is_disabled":false,"rental_uris":{"android":"levelo://app?vid=1335089d-2f16-42bb-8181-007d0f814d9d","ios":"levelo://app?vid=1335089d-2f16-42bb-8181-007d0f814d9d"},"vehicle_type_id":"4","last_reported":1713038786,"current_range_meters":10000,"station_id":"ce4bh512rcd13ifvqe2g","pricing_plan_id":"cebpf4jnsgd1na2vs0mg"},{"bike_id":"39821b8d-773e-48cf-9ed8-4d97e356f018","system_id":"levelo_inurba_marseille","lat":43.290995,"lon":5.381361,"is_reserved":false,"is_disabled":false,"rental_uris":{"android":"levelo://app?vid=39821b8d-773e-48cf-9ed8-4d97e356f018","ios":"levelo://app?vid=39821b8d-773e-48cf-9ed8-4d97e356f018"},"vehicle_type_id":"4","last_reported":1713038786,"current_range_meters":18800,"station_id":"ce4bh512rcd13ifvqe2g","pricing_plan_id":"cebpf4jnsgd1na2vs0mg"},{"bike_id":"98ae5faa-1757-44f7-b7d3-76bf11b46167","system_id":"levelo_inurba_marseille","lat":43.290946,"lon":5.381387,"is_reserved":false,"is_disabled":false,"rental_uris":{"android":"levelo://app?vid=98ae5faa-1757-44f7-b7d3-76bf11b46167","ios":"levelo://app?vid=98ae5faa-1757-44f7-b7d3-76bf11b46167"},"vehicle_type_id":"4","last_reported":1713038786,"current_range_meters":0,"station_id":"ce4bh512rcd13ifvqe2g","pricing_plan_id":"cebpf4jnsgd1na2vs0mg"},{"bike_id":"f430a183-51e4-4a9c-b670-905d2b4c128c","system_id":"levelo_inurba_marseille","lat":43.295169,"lon":5.390426,"is_reserved":false,"is_disabled":false,"rental_uris":{"android":"levelo://app?vid=f430a183-51e4-4a9c-b670-905d2b4c128c","ios":"levelo://app?vid=f430a183-51e4-4a9c-b670-905d2b4c128c"},"vehicle_type_id":"4","last_reported":1713038786,"current_range_meters":0,"station_id":"ce4bh3p2rcd13ifvqdp0","pricing_plan_id":"cebpf4jnsgd1na2vs0mg"},{"bike_id":"8abe8f07-1f46-44b0-8066-f7eadb21eae2","system_id":"levelo_inurba_marseille","lat":43.290838,"lon":5.381442,"is_reserved":false,"is_disabled":false,"rental_uris":{"android":"levelo://app?vid=8abe8f07-1f46-44b0-8066-f7eadb21eae2","ios":"levelo://app?vid=8abe8f07-1f46-44b0-8066-f7eadb21eae2"},"vehicle_type_id":"4","last_reported":1713038786,"current_range_meters":0,"station_id":"ce4bh512rcd13ifvqe2g","pricing_plan_id":"cebpf4jnsgd1na2vs0mg"},{"bike_id":"56b8dad8-e7ec-4c83-ae73-93d5992ddfc4","system_id":"levelo_inurba_marseille","lat":43.330442,"lon":5.389148,"is_reserved":false,"is_disabled":false,"rental_uris":{"android":"levelo://app?vid=56b8dad8-e7ec-4c83-ae73-93d5992ddfc4","ios":"levelo://app?vid=56b8dad8-e7ec-4c83-ae73-93d5992ddfc4"},"vehicle_type_id":"4","last_reported":1713038786,"current_range_meters":31200,"station_id":"ce4bhr92rcd13ifvqhrg","pricing_plan_id":"cebpf4jnsgd1na2vs0mg"},{"bike_id":"f68a5682-a61d-47a9-9910-289085255bca","system_id":"levelo_inurba_marseille","lat":43.2901,"lon":5.381269,"is_reserved":false,"is_disabled":false,"rental_uris":{"android":"levelo://app?vid=f68a5682-a61d-47a9-9910-289085255bca","ios":"levelo://app?vid=f68a5682-a61d-47a9-9910-289085255bca"},"vehicle_type_id":"4","last_reported":1713038786,"current_range_meters":3200,"station_id":"ce4bh4p2rcd13ifvqe1g","pricing_plan_id":"cebpf4jnsgd1na2vs0mg"},{"bike_id":"ce7e99f4-e03c-4ec9-86a5-2d4c31ec78cd","system_id":"levelo_inurba_marseille","lat":43.28856,"lon":5.358371,"is_reserved":false,"is_disabled":false,"rental_uris":{"android":"levelo://app?vid=ce7e99f4-e03c-4ec9-86a5-2d4c31ec78cd","ios":"levelo://app?vid=ce7e99f4-e03c-4ec9-86a5-2d4c31ec78cd"},"vehicle_type_id":"4","last_reported":1713038786,"current_range_meters":0,"station_id":"ce4bhb12rcd13ifvqem0","pricing_plan_id":"cebpf4jnsgd1na2vs0mg"},{"bike_id":"d4ae63a1-f8aa-4fcb-9f3e-d5f0cf1c1fc7","system_id":"levelo_inurba_marseille","lat":43.294162,"lon":5.386292,"is_reserved":false,"is_disabled":false,"rental_uris":{"android":"levelo://app?vid=d4ae63a1-f8aa-4fcb-9f3e-d5f0cf1c1fc7","ios":"levelo://app?vid=d4ae63a1-f8aa-4fcb-9f3e-d5f0cf1c1fc7"},"vehicle_type_id":"4","last_reported":1713038786,"current_range_meters":11600,"station_id":"ce4bh2h2rcd13ifvqdh0","pricing_plan_id":"cebpf4jnsgd1na2vs0mg"},{"bike_id":"7584a675-691e-4372-8285-141df4d486b0","system_id":"levelo_inurba_marseille","lat":43.312609,"lon":5.401662,"is_reserved":false,"is_disabled":false,"rental_uris":{"android":"levelo://app?vid=7584a675-691e-4372-8285-141df4d486b0","ios":"levelo://app?vid=7584a675-691e-4372-8285-141df4d486b0"},"vehicle_type_id":"4","last_reported":1713038786,"current_range_meters":17200,"station_id":"ce4bh092rcd13ifvqd30","pricing_plan_id":"cebpf4jnsgd1na2vs0mg"},{"bike_id":"d88c270a-08ed-4b39-8c3b-b549b744ff17","system_id":"levelo_inurba_marseille","lat":43.312609,"lon":5.401662,"is_reserved":false,"is_disabled":false,"rental_uris":{"android":"levelo://app?vid=d88c270a-08ed-4b39-8c3b-b549b744ff17","ios":"levelo://app?vid=d88c270a-08ed-4b39-8c3b-b549b744ff17"},"vehicle_type_id":"4","last_reported":1713038786,"current_range_meters":13200,"station_id":"ce4bh092rcd13ifvqd30","pricing_plan_id":"cebpf4jnsgd1na2vs0mg"},{"bike_id":"23c222d8-6f79-4746-97eb-e26706bf6014","system_id":"levelo_inurba_marseille","lat":43.312609,"lon":5.401662,"is_reserved":false,"is_disabled":false,"rental_uris":{"android":"levelo://app?vid=23c222d8-6f79-4746-97eb-e26706bf6014","ios":"levelo://app?vid=23c222d8-6f79-4746-97eb-e26706bf6014"},"vehicle_type_id":"4","last_reported":1713038786,"current_range_meters":23600,"station_id":"ce4bh092rcd13ifvqd30","pricing_plan_id":"cebpf4jnsgd1na2vs0mg"},{"bike_id":"591332e0-5110-4176-a1ce-9038725410b4","system_id":"levelo_inurba_marseille","lat":43.312609,"lon":5.401662,"is_reserved":false,"is_disabled":false,"rental_uris":{"android":"levelo://app?vid=591332e0-5110-4176-a1ce-9038725410b4","ios":"levelo://app?vid=591332e0-5110-4176-a1ce-9038725410b4"},"vehicle_type_id":"4","last_reported":1713038786,"current_range_meters":8400,"station_id":"ce4bh092rcd13ifvqd30","pricing_plan_id":"cebpf4jnsgd1na2vs0mg"},{"bike_id":"359c082f-d2e3-4f0a-86ff-a8578003c341","system_id":"levelo_inurba_marseille","lat":43.312609,"lon":5.401662,"is_reserved":false,"is_disabled":false,"rental_uris":{"android":"levelo://app?vid=359c082f-d2e3-4f0a-86ff-a8578003c341","ios":"levelo://app?vid=359c082f-d2e3-4f0a-86ff-a8578003c341"},"vehicle_type_id":"4","last_reported":1713038786,"current_range_meters":12800,"station_id":"ce4bh092rcd13ifvqd30","pricing_plan_id":"cebpf4jnsgd1na2vs0mg"},{"bike_id":"c0ff7e7e-deaa-416a-8c35-126ddcde366a","system_id":"levelo_inurba_marseille","lat":43.312609,"lon":5.401662,"is_reserved":false,"is_disabled":false,"rental_uris":{"android":"levelo://app?vid=c0ff7e7e-deaa-416a-8c35-126ddcde366a","ios":"levelo://app?vid=c0ff7e7e-deaa-416a-8c35-126ddcde366a"},"vehicle_type_id":"4","last_reported":1713038786,"current_range_meters":15600,"station_id":"ce4bh092rcd13ifvqd30","pricing_plan_id":"cebpf4jnsgd1na2vs0mg"},{"bike_id":"e9bc6536-2254-4628-bbb5-ae6f00115e46","system_id":"levelo_inurba_marseille","lat":43.312609,"lon":5.401662,"is_reserved":false,"is_disabled":false,"rental_uris":{"android":"levelo://app?vid=e9bc6536-2254-4628-bbb5-ae6f00115e46","ios":"levelo://app?vid=e9bc6536-2254-4628-bbb5-ae6f00115e46"},"vehicle_type_id":"4","last_reported":1713038786,"current_range_meters":0,"station_id":"ce4bh092rcd13ifvqd30","pricing_plan_id":"cebpf4jnsgd1na2vs0mg"},{"bike_id":"1cd7c19e-65f2-4a37-9ac6-42a6de30781b","system_id":"levelo_inurba_marseille","lat":43.30642,"lon":5.401031,"is_reserved":false,"is_disabled":false,"rental_uris":{"android":"levelo://app?vid=1cd7c19e-65f2-4a37-9ac6-42a6de30781b","ios":"levelo://app?vid=1cd7c19e-65f2-4a37-9ac6-42a6de30781b"},"vehicle_type_id":"4","last_reported":1713038786,"current_range_meters":9200,"station_id":"ce4bh112rcd13ifvqda0","pricing_plan_id":"cebpf4jnsgd1na2vs0mg"},{"bike_id":"aec930d3-d95b-4685-93f4-24772cab6952","system_id":"levelo_inurba_marseille","lat":43.312609,"lon":5.401662,"is_reserved":false,"is_disabled":false,"rental_uris":{"android":"levelo://app?vid=aec930d3-d95b-4685-93f4-24772cab6952","ios":"levelo://app?vid=aec930d3-d95b-4685-93f4-24772cab6952"},"vehicle_type_id":"4","last_reported":1713038786,"current_range_meters":28800,"station_id":"ce4bh092rcd13ifvqd30","pricing_plan_id":"cebpf4jnsgd1na2vs0mg"},{"bike_id":"195a708e-55de-4988-8056-dfa951abfb93","system_id":"levelo_inurba_marseille","lat":43.309371,"lon":5.401449,"is_reserved":false,"is_disabled":false,"rental_uris":{"android":"levelo://app?vid=195a708e-55de-4988-8056-dfa951abfb93","ios":"levelo://app?vid=195a708e-55de-4988-8056-dfa951abfb93"},"vehicle_type_id":"4","last_reported":1713038786,"current_range_meters":19600,"station_id":"ce4bgvp2rcd13ifvqct0","pricing_plan_id":"cebpf4jnsgd1na2vs0mg"},{"bike_id":"b9e5042b-c0e5-4804-b47d-0068beefb601","system_id":"levelo_inurba_marseille","lat":43.31281,"lon":5.4018,"is_reserved":false,"is_disabled":false,"rental_uris":{"android":"levelo://app?vid=b9e5042b-c0e5-4804-b47d-0068beefb601","ios":"levelo://app?vid=b9e5042b-c0e5-4804-b47d-0068beefb601"},"vehicle_type_id":"4","last_reported":1713038786,"current_range_meters":16000,"station_id":"ce4bh092rcd13ifvqd30","pricing_plan_id":"cebpf4jnsgd1na2vs0mg"},{"bike_id":"d1b2acd9-6b87-428e-8e62-f0f4d562e95d","system_id":"levelo_inurba_marseille","lat":43.309371,"lon":5.401449,"is_reserved":false,"is_disabled":false,"rental_uris":{"android":"levelo://app?vid=d1b2acd9-6b87-428e-8e62-f0f4d562e95d","ios":"levelo://app?vid=d1b2acd9-6b87-428e-8e62-f0f4d562e95d"},"vehicle_type_id":"4","last_reported":1713038786,"current_range_meters":13600,"station_id":"ce4bgvp2rcd13ifvqct0","pricing_plan_id":"cebpf4jnsgd1na2vs0mg"},{"bike_id":"9a3e71c6-c618-4699-a8ac-073d38313d22","system_id":"levelo_inurba_marseille","lat":43.30642,"lon":5.401031,"is_reserved":false,"is_disabled":false,"rental_uris":{"android":"levelo://app?vid=9a3e71c6-c618-4699-a8ac-073d38313d22","ios":"levelo://app?vid=9a3e71c6-c618-4699-a8ac-073d38313d22"},"vehicle_type_id":"4","last_reported":1713038786,"current_range_meters":4800,"station_id":"ce4bh112rcd13ifvqda0","pricing_plan_id":"cebpf4jnsgd1na2vs0mg"},{"bike_id":"71cc5d9a-d305-497b-9583-f2815c310563","system_id":"levelo_inurba_marseille","lat":43.309252,"lon":5.401558,"is_reserved":false,"is_disabled":false,"rental_uris":{"android":"levelo://app?vid=71cc5d9a-d305-497b-9583-f2815c310563","ios":"levelo://app?vid=71cc5d9a-d305-497b-9583-f2815c310563"},"vehicle_type_id":"4","last_reported":1713038786,"current_range_meters":0,"station_id":"ce4bgvp2rcd13ifvqct0","pricing_plan_id":"cebpf4jnsgd1na2vs0mg"},{"bike_id":"d3ea26f4-7d4d-45b7-8172-0133ecd9329b","system_id":"levelo_inurba_marseille","lat":43.337575,"lon":5.37454,"is_reserved":false,"is_disabled":false,"rental_uris":{"android":"levelo://app?vid=d3ea26f4-7d4d-45b7-8172-0133ecd9329b","ios":"levelo://app?vid=d3ea26f4-7d4d-45b7-8172-0133ecd9329b"},"vehicle_type_id":"4","last_reported":1713038786,"current_range_meters":24400,"station_id":"","pricing_plan_id":"cebpf4jnsgd1na2vs0mg"},{"bike_id":"38ee1843-ba6d-43ff-9a22-e01a582f481c","system_id":"levelo_inurba_marseille","lat":43.306487,"lon":5.401008,"is_reserved":false,"is_disabled":false,"rental_uris":{"android":"levelo://app?vid=38ee1843-ba6d-43ff-9a22-e01a582f481c","ios":"levelo://app?vid=38ee1843-ba6d-43ff-9a22-e01a582f481c"},"vehicle_type_id":"4","last_reported":1713038786,"current_range_meters":800,"station_id":"ce4bh112rcd13ifvqda0","pricing_plan_id":"cebpf4jnsgd1na2vs0mg"},{"bike_id":"e23a05b8-4508-4613-8e48-3f16d0633eac","system_id":"levelo_inurba_marseille","lat":43.301117,"lon":5.398795,"is_reserved":false,"is_disabled":false,"rental_uris":{"android":"levelo://app?vid=e23a05b8-4508-4613-8e48-3f16d0633eac","ios":"levelo://app?vid=e23a05b8-4508-4613-8e48-3f16d0633eac"},"vehicle_type_id":"4","last_reported":1713038786,"current_range_meters":2800,"station_id":"ce4bh0h2rcd13ifvqd40","pricing_plan_id":"cebpf4jnsgd1na2vs0mg"},{"bike_id":"e7ae37d9-2705-4b3c-9c05-3bebae997f8e","system_id":"levelo_inurba_marseille","lat":43.301117,"lon":5.398795,"is_reserved":false,"is_disabled":false,"rental_uris":{"android":"levelo://app?vid=e7ae37d9-2705-4b3c-9c05-3bebae997f8e","ios":"levelo://app?vid=e7ae37d9-2705-4b3c-9c05-3bebae997f8e"},"vehicle_type_id":"4","last_reported":1713038786,"current_range_meters":12800,"station_id":"ce4bh0h2rcd13ifvqd40","pricing_plan_id":"cebpf4jnsgd1na2vs0mg"},{"bike_id":"a508320f-b3d0-4aa8-9557-9867decd062e","system_id":"levelo_inurba_marseille","lat":43.28729,"lon":5.36094,"is_reserved":false,"is_disabled":false,"rental_uris":{"android":"levelo://app?vid=a508320f-b3d0-4aa8-9557-9867decd062e","ios":"levelo://app?vid=a508320f-b3d0-4aa8-9557-9867decd062e"},"vehicle_type_id":"4","last_reported":1713038786,"current_range_meters":0,"station_id":"cki0cbj6b192h4jlfktg","pricing_plan_id":"cebpf4jnsgd1na2vs0mg"},{"bike_id":"eedc6e0f-52ce-40a7-a527-9fafb104ea66","system_id":"levelo_inurba_marseille","lat":43.28727,"lon":5.36094,"is_reserved":false,"is_disabled":false,"rental_uris":{"android":"levelo://app?vid=eedc6e0f-52ce-40a7-a527-9fafb104ea66","ios":"levelo://app?vid=eedc6e0f-52ce-40a7-a527-9fafb104ea66"},"vehicle_type_id":"4","last_reported":1713038786,"current_range_meters":0,"station_id":"cki0cbj6b192h4jlfktg","pricing_plan_id":"cebpf4jnsgd1na2vs0mg"},{"bike_id":"5936b900-f076-474b-90ba-0569fdfc1909","system_id":"levelo_inurba_marseille","lat":43.301117,"lon":5.398795,"is_reserved":false,"is_disabled":false,"rental_uris":{"android":"levelo://app?vid=5936b900-f076-474b-90ba-0569fdfc1909","ios":"levelo://app?vid=5936b900-f076-474b-90ba-0569fdfc1909"},"vehicle_type_id":"4","last_reported":1713038786,"current_range_meters":2400,"station_id":"ce4bh0h2rcd13ifvqd40","pricing_plan_id":"cebpf4jnsgd1na2vs0mg"},{"bike_id":"7b51ea62-4084-418c-ba7a-359a0c7b013c","system_id":"levelo_inurba_marseille","lat":43.30132,"lon":5.39892,"is_reserved":false,"is_disabled":false,"rental_uris":{"android":"levelo://app?vid=7b51ea62-4084-418c-ba7a-359a0c7b013c","ios":"levelo://app?vid=7b51ea62-4084-418c-ba7a-359a0c7b013c"},"vehicle_type_id":"4","last_reported":1713038786,"current_range_meters":6000,"station_id":"ce4bh0h2rcd13ifvqd60","pricing_plan_id":"cebpf4jnsgd1na2vs0mg"},{"bike_id":"667d4f21-0f70-476c-becb-0fb9b63c4020","system_id":"levelo_inurba_marseille","lat":43.286591,"lon":5.363346,"is_reserved":false,"is_disabled":false,"rental_uris":{"android":"levelo://app?vid=667d4f21-0f70-476c-becb-0fb9b63c4020","ios":"levelo://app?vid=667d4f21-0f70-476c-becb-0fb9b63c4020"},"vehicle_type_id":"4","last_reported":1713038786,"current_range_meters":31200,"station_id":"ce4bhah2rcd13ifvqej0","pricing_plan_id":"cebpf4jnsgd1na2vs0mg"},{"bike_id":"8b2a2f19-e83d-43ae-9c45-a0ee3ee9f60b","system_id":"levelo_inurba_marseille","lat":43.301117,"lon":5.398795,"is_reserved":false,"is_disabled":false,"rental_uris":{"android":"levelo://app?vid=8b2a2f19-e83d-43ae-9c45-a0ee3ee9f60b","ios":"levelo://app?vid=8b2a2f19-e83d-43ae-9c45-a0ee3ee9f60b"},"vehicle_type_id":"4","last_reported":1713038786,"current_range_meters":2400,"station_id":"ce4bh0h2rcd13ifvqd40","pricing_plan_id":"cebpf4jnsgd1na2vs0mg"},{"bike_id":"861a3293-dce0-4335-bf22-6bc0d64dc20c","system_id":"levelo_inurba_marseille","lat":43.286591,"lon":5.363346,"is_reserved":false,"is_disabled":false,"rental_uris":{"android":"levelo://app?vid=861a3293-dce0-4335-bf22-6bc0d64dc20c","ios":"levelo://app?vid=861a3293-dce0-4335-bf22-6bc0d64dc20c"},"vehicle_type_id":"4","last_reported":1713038786,"current_range_meters":26000,"station_id":"ce4bhah2rcd13ifvqej0","pricing_plan_id":"cebpf4jnsgd1na2vs0mg"},{"bike_id":"f6cfe517-72ca-408c-85a2-a4e499d2f439","system_id":"levelo_inurba_marseille","lat":43.298681,"lon":5.397225,"is_reserved":false,"is_disabled":false,"rental_uris":{"android":"levelo://app?vid=f6cfe517-72ca-408c-85a2-a4e499d2f439","ios":"levelo://app?vid=f6cfe517-72ca-408c-85a2-a4e499d2f439"},"vehicle_type_id":"4","last_reported":1713038786,"current_range_meters":400,"station_id":"ce4bh0h2rcd13ifvqd50","pricing_plan_id":"cebpf4jnsgd1na2vs0mg"},{"bike_id":"41bc4d58-6619-4e9d-9d65-881109cb9c63","system_id":"levelo_inurba_marseille","lat":43.287054,"lon":5.373872,"is_reserved":false,"is_disabled":false,"rental_uris":{"android":"levelo://app?vid=41bc4d58-6619-4e9d-9d65-881109cb9c63","ios":"levelo://app?vid=41bc4d58-6619-4e9d-9d65-881109cb9c63"},"vehicle_type_id":"4","last_reported":1713038786,"current_range_meters":0,"station_id":"ce4bh3p2rcd13ifvqdq0","pricing_plan_id":"cebpf4jnsgd1na2vs0mg"},{"bike_id":"78494014-b049-4256-8398-8bac00f06e3d","system_id":"levelo_inurba_marseille","lat":43.286961,"lon":5.373785,"is_reserved":false,"is_disabled":false,"rental_uris":{"android":"levelo://app?vid=78494014-b049-4256-8398-8bac00f06e3d","ios":"levelo://app?vid=78494014-b049-4256-8398-8bac00f06e3d"},"vehicle_type_id":"4","last_reported":1713038786,"current_range_meters":30400,"station_id":"ce4bh3p2rcd13ifvqdq0","pricing_plan_id":"cebpf4jnsgd1na2vs0mg"},{"bike_id":"0b0565e6-756e-498a-9f86-591c89ab32e7","system_id":"levelo_inurba_marseille","lat":43.28704,"lon":5.37389,"is_reserved":false,"is_disabled":false,"rental_uris":{"android":"levelo://app?vid=0b0565e6-756e-498a-9f86-591c89ab32e7","ios":"levelo://app?vid=0b0565e6-756e-498a-9f86-591c89ab32e7"},"vehicle_type_id":"4","last_reported":1713038786,"current_range_meters":0,"station_id":"ce4bh3p2rcd13ifvqdq0","pricing_plan_id":"cebpf4jnsgd1na2vs0mg"},{"bike_id":"58090c9d-0524-4579-9095-0c8e20c41715","system_id":"levelo_inurba_marseille","lat":43.298681,"lon":5.397225,"is_reserved":false,"is_disabled":false,"rental_uris":{"android":"levelo://app?vid=58090c9d-0524-4579-9095-0c8e20c41715","ios":"levelo://app?vid=58090c9d-0524-4579-9095-0c8e20c41715"},"vehicle_type_id":"4","last_reported":1713038786,"current_range_meters":3200,"station_id":"ce4bh0h2rcd13ifvqd50","pricing_plan_id":"cebpf4jnsgd1na2vs0mg"},{"bike_id":"aca5bdc4-5eff-488f-b1e2-2183fdeee04e","system_id":"levelo_inurba_marseille","lat":43.298681,"lon":5.397225,"is_reserved":false,"is_disabled":false,"rental_uris":{"android":"levelo://app?vid=aca5bdc4-5eff-488f-b1e2-2183fdeee04e","ios":"levelo://app?vid=aca5bdc4-5eff-488f-b1e2-2183fdeee04e"},"vehicle_type_id":"4","last_reported":1713038786,"current_range_meters":0,"station_id":"ce4bh0h2rcd13ifvqd50","pricing_plan_id":"cebpf4jnsgd1na2vs0mg"},{"bike_id":"3c726b41-4d87-4425-b068-77f91194ecc5","system_id":"levelo_inurba_marseille","lat":43.302759,"lon":5.400793,"is_reserved":false,"is_disabled":false,"rental_uris":{"android":"levelo://app?vid=3c726b41-4d87-4425-b068-77f91194ecc5","ios":"levelo://app?vid=3c726b41-4d87-4425-b068-77f91194ecc5"},"vehicle_type_id":"4","last_reported":1713038786,"current_range_meters":9600,"station_id":"ce4bgvh2rcd13ifvqcs0","pricing_plan_id":"cebpf4jnsgd1na2vs0mg"},{"bike_id":"67b648c4-4a53-41b3-9d3e-f1e38b467cae","system_id":"levelo_inurba_marseille","lat":43.290336,"lon":5.386425,"is_reserved":false,"is_disabled":false,"rental_uris":{"android":"levelo://app?vid=67b648c4-4a53-41b3-9d3e-f1e38b467cae","ios":"levelo://app?vid=67b648c4-4a53-41b3-9d3e-f1e38b467cae"},"vehicle_type_id":"4","last_reported":1713038786,"current_range_meters":0,"station_id":"ce4bh4p2rcd13ifvqe0g","pricing_plan_id":"cebpf4jnsgd1na2vs0mg"},{"bike_id":"90085009-a1f1-4185-87c1-2feb06b484e8","system_id":"levelo_inurba_marseille","lat":43.290371,"lon":5.386448,"is_reserved":false,"is_disabled":false,"rental_uris":{"android":"levelo://app?vid=90085009-a1f1-4185-87c1-2feb06b484e8","ios":"levelo://app?vid=90085009-a1f1-4185-87c1-2feb06b484e8"},"vehicle_type_id":"4","last_reported":1713038786,"current_range_meters":0,"station_id":"ce4bh4p2rcd13ifvqe0g","pricing_plan_id":"cebpf4jnsgd1na2vs0mg"},{"bike_id":"94b0bd62-cecd-4bc1-8401-2d0cf08b7d29","system_id":"levelo_inurba_marseille","lat":43.28665,"lon":5.37331,"is_reserved":false,"is_disabled":false,"rental_uris":{"android":"levelo://app?vid=94b0bd62-cecd-4bc1-8401-2d0cf08b7d29","ios":"levelo://app?vid=94b0bd62-cecd-4bc1-8401-2d0cf08b7d29"},"vehicle_type_id":"4","last_reported":1713038786,"current_range_meters":0,"station_id":"ce4bh692rcd13ifvqea0","pricing_plan_id":"cebpf4jnsgd1na2vs0mg"},{"bike_id":"f0002a5c-0e88-4b64-84cc-52c5d8e8284a","system_id":"levelo_inurba_marseille","lat":43.302759,"lon":5.400793,"is_reserved":false,"is_disabled":false,"rental_uris":{"android":"levelo://app?vid=f0002a5c-0e88-4b64-84cc-52c5d8e8284a","ios":"levelo://app?vid=f0002a5c-0e88-4b64-84cc-52c5d8e8284a"},"vehicle_type_id":"4","last_reported":1713038786,"current_range_meters":0,"station_id":"ce4bgvh2rcd13ifvqcs0","pricing_plan_id":"cebpf4jnsgd1na2vs0mg"},{"bike_id":"a94f4ec7-64de-47a6-8855-f34559623c0e","system_id":"levelo_inurba_marseille","lat":43.302759,"lon":5.400793,"is_reserved":false,"is_disabled":false,"rental_uris":{"android":"levelo://app?vid=a94f4ec7-64de-47a6-8855-f34559623c0e","ios":"levelo://app?vid=a94f4ec7-64de-47a6-8855-f34559623c0e"},"vehicle_type_id":"4","last_reported":1713038786,"current_range_meters":10800,"station_id":"ce4bgvh2rcd13ifvqcs0","pricing_plan_id":"cebpf4jnsgd1na2vs0mg"},{"bike_id":"b2ea6255-9c50-4328-bb3d-b2c77859815c","system_id":"levelo_inurba_marseille","lat":43.290336,"lon":5.386425,"is_reserved":false,"is_disabled":false,"rental_uris":{"android":"levelo://app?vid=b2ea6255-9c50-4328-bb3d-b2c77859815c","ios":"levelo://app?vid=b2ea6255-9c50-4328-bb3d-b2c77859815c"},"vehicle_type_id":"4","last_reported":1713038786,"current_range_meters":17600,"station_id":"ce4bh4p2rcd13ifvqe0g","pricing_plan_id":"cebpf4jnsgd1na2vs0mg"},{"bike_id":"723220c5-e32d-40e1-802b-626e2255629f","system_id":"levelo_inurba_marseille","lat":43.302759,"lon":5.400793,"is_reserved":false,"is_disabled":false,"rental_uris":{"android":"levelo://app?vid=723220c5-e32d-40e1-802b-626e2255629f","ios":"levelo://app?vid=723220c5-e32d-40e1-802b-626e2255629f"},"vehicle_type_id":"4","last_reported":1713038786,"current_range_meters":0,"station_id":"ce4bgvh2rcd13ifvqcs0","pricing_plan_id":"cebpf4jnsgd1na2vs0mg"},{"bike_id":"5f698419-5c2f-46f7-a194-7d511b0cd724","system_id":"levelo_inurba_marseille","lat":43.289258,"lon":5.38427,"is_reserved":false,"is_disabled":false,"rental_uris":{"android":"levelo://app?vid=5f698419-5c2f-46f7-a194-7d511b0cd724","ios":"levelo://app?vid=5f698419-5c2f-46f7-a194-7d511b0cd724"},"vehicle_type_id":"4","last_reported":1713038786,"current_range_meters":4800,"station_id":"","pricing_plan_id":"cebpf4jnsgd1na2vs0mg"},{"bike_id":"6bf4cf11-ab92-4179-8f31-0764235137c8","system_id":"levelo_inurba_marseille","lat":43.2861,"lon":5.37066,"is_reserved":false,"is_disabled":false,"rental_uris":{"android":"levelo://app?vid=6bf4cf11-ab92-4179-8f31-0764235137c8","ios":"levelo://app?vid=6bf4cf11-ab92-4179-8f31-0764235137c8"},"vehicle_type_id":"4","last_reported":1713038786,"current_range_meters":23600,"station_id":"","pricing_plan_id":"cebpf4jnsgd1na2vs0mg"},{"bike_id":"dbd2a4f5-c4c3-4cf3-b42e-f73a945624a6","system_id":"levelo_inurba_marseille","lat":43.287184,"lon":5.37937,"is_reserved":false,"is_disabled":false,"rental_uris":{"android":"levelo://app?vid=dbd2a4f5-c4c3-4cf3-b42e-f73a945624a6","ios":"levelo://app?vid=dbd2a4f5-c4c3-4cf3-b42e-f73a945624a6"},"vehicle_type_id":"4","last_reported":1713038786,"current_range_meters":10000,"station_id":"ce4bh9p2rcd13ifvqec0","pricing_plan_id":"cebpf4jnsgd1na2vs0mg"},{"bike_id":"cc4a6822-06d2-44cb-8ee9-88b3cf03966f","system_id":"levelo_inurba_marseille","lat":43.28714,"lon":5.37939,"is_reserved":false,"is_disabled":false,"rental_uris":{"android":"levelo://app?vid=cc4a6822-06d2-44cb-8ee9-88b3cf03966f","ios":"levelo://app?vid=cc4a6822-06d2-44cb-8ee9-88b3cf03966f"},"vehicle_type_id":"4","last_reported":1713038786,"current_range_meters":0,"station_id":"ce4bh9p2rcd13ifvqec0","pricing_plan_id":"cebpf4jnsgd1na2vs0mg"},{"bike_id":"fbf55378-2491-4a87-81a2-44ad56dc76e6","system_id":"levelo_inurba_marseille","lat":43.31687,"lon":5.40461,"is_reserved":false,"is_disabled":false,"rental_uris":{"android":"levelo://app?vid=fbf55378-2491-4a87-81a2-44ad56dc76e6","ios":"levelo://app?vid=fbf55378-2491-4a87-81a2-44ad56dc76e6"},"vehicle_type_id":"4","last_reported":1713038786,"current_range_meters":4400,"station_id":"ce4bh012rcd13ifvqd00","pricing_plan_id":"cebpf4jnsgd1na2vs0mg"},{"bike_id":"8746a713-d4ba-4844-ba27-c200145c3bf8","system_id":"levelo_inurba_marseille","lat":43.316821,"lon":5.404737,"is_reserved":false,"is_disabled":false,"rental_uris":{"android":"levelo://app?vid=8746a713-d4ba-4844-ba27-c200145c3bf8","ios":"levelo://app?vid=8746a713-d4ba-4844-ba27-c200145c3bf8"},"vehicle_type_id":"4","last_reported":1713038786,"current_range_meters":0,"station_id":"ce4bh012rcd13ifvqd00","pricing_plan_id":"cebpf4jnsgd1na2vs0mg"},{"bike_id":"ec1687b7-38c0-4451-9a77-9a0e1e818004","system_id":"levelo_inurba_marseille","lat":43.316996,"lon":5.404684,"is_reserved":false,"is_disabled":false,"rental_uris":{"android":"levelo://app?vid=ec1687b7-38c0-4451-9a77-9a0e1e818004","ios":"levelo://app?vid=ec1687b7-38c0-4451-9a77-9a0e1e818004"},"vehicle_type_id":"4","last_reported":1713038786,"current_range_meters":0,"station_id":"ce4bh012rcd13ifvqd00","pricing_plan_id":"cebpf4jnsgd1na2vs0mg"},{"bike_id":"8ddfb2e7-99d1-4b4a-8b86-5ca15bfbfdd0","system_id":"levelo_inurba_marseille","lat":43.316821,"lon":5.404737,"is_reserved":false,"is_disabled":false,"rental_uris":{"android":"levelo://app?vid=8ddfb2e7-99d1-4b4a-8b86-5ca15bfbfdd0","ios":"levelo://app?vid=8ddfb2e7-99d1-4b4a-8b86-5ca15bfbfdd0"},"vehicle_type_id":"4","last_reported":1713038786,"current_range_meters":2000,"station_id":"ce4bh012rcd13ifvqd00","pricing_plan_id":"cebpf4jnsgd1na2vs0mg"},{"bike_id":"7addb77a-0596-43fd-b15f-81b39e713188","system_id":"levelo_inurba_marseille","lat":43.316821,"lon":5.404737,"is_reserved":false,"is_disabled":false,"rental_uris":{"android":"levelo://app?vid=7addb77a-0596-43fd-b15f-81b39e713188","ios":"levelo://app?vid=7addb77a-0596-43fd-b15f-81b39e713188"},"vehicle_type_id":"4","last_reported":1713038786,"current_range_meters":1600,"station_id":"ce4bh012rcd13ifvqd00","pricing_plan_id":"cebpf4jnsgd1na2vs0mg"},{"bike_id":"e4bd61ee-840e-48ff-8fbe-cf6683b58622","system_id":"levelo_inurba_marseille","lat":43.316821,"lon":5.404737,"is_reserved":false,"is_disabled":false,"rental_uris":{"android":"levelo://app?vid=e4bd61ee-840e-48ff-8fbe-cf6683b58622","ios":"levelo://app?vid=e4bd61ee-840e-48ff-8fbe-cf6683b58622"},"vehicle_type_id":"4","last_reported":1713038786,"current_range_meters":0,"station_id":"ce4bh012rcd13ifvqd00","pricing_plan_id":"cebpf4jnsgd1na2vs0mg"},{"bike_id":"08578390-1a7e-4783-89da-f0fe069e2d37","system_id":"levelo_inurba_marseille","lat":43.316821,"lon":5.404737,"is_reserved":false,"is_disabled":false,"rental_uris":{"android":"levelo://app?vid=08578390-1a7e-4783-89da-f0fe069e2d37","ios":"levelo://app?vid=08578390-1a7e-4783-89da-f0fe069e2d37"},"vehicle_type_id":"4","last_reported":1713038786,"current_range_meters":31200,"station_id":"ce4bh012rcd13ifvqd00","pricing_plan_id":"cebpf4jnsgd1na2vs0mg"},{"bike_id":"6a89fba3-4e1f-4746-a223-c5aa7eac8336","system_id":"levelo_inurba_marseille","lat":43.316821,"lon":5.404737,"is_reserved":false,"is_disabled":false,"rental_uris":{"android":"levelo://app?vid=6a89fba3-4e1f-4746-a223-c5aa7eac8336","ios":"levelo://app?vid=6a89fba3-4e1f-4746-a223-c5aa7eac8336"},"vehicle_type_id":"4","last_reported":1713038786,"current_range_meters":9200,"station_id":"ce4bh012rcd13ifvqd00","pricing_plan_id":"cebpf4jnsgd1na2vs0mg"},{"bike_id":"c49779df-f606-4919-9711-5659d27c1740","system_id":"levelo_inurba_marseille","lat":43.31692,"lon":5.40497,"is_reserved":false,"is_disabled":false,"rental_uris":{"android":"levelo://app?vid=c49779df-f606-4919-9711-5659d27c1740","ios":"levelo://app?vid=c49779df-f606-4919-9711-5659d27c1740"},"vehicle_type_id":"4","last_reported":1713038786,"current_range_meters":12000,"station_id":"ce4bh012rcd13ifvqd00","pricing_plan_id":"cebpf4jnsgd1na2vs0mg"},{"bike_id":"1c0003d0-4481-4e7d-8b6f-5747ffa8103c","system_id":"levelo_inurba_marseille","lat":43.299724,"lon":5.371829,"is_reserved":false,"is_disabled":false,"rental_uris":{"android":"levelo://app?vid=1c0003d0-4481-4e7d-8b6f-5747ffa8103c","ios":"levelo://app?vid=1c0003d0-4481-4e7d-8b6f-5747ffa8103c"},"vehicle_type_id":"4","last_reported":1713038786,"current_range_meters":12000,"station_id":"ce4bgr92rcd13ifvqc7g","pricing_plan_id":"cebpf4jnsgd1na2vs0mg"},