{"last_updated":1731694331,"ttl":60,"version":"2.2","data":{"bikes":[{"bike_id":"8b938973-28be-4e82-aa1a-dd30e96544ec","system_id":"levelo_inurba_marseille","lat":43.29257,"lon":5.40919,"is_reserved":false,"is_disabled":false,"rental_uris":{"android":"levelo://app?vid=8b938973-28be-4e82-aa1a-dd30e96544ec","ios":"levelo://app?vid=8b938973-28be-4e82-aa1a-dd30e96544ec"},"vehicle_type_id":"4","last_reported":1731694331,"current_range_meters":10000,"station_id":"ce4bh192rcd13ifvqdc0","pricing_plan_id":"cebpf4jnsgd1na2vs0mg"},{"bike_id":"ac044103-3d53-41c7-80f9-f8ff015e3c1b","system_id":"levelo_inurba_marseille","lat":43.31094,"lon":5.40038,"is_reserved":false,"is_disabled":false,"rental_uris":{"android":"levelo://app?vid=ac044103-3d53-41c7-80f9-f8ff015e3c1b","ios":"levelo://app?vid=ac044103-3d53-41c7-80f9-f8ff015e3c1b"},"vehicle_type_id":"4","last_reported":1731694331,"current_range_meters":4000,"station_id":"ce4bht12rcd13ifvqi60","pricing_plan_id":"cebpf4jnsgd1na2vs0mg"},{"bike_id":"5856ad94-bc0e-4f57-993d-864d7234767f","system_id":"levelo_inurba_marseille","lat":43.33763,"lon":5.37483,"is_reserved":false,"is_disabled":false,"rental_uris":{"android":"levelo://app?vid=5856ad94-bc0e-4f57-993d-864d7234767f","ios":"levelo://app?vid=5856ad94-bc0e-4f57-993d-864d7234767f"},"vehicle_type_id":"4","last_reported":1731694331,"current_range_meters":36800,"station_id":"","pricing_plan_id":"cebpf4jnsgd1na2vs0mg"},{"bike_id":"95de90f1-77b6-4961-8bc9-e991b7b7adb1","system_id":"levelo_inurba_marseille","lat":43.27831,"lon":5.39212,"is_reserved":false,"is_disabled":false,"rental_uris":{"android":"levelo://app?vid=95de90f1-77b6-4961-8bc9-e991b7b7adb1","ios":"levelo://app?vid=95de90f1-77b6-4961-8bc9-e991b7b7adb1"},"vehicle_type_id":"4","last_reported":1731694331,"current_range_meters":28400,"station_id":"ce4bhjp2rcd13ifvqga0","pricing_plan_id":"cebpf4jnsgd1na2vs0mg"},{"bike_id":"71310f34-7b10-4196-a6e3-73594dc4c1c3","system_id":"levelo_inurba_marseille","lat":43.264961,"lon":5.395392,"is_reserved":false,"is_disabled":false,"rental_uris":{"android":"levelo://app?vid=71310f34-7b10-4196-a6e3-73594dc4c1c3","ios":"levelo://app?vid=71310f34-7b10-4196-a6e3-73594dc4c1c3"},"vehicle_type_id":"4","last_reported":1731694331,"current_range_meters":18000,"station_id":"ce4bhi12rcd13ifvqfq0","pricing_plan_id":"cebpf4jnsgd1na2vs0mg"},{"bike_id":"10c06adc-4535-4981-8dab-8cc15da57141","system_id":"levelo_inurba_marseille","lat":43.33023,"lon":5.39043,"is_reserved":false,"is_disabled":false,"rental_uris":{"android":"levelo://app?vid=10c06adc-4535-4981-8dab-8cc15da57141","ios":"levelo://app?vid=10c06adc-4535-4981-8dab-8cc15da57141"},"vehicle_type_id":"4","last_reported":1731694331,"current_range_meters":24800,"station_id":"ce4bhr92rcd13ifvqhrg","pricing_plan_id":"cebpf4jnsgd1na2vs0mg"},{"bike_id":"23332667-8f89-42d6-ad5f-88c9c4fe7d3a","system_id":"levelo_inurba_marseille","lat":43.28982,"lon":5.3814,"is_reserved":false,"is_disabled":false,"rental_uris":{"android":"levelo://app?vid=23332667-8f89-42d6-ad5f-88c9c4fe7d3a","ios":"levelo://app?vid=23332667-8f89-42d6-ad5f-88c9c4fe7d3a"},"vehicle_type_id":"4","last_reported":1731694331,"current_range_meters":25600,"station_id":"ce4bh4p2rcd13ifvqe1g","pricing_plan_id":"cebpf4jnsgd1na2vs0mg"},{"bike_id":"301c37c7-8102-484a-bb27-9b181007b646","system_id":"levelo_inurba_marseille","lat":43.3229,"lon":5.38266,"is_reserved":false,"is_disabled":false,"rental_uris":{"android":"levelo://app?vid=301c37c7-8102-484a-bb27-9b181007b646","ios":"levelo://app?vid=301c37c7-8102-484a-bb27-9b181007b646"},"vehicle_type_id":"4","last_reported":1731694331,"current_range_meters":21600,"station_id":"ce4bhr12rcd13ifvqhqg","pricing_plan_id":"cebpf4jnsgd1na2vs0mg"},{"bike_id":"6e60f8ad-32e0-4435-83ca-562424252739","system_id":"levelo_inurba_marseille","lat":43.29205,"lon":5.39328,"is_reserved":false,"is_disabled":false,"rental_uris":{"android":"levelo://app?vid=6e60f8ad-32e0-4435-83ca-562424252739","ios":"levelo://app?vid=6e60f8ad-32e0-4435-83ca-562424252739"},"vehicle_type_id":"4","last_reported":1731694331,"current_range_meters":5600,"station_id":"ce4bh192rcd13ifvqdd0","pricing_plan_id":"cebpf4jnsgd1na2vs0mg"},{"bike_id":"fc46c46b-9c3a-4128-ad3f-14a2ab91f9a2","system_id":"levelo_inurba_marseille","lat":43.28698,"lon":5.37387,"is_reserved":false,"is_disabled":false,"rental_uris":{"android":"levelo://app?vid=fc46c46b-9c3a-4128-ad3f-14a2ab91f9a2","ios":"levelo://app?vid=fc46c46b-9c3a-4128-ad3f-14a2ab91f9a2"},"vehicle_type_id":"4","last_reported":1731694331,"current_range_meters":34000,"station_id":"ce4bh3p2rcd13ifvqdq0","pricing_plan_id":"cebpf4jnsgd1na2vs0mg"},{"bike_id":"9df95880-813e-4180-adff-bcba9a3900b5","system_id":"levelo_inurba_marseille","lat":43.31529,"lon":5.38019,"is_reserved":false,"is_disabled":false,"rental_uris":{"android":"levelo://app?vid=9df95880-813e-4180-adff-bcba9a3900b5","ios":"levelo://app?vid=9df95880-813e-4180-adff-bcba9a3900b5"},"vehicle_type_id":"4","last_reported":1731694331,"current_range_meters":38800,"station_id":"ce4bhsp2rcd13ifvqi50","pricing_plan_id":"cebpf4jnsgd1na2vs0mg"},{"bike_id":"e04c19ca-30a9-4350-9ea3-0e5fb31b3898","system_id":"levelo_inurba_marseille","lat":43.29417,"lon":5.38619,"is_reserved":false,"is_disabled":false,"rental_uris":{"android":"levelo://app?vid=e04c19ca-30a9-4350-9ea3-0e5fb31b3898","ios":"levelo://app?vid=e04c19ca-30a9-4350-9ea3-0e5fb31b3898"},"vehicle_type_id":"4","last_reported":1731694331,"current_range_meters":29600,"station_id":"ce4bh2h2rcd13ifvqdh0","pricing_plan_id":"cebpf4jnsgd1na2vs0mg"},{"bike_id":"ca5b00f9-723d-465a-b8db-382062cc70a0","system_id":"levelo_inurba_marseille","lat":43.27939,"lon":5.41048,"is_reserved":false,"is_disabled":false,"rental_uris":{"android":"levelo://app?vid=ca5b00f9-723d-465a-b8db-382062cc70a0","ios":"levelo://app?vid=ca5b00f9-723d-465a-b8db-382062cc70a0"},"vehicle_type_id":"4","last_reported":1731694331,"current_range_meters":33200,"station_id":"ce4bhnp2rcd13ifvqh0g","pricing_plan_id":"cebpf4jnsgd1na2vs0mg"},{"bike_id":"723a9f03-ba1d-41f4-a92b-80b54a88f039","system_id":"levelo_inurba_marseille","lat":43.29796,"lon":5.39342,"is_reserved":false,"is_disabled":false,"rental_uris":{"android":"levelo://app?vid=723a9f03-ba1d-41f4-a92b-80b54a88f039","ios":"levelo://app?vid=723a9f03-ba1d-41f4-a92b-80b54a88f039"},"vehicle_type_id":"4","last_reported":1731694331,"current_range_meters":38800,"station_id":"chh1huq6cuj3fo74tm60","pricing_plan_id":"cebpf4jnsgd1na2vs0mg"},{"bike_id":"c6d679a5-ad02-4461-95b5-e992fed0115a","system_id":"levelo_inurba_marseille","lat":43.292547,"lon":5.40923,"is_reserved":false,"is_disabled":false,"rental_uris":{"android":"levelo://app?vid=c6d679a5-ad02-4461-95b5-e992fed0115a","ios":"levelo://app?vid=c6d679a5-ad02-4461-95b5-e992fed0115a"},"vehicle_type_id":"4","last_reported":1731694331,"current_range_meters":10800,"station_id":"ce4bh192rcd13ifvqdc0","pricing_plan_id":"cebpf4jnsgd1na2vs0mg"},{"bike_id":"6b0ea79e-cb12-4a50-9845-e4686b3cacc8","system_id":"levelo_inurba_marseille","lat":43.295751,"lon":5.399791,"is_reserved":false,"is_disabled":false,"rental_uris":{"android":"levelo://app?vid=6b0ea79e-cb12-4a50-9845-e4686b3cacc8","ios":"levelo://app?vid=6b0ea79e-cb12-4a50-9845-e4686b3cacc8"},"vehicle_type_id":"4","last_reported":1731694331,"current_range_meters":17600,"station_id":"","pricing_plan_id":"cebpf4jnsgd1na2vs0mg"},{"bike_id":"e668e52b-4acb-4eb3-9b0e-4f7609f06d49","system_id":"levelo_inurba_marseille","lat":43.29533,"lon":5.37495,"is_reserved":false,"is_disabled":false,"rental_uris":{"android":"levelo://app?vid=e668e52b-4acb-4eb3-9b0e-4f7609f06d49","ios":"levelo://app?vid=e668e52b-4acb-4eb3-9b0e-4f7609f06d49"},"vehicle_type_id":"4","last_reported":1731694331,"current_range_meters":38800,"station_id":"ce4bgkp2rcd13ifvqbmg","pricing_plan_id":"cebpf4jnsgd1na2vs0mg"},{"bike_id":"ea102593-7204-4bde-a1dc-63d17d05a0e2","system_id":"levelo_inurba_marseille","lat":43.29783,"lon":5.39344,"is_reserved":false,"is_disabled":false,"rental_uris":{"android":"levelo://app?vid=ea102593-7204-4bde-a1dc-63d17d05a0e2","ios":"levelo://app?vid=ea102593-7204-4bde-a1dc-63d17d05a0e2"},"vehicle_type_id":"4","last_reported":1731694331,"current_range_meters":16800,"station_id":"chh1huq6cuj3fo74tm60","pricing_plan_id":"cebpf4jnsgd1na2vs0mg"},{"bike_id":"4a74f469-1d99-48ee-a8ca-9199898c00a4","system_id":"levelo_inurba_marseille","lat":43.232,"lon":5.35547,"is_reserved":false,"is_disabled":false,"rental_uris":{"android":"levelo://app?vid=4a74f469-1d99-48ee-a8ca-9199898c00a4","ios":"levelo://app?vid=4a74f469-1d99-48ee-a8ca-9199898c00a4"},"vehicle_type_id":"4","last_reported":1731694331,"current_range_meters":13600,"station_id":"ce4bhu92rcd13ifvqi70","pricing_plan_id":"cebpf4jnsgd1na2vs0mg"},{"bike_id":"880ce09c-7bfa-4708-8aa5-c0367b69c9c0","system_id":"levelo_inurba_marseille","lat":43.30886,"lon":5.37177,"is_reserved":false,"is_disabled":false,"rental_uris":{"android":"levelo://app?vid=880ce09c-7bfa-4708-8aa5-c0367b69c9c0","ios":"levelo://app?vid=880ce09c-7bfa-4708-8aa5-c0367b69c9c0"},"vehicle_type_id":"4","last_reported":1731694331,"current_range_meters":4800,"station_id":"ce4bguh2rcd13ifvqckg","pricing_plan_id":"cebpf4jnsgd1na2vs0mg"},{"bike_id":"7c3d1871-a8ba-49b7-bc5b-66d9c2984b89","system_id":"levelo_inurba_marseille","lat":43.28656,"lon":5.38672,"is_reserved":false,"is_disabled":false,"rental_uris":{"android":"levelo://app?vid=7c3d1871-a8ba-49b7-bc5b-66d9c2984b89","ios":"levelo://app?vid=7c3d1871-a8ba-49b7-bc5b-66d9c2984b89"},"vehicle_type_id":"4","last_reported":1731694331,"current_range_meters":34000,"station_id":"ce4bh492rcd13ifvqdug","pricing_plan_id":"cebpf4jnsgd1na2vs0mg"},{"bike_id":"b01cc8ea-f4e4-45ae-805f-d800e7409432","system_id":"levelo_inurba_marseille","lat":43.279095,"lon":5.380224,"is_reserved":false,"is_disabled":false,"rental_uris":{"android":"levelo://app?vid=b01cc8ea-f4e4-45ae-805f-d800e7409432","ios":"levelo://app?vid=b01cc8ea-f4e4-45ae-805f-d800e7409432"},"vehicle_type_id":"4","last_reported":1731694331,"current_range_meters":31200,"station_id":"ce4bhf92rcd13ifvqf50","pricing_plan_id":"cebpf4jnsgd1na2vs0mg"},{"bike_id":"ae1b224a-3c93-49aa-b8f1-fd85dfa6bf06","system_id":"levelo_inurba_marseille","lat":43.29593,"lon":5.38099,"is_reserved":false,"is_disabled":false,"rental_uris":{"android":"levelo://app?vid=ae1b224a-3c93-49aa-b8f1-fd85dfa6bf06","ios":"levelo://app?vid=ae1b224a-3c93-49aa-b8f1-fd85dfa6bf06"},"vehicle_type_id":"4","last_reported":1731694331,"current_range_meters":25600,"station_id":"ce4bgl12rcd13ifvqbo0","pricing_plan_id":"cebpf4jnsgd1na2vs0mg"},{"bike_id":"ccbfe6b2-d7ec-456f-b06c-841cf322902b","system_id":"levelo_inurba_marseille","lat":43.3125,"lon":5.40148,"is_reserved":false,"is_disabled":false,"rental_uris":{"android":"levelo://app?vid=ccbfe6b2-d7ec-456f-b06c-841cf322902b","ios":"levelo://app?vid=ccbfe6b2-d7ec-456f-b06c-841cf322902b"},"vehicle_type_id":"4","last_reported":1731694331,"current_range_meters":32000,"station_id":"ce4bh092rcd13ifvqd30","pricing_plan_id":"cebpf4jnsgd1na2vs0mg"},{"bike_id":"db189b3d-c4d3-4533-a26a-a690387c2236","system_id":"levelo_inurba_marseille","lat":43.312714,"lon":5.401712,"is_reserved":false,"is_disabled":false,"rental_uris":{"android":"levelo://app?vid=db189b3d-c4d3-4533-a26a-a690387c2236","ios":"levelo://app?vid=db189b3d-c4d3-4533-a26a-a690387c2236"},"vehicle_type_id":"4","last_reported":1731694331,"current_range_meters":30800,"station_id":"ce4bh092rcd13ifvqd30","pricing_plan_id":"cebpf4jnsgd1na2vs0mg"},{"bike_id":"ed596457-74f5-4fcc-a5d8-0aab0f77812b","system_id":"levelo_inurba_marseille","lat":43.30782,"lon":5.37655,"is_reserved":false,"is_disabled":false,"rental_uris":{"android":"levelo://app?vid=ed596457-74f5-4fcc-a5d8-0aab0f77812b","ios":"levelo://app?vid=ed596457-74f5-4fcc-a5d8-0aab0f77812b"},"vehicle_type_id":"4","last_reported":1731694331,"current_range_meters":38800,"station_id":"ce4bgv92rcd13ifvqcq0","pricing_plan_id":"cebpf4jnsgd1na2vs0mg"},{"bike_id":"50c4e2db-02d5-478c-8d49-db41ad6a1473","system_id":"levelo_inurba_marseille","lat":43.28157,"lon":5.42638,"is_reserved":false,"is_disabled":false,"rental_uris":{"android":"levelo://app?vid=50c4e2db-02d5-478c-8d49-db41ad6a1473","ios":"levelo://app?vid=50c4e2db-02d5-478c-8d49-db41ad6a1473"},"vehicle_type_id":"4","last_reported":1731694331,"current_range_meters":5600,"station_id":"ce4bhnh2rcd13ifvqgug","pricing_plan_id":"cebpf4jnsgd1na2vs0mg"},{"bike_id":"e5efe6c5-e7e3-4826-af26-6c9475082bc4","system_id":"levelo_inurba_marseille","lat":43.28717,"lon":5.3793,"is_reserved":false,"is_disabled":false,"rental_uris":{"android":"levelo://app?vid=e5efe6c5-e7e3-4826-af26-6c9475082bc4","ios":"levelo://app?vid=e5efe6c5-e7e3-4826-af26-6c9475082bc4"},"vehicle_type_id":"4","last_reported":1731694331,"current_range_meters":5600,"station_id":"ce4bh9p2rcd13ifvqec0","pricing_plan_id":"cebpf4jnsgd1na2vs0mg"},{"bike_id":"0b81b6ed-e675-416d-8bab-57152de5e3b7","system_id":"levelo_inurba_marseille","lat":43.24662,"lon":5.38161,"is_reserved":false,"is_disabled":false,"rental_uris":{"android":"levelo://app?vid=0b81b6ed-e675-416d-8bab-57152de5e3b7","ios":"levelo://app?vid=0b81b6ed-e675-416d-8bab-57152de5e3b7"},"vehicle_type_id":"4","last_reported":1731694331,"current_range_meters":32800,"station_id":"ce4bhih2rcd13ifvqfr0","pricing_plan_id":"cebpf4jnsgd1na2vs0mg"},{"bike_id":"4db9ce60-e173-43f4-8275-a837f7d2974e","system_id":"levelo_inurba_marseille","lat":43.29541,"lon":5.393686,"is_reserved":false,"is_disabled":false,"rental_uris":{"android":"levelo://app?vid=4db9ce60-e173-43f4-8275-a837f7d2974e","ios":"levelo://app?vid=4db9ce60-e173-43f4-8275-a837f7d2974e"},"vehicle_type_id":"4","last_reported":1731694331,"current_range_meters":11200,"station_id":"ce4bh292rcd13ifvqdf0","pricing_plan_id":"cebpf4jnsgd1na2vs0mg"},{"bike_id":"c8cba179-3cf0-42e2-993a-845728c427ad","system_id":"levelo_inurba_marseille","lat":43.25721,"lon":5.41116,"is_reserved":false,"is_disabled":false,"rental_uris":{"android":"levelo://app?vid=c8cba179-3cf0-42e2-993a-845728c427ad","ios":"levelo://app?vid=c8cba179-3cf0-42e2-993a-845728c427ad"},"vehicle_type_id":"4","last_reported":1731694331,"current_range_meters":20800,"station_id":"ce4bhkp2rcd13ifvqgd0","pricing_plan_id":"cebpf4jnsgd1na2vs0mg"},{"bike_id":"95b21434-d916-4664-b90f-b599d4bf2918","system_id":"levelo_inurba_marseille","lat":43.2737,"lon":5.36257,"is_reserved":false,"is_disabled":false,"rental_uris":{"android":"levelo://app?vid=95b21434-d916-4664-b90f-b599d4bf2918","ios":"levelo://app?vid=95b21434-d916-4664-b90f-b599d4bf2918"},"vehicle_type_id":"4","last_reported":1731694331,"current_range_meters":26800,"station_id":"ce4bhbh2rcd13ifvqeo0","pricing_plan_id":"cebpf4jnsgd1na2vs0mg"},{"bike_id":"89e40877-dc63-466e-86d5-115b808df076","system_id":"levelo_inurba_marseille","lat":43.29248,"lon":5.40912,"is_reserved":false,"is_disabled":false,"rental_uris":{"android":"levelo://app?vid=89e40877-dc63-466e-86d5-115b808df076","ios":"levelo://app?vid=89e40877-dc63-466e-86d5-115b808df076"},"vehicle_type_id":"4","last_reported":1731694331,"current_range_meters":8000,"station_id":"ce4bh192rcd13ifvqdc0","pricing_plan_id":"cebpf4jnsgd1na2vs0mg"},{"bike_id":"49fb2757-f030-44b7-a2ea-ddde1204063f","system_id":"levelo_inurba_marseille","lat":43.29202,"lon":5.39324,"is_reserved":false,"is_disabled":false,"rental_uris":{"android":"levelo://app?vid=49fb2757-f030-44b7-a2ea-ddde1204063f","ios":"levelo://app?vid=49fb2757-f030-44b7-a2ea-ddde1204063f"},"vehicle_type_id":"4","last_reported":1731694331,"current_range_meters":16800,"station_id":"ce4bh192rcd13ifvqdd0","pricing_plan_id":"cebpf4jnsgd1na2vs0mg"},{"bike_id":"ec2a35d8-3761-4bbc-9003-dac10621c5e4","system_id":"levelo_inurba_marseille","lat":43.25002,"lon":5.38931,"is_reserved":false,"is_disabled":false,"rental_uris":{"android":"levelo://app?vid=ec2a35d8-3761-4bbc-9003-dac10621c5e4","ios":"levelo://app?vid=ec2a35d8-3761-4bbc-9003-dac10621c5e4"},"vehicle_type_id":"4","last_reported":1731694331,"current_range_meters":16400,"station_id":"ce4bhgp2rcd13ifvqfd0","pricing_plan_id":"cebpf4jnsgd1na2vs0mg"},{"bike_id":"70fb647a-ee0a-4ca7-842c-42fd07d4c795","system_id":"levelo_inurba_marseille","lat":43.29257,"lon":5.40899,"is_reserved":false,"is_disabled":false,"rental_uris":{"android":"levelo://app?vid=70fb647a-ee0a-4ca7-842c-42fd07d4c795","ios":"levelo://app?vid=70fb647a-ee0a-4ca7-842c-42fd07d4c795"},"vehicle_type_id":"4","last_reported":1731694331,"current_range_meters":30800,"station_id":"ce4bh192rcd13ifvqdc0","pricing_plan_id":"cebpf4jnsgd1na2vs0mg"},{"bike_id":"b3888ec6-d77c-4e78-86f4-dfdae93751cf","system_id":"levelo_inurba_marseille","lat":43.29906,"lon":5.38133,"is_reserved":false,"is_disabled":false,"rental_uris":{"android":"levelo://app?vid=b3888ec6-d77c-4e78-86f4-dfdae93751cf","ios":"levelo://app?vid=b3888ec6-d77c-4e78-86f4-dfdae93751cf"},"vehicle_type_id":"4","last_reported":1731694331,"current_range_meters":24800,"station_id":"ce4bgj12rcd13ifvqbc0","pricing_plan_id":"cebpf4jnsgd1na2vs0mg"},{"bike_id":"9c6edea6-0f0b-46df-8498-9427684a06df","system_id":"levelo_inurba_marseille","lat":43.31364,"lon":5.38477,"is_reserved":false,"is_disabled":false,"rental_uris":{"android":"levelo://app?vid=9c6edea6-0f0b-46df-8498-9427684a06df","ios":"levelo://app?vid=9c6edea6-0f0b-46df-8498-9427684a06df"},"vehicle_type_id":"4","last_reported":1731694331,"current_range_meters":4800,"station_id":"ce4bgt92rcd13ifvqcf0","pricing_plan_id":"cebpf4jnsgd1na2vs0mg"},{"bike_id":"e7199012-0e98-477a-9b13-bc9e31fe3c00","system_id":"levelo_inurba_marseille","lat":43.29251,"lon":5.40908,"is_reserved":false,"is_disabled":false,"rental_uris":{"android":"levelo://app?vid=e7199012-0e98-477a-9b13-bc9e31fe3c00","ios":"levelo://app?vid=e7199012-0e98-477a-9b13-bc9e31fe3c00"},"vehicle_type_id":"4","last_reported":1731694331,"current_range_meters":30400,"station_id":"ce4bh192rcd13ifvqdc0","pricing_plan_id":"cebpf4jnsgd1na2vs0mg"},{"bike_id":"07f99891-4dc6-4a84-b597-b80b7d401912","system_id":"levelo_inurba_marseille","lat":43.29422,"lon":5.38634,"is_reserved":false,"is_disabled":false,"rental_uris":{"android":"levelo://app?vid=07f99891-4dc6-4a84-b597-b80b7d401912","ios":"levelo://app?vid=07f99891-4dc6-4a84-b597-b80b7d401912"},"vehicle_type_id":"4","last_reported":1731694331,"current_range_meters":38800,"station_id":"ce4bh2h2rcd13ifvqdh0","pricing_plan_id":"cebpf4jnsgd1na2vs0mg"},{"bike_id":"6b8eba9e-251e-401f-9b82-4a96d08ef40f","system_id":"levelo_inurba_marseille","lat":43.33015,"lon":5.39043,"is_reserved":false,"is_disabled":false,"rental_uris":{"android":"levelo://app?vid=6b8eba9e-251e-401f-9b82-4a96d08ef40f","ios":"levelo://app?vid=6b8eba9e-251e-401f-9b82-4a96d08ef40f"},"vehicle_type_id":"4","last_reported":1731694331,"current_range_meters":22800,"station_id":"ce4bhr92rcd13ifvqhrg","pricing_plan_id":"cebpf4jnsgd1na2vs0mg"},{"bike_id":"90da7292-189a-439e-b0e7-de20d8ecd4f7","system_id":"levelo_inurba_marseille","lat":43.27837,"lon":5.39208,"is_reserved":false,"is_disabled":false,"rental_uris":{"android":"levelo://app?vid=90da7292-189a-439e-b0e7-de20d8ecd4f7","ios":"levelo://app?vid=90da7292-189a-439e-b0e7-de20d8ecd4f7"},"vehicle_type_id":"4","last_reported":1731694331,"current_range_meters":3200,"station_id":"ce4bhjp2rcd13ifvqga0","pricing_plan_id":"cebpf4jnsgd1na2vs0mg"},{"bike_id":"c974cc8b-299b-4d52-81c8-4e50a91b9225","system_id":"levelo_inurba_marseille","lat":43.33745,"lon":5.37487,"is_reserved":false,"is_disabled":false,"rental_uris":{"android":"levelo://app?vid=c974cc8b-299b-4d52-81c8-4e50a91b9225","ios":"levelo://app?vid=c974cc8b-299b-4d52-81c8-4e50a91b9225"},"vehicle_type_id":"4","last_reported":1731694331,"current_range_meters":38000,"station_id":"","pricing_plan_id":"cebpf4jnsgd1na2vs0mg"},{"bike_id":"f86a601e-26e3-440e-a7e5-894f75bad9f4","system_id":"levelo_inurba_marseille","lat":43.337444,"lon":5.374475,"is_reserved":false,"is_disabled":false,"rental_uris":{"android":"levelo://app?vid=f86a601e-26e3-440e-a7e5-894f75bad9f4","ios":"levelo://app?vid=f86a601e-26e3-440e-a7e5-894f75bad9f4"},"vehicle_type_id":"4","last_reported":1731694331,"current_range_meters":22800,"station_id":"","pricing_plan_id":"cebpf4jnsgd1na2vs0mg"},{"bike_id":"6e7963c0-76a9-42e7-b714-c2e2758dea21","system_id":"levelo_inurba_marseille","lat":43.28661,"lon":5.36347,"is_reserved":false,"is_disabled":false,"rental_uris":{"android":"levelo://app?vid=6e7963c0-76a9-42e7-b714-c2e2758dea21","ios":"levelo://app?vid=6e7963c0-76a9-42e7-b714-c2e2758dea21"},"vehicle_type_id":"4","last_reported":1731694331,"current_range_meters":32400,"station_id":"ce4bhah2rcd13ifvqej0","pricing_plan_id":"cebpf4jnsgd1na2vs0mg"},{"bike_id":"fa8a8235-2d05-4e7b-8cfd-a658ed9fd126","system_id":"levelo_inurba_marseille","lat":43.29776,"lon":5.39341,"is_reserved":false,"is_disabled":false,"rental_uris":{"android":"levelo://app?vid=fa8a8235-2d05-4e7b-8cfd-a658ed9fd126","ios":"levelo://app?vid=fa8a8235-2d05-4e7b-8cfd-a658ed9fd126"},"vehicle_type_id":"4","last_reported":1731694331,"current_range_meters":14800,"station_id":"chh1huq6cuj3fo74tm60","pricing_plan_id":"cebpf4jnsgd1na2vs0mg"},{"bike_id":"a18a36af-e5e6-4e18-9e2a-0fe81c301766","system_id":"levelo_inurba_marseille","lat":43.29258,"lon":5.38442,"is_reserved":false,"is_disabled":false,"rental_uris":{"android":"levelo://app?vid=a18a36af-e5e6-4e18-9e2a-0fe81c301766","ios":"levelo://app?vid=a18a36af-e5e6-4e18-9e2a-0fe81c301766"},"vehicle_type_id":"4","last_reported":1731694331,"current_range_meters":38800,"station_id":"ce4bh692rcd13ifvqea0","pricing_plan_id":"cebpf4jnsgd1na2vs0mg"},{"bike_id":"35ee0d2d-bc56-4ca6-acf4-c54779c2e868","system_id":"levelo_inurba_marseille","lat":43.26995,"lon":5.39953,"is_reserved":false,"is_disabled":false,"rental_uris":{"android":"levelo://app?vid=35ee0d2d-bc56-4ca6-acf4-c54779c2e868","ios":"levelo://app?vid=35ee0d2d-bc56-4ca6-acf4-c54779c2e868"},"vehicle_type_id":"4","last_reported":1731694331,"current_range_meters":24800,"station_id":"","pricing_plan_id":"cebpf4jnsgd1na2vs0mg"},{"bike_id":"d36ddd4f-1e93-4673-86f6-eb78a5f1ca9c","system_id":"levelo_inurba_marseille","lat":43.3154,"lon":5.38019,"is_reserved":false,"is_disabled":false,"rental_uris":{"android":"levelo://app?vid=d36ddd4f-1e93-4673-86f6-eb78a5f1ca9c","ios":"levelo://app?vid=d36ddd4f-1e93-4673-86f6-eb78a5f1ca9c"},"vehicle_type_id":"4","last_reported":1731694331,"current_range_meters":28000,"station_id":"ce4bhsp2rcd13ifvqi50","pricing_plan_id":"cebpf4jnsgd1na2vs0mg"},{"bike_id":"a58d5a34-0743-4784-acdc-b54e12176909","system_id":"levelo_inurba_marseille","lat":43.29528,"lon":5.38546,"is_reserved":false,"is_disabled":false,"rental_uris":{"android":"levelo://app?vid=a58d5a34-0743-4784-acdc-b54e12176909","ios":"levelo://app?vid=a58d5a34-0743-4784-acdc-b54e12176909"},"vehicle_type_id":"4","last_reported":1731694331,"current_range_meters":19600,"station_id":"ce4bgih2rcd13ifvqba0","pricing_plan_id":"cebpf4jnsgd1na2vs0mg"},{"bike_id":"f8a4d106-1664-4b70-b447-27e38306dbb9","system_id":"levelo_inurba_marseille","lat":43.28863,"lon":5.39315,"is_reserved":false,"is_disabled":false,"rental_uris":{"android":"levelo://app?vid=f8a4d106-1664-4b70-b447-27e38306dbb9","ios":"levelo://app?vid=f8a4d106-1664-4b70-b447-27e38306dbb9"},"vehicle_type_id":"4","last_reported":1731694331,"current_range_meters":3200,"station_id":"ce4bh2p2rcd13ifvqdi0","pricing_plan_id":"cebpf4jnsgd1na2vs0mg"},{"bike_id":"de1d5a34-8b90-455a-bdae-1dda4ff3f680","system_id":"levelo_inurba_marseille","lat":43.26682,"lon":5.38276,"is_reserved":false,"is_disabled":false,"rental_uris":{"android":"levelo://app?vid=de1d5a34-8b90-455a-bdae-1dda4ff3f680","ios":"levelo://app?vid=de1d5a34-8b90-455a-bdae-1dda4ff3f680"},"vehicle_type_id":"4","last_reported":1731694331,"current_range_meters":19600,"station_id":"ce4bhg92rcd13ifvqf90","pricing_plan_id":"cebpf4jnsgd1na2vs0mg"},{"bike_id":"2c7da520-bf3f-4579-bbaf-d8bed38515fb","system_id":"levelo_inurba_marseille","lat":43.24652,"lon":5.38897,"is_reserved":false,"is_disabled":false,"rental_uris":{"android":"levelo://app?vid=2c7da520-bf3f-4579-bbaf-d8bed38515fb","ios":"levelo://app?vid=2c7da520-bf3f-4579-bbaf-d8bed38515fb"},"vehicle_type_id":"4","last_reported":1731694331,"current_range_meters":28800,"station_id":"ce4bhg12rcd13ifvqf60","pricing_plan_id":"cebpf4jnsgd1na2vs0mg"},{"bike_id":"8893f2f1-2edb-4438-9753-3811227c3612","system_id":"levelo_inurba_marseille","lat":43.29418,"lon":5.38625,"is_reserved":false,"is_disabled":false,"rental_uris":{"android":"levelo://app?vid=8893f2f1-2edb-4438-9753-3811227c3612","ios":"levelo://app?vid=8893f2f1-2edb-4438-9753-3811227c3612"},"vehicle_type_id":"4","last_reported":1731694331,"current_range_meters":38800,"station_id":"ce4bh2h2rcd13ifvqdh0","pricing_plan_id":"cebpf4jnsgd1na2vs0mg"},{"bike_id":"fbf3a415-5773-4ded-970e-b0927cb4709e","system_id":"levelo_inurba_marseille","lat":43.27811,"lon":5.40709,"is_reserved":false,"is_disabled":false,"rental_uris":{"android":"levelo://app?vid=fbf3a415-5773-4ded-970e-b0927cb4709e","ios":"levelo://app?vid=fbf3a415-5773-4ded-970e-b0927cb4709e"},"vehicle_type_id":"4","last_reported":1731694331,"current_range_meters":16400,"station_id":"ce4bhnh2rcd13ifvqgtg","pricing_plan_id":"cebpf4jnsgd1na2vs0mg"},{"bike_id":"60346686-846e-43e0-b1f0-095f872d71c2","system_id":"levelo_inurba_marseille","lat":43.337444,"lon":5.374475,"is_reserved":false,"is_disabled":false,"rental_uris":{"android":"levelo://app?vid=60346686-846e-43e0-b1f0-095f872d71c2","ios":"levelo://app?vid=60346686-846e-43e0-b1f0-095f872d71c2"},"vehicle_type_id":"4","last_reported":1731694331,"current_range_meters":38400,"station_id":"","pricing_plan_id":"cebpf4jnsgd1na2vs0mg"},{"bike_id":"70f55387-e0bd-4b67-b498-16cbc0544051","system_id":"levelo_inurba_marseille","lat":43.31707,"lon":5.37743,"is_reserved":false,"is_disabled":false,"rental_uris":{"android":"levelo://app?vid=70f55387-e0bd-4b67-b498-16cbc0544051","ios":"levelo://app?vid=70f55387-e0bd-4b67-b498-16cbc0544051"},"vehicle_type_id":"4","last_reported":1731694331,"current_range_meters":28400,"station_id":"ce4bgth2rcd13ifvqch0","pricing_plan_id":"cebpf4jnsgd1na2vs0mg"},{"bike_id":"5bc6d64d-1a30-48cc-9dd5-35de33deebca","system_id":"levelo_inurba_marseille","lat":43.29206,"lon":5.39319,"is_reserved":false,"is_disabled":false,"rental_uris":{"android":"levelo://app?vid=5bc6d64d-1a30-48cc-9dd5-35de33deebca","ios":"levelo://app?vid=5bc6d64d-1a30-48cc-9dd5-35de33deebca"},"vehicle_type_id":"4","last_reported":1731694331,"current_range_meters":11200,"station_id":"ce4bh192rcd13ifvqdd0","pricing_plan_id":"cebpf4jnsgd1na2vs0mg"},{"bike_id":"d206d41a-8ea1-48b7-8dea-76f005b54e28","system_id":"levelo_inurba_marseille","lat":43.337444,"lon":5.374475,"is_reserved":false,"is_disabled":false,"rental_uris":{"android":"levelo://app?vid=d206d41a-8ea1-48b7-8dea-76f005b54e28","ios":"levelo://app?vid=d206d41a-8ea1-48b7-8dea-76f005b54e28"},"vehicle_type_id":"4","last_reported":1731694331,"current_range_meters":26800,"station_id":"","pricing_plan_id":"cebpf4jnsgd1na2vs0mg"},{"bike_id":"7386319e-0d6c-493a-904a-1c5207db3d50","system_id":"levelo_inurba_marseille","lat":43.23175,"lon":5.39979,"is_reserved":false,"is_disabled":false,"rental_uris":{"android":"levelo://app?vid=7386319e-0d6c-493a-904a-1c5207db3d50","ios":"levelo://app?vid=7386319e-0d6c-493a-904a-1c5207db3d50"},"vehicle_type_id":"4","last_reported":1731694331,"current_range_meters":22800,"station_id":"ce4bhn12rcd13ifvqgqg","pricing_plan_id":"cebpf4jnsgd1na2vs0mg"},{"bike_id":"be590404-4e38-4464-860c-a9c5624ae038","system_id":"levelo_inurba_marseille","lat":43.29305,"lon":5.37169,"is_reserved":false,"is_disabled":false,"rental_uris":{"android":"levelo://app?vid=be590404-4e38-4464-860c-a9c5624ae038","ios":"levelo://app?vid=be590404-4e38-4464-860c-a9c5624ae038"},"vehicle_type_id":"4","last_reported":1731694331,"current_range_meters":22400,"station_id":"ce4bgh92rcd13ifvqb40","pricing_plan_id":"cebpf4jnsgd1na2vs0mg"},{"bike_id":"4215af40-ae85-4500-856b-563719ec3ecb","system_id":"levelo_inurba_marseille","lat":43.280958,"lon":5.378295,"is_reserved":false,"is_disabled":false,"rental_uris":{"android":"levelo://app?vid=4215af40-ae85-4500-856b-563719ec3ecb","ios":"levelo://app?vid=4215af40-ae85-4500-856b-563719ec3ecb"},"vehicle_type_id":"4","last_reported":1731694331,"current_range_meters":22400,"station_id":"ce4bha12rcd13ifvqee0","pricing_plan_id":"cebpf4jnsgd1na2vs0mg"},{"bike_id":"965b3a46-4f76-4aa9-b5ba-b1a6e45b1bb3","system_id":"levelo_inurba_marseille","lat":43.31643,"lon":5.38322,"is_reserved":false,"is_disabled":false,"rental_uris":{"android":"levelo://app?vid=965b3a46-4f76-4aa9-b5ba-b1a6e45b1bb3","ios":"levelo://app?vid=965b3a46-4f76-4aa9-b5ba-b1a6e45b1bb3"},"vehicle_type_id":"4","last_reported":1731694331,"current_range_meters":6400,"station_id":"","pricing_plan_id":"cebpf4jnsgd1na2vs0mg"},{"bike_id":"c1cebe5c-e27c-4ff7-958e-58c8b9d56ad6","system_id":"levelo_inurba_marseille","lat":43.28275,"lon":5.35061,"is_reserved":false,"is_disabled":false,"rental_uris":{"android":"levelo://app?vid=c1cebe5c-e27c-4ff7-958e-58c8b9d56ad6","ios":"levelo://app?vid=c1cebe5c-e27c-4ff7-958e-58c8b9d56ad6"},"vehicle_type_id":"4","last_reported":1731694331,"current_range_meters":38400,"station_id":"ce4bhbp2rcd13ifvqerg","pricing_plan_id":"cebpf4jnsgd1na2vs0mg"},{"bike_id":"5326c5f8-bba7-40e6-bfc7-8e986a3bddf3","system_id":"levelo_inurba_marseille","lat":43.31565,"lon":5.38019,"is_reserved":false,"is_disabled":false,"rental_uris":{"android":"levelo://app?vid=5326c5f8-bba7-40e6-bfc7-8e986a3bddf3","ios":"levelo://app?vid=5326c5f8-bba7-40e6-bfc7-8e986a3bddf3"},"vehicle_type_id":"4","last_reported":1731694331,"current_range_meters":22000,"station_id":"ce4bhsp2rcd13ifvqi50","pricing_plan_id":"cebpf4jnsgd1na2vs0mg"},{"bike_id":"b8cd6e1a-4f04-4b48-9613-b40e9eb4dc7a","system_id":"levelo_inurba_marseille","lat":43.26566,"lon":5.39001,"is_reserved":false,"is_disabled":false,"rental_uris":{"android":"levelo://app?vid=b8cd6e1a-4f04-4b48-9613-b40e9eb4dc7a","ios":"levelo://app?vid=b8cd6e1a-4f04-4b48-9613-b40e9eb4dc7a"},"vehicle_type_id":"4","last_reported":1731694331,"current_range_meters":36400,"station_id":"ce4bhe12rcd13ifvqf30","pricing_plan_id":"cebpf4jnsgd1na2vs0mg"},{"bike_id":"3ee71815-8dfe-4b68-8a2c-59b7cd02a943","system_id":"levelo_inurba_marseille","lat":43.27175,"lon":5.40998,"is_reserved":false,"is_disabled":false,"rental_uris":{"android":"levelo://app?vid=3ee71815-8dfe-4b68-8a2c-59b7cd02a943","ios":"levelo://app?vid=3ee71815-8dfe-4b68-8a2c-59b7cd02a943"},"vehicle_type_id":"4","last_reported":1731694331,"current_range_meters":24400,"station_id":"ce4bhl12rcd13ifvqgf0","pricing_plan_id":"cebpf4jnsgd1na2vs0mg"},{"bike_id":"3d505bc3-d889-4536-aad5-64102c8bc00d","system_id":"levelo_inurba_marseille","lat":43.28438,"lon":5.39179,"is_reserved":false,"is_disabled":false,"rental_uris":{"android":"levelo://app?vid=3d505bc3-d889-4536-aad5-64102c8bc00d","ios":"levelo://app?vid=3d505bc3-d889-4536-aad5-64102c8bc00d"},"vehicle_type_id":"4","last_reported":1731694331,"current_range_meters":30800,"station_id":"ce4bhoh2rcd13ifvqh5g","pricing_plan_id":"cebpf4jnsgd1na2vs0mg"},{"bike_id":"461977e9-ca82-425f-83e3-fd333160e7ce","system_id":"levelo_inurba_marseille","lat":43.29573,"lon":5.39965,"is_reserved":false,"is_disabled":false,"rental_uris":{"android":"levelo://app?vid=461977e9-ca82-425f-83e3-fd333160e7ce","ios":"levelo://app?vid=461977e9-ca82-425f-83e3-fd333160e7ce"},"vehicle_type_id":"4","last_reported":1731694331,"current_range_meters":37600,"station_id":"ce4bh312rcd13ifvqdj0","pricing_plan_id":"cebpf4jnsgd1na2vs0mg"},{"bike_id":"af8b8071-04c1-4a21-b440-b986dfe536bc","system_id":"levelo_inurba_marseille","lat":43.31684,"lon":5.40474,"is_reserved":false,"is_disabled":false,"rental_uris":{"android":"levelo://app?vid=af8b8071-04c1-4a21-b440-b986dfe536bc","ios":"levelo://app?vid=af8b8071-04c1-4a21-b440-b986dfe536bc"},"vehicle_type_id":"4","last_reported":1731694331,"current_range_meters":8000,"station_id":"ce4bh012rcd13ifvqd00","pricing_plan_id":"cebpf4jnsgd1na2vs0mg"},{"bike_id":"cb5534e3-0bb8-4f8d-bf36-0b7eb50c5ef4","system_id":"levelo_inurba_marseille","lat":43.28457,"lon":5.35886,"is_reserved":false,"is_disabled":false,"rental_uris":{"android":"levelo://app?vid=cb5534e3-0bb8-4f8d-bf36-0b7eb50c5ef4","ios":"levelo://app?vid=cb5534e3-0bb8-4f8d-bf36-0b7eb50c5ef4"},"vehicle_type_id":"4","last_reported":1731694331,"current_range_meters":0,"station_id":"ce4bhah2rcd13ifvqei0","pricing_plan_id":"cebpf4jnsgd1na2vs0mg"},{"bike_id":"96c276c0-6e02-4677-aaa0-bf707de34d80","system_id":"levelo_inurba_marseille","lat":43.29007,"lon":5.35615,"is_reserved":false,"is_disabled":false,"rental_uris":{"android":"levelo://app?vid=96c276c0-6e02-4677-aaa0-bf707de34d80","ios":"levelo://app?vid=96c276c0-6e02-4677-aaa0-bf707de34d80"},"vehicle_type_id":"4","last_reported":1731694331,"current_range_meters":22800,"station_id":"ce4bhb92rcd13ifvqen0","pricing_plan_id":"cebpf4jnsgd1na2vs0mg"},{"bike_id":"87156f78-2e09-4e66-89df-0a85c184e89b","system_id":"levelo_inurba_marseille","lat":43.27946,"lon":5.41047,"is_reserved":false,"is_disabled":false,"rental_uris":{"android":"levelo://app?vid=87156f78-2e09-4e66-89df-0a85c184e89b","ios":"levelo://app?vid=87156f78-2e09-4e66-89df-0a85c184e89b"},"vehicle_type_id":"4","last_reported":1731694331,"current_range_meters":30000,"station_id":"ce4bhnp2rcd13ifvqh0g","pricing_plan_id":"cebpf4jnsgd1na2vs0mg"},{"bike_id":"b46ba578-bd62-46b1-9df2-99f5c3519fb2","system_id":"levelo_inurba_marseille","lat":43.29004,"lon":5.37544,"is_reserved":false,"is_disabled":false,"rental_uris":{"android":"levelo://app?vid=b46ba578-bd62-46b1-9df2-99f5c3519fb2","ios":"levelo://app?vid=b46ba578-bd62-46b1-9df2-99f5c3519fb2"},"vehicle_type_id":"4","last_reported":1731694331,"current_range_meters":38800,"station_id":"ce4bh692rcd13ifvqe90","pricing_plan_id":"cebpf4jnsgd1na2vs0mg"},{"bike_id":"e0e6b214-cc83-46d5-a1ad-03636dbaf587","system_id":"levelo_inurba_marseille","lat":43.29869,"lon":5.39738,"is_reserved":false,"is_disabled":false,"rental_uris":{"android":"levelo://app?vid=e0e6b214-cc83-46d5-a1ad-03636dbaf587","ios":"levelo://app?vid=e0e6b214-cc83-46d5-a1ad-03636dbaf587"},"vehicle_type_id":"4","last_reported":1731694331,"current_range_meters":38400,"station_id":"ce4bh0h2rcd13ifvqd50","pricing_plan_id":"cebpf4jnsgd1na2vs0mg"},{"bike_id":"a189079d-e0b7-40dd-9750-28a06a2f78fb","system_id":"levelo_inurba_marseille","lat":43.25718,"lon":5.41115,"is_reserved":false,"is_disabled":false,"rental_uris":{"android":"levelo://app?vid=a189079d-e0b7-40dd-9750-28a06a2f78fb","ios":"levelo://app?vid=a189079d-e0b7-40dd-9750-28a06a2f78fb"},"vehicle_type_id":"4","last_reported":1731694331,"current_range_meters":37600,"station_id":"ce4bhkp2rcd13ifvqgd0","pricing_plan_id":"cebpf4jnsgd1na2vs0mg"},{"bike_id":"dfccb1f3-67c2-4631-8b8f-51166fcf8917","system_id":"levelo_inurba_marseille","lat":43.27174,"lon":5.40985,"is_reserved":false,"is_disabled":false,"rental_uris":{"android":"levelo://app?vid=dfccb1f3-67c2-4631-8b8f-51166fcf8917","ios":"levelo://app?vid=dfccb1f3-67c2-4631-8b8f-51166fcf8917"},"vehicle_type_id":"4","last_reported":1731694331,"current_range_meters":22400,"station_id":"ce4bhl12rcd13ifvqgf0","pricing_plan_id":"cebpf4jnsgd1na2vs0mg"},{"bike_id":"83806030-b0ab-4190-8460-b682dd2859d0","system_id":"levelo_inurba_marseille","lat":43.28563,"lon":5.39496,"is_reserved":false,"is_disabled":false,"rental_uris":{"android":"levelo://app?vid=83806030-b0ab-4190-8460-b682dd2859d0","ios":"levelo://app?vid=83806030-b0ab-4190-8460-b682dd2859d0"},"vehicle_type_id":"4","last_reported":1731694331,"current_range_meters":38800,"station_id":"ce4bh292rcd13ifvqdg0","pricing_plan_id":"cebpf4jnsgd1na2vs0mg"},{"bike_id":"ba73152a-ecf0-46d6-ae1e-3c51ea0a94ec","system_id":"levelo_inurba_marseille","lat":43.2963,"lon":5.40598,"is_reserved":false,"is_disabled":false,"rental_uris":{"android":"levelo://app?vid=ba73152a-ecf0-46d6-ae1e-3c51ea0a94ec","ios":"levelo://app?vid=ba73152a-ecf0-46d6-ae1e-3c51ea0a94ec"},"vehicle_type_id":"4","last_reported":1731694331,"current_range_meters":33600,"station_id":"ce4bh0h2rcd13ifvqd60","pricing_plan_id":"cebpf4jnsgd1na2vs0mg"},{"bike_id":"2ffb19e5-8469-474c-bf2f-85b93589c6da","system_id":"levelo_inurba_marseille","lat":43.29307,"lon":5.3718,"is_reserved":false,"is_disabled":false,"rental_uris":{"android":"levelo://app?vid=2ffb19e5-8469-474c-bf2f-85b93589c6da","ios":"levelo://app?vid=2ffb19e5-8469-474c-bf2f-85b93589c6da"},"vehicle_type_id":"4","last_reported":1731694331,"current_range_meters":19600,"station_id":"ce4bgh92rcd13ifvqb40","pricing_plan_id":"cebpf4jnsgd1na2vs0mg"},{"bike_id":"e40acb1f-7c3b-464f-a385-d83d7c01e615","system_id":"levelo_inurba_marseille","lat":43.32287,"lon":5.38265,"is_reserved":false,"is_disabled":false,"rental_uris":{"android":"levelo://app?vid=e40acb1f-7c3b-464f-a385-d83d7c01e615","ios":"levelo://app?vid=e40acb1f-7c3b-464f-a385-d83d7c01e615"},"vehicle_type_id":"4","last_reported":1731694331,"current_range_meters":20000,"station_id":"ce4bhr12rcd13ifvqhqg","pricing_plan_id":"cebpf4jnsgd1na2vs0mg"},{"bike_id":"383dbfdd-dadc-4957-9c5a-2d452e2c74c2","system_id":"levelo_inurba_marseille","lat":43.295327,"lon":5.385423,"is_reserved":false,"is_disabled":false,"rental_uris":{"android":"levelo://app?vid=383dbfdd-dadc-4957-9c5a-2d452e2c74c2","ios":"levelo://app?vid=383dbfdd-dadc-4957-9c5a-2d452e2c74c2"},"vehicle_type_id":"4","last_reported":1731694331,"current_range_meters":36800,"station_id":"ce4bgih2rcd13ifvqba0","pricing_plan_id":"cebpf4jnsgd1na2vs0mg"},{"bike_id":"9267eaff-932d-40f5-8681-b471c217336a","system_id":"levelo_inurba_marseille","lat":43.2465,"lon":5.38896,"is_reserved":false,"is_disabled":false,"rental_uris":{"android":"levelo://app?vid=9267eaff-932d-40f5-8681-b471c217336a","ios":"levelo://app?vid=9267eaff-932d-40f5-8681-b471c217336a"},"vehicle_type_id":"4","last_reported":1731694331,"current_range_meters":33200,"station_id":"ce4bhg12rcd13ifvqf60","pricing_plan_id":"cebpf4jnsgd1na2vs0mg"},{"bike_id":"6130b50e-237e-4455-bf2d-e5209d08270f","system_id":"levelo_inurba_marseille","lat":43.33023,"lon":5.39044,"is_reserved":false,"is_disabled":false,"rental_uris":{"android":"levelo://app?vid=6130b50e-237e-4455-bf2d-e5209d08270f","ios":"levelo://app?vid=6130b50e-237e-4455-bf2d-e5209d08270f"},"vehicle_type_id":"4","last_reported":1731694331,"current_range_meters":24400,"station_id":"ce4bhr92rcd13ifvqhrg","pricing_plan_id":"cebpf4jnsgd1na2vs0mg"},{"bike_id":"a864e236-0496-4a4e-ae47-3579f4163e98","system_id":"levelo_inurba_marseille","lat":43.25697,"lon":5.41128,"is_reserved":false,"is_disabled":false,"rental_uris":{"android":"levelo://app?vid=a864e236-0496-4a4e-ae47-3579f4163e98","ios":"levelo://app?vid=a864e236-0496-4a4e-ae47-3579f4163e98"},"vehicle_type_id":"4","last_reported":1731694331,"current_range_meters":28800,"station_id":"ce4bhkp2rcd13ifvqgd0","pricing_plan_id":"cebpf4jnsgd1na2vs0mg"},{"bike_id":"1cf741d7-e403-4869-b6f3-8348c73bd258","system_id":"levelo_inurba_marseille","lat":43.27995,"lon":5.40009,"is_reserved":false,"is_disabled":false,"rental_uris":{"android":"levelo://app?vid=1cf741d7-e403-4869-b6f3-8348c73bd258","ios":"levelo://app?vid=1cf741d7-e403-4869-b6f3-8348c73bd258"},"vehicle_type_id":"4","last_reported":1731694331,"current_range_meters":8400,"station_id":"ce4bho92rcd13ifvqh4g","pricing_plan_id":"cebpf4jnsgd1na2vs0mg"},{"bike_id":"1e1ecd6b-d952-4b1c-968b-e683d9a1e98a","system_id":"levelo_inurba_marseille","lat":43.29271,"lon":5.38442,"is_reserved":false,"is_disabled":false,"rental_uris":{"android":"levelo://app?vid=1e1ecd6b-d952-4b1c-968b-e683d9a1e98a","ios":"levelo://app?vid=1e1ecd6b-d952-4b1c-968b-e683d9a1e98a"},"vehicle_type_id":"4","last_reported":1731694331,"current_range_meters":38800,"station_id":"ce4bh692rcd13ifvqea0","pricing_plan_id":"cebpf4jnsgd1na2vs0mg"},{"bike_id":"c74f110d-168f-41a7-a48a-157d79ae2196","system_id":"levelo_inurba_marseille","lat":43.33026,"lon":5.39043,"is_reserved":false,"is_disabled":false,"rental_uris":{"android":"levelo://app?vid=c74f110d-168f-41a7-a48a-157d79ae2196","ios":"levelo://app?vid=c74f110d-168f-41a7-a48a-157d79ae2196"},"vehicle_type_id":"4","last_reported":1731694331,"current_range_meters":36800,"station_id":"ce4bhr92rcd13ifvqhrg","pricing_plan_id":"cebpf4jnsgd1na2vs0mg"},{"bike_id":"caf4f242-e64f-44e9-a152-92b036f59ba6","system_id":"levelo_inurba_marseille","lat":43.34141,"lon":5.40911,"is_reserved":false,"is_disabled":false,"rental_uris":{"android":"levelo://app?vid=caf4f242-e64f-44e9-a152-92b036f59ba6","ios":"levelo://app?vid=caf4f242-e64f-44e9-a152-92b036f59ba6"},"vehicle_type_id":"4","last_reported":1731694331,"current_range_meters":6400,"station_id":"ce4bhqh2rcd13ifvqhlg","pricing_plan_id":"cebpf4jnsgd1na2vs0mg"},{"bike_id":"a67807da-4ea8-436a-ae7a-83ee83686137","system_id":"levelo_inurba_marseille","lat":43.29796,"lon":5.38107,"is_reserved":false,"is_disabled":false,"rental_uris":{"android":"levelo://app?vid=a67807da-4ea8-436a-ae7a-83ee83686137","ios":"levelo://app?vid=a67807da-4ea8-436a-ae7a-83ee83686137"},"vehicle_type_id":"4","last_reported":1731694331,"current_range_meters":37600,"station_id":"ce4bgip2rcd13ifvqbb0","pricing_plan_id":"cebpf4jnsgd1na2vs0mg"},{"bike_id":"6feae7c5-9c00-4722-8ef0-805e7b77c7bf","system_id":"levelo_inurba_marseille","lat":43.28973,"lon":5.37822,"is_reserved":false,"is_disabled":false,"rental_uris":{"android":"levelo://app?vid=6feae7c5-9c00-4722-8ef0-805e7b77c7bf","ios":"levelo://app?vid=6feae7c5-9c00-4722-8ef0-805e7b77c7bf"},"vehicle_type_id":"4","last_reported":1731694331,"current_range_meters":37600,"station_id":"ce4bh9p2rcd13ifvqed0","pricing_plan_id":"cebpf4jnsgd1na2vs0mg"},{"bike_id":"76fda271-4bcd-4529-8397-8074a1eff7fe","system_id":"levelo_inurba_marseille","lat":43.337444,"lon":5.374475,"is_reserved":false,"is_disabled":false,"rental_uris":{"android":"levelo://app?vid=76fda271-4bcd-4529-8397-8074a1eff7fe","ios":"levelo://app?vid=76fda271-4bcd-4529-8397-8074a1eff7fe"},"vehicle_type_id":"4","last_reported":1731694331,"current_range_meters":36800,"station_id":"","pricing_plan_id":"cebpf4jnsgd1na2vs0mg"},{"bike_id":"b5999a3d-c3b4-4582-9515-c9fb68863b91","system_id":"levelo_inurba_marseille","lat":43.31271,"lon":5.40169,"is_reserved":false,"is_disabled":false,"rental_uris":{"android":"levelo://app?vid=b5999a3d-c3b4-4582-9515-c9fb68863b91","ios":"levelo://app?vid=b5999a3d-c3b4-4582-9515-c9fb68863b91"},"vehicle_type_id":"4","last_reported":1731694331,"current_range_meters":22400,"station_id":"ce4bh092rcd13ifvqd30","pricing_plan_id":"cebpf4jnsgd1na2vs0mg"},{"bike_id":"7125cda5-6cac-4f0d-b24c-2d801b2955b5","system_id":"levelo_inurba_marseille","lat":43.2318,"lon":5.39982,"is_reserved":false,"is_disabled":false,"rental_uris":{"android":"levelo://app?vid=7125cda5-6cac-4f0d-b24c-2d801b2955b5","ios":"levelo://app?vid=7125cda5-6cac-4f0d-b24c-2d801b2955b5"},"vehicle_type_id":"4","last_reported":1731694331,"current_range_meters":39200,"station_id":"ce4bhn12rcd13ifvqgqg","pricing_plan_id":"cebpf4jnsgd1na2vs0mg"},{"bike_id":"8810fa4e-c504-4f86-b1ed-d21b9987d905","system_id":"levelo_inurba_marseille","lat":43.29621,"lon":5.37153,"is_reserved":false,"is_disabled":false,"rental_uris":{"android":"levelo://app?vid=8810fa4e-c504-4f86-b1ed-d21b9987d905","ios":"levelo://app?vid=8810fa4e-c504-4f86-b1ed-d21b9987d905"},"vehicle_type_id":"4","last_reported":1731694331,"current_range_meters":36400,"station_id":"ce4bgnh2rcd13ifvqc0g","pricing_plan_id":"cebpf4jnsgd1na2vs0mg"},{"bike_id":"0a286d96-f63e-47b6-906b-e71a59b7d115","system_id":"levelo_inurba_marseille","lat":43.30904,"lon":5.36849,"is_reserved":false,"is_disabled":false,"rental_uris":{"android":"levelo://app?vid=0a286d96-f63e-47b6-906b-e71a59b7d115","ios":"levelo://app?vid=0a286d96-f63e-47b6-906b-e71a59b7d115"},"vehicle_type_id":"4","last_reported":1731694331,"current_range_meters":35600,"station_id":"ce4bgn92rcd13ifvqbvg","pricing_plan_id":"cebpf4jnsgd1na2vs0mg"},{"bike_id":"ba84f018-8972-438d-99e2-9043304acdd7","system_id":"levelo_inurba_marseille","lat":43.31531,"lon":5.38036,"is_reserved":false,"is_disabled":false,"rental_uris":{"android":"levelo://app?vid=ba84f018-8972-438d-99e2-9043304acdd7","ios":"levelo://app?vid=ba84f018-8972-438d-99e2-9043304acdd7"},"vehicle_type_id":"4","last_reported":1731694331,"current_range_meters":18800,"station_id":"ce4bhsp2rcd13ifvqi50","pricing_plan_id":"cebpf4jnsgd1na2vs0mg"},{"bike_id":"554ee916-5e0a-469b-85dd-d012932079e5","system_id":"levelo_inurba_marseille","lat":43.311701,"lon":5.387214,"is_reserved":false,"is_disabled":false,"rental_uris":{"android":"levelo://app?vid=554ee916-5e0a-469b-85dd-d012932079e5","ios":"levelo://app?vid=554ee916-5e0a-469b-85dd-d012932079e5"},"vehicle_type_id":"4","last_reported":1731694331,"current_range_meters":30000,"station_id":"ce4bgv12rcd13ifvqcp0","pricing_plan_id":"cebpf4jnsgd1na2vs0mg"},{"bike_id":"6d757fef-4f26-43f9-ac2c-ffab39bf7dae","system_id":"levelo_inurba_marseille","lat":43.32249,"lon":5.36901,"is_reserved":false,"is_disabled":false,"rental_uris":{"android":"levelo://app?vid=6d757fef-4f26-43f9-ac2c-ffab39bf7dae","ios":"levelo://app?vid=6d757fef-4f26-43f9-ac2c-ffab39bf7dae"},"vehicle_type_id":"4","last_reported":1731694331,"current_range_meters":23200,"station_id":"","pricing_plan_id":"cebpf4jnsgd1na2vs0mg"},{"bike_id":"aec93d03-95e9-4c76-980a-735748bbdad5","system_id":"levelo_inurba_marseille","lat":43.28153,"lon":5.42645,"is_reserved":false,"is_disabled":false,"rental_uris":{"android":"levelo://app?vid=aec93d03-95e9-4c76-980a-735748bbdad5","ios":"levelo://app?vid=aec93d03-95e9-4c76-980a-735748bbdad5"},"vehicle_type_id":"4","last_reported":1731694331,"current_range_meters":17600,"station_id":"ce4bhnh2rcd13ifvqgug","pricing_plan_id":"cebpf4jnsgd1na2vs0mg"},{"bike_id":"da8b89e0-7b52-4b0a-bfd3-f3d1bcaa7510","system_id":"levelo_inurba_marseille","lat":43.29913,"lon":5.38136,"is_reserved":false,"is_disabled":false,"rental_uris":{"android":"levelo://app?vid=da8b89e0-7b52-4b0a-bfd3-f3d1bcaa7510","ios":"levelo://app?vid=da8b89e0-7b52-4b0a-bfd3-f3d1bcaa7510"},"vehicle_type_id":"4","last_reported":1731694331,"current_range_meters":6400,"station_id":"ce4bgj12rcd13ifvqbc0","pricing_plan_id":"cebpf4jnsgd1na2vs0mg"},{"bike_id":"9ea18f81-8b1f-4777-b35f-e3d99be27e4f","system_id":"levelo_inurba_marseille","lat":43.26029,"lon":5.37549,"is_reserved":false,"is_disabled":false,"rental_uris":{"android":"levelo://app?vid=9ea18f81-8b1f-4777-b35f-e3d99be27e4f","ios":"levelo://app?vid=9ea18f81-8b1f-4777-b35f-e3d99be27e4f"},"vehicle_type_id":"4","last_reported":1731694331,"current_range_meters":38800,"station_id":"ce4bhgh2rcd13ifvqfa0","pricing_plan_id":"cebpf4jnsgd1na2vs0mg"},{"bike_id":"563917a3-d87b-462f-8ca4-c165b70a5725","system_id":"levelo_inurba_marseille","lat":43.29225,"lon":5.3606,"is_reserved":false,"is_disabled":false,"rental_uris":{"android":"levelo://app?vid=563917a3-d87b-462f-8ca4-c165b70a5725","ios":"levelo://app?vid=563917a3-d87b-462f-8ca4-c165b70a5725"},"vehicle_type_id":"4","last_reported":1731694331,"current_range_meters":33600,"station_id":"ce4bhbh2rcd13ifvqeqg","pricing_plan_id":"cebpf4jnsgd1na2vs0mg"},{"bike_id":"c6cab686-87a6-4e71-b3d1-33fe4186c968","system_id":"levelo_inurba_marseille","lat":43.32546,"lon":5.41435,"is_reserved":false,"is_disabled":false,"rental_uris":{"android":"levelo://app?vid=c6cab686-87a6-4e71-b3d1-33fe4186c968","ios":"levelo://app?vid=c6cab686-87a6-4e71-b3d1-33fe4186c968"},"vehicle_type_id":"4","last_reported":1731694331,"current_range_meters":18800,"station_id":"ce4bhq12rcd13ifvqhhg","pricing_plan_id":"cebpf4jnsgd1na2vs0mg"},{"bike_id":"aa6dc477-f689-4f54-a32c-590a92ca76b2","system_id":"levelo_inurba_marseille","lat":43.23189,"lon":5.39982,"is_reserved":false,"is_disabled":false,"rental_uris":{"android":"levelo://app?vid=aa6dc477-f689-4f54-a32c-590a92ca76b2","ios":"levelo://app?vid=aa6dc477-f689-4f54-a32c-590a92ca76b2"},"vehicle_type_id":"4","last_reported":1731694331,"current_range_meters":38800,"station_id":"ce4bhn12rcd13ifvqgqg","pricing_plan_id":"cebpf4jnsgd1na2vs0mg"},{"bike_id":"bad94056-7525-47ae-929c-6f5d770d1699","system_id":"levelo_inurba_marseille","lat":43.26057,"lon":5.39401,"is_reserved":false,"is_disabled":false,"rental_uris":{"android":"levelo://app?vid=bad94056-7525-47ae-929c-6f5d770d1699","ios":"levelo://app?vid=bad94056-7525-47ae-929c-6f5d770d1699"},"vehicle_type_id":"4","last_reported":1731694331,"current_range_meters":14400,"station_id":"ce4bhh92rcd13ifvqfj0","pricing_plan_id":"cebpf4jnsgd1na2vs0mg"},{"bike_id":"859273d5-1ac1-4085-956b-cf9ac6e3e158","system_id":"levelo_inurba_marseille","lat":43.32049,"lon":5.41543,"is_reserved":false,"is_disabled":false,"rental_uris":{"android":"levelo://app?vid=859273d5-1ac1-4085-956b-cf9ac6e3e158","ios":"levelo://app?vid=859273d5-1ac1-4085-956b-cf9ac6e3e158"},"vehicle_type_id":"4","last_reported":1731694331,"current_range_meters":6400,"station_id":"ce4bhq92rcd13ifvqhkg","pricing_plan_id":"cebpf4jnsgd1na2vs0mg"},{"bike_id":"229ad567-ad7f-447b-bb77-192200e00ebd","system_id":"levelo_inurba_marseille","lat":43.31221,"lon":5.3684,"is_reserved":false,"is_disabled":false,"rental_uris":{"android":"levelo://app?vid=229ad567-ad7f-447b-bb77-192200e00ebd","ios":"levelo://app?vid=229ad567-ad7f-447b-bb77-192200e00ebd"},"vehicle_type_id":"4","last_reported":1731694331,"current_range_meters":14800,"station_id":"ce4bgl92rcd13ifvqbq0","pricing_plan_id":"cebpf4jnsgd1na2vs0mg"},{"bike_id":"d27a3475-2e52-4b6c-9dea-c67313b855a8","system_id":"levelo_inurba_marseille","lat":43.318817,"lon":5.407377,"is_reserved":false,"is_disabled":false,"rental_uris":{"android":"levelo://app?vid=d27a3475-2e52-4b6c-9dea-c67313b855a8","ios":"levelo://app?vid=d27a3475-2e52-4b6c-9dea-c67313b855a8"},"vehicle_type_id":"4","last_reported":1731694331,"current_range_meters":28800,"station_id":"ce4bhq12rcd13ifvqhig","pricing_plan_id":"cebpf4jnsgd1na2vs0mg"},{"bike_id":"768a7c23-c7a7-4b61-80e1-5f820a13d3f1","system_id":"levelo_inurba_marseille","lat":43.29021,"lon":5.39973,"is_reserved":false,"is_disabled":false,"rental_uris":{"android":"levelo://app?vid=768a7c23-c7a7-4b61-80e1-5f820a13d3f1","ios":"levelo://app?vid=768a7c23-c7a7-4b61-80e1-5f820a13d3f1"},"vehicle_type_id":"4","last_reported":1731694331,"current_range_meters":8000,"station_id":"ce4bh392rcd13ifvqdm0","pricing_plan_id":"cebpf4jnsgd1na2vs0mg"},{"bike_id":"220dfa5b-098c-49b3-9bcd-84acc558e322","system_id":"levelo_inurba_marseille","lat":43.31997,"lon":5.38154,"is_reserved":false,"is_disabled":false,"rental_uris":{"android":"levelo://app?vid=220dfa5b-098c-49b3-9bcd-84acc558e322","ios":"levelo://app?vid=220dfa5b-098c-49b3-9bcd-84acc558e322"},"vehicle_type_id":"4","last_reported":1731694331,"current_range_meters":38800,"station_id":"ce4bhr12rcd13ifvqhpg","pricing_plan_id":"cebpf4jnsgd1na2vs0mg"},{"bike_id":"279a1aeb-91cc-412a-b34c-2e9db781d997","system_id":"levelo_inurba_marseille","lat":43.29795,"lon":5.39345,"is_reserved":false,"is_disabled":false,"rental_uris":{"android":"levelo://app?vid=279a1aeb-91cc-412a-b34c-2e9db781d997","ios":"levelo://app?vid=279a1aeb-91cc-412a-b34c-2e9db781d997"},"vehicle_type_id":"4","last_reported":1731694331,"current_range_meters":39200,"station_id":"chh1huq6cuj3fo74tm60","pricing_plan_id":"cebpf4jnsgd1na2vs0mg"},{"bike_id":"04f932a3-7f7a-4f14-8900-06c3791ebf1f","system_id":"levelo_inurba_marseille","lat":43.31071,"lon":5.38357,"is_reserved":false,"is_disabled":false,"rental_uris":{"android":"levelo://app?vid=04f932a3-7f7a-4f14-8900-06c3791ebf1f","ios":"levelo://app?vid=04f932a3-7f7a-4f14-8900-06c3791ebf1f"},"vehicle_type_id":"4","last_reported":1731694331,"current_range_meters":18000,"station_id":"ce4bgv92rcd13ifvqcr0","pricing_plan_id":"cebpf4jnsgd1na2vs0mg"},{"bike_id":"986fe819-543b-434d-bc9c-4e22b483deb2","system_id":"levelo_inurba_marseille","lat":43.28111,"lon":5.3784,"is_reserved":false,"is_disabled":false,"rental_uris":{"android":"levelo://app?vid=986fe819-543b-434d-bc9c-4e22b483deb2","ios":"levelo://app?vid=986fe819-543b-434d-bc9c-4e22b483deb2"},"vehicle_type_id":"4","last_reported":1731694331,"current_range_meters":18000,"station_id":"ce4bha12rcd13ifvqee0","pricing_plan_id":"cebpf4jnsgd1na2vs0mg"},{"bike_id":"6e6aabd2-6baf-4bbe-9bdc-c25c96116ecc","system_id":"levelo_inurba_marseille","lat":43.30901,"lon":5.36841,"is_reserved":false,"is_disabled":false,"rental_uris":{"android":"levelo://app?vid=6e6aabd2-6baf-4bbe-9bdc-c25c96116ecc","ios":"levelo://app?vid=6e6aabd2-6baf-4bbe-9bdc-c25c96116ecc"},"vehicle_type_id":"4","last_reported":1731694331,"current_range_meters":18000,"station_id":"ce4bgn92rcd13ifvqbvg","pricing_plan_id":"cebpf4jnsgd1na2vs0mg"},{"bike_id":"85dad442-5742-4ee1-93f3-6cdcb2afd771","system_id":"levelo_inurba_marseille","lat":43.30266,"lon":5.39283,"is_reserved":false,"is_disabled":false,"rental_uris":{"android":"levelo://app?vid=85dad442-5742-4ee1-93f3-6cdcb2afd771","ios":"levelo://app?vid=85dad442-5742-4ee1-93f3-6cdcb2afd771"},"vehicle_type_id":"4","last_reported":1731694331,"current_range_meters":24000,"station_id":"","pricing_plan_id":"cebpf4jnsgd1na2vs0mg"},{"bike_id":"f18a9be6-e06c-47af-8bf1-067173c124c6","system_id":"levelo_inurba_marseille","lat":43.29586,"lon":5.3674,"is_reserved":false,"is_disabled":false,"rental_uris":{"android":"levelo://app?vid=f18a9be6-e06c-47af-8bf1-067173c124c6","ios":"levelo://app?vid=f18a9be6-e06c-47af-8bf1-067173c124c6"},"vehicle_type_id":"4","last_reported":1731694331,"current_range_meters":18800,"station_id":"ce4bgph2rcd13ifvqc2g","pricing_plan_id":"cebpf4jnsgd1na2vs0mg"},{"bike_id":"a9941116-74e4-439d-98cf-87b4495be9d8","system_id":"levelo_inurba_marseille","lat":43.28613,"lon":5.35106,"is_reserved":false,"is_disabled":false,"rental_uris":{"android":"levelo://app?vid=a9941116-74e4-439d-98cf-87b4495be9d8","ios":"levelo://app?vid=a9941116-74e4-439d-98cf-87b4495be9d8"},"vehicle_type_id":"4","last_reported":1731694331,"current_range_meters":36800,"station_id":"ce4bhch2rcd13ifvqeug","pricing_plan_id":"cebpf4jnsgd1na2vs0mg"},{"bike_id":"c0c49bd9-0343-4dbd-80cc-170c954898fa","system_id":"levelo_inurba_marseille","lat":43.29174,"lon":5.37157,"is_reserved":false,"is_disabled":false,"rental_uris":{"android":"levelo://app?vid=c0c49bd9-0343-4dbd-80cc-170c954898fa","ios":"levelo://app?vid=c0c49bd9-0343-4dbd-80cc-170c954898fa"},"vehicle_type_id":"4","last_reported":1731694331,"current_range_meters":34800,"station_id":"ce4bha92rcd13ifvqeh0","pricing_plan_id":"cebpf4jnsgd1na2vs0mg"},{"bike_id":"5a5e1aa6-3505-499c-9c37-55df6d921e47","system_id":"levelo_inurba_marseille","lat":43.28576,"lon":5.39495,"is_reserved":false,"is_disabled":false,"rental_uris":{"android":"levelo://app?vid=5a5e1aa6-3505-499c-9c37-55df6d921e47","ios":"levelo://app?vid=5a5e1aa6-3505-499c-9c37-55df6d921e47"},"vehicle_type_id":"4","last_reported":1731694331,"current_range_meters":22000,"station_id":"ce4bh292rcd13ifvqdg0","pricing_plan_id":"cebpf4jnsgd1na2vs0mg"},{"bike_id":"21c4c153-93a5-4f54-96e7-7b8f16b2ecb6","system_id":"levelo_inurba_marseille","lat":43.29263,"lon":5.4092,"is_reserved":false,"is_disabled":false,"rental_uris":{"android":"levelo://app?vid=21c4c153-93a5-4f54-96e7-7b8f16b2ecb6","ios":"levelo://app?vid=21c4c153-93a5-4f54-96e7-7b8f16b2ecb6"},"vehicle_type_id":"4","last_reported":1731694331,"current_range_meters":34000,"station_id":"ce4bh192rcd13ifvqdc0","pricing_plan_id":"cebpf4jnsgd1na2vs0mg"},{"bike_id":"b54f4471-f146-477a-ade3-58e1dea1b85e","system_id":"levelo_inurba_marseille","lat":43.337444,"lon":5.374475,"is_reserved":false,"is_disabled":false,"rental_uris":{"android":"levelo://app?vid=b54f4471-f146-477a-ade3-58e1dea1b85e","ios":"levelo://app?vid=b54f4471-f146-477a-ade3-58e1dea1b85e"},"vehicle_type_id":"4","last_reported":1731694331,"current_range_meters":36400,"station_id":"","pricing_plan_id":"cebpf4jnsgd1na2vs0mg"},{"bike_id":"25ccf959-b86d-4d28-bd4a-6eca084fcf74","system_id":"levelo_inurba_marseille","lat":43.28705,"lon":5.39985,"is_reserved":false,"is_disabled":false,"rental_uris":{"android":"levelo://app?vid=25ccf959-b86d-4d28-bd4a-6eca084fcf74","ios":"levelo://app?vid=25ccf959-b86d-4d28-bd4a-6eca084fcf74"},"vehicle_type_id":"4","last_reported":1731694331,"current_range_meters":1600,"station_id":"ce4bho92rcd13ifvqh3g","pricing_plan_id":"cebpf4jnsgd1na2vs0mg"},{"bike_id":"370aac2f-333d-44bb-bf8b-98ab766f6039","system_id":"levelo_inurba_marseille","lat":43.29024,"lon":5.38635,"is_reserved":false,"is_disabled":false,"rental_uris":{"android":"levelo://app?vid=370aac2f-333d-44bb-bf8b-98ab766f6039","ios":"levelo://app?vid=370aac2f-333d-44bb-bf8b-98ab766f6039"},"vehicle_type_id":"4","last_reported":1731694331,"current_range_meters":14000,"station_id":"ce4bh4p2rcd13ifvqe0g","pricing_plan_id":"cebpf4jnsgd1na2vs0mg"},{"bike_id":"8b844abe-db80-4882-8dd9-9fd9c238539c","system_id":"levelo_inurba_marseille","lat":43.24387,"lon":5.37057,"is_reserved":false,"is_disabled":false,"rental_uris":{"android":"levelo://app?vid=8b844abe-db80-4882-8dd9-9fd9c238539c","ios":"levelo://app?vid=8b844abe-db80-4882-8dd9-9fd9c238539c"},"vehicle_type_id":"4","last_reported":1731694331,"current_range_meters":20000,"station_id":"ce4bhhh2rcd13ifvqfk0","pricing_plan_id":"cebpf4jnsgd1na2vs0mg"},{"bike_id":"805cfe6b-be44-4949-bab5-57b1ce8478a4","system_id":"levelo_inurba_marseille","lat":43.33752,"lon":5.37459,"is_reserved":false,"is_disabled":false,"rental_uris":{"android":"levelo://app?vid=805cfe6b-be44-4949-bab5-57b1ce8478a4","ios":"levelo://app?vid=805cfe6b-be44-4949-bab5-57b1ce8478a4"},"vehicle_type_id":"4","last_reported":1731694331,"current_range_meters":32800,"station_id":"","pricing_plan_id":"cebpf4jnsgd1na2vs0mg"},{"bike_id":"c8aee84a-00cb-41d0-b42b-c41c1053067a","system_id":"levelo_inurba_marseille","lat":43.26067,"lon":5.39398,"is_reserved":false,"is_disabled":false,"rental_uris":{"android":"levelo://app?vid=c8aee84a-00cb-41d0-b42b-c41c1053067a","ios":"levelo://app?vid=c8aee84a-00cb-41d0-b42b-c41c1053067a"},"vehicle_type_id":"4","last_reported":1731694331,"current_range_meters":39200,"station_id":"ce4bhh92rcd13ifvqfj0","pricing_plan_id":"cebpf4jnsgd1na2vs0mg"},{"bike_id":"428a62c1-b14b-49fe-a109-37b4410b16d4","system_id":"levelo_inurba_marseille","lat":43.27814,"lon":5.40712,"is_reserved":false,"is_disabled":false,"rental_uris":{"android":"levelo://app?vid=428a62c1-b14b-49fe-a109-37b4410b16d4","ios":"levelo://app?vid=428a62c1-b14b-49fe-a109-37b4410b16d4"},"vehicle_type_id":"4","last_reported":1731694331,"current_range_meters":21600,"station_id":"ce4bhnh2rcd13ifvqgtg","pricing_plan_id":"cebpf4jnsgd1na2vs0mg"},{"bike_id":"5be335db-b645-4b84-9862-93245ac4935c","system_id":"levelo_inurba_marseille","lat":43.28439,"lon":5.39208,"is_reserved":false,"is_disabled":false,"rental_uris":{"android":"levelo://app?vid=5be335db-b645-4b84-9862-93245ac4935c","ios":"levelo://app?vid=5be335db-b645-4b84-9862-93245ac4935c"},"vehicle_type_id":"4","last_reported":1731694331,"current_range_meters":10800,"station_id":"ce4bhoh2rcd13ifvqh5g","pricing_plan_id":"cebpf4jnsgd1na2vs0mg"},{"bike_id":"b38c59a0-ce08-4eb9-b870-02b578ca24a3","system_id":"levelo_inurba_marseille","lat":43.31923,"lon":5.38658,"is_reserved":false,"is_disabled":false,"rental_uris":{"android":"levelo://app?vid=b38c59a0-ce08-4eb9-b870-02b578ca24a3","ios":"levelo://app?vid=b38c59a0-ce08-4eb9-b870-02b578ca24a3"},"vehicle_type_id":"4","last_reported":1731694331,"current_range_meters":30400,"station_id":"","pricing_plan_id":"cebpf4jnsgd1na2vs0mg"},{"bike_id":"026c3e69-d2de-4323-90a8-274bc69018fe","system_id":"levelo_inurba_marseille","lat":43.32049,"lon":5.41547,"is_reserved":false,"is_disabled":false,"rental_uris":{"android":"levelo://app?vid=026c3e69-d2de-4323-90a8-274bc69018fe","ios":"levelo://app?vid=026c3e69-d2de-4323-90a8-274bc69018fe"},"vehicle_type_id":"4","last_reported":1731694331,"current_range_meters":2800,"station_id":"ce4bhq92rcd13ifvqhkg","pricing_plan_id":"cebpf4jnsgd1na2vs0mg"},{"bike_id":"42e58bf6-d12a-443e-be7b-82b95e2c98bd","system_id":"levelo_inurba_marseille","lat":43.29905,"lon":5.38152,"is_reserved":false,"is_disabled":false,"rental_uris":{"android":"levelo://app?vid=42e58bf6-d12a-443e-be7b-82b95e2c98bd","ios":"levelo://app?vid=42e58bf6-d12a-443e-be7b-82b95e2c98bd"},"vehicle_type_id":"4","last_reported":1731694331,"current_range_meters":14400,"station_id":"ce4bgj12rcd13ifvqbc0","pricing_plan_id":"cebpf4jnsgd1na2vs0mg"},{"bike_id":"aab9417d-18bd-4720-8914-2e3f8c1268c1","system_id":"levelo_inurba_marseille","lat":43.32216,"lon":5.40739,"is_reserved":false,"is_disabled":false,"rental_uris":{"android":"levelo://app?vid=aab9417d-18bd-4720-8914-2e3f8c1268c1","ios":"levelo://app?vid=aab9417d-18bd-4720-8914-2e3f8c1268c1"},"vehicle_type_id":"4","last_reported":1731694331,"current_range_meters":2800,"station_id":"ce4bhq92rcd13ifvqhjg","pricing_plan_id":"cebpf4jnsgd1na2vs0mg"},{"bike_id":"5e8c8be4-c105-4296-8599-22d962f3c1a2","system_id":"levelo_inurba_marseille","lat":43.307388,"lon":5.36804,"is_reserved":false,"is_disabled":false,"rental_uris":{"android":"levelo://app?vid=5e8c8be4-c105-4296-8599-22d962f3c1a2","ios":"levelo://app?vid=5e8c8be4-c105-4296-8599-22d962f3c1a2"},"vehicle_type_id":"4","last_reported":1731694331,"current_range_meters":24000,"station_id":"ce4bgn92rcd13ifvqbvg","pricing_plan_id":"cebpf4jnsgd1na2vs0mg"},{"bike_id":"ca655f3b-8380-4045-b3f8-8acaa0e83ede","system_id":"levelo_inurba_marseille","lat":43.33733,"lon":5.37456,"is_reserved":false,"is_disabled":false,"rental_uris":{"android":"levelo://app?vid=ca655f3b-8380-4045-b3f8-8acaa0e83ede","ios":"levelo://app?vid=ca655f3b-8380-4045-b3f8-8acaa0e83ede"},"vehicle_type_id":"4","last_reported":1731694331,"current_range_meters":36000,"station_id":"","pricing_plan_id":"cebpf4jnsgd1na2vs0mg"},{"bike_id":"72428783-0e7c-4a2c-894d-22a1b4a71084","system_id":"levelo_inurba_marseille","lat":43.32486,"lon":5.36563,"is_reserved":false,"is_disabled":false,"rental_uris":{"android":"levelo://app?vid=72428783-0e7c-4a2c-894d-22a1b4a71084","ios":"levelo://app?vid=72428783-0e7c-4a2c-894d-22a1b4a71084"},"vehicle_type_id":"4","last_reported":1731694331,"current_range_meters":16400,"station_id":"ce4bhs12rcd13ifvqhvg","pricing_plan_id":"cebpf4jnsgd1na2vs0mg"},{"bike_id":"a6b8c285-acc9-4039-9531-1aae39136a33","system_id":"levelo_inurba_marseille","lat":43.312042,"lon":5.367348,"is_reserved":false,"is_disabled":false,"rental_uris":{"android":"levelo://app?vid=a6b8c285-acc9-4039-9531-1aae39136a33","ios":"levelo://app?vid=a6b8c285-acc9-4039-9531-1aae39136a33"},"vehicle_type_id":"4","last_reported":1731694331,"current_range_meters":18800,"station_id":"","pricing_plan_id":"cebpf4jnsgd1na2vs0mg"},{"bike_id":"7ca69a1a-fe93-48e5-bc2f-2c77588cc634","system_id":"levelo_inurba_marseille","lat":43.295224,"lon":5.390391,"is_reserved":false,"is_disabled":false,"rental_uris":{"android":"levelo://app?vid=7ca69a1a-fe93-48e5-bc2f-2c77588cc634","ios":"levelo://app?vid=7ca69a1a-fe93-48e5-bc2f-2c77588cc634"},"vehicle_type_id":"4","last_reported":1731694331,"current_range_meters":24400,"station_id":"ce4bh3p2rcd13ifvqdp0","pricing_plan_id":"cebpf4jnsgd1na2vs0mg"},{"bike_id":"5c254126-8805-4ed8-9520-9f63561143b3","system_id":"levelo_inurba_marseille","lat":43.24168,"lon":5.36399,"is_reserved":false,"is_disabled":false,"rental_uris":{"android":"levelo://app?vid=5c254126-8805-4ed8-9520-9f63561143b3","ios":"levelo://app?vid=5c254126-8805-4ed8-9520-9f63561143b3"},"vehicle_type_id":"4","last_reported":1731694331,"current_range_meters":25600,"station_id":"cpo36qri1sfpv3e86is0","pricing_plan_id":"cebpf4jnsgd1na2vs0mg"},{"bike_id":"39f09f7a-3d17-435b-9c31-15e1f61d191a","system_id":"levelo_inurba_marseille","lat":43.2998,"lon":5.38487,"is_reserved":false,"is_disabled":false,"rental_uris":{"android":"levelo://app?vid=39f09f7a-3d17-435b-9c31-15e1f61d191a","ios":"levelo://app?vid=39f09f7a-3d17-435b-9c31-15e1f61d191a"},"vehicle_type_id":"4","last_reported":1731694331,"current_range_meters":19600,"station_id":"ce4bh012rcd13ifvqcv0","pricing_plan_id":"cebpf4jnsgd1na2vs0mg"},{"bike_id":"ccce6564-876d-46c9-8a75-87f479f70297","system_id":"levelo_inurba_marseille","lat":43.29989,"lon":5.38502,"is_reserved":false,"is_disabled":false,"rental_uris":{"android":"levelo://app?vid=ccce6564-876d-46c9-8a75-87f479f70297","ios":"levelo://app?vid=ccce6564-876d-46c9-8a75-87f479f70297"},"vehicle_type_id":"4","last_reported":1731694331,"current_range_meters":4400,"station_id":"ce4bgj92rcd13ifvqbd0","pricing_plan_id":"cebpf4jnsgd1na2vs0mg"},{"bike_id":"50ae3ec0-9f46-43fd-819a-4c7a80c3cf46","system_id":"levelo_inurba_marseille","lat":43.28858,"lon":5.35838,"is_reserved":false,"is_disabled":false,"rental_uris":{"android":"levelo://app?vid=50ae3ec0-9f46-43fd-819a-4c7a80c3cf46","ios":"levelo://app?vid=50ae3ec0-9f46-43fd-819a-4c7a80c3cf46"},"vehicle_type_id":"4","last_reported":1731694331,"current_range_meters":38000,"station_id":"ce4bhb12rcd13ifvqem0","pricing_plan_id":"cebpf4jnsgd1na2vs0mg"},{"bike_id":"faeb74b0-9645-467d-82b8-c7e1d4b0fad0","system_id":"levelo_inurba_marseille","lat":43.2834,"lon":5.38111,"is_reserved":false,"is_disabled":false,"rental_uris":{"android":"levelo://app?vid=faeb74b0-9645-467d-82b8-c7e1d4b0fad0","ios":"levelo://app?vid=faeb74b0-9645-467d-82b8-c7e1d4b0fad0"},"vehicle_type_id":"4","last_reported":1731694331,"current_range_meters":18000,"station_id":"ce4bh412rcd13ifvqdr0","pricing_plan_id":"cebpf4jnsgd1na2vs0mg"},{"bike_id":"6ef266d1-92eb-440d-9bcd-6ee947c0d029","system_id":"levelo_inurba_marseille","lat":43.27496,"lon":5.42451,"is_reserved":false,"is_disabled":false,"rental_uris":{"android":"levelo://app?vid=6ef266d1-92eb-440d-9bcd-6ee947c0d029","ios":"levelo://app?vid=6ef266d1-92eb-440d-9bcd-6ee947c0d029"},"vehicle_type_id":"4","last_reported":1731694331,"current_range_meters":24400,"station_id":"ce4bhn92rcd13ifvqgrg","pricing_plan_id":"cebpf4jnsgd1na2vs0mg"},{"bike_id":"efe2cc7d-fa1e-4bf8-9e96-4f426ad99094","system_id":"levelo_inurba_marseille","lat":43.29865,"lon":5.39743,"is_reserved":false,"is_disabled":false,"rental_uris":{"android":"levelo://app?vid=efe2cc7d-fa1e-4bf8-9e96-4f426ad99094","ios":"levelo://app?vid=efe2cc7d-fa1e-4bf8-9e96-4f426ad99094"},"vehicle_type_id":"4","last_reported":1731694331,"current_range_meters":23200,"station_id":"ce4bh0h2rcd13ifvqd50","pricing_plan_id":"cebpf4jnsgd1na2vs0mg"},{"bike_id":"1ae8fe75-00ad-479b-a755-74d45d76bfbe","system_id":"levelo_inurba_marseille","lat":43.24169,"lon":5.36404,"is_reserved":false,"is_disabled":false,"rental_uris":{"android":"levelo://app?vid=1ae8fe75-00ad-479b-a755-74d45d76bfbe","ios":"levelo://app?vid=1ae8fe75-00ad-479b-a755-74d45d76bfbe"},"vehicle_type_id":"4","last_reported":1731694331,"current_range_meters":9600,"station_id":"cpo36qri1sfpv3e86is0","pricing_plan_id":"cebpf4jnsgd1na2vs0mg"},{"bike_id":"5df34f29-1a7a-4221-97e5-c009d97a2929","system_id":"levelo_inurba_marseille","lat":43.2384,"lon":5.36532,"is_reserved":false,"is_disabled":false,"rental_uris":{"android":"levelo://app?vid=5df34f29-1a7a-4221-97e5-c009d97a2929","ios":"levelo://app?vid=5df34f29-1a7a-4221-97e5-c009d97a2929"},"vehicle_type_id":"4","last_reported":1731694331,"current_range_meters":13600,"station_id":"","pricing_plan_id":"cebpf4jnsgd1na2vs0mg"},{"bike_id":"92ac4858-87d6-4ceb-8f6e-004635a816a8","system_id":"levelo_inurba_marseille","lat":43.2779,"lon":5.4073,"is_reserved":false,"is_disabled":false,"rental_uris":{"android":"levelo://app?vid=92ac4858-87d6-4ceb-8f6e-004635a816a8","ios":"levelo://app?vid=92ac4858-87d6-4ceb-8f6e-004635a816a8"},"vehicle_type_id":"4","last_reported":1731694331,"current_range_meters":36400,"station_id":"ce4bhnh2rcd13ifvqgtg","pricing_plan_id":"cebpf4jnsgd1na2vs0mg"},{"bike_id":"27721b70-b1c9-4cea-a910-812734107211","system_id":"levelo_inurba_marseille","lat":43.30421,"lon":5.41281,"is_reserved":false,"is_disabled":false,"rental_uris":{"android":"levelo://app?vid=27721b70-b1c9-4cea-a910-812734107211","ios":"levelo://app?vid=27721b70-b1c9-4cea-a910-812734107211"},"vehicle_type_id":"4","last_reported":1731694331,"current_range_meters":18800,"station_id":"ce4bhop2rcd13ifvqh8g","pricing_plan_id":"cebpf4jnsgd1na2vs0mg"},{"bike_id":"acccc9dd-ae8e-4182-bf16-701672e8ed55","system_id":"levelo_inurba_marseille","lat":43.25718,"lon":5.41106,"is_reserved":false,"is_disabled":false,"rental_uris":{"android":"levelo://app?vid=acccc9dd-ae8e-4182-bf16-701672e8ed55","ios":"levelo://app?vid=acccc9dd-ae8e-4182-bf16-701672e8ed55"},"vehicle_type_id":"4","last_reported":1731694331,"current_range_meters":38800,"station_id":"ce4bhkp2rcd13ifvqgd0","pricing_plan_id":"cebpf4jnsgd1na2vs0mg"},{"bike_id":"d37a5777-a5f5-4b7f-b7f5-a1dae307da91","system_id":"levelo_inurba_marseille","lat":43.23191,"lon":5.3556,"is_reserved":false,"is_disabled":false,"rental_uris":{"android":"levelo://app?vid=d37a5777-a5f5-4b7f-b7f5-a1dae307da91","ios":"levelo://app?vid=d37a5777-a5f5-4b7f-b7f5-a1dae307da91"},"vehicle_type_id":"4","last_reported":1731694331,"current_range_meters":36000,"station_id":"ce4bhu92rcd13ifvqi70","pricing_plan_id":"cebpf4jnsgd1na2vs0mg"},{"bike_id":"4eeee056-04ff-4d29-ada3-618d8b21d41a","system_id":"levelo_inurba_marseille","lat":43.32658,"lon":5.41011,"is_reserved":false,"is_disabled":false,"rental_uris":{"android":"levelo://app?vid=4eeee056-04ff-4d29-ada3-618d8b21d41a","ios":"levelo://app?vid=4eeee056-04ff-4d29-ada3-618d8b21d41a"},"vehicle_type_id":"4","last_reported":1731694331,"current_range_meters":24400,"station_id":"ce4bhpp2rcd13ifvqhgg","pricing_plan_id":"cebpf4jnsgd1na2vs0mg"},{"bike_id":"feea59f4-fd5e-48c5-b690-6bb2a0d7f0e8","system_id":"levelo_inurba_marseille","lat":43.29523,"lon":5.39402,"is_reserved":false,"is_disabled":false,"rental_uris":{"android":"levelo://app?vid=feea59f4-fd5e-48c5-b690-6bb2a0d7f0e8","ios":"levelo://app?vid=feea59f4-fd5e-48c5-b690-6bb2a0d7f0e8"},"vehicle_type_id":"4","last_reported":1731694331,"current_range_meters":33200,"station_id":"ce4bh292rcd13ifvqdf0","pricing_plan_id":"cebpf4jnsgd1na2vs0mg"},{"bike_id":"139d00fc-e67b-449a-9fd4-0db893561dc2","system_id":"levelo_inurba_marseille","lat":43.33756,"lon":5.37418,"is_reserved":false,"is_disabled":false,"rental_uris":{"android":"levelo://app?vid=139d00fc-e67b-449a-9fd4-0db893561dc2","ios":"levelo://app?vid=139d00fc-e67b-449a-9fd4-0db893561dc2"},"vehicle_type_id":"4","last_reported":1731694331,"current_range_meters":8800,"station_id":"","pricing_plan_id":"cebpf4jnsgd1na2vs0mg"},{"bike_id":"bdda4347-118f-4304-b506-09b4b5e15b39","system_id":"levelo_inurba_marseille","lat":43.33723,"lon":5.39186,"is_reserved":false,"is_disabled":false,"rental_uris":{"android":"levelo://app?vid=bdda4347-118f-4304-b506-09b4b5e15b39","ios":"levelo://app?vid=bdda4347-118f-4304-b506-09b4b5e15b39"},"vehicle_type_id":"4","last_reported":1731694331,"current_range_meters":18800,"station_id":"ce4bhr92rcd13ifvqhsg","pricing_plan_id":"cebpf4jnsgd1na2vs0mg"},{"bike_id":"78e77bb4-ca7d-444e-b1f8-15e342f44b51","system_id":"levelo_inurba_marseille","lat":43.29522,"lon":5.39041,"is_reserved":false,"is_disabled":false,"rental_uris":{"android":"levelo://app?vid=78e77bb4-ca7d-444e-b1f8-15e342f44b51","ios":"levelo://app?vid=78e77bb4-ca7d-444e-b1f8-15e342f44b51"},"vehicle_type_id":"4","last_reported":1731694331,"current_range_meters":37600,"station_id":"ce4bh3p2rcd13ifvqdp0","pricing_plan_id":"cebpf4jnsgd1na2vs0mg"},{"bike_id":"7d9a2730-cc2a-4ac8-b6cc-60ca0a8c27bc","system_id":"levelo_inurba_marseille","lat":43.29591,"lon":5.38105,"is_reserved":false,"is_disabled":false,"rental_uris":{"android":"levelo://app?vid=7d9a2730-cc2a-4ac8-b6cc-60ca0a8c27bc","ios":"levelo://app?vid=7d9a2730-cc2a-4ac8-b6cc-60ca0a8c27bc"},"vehicle_type_id":"4","last_reported":1731694331,"current_range_meters":19200,"station_id":"ce4bgl12rcd13ifvqbo0","pricing_plan_id":"cebpf4jnsgd1na2vs0mg"},{"bike_id":"c796ecac-dcaf-49e3-baca-caa6a2cbff1d","system_id":"levelo_inurba_marseille","lat":43.30893,"lon":5.37187,"is_reserved":false,"is_disabled":false,"rental_uris":{"android":"levelo://app?vid=c796ecac-dcaf-49e3-baca-caa6a2cbff1d","ios":"levelo://app?vid=c796ecac-dcaf-49e3-baca-caa6a2cbff1d"},"vehicle_type_id":"4","last_reported":1731694331,"current_range_meters":5600,"station_id":"ce4bguh2rcd13ifvqckg","pricing_plan_id":"cebpf4jnsgd1na2vs0mg"},{"bike_id":"6b9d577b-b577-49da-a934-7672c677d8a9","system_id":"levelo_inurba_marseille","lat":43.274719,"lon":5.394975,"is_reserved":false,"is_disabled":false,"rental_uris":{"android":"levelo://app?vid=6b9d577b-b577-49da-a934-7672c677d8a9","ios":"levelo://app?vid=6b9d577b-b577-49da-a934-7672c677d8a9"},"vehicle_type_id":"4","last_reported":1731694331,"current_range_meters":17200,"station_id":"ce4bh392rcd13ifvqdm0","pricing_plan_id":"cebpf4jnsgd1na2vs0mg"},{"bike_id":"941de6ef-8ba3-4954-8b12-6ef975e1d271","system_id":"levelo_inurba_marseille","lat":43.29872,"lon":5.39734,"is_reserved":false,"is_disabled":false,"rental_uris":{"android":"levelo://app?vid=941de6ef-8ba3-4954-8b12-6ef975e1d271","ios":"levelo://app?vid=941de6ef-8ba3-4954-8b12-6ef975e1d271"},"vehicle_type_id":"4","last_reported":1731694331,"current_range_meters":33200,"station_id":"ce4bh0h2rcd13ifvqd50","pricing_plan_id":"cebpf4jnsgd1na2vs0mg"},{"bike_id":"f0d96ea5-be46-4ab4-bd46-1b48f9cb623d","system_id":"levelo_inurba_marseille","lat":43.28841,"lon":5.35869,"is_reserved":false,"is_disabled":false,"rental_uris":{"android":"levelo://app?vid=f0d96ea5-be46-4ab4-bd46-1b48f9cb623d","ios":"levelo://app?vid=f0d96ea5-be46-4ab4-bd46-1b48f9cb623d"},"vehicle_type_id":"4","last_reported":1731694331,"current_range_meters":20400,"station_id":"ce4bhb12rcd13ifvqem0","pricing_plan_id":"cebpf4jnsgd1na2vs0mg"},{"bike_id":"e1fdae3d-859b-438c-8667-d45338d823a7","system_id":"levelo_inurba_marseille","lat":43.32285,"lon":5.38262,"is_reserved":false,"is_disabled":false,"rental_uris":{"android":"levelo://app?vid=e1fdae3d-859b-438c-8667-d45338d823a7","ios":"levelo://app?vid=e1fdae3d-859b-438c-8667-d45338d823a7"},"vehicle_type_id":"4","last_reported":1731694331,"current_range_meters":34800,"station_id":"ce4bhr12rcd13ifvqhqg","pricing_plan_id":"cebpf4jnsgd1na2vs0mg"},{"bike_id":"6d6992bf-ade3-4a22-a168-306dafdc4544","system_id":"levelo_inurba_marseille","lat":43.24167,"lon":5.36403,"is_reserved":false,"is_disabled":false,"rental_uris":{"android":"levelo://app?vid=6d6992bf-ade3-4a22-a168-306dafdc4544","ios":"levelo://app?vid=6d6992bf-ade3-4a22-a168-306dafdc4544"},"vehicle_type_id":"4","last_reported":1731694331,"current_range_meters":36800,"station_id":"cpo36qri1sfpv3e86is0","pricing_plan_id":"cebpf4jnsgd1na2vs0mg"},{"bike_id":"d9863df9-9176-4865-a7b9-ef43f3b6aef5","system_id":"levelo_inurba_marseille","lat":43.29532,"lon":5.38539,"is_reserved":false,"is_disabled":false,"rental_uris":{"android":"levelo://app?vid=d9863df9-9176-4865-a7b9-ef43f3b6aef5","ios":"levelo://app?vid=d9863df9-9176-4865-a7b9-ef43f3b6aef5"},"vehicle_type_id":"4","last_reported":1731694331,"current_range_meters":38400,"station_id":"ce4bgih2rcd13ifvqba0","pricing_plan_id":"cebpf4jnsgd1na2vs0mg"},{"bike_id":"5038f6c6-0735-4fad-86bf-fe8247cef6f3","system_id":"levelo_inurba_marseille","lat":43.2732,"lon":5.39055,"is_reserved":false,"is_disabled":false,"rental_uris":{"android":"levelo://app?vid=5038f6c6-0735-4fad-86bf-fe8247cef6f3","ios":"levelo://app?vid=5038f6c6-0735-4fad-86bf-fe8247cef6f3"},"vehicle_type_id":"4","last_reported":1731694331,"current_range_meters":32000,"station_id":"ce4bhgp2rcd13ifvqfe0","pricing_plan_id":"cebpf4jnsgd1na2vs0mg"},{"bike_id":"eef5d37c-5bfd-4c76-81bd-46afa511c5a9","system_id":"levelo_inurba_marseille","lat":43.33019,"lon":5.39037,"is_reserved":false,"is_disabled":false,"rental_uris":{"android":"levelo://app?vid=eef5d37c-5bfd-4c76-81bd-46afa511c5a9","ios":"levelo://app?vid=eef5d37c-5bfd-4c76-81bd-46afa511c5a9"},"vehicle_type_id":"4","last_reported":1731694331,"current_range_meters":38800,"station_id":"ce4bhr92rcd13ifvqhrg","pricing_plan_id":"cebpf4jnsgd1na2vs0mg"},{"bike_id":"b0668b84-df27-4660-8ca5-8c213ca5ce4c","system_id":"levelo_inurba_marseille","lat":43.31124,"lon":5.37763,"is_reserved":false,"is_disabled":false,"rental_uris":{"android":"levelo://app?vid=b0668b84-df27-4660-8ca5-8c213ca5ce4c","ios":"levelo://app?vid=b0668b84-df27-4660-8ca5-8c213ca5ce4c"},"vehicle_type_id":"4","last_reported":1731694331,"current_range_meters":38800,"station_id":"ce4bgt92rcd13ifvqcg0","pricing_plan_id":"cebpf4jnsgd1na2vs0mg"},{"bike_id":"1707cb1e-404f-449a-8ec1-810d24d3f970","system_id":"levelo_inurba_marseille","lat":43.23168,"lon":5.3999,"is_reserved":false,"is_disabled":false,"rental_uris":{"android":"levelo://app?vid=1707cb1e-404f-449a-8ec1-810d24d3f970","ios":"levelo://app?vid=1707cb1e-404f-449a-8ec1-810d24d3f970"},"vehicle_type_id":"4","last_reported":1731694331,"current_range_meters":29600,"station_id":"ce4bhn12rcd13ifvqgqg","pricing_plan_id":"cebpf4jnsgd1na2vs0mg"},{"bike_id":"ba451a21-b3d6-40c4-a9a3-d2f82340246b","system_id":"levelo_inurba_marseille","lat":43.26064,"lon":5.39398,"is_reserved":false,"is_disabled":false,"rental_uris":{"android":"levelo://app?vid=ba451a21-b3d6-40c4-a9a3-d2f82340246b","ios":"levelo://app?vid=ba451a21-b3d6-40c4-a9a3-d2f82340246b"},"vehicle_type_id":"4","last_reported":1731694331,"current_range_meters":27200,"station_id":"ce4bhh92rcd13ifvqfj0","pricing_plan_id":"cebpf4jnsgd1na2vs0mg"},{"bike_id":"a567fcf8-8820-42e3-a96d-d76681dc0ddd","system_id":"levelo_inurba_marseille","lat":43.29531,"lon":5.38541,"is_reserved":false,"is_disabled":false,"rental_uris":{"android":"levelo://app?vid=a567fcf8-8820-42e3-a96d-d76681dc0ddd","ios":"levelo://app?vid=a567fcf8-8820-42e3-a96d-d76681dc0ddd"},"vehicle_type_id":"4","last_reported":1731694331,"current_range_meters":38800,"station_id":"ce4bgih2rcd13ifvqba0","pricing_plan_id":"cebpf4jnsgd1na2vs0mg"},{"bike_id":"ff273380-c91d-4de0-97f4-4e62bfd1e6c1","system_id":"levelo_inurba_marseille","lat":43.29649,"lon":5.37648,"is_reserved":false,"is_disabled":false,"rental_uris":{"android":"levelo://app?vid=ff273380-c91d-4de0-97f4-4e62bfd1e6c1","ios":"levelo://app?vid=ff273380-c91d-4de0-97f4-4e62bfd1e6c1"},"vehicle_type_id":"4","last_reported":1731694331,"current_range_meters":16000,"station_id":"","pricing_plan_id":"cebpf4jnsgd1na2vs0mg"},{"bike_id":"4ee4605c-22f2-4532-b44d-f5fb03fd5142","system_id":"levelo_inurba_marseille","lat":43.30803,"lon":5.43525,"is_reserved":false,"is_disabled":false,"rental_uris":{"android":"levelo://app?vid=4ee4605c-22f2-4532-b44d-f5fb03fd5142","ios":"levelo://app?vid=4ee4605c-22f2-4532-b44d-f5fb03fd5142"},"vehicle_type_id":"4","last_reported":1731694331,"current_range_meters":24400,"station_id":"ce4bhph2rcd13ifvqheg","pricing_plan_id":"cebpf4jnsgd1na2vs0mg"},{"bike_id":"7a4340a3-d5e2-40c3-b571-a1952418ba61","system_id":"levelo_inurba_marseille","lat":43.25577,"lon":5.382426,"is_reserved":false,"is_disabled":false,"rental_uris":{"android":"levelo://app?vid=7a4340a3-d5e2-40c3-b571-a1952418ba61","ios":"levelo://app?vid=7a4340a3-d5e2-40c3-b571-a1952418ba61"},"vehicle_type_id":"4","last_reported":1731694331,"current_range_meters":18800,"station_id":"ce4bhih2rcd13ifvqfs0","pricing_plan_id":"cebpf4jnsgd1na2vs0mg"},{"bike_id":"d5ca87ef-1eaf-43ac-b7c5-feab87b033b7","system_id":"levelo_inurba_marseille","lat":43.29416,"lon":5.38624,"is_reserved":false,"is_disabled":false,"rental_uris":{"android":"levelo://app?vid=d5ca87ef-1eaf-43ac-b7c5-feab87b033b7","ios":"levelo://app?vid=d5ca87ef-1eaf-43ac-b7c5-feab87b033b7"},"vehicle_type_id":"4","last_reported":1731694331,"current_range_meters":6400,"station_id":"ce4bh2h2rcd13ifvqdh0","pricing_plan_id":"cebpf4jnsgd1na2vs0mg"},{"bike_id":"f915aedc-ffac-4f8e-b5cc-80fde1e7dfb5","system_id":"levelo_inurba_marseille","lat":43.31712,"lon":5.43705,"is_reserved":false,"is_disabled":false,"rental_uris":{"android":"levelo://app?vid=f915aedc-ffac-4f8e-b5cc-80fde1e7dfb5","ios":"levelo://app?vid=f915aedc-ffac-4f8e-b5cc-80fde1e7dfb5"},"vehicle_type_id":"4","last_reported":1731694331,"current_range_meters":13600,"station_id":"ce4bhp92rcd13ifvqhcg","pricing_plan_id":"cebpf4jnsgd1na2vs0mg"},{"bike_id":"33d2cecb-1721-412b-a019-cc221a64400e","system_id":"levelo_inurba_marseille","lat":43.32492,"lon":5.36572,"is_reserved":false,"is_disabled":false,"rental_uris":{"android":"levelo://app?vid=33d2cecb-1721-412b-a019-cc221a64400e","ios":"levelo://app?vid=33d2cecb-1721-412b-a019-cc221a64400e"},"vehicle_type_id":"4","last_reported":1731694331,"current_range_meters":38800,"station_id":"ce4bhs12rcd13ifvqhvg","pricing_plan_id":"cebpf4jnsgd1na2vs0mg"},{"bike_id":"149b00fc-52f8-4b6e-be2c-178bb6cc0a51","system_id":"levelo_inurba_marseille","lat":43.27314,"lon":5.39075,"is_reserved":false,"is_disabled":false,"rental_uris":{"android":"levelo://app?vid=149b00fc-52f8-4b6e-be2c-178bb6cc0a51","ios":"levelo://app?vid=149b00fc-52f8-4b6e-be2c-178bb6cc0a51"},"vehicle_type_id":"4","last_reported":1731694331,"current_range_meters":18000,"station_id":"ce4bhgp2rcd13ifvqfe0","pricing_plan_id":"cebpf4jnsgd1na2vs0mg"},{"bike_id":"56d47841-6b36-44fc-8852-e84bb3bd9a72","system_id":"levelo_inurba_marseille","lat":43.31197,"lon":5.38786,"is_reserved":false,"is_disabled":false,"rental_uris":{"android":"levelo://app?vid=56d47841-6b36-44fc-8852-e84bb3bd9a72","ios":"levelo://app?vid=56d47841-6b36-44fc-8852-e84bb3bd9a72"},"vehicle_type_id":"4","last_reported":1731694331,"current_range_meters":3600,"station_id":"","pricing_plan_id":"cebpf4jnsgd1na2vs0mg"},{"bike_id":"53f7ce58-d1b6-4ab2-abef-6c3d37b336dd","system_id":"levelo_inurba_marseille","lat":43.33726,"lon":5.39193,"is_reserved":false,"is_disabled":false,"rental_uris":{"android":"levelo://app?vid=53f7ce58-d1b6-4ab2-abef-6c3d37b336dd","ios":"levelo://app?vid=53f7ce58-d1b6-4ab2-abef-6c3d37b336dd"},"vehicle_type_id":"4","last_reported":1731694331,"current_range_meters":39200,"station_id":"ce4bhr92rcd13ifvqhsg","pricing_plan_id":"cebpf4jnsgd1na2vs0mg"},{"bike_id":"42635b91-15ab-4f63-a599-b090a95e9df5","system_id":"levelo_inurba_marseille","lat":43.294128,"lon":5.386231,"is_reserved":false,"is_disabled":false,"rental_uris":{"android":"levelo://app?vid=42635b91-15ab-4f63-a599-b090a95e9df5","ios":"levelo://app?vid=42635b91-15ab-4f63-a599-b090a95e9df5"},"vehicle_type_id":"4","last_reported":1731694331,"current_range_meters":4400,"station_id":"ce4bgkh2rcd13ifvqbk0","pricing_plan_id":"cebpf4jnsgd1na2vs0mg"},{"bike_id":"9c366996-cf3d-49e3-bd79-6a2a108a7b52","system_id":"levelo_inurba_marseille","lat":43.24558,"lon":5.39523,"is_reserved":false,"is_disabled":false,"rental_uris":{"android":"levelo://app?vid=9c366996-cf3d-49e3-bd79-6a2a108a7b52","ios":"levelo://app?vid=9c366996-cf3d-49e3-bd79-6a2a108a7b52"},"vehicle_type_id":"4","last_reported":1731694331,"current_range_meters":31200,"station_id":"ce4bhlp2rcd13ifvqgjg","pricing_plan_id":"cebpf4jnsgd1na2vs0mg"},{"bike_id":"925581c9-00ac-4c55-9dc1-cfb6304f30ca","system_id":"levelo_inurba_marseille","lat":43.28921,"lon":5.36399,"is_reserved":false,"is_disabled":false,"rental_uris":{"android":"levelo://app?vid=925581c9-00ac-4c55-9dc1-cfb6304f30ca","ios":"levelo://app?vid=925581c9-00ac-4c55-9dc1-cfb6304f30ca"},"vehicle_type_id":"4","last_reported":1731694331,"current_range_meters":18000,"station_id":"ce4bhc92rcd13ifvqetg","pricing_plan_id":"cebpf4jnsgd1na2vs0mg"},{"bike_id":"1cf39570-9ce7-4693-ae1a-8882d123e204","system_id":"levelo_inurba_marseille","lat":43.29253,"lon":5.40913,"is_reserved":false,"is_disabled":false,"rental_uris":{"android":"levelo://app?vid=1cf39570-9ce7-4693-ae1a-8882d123e204","ios":"levelo://app?vid=1cf39570-9ce7-4693-ae1a-8882d123e204"},"vehicle_type_id":"4","last_reported":1731694331,"current_range_meters":9200,"station_id":"ce4bh192rcd13ifvqdc0","pricing_plan_id":"cebpf4jnsgd1na2vs0mg"},{"bike_id":"142bdb44-d253-4a90-9219-6fdba6672b4f","system_id":"levelo_inurba_marseille","lat":43.23149,"lon":5.43707,"is_reserved":false,"is_disabled":false,"rental_uris":{"android":"levelo://app?vid=142bdb44-d253-4a90-9219-6fdba6672b4f","ios":"levelo://app?vid=142bdb44-d253-4a90-9219-6fdba6672b4f"},"vehicle_type_id":"4","last_reported":1731694331,"current_range_meters":20000,"station_id":"ce4bhmp2rcd13ifvqgog","pricing_plan_id":"cebpf4jnsgd1na2vs0mg"},{"bike_id":"f2af9365-fdc2-4b99-9391-e30a9e3e43b3","system_id":"levelo_inurba_marseille","lat":43.32363,"lon":5.3676,"is_reserved":false,"is_disabled":false,"rental_uris":{"android":"levelo://app?vid=f2af9365-fdc2-4b99-9391-e30a9e3e43b3","ios":"levelo://app?vid=f2af9365-fdc2-4b99-9391-e30a9e3e43b3"},"vehicle_type_id":"4","last_reported":1731694331,"current_range_meters":25600,"station_id":"ce4bhsh2rcd13ifvqi2g","pricing_plan_id":"cebpf4jnsgd1na2vs0mg"},{"bike_id":"bb522734-48ce-4de6-8330-a5f77169e2f2","system_id":"levelo_inurba_marseille","lat":43.29899,"lon":5.4366,"is_reserved":false,"is_disabled":false,"rental_uris":{"android":"levelo://app?vid=bb522734-48ce-4de6-8330-a5f77169e2f2","ios":"levelo://app?vid=bb522734-48ce-4de6-8330-a5f77169e2f2"},"vehicle_type_id":"4","last_reported":1731694331,"current_range_meters":9600,"station_id":"ce4bhpp2rcd13ifvqhfg","pricing_plan_id":"cebpf4jnsgd1na2vs0mg"},{"bike_id":"9838735e-0e49-4996-9c46-6ad028996327","system_id":"levelo_inurba_marseille","lat":43.29798,"lon":5.40415,"is_reserved":false,"is_disabled":false,"rental_uris":{"android":"levelo://app?vid=9838735e-0e49-4996-9c46-6ad028996327","ios":"levelo://app?vid=9838735e-0e49-4996-9c46-6ad028996327"},"vehicle_type_id":"4","last_reported":1731694331,"current_range_meters":4400,"station_id":"ce4bh112rcd13ifvqd90","pricing_plan_id":"cebpf4jnsgd1na2vs0mg"},{"bike_id":"6cceeb09-431c-4b48-a5cf-db847b8faddb","system_id":"levelo_inurba_marseille","lat":43.337444,"lon":5.374475,"is_reserved":false,"is_disabled":false,"rental_uris":{"android":"levelo://app?vid=6cceeb09-431c-4b48-a5cf-db847b8faddb","ios":"levelo://app?vid=6cceeb09-431c-4b48-a5cf-db847b8faddb"},"vehicle_type_id":"4","last_reported":1731694331,"current_range_meters":33200,"station_id":"","pricing_plan_id":"cebpf4jnsgd1na2vs0mg"},{"bike_id":"4d164941-a4fe-429f-977f-982f0af93299","system_id":"levelo_inurba_marseille","lat":43.32609,"lon":5.37508,"is_reserved":false,"is_disabled":false,"rental_uris":{"android":"levelo://app?vid=4d164941-a4fe-429f-977f-982f0af93299","ios":"levelo://app?vid=4d164941-a4fe-429f-977f-982f0af93299"},"vehicle_type_id":"4","last_reported":1731694331,"current_range_meters":38400,"station_id":"","pricing_plan_id":"cebpf4jnsgd1na2vs0mg"},{"bike_id":"b4c6fd73-f520-438e-9d31-877ca1f81de8","system_id":"levelo_inurba_marseille","lat":43.26059,"lon":5.394,"is_reserved":false,"is_disabled":false,"rental_uris":{"android":"levelo://app?vid=b4c6fd73-f520-438e-9d31-877ca1f81de8","ios":"levelo://app?vid=b4c6fd73-f520-438e-9d31-877ca1f81de8"},"vehicle_type_id":"4","last_reported":1731694331,"current_range_meters":26800,"station_id":"ce4bhh92rcd13ifvqfj0","pricing_plan_id":"cebpf4jnsgd1na2vs0mg"},{"bike_id":"fe34e79d-89a4-4c9d-9e26-e258e0391b41","system_id":"levelo_inurba_marseille","lat":43.23188,"lon":5.39986,"is_reserved":false,"is_disabled":false,"rental_uris":{"android":"levelo://app?vid=fe34e79d-89a4-4c9d-9e26-e258e0391b41","ios":"levelo://app?vid=fe34e79d-89a4-4c9d-9e26-e258e0391b41"},"vehicle_type_id":"4","last_reported":1731694331,"current_range_meters":37600,"station_id":"ce4bhn12rcd13ifvqgqg","pricing_plan_id":"cebpf4jnsgd1na2vs0mg"},{"bike_id":"55a739f6-3737-4bcd-8399-5f23b09bb077","system_id":"levelo_inurba_marseille","lat":43.29513,"lon":5.39041,"is_reserved":false,"is_disabled":false,"rental_uris":{"android":"levelo://app?vid=55a739f6-3737-4bcd-8399-5f23b09bb077","ios":"levelo://app?vid=55a739f6-3737-4bcd-8399-5f23b09bb077"},"vehicle_type_id":"4","last_reported":1731694331,"current_range_meters":36800,"station_id":"ce4bh3p2rcd13ifvqdp0","pricing_plan_id":"cebpf4jnsgd1na2vs0mg"},{"bike_id":"03a78b5f-061c-4009-845b-cbe5c61d8ff3","system_id":"levelo_inurba_marseille","lat":43.32365,"lon":5.38882,"is_reserved":false,"is_disabled":false,"rental_uris":{"android":"levelo://app?vid=03a78b5f-061c-4009-845b-cbe5c61d8ff3","ios":"levelo://app?vid=03a78b5f-061c-4009-845b-cbe5c61d8ff3"},"vehicle_type_id":"4","last_reported":1731694331,"current_range_meters":30000,"station_id":"ce4bhqp2rcd13ifvqhog","pricing_plan_id":"cebpf4jnsgd1na2vs0mg"},{"bike_id":"0c19ecd2-002a-4fd4-891d-cc056f0b9ce5","system_id":"levelo_inurba_marseille","lat":43.318805,"lon":5.407344,"is_reserved":false,"is_disabled":false,"rental_uris":{"android":"levelo://app?vid=0c19ecd2-002a-4fd4-891d-cc056f0b9ce5","ios":"levelo://app?vid=0c19ecd2-002a-4fd4-891d-cc056f0b9ce5"},"vehicle_type_id":"4","last_reported":1731694331,"current_range_meters":24000,"station_id":"ce4bhq12rcd13ifvqhig","pricing_plan_id":"cebpf4jnsgd1na2vs0mg"},{"bike_id":"80a8e716-1486-4baa-bdbf-3f9e2b7c69fe","system_id":"levelo_inurba_marseille","lat":43.337444,"lon":5.374475,"is_reserved":false,"is_disabled":false,"rental_uris":{"android":"levelo://app?vid=80a8e716-1486-4baa-bdbf-3f9e2b7c69fe","ios":"levelo://app?vid=80a8e716-1486-4baa-bdbf-3f9e2b7c69fe"},"vehicle_type_id":"4","last_reported":1731694331,"current_range_meters":37600,"station_id":"","pricing_plan_id":"cebpf4jnsgd1na2vs0mg"},{"bike_id":"95a68933-1a2b-47f5-a10b-ec8f36e2e7f4","system_id":"levelo_inurba_marseille","lat":43.32002,"lon":5.38159,"is_reserved":false,"is_disabled":false,"rental_uris":{"android":"levelo://app?vid=95a68933-1a2b-47f5-a10b-ec8f36e2e7f4","ios":"levelo://app?vid=95a68933-1a2b-47f5-a10b-ec8f36e2e7f4"},"vehicle_type_id":"4","last_reported":1731694331,"current_range_meters":26000,"station_id":"ce4bhr12rcd13ifvqhpg","pricing_plan_id":"cebpf4jnsgd1na2vs0mg"},{"bike_id":"429a02e6-9470-46b0-abe5-54e012622067","system_id":"levelo_inurba_marseille","lat":43.29626,"lon":5.40599,"is_reserved":false,"is_disabled":false,"rental_uris":{"android":"levelo://app?vid=429a02e6-9470-46b0-abe5-54e012622067","ios":"levelo://app?vid=429a02e6-9470-46b0-abe5-54e012622067"},"vehicle_type_id":"4","last_reported":1731694331,"current_range_meters":1600,"station_id":"ce4bh0h2rcd13ifvqd60","pricing_plan_id":"cebpf4jnsgd1na2vs0mg"},{"bike_id":"9f069e17-638a-4858-8642-a67bd3e43641","system_id":"levelo_inurba_marseille","lat":43.3079,"lon":5.37659,"is_reserved":false,"is_disabled":false,"rental_uris":{"android":"levelo://app?vid=9f069e17-638a-4858-8642-a67bd3e43641","ios":"levelo://app?vid=9f069e17-638a-4858-8642-a67bd3e43641"},"vehicle_type_id":"4","last_reported":1731694331,"current_range_meters":38000,"station_id":"ce4bgv92rcd13ifvqcq0","pricing_plan_id":"cebpf4jnsgd1na2vs0mg"},{"bike_id":"6ccde7ce-1449-4fab-8dc6-57ec1c0717dc","system_id":"levelo_inurba_marseille","lat":43.29557,"lon":5.42279,"is_reserved":false,"is_disabled":false,"rental_uris":{"android":"levelo://app?vid=6ccde7ce-1449-4fab-8dc6-57ec1c0717dc","ios":"levelo://app?vid=6ccde7ce-1449-4fab-8dc6-57ec1c0717dc"},"vehicle_type_id":"4","last_reported":1731694331,"current_range_meters":7200,"station_id":"ce4bhph2rcd13ifvqhdg","pricing_plan_id":"cebpf4jnsgd1na2vs0mg"},{"bike_id":"6c8190a6-ee68-48ee-83e8-004bd05a5bfd","system_id":"levelo_inurba_marseille","lat":43.3107,"lon":5.38354,"is_reserved":false,"is_disabled":false,"rental_uris":{"android":"levelo://app?vid=6c8190a6-ee68-48ee-83e8-004bd05a5bfd","ios":"levelo://app?vid=6c8190a6-ee68-48ee-83e8-004bd05a5bfd"},"vehicle_type_id":"4","last_reported":1731694331,"current_range_meters":4400,"station_id":"ce4bgv92rcd13ifvqcr0","pricing_plan_id":"cebpf4jnsgd1na2vs0mg"},{"bike_id":"c3a2f022-b193-453f-9def-07d8d77986cc","system_id":"levelo_inurba_marseille","lat":43.27072,"lon":5.42274,"is_reserved":false,"is_disabled":false,"rental_uris":{"android":"levelo://app?vid=c3a2f022-b193-453f-9def-07d8d77986cc","ios":"levelo://app?vid=c3a2f022-b193-453f-9def-07d8d77986cc"},"vehicle_type_id":"4","last_reported":1731694331,"current_range_meters":20800,"station_id":"ce4bhk92rcd13ifvqgb0","pricing_plan_id":"cebpf4jnsgd1na2vs0mg"},{"bike_id":"bdefba07-f600-473e-ab92-524297e9908d","system_id":"levelo_inurba_marseille","lat":43.31884,"lon":5.40739,"is_reserved":false,"is_disabled":false,"rental_uris":{"android":"levelo://app?vid=bdefba07-f600-473e-ab92-524297e9908d","ios":"levelo://app?vid=bdefba07-f600-473e-ab92-524297e9908d"},"vehicle_type_id":"4","last_reported":1731694331,"current_range_meters":36000,"station_id":"ce4bhq12rcd13ifvqhig","pricing_plan_id":"cebpf4jnsgd1na2vs0mg"},{"bike_id":"3f3bf87b-8f48-449b-abff-9072969af85b","system_id":"levelo_inurba_marseille","lat":43.27938,"lon":5.41045,"is_reserved":false,"is_disabled":false,"rental_uris":{"android":"levelo://app?vid=3f3bf87b-8f48-449b-abff-9072969af85b","ios":"levelo://app?vid=3f3bf87b-8f48-449b-abff-9072969af85b"},"vehicle_type_id":"4","last_reported":1731694331,"current_range_meters":3200,"station_id":"ce4bhnp2rcd13ifvqh0g","pricing_plan_id":"cebpf4jnsgd1na2vs0mg"},{"bike_id":"68ef0691-fd36-4fc3-9c86-1195c57223fe","system_id":"levelo_inurba_marseille","lat":43.32106,"lon":5.36771,"is_reserved":false,"is_disabled":false,"rental_uris":{"android":"levelo://app?vid=68ef0691-fd36-4fc3-9c86-1195c57223fe","ios":"levelo://app?vid=68ef0691-fd36-4fc3-9c86-1195c57223fe"},"vehicle_type_id":"4","last_reported":1731694331,"current_range_meters":15200,"station_id":"ce4bhrh2rcd13ifvqhug","pricing_plan_id":"cebpf4jnsgd1na2vs0mg"},{"bike_id":"8b3ccab5-019e-418d-8b66-77e17fb026f7","system_id":"levelo_inurba_marseille","lat":43.24807,"lon":5.37458,"is_reserved":false,"is_disabled":false,"rental_uris":{"android":"levelo://app?vid=8b3ccab5-019e-418d-8b66-77e17fb026f7","ios":"levelo://app?vid=8b3ccab5-019e-418d-8b66-77e17fb026f7"},"vehicle_type_id":"4","last_reported":1731694331,"current_range_meters":32400,"station_id":"ce4bhgh2rcd13ifvqfb0","pricing_plan_id":"cebpf4jnsgd1na2vs0mg"},{"bike_id":"f15eaa58-f752-466f-be9a-e12ae87836f4","system_id":"levelo_inurba_marseille","lat":43.24807,"lon":5.37457,"is_reserved":false,"is_disabled":false,"rental_uris":{"android":"levelo://app?vid=f15eaa58-f752-466f-be9a-e12ae87836f4","ios":"levelo://app?vid=f15eaa58-f752-466f-be9a-e12ae87836f4"},"vehicle_type_id":"4","last_reported":1731694331,"current_range_meters":9600,"station_id":"ce4bhgh2rcd13ifvqfb0","pricing_plan_id":"cebpf4jnsgd1na2vs0mg"},{"bike_id":"697f9d6f-e6ae-40c5-9ea6-4f0a42a0e25d","system_id":"levelo_inurba_marseille","lat":43.29537,"lon":5.38546,"is_reserved":false,"is_disabled":false,"rental_uris":{"android":"levelo://app?vid=697f9d6f-e6ae-40c5-9ea6-4f0a42a0e25d","ios":"levelo://app?vid=697f9d6f-e6ae-40c5-9ea6-4f0a42a0e25d"},"vehicle_type_id":"4","last_reported":1731694331,"current_range_meters":38400,"station_id":"ce4bgih2rcd13ifvqba0","pricing_plan_id":"cebpf4jnsgd1na2vs0mg"},{"bike_id":"2ee424ce-655a-44b8-aa81-59574fed389b","system_id":"levelo_inurba_marseille","lat":43.33762,"lon":5.37494,"is_reserved":false,"is_disabled":false,"rental_uris":{"android":"levelo://app?vid=2ee424ce-655a-44b8-aa81-59574fed389b","ios":"levelo://app?vid=2ee424ce-655a-44b8-aa81-59574fed389b"},"vehicle_type_id":"4","last_reported":1731694331,"current_range_meters":22800,"station_id":"","pricing_plan_id":"cebpf4jnsgd1na2vs0mg"},{"bike_id":"c19b8800-0be4-4d22-a9cd-aec5d1ca91cf","system_id":"levelo_inurba_marseille","lat":43.28152,"lon":5.42651,"is_reserved":false,"is_disabled":false,"rental_uris":{"android":"levelo://app?vid=c19b8800-0be4-4d22-a9cd-aec5d1ca91cf","ios":"levelo://app?vid=c19b8800-0be4-4d22-a9cd-aec5d1ca91cf"},"vehicle_type_id":"4","last_reported":1731694331,"current_range_meters":16400,"station_id":"ce4bhnh2rcd13ifvqgug","pricing_plan_id":"cebpf4jnsgd1na2vs0mg"},{"bike_id":"549e75dd-af75-4e80-8bf3-763890571cd1","system_id":"levelo_inurba_marseille","lat":43.29418,"lon":5.38631,"is_reserved":false,"is_disabled":false,"rental_uris":{"android":"levelo://app?vid=549e75dd-af75-4e80-8bf3-763890571cd1","ios":"levelo://app?vid=549e75dd-af75-4e80-8bf3-763890571cd1"},"vehicle_type_id":"4","last_reported":1731694331,"current_range_meters":38800,"station_id":"ce4bh2h2rcd13ifvqdh0","pricing_plan_id":"cebpf4jnsgd1na2vs0mg"},{"bike_id":"3ef2c422-b61a-42e4-8666-799180f43689","system_id":"levelo_inurba_marseille","lat":43.30424,"lon":5.412529,"is_reserved":false,"is_disabled":false,"rental_uris":{"android":"levelo://app?vid=3ef2c422-b61a-42e4-8666-799180f43689","ios":"levelo://app?vid=3ef2c422-b61a-42e4-8666-799180f43689"},"vehicle_type_id":"4","last_reported":1731694331,"current_range_meters":19600,"station_id":"ce4bhop2rcd13ifvqh8g","pricing_plan_id":"cebpf4jnsgd1na2vs0mg"},{"bike_id":"74c0cd7d-aa20-4ef3-8423-ac67c8684f4a","system_id":"levelo_inurba_marseille","lat":43.2717,"lon":5.40996,"is_reserved":false,"is_disabled":false,"rental_uris":{"android":"levelo://app?vid=74c0cd7d-aa20-4ef3-8423-ac67c8684f4a","ios":"levelo://app?vid=74c0cd7d-aa20-4ef3-8423-ac67c8684f4a"},"vehicle_type_id":"4","last_reported":1731694331,"current_range_meters":25200,"station_id":"ce4bhl12rcd13ifvqgf0","pricing_plan_id":"cebpf4jnsgd1na2vs0mg"},{"bike_id":"337a84b5-5eb3-4349-ac41-2b6970ba31a8","system_id":"levelo_inurba_marseille","lat":43.330245,"lon":5.39044,"is_reserved":false,"is_disabled":false,"rental_uris":{"android":"levelo://app?vid=337a84b5-5eb3-4349-ac41-2b6970ba31a8","ios":"levelo://app?vid=337a84b5-5eb3-4349-ac41-2b6970ba31a8"},"vehicle_type_id":"4","last_reported":1731694331,"current_range_meters":28000,"station_id":"ce4bhr92rcd13ifvqhrg","pricing_plan_id":"cebpf4jnsgd1na2vs0mg"},{"bike_id":"9eedf4b8-a58a-414b-976b-f1bc6c228b63","system_id":"levelo_inurba_marseille","lat":43.3229,"lon":5.38257,"is_reserved":false,"is_disabled":false,"rental_uris":{"android":"levelo://app?vid=9eedf4b8-a58a-414b-976b-f1bc6c228b63","ios":"levelo://app?vid=9eedf4b8-a58a-414b-976b-f1bc6c228b63"},"vehicle_type_id":"4","last_reported":1731694331,"current_range_meters":6800,"station_id":"","pricing_plan_id":"cebpf4jnsgd1na2vs0mg"},{"bike_id":"2db8f5f6-496d-4a0b-825d-a39ac64d16d7","system_id":"levelo_inurba_marseille","lat":43.28927,"lon":5.36395,"is_reserved":false,"is_disabled":false,"rental_uris":{"android":"levelo://app?vid=2db8f5f6-496d-4a0b-825d-a39ac64d16d7","ios":"levelo://app?vid=2db8f5f6-496d-4a0b-825d-a39ac64d16d7"},"vehicle_type_id":"4","last_reported":1731694331,"current_range_meters":8000,"station_id":"ce4bhc92rcd13ifvqetg","pricing_plan_id":"cebpf4jnsgd1na2vs0mg"},{"bike_id":"4ce76e1d-4255-4b04-af72-2ca96782c92b","system_id":"levelo_inurba_marseille","lat":43.31687,"lon":5.40478,"is_reserved":false,"is_disabled":false,"rental_uris":{"android":"levelo://app?vid=4ce76e1d-4255-4b04-af72-2ca96782c92b","ios":"levelo://app?vid=4ce76e1d-4255-4b04-af72-2ca96782c92b"},"vehicle_type_id":"4","last_reported":1731694331,"current_range_meters":22400,"station_id":"ce4bh012rcd13ifvqd00","pricing_plan_id":"cebpf4jnsgd1na2vs0mg"},{"bike_id":"704e8176-bd11-49a5-8fa7-508c265c535a","system_id":"levelo_inurba_marseille","lat":43.25111,"lon":5.4032,"is_reserved":false,"is_disabled":false,"rental_uris":{"android":"levelo://app?vid=704e8176-bd11-49a5-8fa7-508c265c535a","ios":"levelo://app?vid=704e8176-bd11-49a5-8fa7-508c265c535a"},"vehicle_type_id":"4","last_reported":1731694331,"current_range_meters":27600,"station_id":"ce4bhlh2rcd13ifvqgig","pricing_plan_id":"cebpf4jnsgd1na2vs0mg"},{"bike_id":"fbc1bb1a-48bd-4a1f-ac5c-d1ecbeeef4a3","system_id":"levelo_inurba_marseille","lat":43.29421,"lon":5.38622,"is_reserved":false,"is_disabled":false,"rental_uris":{"android":"levelo://app?vid=fbc1bb1a-48bd-4a1f-ac5c-d1ecbeeef4a3","ios":"levelo://app?vid=fbc1bb1a-48bd-4a1f-ac5c-d1ecbeeef4a3"},"vehicle_type_id":"4","last_reported":1731694331,"current_range_meters":22400,"station_id":"ce4bh2h2rcd13ifvqdh0","pricing_plan_id":"cebpf4jnsgd1na2vs0mg"},{"bike_id":"adf4a864-3b0a-4615-9cd7-284442c268c9","system_id":"levelo_inurba_marseille","lat":43.29279,"lon":5.40115,"is_reserved":false,"is_disabled":false,"rental_uris":{"android":"levelo://app?vid=adf4a864-3b0a-4615-9cd7-284442c268c9","ios":"levelo://app?vid=adf4a864-3b0a-4615-9cd7-284442c268c9"},"vehicle_type_id":"4","last_reported":1731694331,"current_range_meters":6000,"station_id":"ce4bh312rcd13ifvqdk0","pricing_plan_id":"cebpf4jnsgd1na2vs0mg"},{"bike_id":"082a721c-df27-4da5-ba8b-8a8d7c5b1b48","system_id":"levelo_inurba_marseille","lat":43.24067,"lon":5.3776,"is_reserved":false,"is_disabled":false,"rental_uris":{"android":"levelo://app?vid=082a721c-df27-4da5-ba8b-8a8d7c5b1b48","ios":"levelo://app?vid=082a721c-df27-4da5-ba8b-8a8d7c5b1b48"},