{"last_updated":1757797636,"ttl":60,"version":"2.2","data":{"bikes":[{"bike_id":"0d5f76d9-c63d-4f13-9d2b-2a8b39aac158","system_id":"levelo_inurba_marseille","lat":43.26575,"lon":5.39034,"is_reserved":false,"is_disabled":false,"rental_uris":{"android":"levelo://app?vid=0d5f76d9-c63d-4f13-9d2b-2a8b39aac158","ios":"levelo://app?vid=0d5f76d9-c63d-4f13-9d2b-2a8b39aac158"},"vehicle_type_id":"4","last_reported":1757797636,"current_range_meters":2800,"station_id":"ce4bhe12rcd13ifvqf30","pricing_plan_id":"cebpf4jnsgd1na2vs0mg"},{"bike_id":"c39fad0d-ac6e-496e-a9c0-d06aafdb664f","system_id":"levelo_inurba_marseille","lat":43.31073,"lon":5.38356,"is_reserved":false,"is_disabled":true,"rental_uris":{"android":"levelo://app?vid=c39fad0d-ac6e-496e-a9c0-d06aafdb664f","ios":"levelo://app?vid=c39fad0d-ac6e-496e-a9c0-d06aafdb664f"},"vehicle_type_id":"4","last_reported":1757797636,"current_range_meters":2800,"station_id":"ce4bgv92rcd13ifvqcr0","pricing_plan_id":"cebpf4jnsgd1na2vs0mg"},{"bike_id":"8c7497ce-36c0-41ec-a3dd-706718f5d235","system_id":"levelo_inurba_marseille","lat":43.29367,"lon":5.37859,"is_reserved":false,"is_disabled":false,"rental_uris":{"android":"levelo://app?vid=8c7497ce-36c0-41ec-a3dd-706718f5d235","ios":"levelo://app?vid=8c7497ce-36c0-41ec-a3dd-706718f5d235"},"vehicle_type_id":"4","last_reported":1757797636,"current_range_meters":2000,"station_id":"ce4bgjh2rcd13ifvqbf0","pricing_plan_id":"cebpf4jnsgd1na2vs0mg"},{"bike_id":"eb6388e2-4db9-4044-8ff3-82182642633a","system_id":"levelo_inurba_marseille","lat":43.23177,"lon":5.39993,"is_reserved":false,"is_disabled":false,"rental_uris":{"android":"levelo://app?vid=eb6388e2-4db9-4044-8ff3-82182642633a","ios":"levelo://app?vid=eb6388e2-4db9-4044-8ff3-82182642633a"},"vehicle_type_id":"4","last_reported":1757797636,"current_range_meters":3200,"station_id":"ce4bhn12rcd13ifvqgqg","pricing_plan_id":"cebpf4jnsgd1na2vs0mg"},{"bike_id":"256f78fb-d327-4237-9582-b154afa07f2d","system_id":"levelo_inurba_marseille","lat":43.30443,"lon":5.3791,"is_reserved":false,"is_disabled":false,"rental_uris":{"android":"levelo://app?vid=256f78fb-d327-4237-9582-b154afa07f2d","ios":"levelo://app?vid=256f78fb-d327-4237-9582-b154afa07f2d"},"vehicle_type_id":"4","last_reported":1757797636,"current_range_meters":3200,"station_id":"","pricing_plan_id":"cebpf4jnsgd1na2vs0mg"},{"bike_id":"8e823669-a05c-4f14-a05f-6373bb94f16b","system_id":"levelo_inurba_marseille","lat":43.307288,"lon":5.372792,"is_reserved":false,"is_disabled":false,"rental_uris":{"android":"levelo://app?vid=8e823669-a05c-4f14-a05f-6373bb94f16b","ios":"levelo://app?vid=8e823669-a05c-4f14-a05f-6373bb94f16b"},"vehicle_type_id":"4","last_reported":1757797636,"current_range_meters":3600,"station_id":"","pricing_plan_id":"cebpf4jnsgd1na2vs0mg"},{"bike_id":"3258e62d-d54e-423a-82f8-b3e66399dbec","system_id":"levelo_inurba_marseille","lat":43.29804,"lon":5.381,"is_reserved":false,"is_disabled":true,"rental_uris":{"android":"levelo://app?vid=3258e62d-d54e-423a-82f8-b3e66399dbec","ios":"levelo://app?vid=3258e62d-d54e-423a-82f8-b3e66399dbec"},"vehicle_type_id":"4","last_reported":1757797636,"current_range_meters":3600,"station_id":"ce4bgip2rcd13ifvqbb0","pricing_plan_id":"cebpf4jnsgd1na2vs0mg"},{"bike_id":"8741aa08-fe30-4d9c-8964-071c97cbba0f","system_id":"levelo_inurba_marseille","lat":43.279113,"lon":5.395828,"is_reserved":false,"is_disabled":false,"rental_uris":{"android":"levelo://app?vid=8741aa08-fe30-4d9c-8964-071c97cbba0f","ios":"levelo://app?vid=8741aa08-fe30-4d9c-8964-071c97cbba0f"},"vehicle_type_id":"4","last_reported":1757797636,"current_range_meters":3600,"station_id":"ce4bhf92rcd13ifvqf40","pricing_plan_id":"cebpf4jnsgd1na2vs0mg"},{"bike_id":"fe8d88d6-81c3-42a8-85bb-3d0aa4841db3","system_id":"levelo_inurba_marseille","lat":43.337444,"lon":5.374475,"is_reserved":false,"is_disabled":false,"rental_uris":{"android":"levelo://app?vid=fe8d88d6-81c3-42a8-85bb-3d0aa4841db3","ios":"levelo://app?vid=fe8d88d6-81c3-42a8-85bb-3d0aa4841db3"},"vehicle_type_id":"4","last_reported":1757797636,"current_range_meters":3600,"station_id":"","pricing_plan_id":"cebpf4jnsgd1na2vs0mg"},{"bike_id":"d1de2b7d-3583-4df3-8bfa-43eda5116068","system_id":"levelo_inurba_marseille","lat":43.3374,"lon":5.37468,"is_reserved":false,"is_disabled":false,"rental_uris":{"android":"levelo://app?vid=d1de2b7d-3583-4df3-8bfa-43eda5116068","ios":"levelo://app?vid=d1de2b7d-3583-4df3-8bfa-43eda5116068"},"vehicle_type_id":"4","last_reported":1757797636,"current_range_meters":3600,"station_id":"","pricing_plan_id":"cebpf4jnsgd1na2vs0mg"},{"bike_id":"999df056-799c-417e-807e-52608d0b797e","system_id":"levelo_inurba_marseille","lat":43.297101,"lon":5.377007,"is_reserved":false,"is_disabled":false,"rental_uris":{"android":"levelo://app?vid=999df056-799c-417e-807e-52608d0b797e","ios":"levelo://app?vid=999df056-799c-417e-807e-52608d0b797e"},"vehicle_type_id":"4","last_reported":1757797636,"current_range_meters":4000,"station_id":"","pricing_plan_id":"cebpf4jnsgd1na2vs0mg"},{"bike_id":"fafd5880-0544-48be-a2a5-5fe3f2bbd11e","system_id":"levelo_inurba_marseille","lat":43.30148,"lon":5.37413,"is_reserved":false,"is_disabled":false,"rental_uris":{"android":"levelo://app?vid=fafd5880-0544-48be-a2a5-5fe3f2bbd11e","ios":"levelo://app?vid=fafd5880-0544-48be-a2a5-5fe3f2bbd11e"},"vehicle_type_id":"4","last_reported":1757797636,"current_range_meters":3600,"station_id":"ce4bgs92rcd13ifvqcc0","pricing_plan_id":"cebpf4jnsgd1na2vs0mg"},{"bike_id":"efcbc95c-850b-4cc0-9dcc-09f914352431","system_id":"levelo_inurba_marseille","lat":43.22945,"lon":5.35389,"is_reserved":false,"is_disabled":false,"rental_uris":{"android":"levelo://app?vid=efcbc95c-850b-4cc0-9dcc-09f914352431","ios":"levelo://app?vid=efcbc95c-850b-4cc0-9dcc-09f914352431"},"vehicle_type_id":"4","last_reported":1757797636,"current_range_meters":4000,"station_id":"cpo3532slgdg3j2ikp40","pricing_plan_id":"cebpf4jnsgd1na2vs0mg"},{"bike_id":"a9d5c3cd-078d-4ccf-9874-19144ad390c1","system_id":"levelo_inurba_marseille","lat":43.323347,"lon":5.406149,"is_reserved":false,"is_disabled":false,"rental_uris":{"android":"levelo://app?vid=a9d5c3cd-078d-4ccf-9874-19144ad390c1","ios":"levelo://app?vid=a9d5c3cd-078d-4ccf-9874-19144ad390c1"},"vehicle_type_id":"4","last_reported":1757797636,"current_range_meters":4000,"station_id":"ce4bhq92rcd13ifvqhjg","pricing_plan_id":"cebpf4jnsgd1na2vs0mg"},{"bike_id":"d1208639-5703-4ac3-a303-6e72a5788218","system_id":"levelo_inurba_marseille","lat":43.33753,"lon":5.37475,"is_reserved":false,"is_disabled":false,"rental_uris":{"android":"levelo://app?vid=d1208639-5703-4ac3-a303-6e72a5788218","ios":"levelo://app?vid=d1208639-5703-4ac3-a303-6e72a5788218"},"vehicle_type_id":"4","last_reported":1757797636,"current_range_meters":4000,"station_id":"","pricing_plan_id":"cebpf4jnsgd1na2vs0mg"},{"bike_id":"db6c295f-3532-411a-93e2-a3bbae022de2","system_id":"levelo_inurba_marseille","lat":43.27381,"lon":5.36251,"is_reserved":false,"is_disabled":false,"rental_uris":{"android":"levelo://app?vid=db6c295f-3532-411a-93e2-a3bbae022de2","ios":"levelo://app?vid=db6c295f-3532-411a-93e2-a3bbae022de2"},"vehicle_type_id":"4","last_reported":1757797636,"current_range_meters":4400,"station_id":"ce4bhbh2rcd13ifvqeo0","pricing_plan_id":"cebpf4jnsgd1na2vs0mg"},{"bike_id":"fe8ea19a-9452-430b-9391-4bd937dd3622","system_id":"levelo_inurba_marseille","lat":43.28325,"lon":5.38941,"is_reserved":false,"is_disabled":false,"rental_uris":{"android":"levelo://app?vid=fe8ea19a-9452-430b-9391-4bd937dd3622","ios":"levelo://app?vid=fe8ea19a-9452-430b-9391-4bd937dd3622"},"vehicle_type_id":"4","last_reported":1757797636,"current_range_meters":4400,"station_id":"","pricing_plan_id":"cebpf4jnsgd1na2vs0mg"},{"bike_id":"bcf4ebcb-b745-42be-9df5-786d593eb27e","system_id":"levelo_inurba_marseille","lat":43.29273,"lon":5.36841,"is_reserved":false,"is_disabled":false,"rental_uris":{"android":"levelo://app?vid=bcf4ebcb-b745-42be-9df5-786d593eb27e","ios":"levelo://app?vid=bcf4ebcb-b745-42be-9df5-786d593eb27e"},"vehicle_type_id":"4","last_reported":1757797636,"current_range_meters":4400,"station_id":"ce4bhbp2rcd13ifvqesg","pricing_plan_id":"cebpf4jnsgd1na2vs0mg"},{"bike_id":"c4c9a1d6-ac8a-42ea-b5a3-53c06657be39","system_id":"levelo_inurba_marseille","lat":43.24666,"lon":5.38158,"is_reserved":false,"is_disabled":false,"rental_uris":{"android":"levelo://app?vid=c4c9a1d6-ac8a-42ea-b5a3-53c06657be39","ios":"levelo://app?vid=c4c9a1d6-ac8a-42ea-b5a3-53c06657be39"},"vehicle_type_id":"4","last_reported":1757797636,"current_range_meters":4400,"station_id":"ce4bhih2rcd13ifvqfr0","pricing_plan_id":"cebpf4jnsgd1na2vs0mg"},{"bike_id":"8fb02c31-b078-44e9-b72b-5e66b5abfa9c","system_id":"levelo_inurba_marseille","lat":43.304609,"lon":5.379066,"is_reserved":false,"is_disabled":false,"rental_uris":{"android":"levelo://app?vid=8fb02c31-b078-44e9-b72b-5e66b5abfa9c","ios":"levelo://app?vid=8fb02c31-b078-44e9-b72b-5e66b5abfa9c"},"vehicle_type_id":"4","last_reported":1757797636,"current_range_meters":4800,"station_id":"ce4bgup2rcd13ifvqcn0","pricing_plan_id":"cebpf4jnsgd1na2vs0mg"},{"bike_id":"a1ea7248-fcbd-4bf1-9b10-95f9ee710a57","system_id":"levelo_inurba_marseille","lat":43.28468,"lon":5.38444,"is_reserved":false,"is_disabled":false,"rental_uris":{"android":"levelo://app?vid=a1ea7248-fcbd-4bf1-9b10-95f9ee710a57","ios":"levelo://app?vid=a1ea7248-fcbd-4bf1-9b10-95f9ee710a57"},"vehicle_type_id":"4","last_reported":1757797636,"current_range_meters":4800,"station_id":"ce4bh512rcd13ifvqe3g","pricing_plan_id":"cebpf4jnsgd1na2vs0mg"},{"bike_id":"646961bf-46f3-4b7e-8767-02cd8b541df8","system_id":"levelo_inurba_marseille","lat":43.30466,"lon":5.37911,"is_reserved":false,"is_disabled":false,"rental_uris":{"android":"levelo://app?vid=646961bf-46f3-4b7e-8767-02cd8b541df8","ios":"levelo://app?vid=646961bf-46f3-4b7e-8767-02cd8b541df8"},"vehicle_type_id":"4","last_reported":1757797636,"current_range_meters":5600,"station_id":"","pricing_plan_id":"cebpf4jnsgd1na2vs0mg"},{"bike_id":"e7b57c99-b225-4a11-bb07-a15c96cd8971","system_id":"levelo_inurba_marseille","lat":43.27947,"lon":5.41063,"is_reserved":false,"is_disabled":false,"rental_uris":{"android":"levelo://app?vid=e7b57c99-b225-4a11-bb07-a15c96cd8971","ios":"levelo://app?vid=e7b57c99-b225-4a11-bb07-a15c96cd8971"},"vehicle_type_id":"4","last_reported":1757797636,"current_range_meters":5600,"station_id":"ce4bhnp2rcd13ifvqh0g","pricing_plan_id":"cebpf4jnsgd1na2vs0mg"},{"bike_id":"b17907c6-7caa-4295-99f3-d99a3ddac699","system_id":"levelo_inurba_marseille","lat":43.28491,"lon":5.38429,"is_reserved":false,"is_disabled":false,"rental_uris":{"android":"levelo://app?vid=b17907c6-7caa-4295-99f3-d99a3ddac699","ios":"levelo://app?vid=b17907c6-7caa-4295-99f3-d99a3ddac699"},"vehicle_type_id":"4","last_reported":1757797636,"current_range_meters":6000,"station_id":"ce4bh512rcd13ifvqe3g","pricing_plan_id":"cebpf4jnsgd1na2vs0mg"},{"bike_id":"f52d059a-0239-4182-8b59-0edd4b763a98","system_id":"levelo_inurba_marseille","lat":43.24403,"lon":5.37097,"is_reserved":false,"is_disabled":false,"rental_uris":{"android":"levelo://app?vid=f52d059a-0239-4182-8b59-0edd4b763a98","ios":"levelo://app?vid=f52d059a-0239-4182-8b59-0edd4b763a98"},"vehicle_type_id":"4","last_reported":1757797636,"current_range_meters":6000,"station_id":"","pricing_plan_id":"cebpf4jnsgd1na2vs0mg"},{"bike_id":"5044162e-6817-4aec-9a91-487c2fc824e7","system_id":"levelo_inurba_marseille","lat":43.30463,"lon":5.37904,"is_reserved":false,"is_disabled":false,"rental_uris":{"android":"levelo://app?vid=5044162e-6817-4aec-9a91-487c2fc824e7","ios":"levelo://app?vid=5044162e-6817-4aec-9a91-487c2fc824e7"},"vehicle_type_id":"4","last_reported":1757797636,"current_range_meters":6400,"station_id":"","pricing_plan_id":"cebpf4jnsgd1na2vs0mg"},{"bike_id":"b4ca9a65-c609-4f02-8779-6b3af0c42c25","system_id":"levelo_inurba_marseille","lat":43.299,"lon":5.43662,"is_reserved":false,"is_disabled":false,"rental_uris":{"android":"levelo://app?vid=b4ca9a65-c609-4f02-8779-6b3af0c42c25","ios":"levelo://app?vid=b4ca9a65-c609-4f02-8779-6b3af0c42c25"},"vehicle_type_id":"4","last_reported":1757797636,"current_range_meters":6400,"station_id":"ce4bhpp2rcd13ifvqhfg","pricing_plan_id":"cebpf4jnsgd1na2vs0mg"},{"bike_id":"dcd108da-b958-4b23-8421-65b428577bd0","system_id":"levelo_inurba_marseille","lat":43.2808,"lon":5.39665,"is_reserved":false,"is_disabled":false,"rental_uris":{"android":"levelo://app?vid=dcd108da-b958-4b23-8421-65b428577bd0","ios":"levelo://app?vid=dcd108da-b958-4b23-8421-65b428577bd0"},"vehicle_type_id":"4","last_reported":1757797636,"current_range_meters":6800,"station_id":"ce4bho12rcd13ifvqh2g","pricing_plan_id":"cebpf4jnsgd1na2vs0mg"},{"bike_id":"f78cd658-7843-4175-9cdd-a3c5491aac3a","system_id":"levelo_inurba_marseille","lat":43.2894,"lon":5.36638,"is_reserved":false,"is_disabled":false,"rental_uris":{"android":"levelo://app?vid=f78cd658-7843-4175-9cdd-a3c5491aac3a","ios":"levelo://app?vid=f78cd658-7843-4175-9cdd-a3c5491aac3a"},"vehicle_type_id":"4","last_reported":1757797636,"current_range_meters":6800,"station_id":"ce4bhap2rcd13ifvqek0","pricing_plan_id":"cebpf4jnsgd1na2vs0mg"},{"bike_id":"38b4172e-2897-44d5-a610-78b0d5ed5230","system_id":"levelo_inurba_marseille","lat":43.29291,"lon":5.3747,"is_reserved":false,"is_disabled":false,"rental_uris":{"android":"levelo://app?vid=38b4172e-2897-44d5-a610-78b0d5ed5230","ios":"levelo://app?vid=38b4172e-2897-44d5-a610-78b0d5ed5230"},"vehicle_type_id":"4","last_reported":1757797636,"current_range_meters":7200,"station_id":"ce4bgi12rcd13ifvqb70","pricing_plan_id":"cebpf4jnsgd1na2vs0mg"},{"bike_id":"dbbfb935-0bb0-4588-9598-d952a992d421","system_id":"levelo_inurba_marseille","lat":43.30883,"lon":5.3719,"is_reserved":false,"is_disabled":false,"rental_uris":{"android":"levelo://app?vid=dbbfb935-0bb0-4588-9598-d952a992d421","ios":"levelo://app?vid=dbbfb935-0bb0-4588-9598-d952a992d421"},"vehicle_type_id":"4","last_reported":1757797636,"current_range_meters":7200,"station_id":"ce4bguh2rcd13ifvqckg","pricing_plan_id":"cebpf4jnsgd1na2vs0mg"},{"bike_id":"0eac0c05-dbf1-4c0b-af6d-53c5df91e290","system_id":"levelo_inurba_marseille","lat":43.2966,"lon":5.37173,"is_reserved":false,"is_disabled":false,"rental_uris":{"android":"levelo://app?vid=0eac0c05-dbf1-4c0b-af6d-53c5df91e290","ios":"levelo://app?vid=0eac0c05-dbf1-4c0b-af6d-53c5df91e290"},"vehicle_type_id":"4","last_reported":1757797636,"current_range_meters":7200,"station_id":"","pricing_plan_id":"cebpf4jnsgd1na2vs0mg"},{"bike_id":"972b4c5f-3a00-4bb2-9116-b81f2cecc9f2","system_id":"levelo_inurba_marseille","lat":43.33764,"lon":5.37483,"is_reserved":false,"is_disabled":false,"rental_uris":{"android":"levelo://app?vid=972b4c5f-3a00-4bb2-9116-b81f2cecc9f2","ios":"levelo://app?vid=972b4c5f-3a00-4bb2-9116-b81f2cecc9f2"},"vehicle_type_id":"4","last_reported":1757797636,"current_range_meters":7200,"station_id":"","pricing_plan_id":"cebpf4jnsgd1na2vs0mg"},{"bike_id":"d8f70efe-b3d4-4c6b-a53c-3f0190de4b9c","system_id":"levelo_inurba_marseille","lat":43.30325,"lon":5.404388,"is_reserved":false,"is_disabled":false,"rental_uris":{"android":"levelo://app?vid=d8f70efe-b3d4-4c6b-a53c-3f0190de4b9c","ios":"levelo://app?vid=d8f70efe-b3d4-4c6b-a53c-3f0190de4b9c"},"vehicle_type_id":"4","last_reported":1757797636,"current_range_meters":8000,"station_id":"ce4bh012rcd13ifvqd10","pricing_plan_id":"cebpf4jnsgd1na2vs0mg"},{"bike_id":"141081e1-2c1c-4fb1-9e43-afb07defefc8","system_id":"levelo_inurba_marseille","lat":43.30453,"lon":5.3791,"is_reserved":false,"is_disabled":false,"rental_uris":{"android":"levelo://app?vid=141081e1-2c1c-4fb1-9e43-afb07defefc8","ios":"levelo://app?vid=141081e1-2c1c-4fb1-9e43-afb07defefc8"},"vehicle_type_id":"4","last_reported":1757797636,"current_range_meters":8000,"station_id":"","pricing_plan_id":"cebpf4jnsgd1na2vs0mg"},{"bike_id":"4c1cf1ea-5b82-43b9-ab7a-13709ed8e0d9","system_id":"levelo_inurba_marseille","lat":43.29538,"lon":5.38545,"is_reserved":false,"is_disabled":false,"rental_uris":{"android":"levelo://app?vid=4c1cf1ea-5b82-43b9-ab7a-13709ed8e0d9","ios":"levelo://app?vid=4c1cf1ea-5b82-43b9-ab7a-13709ed8e0d9"},"vehicle_type_id":"4","last_reported":1757797636,"current_range_meters":8000,"station_id":"ce4bgih2rcd13ifvqba0","pricing_plan_id":"cebpf4jnsgd1na2vs0mg"},{"bike_id":"a3977072-5f91-4a68-b0d6-dc3cb909a337","system_id":"levelo_inurba_marseille","lat":43.33769,"lon":5.37488,"is_reserved":false,"is_disabled":false,"rental_uris":{"android":"levelo://app?vid=a3977072-5f91-4a68-b0d6-dc3cb909a337","ios":"levelo://app?vid=a3977072-5f91-4a68-b0d6-dc3cb909a337"},"vehicle_type_id":"4","last_reported":1757797636,"current_range_meters":8400,"station_id":"","pricing_plan_id":"cebpf4jnsgd1na2vs0mg"},{"bike_id":"202633c1-4070-4798-8b68-51f4eaee5281","system_id":"levelo_inurba_marseille","lat":43.2925,"lon":5.38327,"is_reserved":false,"is_disabled":false,"rental_uris":{"android":"levelo://app?vid=202633c1-4070-4798-8b68-51f4eaee5281","ios":"levelo://app?vid=202633c1-4070-4798-8b68-51f4eaee5281"},"vehicle_type_id":"4","last_reported":1757797636,"current_range_meters":8400,"station_id":"","pricing_plan_id":"cebpf4jnsgd1na2vs0mg"},{"bike_id":"52b2c862-201b-4d81-a71a-8d999ce52dd5","system_id":"levelo_inurba_marseille","lat":43.296174,"lon":5.371659,"is_reserved":false,"is_disabled":false,"rental_uris":{"android":"levelo://app?vid=52b2c862-201b-4d81-a71a-8d999ce52dd5","ios":"levelo://app?vid=52b2c862-201b-4d81-a71a-8d999ce52dd5"},"vehicle_type_id":"4","last_reported":1757797636,"current_range_meters":8400,"station_id":"ce4bgnh2rcd13ifvqc0g","pricing_plan_id":"cebpf4jnsgd1na2vs0mg"},{"bike_id":"b4239516-fa72-49f8-8fc7-b25efe55f7aa","system_id":"levelo_inurba_marseille","lat":43.27815,"lon":5.40714,"is_reserved":false,"is_disabled":false,"rental_uris":{"android":"levelo://app?vid=b4239516-fa72-49f8-8fc7-b25efe55f7aa","ios":"levelo://app?vid=b4239516-fa72-49f8-8fc7-b25efe55f7aa"},"vehicle_type_id":"4","last_reported":1757797636,"current_range_meters":8000,"station_id":"ce4bhnh2rcd13ifvqgtg","pricing_plan_id":"cebpf4jnsgd1na2vs0mg"},{"bike_id":"364d5536-40b8-4b57-8c67-2fe636291a65","system_id":"levelo_inurba_marseille","lat":43.2318,"lon":5.3999,"is_reserved":false,"is_disabled":false,"rental_uris":{"android":"levelo://app?vid=364d5536-40b8-4b57-8c67-2fe636291a65","ios":"levelo://app?vid=364d5536-40b8-4b57-8c67-2fe636291a65"},"vehicle_type_id":"4","last_reported":1757797636,"current_range_meters":8400,"station_id":"ce4bhn12rcd13ifvqgqg","pricing_plan_id":"cebpf4jnsgd1na2vs0mg"},{"bike_id":"56ec43eb-35dc-4fbb-9dea-cadecd4a7884","system_id":"levelo_inurba_marseille","lat":43.29251,"lon":5.38438,"is_reserved":false,"is_disabled":false,"rental_uris":{"android":"levelo://app?vid=56ec43eb-35dc-4fbb-9dea-cadecd4a7884","ios":"levelo://app?vid=56ec43eb-35dc-4fbb-9dea-cadecd4a7884"},"vehicle_type_id":"4","last_reported":1757797636,"current_range_meters":8400,"station_id":"ce4bh692rcd13ifvqea0","pricing_plan_id":"cebpf4jnsgd1na2vs0mg"},{"bike_id":"6e59f3a2-8d5f-43b8-809a-186247e3e0d0","system_id":"levelo_inurba_marseille","lat":43.23164,"lon":5.39995,"is_reserved":false,"is_disabled":false,"rental_uris":{"android":"levelo://app?vid=6e59f3a2-8d5f-43b8-809a-186247e3e0d0","ios":"levelo://app?vid=6e59f3a2-8d5f-43b8-809a-186247e3e0d0"},"vehicle_type_id":"4","last_reported":1757797636,"current_range_meters":8400,"station_id":"ce4bhn12rcd13ifvqgqg","pricing_plan_id":"cebpf4jnsgd1na2vs0mg"},{"bike_id":"f2014345-d316-40a5-981d-af3cc9540ec8","system_id":"levelo_inurba_marseille","lat":43.24664,"lon":5.38169,"is_reserved":false,"is_disabled":false,"rental_uris":{"android":"levelo://app?vid=f2014345-d316-40a5-981d-af3cc9540ec8","ios":"levelo://app?vid=f2014345-d316-40a5-981d-af3cc9540ec8"},"vehicle_type_id":"4","last_reported":1757797636,"current_range_meters":8800,"station_id":"ce4bhih2rcd13ifvqfr0","pricing_plan_id":"cebpf4jnsgd1na2vs0mg"},{"bike_id":"ae2200e0-55fa-4d16-87bf-72ca65d67371","system_id":"levelo_inurba_marseille","lat":43.283706,"lon":5.38457,"is_reserved":false,"is_disabled":true,"rental_uris":{"android":"levelo://app?vid=ae2200e0-55fa-4d16-87bf-72ca65d67371","ios":"levelo://app?vid=ae2200e0-55fa-4d16-87bf-72ca65d67371"},"vehicle_type_id":"4","last_reported":1757797636,"current_range_meters":8800,"station_id":"","pricing_plan_id":"cebpf4jnsgd1na2vs0mg"},{"bike_id":"3bd595b7-af3b-43b1-8697-1bcb2a61af6f","system_id":"levelo_inurba_marseille","lat":43.28001,"lon":5.40014,"is_reserved":false,"is_disabled":true,"rental_uris":{"android":"levelo://app?vid=3bd595b7-af3b-43b1-8697-1bcb2a61af6f","ios":"levelo://app?vid=3bd595b7-af3b-43b1-8697-1bcb2a61af6f"},"vehicle_type_id":"4","last_reported":1757797636,"current_range_meters":8800,"station_id":"ce4bho92rcd13ifvqh4g","pricing_plan_id":"cebpf4jnsgd1na2vs0mg"},{"bike_id":"37da0422-d37f-40ac-b96c-e515ad19e681","system_id":"levelo_inurba_marseille","lat":43.29226,"lon":5.36158,"is_reserved":false,"is_disabled":false,"rental_uris":{"android":"levelo://app?vid=37da0422-d37f-40ac-b96c-e515ad19e681","ios":"levelo://app?vid=37da0422-d37f-40ac-b96c-e515ad19e681"},"vehicle_type_id":"4","last_reported":1757797636,"current_range_meters":8800,"station_id":"","pricing_plan_id":"cebpf4jnsgd1na2vs0mg"},{"bike_id":"07126d2a-5fd2-452d-8d03-e2d4e2410e4c","system_id":"levelo_inurba_marseille","lat":43.26225,"lon":5.40455,"is_reserved":false,"is_disabled":false,"rental_uris":{"android":"levelo://app?vid=07126d2a-5fd2-452d-8d03-e2d4e2410e4c","ios":"levelo://app?vid=07126d2a-5fd2-452d-8d03-e2d4e2410e4c"},"vehicle_type_id":"4","last_reported":1757797636,"current_range_meters":8800,"station_id":"ce4bhmh2rcd13ifvqgmg","pricing_plan_id":"cebpf4jnsgd1na2vs0mg"},{"bike_id":"4093314e-d986-4f3e-a7aa-4955edc229f0","system_id":"levelo_inurba_marseille","lat":43.2928,"lon":5.40115,"is_reserved":false,"is_disabled":false,"rental_uris":{"android":"levelo://app?vid=4093314e-d986-4f3e-a7aa-4955edc229f0","ios":"levelo://app?vid=4093314e-d986-4f3e-a7aa-4955edc229f0"},"vehicle_type_id":"4","last_reported":1757797636,"current_range_meters":8800,"station_id":"ce4bh312rcd13ifvqdk0","pricing_plan_id":"cebpf4jnsgd1na2vs0mg"},{"bike_id":"e4068744-5d25-4b07-891c-8659872c781e","system_id":"levelo_inurba_marseille","lat":43.26029,"lon":5.37555,"is_reserved":false,"is_disabled":false,"rental_uris":{"android":"levelo://app?vid=e4068744-5d25-4b07-891c-8659872c781e","ios":"levelo://app?vid=e4068744-5d25-4b07-891c-8659872c781e"},"vehicle_type_id":"4","last_reported":1757797636,"current_range_meters":8800,"station_id":"ce4bhgh2rcd13ifvqfa0","pricing_plan_id":"cebpf4jnsgd1na2vs0mg"},{"bike_id":"eaa220fb-5349-44c0-849a-e1e199bab0e0","system_id":"levelo_inurba_marseille","lat":43.312032,"lon":5.367326,"is_reserved":false,"is_disabled":true,"rental_uris":{"android":"levelo://app?vid=eaa220fb-5349-44c0-849a-e1e199bab0e0","ios":"levelo://app?vid=eaa220fb-5349-44c0-849a-e1e199bab0e0"},"vehicle_type_id":"4","last_reported":1757797636,"current_range_meters":9200,"station_id":"","pricing_plan_id":"cebpf4jnsgd1na2vs0mg"},{"bike_id":"95228931-f122-4e75-97af-01dc8ce42769","system_id":"levelo_inurba_marseille","lat":43.2693,"lon":5.40247,"is_reserved":false,"is_disabled":false,"rental_uris":{"android":"levelo://app?vid=95228931-f122-4e75-97af-01dc8ce42769","ios":"levelo://app?vid=95228931-f122-4e75-97af-01dc8ce42769"},"vehicle_type_id":"4","last_reported":1757797636,"current_range_meters":9200,"station_id":"cjm6bp8fraef2m0cb0m0","pricing_plan_id":"cebpf4jnsgd1na2vs0mg"},{"bike_id":"775af279-8ac9-4585-9121-809be9b13265","system_id":"levelo_inurba_marseille","lat":43.337775,"lon":5.374412,"is_reserved":false,"is_disabled":false,"rental_uris":{"android":"levelo://app?vid=775af279-8ac9-4585-9121-809be9b13265","ios":"levelo://app?vid=775af279-8ac9-4585-9121-809be9b13265"},"vehicle_type_id":"4","last_reported":1757797636,"current_range_meters":9200,"station_id":"","pricing_plan_id":"cebpf4jnsgd1na2vs0mg"},{"bike_id":"5fcae990-8e3d-469f-95ca-d1ae3d28a91b","system_id":"levelo_inurba_marseille","lat":43.3064,"lon":5.40094,"is_reserved":false,"is_disabled":false,"rental_uris":{"android":"levelo://app?vid=5fcae990-8e3d-469f-95ca-d1ae3d28a91b","ios":"levelo://app?vid=5fcae990-8e3d-469f-95ca-d1ae3d28a91b"},"vehicle_type_id":"4","last_reported":1757797636,"current_range_meters":9200,"station_id":"ce4bh112rcd13ifvqda0","pricing_plan_id":"cebpf4jnsgd1na2vs0mg"},{"bike_id":"6b840e18-f568-449f-9ed2-7b4167ae29fc","system_id":"levelo_inurba_marseille","lat":43.29267,"lon":5.38448,"is_reserved":false,"is_disabled":false,"rental_uris":{"android":"levelo://app?vid=6b840e18-f568-449f-9ed2-7b4167ae29fc","ios":"levelo://app?vid=6b840e18-f568-449f-9ed2-7b4167ae29fc"},"vehicle_type_id":"4","last_reported":1757797636,"current_range_meters":9200,"station_id":"ce4bh692rcd13ifvqea0","pricing_plan_id":"cebpf4jnsgd1na2vs0mg"},{"bike_id":"c5d0a267-63b8-45b1-8db4-f64d80554eb4","system_id":"levelo_inurba_marseille","lat":43.286,"lon":5.37069,"is_reserved":false,"is_disabled":true,"rental_uris":{"android":"levelo://app?vid=c5d0a267-63b8-45b1-8db4-f64d80554eb4","ios":"levelo://app?vid=c5d0a267-63b8-45b1-8db4-f64d80554eb4"},"vehicle_type_id":"4","last_reported":1757797636,"current_range_meters":9200,"station_id":"ce4bht12rcd13ifvqi60","pricing_plan_id":"cebpf4jnsgd1na2vs0mg"},{"bike_id":"fa1e074e-a3ee-4bf9-b23a-5c230e6a8b25","system_id":"levelo_inurba_marseille","lat":43.31363,"lon":5.3849,"is_reserved":false,"is_disabled":false,"rental_uris":{"android":"levelo://app?vid=fa1e074e-a3ee-4bf9-b23a-5c230e6a8b25","ios":"levelo://app?vid=fa1e074e-a3ee-4bf9-b23a-5c230e6a8b25"},"vehicle_type_id":"4","last_reported":1757797636,"current_range_meters":9200,"station_id":"ce4bgt92rcd13ifvqcf0","pricing_plan_id":"cebpf4jnsgd1na2vs0mg"},{"bike_id":"cfb056af-5993-4f1c-8cff-63d991f2db6d","system_id":"levelo_inurba_marseille","lat":43.28401,"lon":5.3754,"is_reserved":false,"is_disabled":false,"rental_uris":{"android":"levelo://app?vid=cfb056af-5993-4f1c-8cff-63d991f2db6d","ios":"levelo://app?vid=cfb056af-5993-4f1c-8cff-63d991f2db6d"},"vehicle_type_id":"4","last_reported":1757797636,"current_range_meters":9200,"station_id":"ce4bh412rcd13ifvqds0","pricing_plan_id":"cebpf4jnsgd1na2vs0mg"},{"bike_id":"ba46a4b6-1b90-4c16-85ba-7e171043c85f","system_id":"levelo_inurba_marseille","lat":43.3171,"lon":5.43709,"is_reserved":false,"is_disabled":false,"rental_uris":{"android":"levelo://app?vid=ba46a4b6-1b90-4c16-85ba-7e171043c85f","ios":"levelo://app?vid=ba46a4b6-1b90-4c16-85ba-7e171043c85f"},"vehicle_type_id":"4","last_reported":1757797636,"current_range_meters":9200,"station_id":"ce4bhp92rcd13ifvqhcg","pricing_plan_id":"cebpf4jnsgd1na2vs0mg"},{"bike_id":"d406f24a-abe9-4847-847c-8dd916d644d6","system_id":"levelo_inurba_marseille","lat":43.29028,"lon":5.39977,"is_reserved":false,"is_disabled":false,"rental_uris":{"android":"levelo://app?vid=d406f24a-abe9-4847-847c-8dd916d644d6","ios":"levelo://app?vid=d406f24a-abe9-4847-847c-8dd916d644d6"},"vehicle_type_id":"4","last_reported":1757797636,"current_range_meters":9200,"station_id":"ce4bh392rcd13ifvqdm0","pricing_plan_id":"cebpf4jnsgd1na2vs0mg"},{"bike_id":"b3f12e9a-4da5-4c47-831e-ab7e5880ea29","system_id":"levelo_inurba_marseille","lat":43.32004,"lon":5.38153,"is_reserved":false,"is_disabled":false,"rental_uris":{"android":"levelo://app?vid=b3f12e9a-4da5-4c47-831e-ab7e5880ea29","ios":"levelo://app?vid=b3f12e9a-4da5-4c47-831e-ab7e5880ea29"},"vehicle_type_id":"4","last_reported":1757797636,"current_range_meters":9600,"station_id":"ce4bhr12rcd13ifvqhpg","pricing_plan_id":"cebpf4jnsgd1na2vs0mg"},{"bike_id":"4266b374-d4bf-4fd2-bb94-51b2d7d40946","system_id":"levelo_inurba_marseille","lat":43.22565,"lon":5.41644,"is_reserved":false,"is_disabled":false,"rental_uris":{"android":"levelo://app?vid=4266b374-d4bf-4fd2-bb94-51b2d7d40946","ios":"levelo://app?vid=4266b374-d4bf-4fd2-bb94-51b2d7d40946"},"vehicle_type_id":"4","last_reported":1757797636,"current_range_meters":9600,"station_id":"st_d2o4gvlbi1j2169b742g","pricing_plan_id":"cebpf4jnsgd1na2vs0mg"},{"bike_id":"89724e0f-d6a6-4e81-9dc8-40ed9db09b04","system_id":"levelo_inurba_marseille","lat":43.28606,"lon":5.37061,"is_reserved":false,"is_disabled":false,"rental_uris":{"android":"levelo://app?vid=89724e0f-d6a6-4e81-9dc8-40ed9db09b04","ios":"levelo://app?vid=89724e0f-d6a6-4e81-9dc8-40ed9db09b04"},"vehicle_type_id":"4","last_reported":1757797636,"current_range_meters":9600,"station_id":"ce4bht12rcd13ifvqi60","pricing_plan_id":"cebpf4jnsgd1na2vs0mg"},{"bike_id":"71f23975-df19-4c8e-a1fd-40358f5edeef","system_id":"levelo_inurba_marseille","lat":43.24802,"lon":5.37455,"is_reserved":false,"is_disabled":false,"rental_uris":{"android":"levelo://app?vid=71f23975-df19-4c8e-a1fd-40358f5edeef","ios":"levelo://app?vid=71f23975-df19-4c8e-a1fd-40358f5edeef"},"vehicle_type_id":"4","last_reported":1757797636,"current_range_meters":9600,"station_id":"ce4bhgh2rcd13ifvqfb0","pricing_plan_id":"cebpf4jnsgd1na2vs0mg"},{"bike_id":"e8f1a34f-d97f-492d-a96a-630755e01276","system_id":"levelo_inurba_marseille","lat":43.27431,"lon":5.39404,"is_reserved":false,"is_disabled":false,"rental_uris":{"android":"levelo://app?vid=e8f1a34f-d97f-492d-a96a-630755e01276","ios":"levelo://app?vid=e8f1a34f-d97f-492d-a96a-630755e01276"},"vehicle_type_id":"4","last_reported":1757797636,"current_range_meters":10000,"station_id":"ce4bhdp2rcd13ifvqf20","pricing_plan_id":"cebpf4jnsgd1na2vs0mg"},{"bike_id":"c7e7fd69-f607-4002-8cfc-51b1eee21570","system_id":"levelo_inurba_marseille","lat":43.304603,"lon":5.37906,"is_reserved":false,"is_disabled":false,"rental_uris":{"android":"levelo://app?vid=c7e7fd69-f607-4002-8cfc-51b1eee21570","ios":"levelo://app?vid=c7e7fd69-f607-4002-8cfc-51b1eee21570"},"vehicle_type_id":"4","last_reported":1757797636,"current_range_meters":10000,"station_id":"ce4bgup2rcd13ifvqcn0","pricing_plan_id":"cebpf4jnsgd1na2vs0mg"},{"bike_id":"2bf800d6-5810-4583-9dbf-1aa58bacdde6","system_id":"levelo_inurba_marseille","lat":43.304615,"lon":5.379067,"is_reserved":false,"is_disabled":false,"rental_uris":{"android":"levelo://app?vid=2bf800d6-5810-4583-9dbf-1aa58bacdde6","ios":"levelo://app?vid=2bf800d6-5810-4583-9dbf-1aa58bacdde6"},"vehicle_type_id":"4","last_reported":1757797636,"current_range_meters":10000,"station_id":"","pricing_plan_id":"cebpf4jnsgd1na2vs0mg"},{"bike_id":"a24c4696-920b-4645-847f-87e0b46915a6","system_id":"levelo_inurba_marseille","lat":43.32457,"lon":5.42546,"is_reserved":false,"is_disabled":false,"rental_uris":{"android":"levelo://app?vid=a24c4696-920b-4645-847f-87e0b46915a6","ios":"levelo://app?vid=a24c4696-920b-4645-847f-87e0b46915a6"},"vehicle_type_id":"4","last_reported":1757797636,"current_range_meters":10000,"station_id":"","pricing_plan_id":"cebpf4jnsgd1na2vs0mg"},{"bike_id":"8a4d2a94-6dcc-48a7-bce6-1f6f98746be6","system_id":"levelo_inurba_marseille","lat":43.27505,"lon":5.42452,"is_reserved":false,"is_disabled":false,"rental_uris":{"android":"levelo://app?vid=8a4d2a94-6dcc-48a7-bce6-1f6f98746be6","ios":"levelo://app?vid=8a4d2a94-6dcc-48a7-bce6-1f6f98746be6"},"vehicle_type_id":"4","last_reported":1757797636,"current_range_meters":10000,"station_id":"ce4bhn92rcd13ifvqgrg","pricing_plan_id":"cebpf4jnsgd1na2vs0mg"},{"bike_id":"afa5b270-1b82-4b90-8fe4-7ae439ce006b","system_id":"levelo_inurba_marseille","lat":43.2797,"lon":5.4168,"is_reserved":false,"is_disabled":false,"rental_uris":{"android":"levelo://app?vid=afa5b270-1b82-4b90-8fe4-7ae439ce006b","ios":"levelo://app?vid=afa5b270-1b82-4b90-8fe4-7ae439ce006b"},"vehicle_type_id":"4","last_reported":1757797636,"current_range_meters":10000,"station_id":"ce4bho12rcd13ifvqh1g","pricing_plan_id":"cebpf4jnsgd1na2vs0mg"},{"bike_id":"01ff4586-29c8-4333-b677-9a78ad9ba062","system_id":"levelo_inurba_marseille","lat":43.24812,"lon":5.37455,"is_reserved":false,"is_disabled":false,"rental_uris":{"android":"levelo://app?vid=01ff4586-29c8-4333-b677-9a78ad9ba062","ios":"levelo://app?vid=01ff4586-29c8-4333-b677-9a78ad9ba062"},"vehicle_type_id":"4","last_reported":1757797636,"current_range_meters":10000,"station_id":"ce4bhgh2rcd13ifvqfb0","pricing_plan_id":"cebpf4jnsgd1na2vs0mg"},{"bike_id":"49479da5-2c9e-4437-8f13-c43048a19335","system_id":"levelo_inurba_marseille","lat":43.29779,"lon":5.39341,"is_reserved":false,"is_disabled":false,"rental_uris":{"android":"levelo://app?vid=49479da5-2c9e-4437-8f13-c43048a19335","ios":"levelo://app?vid=49479da5-2c9e-4437-8f13-c43048a19335"},"vehicle_type_id":"4","last_reported":1757797636,"current_range_meters":10000,"station_id":"chh1huq6cuj3fo74tm60","pricing_plan_id":"cebpf4jnsgd1na2vs0mg"},{"bike_id":"9ad57701-092b-4987-844d-5371986cdaba","system_id":"levelo_inurba_marseille","lat":43.23156,"lon":5.43727,"is_reserved":false,"is_disabled":false,"rental_uris":{"android":"levelo://app?vid=9ad57701-092b-4987-844d-5371986cdaba","ios":"levelo://app?vid=9ad57701-092b-4987-844d-5371986cdaba"},"vehicle_type_id":"4","last_reported":1757797636,"current_range_meters":10000,"station_id":"ce4bhmp2rcd13ifvqgog","pricing_plan_id":"cebpf4jnsgd1na2vs0mg"},{"bike_id":"54756892-40fc-40da-862a-36f475f86070","system_id":"levelo_inurba_marseille","lat":43.29669,"lon":5.37148,"is_reserved":false,"is_disabled":false,"rental_uris":{"android":"levelo://app?vid=54756892-40fc-40da-862a-36f475f86070","ios":"levelo://app?vid=54756892-40fc-40da-862a-36f475f86070"},"vehicle_type_id":"4","last_reported":1757797636,"current_range_meters":10000,"station_id":"","pricing_plan_id":"cebpf4jnsgd1na2vs0mg"},{"bike_id":"84c8fb15-5b5b-46a3-b92a-7de6406f90b3","system_id":"levelo_inurba_marseille","lat":43.26813,"lon":5.39417,"is_reserved":false,"is_disabled":true,"rental_uris":{"android":"levelo://app?vid=84c8fb15-5b5b-46a3-b92a-7de6406f90b3","ios":"levelo://app?vid=84c8fb15-5b5b-46a3-b92a-7de6406f90b3"},"vehicle_type_id":"4","last_reported":1757797636,"current_range_meters":10800,"station_id":"ce4bhh12rcd13ifvqfg0","pricing_plan_id":"cebpf4jnsgd1na2vs0mg"},{"bike_id":"c445ab95-92a0-47cb-bf12-767d069705a5","system_id":"levelo_inurba_marseille","lat":43.24536,"lon":5.39534,"is_reserved":false,"is_disabled":false,"rental_uris":{"android":"levelo://app?vid=c445ab95-92a0-47cb-bf12-767d069705a5","ios":"levelo://app?vid=c445ab95-92a0-47cb-bf12-767d069705a5"},"vehicle_type_id":"4","last_reported":1757797636,"current_range_meters":10800,"station_id":"ce4bhlp2rcd13ifvqgjg","pricing_plan_id":"cebpf4jnsgd1na2vs0mg"},{"bike_id":"140f33b8-1102-4f7e-b0ef-d83c5cd8bb96","system_id":"levelo_inurba_marseille","lat":43.2319,"lon":5.35573,"is_reserved":false,"is_disabled":false,"rental_uris":{"android":"levelo://app?vid=140f33b8-1102-4f7e-b0ef-d83c5cd8bb96","ios":"levelo://app?vid=140f33b8-1102-4f7e-b0ef-d83c5cd8bb96"},"vehicle_type_id":"4","last_reported":1757797636,"current_range_meters":10800,"station_id":"ce4bhu92rcd13ifvqi70","pricing_plan_id":"cebpf4jnsgd1na2vs0mg"},{"bike_id":"758d64a8-5398-4a2b-8026-4ab6c1c375e2","system_id":"levelo_inurba_marseille","lat":43.292678,"lon":5.384466,"is_reserved":false,"is_disabled":false,"rental_uris":{"android":"levelo://app?vid=758d64a8-5398-4a2b-8026-4ab6c1c375e2","ios":"levelo://app?vid=758d64a8-5398-4a2b-8026-4ab6c1c375e2"},"vehicle_type_id":"4","last_reported":1757797636,"current_range_meters":10800,"station_id":"ce4bh692rcd13ifvqea0","pricing_plan_id":"cebpf4jnsgd1na2vs0mg"},{"bike_id":"72ecfdf4-24e1-4d21-b6f0-ea4846497a4f","system_id":"levelo_inurba_marseille","lat":43.28709,"lon":5.39974,"is_reserved":false,"is_disabled":false,"rental_uris":{"android":"levelo://app?vid=72ecfdf4-24e1-4d21-b6f0-ea4846497a4f","ios":"levelo://app?vid=72ecfdf4-24e1-4d21-b6f0-ea4846497a4f"},"vehicle_type_id":"4","last_reported":1757797636,"current_range_meters":10800,"station_id":"ce4bho92rcd13ifvqh3g","pricing_plan_id":"cebpf4jnsgd1na2vs0mg"},{"bike_id":"064a1e0e-3bc7-46f2-a93f-f27f3e063c3c","system_id":"levelo_inurba_marseille","lat":43.25722,"lon":5.41112,"is_reserved":false,"is_disabled":false,"rental_uris":{"android":"levelo://app?vid=064a1e0e-3bc7-46f2-a93f-f27f3e063c3c","ios":"levelo://app?vid=064a1e0e-3bc7-46f2-a93f-f27f3e063c3c"},"vehicle_type_id":"4","last_reported":1757797636,"current_range_meters":10800,"station_id":"ce4bhkp2rcd13ifvqgd0","pricing_plan_id":"cebpf4jnsgd1na2vs0mg"},{"bike_id":"463345a6-2d4f-4448-8488-9cab1efda713","system_id":"levelo_inurba_marseille","lat":43.25451,"lon":5.40125,"is_reserved":false,"is_disabled":false,"rental_uris":{"android":"levelo://app?vid=463345a6-2d4f-4448-8488-9cab1efda713","ios":"levelo://app?vid=463345a6-2d4f-4448-8488-9cab1efda713"},"vehicle_type_id":"4","last_reported":1757797636,"current_range_meters":10800,"station_id":"","pricing_plan_id":"cebpf4jnsgd1na2vs0mg"},{"bike_id":"0c78ed8a-2af8-4f2c-895d-0de884f1c9f2","system_id":"levelo_inurba_marseille","lat":43.29895,"lon":5.43658,"is_reserved":false,"is_disabled":false,"rental_uris":{"android":"levelo://app?vid=0c78ed8a-2af8-4f2c-895d-0de884f1c9f2","ios":"levelo://app?vid=0c78ed8a-2af8-4f2c-895d-0de884f1c9f2"},"vehicle_type_id":"4","last_reported":1757797636,"current_range_meters":10800,"station_id":"ce4bhpp2rcd13ifvqhfg","pricing_plan_id":"cebpf4jnsgd1na2vs0mg"},{"bike_id":"2f3f8d43-a112-45e6-979c-f1c7564514ec","system_id":"levelo_inurba_marseille","lat":43.30464,"lon":5.37901,"is_reserved":false,"is_disabled":false,"rental_uris":{"android":"levelo://app?vid=2f3f8d43-a112-45e6-979c-f1c7564514ec","ios":"levelo://app?vid=2f3f8d43-a112-45e6-979c-f1c7564514ec"},"vehicle_type_id":"4","last_reported":1757797636,"current_range_meters":11200,"station_id":"ce4bgup2rcd13ifvqcn0","pricing_plan_id":"cebpf4jnsgd1na2vs0mg"},{"bike_id":"f1d8b238-4c5e-4cf7-bf81-90f44dbfd0bb","system_id":"levelo_inurba_marseille","lat":43.2861,"lon":5.35112,"is_reserved":false,"is_disabled":false,"rental_uris":{"android":"levelo://app?vid=f1d8b238-4c5e-4cf7-bf81-90f44dbfd0bb","ios":"levelo://app?vid=f1d8b238-4c5e-4cf7-bf81-90f44dbfd0bb"},"vehicle_type_id":"4","last_reported":1757797636,"current_range_meters":11200,"station_id":"ce4bhch2rcd13ifvqeug","pricing_plan_id":"cebpf4jnsgd1na2vs0mg"},{"bike_id":"8daef93f-30c9-48b2-9910-1aca48b54d7f","system_id":"levelo_inurba_marseille","lat":43.304643,"lon":5.379085,"is_reserved":false,"is_disabled":false,"rental_uris":{"android":"levelo://app?vid=8daef93f-30c9-48b2-9910-1aca48b54d7f","ios":"levelo://app?vid=8daef93f-30c9-48b2-9910-1aca48b54d7f"},"vehicle_type_id":"4","last_reported":1757797636,"current_range_meters":10800,"station_id":"ce4bgup2rcd13ifvqcn0","pricing_plan_id":"cebpf4jnsgd1na2vs0mg"},{"bike_id":"60433104-da84-4865-bf45-7d40a82aea18","system_id":"levelo_inurba_marseille","lat":43.284095,"lon":5.375205,"is_reserved":false,"is_disabled":false,"rental_uris":{"android":"levelo://app?vid=60433104-da84-4865-bf45-7d40a82aea18","ios":"levelo://app?vid=60433104-da84-4865-bf45-7d40a82aea18"},"vehicle_type_id":"4","last_reported":1757797636,"current_range_meters":11200,"station_id":"ce4bh412rcd13ifvqds0","pricing_plan_id":"cebpf4jnsgd1na2vs0mg"},{"bike_id":"26b69d0b-b5b9-460c-aa91-faf533b3f545","system_id":"levelo_inurba_marseille","lat":43.31707,"lon":5.43714,"is_reserved":false,"is_disabled":false,"rental_uris":{"android":"levelo://app?vid=26b69d0b-b5b9-460c-aa91-faf533b3f545","ios":"levelo://app?vid=26b69d0b-b5b9-460c-aa91-faf533b3f545"},"vehicle_type_id":"4","last_reported":1757797636,"current_range_meters":11200,"station_id":"ce4bhp92rcd13ifvqhcg","pricing_plan_id":"cebpf4jnsgd1na2vs0mg"},{"bike_id":"876a4519-8239-4bd9-941c-4749ebc0fb10","system_id":"levelo_inurba_marseille","lat":43.32331,"lon":5.40605,"is_reserved":false,"is_disabled":false,"rental_uris":{"android":"levelo://app?vid=876a4519-8239-4bd9-941c-4749ebc0fb10","ios":"levelo://app?vid=876a4519-8239-4bd9-941c-4749ebc0fb10"},"vehicle_type_id":"4","last_reported":1757797636,"current_range_meters":11200,"station_id":"ce4bhq92rcd13ifvqhjg","pricing_plan_id":"cebpf4jnsgd1na2vs0mg"},{"bike_id":"d5c98035-fc72-4062-a3ec-13203f68e8ed","system_id":"levelo_inurba_marseille","lat":43.28873,"lon":5.42516,"is_reserved":false,"is_disabled":false,"rental_uris":{"android":"levelo://app?vid=d5c98035-fc72-4062-a3ec-13203f68e8ed","ios":"levelo://app?vid=d5c98035-fc72-4062-a3ec-13203f68e8ed"},"vehicle_type_id":"4","last_reported":1757797636,"current_range_meters":11200,"station_id":"","pricing_plan_id":"cebpf4jnsgd1na2vs0mg"},{"bike_id":"4512c2c7-f6ea-48a6-8a48-abb3bc17e447","system_id":"levelo_inurba_marseille","lat":43.255685,"lon":5.382351,"is_reserved":false,"is_disabled":false,"rental_uris":{"android":"levelo://app?vid=4512c2c7-f6ea-48a6-8a48-abb3bc17e447","ios":"levelo://app?vid=4512c2c7-f6ea-48a6-8a48-abb3bc17e447"},"vehicle_type_id":"4","last_reported":1757797636,"current_range_meters":11200,"station_id":"ce4bhih2rcd13ifvqfs0","pricing_plan_id":"cebpf4jnsgd1na2vs0mg"},{"bike_id":"6ba0548d-ab5b-4eb6-80c9-edf31ed27b4a","system_id":"levelo_inurba_marseille","lat":43.26927,"lon":5.38918,"is_reserved":false,"is_disabled":false,"rental_uris":{"android":"levelo://app?vid=6ba0548d-ab5b-4eb6-80c9-edf31ed27b4a","ios":"levelo://app?vid=6ba0548d-ab5b-4eb6-80c9-edf31ed27b4a"},"vehicle_type_id":"4","last_reported":1757797636,"current_range_meters":11600,"station_id":"ce4bhhh2rcd13ifvqfl0","pricing_plan_id":"cebpf4jnsgd1na2vs0mg"},{"bike_id":"3bef69fe-5b53-4b5c-bb48-170285c21d79","system_id":"levelo_inurba_marseille","lat":43.25835,"lon":5.39356,"is_reserved":false,"is_disabled":false,"rental_uris":{"android":"levelo://app?vid=3bef69fe-5b53-4b5c-bb48-170285c21d79","ios":"levelo://app?vid=3bef69fe-5b53-4b5c-bb48-170285c21d79"},"vehicle_type_id":"4","last_reported":1757797636,"current_range_meters":11600,"station_id":"","pricing_plan_id":"cebpf4jnsgd1na2vs0mg"},{"bike_id":"cb12300c-8081-4d4a-a14b-64503270b3c8","system_id":"levelo_inurba_marseille","lat":43.29518,"lon":5.38539,"is_reserved":false,"is_disabled":false,"rental_uris":{"android":"levelo://app?vid=cb12300c-8081-4d4a-a14b-64503270b3c8","ios":"levelo://app?vid=cb12300c-8081-4d4a-a14b-64503270b3c8"},"vehicle_type_id":"4","last_reported":1757797636,"current_range_meters":11600,"station_id":"ce4bgih2rcd13ifvqba0","pricing_plan_id":"cebpf4jnsgd1na2vs0mg"},{"bike_id":"94653cd0-6603-499f-80fb-c7c493f26a96","system_id":"levelo_inurba_marseille","lat":43.28836,"lon":5.3932,"is_reserved":false,"is_disabled":false,"rental_uris":{"android":"levelo://app?vid=94653cd0-6603-499f-80fb-c7c493f26a96","ios":"levelo://app?vid=94653cd0-6603-499f-80fb-c7c493f26a96"},"vehicle_type_id":"4","last_reported":1757797636,"current_range_meters":11200,"station_id":"ce4bh2p2rcd13ifvqdi0","pricing_plan_id":"cebpf4jnsgd1na2vs0mg"},{"bike_id":"83caeb26-22bb-4fda-ae28-449a58ffb389","system_id":"levelo_inurba_marseille","lat":43.26191,"lon":5.37444,"is_reserved":false,"is_disabled":false,"rental_uris":{"android":"levelo://app?vid=83caeb26-22bb-4fda-ae28-449a58ffb389","ios":"levelo://app?vid=83caeb26-22bb-4fda-ae28-449a58ffb389"},"vehicle_type_id":"4","last_reported":1757797636,"current_range_meters":11600,"station_id":"ce4bhgp2rcd13ifvqfc0","pricing_plan_id":"cebpf4jnsgd1na2vs0mg"},{"bike_id":"f238f4f0-68d0-48f4-a06a-c6b98c1080b3","system_id":"levelo_inurba_marseille","lat":43.287164,"lon":5.379472,"is_reserved":false,"is_disabled":false,"rental_uris":{"android":"levelo://app?vid=f238f4f0-68d0-48f4-a06a-c6b98c1080b3","ios":"levelo://app?vid=f238f4f0-68d0-48f4-a06a-c6b98c1080b3"},"vehicle_type_id":"4","last_reported":1757797636,"current_range_meters":11600,"station_id":"ce4bh9p2rcd13ifvqec0","pricing_plan_id":"cebpf4jnsgd1na2vs0mg"},{"bike_id":"9a24a4f4-41f7-4810-bda5-c96a460f72fc","system_id":"levelo_inurba_marseille","lat":43.27523,"lon":5.42464,"is_reserved":false,"is_disabled":false,"rental_uris":{"android":"levelo://app?vid=9a24a4f4-41f7-4810-bda5-c96a460f72fc","ios":"levelo://app?vid=9a24a4f4-41f7-4810-bda5-c96a460f72fc"},"vehicle_type_id":"4","last_reported":1757797636,"current_range_meters":11600,"station_id":"ce4bhn92rcd13ifvqgrg","pricing_plan_id":"cebpf4jnsgd1na2vs0mg"},{"bike_id":"d346a891-5803-439a-bca3-d6b5f7b68e2a","system_id":"levelo_inurba_marseille","lat":43.2884,"lon":5.39327,"is_reserved":false,"is_disabled":false,"rental_uris":{"android":"levelo://app?vid=d346a891-5803-439a-bca3-d6b5f7b68e2a","ios":"levelo://app?vid=d346a891-5803-439a-bca3-d6b5f7b68e2a"},"vehicle_type_id":"4","last_reported":1757797636,"current_range_meters":11200,"station_id":"ce4bh2p2rcd13ifvqdi0","pricing_plan_id":"cebpf4jnsgd1na2vs0mg"},{"bike_id":"9efae8ca-5cb1-48b2-87a2-2fcb19f66522","system_id":"levelo_inurba_marseille","lat":43.29535,"lon":5.38542,"is_reserved":false,"is_disabled":false,"rental_uris":{"android":"levelo://app?vid=9efae8ca-5cb1-48b2-87a2-2fcb19f66522","ios":"levelo://app?vid=9efae8ca-5cb1-48b2-87a2-2fcb19f66522"},"vehicle_type_id":"4","last_reported":1757797636,"current_range_meters":12000,"station_id":"ce4bgih2rcd13ifvqba0","pricing_plan_id":"cebpf4jnsgd1na2vs0mg"},{"bike_id":"3e2f244f-6268-4660-a8ca-b6f26ab520c9","system_id":"levelo_inurba_marseille","lat":43.292559,"lon":5.384441,"is_reserved":false,"is_disabled":false,"rental_uris":{"android":"levelo://app?vid=3e2f244f-6268-4660-a8ca-b6f26ab520c9","ios":"levelo://app?vid=3e2f244f-6268-4660-a8ca-b6f26ab520c9"},"vehicle_type_id":"4","last_reported":1757797636,"current_range_meters":12000,"station_id":"ce4bh692rcd13ifvqea0","pricing_plan_id":"cebpf4jnsgd1na2vs0mg"},{"bike_id":"beb6189c-c21e-4836-b631-6b5c31a632d8","system_id":"levelo_inurba_marseille","lat":43.2256,"lon":5.41646,"is_reserved":false,"is_disabled":false,"rental_uris":{"android":"levelo://app?vid=beb6189c-c21e-4836-b631-6b5c31a632d8","ios":"levelo://app?vid=beb6189c-c21e-4836-b631-6b5c31a632d8"},"vehicle_type_id":"4","last_reported":1757797636,"current_range_meters":12000,"station_id":"st_d2o4gvlbi1j2169b742g","pricing_plan_id":"cebpf4jnsgd1na2vs0mg"},{"bike_id":"d5fe8587-d577-4927-9f03-bf5f1fa338f3","system_id":"levelo_inurba_marseille","lat":43.32575,"lon":5.37572,"is_reserved":false,"is_disabled":false,"rental_uris":{"android":"levelo://app?vid=d5fe8587-d577-4927-9f03-bf5f1fa338f3","ios":"levelo://app?vid=d5fe8587-d577-4927-9f03-bf5f1fa338f3"},"vehicle_type_id":"4","last_reported":1757797636,"current_range_meters":12000,"station_id":"","pricing_plan_id":"cebpf4jnsgd1na2vs0mg"},{"bike_id":"84be000e-b186-4e60-8aaa-b7a0f42a7175","system_id":"levelo_inurba_marseille","lat":43.337616,"lon":5.374353,"is_reserved":false,"is_disabled":false,"rental_uris":{"android":"levelo://app?vid=84be000e-b186-4e60-8aaa-b7a0f42a7175","ios":"levelo://app?vid=84be000e-b186-4e60-8aaa-b7a0f42a7175"},"vehicle_type_id":"4","last_reported":1757797636,"current_range_meters":12000,"station_id":"","pricing_plan_id":"cebpf4jnsgd1na2vs0mg"},{"bike_id":"322bef41-0144-46b3-b28e-d10efc9d0c0e","system_id":"levelo_inurba_marseille","lat":43.29533,"lon":5.38535,"is_reserved":false,"is_disabled":false,"rental_uris":{"android":"levelo://app?vid=322bef41-0144-46b3-b28e-d10efc9d0c0e","ios":"levelo://app?vid=322bef41-0144-46b3-b28e-d10efc9d0c0e"},"vehicle_type_id":"4","last_reported":1757797636,"current_range_meters":12000,"station_id":"ce4bgih2rcd13ifvqba0","pricing_plan_id":"cebpf4jnsgd1na2vs0mg"},{"bike_id":"7970a715-5b02-4b3d-8748-3f1c4b7d6148","system_id":"levelo_inurba_marseille","lat":43.30773,"lon":5.37655,"is_reserved":false,"is_disabled":false,"rental_uris":{"android":"levelo://app?vid=7970a715-5b02-4b3d-8748-3f1c4b7d6148","ios":"levelo://app?vid=7970a715-5b02-4b3d-8748-3f1c4b7d6148"},"vehicle_type_id":"4","last_reported":1757797636,"current_range_meters":12000,"station_id":"ce4bgv92rcd13ifvqcq0","pricing_plan_id":"cebpf4jnsgd1na2vs0mg"},{"bike_id":"2abbdfbb-0048-4a72-844e-a1a420b045bc","system_id":"levelo_inurba_marseille","lat":43.28458,"lon":5.35888,"is_reserved":false,"is_disabled":false,"rental_uris":{"android":"levelo://app?vid=2abbdfbb-0048-4a72-844e-a1a420b045bc","ios":"levelo://app?vid=2abbdfbb-0048-4a72-844e-a1a420b045bc"},"vehicle_type_id":"4","last_reported":1757797636,"current_range_meters":12000,"station_id":"ce4bhah2rcd13ifvqei0","pricing_plan_id":"cebpf4jnsgd1na2vs0mg"},{"bike_id":"f8ffd399-b74b-428b-b8c5-652d37f4b22c","system_id":"levelo_inurba_marseille","lat":43.24957,"lon":5.40491,"is_reserved":false,"is_disabled":false,"rental_uris":{"android":"levelo://app?vid=f8ffd399-b74b-428b-b8c5-652d37f4b22c","ios":"levelo://app?vid=f8ffd399-b74b-428b-b8c5-652d37f4b22c"},"vehicle_type_id":"4","last_reported":1757797636,"current_range_meters":12400,"station_id":"st_d2ngiaodas8pm72gd1h0","pricing_plan_id":"cebpf4jnsgd1na2vs0mg"},{"bike_id":"379b11ff-5451-4d91-b506-5b6254405fd8","system_id":"levelo_inurba_marseille","lat":43.31064,"lon":5.38361,"is_reserved":false,"is_disabled":false,"rental_uris":{"android":"levelo://app?vid=379b11ff-5451-4d91-b506-5b6254405fd8","ios":"levelo://app?vid=379b11ff-5451-4d91-b506-5b6254405fd8"},"vehicle_type_id":"4","last_reported":1757797636,"current_range_meters":12400,"station_id":"ce4bgv92rcd13ifvqcr0","pricing_plan_id":"cebpf4jnsgd1na2vs0mg"},{"bike_id":"62f771b2-4873-460c-a103-d249fe08d9a3","system_id":"levelo_inurba_marseille","lat":43.28463,"lon":5.35889,"is_reserved":false,"is_disabled":true,"rental_uris":{"android":"levelo://app?vid=62f771b2-4873-460c-a103-d249fe08d9a3","ios":"levelo://app?vid=62f771b2-4873-460c-a103-d249fe08d9a3"},"vehicle_type_id":"4","last_reported":1757797636,"current_range_meters":12400,"station_id":"ce4bhah2rcd13ifvqei0","pricing_plan_id":"cebpf4jnsgd1na2vs0mg"},{"bike_id":"6515536f-56de-4109-b7a1-24c742aed225","system_id":"levelo_inurba_marseille","lat":43.31997,"lon":5.37234,"is_reserved":false,"is_disabled":false,"rental_uris":{"android":"levelo://app?vid=6515536f-56de-4109-b7a1-24c742aed225","ios":"levelo://app?vid=6515536f-56de-4109-b7a1-24c742aed225"},"vehicle_type_id":"4","last_reported":1757797636,"current_range_meters":12400,"station_id":"","pricing_plan_id":"cebpf4jnsgd1na2vs0mg"},{"bike_id":"3510d789-ae1f-4c67-ae2b-5d51a86b5480","system_id":"levelo_inurba_marseille","lat":43.31135,"lon":5.37765,"is_reserved":false,"is_disabled":false,"rental_uris":{"android":"levelo://app?vid=3510d789-ae1f-4c67-ae2b-5d51a86b5480","ios":"levelo://app?vid=3510d789-ae1f-4c67-ae2b-5d51a86b5480"},"vehicle_type_id":"4","last_reported":1757797636,"current_range_meters":12400,"station_id":"ce4bgt92rcd13ifvqcg0","pricing_plan_id":"cebpf4jnsgd1na2vs0mg"},{"bike_id":"55d59e02-f5a5-4e1a-9360-556e842fa2a4","system_id":"levelo_inurba_marseille","lat":43.33764,"lon":5.37496,"is_reserved":false,"is_disabled":false,"rental_uris":{"android":"levelo://app?vid=55d59e02-f5a5-4e1a-9360-556e842fa2a4","ios":"levelo://app?vid=55d59e02-f5a5-4e1a-9360-556e842fa2a4"},"vehicle_type_id":"4","last_reported":1757797636,"current_range_meters":12400,"station_id":"","pricing_plan_id":"cebpf4jnsgd1na2vs0mg"},{"bike_id":"f9f4706c-445b-45da-8785-038d970716ca","system_id":"levelo_inurba_marseille","lat":43.27996,"lon":5.40016,"is_reserved":false,"is_disabled":false,"rental_uris":{"android":"levelo://app?vid=f9f4706c-445b-45da-8785-038d970716ca","ios":"levelo://app?vid=f9f4706c-445b-45da-8785-038d970716ca"},"vehicle_type_id":"4","last_reported":1757797636,"current_range_meters":12000,"station_id":"ce4bho92rcd13ifvqh4g","pricing_plan_id":"cebpf4jnsgd1na2vs0mg"},{"bike_id":"7551b6ea-c220-4ab0-ae49-87a7d4947d7b","system_id":"levelo_inurba_marseille","lat":43.29203,"lon":5.36075,"is_reserved":false,"is_disabled":false,"rental_uris":{"android":"levelo://app?vid=7551b6ea-c220-4ab0-ae49-87a7d4947d7b","ios":"levelo://app?vid=7551b6ea-c220-4ab0-ae49-87a7d4947d7b"},"vehicle_type_id":"4","last_reported":1757797636,"current_range_meters":12400,"station_id":"ce4bhbh2rcd13ifvqeqg","pricing_plan_id":"cebpf4jnsgd1na2vs0mg"},{"bike_id":"02dbb44c-70e3-4a7a-b86e-6159cc35ba47","system_id":"levelo_inurba_marseille","lat":43.29587,"lon":5.38689,"is_reserved":false,"is_disabled":false,"rental_uris":{"android":"levelo://app?vid=02dbb44c-70e3-4a7a-b86e-6159cc35ba47","ios":"levelo://app?vid=02dbb44c-70e3-4a7a-b86e-6159cc35ba47"},"vehicle_type_id":"4","last_reported":1757797636,"current_range_meters":12400,"station_id":"ce4bgih2rcd13ifvqba0","pricing_plan_id":"cebpf4jnsgd1na2vs0mg"},{"bike_id":"cbe6f866-1357-45a4-afbd-44c3352c1a8a","system_id":"levelo_inurba_marseille","lat":43.28113,"lon":5.3788,"is_reserved":false,"is_disabled":false,"rental_uris":{"android":"levelo://app?vid=cbe6f866-1357-45a4-afbd-44c3352c1a8a","ios":"levelo://app?vid=cbe6f866-1357-45a4-afbd-44c3352c1a8a"},"vehicle_type_id":"4","last_reported":1757797636,"current_range_meters":12800,"station_id":"ce4bha12rcd13ifvqee0","pricing_plan_id":"cebpf4jnsgd1na2vs0mg"},{"bike_id":"c5455dc5-bf45-467c-9588-5933ea9396b4","system_id":"levelo_inurba_marseille","lat":43.26685,"lon":5.38273,"is_reserved":false,"is_disabled":false,"rental_uris":{"android":"levelo://app?vid=c5455dc5-bf45-467c-9588-5933ea9396b4","ios":"levelo://app?vid=c5455dc5-bf45-467c-9588-5933ea9396b4"},"vehicle_type_id":"4","last_reported":1757797636,"current_range_meters":12400,"station_id":"ce4bhg92rcd13ifvqf90","pricing_plan_id":"cebpf4jnsgd1na2vs0mg"},{"bike_id":"6b48ec5a-fecc-4821-ac00-aeffcee4d04e","system_id":"levelo_inurba_marseille","lat":43.27322,"lon":5.39074,"is_reserved":false,"is_disabled":false,"rental_uris":{"android":"levelo://app?vid=6b48ec5a-fecc-4821-ac00-aeffcee4d04e","ios":"levelo://app?vid=6b48ec5a-fecc-4821-ac00-aeffcee4d04e"},"vehicle_type_id":"4","last_reported":1757797636,"current_range_meters":12800,"station_id":"ce4bhgp2rcd13ifvqfe0","pricing_plan_id":"cebpf4jnsgd1na2vs0mg"},{"bike_id":"79db5e89-f233-4dbd-8b39-6b594dcca5e7","system_id":"levelo_inurba_marseille","lat":43.29847,"lon":5.36268,"is_reserved":false,"is_disabled":false,"rental_uris":{"android":"levelo://app?vid=79db5e89-f233-4dbd-8b39-6b594dcca5e7","ios":"levelo://app?vid=79db5e89-f233-4dbd-8b39-6b594dcca5e7"},"vehicle_type_id":"4","last_reported":1757797636,"current_range_meters":12800,"station_id":"ce4bgpp2rcd13ifvqc3g","pricing_plan_id":"cebpf4jnsgd1na2vs0mg"},{"bike_id":"d9c11a94-d122-4240-b95b-24fdee8810ac","system_id":"levelo_inurba_marseille","lat":43.2825,"lon":5.39912,"is_reserved":false,"is_disabled":false,"rental_uris":{"android":"levelo://app?vid=d9c11a94-d122-4240-b95b-24fdee8810ac","ios":"levelo://app?vid=d9c11a94-d122-4240-b95b-24fdee8810ac"},"vehicle_type_id":"4","last_reported":1757797636,"current_range_meters":12800,"station_id":"","pricing_plan_id":"cebpf4jnsgd1na2vs0mg"},{"bike_id":"2a7bc07a-c148-4a25-b2c5-5233e29560f5","system_id":"levelo_inurba_marseille","lat":43.28603,"lon":5.37067,"is_reserved":false,"is_disabled":false,"rental_uris":{"android":"levelo://app?vid=2a7bc07a-c148-4a25-b2c5-5233e29560f5","ios":"levelo://app?vid=2a7bc07a-c148-4a25-b2c5-5233e29560f5"},"vehicle_type_id":"4","last_reported":1757797636,"current_range_meters":12800,"station_id":"ce4bht12rcd13ifvqi60","pricing_plan_id":"cebpf4jnsgd1na2vs0mg"},{"bike_id":"cd104b68-7370-4e88-ba9c-1edeee0f6c77","system_id":"levelo_inurba_marseille","lat":43.2508,"lon":5.42673,"is_reserved":false,"is_disabled":false,"rental_uris":{"android":"levelo://app?vid=cd104b68-7370-4e88-ba9c-1edeee0f6c77","ios":"levelo://app?vid=cd104b68-7370-4e88-ba9c-1edeee0f6c77"},"vehicle_type_id":"4","last_reported":1757797636,"current_range_meters":13600,"station_id":"","pricing_plan_id":"cebpf4jnsgd1na2vs0mg"},{"bike_id":"ee42c31a-b74b-4b2d-917a-cd50dc10c6ce","system_id":"levelo_inurba_marseille","lat":43.33055,"lon":5.39025,"is_reserved":false,"is_disabled":false,"rental_uris":{"android":"levelo://app?vid=ee42c31a-b74b-4b2d-917a-cd50dc10c6ce","ios":"levelo://app?vid=ee42c31a-b74b-4b2d-917a-cd50dc10c6ce"},"vehicle_type_id":"4","last_reported":1757797636,"current_range_meters":13600,"station_id":"ce4bhr92rcd13ifvqhrg","pricing_plan_id":"cebpf4jnsgd1na2vs0mg"},{"bike_id":"d269c5a7-91e2-45e0-8d00-53bf7da0419e","system_id":"levelo_inurba_marseille","lat":43.29973,"lon":5.38501,"is_reserved":false,"is_disabled":false,"rental_uris":{"android":"levelo://app?vid=d269c5a7-91e2-45e0-8d00-53bf7da0419e","ios":"levelo://app?vid=d269c5a7-91e2-45e0-8d00-53bf7da0419e"},"vehicle_type_id":"4","last_reported":1757797636,"current_range_meters":13600,"station_id":"ce4bgj92rcd13ifvqbd0","pricing_plan_id":"cebpf4jnsgd1na2vs0mg"},{"bike_id":"f07d1a34-6972-4c1d-8ed8-100dd0fc1e78","system_id":"levelo_inurba_marseille","lat":43.32985,"lon":5.39052,"is_reserved":false,"is_disabled":false,"rental_uris":{"android":"levelo://app?vid=f07d1a34-6972-4c1d-8ed8-100dd0fc1e78","ios":"levelo://app?vid=f07d1a34-6972-4c1d-8ed8-100dd0fc1e78"},"vehicle_type_id":"4","last_reported":1757797636,"current_range_meters":13600,"station_id":"ce4bhr92rcd13ifvqhrg","pricing_plan_id":"cebpf4jnsgd1na2vs0mg"},{"bike_id":"9a716b84-cf6c-4feb-8ca6-e44852bac3bd","system_id":"levelo_inurba_marseille","lat":43.26551,"lon":5.37287,"is_reserved":false,"is_disabled":false,"rental_uris":{"android":"levelo://app?vid=9a716b84-cf6c-4feb-8ca6-e44852bac3bd","ios":"levelo://app?vid=9a716b84-cf6c-4feb-8ca6-e44852bac3bd"},"vehicle_type_id":"4","last_reported":1757797636,"current_range_meters":13600,"station_id":"ce4bhg12rcd13ifvqf70","pricing_plan_id":"cebpf4jnsgd1na2vs0mg"},{"bike_id":"40207740-3997-48f7-a3a9-b19ccf0a0c3b","system_id":"levelo_inurba_marseille","lat":43.30412,"lon":5.41299,"is_reserved":false,"is_disabled":false,"rental_uris":{"android":"levelo://app?vid=40207740-3997-48f7-a3a9-b19ccf0a0c3b","ios":"levelo://app?vid=40207740-3997-48f7-a3a9-b19ccf0a0c3b"},"vehicle_type_id":"4","last_reported":1757797636,"current_range_meters":13600,"station_id":"ce4bhop2rcd13ifvqh8g","pricing_plan_id":"cebpf4jnsgd1na2vs0mg"},{"bike_id":"31195751-bbc1-4ea5-8068-c21d8881b649","system_id":"levelo_inurba_marseille","lat":43.24068,"lon":5.37705,"is_reserved":false,"is_disabled":false,"rental_uris":{"android":"levelo://app?vid=31195751-bbc1-4ea5-8068-c21d8881b649","ios":"levelo://app?vid=31195751-bbc1-4ea5-8068-c21d8881b649"},"vehicle_type_id":"4","last_reported":1757797636,"current_range_meters":14000,"station_id":"ce4bhnp2rcd13ifvqgvg","pricing_plan_id":"cebpf4jnsgd1na2vs0mg"},{"bike_id":"939b9c08-d247-4e29-a963-e8d7b1f9aa03","system_id":"levelo_inurba_marseille","lat":43.28859,"lon":5.35847,"is_reserved":false,"is_disabled":false,"rental_uris":{"android":"levelo://app?vid=939b9c08-d247-4e29-a963-e8d7b1f9aa03","ios":"levelo://app?vid=939b9c08-d247-4e29-a963-e8d7b1f9aa03"},"vehicle_type_id":"4","last_reported":1757797636,"current_range_meters":14000,"station_id":"ce4bhb12rcd13ifvqem0","pricing_plan_id":"cebpf4jnsgd1na2vs0mg"},{"bike_id":"fd023a40-d69c-4361-9109-4126162693f0","system_id":"levelo_inurba_marseille","lat":43.27776,"lon":5.37841,"is_reserved":false,"is_disabled":false,"rental_uris":{"android":"levelo://app?vid=fd023a40-d69c-4361-9109-4126162693f0","ios":"levelo://app?vid=fd023a40-d69c-4361-9109-4126162693f0"},"vehicle_type_id":"4","last_reported":1757797636,"current_range_meters":14000,"station_id":"","pricing_plan_id":"cebpf4jnsgd1na2vs0mg"},{"bike_id":"e9ee13b6-cdb7-464a-b41c-3f407be862de","system_id":"levelo_inurba_marseille","lat":43.21751,"lon":5.34604,"is_reserved":false,"is_disabled":false,"rental_uris":{"android":"levelo://app?vid=e9ee13b6-cdb7-464a-b41c-3f407be862de","ios":"levelo://app?vid=e9ee13b6-cdb7-464a-b41c-3f407be862de"},"vehicle_type_id":"4","last_reported":1757797636,"current_range_meters":14000,"station_id":"st_cvj6r9ubvosntc0bgbag","pricing_plan_id":"cebpf4jnsgd1na2vs0mg"},{"bike_id":"986d5aa2-f4df-4631-b089-ccb3d6dae626","system_id":"levelo_inurba_marseille","lat":43.31378,"lon":5.38635,"is_reserved":false,"is_disabled":false,"rental_uris":{"android":"levelo://app?vid=986d5aa2-f4df-4631-b089-ccb3d6dae626","ios":"levelo://app?vid=986d5aa2-f4df-4631-b089-ccb3d6dae626"},"vehicle_type_id":"4","last_reported":1757797636,"current_range_meters":14000,"station_id":"","pricing_plan_id":"cebpf4jnsgd1na2vs0mg"},{"bike_id":"0c13100c-0c9a-4368-845d-53f7683eda77","system_id":"levelo_inurba_marseille","lat":43.290229,"lon":5.386519,"is_reserved":false,"is_disabled":false,"rental_uris":{"android":"levelo://app?vid=0c13100c-0c9a-4368-845d-53f7683eda77","ios":"levelo://app?vid=0c13100c-0c9a-4368-845d-53f7683eda77"},"vehicle_type_id":"4","last_reported":1757797636,"current_range_meters":14000,"station_id":"ce4bh4p2rcd13ifvqe0g","pricing_plan_id":"cebpf4jnsgd1na2vs0mg"},{"bike_id":"1eaf7d24-f23e-4e79-b6f5-17176bccc028","system_id":"levelo_inurba_marseille","lat":43.27917,"lon":5.38778,"is_reserved":false,"is_disabled":false,"rental_uris":{"android":"levelo://app?vid=1eaf7d24-f23e-4e79-b6f5-17176bccc028","ios":"levelo://app?vid=1eaf7d24-f23e-4e79-b6f5-17176bccc028"},"vehicle_type_id":"4","last_reported":1757797636,"current_range_meters":14000,"station_id":"","pricing_plan_id":"cebpf4jnsgd1na2vs0mg"},{"bike_id":"c5cba6d7-e282-4417-a818-5fc0802dcb08","system_id":"levelo_inurba_marseille","lat":43.33761,"lon":5.3745,"is_reserved":false,"is_disabled":false,"rental_uris":{"android":"levelo://app?vid=c5cba6d7-e282-4417-a818-5fc0802dcb08","ios":"levelo://app?vid=c5cba6d7-e282-4417-a818-5fc0802dcb08"},"vehicle_type_id":"4","last_reported":1757797636,"current_range_meters":14000,"station_id":"","pricing_plan_id":"cebpf4jnsgd1na2vs0mg"},{"bike_id":"4cf32860-02c0-42d8-8fc7-bc80dfb774ff","system_id":"levelo_inurba_marseille","lat":43.28941,"lon":5.3664,"is_reserved":false,"is_disabled":false,"rental_uris":{"android":"levelo://app?vid=4cf32860-02c0-42d8-8fc7-bc80dfb774ff","ios":"levelo://app?vid=4cf32860-02c0-42d8-8fc7-bc80dfb774ff"},"vehicle_type_id":"4","last_reported":1757797636,"current_range_meters":13600,"station_id":"ce4bhap2rcd13ifvqek0","pricing_plan_id":"cebpf4jnsgd1na2vs0mg"},{"bike_id":"8fa5622b-52f0-4cb9-8b70-94a11be2eab2","system_id":"levelo_inurba_marseille","lat":43.274865,"lon":5.359772,"is_reserved":false,"is_disabled":false,"rental_uris":{"android":"levelo://app?vid=8fa5622b-52f0-4cb9-8b70-94a11be2eab2","ios":"levelo://app?vid=8fa5622b-52f0-4cb9-8b70-94a11be2eab2"},"vehicle_type_id":"4","last_reported":1757797636,"current_range_meters":14000,"station_id":"ce4bgj92rcd13ifvqbe0","pricing_plan_id":"cebpf4jnsgd1na2vs0mg"},{"bike_id":"8ed50a67-a984-47ae-b7b1-07e37f9e3a73","system_id":"levelo_inurba_marseille","lat":43.27986,"lon":5.41664,"is_reserved":false,"is_disabled":false,"rental_uris":{"android":"levelo://app?vid=8ed50a67-a984-47ae-b7b1-07e37f9e3a73","ios":"levelo://app?vid=8ed50a67-a984-47ae-b7b1-07e37f9e3a73"},"vehicle_type_id":"4","last_reported":1757797636,"current_range_meters":14000,"station_id":"ce4bho12rcd13ifvqh1g","pricing_plan_id":"cebpf4jnsgd1na2vs0mg"},{"bike_id":"ee510f93-9bad-498c-af93-1bec8c5ad01b","system_id":"levelo_inurba_marseille","lat":43.2534,"lon":5.42171,"is_reserved":false,"is_disabled":false,"rental_uris":{"android":"levelo://app?vid=ee510f93-9bad-498c-af93-1bec8c5ad01b","ios":"levelo://app?vid=ee510f93-9bad-498c-af93-1bec8c5ad01b"},"vehicle_type_id":"4","last_reported":1757797636,"current_range_meters":14400,"station_id":"st_d2m65c5bi1j21697t3ng","pricing_plan_id":"cebpf4jnsgd1na2vs0mg"},{"bike_id":"3bf18036-15fd-4328-b40d-856c760aa485","system_id":"levelo_inurba_marseille","lat":43.28655,"lon":5.3635,"is_reserved":false,"is_disabled":false,"rental_uris":{"android":"levelo://app?vid=3bf18036-15fd-4328-b40d-856c760aa485","ios":"levelo://app?vid=3bf18036-15fd-4328-b40d-856c760aa485"},"vehicle_type_id":"4","last_reported":1757797636,"current_range_meters":14400,"station_id":"ce4bhah2rcd13ifvqej0","pricing_plan_id":"cebpf4jnsgd1na2vs0mg"},{"bike_id":"e7a329bd-ed66-4ac7-aaba-63f2810ddd86","system_id":"levelo_inurba_marseille","lat":43.31915,"lon":5.37186,"is_reserved":false,"is_disabled":false,"rental_uris":{"android":"levelo://app?vid=e7a329bd-ed66-4ac7-aaba-63f2810ddd86","ios":"levelo://app?vid=e7a329bd-ed66-4ac7-aaba-63f2810ddd86"},"vehicle_type_id":"4","last_reported":1757797636,"current_range_meters":14400,"station_id":"","pricing_plan_id":"cebpf4jnsgd1na2vs0mg"},{"bike_id":"b5e6492f-c6f6-4862-a7a2-5eb9440d5281","system_id":"levelo_inurba_marseille","lat":43.27998,"lon":5.40009,"is_reserved":false,"is_disabled":false,"rental_uris":{"android":"levelo://app?vid=b5e6492f-c6f6-4862-a7a2-5eb9440d5281","ios":"levelo://app?vid=b5e6492f-c6f6-4862-a7a2-5eb9440d5281"},"vehicle_type_id":"4","last_reported":1757797636,"current_range_meters":14400,"station_id":"ce4bho92rcd13ifvqh4g","pricing_plan_id":"cebpf4jnsgd1na2vs0mg"},{"bike_id":"08dd149f-234d-4257-9742-8ea8a2f2658d","system_id":"levelo_inurba_marseille","lat":43.28413,"lon":5.37532,"is_reserved":false,"is_disabled":true,"rental_uris":{"android":"levelo://app?vid=08dd149f-234d-4257-9742-8ea8a2f2658d","ios":"levelo://app?vid=08dd149f-234d-4257-9742-8ea8a2f2658d"},"vehicle_type_id":"4","last_reported":1757797636,"current_range_meters":14400,"station_id":"ce4bh412rcd13ifvqds0","pricing_plan_id":"cebpf4jnsgd1na2vs0mg"},{"bike_id":"12b9c958-ee1d-4a7e-b063-6648532a7910","system_id":"levelo_inurba_marseille","lat":43.304,"lon":5.41292,"is_reserved":false,"is_disabled":false,"rental_uris":{"android":"levelo://app?vid=12b9c958-ee1d-4a7e-b063-6648532a7910","ios":"levelo://app?vid=12b9c958-ee1d-4a7e-b063-6648532a7910"},"vehicle_type_id":"4","last_reported":1757797636,"current_range_meters":14400,"station_id":"ce4bhop2rcd13ifvqh8g","pricing_plan_id":"cebpf4jnsgd1na2vs0mg"},{"bike_id":"7108a4a4-23a1-4ea2-a599-54c778559313","system_id":"levelo_inurba_marseille","lat":43.26206,"lon":5.40444,"is_reserved":false,"is_disabled":false,"rental_uris":{"android":"levelo://app?vid=7108a4a4-23a1-4ea2-a599-54c778559313","ios":"levelo://app?vid=7108a4a4-23a1-4ea2-a599-54c778559313"},"vehicle_type_id":"4","last_reported":1757797636,"current_range_meters":14400,"station_id":"ce4bhmh2rcd13ifvqgmg","pricing_plan_id":"cebpf4jnsgd1na2vs0mg"},{"bike_id":"c5ba6905-3885-4fd9-998e-4096807c2ea4","system_id":"levelo_inurba_marseille","lat":43.30653,"lon":5.40102,"is_reserved":false,"is_disabled":false,"rental_uris":{"android":"levelo://app?vid=c5ba6905-3885-4fd9-998e-4096807c2ea4","ios":"levelo://app?vid=c5ba6905-3885-4fd9-998e-4096807c2ea4"},"vehicle_type_id":"4","last_reported":1757797636,"current_range_meters":14400,"station_id":"ce4bh112rcd13ifvqda0","pricing_plan_id":"cebpf4jnsgd1na2vs0mg"},{"bike_id":"c682ef70-00bc-4415-9b10-9a35bd5ddcc1","system_id":"levelo_inurba_marseille","lat":43.27499,"lon":5.42448,"is_reserved":false,"is_disabled":false,"rental_uris":{"android":"levelo://app?vid=c682ef70-00bc-4415-9b10-9a35bd5ddcc1","ios":"levelo://app?vid=c682ef70-00bc-4415-9b10-9a35bd5ddcc1"},"vehicle_type_id":"4","last_reported":1757797636,"current_range_meters":14800,"station_id":"ce4bhn92rcd13ifvqgrg","pricing_plan_id":"cebpf4jnsgd1na2vs0mg"},{"bike_id":"c191ad49-f4cb-4b6a-8b55-e924c1e5ab80","system_id":"levelo_inurba_marseille","lat":43.27938,"lon":5.41044,"is_reserved":false,"is_disabled":false,"rental_uris":{"android":"levelo://app?vid=c191ad49-f4cb-4b6a-8b55-e924c1e5ab80","ios":"levelo://app?vid=c191ad49-f4cb-4b6a-8b55-e924c1e5ab80"},"vehicle_type_id":"4","last_reported":1757797636,"current_range_meters":14800,"station_id":"ce4bhnp2rcd13ifvqh0g","pricing_plan_id":"cebpf4jnsgd1na2vs0mg"},{"bike_id":"0f88ade7-a5e5-4f84-877c-c89586811dd3","system_id":"levelo_inurba_marseille","lat":43.2931,"lon":5.37161,"is_reserved":false,"is_disabled":false,"rental_uris":{"android":"levelo://app?vid=0f88ade7-a5e5-4f84-877c-c89586811dd3","ios":"levelo://app?vid=0f88ade7-a5e5-4f84-877c-c89586811dd3"},"vehicle_type_id":"4","last_reported":1757797636,"current_range_meters":14800,"station_id":"ce4bgh92rcd13ifvqb40","pricing_plan_id":"cebpf4jnsgd1na2vs0mg"},{"bike_id":"3edab8b5-08ab-4bd7-a8e3-46e14fec2b69","system_id":"levelo_inurba_marseille","lat":43.2256,"lon":5.41626,"is_reserved":false,"is_disabled":false,"rental_uris":{"android":"levelo://app?vid=3edab8b5-08ab-4bd7-a8e3-46e14fec2b69","ios":"levelo://app?vid=3edab8b5-08ab-4bd7-a8e3-46e14fec2b69"},"vehicle_type_id":"4","last_reported":1757797636,"current_range_meters":14800,"station_id":"st_d2o4gvlbi1j2169b742g","pricing_plan_id":"cebpf4jnsgd1na2vs0mg"},{"bike_id":"9613ee4d-bd84-40ec-a183-9abb4af6a1b6","system_id":"levelo_inurba_marseille","lat":43.32358,"lon":5.36684,"is_reserved":false,"is_disabled":false,"rental_uris":{"android":"levelo://app?vid=9613ee4d-bd84-40ec-a183-9abb4af6a1b6","ios":"levelo://app?vid=9613ee4d-bd84-40ec-a183-9abb4af6a1b6"},"vehicle_type_id":"4","last_reported":1757797636,"current_range_meters":14800,"station_id":"","pricing_plan_id":"cebpf4jnsgd1na2vs0mg"},{"bike_id":"1fd0839a-5871-4f14-8b02-5a5126ced4cd","system_id":"levelo_inurba_marseille","lat":43.2317,"lon":5.39998,"is_reserved":false,"is_disabled":false,"rental_uris":{"android":"levelo://app?vid=1fd0839a-5871-4f14-8b02-5a5126ced4cd","ios":"levelo://app?vid=1fd0839a-5871-4f14-8b02-5a5126ced4cd"},"vehicle_type_id":"4","last_reported":1757797636,"current_range_meters":14800,"station_id":"ce4bhn12rcd13ifvqgqg","pricing_plan_id":"cebpf4jnsgd1na2vs0mg"},{"bike_id":"31f4578e-18c6-48fb-9fec-123fce0578f9","system_id":"levelo_inurba_marseille","lat":43.30465,"lon":5.37915,"is_reserved":false,"is_disabled":false,"rental_uris":{"android":"levelo://app?vid=31f4578e-18c6-48fb-9fec-123fce0578f9","ios":"levelo://app?vid=31f4578e-18c6-48fb-9fec-123fce0578f9"},"vehicle_type_id":"4","last_reported":1757797636,"current_range_meters":14800,"station_id":"","pricing_plan_id":"cebpf4jnsgd1na2vs0mg"},{"bike_id":"0418ed23-d4c6-49db-b310-d4f985bd3bc3","system_id":"levelo_inurba_marseille","lat":43.32101,"lon":5.36773,"is_reserved":false,"is_disabled":false,"rental_uris":{"android":"levelo://app?vid=0418ed23-d4c6-49db-b310-d4f985bd3bc3","ios":"levelo://app?vid=0418ed23-d4c6-49db-b310-d4f985bd3bc3"},"vehicle_type_id":"4","last_reported":1757797636,"current_range_meters":15200,"station_id":"ce4bhrh2rcd13ifvqhug","pricing_plan_id":"cebpf4jnsgd1na2vs0mg"},{"bike_id":"cf0e66ff-0ff3-4e39-9de4-1c37c8fe4cb2","system_id":"levelo_inurba_marseille","lat":43.2742,"lon":5.39435,"is_reserved":false,"is_disabled":false,"rental_uris":{"android":"levelo://app?vid=cf0e66ff-0ff3-4e39-9de4-1c37c8fe4cb2","ios":"levelo://app?vid=cf0e66ff-0ff3-4e39-9de4-1c37c8fe4cb2"},"vehicle_type_id":"4","last_reported":1757797636,"current_range_meters":15200,"station_id":"ce4bhdp2rcd13ifvqf20","pricing_plan_id":"cebpf4jnsgd1na2vs0mg"},{"bike_id":"6f9712e2-9c61-4aa2-aea4-43a349d24426","system_id":"levelo_inurba_marseille","lat":43.29912,"lon":5.38149,"is_reserved":false,"is_disabled":false,"rental_uris":{"android":"levelo://app?vid=6f9712e2-9c61-4aa2-aea4-43a349d24426","ios":"levelo://app?vid=6f9712e2-9c61-4aa2-aea4-43a349d24426"},"vehicle_type_id":"4","last_reported":1757797636,"current_range_meters":14800,"station_id":"ce4bgj12rcd13ifvqbc0","pricing_plan_id":"cebpf4jnsgd1na2vs0mg"},{"bike_id":"adc646a7-fbd8-4589-8eb5-342826c960e0","system_id":"levelo_inurba_marseille","lat":43.29267,"lon":5.36852,"is_reserved":false,"is_disabled":false,"rental_uris":{"android":"levelo://app?vid=adc646a7-fbd8-4589-8eb5-342826c960e0","ios":"levelo://app?vid=adc646a7-fbd8-4589-8eb5-342826c960e0"},"vehicle_type_id":"4","last_reported":1757797636,"current_range_meters":15200,"station_id":"ce4bhbp2rcd13ifvqesg","pricing_plan_id":"cebpf4jnsgd1na2vs0mg"},{"bike_id":"a101c7bf-ee0b-4314-9ea3-48a79bb4537e","system_id":"levelo_inurba_marseille","lat":43.29274,"lon":5.3685,"is_reserved":false,"is_disabled":false,"rental_uris":{"android":"levelo://app?vid=a101c7bf-ee0b-4314-9ea3-48a79bb4537e","ios":"levelo://app?vid=a101c7bf-ee0b-4314-9ea3-48a79bb4537e"},"vehicle_type_id":"4","last_reported":1757797636,"current_range_meters":15200,"station_id":"ce4bhbp2rcd13ifvqesg","pricing_plan_id":"cebpf4jnsgd1na2vs0mg"},{"bike_id":"d16230ff-2955-426b-a6aa-84f8e2e13648","system_id":"levelo_inurba_marseille","lat":43.28866,"lon":5.42524,"is_reserved":false,"is_disabled":false,"rental_uris":{"android":"levelo://app?vid=d16230ff-2955-426b-a6aa-84f8e2e13648","ios":"levelo://app?vid=d16230ff-2955-426b-a6aa-84f8e2e13648"},"vehicle_type_id":"4","last_reported":1757797636,"current_range_meters":15200,"station_id":"","pricing_plan_id":"cebpf4jnsgd1na2vs0mg"},{"bike_id":"3bc338fd-b3c5-4caa-b6e6-3c70a52689ba","system_id":"levelo_inurba_marseille","lat":43.31611,"lon":5.38957,"is_reserved":false,"is_disabled":false,"rental_uris":{"android":"levelo://app?vid=3bc338fd-b3c5-4caa-b6e6-3c70a52689ba","ios":"levelo://app?vid=3bc338fd-b3c5-4caa-b6e6-3c70a52689ba"},"vehicle_type_id":"4","last_reported":1757797636,"current_range_meters":15200,"station_id":"","pricing_plan_id":"cebpf4jnsgd1na2vs0mg"},{"bike_id":"0a6a7f24-a3a8-4967-a9b1-528be52b4d45","system_id":"levelo_inurba_marseille","lat":43.28238,"lon":5.35026,"is_reserved":false,"is_disabled":false,"rental_uris":{"android":"levelo://app?vid=0a6a7f24-a3a8-4967-a9b1-528be52b4d45","ios":"levelo://app?vid=0a6a7f24-a3a8-4967-a9b1-528be52b4d45"},"vehicle_type_id":"4","last_reported":1757797636,"current_range_meters":16000,"station_id":"ce4bhbp2rcd13ifvqerg","pricing_plan_id":"cebpf4jnsgd1na2vs0mg"},{"bike_id":"68aa7d13-113d-4c6f-8e21-81b01dbe9881","system_id":"levelo_inurba_marseille","lat":43.290131,"lon":5.356141,"is_reserved":false,"is_disabled":false,"rental_uris":{"android":"levelo://app?vid=68aa7d13-113d-4c6f-8e21-81b01dbe9881","ios":"levelo://app?vid=68aa7d13-113d-4c6f-8e21-81b01dbe9881"},"vehicle_type_id":"4","last_reported":1757797636,"current_range_meters":15200,"station_id":"ce4bhb92rcd13ifvqen0","pricing_plan_id":"cebpf4jnsgd1na2vs0mg"},{"bike_id":"76044b47-22ff-4054-b180-0d72b52b8bee","system_id":"levelo_inurba_marseille","lat":43.24632,"lon":5.43146,"is_reserved":false,"is_disabled":false,"rental_uris":{"android":"levelo://app?vid=76044b47-22ff-4054-b180-0d72b52b8bee","ios":"levelo://app?vid=76044b47-22ff-4054-b180-0d72b52b8bee"},"vehicle_type_id":"4","last_reported":1757797636,"current_range_meters":16000,"station_id":"st_d2m6c4gdas8pm72e190g","pricing_plan_id":"cebpf4jnsgd1na2vs0mg"},{"bike_id":"0e645ae5-4510-4502-81a8-586fade255e6","system_id":"levelo_inurba_marseille","lat":43.29267,"lon":5.38432,"is_reserved":false,"is_disabled":false,"rental_uris":{"android":"levelo://app?vid=0e645ae5-4510-4502-81a8-586fade255e6","ios":"levelo://app?vid=0e645ae5-4510-4502-81a8-586fade255e6"},"vehicle_type_id":"4","last_reported":1757797636,"current_range_meters":16000,"station_id":"ce4bh692rcd13ifvqea0","pricing_plan_id":"cebpf4jnsgd1na2vs0mg"},{"bike_id":"1fa9cf8a-cbc2-4f66-a5af-49139eedcffa","system_id":"levelo_inurba_marseille","lat":43.316834,"lon":5.404893,"is_reserved":false,"is_disabled":false,"rental_uris":{"android":"levelo://app?vid=1fa9cf8a-cbc2-4f66-a5af-49139eedcffa","ios":"levelo://app?vid=1fa9cf8a-cbc2-4f66-a5af-49139eedcffa"},"vehicle_type_id":"4","last_reported":1757797636,"current_range_meters":16400,"station_id":"ce4bh012rcd13ifvqd00","pricing_plan_id":"cebpf4jnsgd1na2vs0mg"},{"bike_id":"085d1fc3-832e-4bb8-9dab-596c869e48fd","system_id":"levelo_inurba_marseille","lat":43.28225,"lon":5.39045,"is_reserved":false,"is_disabled":false,"rental_uris":{"android":"levelo://app?vid=085d1fc3-832e-4bb8-9dab-596c869e48fd","ios":"levelo://app?vid=085d1fc3-832e-4bb8-9dab-596c869e48fd"},"vehicle_type_id":"4","last_reported":1757797636,"current_range_meters":16400,"station_id":"ce4bhn92rcd13ifvqgsg","pricing_plan_id":"cebpf4jnsgd1na2vs0mg"},{"bike_id":"ffab450d-4c81-4d44-8256-678a72cf8297","system_id":"levelo_inurba_marseille","lat":43.31699,"lon":5.40471,"is_reserved":false,"is_disabled":false,"rental_uris":{"android":"levelo://app?vid=ffab450d-4c81-4d44-8256-678a72cf8297","ios":"levelo://app?vid=ffab450d-4c81-4d44-8256-678a72cf8297"},"vehicle_type_id":"4","last_reported":1757797636,"current_range_meters":16400,"station_id":"ce4bh012rcd13ifvqd00","pricing_plan_id":"cebpf4jnsgd1na2vs0mg"},{"bike_id":"32e290da-7f91-401e-b30f-897197fc4c96","system_id":"levelo_inurba_marseille","lat":43.29547,"lon":5.42317,"is_reserved":false,"is_disabled":false,"rental_uris":{"android":"levelo://app?vid=32e290da-7f91-401e-b30f-897197fc4c96","ios":"levelo://app?vid=32e290da-7f91-401e-b30f-897197fc4c96"},"vehicle_type_id":"4","last_reported":1757797636,"current_range_meters":16400,"station_id":"ce4bhph2rcd13ifvqhdg","pricing_plan_id":"cebpf4jnsgd1na2vs0mg"},{"bike_id":"c2d3632c-990c-4197-afd0-f548a8ca4536","system_id":"levelo_inurba_marseille","lat":43.31714,"lon":5.43706,"is_reserved":false,"is_disabled":false,"rental_uris":{"android":"levelo://app?vid=c2d3632c-990c-4197-afd0-f548a8ca4536","ios":"levelo://app?vid=c2d3632c-990c-4197-afd0-f548a8ca4536"},"vehicle_type_id":"4","last_reported":1757797636,"current_range_meters":16400,"station_id":"","pricing_plan_id":"cebpf4jnsgd1na2vs0mg"},{"bike_id":"2f3eaba9-3f91-4a26-a414-0c3425ac3531","system_id":"levelo_inurba_marseille","lat":43.30146,"lon":5.39877,"is_reserved":false,"is_disabled":false,"rental_uris":{"android":"levelo://app?vid=2f3eaba9-3f91-4a26-a414-0c3425ac3531","ios":"levelo://app?vid=2f3eaba9-3f91-4a26-a414-0c3425ac3531"},"vehicle_type_id":"4","last_reported":1757797636,"current_range_meters":16400,"station_id":"","pricing_plan_id":"cebpf4jnsgd1na2vs0mg"},{"bike_id":"654df5a8-46fd-4bb1-a78c-219e858dd01e","system_id":"levelo_inurba_marseille","lat":43.28854,"lon":5.36657,"is_reserved":false,"is_disabled":false,"rental_uris":{"android":"levelo://app?vid=654df5a8-46fd-4bb1-a78c-219e858dd01e","ios":"levelo://app?vid=654df5a8-46fd-4bb1-a78c-219e858dd01e"},"vehicle_type_id":"4","last_reported":1757797636,"current_range_meters":16400,"station_id":"","pricing_plan_id":"cebpf4jnsgd1na2vs0mg"},{"bike_id":"e4209e64-8d98-470c-a33c-9b7fd85a3947","system_id":"levelo_inurba_marseille","lat":43.29529,"lon":5.38574,"is_reserved":false,"is_disabled":false,"rental_uris":{"android":"levelo://app?vid=e4209e64-8d98-470c-a33c-9b7fd85a3947","ios":"levelo://app?vid=e4209e64-8d98-470c-a33c-9b7fd85a3947"},"vehicle_type_id":"4","last_reported":1757797636,"current_range_meters":16400,"station_id":"ce4bgih2rcd13ifvqba0","pricing_plan_id":"cebpf4jnsgd1na2vs0mg"},{"bike_id":"9f3330f8-8f41-42c8-843d-53a2f8fa640d","system_id":"levelo_inurba_marseille","lat":43.25124,"lon":5.40315,"is_reserved":false,"is_disabled":false,"rental_uris":{"android":"levelo://app?vid=9f3330f8-8f41-42c8-843d-53a2f8fa640d","ios":"levelo://app?vid=9f3330f8-8f41-42c8-843d-53a2f8fa640d"},"vehicle_type_id":"4","last_reported":1757797636,"current_range_meters":16400,"station_id":"ce4bhlh2rcd13ifvqgig","pricing_plan_id":"cebpf4jnsgd1na2vs0mg"},{"bike_id":"c75bfa20-483b-42f7-8a25-5f10e08a57b0","system_id":"levelo_inurba_marseille","lat":43.32112,"lon":5.3678,"is_reserved":false,"is_disabled":false,"rental_uris":{"android":"levelo://app?vid=c75bfa20-483b-42f7-8a25-5f10e08a57b0","ios":"levelo://app?vid=c75bfa20-483b-42f7-8a25-5f10e08a57b0"},"vehicle_type_id":"4","last_reported":1757797636,"current_range_meters":16400,"station_id":"ce4bhrh2rcd13ifvqhug","pricing_plan_id":"cebpf4jnsgd1na2vs0mg"},{"bike_id":"2500752c-16d5-4447-b628-690ad7fdd253","system_id":"levelo_inurba_marseille","lat":43.21742,"lon":5.34612,"is_reserved":false,"is_disabled":false,"rental_uris":{"android":"levelo://app?vid=2500752c-16d5-4447-b628-690ad7fdd253","ios":"levelo://app?vid=2500752c-16d5-4447-b628-690ad7fdd253"},"vehicle_type_id":"4","last_reported":1757797636,"current_range_meters":16800,"station_id":"st_cvj6r9ubvosntc0bgbag","pricing_plan_id":"cebpf4jnsgd1na2vs0mg"},{"bike_id":"e2e4f612-cea7-473f-8581-0936e5ea494b","system_id":"levelo_inurba_marseille","lat":43.29256,"lon":5.38448,"is_reserved":false,"is_disabled":false,"rental_uris":{"android":"levelo://app?vid=e2e4f612-cea7-473f-8581-0936e5ea494b","ios":"levelo://app?vid=e2e4f612-cea7-473f-8581-0936e5ea494b"},"vehicle_type_id":"4","last_reported":1757797636,"current_range_meters":16800,"station_id":"ce4bh692rcd13ifvqea0","pricing_plan_id":"cebpf4jnsgd1na2vs0mg"},{"bike_id":"5476d906-b0c2-4d37-81e0-6fc56d7abe48","system_id":"levelo_inurba_marseille","lat":43.31713,"lon":5.37637,"is_reserved":false,"is_disabled":false,"rental_uris":{"android":"levelo://app?vid=5476d906-b0c2-4d37-81e0-6fc56d7abe48","ios":"levelo://app?vid=5476d906-b0c2-4d37-81e0-6fc56d7abe48"},"vehicle_type_id":"4","last_reported":1757797636,"current_range_meters":16800,"station_id":"","pricing_plan_id":"cebpf4jnsgd1na2vs0mg"},{"bike_id":"0db1212c-b38c-47f5-8e41-37749d8fc729","system_id":"levelo_inurba_marseille","lat":43.2899,"lon":5.38665,"is_reserved":false,"is_disabled":false,"rental_uris":{"android":"levelo://app?vid=0db1212c-b38c-47f5-8e41-37749d8fc729","ios":"levelo://app?vid=0db1212c-b38c-47f5-8e41-37749d8fc729"},"vehicle_type_id":"4","last_reported":1757797636,"current_range_meters":16800,"station_id":"","pricing_plan_id":"cebpf4jnsgd1na2vs0mg"},{"bike_id":"75c9525d-ef79-49f4-81a6-4ff385fc5a93","system_id":"levelo_inurba_marseille","lat":43.26946,"lon":5.38645,"is_reserved":false,"is_disabled":false,"rental_uris":{"android":"levelo://app?vid=75c9525d-ef79-49f4-81a6-4ff385fc5a93","ios":"levelo://app?vid=75c9525d-ef79-49f4-81a6-4ff385fc5a93"},"vehicle_type_id":"4","last_reported":1757797636,"current_range_meters":16800,"station_id":"ce4bhh92rcd13ifvqfh0","pricing_plan_id":"cebpf4jnsgd1na2vs0mg"},{"bike_id":"b37d21d9-2cea-4209-9cd1-8c6dacc037d6","system_id":"levelo_inurba_marseille","lat":43.31989,"lon":5.38142,"is_reserved":false,"is_disabled":false,"rental_uris":{"android":"levelo://app?vid=b37d21d9-2cea-4209-9cd1-8c6dacc037d6","ios":"levelo://app?vid=b37d21d9-2cea-4209-9cd1-8c6dacc037d6"},"vehicle_type_id":"4","last_reported":1757797636,"current_range_meters":16800,"station_id":"ce4bhr12rcd13ifvqhpg","pricing_plan_id":"cebpf4jnsgd1na2vs0mg"},{"bike_id":"e469d04c-d5f9-4769-921d-a7a61be9818b","system_id":"levelo_inurba_marseille","lat":43.289361,"lon":5.366416,"is_reserved":false,"is_disabled":false,"rental_uris":{"android":"levelo://app?vid=e469d04c-d5f9-4769-921d-a7a61be9818b","ios":"levelo://app?vid=e469d04c-d5f9-4769-921d-a7a61be9818b"},"vehicle_type_id":"4","last_reported":1757797636,"current_range_meters":16800,"station_id":"ce4bhap2rcd13ifvqek0","pricing_plan_id":"cebpf4jnsgd1na2vs0mg"},{"bike_id":"8531afdb-32d4-4c53-8b7d-1730982d0eec","system_id":"levelo_inurba_marseille","lat":43.21756,"lon":5.34603,"is_reserved":false,"is_disabled":false,"rental_uris":{"android":"levelo://app?vid=8531afdb-32d4-4c53-8b7d-1730982d0eec","ios":"levelo://app?vid=8531afdb-32d4-4c53-8b7d-1730982d0eec"},"vehicle_type_id":"4","last_reported":1757797636,"current_range_meters":17200,"station_id":"st_cvj6r9ubvosntc0bgbag","pricing_plan_id":"cebpf4jnsgd1na2vs0mg"},{"bike_id":"c650d8ab-12a0-49de-a79a-13d537f5816c","system_id":"levelo_inurba_marseille","lat":43.27376,"lon":5.36259,"is_reserved":false,"is_disabled":false,"rental_uris":{"android":"levelo://app?vid=c650d8ab-12a0-49de-a79a-13d537f5816c","ios":"levelo://app?vid=c650d8ab-12a0-49de-a79a-13d537f5816c"},"vehicle_type_id":"4","last_reported":1757797636,"current_range_meters":17200,"station_id":"ce4bhbh2rcd13ifvqeo0","pricing_plan_id":"cebpf4jnsgd1na2vs0mg"},{"bike_id":"25b82d02-e21f-4739-a5c4-af9c1108229b","system_id":"levelo_inurba_marseille","lat":43.31707,"lon":5.43699,"is_reserved":false,"is_disabled":false,"rental_uris":{"android":"levelo://app?vid=25b82d02-e21f-4739-a5c4-af9c1108229b","ios":"levelo://app?vid=25b82d02-e21f-4739-a5c4-af9c1108229b"},"vehicle_type_id":"4","last_reported":1757797636,"current_range_meters":17200,"station_id":"ce4bhp92rcd13ifvqhcg","pricing_plan_id":"cebpf4jnsgd1na2vs0mg"},{"bike_id":"08179385-6609-4f79-9106-f2a4ea09d8a1","system_id":"levelo_inurba_marseille","lat":43.29536,"lon":5.38546,"is_reserved":false,"is_disabled":false,"rental_uris":{"android":"levelo://app?vid=08179385-6609-4f79-9106-f2a4ea09d8a1","ios":"levelo://app?vid=08179385-6609-4f79-9106-f2a4ea09d8a1"},"vehicle_type_id":"4","last_reported":1757797636,"current_range_meters":17200,"station_id":"ce4bgih2rcd13ifvqba0","pricing_plan_id":"cebpf4jnsgd1na2vs0mg"},{"bike_id":"14e2496b-54f5-4a71-8a7b-f668d23f2674","system_id":"levelo_inurba_marseille","lat":43.25731,"lon":5.41106,"is_reserved":false,"is_disabled":false,"rental_uris":{"android":"levelo://app?vid=14e2496b-54f5-4a71-8a7b-f668d23f2674","ios":"levelo://app?vid=14e2496b-54f5-4a71-8a7b-f668d23f2674"},"vehicle_type_id":"4","last_reported":1757797636,"current_range_meters":17200,"station_id":"ce4bhkp2rcd13ifvqgd0","pricing_plan_id":"cebpf4jnsgd1na2vs0mg"},{"bike_id":"8ab60a89-bd14-40d7-b359-020ea126cfef","system_id":"levelo_inurba_marseille","lat":43.3238,"lon":5.36772,"is_reserved":false,"is_disabled":false,"rental_uris":{"android":"levelo://app?vid=8ab60a89-bd14-40d7-b359-020ea126cfef","ios":"levelo://app?vid=8ab60a89-bd14-40d7-b359-020ea126cfef"},"vehicle_type_id":"4","last_reported":1757797636,"current_range_meters":17200,"station_id":"ce4bhsh2rcd13ifvqi2g","pricing_plan_id":"cebpf4jnsgd1na2vs0mg"},{"bike_id":"8e39c90f-c118-4da0-97c0-5d1dd584f302","system_id":"levelo_inurba_marseille","lat":43.28074,"lon":5.39641,"is_reserved":false,"is_disabled":false,"rental_uris":{"android":"levelo://app?vid=8e39c90f-c118-4da0-97c0-5d1dd584f302","ios":"levelo://app?vid=8e39c90f-c118-4da0-97c0-5d1dd584f302"},"vehicle_type_id":"4","last_reported":1757797636,"current_range_meters":17200,"station_id":"ce4bho12rcd13ifvqh2g","pricing_plan_id":"cebpf4jnsgd1na2vs0mg"},{"bike_id":"d27b3dd9-e7e5-4a5a-aa23-c18a43337d1b","system_id":"levelo_inurba_marseille","lat":43.283641,"lon":5.386369,"is_reserved":false,"is_disabled":false,"rental_uris":{"android":"levelo://app?vid=d27b3dd9-e7e5-4a5a-aa23-c18a43337d1b","ios":"levelo://app?vid=d27b3dd9-e7e5-4a5a-aa23-c18a43337d1b"},"vehicle_type_id":"4","last_reported":1757797636,"current_range_meters":17200,"station_id":"ce4bh492rcd13ifvqdvg","pricing_plan_id":"cebpf4jnsgd1na2vs0mg"},{"bike_id":"b46aca54-7870-45e3-9e8d-bc82715dc998","system_id":"levelo_inurba_marseille","lat":43.29434,"lon":5.39752,"is_reserved":false,"is_disabled":false,"rental_uris":{"android":"levelo://app?vid=b46aca54-7870-45e3-9e8d-bc82715dc998","ios":"levelo://app?vid=b46aca54-7870-45e3-9e8d-bc82715dc998"},"vehicle_type_id":"4","last_reported":1757797636,"current_range_meters":17200,"station_id":"ce4bh3h2rcd13ifvqdo0","pricing_plan_id":"cebpf4jnsgd1na2vs0mg"},{"bike_id":"d1835cb7-e899-4398-9f30-62c2e5129cec","system_id":"levelo_inurba_marseille","lat":43.30456,"lon":5.37929,"is_reserved":false,"is_disabled":false,"rental_uris":{"android":"levelo://app?vid=d1835cb7-e899-4398-9f30-62c2e5129cec","ios":"levelo://app?vid=d1835cb7-e899-4398-9f30-62c2e5129cec"},"vehicle_type_id":"4","last_reported":1757797636,"current_range_meters":17600,"station_id":"","pricing_plan_id":"cebpf4jnsgd1na2vs0mg"},{"bike_id":"d9c4202c-de13-4428-8c40-40d90faf1618","system_id":"levelo_inurba_marseille","lat":43.31356,"lon":5.3707,"is_reserved":false,"is_disabled":false,"rental_uris":{"android":"levelo://app?vid=d9c4202c-de13-4428-8c40-40d90faf1618","ios":"levelo://app?vid=d9c4202c-de13-4428-8c40-40d90faf1618"},"vehicle_type_id":"4","last_reported":1757797636,"current_range_meters":17600,"station_id":"","pricing_plan_id":"cebpf4jnsgd1na2vs0mg"},{"bike_id":"96139f0c-870a-411f-951d-2c8989b40da6","system_id":"levelo_inurba_marseille","lat":43.2836,"lon":5.38615,"is_reserved":false,"is_disabled":false,"rental_uris":{"android":"levelo://app?vid=96139f0c-870a-411f-951d-2c8989b40da6","ios":"levelo://app?vid=96139f0c-870a-411f-951d-2c8989b40da6"},"vehicle_type_id":"4","last_reported":1757797636,"current_range_meters":17600,"station_id":"ce4bh492rcd13ifvqdvg","pricing_plan_id":"cebpf4jnsgd1na2vs0mg"},{"bike_id":"4d6e6605-7f16-44fa-a19a-c138ee7cb360","system_id":"levelo_inurba_marseille","lat":43.33799,"lon":5.37446,"is_reserved":false,"is_disabled":false,"rental_uris":{"android":"levelo://app?vid=4d6e6605-7f16-44fa-a19a-c138ee7cb360","ios":"levelo://app?vid=4d6e6605-7f16-44fa-a19a-c138ee7cb360"},"vehicle_type_id":"4","last_reported":1757797636,"current_range_meters":17600,"station_id":"","pricing_plan_id":"cebpf4jnsgd1na2vs0mg"},{"bike_id":"ef94e107-b5fd-44f7-a023-fb0854a2be56","system_id":"levelo_inurba_marseille","lat":43.28613,"lon":5.35093,"is_reserved":false,"is_disabled":false,"rental_uris":{"android":"levelo://app?vid=ef94e107-b5fd-44f7-a023-fb0854a2be56","ios":"levelo://app?vid=ef94e107-b5fd-44f7-a023-fb0854a2be56"},"vehicle_type_id":"4","last_reported":1757797636,"current_range_meters":17600,"station_id":"ce4bhch2rcd13ifvqeug","pricing_plan_id":"cebpf4jnsgd1na2vs0mg"},{"bike_id":"c2a12b2a-4980-406a-ab38-a45bb22678e5","system_id":"levelo_inurba_marseille","lat":43.281528,"lon":5.426423,"is_reserved":false,"is_disabled":false,"rental_uris":{"android":"levelo://app?vid=c2a12b2a-4980-406a-ab38-a45bb22678e5","ios":"levelo://app?vid=c2a12b2a-4980-406a-ab38-a45bb22678e5"},"vehicle_type_id":"4","last_reported":1757797636,"current_range_meters":18800,"station_id":"ce4bhnh2rcd13ifvqgug","pricing_plan_id":"cebpf4jnsgd1na2vs0mg"},{"bike_id":"5a636f63-b11e-48eb-b7e6-ba6886d9ef69","system_id":"levelo_inurba_marseille","lat":43.27175,"lon":5.40997,"is_reserved":false,"is_disabled":false,"rental_uris":{"android":"levelo://app?vid=5a636f63-b11e-48eb-b7e6-ba6886d9ef69","ios":"levelo://app?vid=5a636f63-b11e-48eb-b7e6-ba6886d9ef69"},"vehicle_type_id":"4","last_reported":1757797636,"current_range_meters":17200,"station_id":"ce4bhl12rcd13ifvqgf0","pricing_plan_id":"cebpf4jnsgd1na2vs0mg"},{"bike_id":"3afebc1c-8423-41f9-a193-7626bfe44244","system_id":"levelo_inurba_marseille","lat":43.24999,"lon":5.38939,"is_reserved":false,"is_disabled":false,"rental_uris":{"android":"levelo://app?vid=3afebc1c-8423-41f9-a193-7626bfe44244","ios":"levelo://app?vid=3afebc1c-8423-41f9-a193-7626bfe44244"},"vehicle_type_id":"4","last_reported":1757797636,"current_range_meters":17600,"station_id":"ce4bhgp2rcd13ifvqfd0","pricing_plan_id":"cebpf4jnsgd1na2vs0mg"},{"bike_id":"6e08fe94-e5e7-44e1-8a61-23b030122e1f","system_id":"levelo_inurba_marseille","lat":43.28344,"lon":5.38062,"is_reserved":false,"is_disabled":false,"rental_uris":{"android":"levelo://app?vid=6e08fe94-e5e7-44e1-8a61-23b030122e1f","ios":"levelo://app?vid=6e08fe94-e5e7-44e1-8a61-23b030122e1f"},"vehicle_type_id":"4","last_reported":1757797636,"current_range_meters":18000,"station_id":"ce4bh412rcd13ifvqdr0","pricing_plan_id":"cebpf4jnsgd1na2vs0mg"},{"bike_id":"24e41449-68d1-447e-a632-e9e62811ef07","system_id":"levelo_inurba_marseille","lat":43.2907,"lon":5.37182,"is_reserved":false,"is_disabled":false,"rental_uris":{"android":"levelo://app?vid=24e41449-68d1-447e-a632-e9e62811ef07","ios":"levelo://app?vid=24e41449-68d1-447e-a632-e9e62811ef07"},"vehicle_type_id":"4","last_reported":1757797636,"current_range_meters":17600,"station_id":"ce4bh5p2rcd13ifvqe4g","pricing_plan_id":"cebpf4jnsgd1na2vs0mg"},{"bike_id":"75e7db24-f897-4b35-8b39-9345be8b7845","system_id":"levelo_inurba_marseille","lat":43.24809,"lon":5.37456,"is_reserved":false,"is_disabled":false,"rental_uris":{"android":"levelo://app?vid=75e7db24-f897-4b35-8b39-9345be8b7845","ios":"levelo://app?vid=75e7db24-f897-4b35-8b39-9345be8b7845"},"vehicle_type_id":"4","last_reported":1757797636,"current_range_meters":18000,"station_id":"ce4bhgh2rcd13ifvqfb0","pricing_plan_id":"cebpf4jnsgd1na2vs0mg"},{"bike_id":"8e3a9e83-812e-4b5d-8c7b-5119699e81be","system_id":"levelo_inurba_marseille","lat":43.31583,"lon":5.40572,"is_reserved":false,"is_disabled":false,"rental_uris":{"android":"levelo://app?vid=8e3a9e83-812e-4b5d-8c7b-5119699e81be","ios":"levelo://app?vid=8e3a9e83-812e-4b5d-8c7b-5119699e81be"},"vehicle_type_id":"4","last_reported":1757797636,"current_range_meters":18000,"station_id":"","pricing_plan_id":"cebpf4jnsgd1na2vs0mg"},{"bike_id":"e06d2e94-3ae2-4b4b-9d7e-05d3f806365a","system_id":"levelo_inurba_marseille","lat":43.258162,"lon":5.394352,"is_reserved":false,"is_disabled":false,"rental_uris":{"android":"levelo://app?vid=e06d2e94-3ae2-4b4b-9d7e-05d3f806365a","ios":"levelo://app?vid=e06d2e94-3ae2-4b4b-9d7e-05d3f806365a"},"vehicle_type_id":"4","last_reported":1757797636,"current_range_meters":18000,"station_id":"ce4bhip2rcd13ifvqft0","pricing_plan_id":"cebpf4jnsgd1na2vs0mg"},{"bike_id":"011965a8-f631-45b2-b308-a239a56214f2","system_id":"levelo_inurba_marseille","lat":43.304584,"lon":5.37912,"is_reserved":false,"is_disabled":false,"rental_uris":{"android":"levelo://app?vid=011965a8-f631-45b2-b308-a239a56214f2","ios":"levelo://app?vid=011965a8-f631-45b2-b308-a239a56214f2"},"vehicle_type_id":"4","last_reported":1757797636,"current_range_meters":18000,"station_id":"ce4bgup2rcd13ifvqcn0","pricing_plan_id":"cebpf4jnsgd1na2vs0mg"},{"bike_id":"c79f98a5-b132-4d8b-b050-5e48074dc6fe","system_id":"levelo_inurba_marseille","lat":43.31712,"lon":5.4045,"is_reserved":false,"is_disabled":false,"rental_uris":{"android":"levelo://app?vid=c79f98a5-b132-4d8b-b050-5e48074dc6fe","ios":"levelo://app?vid=c79f98a5-b132-4d8b-b050-5e48074dc6fe"},"vehicle_type_id":"4","last_reported":1757797636,"current_range_meters":18800,"station_id":"ce4bh012rcd13ifvqd00","pricing_plan_id":"cebpf4jnsgd1na2vs0mg"},{"bike_id":"16ef31c1-2e5b-4605-8b2a-c02c4f7600b2","system_id":"levelo_inurba_marseille","lat":43.24169,"lon":5.3973,"is_reserved":false,"is_disabled":false,"rental_uris":{"android":"levelo://app?vid=16ef31c1-2e5b-4605-8b2a-c02c4f7600b2","ios":"levelo://app?vid=16ef31c1-2e5b-4605-8b2a-c02c4f7600b2"},"vehicle_type_id":"4","last_reported":1757797636,"current_range_meters":18800,"station_id":"ce4bhn12rcd13ifvqgpg","pricing_plan_id":"cebpf4jnsgd1na2vs0mg"},{"bike_id":"4abcfd1f-d5ba-40bf-8216-a47803a52e59","system_id":"levelo_inurba_marseille","lat":43.24636,"lon":5.43142,"is_reserved":false,"is_disabled":false,"rental_uris":{"android":"levelo://app?vid=4abcfd1f-d5ba-40bf-8216-a47803a52e59","ios":"levelo://app?vid=4abcfd1f-d5ba-40bf-8216-a47803a52e59"},"vehicle_type_id":"4","last_reported":1757797636,"current_range_meters":18800,"station_id":"st_d2m6c4gdas8pm72e190g","pricing_plan_id":"cebpf4jnsgd1na2vs0mg"},{"bike_id":"5e315310-5f09-4620-9ba4-e75edd176840","system_id":"levelo_inurba_marseille","lat":43.287,"lon":5.39986,"is_reserved":false,"is_disabled":false,"rental_uris":{"android":"levelo://app?vid=5e315310-5f09-4620-9ba4-e75edd176840","ios":"levelo://app?vid=5e315310-5f09-4620-9ba4-e75edd176840"},"vehicle_type_id":"4","last_reported":1757797636,"current_range_meters":18000,"station_id":"ce4bho92rcd13ifvqh3g","pricing_plan_id":"cebpf4jnsgd1na2vs0mg"},{"bike_id":"d19d9979-4073-4ad7-9575-4b73fe3a9d3b","system_id":"levelo_inurba_marseille","lat":43.29203,"lon":5.39319,"is_reserved":false,"is_disabled":false,"rental_uris":{"android":"levelo://app?vid=d19d9979-4073-4ad7-9575-4b73fe3a9d3b","ios":"levelo://app?vid=d19d9979-4073-4ad7-9575-4b73fe3a9d3b"},"vehicle_type_id":"4","last_reported":1757797636,"current_range_meters":19200,"station_id":"ce4bh192rcd13ifvqdd0","pricing_plan_id":"cebpf4jnsgd1na2vs0mg"},{"bike_id":"83aa16b1-d141-4d06-ad77-17d53227a7d5","system_id":"levelo_inurba_marseille","lat":43.29028,"lon":5.38661,"is_reserved":false,"is_disabled":false,"rental_uris":{"android":"levelo://app?vid=83aa16b1-d141-4d06-ad77-17d53227a7d5","ios":"levelo://app?vid=83aa16b1-d141-4d06-ad77-17d53227a7d5"},"vehicle_type_id":"4","last_reported":1757797636,"current_range_meters":19200,"station_id":"ce4bh4p2rcd13ifvqe0g","pricing_plan_id":"cebpf4jnsgd1na2vs0mg"},{"bike_id":"d0a1739a-c22f-4203-9f71-a089f4b367e4","system_id":"levelo_inurba_marseille","lat":43.31993,"lon":5.38144,"is_reserved":false,"is_disabled":true,"rental_uris":{"android":"levelo://app?vid=d0a1739a-c22f-4203-9f71-a089f4b367e4","ios":"levelo://app?vid=d0a1739a-c22f-4203-9f71-a089f4b367e4"},"vehicle_type_id":"4","last_reported":1757797636,"current_range_meters":19200,"station_id":"ce4bhr12rcd13ifvqhpg","pricing_plan_id":"cebpf4jnsgd1na2vs0mg"},{"bike_id":"fb64495b-594a-489c-80d9-1d605cfa1325","system_id":"levelo_inurba_marseille","lat":43.31341,"lon":5.38505,"is_reserved":false,"is_disabled":false,"rental_uris":{"android":"levelo://app?vid=fb64495b-594a-489c-80d9-1d605cfa1325","ios":"levelo://app?vid=fb64495b-594a-489c-80d9-1d605cfa1325"},"vehicle_type_id":"4","last_reported":1757797636,"current_range_meters":19200,"station_id":"ce4bgt92rcd13ifvqcf0","pricing_plan_id":"cebpf4jnsgd1na2vs0mg"},{"bike_id":"b002a392-08fa-4b2e-b212-3e002cd96c5d","system_id":"levelo_inurba_marseille","lat":43.23967,"lon":5.36634,"is_reserved":false,"is_disabled":false,"rental_uris":{"android":"levelo://app?vid=b002a392-08fa-4b2e-b212-3e002cd96c5d","ios":"levelo://app?vid=b002a392-08fa-4b2e-b212-3e002cd96c5d"},"vehicle_type_id":"4","last_reported":1757797636,"current_range_meters":19200,"station_id":"ce4bhi12rcd13ifvqfp0","pricing_plan_id":"cebpf4jnsgd1na2vs0mg"},{"bike_id":"e8f879af-6e5c-4099-b80c-7f5eca17ef71","system_id":"levelo_inurba_marseille","lat":43.2468,"lon":5.3816,"is_reserved":false,"is_disabled":false,"rental_uris":{"android":"levelo://app?vid=e8f879af-6e5c-4099-b80c-7f5eca17ef71","ios":"levelo://app?vid=e8f879af-6e5c-4099-b80c-7f5eca17ef71"},"vehicle_type_id":"4","last_reported":1757797636,"current_range_meters":19200,"station_id":"ce4bhih2rcd13ifvqfr0","pricing_plan_id":"cebpf4jnsgd1na2vs0mg"},{"bike_id":"b6e71227-cf24-477c-a6b4-dcaf891c7903","system_id":"levelo_inurba_marseille","lat":43.25585,"lon":5.38235,"is_reserved":false,"is_disabled":false,"rental_uris":{"android":"levelo://app?vid=b6e71227-cf24-477c-a6b4-dcaf891c7903","ios":"levelo://app?vid=b6e71227-cf24-477c-a6b4-dcaf891c7903"},"vehicle_type_id":"4","last_reported":1757797636,"current_range_meters":19200,"station_id":"ce4bhih2rcd13ifvqfs0","pricing_plan_id":"cebpf4jnsgd1na2vs0mg"},{"bike_id":"5924ee7b-1919-4ec5-8ed5-99eb77956909","system_id":"levelo_inurba_marseille","lat":43.29529,"lon":5.38545,"is_reserved":false,"is_disabled":false,"rental_uris":{"android":"levelo://app?vid=5924ee7b-1919-4ec5-8ed5-99eb77956909","ios":"levelo://app?vid=5924ee7b-1919-4ec5-8ed5-99eb77956909"},"vehicle_type_id":"4","last_reported":1757797636,"current_range_meters":19200,"station_id":"ce4bgih2rcd13ifvqba0","pricing_plan_id":"cebpf4jnsgd1na2vs0mg"},{"bike_id":"b76a8655-4050-4244-9264-9ba7727d827a","system_id":"levelo_inurba_marseille","lat":43.2906,"lon":5.35924,"is_reserved":false,"is_disabled":false,"rental_uris":{"android":"levelo://app?vid=b76a8655-4050-4244-9264-9ba7727d827a","ios":"levelo://app?vid=b76a8655-4050-4244-9264-9ba7727d827a"},"vehicle_type_id":"4","last_reported":1757797636,"current_range_meters":18800,"station_id":"ce4bha92rcd13ifvqeg0","pricing_plan_id":"cebpf4jnsgd1na2vs0mg"},{"bike_id":"e73470b2-f46f-4f87-989f-53f8372e4317","system_id":"levelo_inurba_marseille","lat":43.33016,"lon":5.39372,"is_reserved":false,"is_disabled":false,"rental_uris":{"android":"levelo://app?vid=e73470b2-f46f-4f87-989f-53f8372e4317","ios":"levelo://app?vid=e73470b2-f46f-4f87-989f-53f8372e4317"},"vehicle_type_id":"4","last_reported":1757797636,"current_range_meters":19200,"station_id":"","pricing_plan_id":"cebpf4jnsgd1na2vs0mg"},{"bike_id":"3a30db7b-d1eb-42d4-9449-c377bfd998a0","system_id":"levelo_inurba_marseille","lat":43.31758,"lon":5.38999,"is_reserved":false,"is_disabled":false,"rental_uris":{"android":"levelo://app?vid=3a30db7b-d1eb-42d4-9449-c377bfd998a0","ios":"levelo://app?vid=3a30db7b-d1eb-42d4-9449-c377bfd998a0"},"vehicle_type_id":"4","last_reported":1757797636,"current_range_meters":19200,"station_id":"ce4bhqp2rcd13ifvqhng","pricing_plan_id":"cebpf4jnsgd1na2vs0mg"},{"bike_id":"e54a1e7f-72fe-4f72-999a-0b938621ab02","system_id":"levelo_inurba_marseille","lat":43.23153,"lon":5.43708,"is_reserved":false,"is_disabled":false,"rental_uris":{"android":"levelo://app?vid=e54a1e7f-72fe-4f72-999a-0b938621ab02","ios":"levelo://app?vid=e54a1e7f-72fe-4f72-999a-0b938621ab02"},"vehicle_type_id":"4","last_reported":1757797636,"current_range_meters":19200,"station_id":"ce4bhmp2rcd13ifvqgog","pricing_plan_id":"cebpf4jnsgd1na2vs0mg"},{"bike_id":"09d8c33d-ebd0-473f-90dd-44cd1683f2c6","system_id":"levelo_inurba_marseille","lat":43.25582,"lon":5.3823,"is_reserved":false,"is_disabled":false,"rental_uris":{"android":"levelo://app?vid=09d8c33d-ebd0-473f-90dd-44cd1683f2c6","ios":"levelo://app?vid=09d8c33d-ebd0-473f-90dd-44cd1683f2c6"},