{"last_updated":1740265677,"ttl":60,"version":"2.2","data":{"bikes":[{"bike_id":"fa07ce59-9eab-48a0-901a-2f610845dcd8","system_id":"levelo_inurba_marseille","lat":43.30304,"lon":5.39211,"is_reserved":false,"is_disabled":false,"rental_uris":{"android":"levelo://app?vid=fa07ce59-9eab-48a0-901a-2f610845dcd8","ios":"levelo://app?vid=fa07ce59-9eab-48a0-901a-2f610845dcd8"},"vehicle_type_id":"4","last_reported":1740265677,"current_range_meters":3200,"station_id":"ce4bgkh2rcd13ifvqbk0","pricing_plan_id":"cebpf4jnsgd1na2vs0mg"},{"bike_id":"eeaa6727-1fb7-4e4b-b115-a67cd4570c3f","system_id":"levelo_inurba_marseille","lat":43.33048,"lon":5.38755,"is_reserved":false,"is_disabled":false,"rental_uris":{"android":"levelo://app?vid=eeaa6727-1fb7-4e4b-b115-a67cd4570c3f","ios":"levelo://app?vid=eeaa6727-1fb7-4e4b-b115-a67cd4570c3f"},"vehicle_type_id":"4","last_reported":1740265677,"current_range_meters":3200,"station_id":"","pricing_plan_id":"cebpf4jnsgd1na2vs0mg"},{"bike_id":"f2e5b7dc-4ecb-4a89-afcd-161b852d64a0","system_id":"levelo_inurba_marseille","lat":43.29568,"lon":5.39968,"is_reserved":false,"is_disabled":true,"rental_uris":{"android":"levelo://app?vid=f2e5b7dc-4ecb-4a89-afcd-161b852d64a0","ios":"levelo://app?vid=f2e5b7dc-4ecb-4a89-afcd-161b852d64a0"},"vehicle_type_id":"4","last_reported":1740265677,"current_range_meters":3200,"station_id":"ce4bh312rcd13ifvqdj0","pricing_plan_id":"cebpf4jnsgd1na2vs0mg"},{"bike_id":"3ad74091-51cc-4ed7-b6ac-cd1209f13091","system_id":"levelo_inurba_marseille","lat":43.26784,"lon":5.39412,"is_reserved":false,"is_disabled":false,"rental_uris":{"android":"levelo://app?vid=3ad74091-51cc-4ed7-b6ac-cd1209f13091","ios":"levelo://app?vid=3ad74091-51cc-4ed7-b6ac-cd1209f13091"},"vehicle_type_id":"4","last_reported":1740265677,"current_range_meters":6400,"station_id":"ce4bhh12rcd13ifvqfg0","pricing_plan_id":"cebpf4jnsgd1na2vs0mg"},{"bike_id":"e06a5e51-884b-4021-a6aa-38076e5c4adf","system_id":"levelo_inurba_marseille","lat":43.2928,"lon":5.37627,"is_reserved":false,"is_disabled":true,"rental_uris":{"android":"levelo://app?vid=e06a5e51-884b-4021-a6aa-38076e5c4adf","ios":"levelo://app?vid=e06a5e51-884b-4021-a6aa-38076e5c4adf"},"vehicle_type_id":"4","last_reported":1740265677,"current_range_meters":3200,"station_id":"ce4bgi12rcd13ifvqb80","pricing_plan_id":"cebpf4jnsgd1na2vs0mg"},{"bike_id":"7513a470-27ae-4803-984c-3d01857f3acd","system_id":"levelo_inurba_marseille","lat":43.30814,"lon":5.37295,"is_reserved":false,"is_disabled":false,"rental_uris":{"android":"levelo://app?vid=7513a470-27ae-4803-984c-3d01857f3acd","ios":"levelo://app?vid=7513a470-27ae-4803-984c-3d01857f3acd"},"vehicle_type_id":"4","last_reported":1740265677,"current_range_meters":3600,"station_id":"","pricing_plan_id":"cebpf4jnsgd1na2vs0mg"},{"bike_id":"ca4df272-5395-4c1a-ab10-52dae73f2f99","system_id":"levelo_inurba_marseille","lat":43.27045,"lon":5.40279,"is_reserved":false,"is_disabled":true,"rental_uris":{"android":"levelo://app?vid=ca4df272-5395-4c1a-ab10-52dae73f2f99","ios":"levelo://app?vid=ca4df272-5395-4c1a-ab10-52dae73f2f99"},"vehicle_type_id":"4","last_reported":1740265677,"current_range_meters":3600,"station_id":"","pricing_plan_id":"cebpf4jnsgd1na2vs0mg"},{"bike_id":"c88db752-a503-4091-9b54-3394b97545f9","system_id":"levelo_inurba_marseille","lat":43.25513,"lon":5.37663,"is_reserved":false,"is_disabled":false,"rental_uris":{"android":"levelo://app?vid=c88db752-a503-4091-9b54-3394b97545f9","ios":"levelo://app?vid=c88db752-a503-4091-9b54-3394b97545f9"},"vehicle_type_id":"4","last_reported":1740265677,"current_range_meters":4000,"station_id":"ce4bhh12rcd13ifvqff0","pricing_plan_id":"cebpf4jnsgd1na2vs0mg"},{"bike_id":"a7d36efe-8422-4071-b83f-3953d9109b42","system_id":"levelo_inurba_marseille","lat":43.294063,"lon":5.385959,"is_reserved":false,"is_disabled":false,"rental_uris":{"android":"levelo://app?vid=a7d36efe-8422-4071-b83f-3953d9109b42","ios":"levelo://app?vid=a7d36efe-8422-4071-b83f-3953d9109b42"},"vehicle_type_id":"4","last_reported":1740265677,"current_range_meters":4400,"station_id":"ce4bhhh2rcd13ifvqfl0","pricing_plan_id":"cebpf4jnsgd1na2vs0mg"},{"bike_id":"cb533fa1-27a0-45e8-865a-273bc58d3884","system_id":"levelo_inurba_marseille","lat":43.26576,"lon":5.39069,"is_reserved":false,"is_disabled":true,"rental_uris":{"android":"levelo://app?vid=cb533fa1-27a0-45e8-865a-273bc58d3884","ios":"levelo://app?vid=cb533fa1-27a0-45e8-865a-273bc58d3884"},"vehicle_type_id":"4","last_reported":1740265677,"current_range_meters":4400,"station_id":"ce4bhe12rcd13ifvqf30","pricing_plan_id":"cebpf4jnsgd1na2vs0mg"},{"bike_id":"f18d1838-680b-457b-a152-6f1832c81492","system_id":"levelo_inurba_marseille","lat":43.2396,"lon":5.36627,"is_reserved":false,"is_disabled":false,"rental_uris":{"android":"levelo://app?vid=f18d1838-680b-457b-a152-6f1832c81492","ios":"levelo://app?vid=f18d1838-680b-457b-a152-6f1832c81492"},"vehicle_type_id":"4","last_reported":1740265677,"current_range_meters":5600,"station_id":"ce4bhi12rcd13ifvqfp0","pricing_plan_id":"cebpf4jnsgd1na2vs0mg"},{"bike_id":"54392dcf-9098-4ade-a5f9-07d42853ec29","system_id":"levelo_inurba_marseille","lat":43.23953,"lon":5.36634,"is_reserved":false,"is_disabled":false,"rental_uris":{"android":"levelo://app?vid=54392dcf-9098-4ade-a5f9-07d42853ec29","ios":"levelo://app?vid=54392dcf-9098-4ade-a5f9-07d42853ec29"},"vehicle_type_id":"4","last_reported":1740265677,"current_range_meters":5600,"station_id":"ce4bhi12rcd13ifvqfp0","pricing_plan_id":"cebpf4jnsgd1na2vs0mg"},{"bike_id":"299adaf1-ebcf-407d-ac93-cb1e05647530","system_id":"levelo_inurba_marseille","lat":43.28615,"lon":5.35102,"is_reserved":false,"is_disabled":false,"rental_uris":{"android":"levelo://app?vid=299adaf1-ebcf-407d-ac93-cb1e05647530","ios":"levelo://app?vid=299adaf1-ebcf-407d-ac93-cb1e05647530"},"vehicle_type_id":"4","last_reported":1740265677,"current_range_meters":6000,"station_id":"ce4bhch2rcd13ifvqeug","pricing_plan_id":"cebpf4jnsgd1na2vs0mg"},{"bike_id":"a796ac80-1911-4214-a458-24bc9f421151","system_id":"levelo_inurba_marseille","lat":43.31318,"lon":5.37321,"is_reserved":false,"is_disabled":false,"rental_uris":{"android":"levelo://app?vid=a796ac80-1911-4214-a458-24bc9f421151","ios":"levelo://app?vid=a796ac80-1911-4214-a458-24bc9f421151"},"vehicle_type_id":"4","last_reported":1740265677,"current_range_meters":6000,"station_id":"","pricing_plan_id":"cebpf4jnsgd1na2vs0mg"},{"bike_id":"e260edc9-94c2-49ca-89b2-378a3b2e09df","system_id":"levelo_inurba_marseille","lat":43.26554,"lon":5.37291,"is_reserved":false,"is_disabled":false,"rental_uris":{"android":"levelo://app?vid=e260edc9-94c2-49ca-89b2-378a3b2e09df","ios":"levelo://app?vid=e260edc9-94c2-49ca-89b2-378a3b2e09df"},"vehicle_type_id":"4","last_reported":1740265677,"current_range_meters":6400,"station_id":"ce4bhg12rcd13ifvqf70","pricing_plan_id":"cebpf4jnsgd1na2vs0mg"},{"bike_id":"551296f6-9c25-41a0-8804-ba4f656ebdc2","system_id":"levelo_inurba_marseille","lat":43.23197,"lon":5.39985,"is_reserved":false,"is_disabled":false,"rental_uris":{"android":"levelo://app?vid=551296f6-9c25-41a0-8804-ba4f656ebdc2","ios":"levelo://app?vid=551296f6-9c25-41a0-8804-ba4f656ebdc2"},"vehicle_type_id":"4","last_reported":1740265677,"current_range_meters":6400,"station_id":"ce4bhn12rcd13ifvqgqg","pricing_plan_id":"cebpf4jnsgd1na2vs0mg"},{"bike_id":"387317e0-53b6-4041-9c0f-441eccb43c66","system_id":"levelo_inurba_marseille","lat":43.28412,"lon":5.37515,"is_reserved":false,"is_disabled":false,"rental_uris":{"android":"levelo://app?vid=387317e0-53b6-4041-9c0f-441eccb43c66","ios":"levelo://app?vid=387317e0-53b6-4041-9c0f-441eccb43c66"},"vehicle_type_id":"4","last_reported":1740265677,"current_range_meters":6400,"station_id":"ce4bh412rcd13ifvqds0","pricing_plan_id":"cebpf4jnsgd1na2vs0mg"},{"bike_id":"df3e86cb-ab3f-42d7-abef-aec5ae629ddf","system_id":"levelo_inurba_marseille","lat":43.27005,"lon":5.386685,"is_reserved":false,"is_disabled":false,"rental_uris":{"android":"levelo://app?vid=df3e86cb-ab3f-42d7-abef-aec5ae629ddf","ios":"levelo://app?vid=df3e86cb-ab3f-42d7-abef-aec5ae629ddf"},"vehicle_type_id":"4","last_reported":1740265677,"current_range_meters":6400,"station_id":"ce4bhih2rcd13ifvqfs0","pricing_plan_id":"cebpf4jnsgd1na2vs0mg"},{"bike_id":"aa1d7723-b0b3-4df2-ae47-21d0329d4073","system_id":"levelo_inurba_marseille","lat":43.24069,"lon":5.37769,"is_reserved":false,"is_disabled":false,"rental_uris":{"android":"levelo://app?vid=aa1d7723-b0b3-4df2-ae47-21d0329d4073","ios":"levelo://app?vid=aa1d7723-b0b3-4df2-ae47-21d0329d4073"},"vehicle_type_id":"4","last_reported":1740265677,"current_range_meters":6800,"station_id":"ce4bhnp2rcd13ifvqgvg","pricing_plan_id":"cebpf4jnsgd1na2vs0mg"},{"bike_id":"c3c30985-02be-4a13-90af-d702f6922290","system_id":"levelo_inurba_marseille","lat":43.23953,"lon":5.36648,"is_reserved":false,"is_disabled":false,"rental_uris":{"android":"levelo://app?vid=c3c30985-02be-4a13-90af-d702f6922290","ios":"levelo://app?vid=c3c30985-02be-4a13-90af-d702f6922290"},"vehicle_type_id":"4","last_reported":1740265677,"current_range_meters":6800,"station_id":"ce4bhi12rcd13ifvqfp0","pricing_plan_id":"cebpf4jnsgd1na2vs0mg"},{"bike_id":"91cd9c50-a708-4ca7-8c38-9684716b8855","system_id":"levelo_inurba_marseille","lat":43.33768,"lon":5.37436,"is_reserved":false,"is_disabled":false,"rental_uris":{"android":"levelo://app?vid=91cd9c50-a708-4ca7-8c38-9684716b8855","ios":"levelo://app?vid=91cd9c50-a708-4ca7-8c38-9684716b8855"},"vehicle_type_id":"4","last_reported":1740265677,"current_range_meters":6800,"station_id":"","pricing_plan_id":"cebpf4jnsgd1na2vs0mg"},{"bike_id":"a7787bdf-f967-4ec4-a4a5-aaabd53b1877","system_id":"levelo_inurba_marseille","lat":43.26189,"lon":5.42068,"is_reserved":false,"is_disabled":false,"rental_uris":{"android":"levelo://app?vid=a7787bdf-f967-4ec4-a4a5-aaabd53b1877","ios":"levelo://app?vid=a7787bdf-f967-4ec4-a4a5-aaabd53b1877"},"vehicle_type_id":"4","last_reported":1740265677,"current_range_meters":6800,"station_id":"","pricing_plan_id":"cebpf4jnsgd1na2vs0mg"},{"bike_id":"c2db4891-3229-428f-bf6e-b0ca6d50972e","system_id":"levelo_inurba_marseille","lat":43.29166,"lon":5.37161,"is_reserved":false,"is_disabled":false,"rental_uris":{"android":"levelo://app?vid=c2db4891-3229-428f-bf6e-b0ca6d50972e","ios":"levelo://app?vid=c2db4891-3229-428f-bf6e-b0ca6d50972e"},"vehicle_type_id":"4","last_reported":1740265677,"current_range_meters":7200,"station_id":"ce4bha92rcd13ifvqeh0","pricing_plan_id":"cebpf4jnsgd1na2vs0mg"},{"bike_id":"4177e995-807d-40d8-9b40-d51883f9ac50","system_id":"levelo_inurba_marseille","lat":43.24975,"lon":5.3878,"is_reserved":false,"is_disabled":false,"rental_uris":{"android":"levelo://app?vid=4177e995-807d-40d8-9b40-d51883f9ac50","ios":"levelo://app?vid=4177e995-807d-40d8-9b40-d51883f9ac50"},"vehicle_type_id":"4","last_reported":1740265677,"current_range_meters":7200,"station_id":"ce4bhih2rcd13ifvqfr0","pricing_plan_id":"cebpf4jnsgd1na2vs0mg"},{"bike_id":"d70eab69-1c78-44df-9931-e570f2cc3636","system_id":"levelo_inurba_marseille","lat":43.2572,"lon":5.41118,"is_reserved":false,"is_disabled":false,"rental_uris":{"android":"levelo://app?vid=d70eab69-1c78-44df-9931-e570f2cc3636","ios":"levelo://app?vid=d70eab69-1c78-44df-9931-e570f2cc3636"},"vehicle_type_id":"4","last_reported":1740265677,"current_range_meters":7200,"station_id":"ce4bhkp2rcd13ifvqgd0","pricing_plan_id":"cebpf4jnsgd1na2vs0mg"},{"bike_id":"ab46b189-6bae-4129-a7fd-10b3ccd5a48e","system_id":"levelo_inurba_marseille","lat":43.27154,"lon":5.39994,"is_reserved":false,"is_disabled":false,"rental_uris":{"android":"levelo://app?vid=ab46b189-6bae-4129-a7fd-10b3ccd5a48e","ios":"levelo://app?vid=ab46b189-6bae-4129-a7fd-10b3ccd5a48e"},"vehicle_type_id":"4","last_reported":1740265677,"current_range_meters":7200,"station_id":"","pricing_plan_id":"cebpf4jnsgd1na2vs0mg"},{"bike_id":"35ec6f05-b64c-4e4d-8ca3-6066c738a1dd","system_id":"levelo_inurba_marseille","lat":43.26225,"lon":5.40451,"is_reserved":false,"is_disabled":false,"rental_uris":{"android":"levelo://app?vid=35ec6f05-b64c-4e4d-8ca3-6066c738a1dd","ios":"levelo://app?vid=35ec6f05-b64c-4e4d-8ca3-6066c738a1dd"},"vehicle_type_id":"4","last_reported":1740265677,"current_range_meters":7200,"station_id":"ce4bhmh2rcd13ifvqgmg","pricing_plan_id":"cebpf4jnsgd1na2vs0mg"},{"bike_id":"91817d94-291a-47c9-91fa-831208abfdc7","system_id":"levelo_inurba_marseille","lat":43.230657,"lon":5.354862,"is_reserved":false,"is_disabled":false,"rental_uris":{"android":"levelo://app?vid=91817d94-291a-47c9-91fa-831208abfdc7","ios":"levelo://app?vid=91817d94-291a-47c9-91fa-831208abfdc7"},"vehicle_type_id":"4","last_reported":1740265677,"current_range_meters":7200,"station_id":"cpo3342slgdg3j2ifvpg","pricing_plan_id":"cebpf4jnsgd1na2vs0mg"},{"bike_id":"fa83beb1-2405-4db0-9826-c091cb751783","system_id":"levelo_inurba_marseille","lat":43.251,"lon":5.40356,"is_reserved":false,"is_disabled":true,"rental_uris":{"android":"levelo://app?vid=fa83beb1-2405-4db0-9826-c091cb751783","ios":"levelo://app?vid=fa83beb1-2405-4db0-9826-c091cb751783"},"vehicle_type_id":"4","last_reported":1740265677,"current_range_meters":7200,"station_id":"ce4bhlh2rcd13ifvqgig","pricing_plan_id":"cebpf4jnsgd1na2vs0mg"},{"bike_id":"a760c25b-8a2d-434b-8cd7-4ec1f7db14f8","system_id":"levelo_inurba_marseille","lat":43.28611,"lon":5.37036,"is_reserved":false,"is_disabled":false,"rental_uris":{"android":"levelo://app?vid=a760c25b-8a2d-434b-8cd7-4ec1f7db14f8","ios":"levelo://app?vid=a760c25b-8a2d-434b-8cd7-4ec1f7db14f8"},"vehicle_type_id":"4","last_reported":1740265677,"current_range_meters":7200,"station_id":"ce4bht12rcd13ifvqi60","pricing_plan_id":"cebpf4jnsgd1na2vs0mg"},{"bike_id":"88f0c0bf-e58d-413b-968c-582877d8dac0","system_id":"levelo_inurba_marseille","lat":43.27615,"lon":5.3611,"is_reserved":false,"is_disabled":false,"rental_uris":{"android":"levelo://app?vid=88f0c0bf-e58d-413b-968c-582877d8dac0","ios":"levelo://app?vid=88f0c0bf-e58d-413b-968c-582877d8dac0"},"vehicle_type_id":"4","last_reported":1740265677,"current_range_meters":7200,"station_id":"ce4bgj92rcd13ifvqbe0","pricing_plan_id":"cebpf4jnsgd1na2vs0mg"},{"bike_id":"72286043-07e3-456e-9252-7f50bc355704","system_id":"levelo_inurba_marseille","lat":43.25117,"lon":5.40317,"is_reserved":false,"is_disabled":false,"rental_uris":{"android":"levelo://app?vid=72286043-07e3-456e-9252-7f50bc355704","ios":"levelo://app?vid=72286043-07e3-456e-9252-7f50bc355704"},"vehicle_type_id":"4","last_reported":1740265677,"current_range_meters":7200,"station_id":"ce4bhlh2rcd13ifvqgig","pricing_plan_id":"cebpf4jnsgd1na2vs0mg"},{"bike_id":"c28b88a6-4142-4efa-946c-e35f3eacfbab","system_id":"levelo_inurba_marseille","lat":43.28614,"lon":5.37055,"is_reserved":false,"is_disabled":false,"rental_uris":{"android":"levelo://app?vid=c28b88a6-4142-4efa-946c-e35f3eacfbab","ios":"levelo://app?vid=c28b88a6-4142-4efa-946c-e35f3eacfbab"},"vehicle_type_id":"4","last_reported":1740265677,"current_range_meters":8000,"station_id":"ce4bht12rcd13ifvqi60","pricing_plan_id":"cebpf4jnsgd1na2vs0mg"},{"bike_id":"9116b8ac-629d-459b-b44d-248b2c2649b7","system_id":"levelo_inurba_marseille","lat":43.27959,"lon":5.41046,"is_reserved":false,"is_disabled":true,"rental_uris":{"android":"levelo://app?vid=9116b8ac-629d-459b-b44d-248b2c2649b7","ios":"levelo://app?vid=9116b8ac-629d-459b-b44d-248b2c2649b7"},"vehicle_type_id":"4","last_reported":1740265677,"current_range_meters":8000,"station_id":"ce4bhnp2rcd13ifvqh0g","pricing_plan_id":"cebpf4jnsgd1na2vs0mg"},{"bike_id":"098ba318-f0ee-4c81-991e-ba2f5a0cbad4","system_id":"levelo_inurba_marseille","lat":43.27608,"lon":5.36112,"is_reserved":false,"is_disabled":false,"rental_uris":{"android":"levelo://app?vid=098ba318-f0ee-4c81-991e-ba2f5a0cbad4","ios":"levelo://app?vid=098ba318-f0ee-4c81-991e-ba2f5a0cbad4"},"vehicle_type_id":"4","last_reported":1740265677,"current_range_meters":8000,"station_id":"ce4bgj92rcd13ifvqbe0","pricing_plan_id":"cebpf4jnsgd1na2vs0mg"},{"bike_id":"6c6000dd-d631-4057-b372-f83b5c6fd465","system_id":"levelo_inurba_marseille","lat":43.26525,"lon":5.39058,"is_reserved":false,"is_disabled":false,"rental_uris":{"android":"levelo://app?vid=6c6000dd-d631-4057-b372-f83b5c6fd465","ios":"levelo://app?vid=6c6000dd-d631-4057-b372-f83b5c6fd465"},"vehicle_type_id":"4","last_reported":1740265677,"current_range_meters":8000,"station_id":"","pricing_plan_id":"cebpf4jnsgd1na2vs0mg"},{"bike_id":"f32fe46d-1120-4c2c-97c5-cdbf2de4ccec","system_id":"levelo_inurba_marseille","lat":43.2595,"lon":5.40893,"is_reserved":false,"is_disabled":false,"rental_uris":{"android":"levelo://app?vid=f32fe46d-1120-4c2c-97c5-cdbf2de4ccec","ios":"levelo://app?vid=f32fe46d-1120-4c2c-97c5-cdbf2de4ccec"},"vehicle_type_id":"4","last_reported":1740265677,"current_range_meters":8400,"station_id":"ce4bhm92rcd13ifvqglg","pricing_plan_id":"cebpf4jnsgd1na2vs0mg"},{"bike_id":"6d48938c-9b80-49b7-89e5-950ba7a6ce63","system_id":"levelo_inurba_marseille","lat":43.25922,"lon":5.40909,"is_reserved":false,"is_disabled":false,"rental_uris":{"android":"levelo://app?vid=6d48938c-9b80-49b7-89e5-950ba7a6ce63","ios":"levelo://app?vid=6d48938c-9b80-49b7-89e5-950ba7a6ce63"},"vehicle_type_id":"4","last_reported":1740265677,"current_range_meters":8400,"station_id":"ce4bhm92rcd13ifvqglg","pricing_plan_id":"cebpf4jnsgd1na2vs0mg"},{"bike_id":"f01bc604-d3fe-484b-ab17-16d012a9acf2","system_id":"levelo_inurba_marseille","lat":43.2799,"lon":5.41659,"is_reserved":false,"is_disabled":false,"rental_uris":{"android":"levelo://app?vid=f01bc604-d3fe-484b-ab17-16d012a9acf2","ios":"levelo://app?vid=f01bc604-d3fe-484b-ab17-16d012a9acf2"},"vehicle_type_id":"4","last_reported":1740265677,"current_range_meters":8400,"station_id":"ce4bho12rcd13ifvqh1g","pricing_plan_id":"cebpf4jnsgd1na2vs0mg"},{"bike_id":"4a2d4025-43d5-412e-8f09-8ffaadd19824","system_id":"levelo_inurba_marseille","lat":43.231967,"lon":5.355507,"is_reserved":false,"is_disabled":false,"rental_uris":{"android":"levelo://app?vid=4a2d4025-43d5-412e-8f09-8ffaadd19824","ios":"levelo://app?vid=4a2d4025-43d5-412e-8f09-8ffaadd19824"},"vehicle_type_id":"4","last_reported":1740265677,"current_range_meters":8400,"station_id":"ce4bhu92rcd13ifvqi70","pricing_plan_id":"cebpf4jnsgd1na2vs0mg"},{"bike_id":"f65e14d9-9d98-4273-878d-64aa1ddbd1a3","system_id":"levelo_inurba_marseille","lat":43.24077,"lon":5.3776,"is_reserved":false,"is_disabled":false,"rental_uris":{"android":"levelo://app?vid=f65e14d9-9d98-4273-878d-64aa1ddbd1a3","ios":"levelo://app?vid=f65e14d9-9d98-4273-878d-64aa1ddbd1a3"},"vehicle_type_id":"4","last_reported":1740265677,"current_range_meters":8400,"station_id":"ce4bhnp2rcd13ifvqgvg","pricing_plan_id":"cebpf4jnsgd1na2vs0mg"},{"bike_id":"d6304c24-34fc-41d9-b5c1-e9bbec4a030a","system_id":"levelo_inurba_marseille","lat":43.25118,"lon":5.40313,"is_reserved":false,"is_disabled":false,"rental_uris":{"android":"levelo://app?vid=d6304c24-34fc-41d9-b5c1-e9bbec4a030a","ios":"levelo://app?vid=d6304c24-34fc-41d9-b5c1-e9bbec4a030a"},"vehicle_type_id":"4","last_reported":1740265677,"current_range_meters":8800,"station_id":"ce4bhlh2rcd13ifvqgig","pricing_plan_id":"cebpf4jnsgd1na2vs0mg"},{"bike_id":"2e7dd93b-d38e-4cae-9ed0-bea68b87add4","system_id":"levelo_inurba_marseille","lat":43.2396,"lon":5.36624,"is_reserved":false,"is_disabled":false,"rental_uris":{"android":"levelo://app?vid=2e7dd93b-d38e-4cae-9ed0-bea68b87add4","ios":"levelo://app?vid=2e7dd93b-d38e-4cae-9ed0-bea68b87add4"},"vehicle_type_id":"4","last_reported":1740265677,"current_range_meters":8800,"station_id":"ce4bhi12rcd13ifvqfp0","pricing_plan_id":"cebpf4jnsgd1na2vs0mg"},{"bike_id":"06c7d04b-0c73-473f-9f55-ff858732e591","system_id":"levelo_inurba_marseille","lat":43.26566,"lon":5.39055,"is_reserved":false,"is_disabled":false,"rental_uris":{"android":"levelo://app?vid=06c7d04b-0c73-473f-9f55-ff858732e591","ios":"levelo://app?vid=06c7d04b-0c73-473f-9f55-ff858732e591"},"vehicle_type_id":"4","last_reported":1740265677,"current_range_meters":8800,"station_id":"ce4bhe12rcd13ifvqf30","pricing_plan_id":"cebpf4jnsgd1na2vs0mg"},{"bike_id":"9f4fdd8e-e9cb-4768-9896-2f4363435504","system_id":"levelo_inurba_marseille","lat":43.286957,"lon":5.373937,"is_reserved":false,"is_disabled":false,"rental_uris":{"android":"levelo://app?vid=9f4fdd8e-e9cb-4768-9896-2f4363435504","ios":"levelo://app?vid=9f4fdd8e-e9cb-4768-9896-2f4363435504"},"vehicle_type_id":"4","last_reported":1740265677,"current_range_meters":8800,"station_id":"ce4bh3p2rcd13ifvqdq0","pricing_plan_id":"cebpf4jnsgd1na2vs0mg"},{"bike_id":"23bc9759-d26d-4f40-b4f4-88a9beb1aae8","system_id":"levelo_inurba_marseille","lat":43.25871,"lon":5.39896,"is_reserved":false,"is_disabled":false,"rental_uris":{"android":"levelo://app?vid=23bc9759-d26d-4f40-b4f4-88a9beb1aae8","ios":"levelo://app?vid=23bc9759-d26d-4f40-b4f4-88a9beb1aae8"},"vehicle_type_id":"4","last_reported":1740265677,"current_range_meters":8800,"station_id":"ce4bhl92rcd13ifvqghg","pricing_plan_id":"cebpf4jnsgd1na2vs0mg"},{"bike_id":"b985ad1f-1942-453b-b5eb-7462cafd1e31","system_id":"levelo_inurba_marseille","lat":43.23185,"lon":5.35561,"is_reserved":false,"is_disabled":false,"rental_uris":{"android":"levelo://app?vid=b985ad1f-1942-453b-b5eb-7462cafd1e31","ios":"levelo://app?vid=b985ad1f-1942-453b-b5eb-7462cafd1e31"},"vehicle_type_id":"4","last_reported":1740265677,"current_range_meters":8800,"station_id":"ce4bhu92rcd13ifvqi70","pricing_plan_id":"cebpf4jnsgd1na2vs0mg"},{"bike_id":"5d2d1a8c-deab-4dc2-9082-406187fb677f","system_id":"levelo_inurba_marseille","lat":43.27895,"lon":5.38013,"is_reserved":false,"is_disabled":false,"rental_uris":{"android":"levelo://app?vid=5d2d1a8c-deab-4dc2-9082-406187fb677f","ios":"levelo://app?vid=5d2d1a8c-deab-4dc2-9082-406187fb677f"},"vehicle_type_id":"4","last_reported":1740265677,"current_range_meters":9200,"station_id":"ce4bhf92rcd13ifvqf50","pricing_plan_id":"cebpf4jnsgd1na2vs0mg"},{"bike_id":"78ccc1b5-e05d-4c30-bc5b-473f9d97e2cd","system_id":"levelo_inurba_marseille","lat":43.30104,"lon":5.37797,"is_reserved":false,"is_disabled":false,"rental_uris":{"android":"levelo://app?vid=78ccc1b5-e05d-4c30-bc5b-473f9d97e2cd","ios":"levelo://app?vid=78ccc1b5-e05d-4c30-bc5b-473f9d97e2cd"},"vehicle_type_id":"4","last_reported":1740265677,"current_range_meters":9200,"station_id":"","pricing_plan_id":"cebpf4jnsgd1na2vs0mg"},{"bike_id":"58e25dff-40cf-478d-8571-58703395a14e","system_id":"levelo_inurba_marseille","lat":43.2668,"lon":5.38267,"is_reserved":false,"is_disabled":false,"rental_uris":{"android":"levelo://app?vid=58e25dff-40cf-478d-8571-58703395a14e","ios":"levelo://app?vid=58e25dff-40cf-478d-8571-58703395a14e"},"vehicle_type_id":"4","last_reported":1740265677,"current_range_meters":8000,"station_id":"ce4bhg92rcd13ifvqf90","pricing_plan_id":"cebpf4jnsgd1na2vs0mg"},{"bike_id":"142dd829-4ceb-4d8e-a91d-126b9ddb9899","system_id":"levelo_inurba_marseille","lat":43.29246,"lon":5.38442,"is_reserved":false,"is_disabled":false,"rental_uris":{"android":"levelo://app?vid=142dd829-4ceb-4d8e-a91d-126b9ddb9899","ios":"levelo://app?vid=142dd829-4ceb-4d8e-a91d-126b9ddb9899"},"vehicle_type_id":"4","last_reported":1740265677,"current_range_meters":9200,"station_id":"ce4bh692rcd13ifvqea0","pricing_plan_id":"cebpf4jnsgd1na2vs0mg"},{"bike_id":"19e1864d-ba59-4e8e-8853-c34964937b7c","system_id":"levelo_inurba_marseille","lat":43.292979,"lon":5.374679,"is_reserved":false,"is_disabled":false,"rental_uris":{"android":"levelo://app?vid=19e1864d-ba59-4e8e-8853-c34964937b7c","ios":"levelo://app?vid=19e1864d-ba59-4e8e-8853-c34964937b7c"},"vehicle_type_id":"4","last_reported":1740265677,"current_range_meters":9200,"station_id":"ce4bh292rcd13ifvqdf0","pricing_plan_id":"cebpf4jnsgd1na2vs0mg"},{"bike_id":"aa820ec7-7f35-4387-8fea-99b9db869428","system_id":"levelo_inurba_marseille","lat":43.2959,"lon":5.38113,"is_reserved":false,"is_disabled":false,"rental_uris":{"android":"levelo://app?vid=aa820ec7-7f35-4387-8fea-99b9db869428","ios":"levelo://app?vid=aa820ec7-7f35-4387-8fea-99b9db869428"},"vehicle_type_id":"4","last_reported":1740265677,"current_range_meters":9200,"station_id":"ce4bgl12rcd13ifvqbo0","pricing_plan_id":"cebpf4jnsgd1na2vs0mg"},{"bike_id":"827ec7e5-1ae5-45b8-890e-b6822ea9bc11","system_id":"levelo_inurba_marseille","lat":43.23959,"lon":5.36633,"is_reserved":false,"is_disabled":false,"rental_uris":{"android":"levelo://app?vid=827ec7e5-1ae5-45b8-890e-b6822ea9bc11","ios":"levelo://app?vid=827ec7e5-1ae5-45b8-890e-b6822ea9bc11"},"vehicle_type_id":"4","last_reported":1740265677,"current_range_meters":9200,"station_id":"ce4bhi12rcd13ifvqfp0","pricing_plan_id":"cebpf4jnsgd1na2vs0mg"},{"bike_id":"a8896e4e-d267-4f58-952d-dba9725f4e05","system_id":"levelo_inurba_marseille","lat":43.24073,"lon":5.37761,"is_reserved":false,"is_disabled":false,"rental_uris":{"android":"levelo://app?vid=a8896e4e-d267-4f58-952d-dba9725f4e05","ios":"levelo://app?vid=a8896e4e-d267-4f58-952d-dba9725f4e05"},"vehicle_type_id":"4","last_reported":1740265677,"current_range_meters":9600,"station_id":"ce4bhnp2rcd13ifvqgvg","pricing_plan_id":"cebpf4jnsgd1na2vs0mg"},{"bike_id":"bd0f0fb7-276d-4481-b5d8-ffa82acd63a0","system_id":"levelo_inurba_marseille","lat":43.28413,"lon":5.35916,"is_reserved":false,"is_disabled":false,"rental_uris":{"android":"levelo://app?vid=bd0f0fb7-276d-4481-b5d8-ffa82acd63a0","ios":"levelo://app?vid=bd0f0fb7-276d-4481-b5d8-ffa82acd63a0"},"vehicle_type_id":"4","last_reported":1740265677,"current_range_meters":9600,"station_id":"","pricing_plan_id":"cebpf4jnsgd1na2vs0mg"},{"bike_id":"14b8f441-83e5-4dea-aec7-ae21e3ccf660","system_id":"levelo_inurba_marseille","lat":43.29315,"lon":5.37185,"is_reserved":false,"is_disabled":false,"rental_uris":{"android":"levelo://app?vid=14b8f441-83e5-4dea-aec7-ae21e3ccf660","ios":"levelo://app?vid=14b8f441-83e5-4dea-aec7-ae21e3ccf660"},"vehicle_type_id":"4","last_reported":1740265677,"current_range_meters":9600,"station_id":"ce4bgh92rcd13ifvqb40","pricing_plan_id":"cebpf4jnsgd1na2vs0mg"},{"bike_id":"be5f18c6-d773-4035-9538-497c8eccebd5","system_id":"levelo_inurba_marseille","lat":43.275775,"lon":5.38414,"is_reserved":false,"is_disabled":false,"rental_uris":{"android":"levelo://app?vid=be5f18c6-d773-4035-9538-497c8eccebd5","ios":"levelo://app?vid=be5f18c6-d773-4035-9538-497c8eccebd5"},"vehicle_type_id":"4","last_reported":1740265677,"current_range_meters":9600,"station_id":"ce4bhh92rcd13ifvqfi0","pricing_plan_id":"cebpf4jnsgd1na2vs0mg"},{"bike_id":"f09eba20-0f4a-4914-99c1-c9ee54b93142","system_id":"levelo_inurba_marseille","lat":43.27821,"lon":5.40714,"is_reserved":false,"is_disabled":false,"rental_uris":{"android":"levelo://app?vid=f09eba20-0f4a-4914-99c1-c9ee54b93142","ios":"levelo://app?vid=f09eba20-0f4a-4914-99c1-c9ee54b93142"},"vehicle_type_id":"4","last_reported":1740265677,"current_range_meters":9600,"station_id":"ce4bhnh2rcd13ifvqgtg","pricing_plan_id":"cebpf4jnsgd1na2vs0mg"},{"bike_id":"f4c73116-43d3-41d9-88bb-9461dbbb405f","system_id":"levelo_inurba_marseille","lat":43.25401,"lon":5.41555,"is_reserved":false,"is_disabled":false,"rental_uris":{"android":"levelo://app?vid=f4c73116-43d3-41d9-88bb-9461dbbb405f","ios":"levelo://app?vid=f4c73116-43d3-41d9-88bb-9461dbbb405f"},"vehicle_type_id":"4","last_reported":1740265677,"current_range_meters":9600,"station_id":"","pricing_plan_id":"cebpf4jnsgd1na2vs0mg"},{"bike_id":"46bf26b4-5256-4da6-9688-39ebee5a9b96","system_id":"levelo_inurba_marseille","lat":43.28343,"lon":5.38109,"is_reserved":false,"is_disabled":false,"rental_uris":{"android":"levelo://app?vid=46bf26b4-5256-4da6-9688-39ebee5a9b96","ios":"levelo://app?vid=46bf26b4-5256-4da6-9688-39ebee5a9b96"},"vehicle_type_id":"4","last_reported":1740265677,"current_range_meters":9600,"station_id":"ce4bh412rcd13ifvqdr0","pricing_plan_id":"cebpf4jnsgd1na2vs0mg"},{"bike_id":"590c2d4d-a6f8-41f2-86bc-cf779452c419","system_id":"levelo_inurba_marseille","lat":43.27173,"lon":5.40998,"is_reserved":false,"is_disabled":false,"rental_uris":{"android":"levelo://app?vid=590c2d4d-a6f8-41f2-86bc-cf779452c419","ios":"levelo://app?vid=590c2d4d-a6f8-41f2-86bc-cf779452c419"},"vehicle_type_id":"4","last_reported":1740265677,"current_range_meters":9600,"station_id":"ce4bhl12rcd13ifvqgf0","pricing_plan_id":"cebpf4jnsgd1na2vs0mg"},{"bike_id":"c6a1ef00-1084-493b-8248-9658c4452943","system_id":"levelo_inurba_marseille","lat":43.28278,"lon":5.39068,"is_reserved":false,"is_disabled":false,"rental_uris":{"android":"levelo://app?vid=c6a1ef00-1084-493b-8248-9658c4452943","ios":"levelo://app?vid=c6a1ef00-1084-493b-8248-9658c4452943"},"vehicle_type_id":"4","last_reported":1740265677,"current_range_meters":9600,"station_id":"","pricing_plan_id":"cebpf4jnsgd1na2vs0mg"},{"bike_id":"14803cfa-95f9-4fdd-87e7-0bd625cd2e7c","system_id":"levelo_inurba_marseille","lat":43.27056,"lon":5.42277,"is_reserved":false,"is_disabled":false,"rental_uris":{"android":"levelo://app?vid=14803cfa-95f9-4fdd-87e7-0bd625cd2e7c","ios":"levelo://app?vid=14803cfa-95f9-4fdd-87e7-0bd625cd2e7c"},"vehicle_type_id":"4","last_reported":1740265677,"current_range_meters":9600,"station_id":"ce4bhk92rcd13ifvqgb0","pricing_plan_id":"cebpf4jnsgd1na2vs0mg"},{"bike_id":"a1dd7799-81ba-48fa-a34a-1fc5a8d25a80","system_id":"levelo_inurba_marseille","lat":43.29525,"lon":5.39033,"is_reserved":false,"is_disabled":false,"rental_uris":{"android":"levelo://app?vid=a1dd7799-81ba-48fa-a34a-1fc5a8d25a80","ios":"levelo://app?vid=a1dd7799-81ba-48fa-a34a-1fc5a8d25a80"},"vehicle_type_id":"4","last_reported":1740265677,"current_range_meters":9600,"station_id":"ce4bh3p2rcd13ifvqdp0","pricing_plan_id":"cebpf4jnsgd1na2vs0mg"},{"bike_id":"1a10fd59-4523-44b6-b95d-9c8ecd2de736","system_id":"levelo_inurba_marseille","lat":43.25877,"lon":5.39892,"is_reserved":false,"is_disabled":false,"rental_uris":{"android":"levelo://app?vid=1a10fd59-4523-44b6-b95d-9c8ecd2de736","ios":"levelo://app?vid=1a10fd59-4523-44b6-b95d-9c8ecd2de736"},"vehicle_type_id":"4","last_reported":1740265677,"current_range_meters":9600,"station_id":"ce4bhl92rcd13ifvqghg","pricing_plan_id":"cebpf4jnsgd1na2vs0mg"},{"bike_id":"5fcb0a33-39cc-43ca-ada8-f133ba1cb445","system_id":"levelo_inurba_marseille","lat":43.28079,"lon":5.39655,"is_reserved":false,"is_disabled":false,"rental_uris":{"android":"levelo://app?vid=5fcb0a33-39cc-43ca-ada8-f133ba1cb445","ios":"levelo://app?vid=5fcb0a33-39cc-43ca-ada8-f133ba1cb445"},"vehicle_type_id":"4","last_reported":1740265677,"current_range_meters":10000,"station_id":"ce4bho12rcd13ifvqh2g","pricing_plan_id":"cebpf4jnsgd1na2vs0mg"},{"bike_id":"6b348716-eda3-44a5-9074-aa1785e7421d","system_id":"levelo_inurba_marseille","lat":43.26557,"lon":5.39066,"is_reserved":false,"is_disabled":false,"rental_uris":{"android":"levelo://app?vid=6b348716-eda3-44a5-9074-aa1785e7421d","ios":"levelo://app?vid=6b348716-eda3-44a5-9074-aa1785e7421d"},"vehicle_type_id":"4","last_reported":1740265677,"current_range_meters":10000,"station_id":"ce4bhe12rcd13ifvqf30","pricing_plan_id":"cebpf4jnsgd1na2vs0mg"},{"bike_id":"d17e9f43-52a6-4c0c-9e57-c49dabb8fed4","system_id":"levelo_inurba_marseille","lat":43.30466,"lon":5.38208,"is_reserved":false,"is_disabled":false,"rental_uris":{"android":"levelo://app?vid=d17e9f43-52a6-4c0c-9e57-c49dabb8fed4","ios":"levelo://app?vid=d17e9f43-52a6-4c0c-9e57-c49dabb8fed4"},"vehicle_type_id":"4","last_reported":1740265677,"current_range_meters":10000,"station_id":"","pricing_plan_id":"cebpf4jnsgd1na2vs0mg"},{"bike_id":"d167782e-6c4c-4178-bdbb-5bd05c5ff4ef","system_id":"levelo_inurba_marseille","lat":43.27813,"lon":5.40714,"is_reserved":false,"is_disabled":false,"rental_uris":{"android":"levelo://app?vid=d167782e-6c4c-4178-bdbb-5bd05c5ff4ef","ios":"levelo://app?vid=d167782e-6c4c-4178-bdbb-5bd05c5ff4ef"},"vehicle_type_id":"4","last_reported":1740265677,"current_range_meters":10000,"station_id":"ce4bhnh2rcd13ifvqgtg","pricing_plan_id":"cebpf4jnsgd1na2vs0mg"},{"bike_id":"d8228868-aedc-4425-8d12-39248acb0f7f","system_id":"levelo_inurba_marseille","lat":43.289324,"lon":5.366395,"is_reserved":false,"is_disabled":false,"rental_uris":{"android":"levelo://app?vid=d8228868-aedc-4425-8d12-39248acb0f7f","ios":"levelo://app?vid=d8228868-aedc-4425-8d12-39248acb0f7f"},"vehicle_type_id":"4","last_reported":1740265677,"current_range_meters":10000,"station_id":"ce4bhap2rcd13ifvqek0","pricing_plan_id":"cebpf4jnsgd1na2vs0mg"},{"bike_id":"c76531ac-1214-4592-9c1c-6b2ce2bc0cf8","system_id":"levelo_inurba_marseille","lat":43.23206,"lon":5.35558,"is_reserved":false,"is_disabled":false,"rental_uris":{"android":"levelo://app?vid=c76531ac-1214-4592-9c1c-6b2ce2bc0cf8","ios":"levelo://app?vid=c76531ac-1214-4592-9c1c-6b2ce2bc0cf8"},"vehicle_type_id":"4","last_reported":1740265677,"current_range_meters":10000,"station_id":"ce4bhu92rcd13ifvqi70","pricing_plan_id":"cebpf4jnsgd1na2vs0mg"},{"bike_id":"67a30d2b-3780-4f47-a2fd-3290c6c1c257","system_id":"levelo_inurba_marseille","lat":43.31478,"lon":5.37312,"is_reserved":false,"is_disabled":false,"rental_uris":{"android":"levelo://app?vid=67a30d2b-3780-4f47-a2fd-3290c6c1c257","ios":"levelo://app?vid=67a30d2b-3780-4f47-a2fd-3290c6c1c257"},"vehicle_type_id":"4","last_reported":1740265677,"current_range_meters":9600,"station_id":"ce4bgt12rcd13ifvqcd0","pricing_plan_id":"cebpf4jnsgd1na2vs0mg"},{"bike_id":"ae871d00-489d-422a-8fd1-67de71f7562a","system_id":"levelo_inurba_marseille","lat":43.29524,"lon":5.39044,"is_reserved":false,"is_disabled":false,"rental_uris":{"android":"levelo://app?vid=ae871d00-489d-422a-8fd1-67de71f7562a","ios":"levelo://app?vid=ae871d00-489d-422a-8fd1-67de71f7562a"},"vehicle_type_id":"4","last_reported":1740265677,"current_range_meters":10000,"station_id":"ce4bh3p2rcd13ifvqdp0","pricing_plan_id":"cebpf4jnsgd1na2vs0mg"},{"bike_id":"16af35a1-8e31-4d8c-94b1-b1f2399dcd76","system_id":"levelo_inurba_marseille","lat":43.295163,"lon":5.39037,"is_reserved":false,"is_disabled":false,"rental_uris":{"android":"levelo://app?vid=16af35a1-8e31-4d8c-94b1-b1f2399dcd76","ios":"levelo://app?vid=16af35a1-8e31-4d8c-94b1-b1f2399dcd76"},"vehicle_type_id":"4","last_reported":1740265677,"current_range_meters":10800,"station_id":"ce4bh3p2rcd13ifvqdp0","pricing_plan_id":"cebpf4jnsgd1na2vs0mg"},{"bike_id":"bb127142-502c-4b61-b74c-d7410317905c","system_id":"levelo_inurba_marseille","lat":43.26812,"lon":5.40252,"is_reserved":false,"is_disabled":false,"rental_uris":{"android":"levelo://app?vid=bb127142-502c-4b61-b74c-d7410317905c","ios":"levelo://app?vid=bb127142-502c-4b61-b74c-d7410317905c"},"vehicle_type_id":"4","last_reported":1740265677,"current_range_meters":10800,"station_id":"ce501612rcd8frsf0b60","pricing_plan_id":"cebpf4jnsgd1na2vs0mg"},{"bike_id":"aabca3f9-7198-4a11-8f3a-0f3afabaa289","system_id":"levelo_inurba_marseille","lat":43.30785,"lon":5.3765,"is_reserved":false,"is_disabled":false,"rental_uris":{"android":"levelo://app?vid=aabca3f9-7198-4a11-8f3a-0f3afabaa289","ios":"levelo://app?vid=aabca3f9-7198-4a11-8f3a-0f3afabaa289"},"vehicle_type_id":"4","last_reported":1740265677,"current_range_meters":10800,"station_id":"ce4bgv92rcd13ifvqcq0","pricing_plan_id":"cebpf4jnsgd1na2vs0mg"},{"bike_id":"519c0d90-c598-4074-9c80-d5e1565ff705","system_id":"levelo_inurba_marseille","lat":43.23078,"lon":5.35496,"is_reserved":false,"is_disabled":false,"rental_uris":{"android":"levelo://app?vid=519c0d90-c598-4074-9c80-d5e1565ff705","ios":"levelo://app?vid=519c0d90-c598-4074-9c80-d5e1565ff705"},"vehicle_type_id":"4","last_reported":1740265677,"current_range_meters":10800,"station_id":"cpo3342slgdg3j2ifvpg","pricing_plan_id":"cebpf4jnsgd1na2vs0mg"},{"bike_id":"5d52fe5a-dfb3-40bb-a0d1-9a7b3f23529e","system_id":"levelo_inurba_marseille","lat":43.2623,"lon":5.40447,"is_reserved":false,"is_disabled":false,"rental_uris":{"android":"levelo://app?vid=5d52fe5a-dfb3-40bb-a0d1-9a7b3f23529e","ios":"levelo://app?vid=5d52fe5a-dfb3-40bb-a0d1-9a7b3f23529e"},"vehicle_type_id":"4","last_reported":1740265677,"current_range_meters":10800,"station_id":"ce4bhmh2rcd13ifvqgmg","pricing_plan_id":"cebpf4jnsgd1na2vs0mg"},{"bike_id":"9d49efd4-a238-4a72-8787-13c506ac8d9b","system_id":"levelo_inurba_marseille","lat":43.27191,"lon":5.40951,"is_reserved":false,"is_disabled":false,"rental_uris":{"android":"levelo://app?vid=9d49efd4-a238-4a72-8787-13c506ac8d9b","ios":"levelo://app?vid=9d49efd4-a238-4a72-8787-13c506ac8d9b"},"vehicle_type_id":"4","last_reported":1740265677,"current_range_meters":10800,"station_id":"ce4bhl12rcd13ifvqgf0","pricing_plan_id":"cebpf4jnsgd1na2vs0mg"},{"bike_id":"ddb48cd1-bcb3-4cac-8164-1ae412ca1019","system_id":"levelo_inurba_marseille","lat":43.29338,"lon":5.37232,"is_reserved":false,"is_disabled":false,"rental_uris":{"android":"levelo://app?vid=ddb48cd1-bcb3-4cac-8164-1ae412ca1019","ios":"levelo://app?vid=ddb48cd1-bcb3-4cac-8164-1ae412ca1019"},"vehicle_type_id":"4","last_reported":1740265677,"current_range_meters":10800,"station_id":"","pricing_plan_id":"cebpf4jnsgd1na2vs0mg"},{"bike_id":"c3b9be2e-b257-4f64-8882-ea41b3bf3812","system_id":"levelo_inurba_marseille","lat":43.32295,"lon":5.39246,"is_reserved":false,"is_disabled":false,"rental_uris":{"android":"levelo://app?vid=c3b9be2e-b257-4f64-8882-ea41b3bf3812","ios":"levelo://app?vid=c3b9be2e-b257-4f64-8882-ea41b3bf3812"},"vehicle_type_id":"4","last_reported":1740265677,"current_range_meters":10800,"station_id":"","pricing_plan_id":"cebpf4jnsgd1na2vs0mg"},{"bike_id":"f6d71a6b-8c01-4375-b614-fc80c225b7aa","system_id":"levelo_inurba_marseille","lat":43.28972,"lon":5.37847,"is_reserved":false,"is_disabled":false,"rental_uris":{"android":"levelo://app?vid=f6d71a6b-8c01-4375-b614-fc80c225b7aa","ios":"levelo://app?vid=f6d71a6b-8c01-4375-b614-fc80c225b7aa"},"vehicle_type_id":"4","last_reported":1740265677,"current_range_meters":11600,"station_id":"ce4bh9p2rcd13ifvqed0","pricing_plan_id":"cebpf4jnsgd1na2vs0mg"},{"bike_id":"0b35ef10-1d1d-4e8a-949e-c3122c5e3874","system_id":"levelo_inurba_marseille","lat":43.23956,"lon":5.36635,"is_reserved":false,"is_disabled":false,"rental_uris":{"android":"levelo://app?vid=0b35ef10-1d1d-4e8a-949e-c3122c5e3874","ios":"levelo://app?vid=0b35ef10-1d1d-4e8a-949e-c3122c5e3874"},"vehicle_type_id":"4","last_reported":1740265677,"current_range_meters":11200,"station_id":"ce4bhi12rcd13ifvqfp0","pricing_plan_id":"cebpf4jnsgd1na2vs0mg"},{"bike_id":"580cd37a-010c-47d8-955d-e1bf99f50654","system_id":"levelo_inurba_marseille","lat":43.28357,"lon":5.38652,"is_reserved":false,"is_disabled":false,"rental_uris":{"android":"levelo://app?vid=580cd37a-010c-47d8-955d-e1bf99f50654","ios":"levelo://app?vid=580cd37a-010c-47d8-955d-e1bf99f50654"},"vehicle_type_id":"4","last_reported":1740265677,"current_range_meters":11200,"station_id":"ce4bh492rcd13ifvqdvg","pricing_plan_id":"cebpf4jnsgd1na2vs0mg"},{"bike_id":"26a2d076-f5f2-45a7-98f5-29542790fe7d","system_id":"levelo_inurba_marseille","lat":43.32365,"lon":5.36765,"is_reserved":false,"is_disabled":false,"rental_uris":{"android":"levelo://app?vid=26a2d076-f5f2-45a7-98f5-29542790fe7d","ios":"levelo://app?vid=26a2d076-f5f2-45a7-98f5-29542790fe7d"},"vehicle_type_id":"4","last_reported":1740265677,"current_range_meters":11200,"station_id":"ce4bhsh2rcd13ifvqi2g","pricing_plan_id":"cebpf4jnsgd1na2vs0mg"},{"bike_id":"08960250-711e-4185-8730-b2f365df4ada","system_id":"levelo_inurba_marseille","lat":43.29027,"lon":5.38128,"is_reserved":false,"is_disabled":false,"rental_uris":{"android":"levelo://app?vid=08960250-711e-4185-8730-b2f365df4ada","ios":"levelo://app?vid=08960250-711e-4185-8730-b2f365df4ada"},"vehicle_type_id":"4","last_reported":1740265677,"current_range_meters":9200,"station_id":"ce4bh4p2rcd13ifvqe1g","pricing_plan_id":"cebpf4jnsgd1na2vs0mg"},{"bike_id":"e2f62125-3a72-42e8-8935-2e0ba3bfe398","system_id":"levelo_inurba_marseille","lat":43.25575,"lon":5.38231,"is_reserved":false,"is_disabled":false,"rental_uris":{"android":"levelo://app?vid=e2f62125-3a72-42e8-8935-2e0ba3bfe398","ios":"levelo://app?vid=e2f62125-3a72-42e8-8935-2e0ba3bfe398"},"vehicle_type_id":"4","last_reported":1740265677,"current_range_meters":11600,"station_id":"ce4bhih2rcd13ifvqfs0","pricing_plan_id":"cebpf4jnsgd1na2vs0mg"},{"bike_id":"09486dc5-7654-4904-afc6-3b8a40308aeb","system_id":"levelo_inurba_marseille","lat":43.25409,"lon":5.41567,"is_reserved":false,"is_disabled":false,"rental_uris":{"android":"levelo://app?vid=09486dc5-7654-4904-afc6-3b8a40308aeb","ios":"levelo://app?vid=09486dc5-7654-4904-afc6-3b8a40308aeb"},"vehicle_type_id":"4","last_reported":1740265677,"current_range_meters":11600,"station_id":"","pricing_plan_id":"cebpf4jnsgd1na2vs0mg"},{"bike_id":"ad184f0e-d5c6-4a9c-ba11-7ab7f337e022","system_id":"levelo_inurba_marseille","lat":43.25826,"lon":5.39437,"is_reserved":false,"is_disabled":false,"rental_uris":{"android":"levelo://app?vid=ad184f0e-d5c6-4a9c-ba11-7ab7f337e022","ios":"levelo://app?vid=ad184f0e-d5c6-4a9c-ba11-7ab7f337e022"},"vehicle_type_id":"4","last_reported":1740265677,"current_range_meters":11600,"station_id":"ce4bhip2rcd13ifvqft0","pricing_plan_id":"cebpf4jnsgd1na2vs0mg"},{"bike_id":"5e8691a8-f2ed-4a5d-8ce2-b5c17291ce24","system_id":"levelo_inurba_marseille","lat":43.29262,"lon":5.38427,"is_reserved":false,"is_disabled":false,"rental_uris":{"android":"levelo://app?vid=5e8691a8-f2ed-4a5d-8ce2-b5c17291ce24","ios":"levelo://app?vid=5e8691a8-f2ed-4a5d-8ce2-b5c17291ce24"},"vehicle_type_id":"4","last_reported":1740265677,"current_range_meters":11600,"station_id":"ce4bh692rcd13ifvqea0","pricing_plan_id":"cebpf4jnsgd1na2vs0mg"},{"bike_id":"1b0d6542-f74d-4dd5-b78b-1cd1115ff80b","system_id":"levelo_inurba_marseille","lat":43.30638,"lon":5.3736,"is_reserved":false,"is_disabled":false,"rental_uris":{"android":"levelo://app?vid=1b0d6542-f74d-4dd5-b78b-1cd1115ff80b","ios":"levelo://app?vid=1b0d6542-f74d-4dd5-b78b-1cd1115ff80b"},"vehicle_type_id":"4","last_reported":1740265677,"current_range_meters":12000,"station_id":"","pricing_plan_id":"cebpf4jnsgd1na2vs0mg"},{"bike_id":"f6d78434-f92e-4320-8e1c-29737f7310f3","system_id":"levelo_inurba_marseille","lat":43.29423,"lon":5.38641,"is_reserved":false,"is_disabled":false,"rental_uris":{"android":"levelo://app?vid=f6d78434-f92e-4320-8e1c-29737f7310f3","ios":"levelo://app?vid=f6d78434-f92e-4320-8e1c-29737f7310f3"},"vehicle_type_id":"4","last_reported":1740265677,"current_range_meters":12000,"station_id":"ce4bh2h2rcd13ifvqdh0","pricing_plan_id":"cebpf4jnsgd1na2vs0mg"},{"bike_id":"0e27a68c-d9af-43b3-9275-d0f50e6ba9ff","system_id":"levelo_inurba_marseille","lat":43.29707,"lon":5.36609,"is_reserved":false,"is_disabled":false,"rental_uris":{"android":"levelo://app?vid=0e27a68c-d9af-43b3-9275-d0f50e6ba9ff","ios":"levelo://app?vid=0e27a68c-d9af-43b3-9275-d0f50e6ba9ff"},"vehicle_type_id":"4","last_reported":1740265677,"current_range_meters":12000,"station_id":"","pricing_plan_id":"cebpf4jnsgd1na2vs0mg"},{"bike_id":"d88699b9-7a50-415c-9cdb-a35fdc00ed80","system_id":"levelo_inurba_marseille","lat":43.29934,"lon":5.37193,"is_reserved":false,"is_disabled":false,"rental_uris":{"android":"levelo://app?vid=d88699b9-7a50-415c-9cdb-a35fdc00ed80","ios":"levelo://app?vid=d88699b9-7a50-415c-9cdb-a35fdc00ed80"},"vehicle_type_id":"4","last_reported":1740265677,"current_range_meters":12000,"station_id":"","pricing_plan_id":"cebpf4jnsgd1na2vs0mg"},{"bike_id":"8123420b-6cdb-4d10-aa85-be07190f7ffe","system_id":"levelo_inurba_marseille","lat":43.28849,"lon":5.35863,"is_reserved":false,"is_disabled":false,"rental_uris":{"android":"levelo://app?vid=8123420b-6cdb-4d10-aa85-be07190f7ffe","ios":"levelo://app?vid=8123420b-6cdb-4d10-aa85-be07190f7ffe"},"vehicle_type_id":"4","last_reported":1740265677,"current_range_meters":12000,"station_id":"ce4bhb12rcd13ifvqem0","pricing_plan_id":"cebpf4jnsgd1na2vs0mg"},{"bike_id":"1f7411cd-9379-4bab-a8bc-411b928d8602","system_id":"levelo_inurba_marseille","lat":43.27477,"lon":5.42432,"is_reserved":false,"is_disabled":false,"rental_uris":{"android":"levelo://app?vid=1f7411cd-9379-4bab-a8bc-411b928d8602","ios":"levelo://app?vid=1f7411cd-9379-4bab-a8bc-411b928d8602"},"vehicle_type_id":"4","last_reported":1740265677,"current_range_meters":12400,"station_id":"ce4bhn92rcd13ifvqgrg","pricing_plan_id":"cebpf4jnsgd1na2vs0mg"},{"bike_id":"8dc51aab-29d3-43fa-a37e-6c47cc4c2e69","system_id":"levelo_inurba_marseille","lat":43.24169,"lon":5.36403,"is_reserved":false,"is_disabled":false,"rental_uris":{"android":"levelo://app?vid=8dc51aab-29d3-43fa-a37e-6c47cc4c2e69","ios":"levelo://app?vid=8dc51aab-29d3-43fa-a37e-6c47cc4c2e69"},"vehicle_type_id":"4","last_reported":1740265677,"current_range_meters":12400,"station_id":"cpo36qri1sfpv3e86is0","pricing_plan_id":"cebpf4jnsgd1na2vs0mg"},{"bike_id":"8cb89b4f-939f-484f-b58c-af0e4b691f2d","system_id":"levelo_inurba_marseille","lat":43.29786,"lon":5.37103,"is_reserved":false,"is_disabled":false,"rental_uris":{"android":"levelo://app?vid=8cb89b4f-939f-484f-b58c-af0e4b691f2d","ios":"levelo://app?vid=8cb89b4f-939f-484f-b58c-af0e4b691f2d"},"vehicle_type_id":"4","last_reported":1740265677,"current_range_meters":12400,"station_id":"ce4bgop2rcd13ifvqc1g","pricing_plan_id":"cebpf4jnsgd1na2vs0mg"},{"bike_id":"d5785c9b-5e24-4171-ab25-039888b91745","system_id":"levelo_inurba_marseille","lat":43.290891,"lon":5.381308,"is_reserved":false,"is_disabled":false,"rental_uris":{"android":"levelo://app?vid=d5785c9b-5e24-4171-ab25-039888b91745","ios":"levelo://app?vid=d5785c9b-5e24-4171-ab25-039888b91745"},"vehicle_type_id":"4","last_reported":1740265677,"current_range_meters":12800,"station_id":"ce4bha12rcd13ifvqee0","pricing_plan_id":"cebpf4jnsgd1na2vs0mg"},{"bike_id":"3fd2a98c-7939-498c-8625-9658300a849b","system_id":"levelo_inurba_marseille","lat":43.259378,"lon":5.409001,"is_reserved":false,"is_disabled":false,"rental_uris":{"android":"levelo://app?vid=3fd2a98c-7939-498c-8625-9658300a849b","ios":"levelo://app?vid=3fd2a98c-7939-498c-8625-9658300a849b"},"vehicle_type_id":"4","last_reported":1740265677,"current_range_meters":12800,"station_id":"ce4bhm92rcd13ifvqglg","pricing_plan_id":"cebpf4jnsgd1na2vs0mg"},{"bike_id":"5827aa9c-9ff9-4134-8058-209b211bdeed","system_id":"levelo_inurba_marseille","lat":43.29421,"lon":5.38618,"is_reserved":false,"is_disabled":false,"rental_uris":{"android":"levelo://app?vid=5827aa9c-9ff9-4134-8058-209b211bdeed","ios":"levelo://app?vid=5827aa9c-9ff9-4134-8058-209b211bdeed"},"vehicle_type_id":"4","last_reported":1740265677,"current_range_meters":12800,"station_id":"ce4bh2h2rcd13ifvqdh0","pricing_plan_id":"cebpf4jnsgd1na2vs0mg"},{"bike_id":"00512656-56f1-478d-a7b5-5569da3029b1","system_id":"levelo_inurba_marseille","lat":43.23967,"lon":5.36627,"is_reserved":false,"is_disabled":false,"rental_uris":{"android":"levelo://app?vid=00512656-56f1-478d-a7b5-5569da3029b1","ios":"levelo://app?vid=00512656-56f1-478d-a7b5-5569da3029b1"},"vehicle_type_id":"4","last_reported":1740265677,"current_range_meters":12800,"station_id":"ce4bhi12rcd13ifvqfp0","pricing_plan_id":"cebpf4jnsgd1na2vs0mg"},{"bike_id":"c396fa84-c871-4546-85c3-45e8ee86c4ed","system_id":"levelo_inurba_marseille","lat":43.29196,"lon":5.39331,"is_reserved":false,"is_disabled":false,"rental_uris":{"android":"levelo://app?vid=c396fa84-c871-4546-85c3-45e8ee86c4ed","ios":"levelo://app?vid=c396fa84-c871-4546-85c3-45e8ee86c4ed"},"vehicle_type_id":"4","last_reported":1740265677,"current_range_meters":12800,"station_id":"","pricing_plan_id":"cebpf4jnsgd1na2vs0mg"},{"bike_id":"65a2b506-9f18-4086-90d7-6bbdf970a117","system_id":"levelo_inurba_marseille","lat":43.29534,"lon":5.38537,"is_reserved":false,"is_disabled":true,"rental_uris":{"android":"levelo://app?vid=65a2b506-9f18-4086-90d7-6bbdf970a117","ios":"levelo://app?vid=65a2b506-9f18-4086-90d7-6bbdf970a117"},"vehicle_type_id":"4","last_reported":1740265677,"current_range_meters":13600,"station_id":"ce4bgih2rcd13ifvqba0","pricing_plan_id":"cebpf4jnsgd1na2vs0mg"},{"bike_id":"205903f3-7eb7-45a4-a2ac-125a5dae63b1","system_id":"levelo_inurba_marseille","lat":43.292541,"lon":5.38429,"is_reserved":false,"is_disabled":false,"rental_uris":{"android":"levelo://app?vid=205903f3-7eb7-45a4-a2ac-125a5dae63b1","ios":"levelo://app?vid=205903f3-7eb7-45a4-a2ac-125a5dae63b1"},"vehicle_type_id":"4","last_reported":1740265677,"current_range_meters":13600,"station_id":"ce4bh692rcd13ifvqea0","pricing_plan_id":"cebpf4jnsgd1na2vs0mg"},{"bike_id":"7e68d2dc-c00f-4e58-8247-38224da8b835","system_id":"levelo_inurba_marseille","lat":43.231409,"lon":5.437692,"is_reserved":false,"is_disabled":false,"rental_uris":{"android":"levelo://app?vid=7e68d2dc-c00f-4e58-8247-38224da8b835","ios":"levelo://app?vid=7e68d2dc-c00f-4e58-8247-38224da8b835"},"vehicle_type_id":"4","last_reported":1740265677,"current_range_meters":13600,"station_id":"ce4bhmp2rcd13ifvqgog","pricing_plan_id":"cebpf4jnsgd1na2vs0mg"},{"bike_id":"8e403f8a-b998-4fb1-bb90-54bf70e024a5","system_id":"levelo_inurba_marseille","lat":43.26935,"lon":5.389166,"is_reserved":false,"is_disabled":false,"rental_uris":{"android":"levelo://app?vid=8e403f8a-b998-4fb1-bb90-54bf70e024a5","ios":"levelo://app?vid=8e403f8a-b998-4fb1-bb90-54bf70e024a5"},"vehicle_type_id":"4","last_reported":1740265677,"current_range_meters":13600,"station_id":"ce4bhhh2rcd13ifvqfl0","pricing_plan_id":"cebpf4jnsgd1na2vs0mg"},{"bike_id":"5e00ba06-2d1a-4dfa-86af-82d3984ecd07","system_id":"levelo_inurba_marseille","lat":43.27425,"lon":5.39411,"is_reserved":false,"is_disabled":false,"rental_uris":{"android":"levelo://app?vid=5e00ba06-2d1a-4dfa-86af-82d3984ecd07","ios":"levelo://app?vid=5e00ba06-2d1a-4dfa-86af-82d3984ecd07"},"vehicle_type_id":"4","last_reported":1740265677,"current_range_meters":9600,"station_id":"ce4bhdp2rcd13ifvqf20","pricing_plan_id":"cebpf4jnsgd1na2vs0mg"},{"bike_id":"475bc4c9-a73e-4e76-a1c3-4e272d66e9eb","system_id":"levelo_inurba_marseille","lat":43.30794,"lon":5.38149,"is_reserved":false,"is_disabled":false,"rental_uris":{"android":"levelo://app?vid=475bc4c9-a73e-4e76-a1c3-4e272d66e9eb","ios":"levelo://app?vid=475bc4c9-a73e-4e76-a1c3-4e272d66e9eb"},"vehicle_type_id":"4","last_reported":1740265677,"current_range_meters":13600,"station_id":"ce4bgt12rcd13ifvqce0","pricing_plan_id":"cebpf4jnsgd1na2vs0mg"},{"bike_id":"6d7d234d-cc63-4c93-a437-cbbae2704dad","system_id":"levelo_inurba_marseille","lat":43.31223,"lon":5.36873,"is_reserved":false,"is_disabled":false,"rental_uris":{"android":"levelo://app?vid=6d7d234d-cc63-4c93-a437-cbbae2704dad","ios":"levelo://app?vid=6d7d234d-cc63-4c93-a437-cbbae2704dad"},"vehicle_type_id":"4","last_reported":1740265677,"current_range_meters":14000,"station_id":"ce4bgl92rcd13ifvqbq0","pricing_plan_id":"cebpf4jnsgd1na2vs0mg"},{"bike_id":"bf955d35-f5d5-4c7a-acee-2eb7e71c40f9","system_id":"levelo_inurba_marseille","lat":43.26698,"lon":5.38268,"is_reserved":false,"is_disabled":false,"rental_uris":{"android":"levelo://app?vid=bf955d35-f5d5-4c7a-acee-2eb7e71c40f9","ios":"levelo://app?vid=bf955d35-f5d5-4c7a-acee-2eb7e71c40f9"},"vehicle_type_id":"4","last_reported":1740265677,"current_range_meters":14400,"station_id":"ce4bhg92rcd13ifvqf90","pricing_plan_id":"cebpf4jnsgd1na2vs0mg"},{"bike_id":"a32db01c-f31e-44d9-86ce-f982de71749a","system_id":"levelo_inurba_marseille","lat":43.25728,"lon":5.41119,"is_reserved":false,"is_disabled":false,"rental_uris":{"android":"levelo://app?vid=a32db01c-f31e-44d9-86ce-f982de71749a","ios":"levelo://app?vid=a32db01c-f31e-44d9-86ce-f982de71749a"},"vehicle_type_id":"4","last_reported":1740265677,"current_range_meters":14400,"station_id":"ce4bhkp2rcd13ifvqgd0","pricing_plan_id":"cebpf4jnsgd1na2vs0mg"},{"bike_id":"095d5026-b6cb-411c-ab71-6c60703e2b2f","system_id":"levelo_inurba_marseille","lat":43.23058,"lon":5.35502,"is_reserved":false,"is_disabled":true,"rental_uris":{"android":"levelo://app?vid=095d5026-b6cb-411c-ab71-6c60703e2b2f","ios":"levelo://app?vid=095d5026-b6cb-411c-ab71-6c60703e2b2f"},"vehicle_type_id":"4","last_reported":1740265677,"current_range_meters":14400,"station_id":"cpo3342slgdg3j2ifvpg","pricing_plan_id":"cebpf4jnsgd1na2vs0mg"},{"bike_id":"49f0cfbd-4a05-40e7-84e3-188b77d24ee2","system_id":"levelo_inurba_marseille","lat":43.29313,"lon":5.37171,"is_reserved":false,"is_disabled":false,"rental_uris":{"android":"levelo://app?vid=49f0cfbd-4a05-40e7-84e3-188b77d24ee2","ios":"levelo://app?vid=49f0cfbd-4a05-40e7-84e3-188b77d24ee2"},"vehicle_type_id":"4","last_reported":1740265677,"current_range_meters":14400,"station_id":"ce4bgh92rcd13ifvqb40","pricing_plan_id":"cebpf4jnsgd1na2vs0mg"},{"bike_id":"9fdc5228-e835-4793-ad30-e5834cfd975b","system_id":"levelo_inurba_marseille","lat":43.2586,"lon":5.39903,"is_reserved":false,"is_disabled":false,"rental_uris":{"android":"levelo://app?vid=9fdc5228-e835-4793-ad30-e5834cfd975b","ios":"levelo://app?vid=9fdc5228-e835-4793-ad30-e5834cfd975b"},"vehicle_type_id":"4","last_reported":1740265677,"current_range_meters":14400,"station_id":"ce4bhl92rcd13ifvqghg","pricing_plan_id":"cebpf4jnsgd1na2vs0mg"},{"bike_id":"07e94c33-65a8-4be0-90bf-399fe126c10e","system_id":"levelo_inurba_marseille","lat":43.24999,"lon":5.38931,"is_reserved":false,"is_disabled":false,"rental_uris":{"android":"levelo://app?vid=07e94c33-65a8-4be0-90bf-399fe126c10e","ios":"levelo://app?vid=07e94c33-65a8-4be0-90bf-399fe126c10e"},"vehicle_type_id":"4","last_reported":1740265677,"current_range_meters":14400,"station_id":"ce4bhgp2rcd13ifvqfd0","pricing_plan_id":"cebpf4jnsgd1na2vs0mg"},{"bike_id":"18cd1975-a0d8-4c4a-a2c1-27681d7705c0","system_id":"levelo_inurba_marseille","lat":43.278188,"lon":5.407183,"is_reserved":false,"is_disabled":false,"rental_uris":{"android":"levelo://app?vid=18cd1975-a0d8-4c4a-a2c1-27681d7705c0","ios":"levelo://app?vid=18cd1975-a0d8-4c4a-a2c1-27681d7705c0"},"vehicle_type_id":"4","last_reported":1740265677,"current_range_meters":14400,"station_id":"ce4bhnh2rcd13ifvqgtg","pricing_plan_id":"cebpf4jnsgd1na2vs0mg"},{"bike_id":"6e7453d3-b596-416f-a44e-21daef2820ad","system_id":"levelo_inurba_marseille","lat":43.2557,"lon":5.38253,"is_reserved":false,"is_disabled":false,"rental_uris":{"android":"levelo://app?vid=6e7453d3-b596-416f-a44e-21daef2820ad","ios":"levelo://app?vid=6e7453d3-b596-416f-a44e-21daef2820ad"},"vehicle_type_id":"4","last_reported":1740265677,"current_range_meters":14800,"station_id":"ce4bhih2rcd13ifvqfs0","pricing_plan_id":"cebpf4jnsgd1na2vs0mg"},{"bike_id":"f5043b92-9d4a-4bb2-9e78-864d7e12fcea","system_id":"levelo_inurba_marseille","lat":43.28725,"lon":5.37393,"is_reserved":false,"is_disabled":false,"rental_uris":{"android":"levelo://app?vid=f5043b92-9d4a-4bb2-9e78-864d7e12fcea","ios":"levelo://app?vid=f5043b92-9d4a-4bb2-9e78-864d7e12fcea"},"vehicle_type_id":"4","last_reported":1740265677,"current_range_meters":14800,"station_id":"ce4bh3p2rcd13ifvqdq0","pricing_plan_id":"cebpf4jnsgd1na2vs0mg"},{"bike_id":"7edad6f1-bb02-4747-8467-5494540e990b","system_id":"levelo_inurba_marseille","lat":43.25001,"lon":5.38918,"is_reserved":false,"is_disabled":false,"rental_uris":{"android":"levelo://app?vid=7edad6f1-bb02-4747-8467-5494540e990b","ios":"levelo://app?vid=7edad6f1-bb02-4747-8467-5494540e990b"},"vehicle_type_id":"4","last_reported":1740265677,"current_range_meters":14800,"station_id":"ce4bhgp2rcd13ifvqfd0","pricing_plan_id":"cebpf4jnsgd1na2vs0mg"},{"bike_id":"6cee15f5-f5b0-4f78-80d2-62dd5deb5a0a","system_id":"levelo_inurba_marseille","lat":43.2655,"lon":5.39066,"is_reserved":false,"is_disabled":false,"rental_uris":{"android":"levelo://app?vid=6cee15f5-f5b0-4f78-80d2-62dd5deb5a0a","ios":"levelo://app?vid=6cee15f5-f5b0-4f78-80d2-62dd5deb5a0a"},"vehicle_type_id":"4","last_reported":1740265677,"current_range_meters":15200,"station_id":"ce4bhe12rcd13ifvqf30","pricing_plan_id":"cebpf4jnsgd1na2vs0mg"},{"bike_id":"0960003d-eea6-4d26-a89e-510626acdaa2","system_id":"levelo_inurba_marseille","lat":43.27942,"lon":5.41043,"is_reserved":false,"is_disabled":false,"rental_uris":{"android":"levelo://app?vid=0960003d-eea6-4d26-a89e-510626acdaa2","ios":"levelo://app?vid=0960003d-eea6-4d26-a89e-510626acdaa2"},"vehicle_type_id":"4","last_reported":1740265677,"current_range_meters":15200,"station_id":"ce4bhnp2rcd13ifvqh0g","pricing_plan_id":"cebpf4jnsgd1na2vs0mg"},{"bike_id":"b9e216f1-218f-4971-ac4d-4d2a9845d777","system_id":"levelo_inurba_marseille","lat":43.28664,"lon":5.36345,"is_reserved":false,"is_disabled":false,"rental_uris":{"android":"levelo://app?vid=b9e216f1-218f-4971-ac4d-4d2a9845d777","ios":"levelo://app?vid=b9e216f1-218f-4971-ac4d-4d2a9845d777"},"vehicle_type_id":"4","last_reported":1740265677,"current_range_meters":15200,"station_id":"ce4bhah2rcd13ifvqej0","pricing_plan_id":"cebpf4jnsgd1na2vs0mg"},{"bike_id":"249eb2b7-8a6d-489b-83a3-85963f66cc1c","system_id":"levelo_inurba_marseille","lat":43.3079,"lon":5.38166,"is_reserved":false,"is_disabled":false,"rental_uris":{"android":"levelo://app?vid=249eb2b7-8a6d-489b-83a3-85963f66cc1c","ios":"levelo://app?vid=249eb2b7-8a6d-489b-83a3-85963f66cc1c"},"vehicle_type_id":"4","last_reported":1740265677,"current_range_meters":14400,"station_id":"ce4bgt12rcd13ifvqce0","pricing_plan_id":"cebpf4jnsgd1na2vs0mg"},{"bike_id":"33cc0fcb-f6e1-44bc-9328-d3f75a5791c5","system_id":"levelo_inurba_marseille","lat":43.23193,"lon":5.35552,"is_reserved":false,"is_disabled":false,"rental_uris":{"android":"levelo://app?vid=33cc0fcb-f6e1-44bc-9328-d3f75a5791c5","ios":"levelo://app?vid=33cc0fcb-f6e1-44bc-9328-d3f75a5791c5"},"vehicle_type_id":"4","last_reported":1740265677,"current_range_meters":15200,"station_id":"ce4bhu92rcd13ifvqi70","pricing_plan_id":"cebpf4jnsgd1na2vs0mg"},{"bike_id":"ac4aa88a-447c-4d16-b97d-644ae2566d1f","system_id":"levelo_inurba_marseille","lat":43.30563,"lon":5.36551,"is_reserved":false,"is_disabled":false,"rental_uris":{"android":"levelo://app?vid=ac4aa88a-447c-4d16-b97d-644ae2566d1f","ios":"levelo://app?vid=ac4aa88a-447c-4d16-b97d-644ae2566d1f"},"vehicle_type_id":"4","last_reported":1740265677,"current_range_meters":15200,"station_id":"ce4bgs12rcd13ifvqcag","pricing_plan_id":"cebpf4jnsgd1na2vs0mg"},{"bike_id":"7c620d1c-d846-428b-8fc0-a2dea4c5da36","system_id":"levelo_inurba_marseille","lat":43.29064,"lon":5.37159,"is_reserved":false,"is_disabled":false,"rental_uris":{"android":"levelo://app?vid=7c620d1c-d846-428b-8fc0-a2dea4c5da36","ios":"levelo://app?vid=7c620d1c-d846-428b-8fc0-a2dea4c5da36"},"vehicle_type_id":"4","last_reported":1740265677,"current_range_meters":15200,"station_id":"ce4bh5p2rcd13ifvqe4g","pricing_plan_id":"cebpf4jnsgd1na2vs0mg"},{"bike_id":"ef73e067-e342-4ea1-a21d-5bab7be015a4","system_id":"levelo_inurba_marseille","lat":43.32301,"lon":5.39241,"is_reserved":false,"is_disabled":false,"rental_uris":{"android":"levelo://app?vid=ef73e067-e342-4ea1-a21d-5bab7be015a4","ios":"levelo://app?vid=ef73e067-e342-4ea1-a21d-5bab7be015a4"},"vehicle_type_id":"4","last_reported":1740265677,"current_range_meters":16000,"station_id":"","pricing_plan_id":"cebpf4jnsgd1na2vs0mg"},{"bike_id":"2baaff82-67df-4e42-a26e-ad813d273a8c","system_id":"levelo_inurba_marseille","lat":43.29235,"lon":5.40887,"is_reserved":false,"is_disabled":false,"rental_uris":{"android":"levelo://app?vid=2baaff82-67df-4e42-a26e-ad813d273a8c","ios":"levelo://app?vid=2baaff82-67df-4e42-a26e-ad813d273a8c"},"vehicle_type_id":"4","last_reported":1740265677,"current_range_meters":16000,"station_id":"ce4bh192rcd13ifvqdc0","pricing_plan_id":"cebpf4jnsgd1na2vs0mg"},{"bike_id":"cff5de6c-d1d8-4938-8fd9-71c62e4771ab","system_id":"levelo_inurba_marseille","lat":43.3122,"lon":5.36873,"is_reserved":false,"is_disabled":false,"rental_uris":{"android":"levelo://app?vid=cff5de6c-d1d8-4938-8fd9-71c62e4771ab","ios":"levelo://app?vid=cff5de6c-d1d8-4938-8fd9-71c62e4771ab"},"vehicle_type_id":"4","last_reported":1740265677,"current_range_meters":16000,"station_id":"ce4bgl92rcd13ifvqbq0","pricing_plan_id":"cebpf4jnsgd1na2vs0mg"},{"bike_id":"133eda79-8c18-4ed5-8caf-521ff4896829","system_id":"levelo_inurba_marseille","lat":43.28596,"lon":5.37054,"is_reserved":false,"is_disabled":false,"rental_uris":{"android":"levelo://app?vid=133eda79-8c18-4ed5-8caf-521ff4896829","ios":"levelo://app?vid=133eda79-8c18-4ed5-8caf-521ff4896829"},"vehicle_type_id":"4","last_reported":1740265677,"current_range_meters":16400,"station_id":"ce4bht12rcd13ifvqi60","pricing_plan_id":"cebpf4jnsgd1na2vs0mg"},{"bike_id":"80e30e07-59ff-4807-b06b-c6dc1a9e08e2","system_id":"levelo_inurba_marseille","lat":43.33606,"lon":5.41021,"is_reserved":false,"is_disabled":true,"rental_uris":{"android":"levelo://app?vid=80e30e07-59ff-4807-b06b-c6dc1a9e08e2","ios":"levelo://app?vid=80e30e07-59ff-4807-b06b-c6dc1a9e08e2"},"vehicle_type_id":"4","last_reported":1740265677,"current_range_meters":16400,"station_id":"ce4bhqh2rcd13ifvqhmg","pricing_plan_id":"cebpf4jnsgd1na2vs0mg"},{"bike_id":"a695eda3-8555-4ce3-85ff-990506cef133","system_id":"levelo_inurba_marseille","lat":43.28105,"lon":5.37846,"is_reserved":false,"is_disabled":false,"rental_uris":{"android":"levelo://app?vid=a695eda3-8555-4ce3-85ff-990506cef133","ios":"levelo://app?vid=a695eda3-8555-4ce3-85ff-990506cef133"},"vehicle_type_id":"4","last_reported":1740265677,"current_range_meters":16400,"station_id":"ce4bha12rcd13ifvqee0","pricing_plan_id":"cebpf4jnsgd1na2vs0mg"},{"bike_id":"4caf490d-10e5-4073-8dae-a68a285775aa","system_id":"levelo_inurba_marseille","lat":43.24385,"lon":5.37056,"is_reserved":false,"is_disabled":false,"rental_uris":{"android":"levelo://app?vid=4caf490d-10e5-4073-8dae-a68a285775aa","ios":"levelo://app?vid=4caf490d-10e5-4073-8dae-a68a285775aa"},"vehicle_type_id":"4","last_reported":1740265677,"current_range_meters":16400,"station_id":"ce4bhhh2rcd13ifvqfk0","pricing_plan_id":"cebpf4jnsgd1na2vs0mg"},{"bike_id":"3a65e98c-6fc0-442b-97a2-ccd814e231ae","system_id":"levelo_inurba_marseille","lat":43.2512,"lon":5.403119,"is_reserved":false,"is_disabled":false,"rental_uris":{"android":"levelo://app?vid=3a65e98c-6fc0-442b-97a2-ccd814e231ae","ios":"levelo://app?vid=3a65e98c-6fc0-442b-97a2-ccd814e231ae"},"vehicle_type_id":"4","last_reported":1740265677,"current_range_meters":16400,"station_id":"ce4bhnp2rcd13ifvqgvg","pricing_plan_id":"cebpf4jnsgd1na2vs0mg"},{"bike_id":"e636832d-d31d-492b-9bcd-b899a106503d","system_id":"levelo_inurba_marseille","lat":43.2417,"lon":5.3639,"is_reserved":false,"is_disabled":false,"rental_uris":{"android":"levelo://app?vid=e636832d-d31d-492b-9bcd-b899a106503d","ios":"levelo://app?vid=e636832d-d31d-492b-9bcd-b899a106503d"},"vehicle_type_id":"4","last_reported":1740265677,"current_range_meters":16400,"station_id":"cpo36qri1sfpv3e86is0","pricing_plan_id":"cebpf4jnsgd1na2vs0mg"},{"bike_id":"f4fe54f8-7e2d-442b-b50c-1d0c64822e08","system_id":"levelo_inurba_marseille","lat":43.28684,"lon":5.38322,"is_reserved":false,"is_disabled":false,"rental_uris":{"android":"levelo://app?vid=f4fe54f8-7e2d-442b-b50c-1d0c64822e08","ios":"levelo://app?vid=f4fe54f8-7e2d-442b-b50c-1d0c64822e08"},"vehicle_type_id":"4","last_reported":1740265677,"current_range_meters":16400,"station_id":"","pricing_plan_id":"cebpf4jnsgd1na2vs0mg"},{"bike_id":"1640f694-8d82-4317-92a0-381978b48eed","system_id":"levelo_inurba_marseille","lat":43.29461,"lon":5.3863,"is_reserved":false,"is_disabled":false,"rental_uris":{"android":"levelo://app?vid=1640f694-8d82-4317-92a0-381978b48eed","ios":"levelo://app?vid=1640f694-8d82-4317-92a0-381978b48eed"},"vehicle_type_id":"4","last_reported":1740265677,"current_range_meters":16400,"station_id":"ce4bh2h2rcd13ifvqdh0","pricing_plan_id":"cebpf4jnsgd1na2vs0mg"},{"bike_id":"7d4b257a-c60d-48e8-85d7-7dc3f985241e","system_id":"levelo_inurba_marseille","lat":43.29629,"lon":5.38562,"is_reserved":false,"is_disabled":false,"rental_uris":{"android":"levelo://app?vid=7d4b257a-c60d-48e8-85d7-7dc3f985241e","ios":"levelo://app?vid=7d4b257a-c60d-48e8-85d7-7dc3f985241e"},"vehicle_type_id":"4","last_reported":1740265677,"current_range_meters":16400,"station_id":"","pricing_plan_id":"cebpf4jnsgd1na2vs0mg"},{"bike_id":"000c4115-f23f-4bea-a8c5-ff216e9e670f","system_id":"levelo_inurba_marseille","lat":43.29255,"lon":5.40903,"is_reserved":false,"is_disabled":false,"rental_uris":{"android":"levelo://app?vid=000c4115-f23f-4bea-a8c5-ff216e9e670f","ios":"levelo://app?vid=000c4115-f23f-4bea-a8c5-ff216e9e670f"},"vehicle_type_id":"4","last_reported":1740265677,"current_range_meters":14000,"station_id":"ce4bh192rcd13ifvqdc0","pricing_plan_id":"cebpf4jnsgd1na2vs0mg"},{"bike_id":"d53720bf-bb9a-493e-a965-c0754ac375f4","system_id":"levelo_inurba_marseille","lat":43.29247,"lon":5.38432,"is_reserved":false,"is_disabled":false,"rental_uris":{"android":"levelo://app?vid=d53720bf-bb9a-493e-a965-c0754ac375f4","ios":"levelo://app?vid=d53720bf-bb9a-493e-a965-c0754ac375f4"},"vehicle_type_id":"4","last_reported":1740265677,"current_range_meters":16400,"station_id":"ce4bh692rcd13ifvqea0","pricing_plan_id":"cebpf4jnsgd1na2vs0mg"},{"bike_id":"ac35e38f-342c-4802-b395-a37e42a10246","system_id":"levelo_inurba_marseille","lat":43.292442,"lon":5.384337,"is_reserved":false,"is_disabled":false,"rental_uris":{"android":"levelo://app?vid=ac35e38f-342c-4802-b395-a37e42a10246","ios":"levelo://app?vid=ac35e38f-342c-4802-b395-a37e42a10246"},"vehicle_type_id":"4","last_reported":1740265677,"current_range_meters":16400,"station_id":"ce4bh692rcd13ifvqea0","pricing_plan_id":"cebpf4jnsgd1na2vs0mg"},{"bike_id":"a3610751-bbe4-4d3e-a717-1a0eebd2fb2a","system_id":"levelo_inurba_marseille","lat":43.30683,"lon":5.37527,"is_reserved":false,"is_disabled":false,"rental_uris":{"android":"levelo://app?vid=a3610751-bbe4-4d3e-a717-1a0eebd2fb2a","ios":"levelo://app?vid=a3610751-bbe4-4d3e-a717-1a0eebd2fb2a"},"vehicle_type_id":"4","last_reported":1740265677,"current_range_meters":16400,"station_id":"","pricing_plan_id":"cebpf4jnsgd1na2vs0mg"},{"bike_id":"be3828a1-b36a-4668-acc5-bef44c90048a","system_id":"levelo_inurba_marseille","lat":43.29987,"lon":5.3719,"is_reserved":false,"is_disabled":false,"rental_uris":{"android":"levelo://app?vid=be3828a1-b36a-4668-acc5-bef44c90048a","ios":"levelo://app?vid=be3828a1-b36a-4668-acc5-bef44c90048a"},"vehicle_type_id":"4","last_reported":1740265677,"current_range_meters":16800,"station_id":"ce4bgr92rcd13ifvqc7g","pricing_plan_id":"cebpf4jnsgd1na2vs0mg"},{"bike_id":"6d952517-9598-4ac6-8b62-3bfffbf52d62","system_id":"levelo_inurba_marseille","lat":43.2953,"lon":5.38527,"is_reserved":false,"is_disabled":false,"rental_uris":{"android":"levelo://app?vid=6d952517-9598-4ac6-8b62-3bfffbf52d62","ios":"levelo://app?vid=6d952517-9598-4ac6-8b62-3bfffbf52d62"},"vehicle_type_id":"4","last_reported":1740265677,"current_range_meters":16800,"station_id":"ce4bgih2rcd13ifvqba0","pricing_plan_id":"cebpf4jnsgd1na2vs0mg"},{"bike_id":"855caca9-cd59-4c97-ad51-a64e28ee341f","system_id":"levelo_inurba_marseille","lat":43.30894,"lon":5.3965,"is_reserved":false,"is_disabled":true,"rental_uris":{"android":"levelo://app?vid=855caca9-cd59-4c97-ad51-a64e28ee341f","ios":"levelo://app?vid=855caca9-cd59-4c97-ad51-a64e28ee341f"},"vehicle_type_id":"4","last_reported":1740265677,"current_range_meters":16800,"station_id":"ce4bh012rcd13ifvqcv0","pricing_plan_id":"cebpf4jnsgd1na2vs0mg"},{"bike_id":"aea4ce25-1d5c-478a-8247-45188018564b","system_id":"levelo_inurba_marseille","lat":43.29416,"lon":5.38613,"is_reserved":false,"is_disabled":false,"rental_uris":{"android":"levelo://app?vid=aea4ce25-1d5c-478a-8247-45188018564b","ios":"levelo://app?vid=aea4ce25-1d5c-478a-8247-45188018564b"},"vehicle_type_id":"4","last_reported":1740265677,"current_range_meters":16800,"station_id":"ce4bh2h2rcd13ifvqdh0","pricing_plan_id":"cebpf4jnsgd1na2vs0mg"},{"bike_id":"7330758a-b186-4c5c-af68-65980e50c2ac","system_id":"levelo_inurba_marseille","lat":43.28035,"lon":5.36943,"is_reserved":false,"is_disabled":false,"rental_uris":{"android":"levelo://app?vid=7330758a-b186-4c5c-af68-65980e50c2ac","ios":"levelo://app?vid=7330758a-b186-4c5c-af68-65980e50c2ac"},"vehicle_type_id":"4","last_reported":1740265677,"current_range_meters":16800,"station_id":"ce4bha12rcd13ifvqef0","pricing_plan_id":"cebpf4jnsgd1na2vs0mg"},{"bike_id":"24371844-0388-4325-bd72-54e6291e85e8","system_id":"levelo_inurba_marseille","lat":43.27622,"lon":5.36105,"is_reserved":false,"is_disabled":false,"rental_uris":{"android":"levelo://app?vid=24371844-0388-4325-bd72-54e6291e85e8","ios":"levelo://app?vid=24371844-0388-4325-bd72-54e6291e85e8"},"vehicle_type_id":"4","last_reported":1740265677,"current_range_meters":16800,"station_id":"ce4bgj92rcd13ifvqbe0","pricing_plan_id":"cebpf4jnsgd1na2vs0mg"},{"bike_id":"56638c88-af96-4404-b3cd-4463d4d53caa","system_id":"levelo_inurba_marseille","lat":43.295967,"lon":5.381072,"is_reserved":false,"is_disabled":false,"rental_uris":{"android":"levelo://app?vid=56638c88-af96-4404-b3cd-4463d4d53caa","ios":"levelo://app?vid=56638c88-af96-4404-b3cd-4463d4d53caa"},"vehicle_type_id":"4","last_reported":1740265677,"current_range_meters":16800,"station_id":"ce4bgl12rcd13ifvqbo0","pricing_plan_id":"cebpf4jnsgd1na2vs0mg"},{"bike_id":"3c59030b-89bf-4800-8074-8f961cb5a045","system_id":"levelo_inurba_marseille","lat":43.29258,"lon":5.38444,"is_reserved":false,"is_disabled":false,"rental_uris":{"android":"levelo://app?vid=3c59030b-89bf-4800-8074-8f961cb5a045","ios":"levelo://app?vid=3c59030b-89bf-4800-8074-8f961cb5a045"},"vehicle_type_id":"4","last_reported":1740265677,"current_range_meters":17200,"station_id":"ce4bh692rcd13ifvqea0","pricing_plan_id":"cebpf4jnsgd1na2vs0mg"},{"bike_id":"0b81893b-ba9e-4e3b-9e5e-b1867df5d654","system_id":"levelo_inurba_marseille","lat":43.30024,"lon":5.38749,"is_reserved":false,"is_disabled":false,"rental_uris":{"android":"levelo://app?vid=0b81893b-ba9e-4e3b-9e5e-b1867df5d654","ios":"levelo://app?vid=0b81893b-ba9e-4e3b-9e5e-b1867df5d654"},"vehicle_type_id":"4","last_reported":1740265677,"current_range_meters":17200,"station_id":"ce4bghh2rcd13ifvqb60","pricing_plan_id":"cebpf4jnsgd1na2vs0mg"},{"bike_id":"0e17628e-77f1-4b2d-9900-e51a8c9f0181","system_id":"levelo_inurba_marseille","lat":43.28886,"lon":5.44979,"is_reserved":false,"is_disabled":false,"rental_uris":{"android":"levelo://app?vid=0e17628e-77f1-4b2d-9900-e51a8c9f0181","ios":"levelo://app?vid=0e17628e-77f1-4b2d-9900-e51a8c9f0181"},"vehicle_type_id":"4","last_reported":1740265677,"current_range_meters":17200,"station_id":"","pricing_plan_id":"cebpf4jnsgd1na2vs0mg"},{"bike_id":"94d81672-f077-455d-ad5d-d4332136c2a8","system_id":"levelo_inurba_marseille","lat":43.2294,"lon":5.3539,"is_reserved":false,"is_disabled":false,"rental_uris":{"android":"levelo://app?vid=94d81672-f077-455d-ad5d-d4332136c2a8","ios":"levelo://app?vid=94d81672-f077-455d-ad5d-d4332136c2a8"},"vehicle_type_id":"4","last_reported":1740265677,"current_range_meters":17200,"station_id":"cpo3532slgdg3j2ikp40","pricing_plan_id":"cebpf4jnsgd1na2vs0mg"},{"bike_id":"93fdfdf1-b786-4b32-bcc1-ecfe37b984d0","system_id":"levelo_inurba_marseille","lat":43.30416,"lon":5.4128,"is_reserved":false,"is_disabled":false,"rental_uris":{"android":"levelo://app?vid=93fdfdf1-b786-4b32-bcc1-ecfe37b984d0","ios":"levelo://app?vid=93fdfdf1-b786-4b32-bcc1-ecfe37b984d0"},"vehicle_type_id":"4","last_reported":1740265677,"current_range_meters":17200,"station_id":"ce4bhop2rcd13ifvqh8g","pricing_plan_id":"cebpf4jnsgd1na2vs0mg"},{"bike_id":"35f7fe5f-b05d-405c-a155-dda0758733e2","system_id":"levelo_inurba_marseille","lat":43.28156,"lon":5.42647,"is_reserved":false,"is_disabled":true,"rental_uris":{"android":"levelo://app?vid=35f7fe5f-b05d-405c-a155-dda0758733e2","ios":"levelo://app?vid=35f7fe5f-b05d-405c-a155-dda0758733e2"},"vehicle_type_id":"4","last_reported":1740265677,"current_range_meters":17200,"station_id":"ce4bhnh2rcd13ifvqgug","pricing_plan_id":"cebpf4jnsgd1na2vs0mg"},{"bike_id":"e501be99-a171-4e91-9e5b-ac547e4c06f2","system_id":"levelo_inurba_marseille","lat":43.23195,"lon":5.35555,"is_reserved":false,"is_disabled":false,"rental_uris":{"android":"levelo://app?vid=e501be99-a171-4e91-9e5b-ac547e4c06f2","ios":"levelo://app?vid=e501be99-a171-4e91-9e5b-ac547e4c06f2"},"vehicle_type_id":"4","last_reported":1740265677,"current_range_meters":17200,"station_id":"ce4bhu92rcd13ifvqi70","pricing_plan_id":"cebpf4jnsgd1na2vs0mg"},{"bike_id":"47c58b1f-0f04-4a95-ba73-4d794abee5f2","system_id":"levelo_inurba_marseille","lat":43.3044,"lon":5.38905,"is_reserved":false,"is_disabled":true,"rental_uris":{"android":"levelo://app?vid=47c58b1f-0f04-4a95-ba73-4d794abee5f2","ios":"levelo://app?vid=47c58b1f-0f04-4a95-ba73-4d794abee5f2"},"vehicle_type_id":"4","last_reported":1740265677,"current_range_meters":17600,"station_id":"ce4bgk12rcd13ifvqbi0","pricing_plan_id":"cebpf4jnsgd1na2vs0mg"},{"bike_id":"391f162b-99de-4179-b8aa-3ffcc41a6126","system_id":"levelo_inurba_marseille","lat":43.27814,"lon":5.40712,"is_reserved":false,"is_disabled":false,"rental_uris":{"android":"levelo://app?vid=391f162b-99de-4179-b8aa-3ffcc41a6126","ios":"levelo://app?vid=391f162b-99de-4179-b8aa-3ffcc41a6126"},"vehicle_type_id":"4","last_reported":1740265677,"current_range_meters":17600,"station_id":"ce4bhnh2rcd13ifvqgtg","pricing_plan_id":"cebpf4jnsgd1na2vs0mg"},{"bike_id":"a0c1b570-1fea-4062-97be-b318c2404cb4","system_id":"levelo_inurba_marseille","lat":43.29535,"lon":5.38531,"is_reserved":false,"is_disabled":false,"rental_uris":{"android":"levelo://app?vid=a0c1b570-1fea-4062-97be-b318c2404cb4","ios":"levelo://app?vid=a0c1b570-1fea-4062-97be-b318c2404cb4"},"vehicle_type_id":"4","last_reported":1740265677,"current_range_meters":17600,"station_id":"ce4bgih2rcd13ifvqba0","pricing_plan_id":"cebpf4jnsgd1na2vs0mg"},{"bike_id":"cf9e2162-7b19-4271-8327-4688849317e0","system_id":"levelo_inurba_marseille","lat":43.24545,"lon":5.39525,"is_reserved":false,"is_disabled":false,"rental_uris":{"android":"levelo://app?vid=cf9e2162-7b19-4271-8327-4688849317e0","ios":"levelo://app?vid=cf9e2162-7b19-4271-8327-4688849317e0"},"vehicle_type_id":"4","last_reported":1740265677,"current_range_meters":17600,"station_id":"ce4bhlp2rcd13ifvqgjg","pricing_plan_id":"cebpf4jnsgd1na2vs0mg"},{"bike_id":"9faf844a-413f-419f-bdea-64830f7f2bfb","system_id":"levelo_inurba_marseille","lat":43.29911,"lon":5.37841,"is_reserved":false,"is_disabled":false,"rental_uris":{"android":"levelo://app?vid=9faf844a-413f-419f-bdea-64830f7f2bfb","ios":"levelo://app?vid=9faf844a-413f-419f-bdea-64830f7f2bfb"},"vehicle_type_id":"4","last_reported":1740265677,"current_range_meters":17600,"station_id":"","pricing_plan_id":"cebpf4jnsgd1na2vs0mg"},{"bike_id":"936386d2-4105-4255-a8dc-b37401bec97a","system_id":"levelo_inurba_marseille","lat":43.292662,"lon":5.384413,"is_reserved":false,"is_disabled":false,"rental_uris":{"android":"levelo://app?vid=936386d2-4105-4255-a8dc-b37401bec97a","ios":"levelo://app?vid=936386d2-4105-4255-a8dc-b37401bec97a"},"vehicle_type_id":"4","last_reported":1740265677,"current_range_meters":18000,"station_id":"ce4bh2p2rcd13ifvqdi0","pricing_plan_id":"cebpf4jnsgd1na2vs0mg"},{"bike_id":"85b5bbcd-7da2-4232-8e5a-a25680dad453","system_id":"levelo_inurba_marseille","lat":43.23959,"lon":5.3663,"is_reserved":false,"is_disabled":false,"rental_uris":{"android":"levelo://app?vid=85b5bbcd-7da2-4232-8e5a-a25680dad453","ios":"levelo://app?vid=85b5bbcd-7da2-4232-8e5a-a25680dad453"},"vehicle_type_id":"4","last_reported":1740265677,"current_range_meters":17600,"station_id":"ce4bhi12rcd13ifvqfp0","pricing_plan_id":"cebpf4jnsgd1na2vs0mg"},{"bike_id":"7771fdde-9496-4c9c-9647-c7256be1dc15","system_id":"levelo_inurba_marseille","lat":43.29518,"lon":5.37504,"is_reserved":false,"is_disabled":false,"rental_uris":{"android":"levelo://app?vid=7771fdde-9496-4c9c-9647-c7256be1dc15","ios":"levelo://app?vid=7771fdde-9496-4c9c-9647-c7256be1dc15"},"vehicle_type_id":"4","last_reported":1740265677,"current_range_meters":17600,"station_id":"ce4bgkp2rcd13ifvqbmg","pricing_plan_id":"cebpf4jnsgd1na2vs0mg"},{"bike_id":"b020cf2d-62f8-47cf-a2e1-f52a1e01d886","system_id":"levelo_inurba_marseille","lat":43.27836,"lon":5.3921,"is_reserved":false,"is_disabled":false,"rental_uris":{"android":"levelo://app?vid=b020cf2d-62f8-47cf-a2e1-f52a1e01d886","ios":"levelo://app?vid=b020cf2d-62f8-47cf-a2e1-f52a1e01d886"},"vehicle_type_id":"4","last_reported":1740265677,"current_range_meters":17600,"station_id":"ce4bhjp2rcd13ifvqga0","pricing_plan_id":"cebpf4jnsgd1na2vs0mg"},{"bike_id":"b935ebb4-5af5-4ed7-bd99-8d9c48d9f266","system_id":"levelo_inurba_marseille","lat":43.3138,"lon":5.36669,"is_reserved":false,"is_disabled":false,"rental_uris":{"android":"levelo://app?vid=b935ebb4-5af5-4ed7-bd99-8d9c48d9f266","ios":"levelo://app?vid=b935ebb4-5af5-4ed7-bd99-8d9c48d9f266"},"vehicle_type_id":"4","last_reported":1740265677,"current_range_meters":18000,"station_id":"","pricing_plan_id":"cebpf4jnsgd1na2vs0mg"},{"bike_id":"4fd90cf5-0719-47d5-a493-0ca6596204e5","system_id":"levelo_inurba_marseille","lat":43.27979,"lon":5.41649,"is_reserved":false,"is_disabled":false,"rental_uris":{"android":"levelo://app?vid=4fd90cf5-0719-47d5-a493-0ca6596204e5","ios":"levelo://app?vid=4fd90cf5-0719-47d5-a493-0ca6596204e5"},"vehicle_type_id":"4","last_reported":1740265677,"current_range_meters":18000,"station_id":"ce4bho12rcd13ifvqh1g","pricing_plan_id":"cebpf4jnsgd1na2vs0mg"},{"bike_id":"5b528b49-1012-44a2-b621-604fe9ca9bca","system_id":"levelo_inurba_marseille","lat":43.29414,"lon":5.38632,"is_reserved":false,"is_disabled":false,"rental_uris":{"android":"levelo://app?vid=5b528b49-1012-44a2-b621-604fe9ca9bca","ios":"levelo://app?vid=5b528b49-1012-44a2-b621-604fe9ca9bca"},"vehicle_type_id":"4","last_reported":1740265677,"current_range_meters":18000,"station_id":"ce4bh2h2rcd13ifvqdh0","pricing_plan_id":"cebpf4jnsgd1na2vs0mg"},{"bike_id":"f79712a4-5871-41bd-9387-9c336dbe0b03","system_id":"levelo_inurba_marseille","lat":43.27203,"lon":5.39187,"is_reserved":false,"is_disabled":false,"rental_uris":{"android":"levelo://app?vid=f79712a4-5871-41bd-9387-9c336dbe0b03","ios":"levelo://app?vid=f79712a4-5871-41bd-9387-9c336dbe0b03"},"vehicle_type_id":"4","last_reported":1740265677,"current_range_meters":18000,"station_id":"ce4bhhp2rcd13ifvqfm0","pricing_plan_id":"cebpf4jnsgd1na2vs0mg"},{"bike_id":"faeb2e28-4e2f-4cbb-aea8-2733d5daab0d","system_id":"levelo_inurba_marseille","lat":43.28704,"lon":5.37399,"is_reserved":false,"is_disabled":false,"rental_uris":{"android":"levelo://app?vid=faeb2e28-4e2f-4cbb-aea8-2733d5daab0d","ios":"levelo://app?vid=faeb2e28-4e2f-4cbb-aea8-2733d5daab0d"},"vehicle_type_id":"4","last_reported":1740265677,"current_range_meters":18000,"station_id":"ce4bh3p2rcd13ifvqdq0","pricing_plan_id":"cebpf4jnsgd1na2vs0mg"},{"bike_id":"e0eaa8ed-822d-43b8-9829-b90003beb400","system_id":"levelo_inurba_marseille","lat":43.241014,"lon":5.377479,"is_reserved":false,"is_disabled":false,"rental_uris":{"android":"levelo://app?vid=e0eaa8ed-822d-43b8-9829-b90003beb400","ios":"levelo://app?vid=e0eaa8ed-822d-43b8-9829-b90003beb400"},"vehicle_type_id":"4","last_reported":1740265677,"current_range_meters":18000,"station_id":"ce4bhnp2rcd13ifvqgvg","pricing_plan_id":"cebpf4jnsgd1na2vs0mg"},{"bike_id":"7ce3d78c-50c9-49ab-b88f-2f73030de05e","system_id":"levelo_inurba_marseille","lat":43.25498,"lon":5.37651,"is_reserved":false,"is_disabled":false,"rental_uris":{"android":"levelo://app?vid=7ce3d78c-50c9-49ab-b88f-2f73030de05e","ios":"levelo://app?vid=7ce3d78c-50c9-49ab-b88f-2f73030de05e"},"vehicle_type_id":"4","last_reported":1740265677,"current_range_meters":16800,"station_id":"ce4bhh12rcd13ifvqff0","pricing_plan_id":"cebpf4jnsgd1na2vs0mg"},{"bike_id":"cfeacc7f-9dab-4de3-bef2-de8a07a44e4e","system_id":"levelo_inurba_marseille","lat":43.24812,"lon":5.37461,"is_reserved":false,"is_disabled":false,"rental_uris":{"android":"levelo://app?vid=cfeacc7f-9dab-4de3-bef2-de8a07a44e4e","ios":"levelo://app?vid=cfeacc7f-9dab-4de3-bef2-de8a07a44e4e"},"vehicle_type_id":"4","last_reported":1740265677,"current_range_meters":18800,"station_id":"ce4bhgh2rcd13ifvqfb0","pricing_plan_id":"cebpf4jnsgd1na2vs0mg"},{"bike_id":"1699672b-2ca0-4508-93e2-798223e03af8","system_id":"levelo_inurba_marseille","lat":43.30214,"lon":5.39476,"is_reserved":false,"is_disabled":false,"rental_uris":{"android":"levelo://app?vid=1699672b-2ca0-4508-93e2-798223e03af8","ios":"levelo://app?vid=1699672b-2ca0-4508-93e2-798223e03af8"},"vehicle_type_id":"4","last_reported":1740265677,"current_range_meters":18800,"station_id":"ce4bh0p2rcd13ifvqd70","pricing_plan_id":"cebpf4jnsgd1na2vs0mg"},{"bike_id":"e672cd00-72b0-400a-8535-9ab04e4611c6","system_id":"levelo_inurba_marseille","lat":43.24416,"lon":5.37063,"is_reserved":false,"is_disabled":false,"rental_uris":{"android":"levelo://app?vid=e672cd00-72b0-400a-8535-9ab04e4611c6","ios":"levelo://app?vid=e672cd00-72b0-400a-8535-9ab04e4611c6"},"vehicle_type_id":"4","last_reported":1740265677,"current_range_meters":18800,"station_id":"ce4bhhh2rcd13ifvqfk0","pricing_plan_id":"cebpf4jnsgd1na2vs0mg"},{"bike_id":"68c1cb49-7da1-4934-a025-4e78e338d091","system_id":"levelo_inurba_marseille","lat":43.337638,"lon":5.374412,"is_reserved":false,"is_disabled":false,"rental_uris":{"android":"levelo://app?vid=68c1cb49-7da1-4934-a025-4e78e338d091","ios":"levelo://app?vid=68c1cb49-7da1-4934-a025-4e78e338d091"},"vehicle_type_id":"4","last_reported":1740265677,"current_range_meters":18800,"station_id":"","pricing_plan_id":"cebpf4jnsgd1na2vs0mg"},{"bike_id":"fc93a0cd-d658-4fe7-9e6a-52a49333f268","system_id":"levelo_inurba_marseille","lat":43.30821,"lon":5.38193,"is_reserved":false,"is_disabled":false,"rental_uris":{"android":"levelo://app?vid=fc93a0cd-d658-4fe7-9e6a-52a49333f268","ios":"levelo://app?vid=fc93a0cd-d658-4fe7-9e6a-52a49333f268"},"vehicle_type_id":"4","last_reported":1740265677,"current_range_meters":18800,"station_id":"ce4bgt12rcd13ifvqce0","pricing_plan_id":"cebpf4jnsgd1na2vs0mg"},{"bike_id":"ec881f9e-20c4-4ab1-9be3-6e86229eb01c","system_id":"levelo_inurba_marseille","lat":43.30152,"lon":5.39846,"is_reserved":false,"is_disabled":false,"rental_uris":{"android":"levelo://app?vid=ec881f9e-20c4-4ab1-9be3-6e86229eb01c","ios":"levelo://app?vid=ec881f9e-20c4-4ab1-9be3-6e86229eb01c"},"vehicle_type_id":"4","last_reported":1740265677,"current_range_meters":19200,"station_id":"ce4bh0h2rcd13ifvqd40","pricing_plan_id":"cebpf4jnsgd1na2vs0mg"},{"bike_id":"6866b5d5-41bf-40cc-8ac4-3a3c24f2b178","system_id":"levelo_inurba_marseille","lat":43.28725,"lon":5.37925,"is_reserved":false,"is_disabled":false,"rental_uris":{"android":"levelo://app?vid=6866b5d5-41bf-40cc-8ac4-3a3c24f2b178","ios":"levelo://app?vid=6866b5d5-41bf-40cc-8ac4-3a3c24f2b178"},"vehicle_type_id":"4","last_reported":1740265677,"current_range_meters":19200,"station_id":"ce4bh9p2rcd13ifvqec0","pricing_plan_id":"cebpf4jnsgd1na2vs0mg"},{"bike_id":"eeacf089-441f-4a92-bbc9-dd5d4cc22cf0","system_id":"levelo_inurba_marseille","lat":43.29196,"lon":5.39325,"is_reserved":false,"is_disabled":false,"rental_uris":{"android":"levelo://app?vid=eeacf089-441f-4a92-bbc9-dd5d4cc22cf0","ios":"levelo://app?vid=eeacf089-441f-4a92-bbc9-dd5d4cc22cf0"},"vehicle_type_id":"4","last_reported":1740265677,"current_range_meters":19200,"station_id":"ce4bh192rcd13ifvqdd0","pricing_plan_id":"cebpf4jnsgd1na2vs0mg"},{"bike_id":"04d2baed-6020-49da-a94e-5cd3cc1cd370","system_id":"levelo_inurba_marseille","lat":43.25819,"lon":5.39436,"is_reserved":false,"is_disabled":false,"rental_uris":{"android":"levelo://app?vid=04d2baed-6020-49da-a94e-5cd3cc1cd370","ios":"levelo://app?vid=04d2baed-6020-49da-a94e-5cd3cc1cd370"},"vehicle_type_id":"4","last_reported":1740265677,"current_range_meters":19200,"station_id":"ce4bhip2rcd13ifvqft0","pricing_plan_id":"cebpf4jnsgd1na2vs0mg"},{"bike_id":"8e5d8ee8-3ab6-431c-8183-aaf067d6c91b","system_id":"levelo_inurba_marseille","lat":43.25009,"lon":5.3892,"is_reserved":false,"is_disabled":false,"rental_uris":{"android":"levelo://app?vid=8e5d8ee8-3ab6-431c-8183-aaf067d6c91b","ios":"levelo://app?vid=8e5d8ee8-3ab6-431c-8183-aaf067d6c91b"},"vehicle_type_id":"4","last_reported":1740265677,"current_range_meters":19200,"station_id":"ce4bhgp2rcd13ifvqfd0","pricing_plan_id":"cebpf4jnsgd1na2vs0mg"},{"bike_id":"86fa219d-c746-4562-8c07-640b3df1911d","system_id":"levelo_inurba_marseille","lat":43.31217,"lon":5.36862,"is_reserved":false,"is_disabled":false,"rental_uris":{"android":"levelo://app?vid=86fa219d-c746-4562-8c07-640b3df1911d","ios":"levelo://app?vid=86fa219d-c746-4562-8c07-640b3df1911d"},"vehicle_type_id":"4","last_reported":1740265677,"current_range_meters":19200,"station_id":"ce4bgl92rcd13ifvqbq0","pricing_plan_id":"cebpf4jnsgd1na2vs0mg"},{"bike_id":"9add0b58-d142-4034-a4b8-91545025b1ed","system_id":"levelo_inurba_marseille","lat":43.2893,"lon":5.36638,"is_reserved":false,"is_disabled":false,"rental_uris":{"android":"levelo://app?vid=9add0b58-d142-4034-a4b8-91545025b1ed","ios":"levelo://app?vid=9add0b58-d142-4034-a4b8-91545025b1ed"},"vehicle_type_id":"4","last_reported":1740265677,"current_range_meters":19200,"station_id":"ce4bhap2rcd13ifvqek0","pricing_plan_id":"cebpf4jnsgd1na2vs0mg"},{"bike_id":"287d2455-0e4a-4c45-9de6-9e8f808e7ae7","system_id":"levelo_inurba_marseille","lat":43.28432,"lon":5.39188,"is_reserved":false,"is_disabled":false,"rental_uris":{"android":"levelo://app?vid=287d2455-0e4a-4c45-9de6-9e8f808e7ae7","ios":"levelo://app?vid=287d2455-0e4a-4c45-9de6-9e8f808e7ae7"},"vehicle_type_id":"4","last_reported":1740265677,"current_range_meters":19600,"station_id":"ce4bhoh2rcd13ifvqh5g","pricing_plan_id":"cebpf4jnsgd1na2vs0mg"},{"bike_id":"e8cfa923-e620-4e13-b5ef-9869f485a1f8","system_id":"levelo_inurba_marseille","lat":43.3095,"lon":5.3904,"is_reserved":false,"is_disabled":false,"rental_uris":{"android":"levelo://app?vid=e8cfa923-e620-4e13-b5ef-9869f485a1f8","ios":"levelo://app?vid=e8cfa923-e620-4e13-b5ef-9869f485a1f8"},"vehicle_type_id":"4","last_reported":1740265677,"current_range_meters":19600,"station_id":"ce4bgup2rcd13ifvqco0","pricing_plan_id":"cebpf4jnsgd1na2vs0mg"},{"bike_id":"0ab8f8c4-7aa8-4128-a2cd-ff233900785f","system_id":"levelo_inurba_marseille","lat":43.30549,"lon":5.37155,"is_reserved":false,"is_disabled":false,"rental_uris":{"android":"levelo://app?vid=0ab8f8c4-7aa8-4128-a2cd-ff233900785f","ios":"levelo://app?vid=0ab8f8c4-7aa8-4128-a2cd-ff233900785f"},"vehicle_type_id":"4","last_reported":1740265677,"current_range_meters":19600,"station_id":"ce4bgqh2rcd13ifvqc4g","pricing_plan_id":"cebpf4jnsgd1na2vs0mg"},{"bike_id":"51c7c09f-82e9-4a4b-a201-54869c0fba8f","system_id":"levelo_inurba_marseille","lat":43.25095,"lon":5.39508,"is_reserved":false,"is_disabled":true,"rental_uris":{"android":"levelo://app?vid=51c7c09f-82e9-4a4b-a201-54869c0fba8f","ios":"levelo://app?vid=51c7c09f-82e9-4a4b-a201-54869c0fba8f"},"vehicle_type_id":"4","last_reported":1740265677,"current_range_meters":19600,"station_id":"ce4bhm12rcd13ifvqgkg","pricing_plan_id":"cebpf4jnsgd1na2vs0mg"},{"bike_id":"5b727cd5-6dd3-4e2e-bc8b-326c7f034fd8","system_id":"levelo_inurba_marseille","lat":43.23203,"lon":5.35544,"is_reserved":false,"is_disabled":false,"rental_uris":{"android":"levelo://app?vid=5b727cd5-6dd3-4e2e-bc8b-326c7f034fd8","ios":"levelo://app?vid=5b727cd5-6dd3-4e2e-bc8b-326c7f034fd8"},"vehicle_type_id":"4","last_reported":1740265677,"current_range_meters":19600,"station_id":"ce4bhu92rcd13ifvqi70","pricing_plan_id":"cebpf4jnsgd1na2vs0mg"},{"bike_id":"87c93845-143c-4613-9a0d-08836448a26d","system_id":"levelo_inurba_marseille","lat":43.23955,"lon":5.36627,"is_reserved":false,"is_disabled":false,"rental_uris":{"android":"levelo://app?vid=87c93845-143c-4613-9a0d-08836448a26d","ios":"levelo://app?vid=87c93845-143c-4613-9a0d-08836448a26d"},"vehicle_type_id":"4","last_reported":1740265677,"current_range_meters":19600,"station_id":"ce4bhi12rcd13ifvqfp0","pricing_plan_id":"cebpf4jnsgd1na2vs0mg"},{"bike_id":"1f724299-518e-43e9-b32e-7282b81b7214","system_id":"levelo_inurba_marseille","lat":43.25926,"lon":5.40871,"is_reserved":false,"is_disabled":false,"rental_uris":{"android":"levelo://app?vid=1f724299-518e-43e9-b32e-7282b81b7214","ios":"levelo://app?vid=1f724299-518e-43e9-b32e-7282b81b7214"},"vehicle_type_id":"4","last_reported":1740265677,"current_range_meters":19600,"station_id":"ce4bhm92rcd13ifvqglg","pricing_plan_id":"cebpf4jnsgd1na2vs0mg"},{"bike_id":"10ef97ed-34d8-4649-924a-f68e48b166be","system_id":"levelo_inurba_marseille","lat":43.26226,"lon":5.40467,"is_reserved":false,"is_disabled":false,"rental_uris":{"android":"levelo://app?vid=10ef97ed-34d8-4649-924a-f68e48b166be","ios":"levelo://app?vid=10ef97ed-34d8-4649-924a-f68e48b166be"},"vehicle_type_id":"4","last_reported":1740265677,"current_range_meters":19600,"station_id":"ce4bhmh2rcd13ifvqgmg","pricing_plan_id":"cebpf4jnsgd1na2vs0mg"},{"bike_id":"c3b8410f-ad26-42cd-a750-eba90a7511c7","system_id":"levelo_inurba_marseille","lat":43.3121,"lon":5.36905,"is_reserved":false,"is_disabled":false,"rental_uris":{"android":"levelo://app?vid=c3b8410f-ad26-42cd-a750-eba90a7511c7","ios":"levelo://app?vid=c3b8410f-ad26-42cd-a750-eba90a7511c7"},"vehicle_type_id":"4","last_reported":1740265677,"current_range_meters":20000,"station_id":"ce4bgl92rcd13ifvqbq0","pricing_plan_id":"cebpf4jnsgd1na2vs0mg"},{"bike_id":"d1eba90c-d4c6-4023-8346-355d67474153","system_id":"levelo_inurba_marseille","lat":43.29032,"lon":5.37549,"is_reserved":false,"is_disabled":false,"rental_uris":{"android":"levelo://app?vid=d1eba90c-d4c6-4023-8346-355d67474153","ios":"levelo://app?vid=d1eba90c-d4c6-4023-8346-355d67474153"},"vehicle_type_id":"4","last_reported":1740265677,"current_range_meters":20000,"station_id":"ce4bh692rcd13ifvqe90","pricing_plan_id":"cebpf4jnsgd1na2vs0mg"},{"bike_id":"192ea6d4-ab44-4484-83a7-ca76ec3aefef","system_id":"levelo_inurba_marseille","lat":43.29531,"lon":5.37521,"is_reserved":false,"is_disabled":false,"rental_uris":{"android":"levelo://app?vid=192ea6d4-ab44-4484-83a7-ca76ec3aefef","ios":"levelo://app?vid=192ea6d4-ab44-4484-83a7-ca76ec3aefef"},"vehicle_type_id":"4","last_reported":1740265677,"current_range_meters":20000,"station_id":"ce4bgkp2rcd13ifvqbmg","pricing_plan_id":"cebpf4jnsgd1na2vs0mg"},{"bike_id":"e9156fe3-ace9-4173-a53f-2221f4b73427","system_id":"levelo_inurba_marseille","lat":43.29955,"lon":5.41317,"is_reserved":false,"is_disabled":false,"rental_uris":{"android":"levelo://app?vid=e9156fe3-ace9-4173-a53f-2221f4b73427","ios":"levelo://app?vid=e9156fe3-ace9-4173-a53f-2221f4b73427"},"vehicle_type_id":"4","last_reported":1740265677,"current_range_meters":19600,"station_id":"ce4bhp12rcd13ifvqh9g","pricing_plan_id":"cebpf4jnsgd1na2vs0mg"},{"bike_id":"ee82f77f-f9d3-4009-b8ec-39bce07c2f58","system_id":"levelo_inurba_marseille","lat":43.27494,"lon":5.42476,"is_reserved":false,"is_disabled":false,"rental_uris":{"android":"levelo://app?vid=ee82f77f-f9d3-4009-b8ec-39bce07c2f58","ios":"levelo://app?vid=ee82f77f-f9d3-4009-b8ec-39bce07c2f58"},"vehicle_type_id":"4","last_reported":1740265677,"current_range_meters":20000,"station_id":"ce4bhn92rcd13ifvqgrg","pricing_plan_id":"cebpf4jnsgd1na2vs0mg"},{"bike_id":"980588cb-aa59-436a-9bc0-01f90b14b9b4","system_id":"levelo_inurba_marseille","lat":43.24159,"lon":5.36394,"is_reserved":false,"is_disabled":false,"rental_uris":{"android":"levelo://app?vid=980588cb-aa59-436a-9bc0-01f90b14b9b4","ios":"levelo://app?vid=980588cb-aa59-436a-9bc0-01f90b14b9b4"},"vehicle_type_id":"4","last_reported":1740265677,"current_range_meters":20400,"station_id":"cpo36qri1sfpv3e86is0","pricing_plan_id":"cebpf4jnsgd1na2vs0mg"},{"bike_id":"b3a62955-8f81-4b82-bacf-cd1ac5807c40","system_id":"levelo_inurba_marseille","lat":43.28729,"lon":5.36085,"is_reserved":false,"is_disabled":false,"rental_uris":{"android":"levelo://app?vid=b3a62955-8f81-4b82-bacf-cd1ac5807c40","ios":"levelo://app?vid=b3a62955-8f81-4b82-bacf-cd1ac5807c40"},"vehicle_type_id":"4","last_reported":1740265677,"current_range_meters":20400,"station_id":"cki0cbj6b192h4jlfktg","pricing_plan_id":"cebpf4jnsgd1na2vs0mg"},{"bike_id":"9d7c969d-ee67-4fd6-9d50-a91ee3e019cb","system_id":"levelo_inurba_marseille","lat":43.23194,"lon":5.39973,"is_reserved":false,"is_disabled":false,"rental_uris":{"android":"levelo://app?vid=9d7c969d-ee67-4fd6-9d50-a91ee3e019cb","ios":"levelo://app?vid=9d7c969d-ee67-4fd6-9d50-a91ee3e019cb"},"vehicle_type_id":"4","last_reported":1740265677,"current_range_meters":20400,"station_id":"ce4bhn12rcd13ifvqgqg","pricing_plan_id":"cebpf4jnsgd1na2vs0mg"},{"bike_id":"7fe0996e-2e24-4a3a-b975-03a2a20f6506","system_id":"levelo_inurba_marseille","lat":43.32352,"lon":5.36753,"is_reserved":false,"is_disabled":false,"rental_uris":{"android":"levelo://app?vid=7fe0996e-2e24-4a3a-b975-03a2a20f6506","ios":"levelo://app?vid=7fe0996e-2e24-4a3a-b975-03a2a20f6506"},"vehicle_type_id":"4","last_reported":1740265677,"current_range_meters":20400,"station_id":"ce4bhsh2rcd13ifvqi2g","pricing_plan_id":"cebpf4jnsgd1na2vs0mg"},{"bike_id":"024d6242-f75b-4d1e-914b-e252978b28b8","system_id":"levelo_inurba_marseille","lat":43.28257,"lon":5.35059,"is_reserved":false,"is_disabled":false,"rental_uris":{"android":"levelo://app?vid=024d6242-f75b-4d1e-914b-e252978b28b8","ios":"levelo://app?vid=024d6242-f75b-4d1e-914b-e252978b28b8"},"vehicle_type_id":"4","last_reported":1740265677,"current_range_meters":20400,"station_id":"ce4bhbp2rcd13ifvqerg","pricing_plan_id":"cebpf4jnsgd1na2vs0mg"},{"bike_id":"7a4fddc5-3a27-4dda-9bbf-9e9908f2cdee","system_id":"levelo_inurba_marseille","lat":43.28682,"lon":5.37426,"is_reserved":false,"is_disabled":false,"rental_uris":{"android":"levelo://app?vid=7a4fddc5-3a27-4dda-9bbf-9e9908f2cdee","ios":"levelo://app?vid=7a4fddc5-3a27-4dda-9bbf-9e9908f2cdee"},"vehicle_type_id":"4","last_reported":1740265677,"current_range_meters":20400,"station_id":"ce4bh3p2rcd13ifvqdq0","pricing_plan_id":"cebpf4jnsgd1na2vs0mg"},{"bike_id":"1d81f6bd-2bef-4b38-bc20-922a2c6e1ccd","system_id":"levelo_inurba_marseille","lat":43.3096,"lon":5.39021,"is_reserved":false,"is_disabled":false,"rental_uris":{"android":"levelo://app?vid=1d81f6bd-2bef-4b38-bc20-922a2c6e1ccd","ios":"levelo://app?vid=1d81f6bd-2bef-4b38-bc20-922a2c6e1ccd"},"vehicle_type_id":"4","last_reported":1740265677,"current_range_meters":20400,"station_id":"ce4bgup2rcd13ifvqco0","pricing_plan_id":"cebpf4jnsgd1na2vs0mg"},{"bike_id":"644996cc-7a97-4a77-90a2-e99c30b8e64b","system_id":"levelo_inurba_marseille","lat":43.292646,"lon":5.376259,"is_reserved":false,"is_disabled":false,"rental_uris":{"android":"levelo://app?vid=644996cc-7a97-4a77-90a2-e99c30b8e64b","ios":"levelo://app?vid=644996cc-7a97-4a77-90a2-e99c30b8e64b"},"vehicle_type_id":"4","last_reported":1740265677,"current_range_meters":20400,"station_id":"ce4bhh92rcd13ifvqfj0","pricing_plan_id":"cebpf4jnsgd1na2vs0mg"},{"bike_id":"12d537d0-986c-45a4-b597-9935b1acfa04","system_id":"levelo_inurba_marseille","lat":43.29265,"lon":5.40174,"is_reserved":false,"is_disabled":true,"rental_uris":{"android":"levelo://app?vid=12d537d0-986c-45a4-b597-9935b1acfa04","ios":"levelo://app?vid=12d537d0-986c-45a4-b597-9935b1acfa04"},"vehicle_type_id":"4","last_reported":1740265677,"current_range_meters":20400,"station_id":"ce4bh312rcd13ifvqdk0","pricing_plan_id":"cebpf4jnsgd1na2vs0mg"},{"bike_id":"56a7594a-6c36-4c5a-95c5-89170c1bfc7e","system_id":"levelo_inurba_marseille","lat":43.29706,"lon":5.36621,"is_reserved":false,"is_disabled":false,"rental_uris":{"android":"levelo://app?vid=56a7594a-6c36-4c5a-95c5-89170c1bfc7e","ios":"levelo://app?vid=56a7594a-6c36-4c5a-95c5-89170c1bfc7e"},"vehicle_type_id":"4","last_reported":1740265677,"current_range_meters":20000,"station_id":"ce4bgn12rcd13ifvqbt0","pricing_plan_id":"cebpf4jnsgd1na2vs0mg"},{"bike_id":"ba813adc-b3be-4863-8bf7-d2455ae04443","system_id":"levelo_inurba_marseille","lat":43.27199,"lon":5.40977,"is_reserved":false,"is_disabled":false,"rental_uris":{"android":"levelo://app?vid=ba813adc-b3be-4863-8bf7-d2455ae04443","ios":"levelo://app?vid=ba813adc-b3be-4863-8bf7-d2455ae04443"},"vehicle_type_id":"4","last_reported":1740265677,"current_range_meters":20400,"station_id":"ce4bhl12rcd13ifvqgf0","pricing_plan_id":"cebpf4jnsgd1na2vs0mg"},{"bike_id":"f4a2d011-ecca-4614-b5e6-a81a0aa49a3c","system_id":"levelo_inurba_marseille","lat":43.29445,"lon":5.38655,"is_reserved":false,"is_disabled":false,"rental_uris":{"android":"levelo://app?vid=f4a2d011-ecca-4614-b5e6-a81a0aa49a3c","ios":"levelo://app?vid=f4a2d011-ecca-4614-b5e6-a81a0aa49a3c"},"vehicle_type_id":"4","last_reported":1740265677,"current_range_meters":20400,"station_id":"ce4bh2h2rcd13ifvqdh0","pricing_plan_id":"cebpf4jnsgd1na2vs0mg"},{"bike_id":"339bee36-bfe7-4ad4-9868-e124c37e05a3","system_id":"levelo_inurba_marseille","lat":43.29,"lon":5.35604,"is_reserved":false,"is_disabled":false,"rental_uris":{"android":"levelo://app?vid=339bee36-bfe7-4ad4-9868-e124c37e05a3","ios":"levelo://app?vid=339bee36-bfe7-4ad4-9868-e124c37e05a3"},"vehicle_type_id":"4","last_reported":1740265677,"current_range_meters":20800,"station_id":"ce4bhb92rcd13ifvqen0","pricing_plan_id":"cebpf4jnsgd1na2vs0mg"},{"bike_id":"1ef41376-cd3a-40a3-ae4a-f23a2a34fc30","system_id":"levelo_inurba_marseille","lat":43.27637,"lon":5.38939,"is_reserved":false,"is_disabled":true,"rental_uris":{"android":"levelo://app?vid=1ef41376-cd3a-40a3-ae4a-f23a2a34fc30","ios":"levelo://app?vid=1ef41376-cd3a-40a3-ae4a-f23a2a34fc30"},"vehicle_type_id":"4","last_reported":1740265677,"current_range_meters":20800,"station_id":"ce4bhi12rcd13ifvqfo0","pricing_plan_id":"cebpf4jnsgd1na2vs0mg"},{"bike_id":"20efdabb-f847-4a05-acdd-440950b79423","system_id":"levelo_inurba_marseille","lat":43.25725,"lon":5.41109,"is_reserved":false,"is_disabled":false,"rental_uris":{"android":"levelo://app?vid=20efdabb-f847-4a05-acdd-440950b79423","ios":"levelo://app?vid=20efdabb-f847-4a05-acdd-440950b79423"},"vehicle_type_id":"4","last_reported":1740265677,"current_range_meters":20800,"station_id":"ce4bhkp2rcd13ifvqgd0","pricing_plan_id":"cebpf4jnsgd1na2vs0mg"},{"bike_id":"a3eabfd3-4a81-4c4c-8b29-574a6dd3d39e","system_id":"levelo_inurba_marseille","lat":43.31695,"lon":5.4046,"is_reserved":false,"is_disabled":false,"rental_uris":{"android":"levelo://app?vid=a3eabfd3-4a81-4c4c-8b29-574a6dd3d39e","ios":"levelo://app?vid=a3eabfd3-4a81-4c4c-8b29-574a6dd3d39e"},"vehicle_type_id":"4","last_reported":1740265677,"current_range_meters":20800,"station_id":"ce4bh012rcd13ifvqd00","pricing_plan_id":"cebpf4jnsgd1na2vs0mg"},{"bike_id":"2ecf6594-b42f-47a6-9627-4ad9d155f705","system_id":"levelo_inurba_marseille","lat":43.28412,"lon":5.39228,"is_reserved":false,"is_disabled":false,"rental_uris":{"android":"levelo://app?vid=2ecf6594-b42f-47a6-9627-4ad9d155f705","ios":"levelo://app?vid=2ecf6594-b42f-47a6-9627-4ad9d155f705"},"vehicle_type_id":"4","last_reported":1740265677,"current_range_meters":22000,"station_id":"ce4bhoh2rcd13ifvqh5g","pricing_plan_id":"cebpf4jnsgd1na2vs0mg"},{"bike_id":"4497f27a-e264-4ef3-b6f5-6a15baba26f9","system_id":"levelo_inurba_marseille","lat":43.31238,"lon":5.36861,"is_reserved":false,"is_disabled":false,"rental_uris":{"android":"levelo://app?vid=4497f27a-e264-4ef3-b6f5-6a15baba26f9","ios":"levelo://app?vid=4497f27a-e264-4ef3-b6f5-6a15baba26f9"},"vehicle_type_id":"4","last_reported":1740265677,"current_range_meters":21600,"station_id":"ce4bgl92rcd13ifvqbq0","pricing_plan_id":"cebpf4jnsgd1na2vs0mg"},{"bike_id":"64c9cbf2-cedf-41cc-a795-309fd8250cf7","system_id":"levelo_inurba_marseille","lat":43.23211,"lon":5.39964,"is_reserved":false,"is_disabled":false,"rental_uris":{"android":"levelo://app?vid=64c9cbf2-cedf-41cc-a795-309fd8250cf7","ios":"levelo://app?vid=64c9cbf2-cedf-41cc-a795-309fd8250cf7"},"vehicle_type_id":"4","last_reported":1740265677,"current_range_meters":21600,"station_id":"ce4bhn12rcd13ifvqgqg","pricing_plan_id":"cebpf4jnsgd1na2vs0mg"},{"bike_id":"a9df47ab-8ef0-45ad-9648-8bb4f687152e","system_id":"levelo_inurba_marseille","lat":43.2869,"lon":5.37409,"is_reserved":false,"is_disabled":false,"rental_uris":{"android":"levelo://app?vid=a9df47ab-8ef0-45ad-9648-8bb4f687152e","ios":"levelo://app?vid=a9df47ab-8ef0-45ad-9648-8bb4f687152e"},"vehicle_type_id":"4","last_reported":1740265677,"current_range_meters":21600,"station_id":"ce4bh3p2rcd13ifvqdq0","pricing_plan_id":"cebpf4jnsgd1na2vs0mg"},{"bike_id":"6404d1c3-e441-41e2-902d-559b2f20adea","system_id":"levelo_inurba_marseille","lat":43.30518,"lon":5.38415,"is_reserved":false,"is_disabled":false,"rental_uris":{"android":"levelo://app?vid=6404d1c3-e441-41e2-902d-559b2f20adea","ios":"levelo://app?vid=6404d1c3-e441-41e2-902d-559b2f20adea"},"vehicle_type_id":"4","last_reported":1740265677,"current_range_meters":21600,"station_id":"ce4bgg92rcd13ifvqb30","pricing_plan_id":"cebpf4jnsgd1na2vs0mg"},