{"last_updated":1717441640,"ttl":30,"version":"2.2","data":{"bikes":[{"bike_id":"883eeb81-bd0d-4755-bed8-9f39733c7fe6","system_id":"levelo_inurba_marseille","lat":43.313608,"lon":5.367116,"is_reserved":false,"is_disabled":false,"rental_uris":{"android":"levelo://app?vid=883eeb81-bd0d-4755-bed8-9f39733c7fe6","ios":"levelo://app?vid=883eeb81-bd0d-4755-bed8-9f39733c7fe6"},"vehicle_type_id":"4","last_reported":1717441640,"current_range_meters":0,"station_id":"ce4bgr92rcd13ifvqc6g","pricing_plan_id":"cebpf4jnsgd1na2vs0mg"},{"bike_id":"77f19b1b-3a80-4e4b-ad6b-ed6f4c1bb59d","system_id":"levelo_inurba_marseille","lat":43.312239,"lon":5.368562,"is_reserved":false,"is_disabled":false,"rental_uris":{"android":"levelo://app?vid=77f19b1b-3a80-4e4b-ad6b-ed6f4c1bb59d","ios":"levelo://app?vid=77f19b1b-3a80-4e4b-ad6b-ed6f4c1bb59d"},"vehicle_type_id":"4","last_reported":1717441640,"current_range_meters":6800,"station_id":"ce4bgl92rcd13ifvqbq0","pricing_plan_id":"cebpf4jnsgd1na2vs0mg"},{"bike_id":"1a00671f-b9e7-4c1c-af37-f283fab6f195","system_id":"levelo_inurba_marseille","lat":43.309076,"lon":5.368465,"is_reserved":false,"is_disabled":false,"rental_uris":{"android":"levelo://app?vid=1a00671f-b9e7-4c1c-af37-f283fab6f195","ios":"levelo://app?vid=1a00671f-b9e7-4c1c-af37-f283fab6f195"},"vehicle_type_id":"4","last_reported":1717441640,"current_range_meters":6400,"station_id":"ce4bgn92rcd13ifvqbvg","pricing_plan_id":"cebpf4jnsgd1na2vs0mg"},{"bike_id":"7c73c3b2-b3a0-4938-b9a7-6abfc846f34c","system_id":"levelo_inurba_marseille","lat":43.314977,"lon":5.373027,"is_reserved":false,"is_disabled":false,"rental_uris":{"android":"levelo://app?vid=7c73c3b2-b3a0-4938-b9a7-6abfc846f34c","ios":"levelo://app?vid=7c73c3b2-b3a0-4938-b9a7-6abfc846f34c"},"vehicle_type_id":"4","last_reported":1717441640,"current_range_meters":0,"station_id":"ce4bgt12rcd13ifvqcd0","pricing_plan_id":"cebpf4jnsgd1na2vs0mg"},{"bike_id":"6f81e8a5-3132-47da-bba0-d34cad3701e8","system_id":"levelo_inurba_marseille","lat":43.315062,"lon":5.372994,"is_reserved":false,"is_disabled":false,"rental_uris":{"android":"levelo://app?vid=6f81e8a5-3132-47da-bba0-d34cad3701e8","ios":"levelo://app?vid=6f81e8a5-3132-47da-bba0-d34cad3701e8"},"vehicle_type_id":"4","last_reported":1717441640,"current_range_meters":3600,"station_id":"ce4bgnh2rcd13ifvqc0g","pricing_plan_id":"cebpf4jnsgd1na2vs0mg"},{"bike_id":"6865fe98-19d6-4e1b-899b-863591f6afff","system_id":"levelo_inurba_marseille","lat":43.311125,"lon":5.377624,"is_reserved":false,"is_disabled":false,"rental_uris":{"android":"levelo://app?vid=6865fe98-19d6-4e1b-899b-863591f6afff","ios":"levelo://app?vid=6865fe98-19d6-4e1b-899b-863591f6afff"},"vehicle_type_id":"4","last_reported":1717441640,"current_range_meters":23600,"station_id":"ce4bgt92rcd13ifvqcg0","pricing_plan_id":"cebpf4jnsgd1na2vs0mg"},{"bike_id":"7809ebc6-1036-4582-9527-f40d3512d8bf","system_id":"levelo_inurba_marseille","lat":43.309039,"lon":5.371797,"is_reserved":false,"is_disabled":false,"rental_uris":{"android":"levelo://app?vid=7809ebc6-1036-4582-9527-f40d3512d8bf","ios":"levelo://app?vid=7809ebc6-1036-4582-9527-f40d3512d8bf"},"vehicle_type_id":"4","last_reported":1717441640,"current_range_meters":6000,"station_id":"ce4bguh2rcd13ifvqckg","pricing_plan_id":"cebpf4jnsgd1na2vs0mg"},{"bike_id":"2ae84133-2f15-4d85-816d-7b13f46165c8","system_id":"levelo_inurba_marseille","lat":43.305714,"lon":5.365633,"is_reserved":false,"is_disabled":false,"rental_uris":{"android":"levelo://app?vid=2ae84133-2f15-4d85-816d-7b13f46165c8","ios":"levelo://app?vid=2ae84133-2f15-4d85-816d-7b13f46165c8"},"vehicle_type_id":"4","last_reported":1717441640,"current_range_meters":0,"station_id":"ce4bgs12rcd13ifvqcag","pricing_plan_id":"cebpf4jnsgd1na2vs0mg"},{"bike_id":"d4a77ffd-32ef-49cf-be6d-9ca5aa4d355d","system_id":"levelo_inurba_marseille","lat":43.305706,"lon":5.365654,"is_reserved":false,"is_disabled":false,"rental_uris":{"android":"levelo://app?vid=d4a77ffd-32ef-49cf-be6d-9ca5aa4d355d","ios":"levelo://app?vid=d4a77ffd-32ef-49cf-be6d-9ca5aa4d355d"},"vehicle_type_id":"4","last_reported":1717441640,"current_range_meters":4800,"station_id":"ce4bgs12rcd13ifvqcag","pricing_plan_id":"cebpf4jnsgd1na2vs0mg"},{"bike_id":"84360108-89ae-4bef-aa1c-8591ba2c3691","system_id":"levelo_inurba_marseille","lat":43.317075,"lon":5.377367,"is_reserved":false,"is_disabled":false,"rental_uris":{"android":"levelo://app?vid=84360108-89ae-4bef-aa1c-8591ba2c3691","ios":"levelo://app?vid=84360108-89ae-4bef-aa1c-8591ba2c3691"},"vehicle_type_id":"4","last_reported":1717441640,"current_range_meters":12400,"station_id":"ce4bgth2rcd13ifvqch0","pricing_plan_id":"cebpf4jnsgd1na2vs0mg"},{"bike_id":"9793577b-1b5e-4c45-89ae-f2a9b6c26e43","system_id":"levelo_inurba_marseille","lat":43.305368,"lon":5.367343,"is_reserved":false,"is_disabled":false,"rental_uris":{"android":"levelo://app?vid=9793577b-1b5e-4c45-89ae-f2a9b6c26e43","ios":"levelo://app?vid=9793577b-1b5e-4c45-89ae-f2a9b6c26e43"},"vehicle_type_id":"4","last_reported":1717441640,"current_range_meters":12000,"station_id":"ce4bgrp2rcd13ifvqc9g","pricing_plan_id":"cebpf4jnsgd1na2vs0mg"},{"bike_id":"0588c588-a4f8-4148-8c4c-446f25a88896","system_id":"levelo_inurba_marseille","lat":43.305989,"lon":5.37225,"is_reserved":false,"is_disabled":false,"rental_uris":{"android":"levelo://app?vid=0588c588-a4f8-4148-8c4c-446f25a88896","ios":"levelo://app?vid=0588c588-a4f8-4148-8c4c-446f25a88896"},"vehicle_type_id":"4","last_reported":1717441640,"current_range_meters":30000,"station_id":"ce4bgqh2rcd13ifvqc4g","pricing_plan_id":"cebpf4jnsgd1na2vs0mg"},{"bike_id":"3d0ce257-e019-49d7-9682-48310e6bfbda","system_id":"levelo_inurba_marseille","lat":43.311125,"lon":5.377624,"is_reserved":false,"is_disabled":false,"rental_uris":{"android":"levelo://app?vid=3d0ce257-e019-49d7-9682-48310e6bfbda","ios":"levelo://app?vid=3d0ce257-e019-49d7-9682-48310e6bfbda"},"vehicle_type_id":"4","last_reported":1717441640,"current_range_meters":26800,"station_id":"ce4bgt92rcd13ifvqcg0","pricing_plan_id":"cebpf4jnsgd1na2vs0mg"},{"bike_id":"be0c43c5-842c-49f4-9fea-8d426166b9d9","system_id":"levelo_inurba_marseille","lat":43.311125,"lon":5.377624,"is_reserved":false,"is_disabled":false,"rental_uris":{"android":"levelo://app?vid=be0c43c5-842c-49f4-9fea-8d426166b9d9","ios":"levelo://app?vid=be0c43c5-842c-49f4-9fea-8d426166b9d9"},"vehicle_type_id":"4","last_reported":1717441640,"current_range_meters":18800,"station_id":"ce4bgt92rcd13ifvqcg0","pricing_plan_id":"cebpf4jnsgd1na2vs0mg"},{"bike_id":"3af26481-4777-4aa6-ac67-124c449cd5d4","system_id":"levelo_inurba_marseille","lat":43.317075,"lon":5.377367,"is_reserved":false,"is_disabled":false,"rental_uris":{"android":"levelo://app?vid=3af26481-4777-4aa6-ac67-124c449cd5d4","ios":"levelo://app?vid=3af26481-4777-4aa6-ac67-124c449cd5d4"},"vehicle_type_id":"4","last_reported":1717441640,"current_range_meters":7600,"station_id":"ce4bgth2rcd13ifvqch0","pricing_plan_id":"cebpf4jnsgd1na2vs0mg"},{"bike_id":"74686337-5ea5-46b3-8346-f5a64225c077","system_id":"levelo_inurba_marseille","lat":43.317103,"lon":5.377393,"is_reserved":false,"is_disabled":false,"rental_uris":{"android":"levelo://app?vid=74686337-5ea5-46b3-8346-f5a64225c077","ios":"levelo://app?vid=74686337-5ea5-46b3-8346-f5a64225c077"},"vehicle_type_id":"4","last_reported":1717441640,"current_range_meters":12000,"station_id":"ce4bgth2rcd13ifvqch0","pricing_plan_id":"cebpf4jnsgd1na2vs0mg"},{"bike_id":"63b1a303-6db0-4c0e-a30f-ab2843d13f85","system_id":"levelo_inurba_marseille","lat":43.317079,"lon":5.377441,"is_reserved":false,"is_disabled":false,"rental_uris":{"android":"levelo://app?vid=63b1a303-6db0-4c0e-a30f-ab2843d13f85","ios":"levelo://app?vid=63b1a303-6db0-4c0e-a30f-ab2843d13f85"},"vehicle_type_id":"4","last_reported":1717441640,"current_range_meters":31200,"station_id":"ce4bgth2rcd13ifvqch0","pricing_plan_id":"cebpf4jnsgd1na2vs0mg"},{"bike_id":"283499ba-19c4-4768-a9a4-5d6f46c97267","system_id":"levelo_inurba_marseille","lat":43.317075,"lon":5.377367,"is_reserved":false,"is_disabled":false,"rental_uris":{"android":"levelo://app?vid=283499ba-19c4-4768-a9a4-5d6f46c97267","ios":"levelo://app?vid=283499ba-19c4-4768-a9a4-5d6f46c97267"},"vehicle_type_id":"4","last_reported":1717441640,"current_range_meters":15600,"station_id":"ce4bgth2rcd13ifvqch0","pricing_plan_id":"cebpf4jnsgd1na2vs0mg"},{"bike_id":"b684f071-5890-45ab-8f1a-2eefdfc621c0","system_id":"levelo_inurba_marseille","lat":43.303046,"lon":5.368981,"is_reserved":false,"is_disabled":false,"rental_uris":{"android":"levelo://app?vid=b684f071-5890-45ab-8f1a-2eefdfc621c0","ios":"levelo://app?vid=b684f071-5890-45ab-8f1a-2eefdfc621c0"},"vehicle_type_id":"4","last_reported":1717441640,"current_range_meters":17600,"station_id":"ce4bgqh2rcd13ifvqc5g","pricing_plan_id":"cebpf4jnsgd1na2vs0mg"},{"bike_id":"5401ff84-06c4-4c94-b76e-411da2f5ffe9","system_id":"levelo_inurba_marseille","lat":43.32209,"lon":5.371272,"is_reserved":false,"is_disabled":false,"rental_uris":{"android":"levelo://app?vid=5401ff84-06c4-4c94-b76e-411da2f5ffe9","ios":"levelo://app?vid=5401ff84-06c4-4c94-b76e-411da2f5ffe9"},"vehicle_type_id":"4","last_reported":1717441640,"current_range_meters":14800,"station_id":"","pricing_plan_id":"cebpf4jnsgd1na2vs0mg"},{"bike_id":"bbd83da4-31a0-4c0a-8741-46d3776a88ae","system_id":"levelo_inurba_marseille","lat":43.303046,"lon":5.368981,"is_reserved":false,"is_disabled":false,"rental_uris":{"android":"levelo://app?vid=bbd83da4-31a0-4c0a-8741-46d3776a88ae","ios":"levelo://app?vid=bbd83da4-31a0-4c0a-8741-46d3776a88ae"},"vehicle_type_id":"4","last_reported":1717441640,"current_range_meters":400,"station_id":"ce4bgqh2rcd13ifvqc5g","pricing_plan_id":"cebpf4jnsgd1na2vs0mg"},{"bike_id":"9aab337a-d2e4-4915-9673-8a19cae261bd","system_id":"levelo_inurba_marseille","lat":43.315289,"lon":5.380349,"is_reserved":false,"is_disabled":false,"rental_uris":{"android":"levelo://app?vid=9aab337a-d2e4-4915-9673-8a19cae261bd","ios":"levelo://app?vid=9aab337a-d2e4-4915-9673-8a19cae261bd"},"vehicle_type_id":"4","last_reported":1717441640,"current_range_meters":7600,"station_id":"ce4bhsp2rcd13ifvqi50","pricing_plan_id":"cebpf4jnsgd1na2vs0mg"},{"bike_id":"d2f5a31d-7570-4c66-a922-f6042c7ce9cb","system_id":"levelo_inurba_marseille","lat":43.315293,"lon":5.380349,"is_reserved":false,"is_disabled":false,"rental_uris":{"android":"levelo://app?vid=d2f5a31d-7570-4c66-a922-f6042c7ce9cb","ios":"levelo://app?vid=d2f5a31d-7570-4c66-a922-f6042c7ce9cb"},"vehicle_type_id":"4","last_reported":1717441640,"current_range_meters":26400,"station_id":"ce4bhsp2rcd13ifvqi50","pricing_plan_id":"cebpf4jnsgd1na2vs0mg"},{"bike_id":"69f1eeb6-89d2-4a34-9367-9e7cf1fee138","system_id":"levelo_inurba_marseille","lat":43.315381,"lon":5.380467,"is_reserved":false,"is_disabled":false,"rental_uris":{"android":"levelo://app?vid=69f1eeb6-89d2-4a34-9367-9e7cf1fee138","ios":"levelo://app?vid=69f1eeb6-89d2-4a34-9367-9e7cf1fee138"},"vehicle_type_id":"4","last_reported":1717441640,"current_range_meters":0,"station_id":"ce4bhsp2rcd13ifvqi50","pricing_plan_id":"cebpf4jnsgd1na2vs0mg"},{"bike_id":"fe9d639a-4170-4a78-9fd6-a715f67f54e6","system_id":"levelo_inurba_marseille","lat":43.302541,"lon":5.369209,"is_reserved":false,"is_disabled":false,"rental_uris":{"android":"levelo://app?vid=fe9d639a-4170-4a78-9fd6-a715f67f54e6","ios":"levelo://app?vid=fe9d639a-4170-4a78-9fd6-a715f67f54e6"},"vehicle_type_id":"4","last_reported":1717441640,"current_range_meters":0,"station_id":"ce4bgqh2rcd13ifvqc5g","pricing_plan_id":"cebpf4jnsgd1na2vs0mg"},{"bike_id":"68ae8725-b0cd-4b13-9d7f-41939ea4ee7b","system_id":"levelo_inurba_marseille","lat":43.301939,"lon":5.366286,"is_reserved":false,"is_disabled":false,"rental_uris":{"android":"levelo://app?vid=68ae8725-b0cd-4b13-9d7f-41939ea4ee7b","ios":"levelo://app?vid=68ae8725-b0cd-4b13-9d7f-41939ea4ee7b"},"vehicle_type_id":"4","last_reported":1717441640,"current_range_meters":1600,"station_id":"ce4bgrh2rcd13ifvqc8g","pricing_plan_id":"cebpf4jnsgd1na2vs0mg"},{"bike_id":"f8113fbe-06c0-4e71-833d-2fb6275df929","system_id":"levelo_inurba_marseille","lat":43.308012,"lon":5.381511,"is_reserved":false,"is_disabled":false,"rental_uris":{"android":"levelo://app?vid=f8113fbe-06c0-4e71-833d-2fb6275df929","ios":"levelo://app?vid=f8113fbe-06c0-4e71-833d-2fb6275df929"},"vehicle_type_id":"4","last_reported":1717441640,"current_range_meters":12000,"station_id":"ce4bgt12rcd13ifvqce0","pricing_plan_id":"cebpf4jnsgd1na2vs0mg"},{"bike_id":"508694e0-e94f-4631-8998-203177c3c269","system_id":"levelo_inurba_marseille","lat":43.313571,"lon":5.384829,"is_reserved":false,"is_disabled":false,"rental_uris":{"android":"levelo://app?vid=508694e0-e94f-4631-8998-203177c3c269","ios":"levelo://app?vid=508694e0-e94f-4631-8998-203177c3c269"},"vehicle_type_id":"4","last_reported":1717441640,"current_range_meters":11600,"station_id":"ce4bgt92rcd13ifvqcf0","pricing_plan_id":"cebpf4jnsgd1na2vs0mg"},{"bike_id":"6ab33869-af61-49b7-8961-dacff82d8e8c","system_id":"levelo_inurba_marseille","lat":43.29602,"lon":5.381084,"is_reserved":false,"is_disabled":false,"rental_uris":{"android":"levelo://app?vid=6ab33869-af61-49b7-8961-dacff82d8e8c","ios":"levelo://app?vid=6ab33869-af61-49b7-8961-dacff82d8e8c"},"vehicle_type_id":"4","last_reported":1717441640,"current_range_meters":29200,"station_id":"ce4bgl12rcd13ifvqbo0","pricing_plan_id":"cebpf4jnsgd1na2vs0mg"},{"bike_id":"5a0e4850-f4ce-4132-bb56-09bfd627d2a3","system_id":"levelo_inurba_marseille","lat":43.324771,"lon":5.36557,"is_reserved":false,"is_disabled":false,"rental_uris":{"android":"levelo://app?vid=5a0e4850-f4ce-4132-bb56-09bfd627d2a3","ios":"levelo://app?vid=5a0e4850-f4ce-4132-bb56-09bfd627d2a3"},"vehicle_type_id":"4","last_reported":1717441640,"current_range_meters":2800,"station_id":"ce4bhs12rcd13ifvqhvg","pricing_plan_id":"cebpf4jnsgd1na2vs0mg"},{"bike_id":"1bfd671a-c1ed-4cb1-9c2e-3079202cb922","system_id":"levelo_inurba_marseille","lat":43.324771,"lon":5.36557,"is_reserved":false,"is_disabled":false,"rental_uris":{"android":"levelo://app?vid=1bfd671a-c1ed-4cb1-9c2e-3079202cb922","ios":"levelo://app?vid=1bfd671a-c1ed-4cb1-9c2e-3079202cb922"},"vehicle_type_id":"4","last_reported":1717441640,"current_range_meters":0,"station_id":"ce4bhs12rcd13ifvqhvg","pricing_plan_id":"cebpf4jnsgd1na2vs0mg"},{"bike_id":"2e9688a8-0e88-40d3-ad32-e192b82410a1","system_id":"levelo_inurba_marseille","lat":43.324771,"lon":5.36557,"is_reserved":false,"is_disabled":false,"rental_uris":{"android":"levelo://app?vid=2e9688a8-0e88-40d3-ad32-e192b82410a1","ios":"levelo://app?vid=2e9688a8-0e88-40d3-ad32-e192b82410a1"},"vehicle_type_id":"4","last_reported":1717441640,"current_range_meters":400,"station_id":"ce4bhs12rcd13ifvqhvg","pricing_plan_id":"cebpf4jnsgd1na2vs0mg"},{"bike_id":"99155971-c3e8-44e5-b3c8-36bd6b7b1592","system_id":"levelo_inurba_marseille","lat":43.324814,"lon":5.365593,"is_reserved":false,"is_disabled":false,"rental_uris":{"android":"levelo://app?vid=99155971-c3e8-44e5-b3c8-36bd6b7b1592","ios":"levelo://app?vid=99155971-c3e8-44e5-b3c8-36bd6b7b1592"},"vehicle_type_id":"4","last_reported":1717441640,"current_range_meters":0,"station_id":"ce4bhs12rcd13ifvqhvg","pricing_plan_id":"cebpf4jnsgd1na2vs0mg"},{"bike_id":"298c70fc-f480-4486-8898-97cf5319ca46","system_id":"levelo_inurba_marseille","lat":43.310669,"lon":5.383505,"is_reserved":false,"is_disabled":false,"rental_uris":{"android":"levelo://app?vid=298c70fc-f480-4486-8898-97cf5319ca46","ios":"levelo://app?vid=298c70fc-f480-4486-8898-97cf5319ca46"},"vehicle_type_id":"4","last_reported":1717441640,"current_range_meters":0,"station_id":"ce4bgv92rcd13ifvqcr0","pricing_plan_id":"cebpf4jnsgd1na2vs0mg"},{"bike_id":"4cff19b0-eedc-488b-b0dc-f542bda14c40","system_id":"levelo_inurba_marseille","lat":43.310804,"lon":5.38359,"is_reserved":false,"is_disabled":false,"rental_uris":{"android":"levelo://app?vid=4cff19b0-eedc-488b-b0dc-f542bda14c40","ios":"levelo://app?vid=4cff19b0-eedc-488b-b0dc-f542bda14c40"},"vehicle_type_id":"4","last_reported":1717441640,"current_range_meters":2800,"station_id":"ce4bgv92rcd13ifvqcr0","pricing_plan_id":"cebpf4jnsgd1na2vs0mg"},{"bike_id":"3eafb62c-faee-4b3f-8869-13234174d46e","system_id":"levelo_inurba_marseille","lat":43.310804,"lon":5.38359,"is_reserved":false,"is_disabled":false,"rental_uris":{"android":"levelo://app?vid=3eafb62c-faee-4b3f-8869-13234174d46e","ios":"levelo://app?vid=3eafb62c-faee-4b3f-8869-13234174d46e"},"vehicle_type_id":"4","last_reported":1717441640,"current_range_meters":9200,"station_id":"ce4bgv92rcd13ifvqcr0","pricing_plan_id":"cebpf4jnsgd1na2vs0mg"},{"bike_id":"6fd5c1a4-cee2-41b0-a071-24c1fb77d7e4","system_id":"levelo_inurba_marseille","lat":43.310804,"lon":5.38359,"is_reserved":false,"is_disabled":false,"rental_uris":{"android":"levelo://app?vid=6fd5c1a4-cee2-41b0-a071-24c1fb77d7e4","ios":"levelo://app?vid=6fd5c1a4-cee2-41b0-a071-24c1fb77d7e4"},"vehicle_type_id":"4","last_reported":1717441640,"current_range_meters":0,"station_id":"ce4bgv92rcd13ifvqcr0","pricing_plan_id":"cebpf4jnsgd1na2vs0mg"},{"bike_id":"cd0ef852-5cae-4819-a02d-b726c98929de","system_id":"levelo_inurba_marseille","lat":43.304606,"lon":5.379026,"is_reserved":false,"is_disabled":false,"rental_uris":{"android":"levelo://app?vid=cd0ef852-5cae-4819-a02d-b726c98929de","ios":"levelo://app?vid=cd0ef852-5cae-4819-a02d-b726c98929de"},"vehicle_type_id":"4","last_reported":1717441640,"current_range_meters":12000,"station_id":"ce4bgup2rcd13ifvqcn0","pricing_plan_id":"cebpf4jnsgd1na2vs0mg"},{"bike_id":"0edc4a37-ef57-4cab-8b7d-3196e3445d23","system_id":"levelo_inurba_marseille","lat":43.310804,"lon":5.38359,"is_reserved":false,"is_disabled":false,"rental_uris":{"android":"levelo://app?vid=0edc4a37-ef57-4cab-8b7d-3196e3445d23","ios":"levelo://app?vid=0edc4a37-ef57-4cab-8b7d-3196e3445d23"},"vehicle_type_id":"4","last_reported":1717441640,"current_range_meters":3200,"station_id":"ce4bgv92rcd13ifvqcr0","pricing_plan_id":"cebpf4jnsgd1na2vs0mg"},{"bike_id":"682919ee-e9e0-41c4-9541-c3e5ac65ce22","system_id":"levelo_inurba_marseille","lat":43.301429,"lon":5.37413,"is_reserved":false,"is_disabled":false,"rental_uris":{"android":"levelo://app?vid=682919ee-e9e0-41c4-9541-c3e5ac65ce22","ios":"levelo://app?vid=682919ee-e9e0-41c4-9541-c3e5ac65ce22"},"vehicle_type_id":"4","last_reported":1717441640,"current_range_meters":28800,"station_id":"ce4bgs92rcd13ifvqcc0","pricing_plan_id":"cebpf4jnsgd1na2vs0mg"},{"bike_id":"f2ad1eb7-91ce-482e-94c2-058195116fc4","system_id":"levelo_inurba_marseille","lat":43.30143,"lon":5.37413,"is_reserved":false,"is_disabled":false,"rental_uris":{"android":"levelo://app?vid=f2ad1eb7-91ce-482e-94c2-058195116fc4","ios":"levelo://app?vid=f2ad1eb7-91ce-482e-94c2-058195116fc4"},"vehicle_type_id":"4","last_reported":1717441640,"current_range_meters":20800,"station_id":"ce4bgs92rcd13ifvqcc0","pricing_plan_id":"cebpf4jnsgd1na2vs0mg"},{"bike_id":"7c31d78e-3ade-4de9-8ec0-da0cdb4d1939","system_id":"levelo_inurba_marseille","lat":43.301429,"lon":5.37413,"is_reserved":false,"is_disabled":false,"rental_uris":{"android":"levelo://app?vid=7c31d78e-3ade-4de9-8ec0-da0cdb4d1939","ios":"levelo://app?vid=7c31d78e-3ade-4de9-8ec0-da0cdb4d1939"},"vehicle_type_id":"4","last_reported":1717441640,"current_range_meters":0,"station_id":"ce4bgs92rcd13ifvqcc0","pricing_plan_id":"cebpf4jnsgd1na2vs0mg"},{"bike_id":"4503ca4d-2f59-4dac-8e63-b17f3b0fc4b8","system_id":"levelo_inurba_marseille","lat":43.324771,"lon":5.36557,"is_reserved":false,"is_disabled":false,"rental_uris":{"android":"levelo://app?vid=4503ca4d-2f59-4dac-8e63-b17f3b0fc4b8","ios":"levelo://app?vid=4503ca4d-2f59-4dac-8e63-b17f3b0fc4b8"},"vehicle_type_id":"4","last_reported":1717441640,"current_range_meters":0,"station_id":"ce4bhs12rcd13ifvqhvg","pricing_plan_id":"cebpf4jnsgd1na2vs0mg"},{"bike_id":"20350782-2ef8-4180-a14b-4dd4e6627c9a","system_id":"levelo_inurba_marseille","lat":43.31998,"lon":5.38142,"is_reserved":false,"is_disabled":false,"rental_uris":{"android":"levelo://app?vid=20350782-2ef8-4180-a14b-4dd4e6627c9a","ios":"levelo://app?vid=20350782-2ef8-4180-a14b-4dd4e6627c9a"},"vehicle_type_id":"4","last_reported":1717441640,"current_range_meters":0,"station_id":"ce4bhr12rcd13ifvqhpg","pricing_plan_id":"cebpf4jnsgd1na2vs0mg"},{"bike_id":"83a9e9ee-e8e9-4b40-af65-95bf935afabc","system_id":"levelo_inurba_marseille","lat":43.313571,"lon":5.384829,"is_reserved":false,"is_disabled":false,"rental_uris":{"android":"levelo://app?vid=83a9e9ee-e8e9-4b40-af65-95bf935afabc","ios":"levelo://app?vid=83a9e9ee-e8e9-4b40-af65-95bf935afabc"},"vehicle_type_id":"4","last_reported":1717441640,"current_range_meters":5200,"station_id":"ce4bgt92rcd13ifvqcf0","pricing_plan_id":"cebpf4jnsgd1na2vs0mg"},{"bike_id":"7027dbbb-9e70-497f-a201-b7b650190d27","system_id":"levelo_inurba_marseille","lat":43.313571,"lon":5.384829,"is_reserved":false,"is_disabled":false,"rental_uris":{"android":"levelo://app?vid=7027dbbb-9e70-497f-a201-b7b650190d27","ios":"levelo://app?vid=7027dbbb-9e70-497f-a201-b7b650190d27"},"vehicle_type_id":"4","last_reported":1717441640,"current_range_meters":2400,"station_id":"ce4bgt92rcd13ifvqcf0","pricing_plan_id":"cebpf4jnsgd1na2vs0mg"},{"bike_id":"b60702b7-e484-4f98-8fb5-47cb9a7a9b7a","system_id":"levelo_inurba_marseille","lat":43.313571,"lon":5.384829,"is_reserved":false,"is_disabled":false,"rental_uris":{"android":"levelo://app?vid=b60702b7-e484-4f98-8fb5-47cb9a7a9b7a","ios":"levelo://app?vid=b60702b7-e484-4f98-8fb5-47cb9a7a9b7a"},"vehicle_type_id":"4","last_reported":1717441640,"current_range_meters":7200,"station_id":"ce4bgt92rcd13ifvqcf0","pricing_plan_id":"cebpf4jnsgd1na2vs0mg"},{"bike_id":"017ded3b-addf-43f5-b847-c95eb8818421","system_id":"levelo_inurba_marseille","lat":43.299222,"lon":5.365554,"is_reserved":false,"is_disabled":false,"rental_uris":{"android":"levelo://app?vid=017ded3b-addf-43f5-b847-c95eb8818421","ios":"levelo://app?vid=017ded3b-addf-43f5-b847-c95eb8818421"},"vehicle_type_id":"4","last_reported":1717441640,"current_range_meters":20400,"station_id":"ce4bgm92rcd13ifvqbr0","pricing_plan_id":"cebpf4jnsgd1na2vs0mg"},{"bike_id":"4f26e224-d64a-42ce-aa4f-e1996412ebf5","system_id":"levelo_inurba_marseille","lat":43.299724,"lon":5.371829,"is_reserved":false,"is_disabled":false,"rental_uris":{"android":"levelo://app?vid=4f26e224-d64a-42ce-aa4f-e1996412ebf5","ios":"levelo://app?vid=4f26e224-d64a-42ce-aa4f-e1996412ebf5"},"vehicle_type_id":"4","last_reported":1717441640,"current_range_meters":17200,"station_id":"ce4bgr92rcd13ifvqc7g","pricing_plan_id":"cebpf4jnsgd1na2vs0mg"},{"bike_id":"d1260f28-38a8-4af2-9c06-33c4aaafddb9","system_id":"levelo_inurba_marseille","lat":43.299724,"lon":5.371829,"is_reserved":false,"is_disabled":false,"rental_uris":{"android":"levelo://app?vid=d1260f28-38a8-4af2-9c06-33c4aaafddb9","ios":"levelo://app?vid=d1260f28-38a8-4af2-9c06-33c4aaafddb9"},"vehicle_type_id":"4","last_reported":1717441640,"current_range_meters":19200,"station_id":"ce4bgr92rcd13ifvqc7g","pricing_plan_id":"cebpf4jnsgd1na2vs0mg"},{"bike_id":"6fd9f67b-89fc-4b0d-a9f2-6cfe06712834","system_id":"levelo_inurba_marseille","lat":43.299724,"lon":5.371829,"is_reserved":false,"is_disabled":false,"rental_uris":{"android":"levelo://app?vid=6fd9f67b-89fc-4b0d-a9f2-6cfe06712834","ios":"levelo://app?vid=6fd9f67b-89fc-4b0d-a9f2-6cfe06712834"},"vehicle_type_id":"4","last_reported":1717441640,"current_range_meters":24400,"station_id":"ce4bgr92rcd13ifvqc7g","pricing_plan_id":"cebpf4jnsgd1na2vs0mg"},{"bike_id":"bb1e3653-daeb-4846-b105-005028a44763","system_id":"levelo_inurba_marseille","lat":43.299241,"lon":5.365497,"is_reserved":false,"is_disabled":false,"rental_uris":{"android":"levelo://app?vid=bb1e3653-daeb-4846-b105-005028a44763","ios":"levelo://app?vid=bb1e3653-daeb-4846-b105-005028a44763"},"vehicle_type_id":"4","last_reported":1717441640,"current_range_meters":28000,"station_id":"ce4bgm92rcd13ifvqbr0","pricing_plan_id":"cebpf4jnsgd1na2vs0mg"},{"bike_id":"55758013-098a-4a7b-ae6a-3a6289ef88a6","system_id":"levelo_inurba_marseille","lat":43.299724,"lon":5.371829,"is_reserved":false,"is_disabled":false,"rental_uris":{"android":"levelo://app?vid=55758013-098a-4a7b-ae6a-3a6289ef88a6","ios":"levelo://app?vid=55758013-098a-4a7b-ae6a-3a6289ef88a6"},"vehicle_type_id":"4","last_reported":1717441640,"current_range_meters":24400,"station_id":"ce4bgr92rcd13ifvqc7g","pricing_plan_id":"cebpf4jnsgd1na2vs0mg"},{"bike_id":"6be990df-71f3-49af-89b6-e05c2b3137a0","system_id":"levelo_inurba_marseille","lat":43.29967,"lon":5.37195,"is_reserved":false,"is_disabled":false,"rental_uris":{"android":"levelo://app?vid=6be990df-71f3-49af-89b6-e05c2b3137a0","ios":"levelo://app?vid=6be990df-71f3-49af-89b6-e05c2b3137a0"},"vehicle_type_id":"4","last_reported":1717441640,"current_range_meters":22400,"station_id":"ce4bgr92rcd13ifvqc7g","pricing_plan_id":"cebpf4jnsgd1na2vs0mg"},{"bike_id":"125f5388-127c-4a04-902d-08fbb068df63","system_id":"levelo_inurba_marseille","lat":43.305364,"lon":5.384119,"is_reserved":false,"is_disabled":false,"rental_uris":{"android":"levelo://app?vid=125f5388-127c-4a04-902d-08fbb068df63","ios":"levelo://app?vid=125f5388-127c-4a04-902d-08fbb068df63"},"vehicle_type_id":"4","last_reported":1717441640,"current_range_meters":26000,"station_id":"ce4bgg92rcd13ifvqb30","pricing_plan_id":"cebpf4jnsgd1na2vs0mg"},{"bike_id":"7c0279c4-785e-41cc-9875-11b1aa5697b0","system_id":"levelo_inurba_marseille","lat":43.298433,"lon":5.362774,"is_reserved":false,"is_disabled":false,"rental_uris":{"android":"levelo://app?vid=7c0279c4-785e-41cc-9875-11b1aa5697b0","ios":"levelo://app?vid=7c0279c4-785e-41cc-9875-11b1aa5697b0"},"vehicle_type_id":"4","last_reported":1717441640,"current_range_meters":28000,"station_id":"ce4bgpp2rcd13ifvqc3g","pricing_plan_id":"cebpf4jnsgd1na2vs0mg"},{"bike_id":"4f28db3f-2dfb-4c22-ae11-e8571423aeaa","system_id":"levelo_inurba_marseille","lat":43.298433,"lon":5.362774,"is_reserved":false,"is_disabled":false,"rental_uris":{"android":"levelo://app?vid=4f28db3f-2dfb-4c22-ae11-e8571423aeaa","ios":"levelo://app?vid=4f28db3f-2dfb-4c22-ae11-e8571423aeaa"},"vehicle_type_id":"4","last_reported":1717441640,"current_range_meters":19200,"station_id":"ce4bgpp2rcd13ifvqc3g","pricing_plan_id":"cebpf4jnsgd1na2vs0mg"},{"bike_id":"12f31d50-9811-4c55-88b7-e552a7e8d9be","system_id":"levelo_inurba_marseille","lat":43.299243,"lon":5.37481,"is_reserved":false,"is_disabled":false,"rental_uris":{"android":"levelo://app?vid=12f31d50-9811-4c55-88b7-e552a7e8d9be","ios":"levelo://app?vid=12f31d50-9811-4c55-88b7-e552a7e8d9be"},"vehicle_type_id":"4","last_reported":1717441640,"current_range_meters":14800,"station_id":"ce4bgjh2rcd13ifvqbg0","pricing_plan_id":"cebpf4jnsgd1na2vs0mg"},{"bike_id":"f1991d90-bb7b-4e73-b957-5d5ec833948d","system_id":"levelo_inurba_marseille","lat":43.298433,"lon":5.362774,"is_reserved":false,"is_disabled":false,"rental_uris":{"android":"levelo://app?vid=f1991d90-bb7b-4e73-b957-5d5ec833948d","ios":"levelo://app?vid=f1991d90-bb7b-4e73-b957-5d5ec833948d"},"vehicle_type_id":"4","last_reported":1717441640,"current_range_meters":0,"station_id":"ce4bgpp2rcd13ifvqc3g","pricing_plan_id":"cebpf4jnsgd1na2vs0mg"},{"bike_id":"37e695c0-f23d-4196-9357-14aa34e5c6fa","system_id":"levelo_inurba_marseille","lat":43.305364,"lon":5.384119,"is_reserved":false,"is_disabled":false,"rental_uris":{"android":"levelo://app?vid=37e695c0-f23d-4196-9357-14aa34e5c6fa","ios":"levelo://app?vid=37e695c0-f23d-4196-9357-14aa34e5c6fa"},"vehicle_type_id":"4","last_reported":1717441640,"current_range_meters":1600,"station_id":"ce4bgg92rcd13ifvqb30","pricing_plan_id":"cebpf4jnsgd1na2vs0mg"},{"bike_id":"944ceca1-4a69-41cb-896a-f249437dcf32","system_id":"levelo_inurba_marseille","lat":43.299249,"lon":5.374809,"is_reserved":false,"is_disabled":false,"rental_uris":{"android":"levelo://app?vid=944ceca1-4a69-41cb-896a-f249437dcf32","ios":"levelo://app?vid=944ceca1-4a69-41cb-896a-f249437dcf32"},"vehicle_type_id":"4","last_reported":1717441640,"current_range_meters":0,"station_id":"","pricing_plan_id":"cebpf4jnsgd1na2vs0mg"},{"bike_id":"8b7ef21e-7407-4829-8d59-49872feae290","system_id":"levelo_inurba_marseille","lat":43.30263,"lon":5.38159,"is_reserved":false,"is_disabled":false,"rental_uris":{"android":"levelo://app?vid=8b7ef21e-7407-4829-8d59-49872feae290","ios":"levelo://app?vid=8b7ef21e-7407-4829-8d59-49872feae290"},"vehicle_type_id":"4","last_reported":1717441640,"current_range_meters":6000,"station_id":"","pricing_plan_id":"cebpf4jnsgd1na2vs0mg"},{"bike_id":"acff2647-a8c0-4502-99e5-26dc191d9d0b","system_id":"levelo_inurba_marseille","lat":43.31177,"lon":5.38716,"is_reserved":false,"is_disabled":false,"rental_uris":{"android":"levelo://app?vid=acff2647-a8c0-4502-99e5-26dc191d9d0b","ios":"levelo://app?vid=acff2647-a8c0-4502-99e5-26dc191d9d0b"},"vehicle_type_id":"4","last_reported":1717441640,"current_range_meters":26800,"station_id":"ce4bgv12rcd13ifvqcp0","pricing_plan_id":"cebpf4jnsgd1na2vs0mg"},{"bike_id":"c995002b-2fb7-44e8-ae0f-09eb420e27f0","system_id":"levelo_inurba_marseille","lat":43.311722,"lon":5.387247,"is_reserved":false,"is_disabled":false,"rental_uris":{"android":"levelo://app?vid=c995002b-2fb7-44e8-ae0f-09eb420e27f0","ios":"levelo://app?vid=c995002b-2fb7-44e8-ae0f-09eb420e27f0"},"vehicle_type_id":"4","last_reported":1717441640,"current_range_meters":0,"station_id":"ce4bgv12rcd13ifvqcp0","pricing_plan_id":"cebpf4jnsgd1na2vs0mg"},{"bike_id":"10fb4334-c940-4455-979b-d3f1ca32e262","system_id":"levelo_inurba_marseille","lat":43.297794,"lon":5.370888,"is_reserved":false,"is_disabled":false,"rental_uris":{"android":"levelo://app?vid=10fb4334-c940-4455-979b-d3f1ca32e262","ios":"levelo://app?vid=10fb4334-c940-4455-979b-d3f1ca32e262"},"vehicle_type_id":"4","last_reported":1717441640,"current_range_meters":29600,"station_id":"ce4bgop2rcd13ifvqc1g","pricing_plan_id":"cebpf4jnsgd1na2vs0mg"},{"bike_id":"2c612d62-fd76-4472-a3dc-3334ed2aa0c1","system_id":"levelo_inurba_marseille","lat":43.297774,"lon":5.370875,"is_reserved":false,"is_disabled":false,"rental_uris":{"android":"levelo://app?vid=2c612d62-fd76-4472-a3dc-3334ed2aa0c1","ios":"levelo://app?vid=2c612d62-fd76-4472-a3dc-3334ed2aa0c1"},"vehicle_type_id":"4","last_reported":1717441640,"current_range_meters":2400,"station_id":"ce4bgop2rcd13ifvqc1g","pricing_plan_id":"cebpf4jnsgd1na2vs0mg"},{"bike_id":"9ed118c5-2053-4689-9cb0-5b2b2746ca34","system_id":"levelo_inurba_marseille","lat":43.322872,"lon":5.382756,"is_reserved":false,"is_disabled":false,"rental_uris":{"android":"levelo://app?vid=9ed118c5-2053-4689-9cb0-5b2b2746ca34","ios":"levelo://app?vid=9ed118c5-2053-4689-9cb0-5b2b2746ca34"},"vehicle_type_id":"4","last_reported":1717441640,"current_range_meters":20400,"station_id":"ce4bhr12rcd13ifvqhqg","pricing_plan_id":"cebpf4jnsgd1na2vs0mg"},{"bike_id":"9cb0a0fb-cba8-4161-9927-dea9fe7e0f97","system_id":"levelo_inurba_marseille","lat":43.297794,"lon":5.370888,"is_reserved":false,"is_disabled":false,"rental_uris":{"android":"levelo://app?vid=9cb0a0fb-cba8-4161-9927-dea9fe7e0f97","ios":"levelo://app?vid=9cb0a0fb-cba8-4161-9927-dea9fe7e0f97"},"vehicle_type_id":"4","last_reported":1717441640,"current_range_meters":400,"station_id":"ce4bgop2rcd13ifvqc1g","pricing_plan_id":"cebpf4jnsgd1na2vs0mg"},{"bike_id":"a09523f3-289b-4a68-96ee-53fdb62e3dd1","system_id":"levelo_inurba_marseille","lat":43.322872,"lon":5.382756,"is_reserved":false,"is_disabled":false,"rental_uris":{"android":"levelo://app?vid=a09523f3-289b-4a68-96ee-53fdb62e3dd1","ios":"levelo://app?vid=a09523f3-289b-4a68-96ee-53fdb62e3dd1"},"vehicle_type_id":"4","last_reported":1717441640,"current_range_meters":22400,"station_id":"ce4bhr12rcd13ifvqhqg","pricing_plan_id":"cebpf4jnsgd1na2vs0mg"},{"bike_id":"9b690d14-bdb3-4a8f-bd3c-a5f7b7f09aaf","system_id":"levelo_inurba_marseille","lat":43.297774,"lon":5.370875,"is_reserved":false,"is_disabled":false,"rental_uris":{"android":"levelo://app?vid=9b690d14-bdb3-4a8f-bd3c-a5f7b7f09aaf","ios":"levelo://app?vid=9b690d14-bdb3-4a8f-bd3c-a5f7b7f09aaf"},"vehicle_type_id":"4","last_reported":1717441640,"current_range_meters":6400,"station_id":"ce4bgop2rcd13ifvqc1g","pricing_plan_id":"cebpf4jnsgd1na2vs0mg"},{"bike_id":"c4986dce-5d6c-41ff-8cf9-5fc4a81882a3","system_id":"levelo_inurba_marseille","lat":43.297163,"lon":5.365866,"is_reserved":false,"is_disabled":false,"rental_uris":{"android":"levelo://app?vid=c4986dce-5d6c-41ff-8cf9-5fc4a81882a3","ios":"levelo://app?vid=c4986dce-5d6c-41ff-8cf9-5fc4a81882a3"},"vehicle_type_id":"4","last_reported":1717441640,"current_range_meters":18000,"station_id":"ce4bgn12rcd13ifvqbt0","pricing_plan_id":"cebpf4jnsgd1na2vs0mg"},{"bike_id":"1e7b12d3-3c40-4e0e-b0b5-907218927624","system_id":"levelo_inurba_marseille","lat":43.297163,"lon":5.365866,"is_reserved":false,"is_disabled":false,"rental_uris":{"android":"levelo://app?vid=1e7b12d3-3c40-4e0e-b0b5-907218927624","ios":"levelo://app?vid=1e7b12d3-3c40-4e0e-b0b5-907218927624"},"vehicle_type_id":"4","last_reported":1717441640,"current_range_meters":12400,"station_id":"ce4bgn12rcd13ifvqbt0","pricing_plan_id":"cebpf4jnsgd1na2vs0mg"},{"bike_id":"1070a03a-a0b3-4272-9566-0330c8553b15","system_id":"levelo_inurba_marseille","lat":43.297163,"lon":5.365866,"is_reserved":false,"is_disabled":false,"rental_uris":{"android":"levelo://app?vid=1070a03a-a0b3-4272-9566-0330c8553b15","ios":"levelo://app?vid=1070a03a-a0b3-4272-9566-0330c8553b15"},"vehicle_type_id":"4","last_reported":1717441640,"current_range_meters":19200,"station_id":"ce4bgn12rcd13ifvqbt0","pricing_plan_id":"cebpf4jnsgd1na2vs0mg"},{"bike_id":"65197c3c-273c-4e08-b658-86263cc7f37e","system_id":"levelo_inurba_marseille","lat":43.297163,"lon":5.365866,"is_reserved":false,"is_disabled":false,"rental_uris":{"android":"levelo://app?vid=65197c3c-273c-4e08-b658-86263cc7f37e","ios":"levelo://app?vid=65197c3c-273c-4e08-b658-86263cc7f37e"},"vehicle_type_id":"4","last_reported":1717441640,"current_range_meters":25200,"station_id":"ce4bgn12rcd13ifvqbt0","pricing_plan_id":"cebpf4jnsgd1na2vs0mg"},{"bike_id":"8335257e-628c-4e7a-907f-6dc97067f3fc","system_id":"levelo_inurba_marseille","lat":43.297163,"lon":5.365866,"is_reserved":false,"is_disabled":false,"rental_uris":{"android":"levelo://app?vid=8335257e-628c-4e7a-907f-6dc97067f3fc","ios":"levelo://app?vid=8335257e-628c-4e7a-907f-6dc97067f3fc"},"vehicle_type_id":"4","last_reported":1717441640,"current_range_meters":2000,"station_id":"ce4bgn12rcd13ifvqbt0","pricing_plan_id":"cebpf4jnsgd1na2vs0mg"},{"bike_id":"46433764-bc84-482c-b578-50622ee6c2da","system_id":"levelo_inurba_marseille","lat":43.2968,"lon":5.37291,"is_reserved":false,"is_disabled":false,"rental_uris":{"android":"levelo://app?vid=46433764-bc84-482c-b578-50622ee6c2da","ios":"levelo://app?vid=46433764-bc84-482c-b578-50622ee6c2da"},"vehicle_type_id":"4","last_reported":1717441640,"current_range_meters":8000,"station_id":"ce4bgk12rcd13ifvqbj0","pricing_plan_id":"cebpf4jnsgd1na2vs0mg"},{"bike_id":"ca50d089-cf36-4803-9962-2315a9dfd163","system_id":"levelo_inurba_marseille","lat":43.296131,"lon":5.370791,"is_reserved":false,"is_disabled":false,"rental_uris":{"android":"levelo://app?vid=ca50d089-cf36-4803-9962-2315a9dfd163","ios":"levelo://app?vid=ca50d089-cf36-4803-9962-2315a9dfd163"},"vehicle_type_id":"4","last_reported":1717441640,"current_range_meters":0,"station_id":"ce4bgnh2rcd13ifvqc0g","pricing_plan_id":"cebpf4jnsgd1na2vs0mg"},{"bike_id":"732dd0f4-77e2-49b4-944f-ba690010225a","system_id":"levelo_inurba_marseille","lat":43.29573,"lon":5.367355,"is_reserved":false,"is_disabled":false,"rental_uris":{"android":"levelo://app?vid=732dd0f4-77e2-49b4-944f-ba690010225a","ios":"levelo://app?vid=732dd0f4-77e2-49b4-944f-ba690010225a"},"vehicle_type_id":"4","last_reported":1717441640,"current_range_meters":12800,"station_id":"ce4bgph2rcd13ifvqc2g","pricing_plan_id":"cebpf4jnsgd1na2vs0mg"},{"bike_id":"4b7cf31d-d9c7-4aba-bed1-9f2a436b7fb9","system_id":"levelo_inurba_marseille","lat":43.290336,"lon":5.386425,"is_reserved":false,"is_disabled":false,"rental_uris":{"android":"levelo://app?vid=4b7cf31d-d9c7-4aba-bed1-9f2a436b7fb9","ios":"levelo://app?vid=4b7cf31d-d9c7-4aba-bed1-9f2a436b7fb9"},"vehicle_type_id":"4","last_reported":1717441640,"current_range_meters":5200,"station_id":"ce4bh4p2rcd13ifvqe0g","pricing_plan_id":"cebpf4jnsgd1na2vs0mg"},{"bike_id":"4b3ee659-c611-4b6b-b0cf-af5b6828121a","system_id":"levelo_inurba_marseille","lat":43.296131,"lon":5.370791,"is_reserved":false,"is_disabled":false,"rental_uris":{"android":"levelo://app?vid=4b3ee659-c611-4b6b-b0cf-af5b6828121a","ios":"levelo://app?vid=4b3ee659-c611-4b6b-b0cf-af5b6828121a"},"vehicle_type_id":"4","last_reported":1717441640,"current_range_meters":0,"station_id":"ce4bgnh2rcd13ifvqc0g","pricing_plan_id":"cebpf4jnsgd1na2vs0mg"},{"bike_id":"bf2fe413-f63c-4a64-9e6f-3c4f96b11631","system_id":"levelo_inurba_marseille","lat":43.29579,"lon":5.36748,"is_reserved":false,"is_disabled":false,"rental_uris":{"android":"levelo://app?vid=bf2fe413-f63c-4a64-9e6f-3c4f96b11631","ios":"levelo://app?vid=bf2fe413-f63c-4a64-9e6f-3c4f96b11631"},"vehicle_type_id":"4","last_reported":1717441640,"current_range_meters":0,"station_id":"ce4bgph2rcd13ifvqc2g","pricing_plan_id":"cebpf4jnsgd1na2vs0mg"},{"bike_id":"bd5a4184-402a-4131-ae37-86366984eb6f","system_id":"levelo_inurba_marseille","lat":43.323593,"lon":5.384948,"is_reserved":false,"is_disabled":false,"rental_uris":{"android":"levelo://app?vid=bd5a4184-402a-4131-ae37-86366984eb6f","ios":"levelo://app?vid=bd5a4184-402a-4131-ae37-86366984eb6f"},"vehicle_type_id":"4","last_reported":1717441640,"current_range_meters":0,"station_id":"","pricing_plan_id":"cebpf4jnsgd1na2vs0mg"},{"bike_id":"9d578c1c-2ec5-4788-a2f5-45d50cd9a152","system_id":"levelo_inurba_marseille","lat":43.299028,"lon":5.381509,"is_reserved":false,"is_disabled":false,"rental_uris":{"android":"levelo://app?vid=9d578c1c-2ec5-4788-a2f5-45d50cd9a152","ios":"levelo://app?vid=9d578c1c-2ec5-4788-a2f5-45d50cd9a152"},"vehicle_type_id":"4","last_reported":1717441640,"current_range_meters":1200,"station_id":"ce4bgj12rcd13ifvqbc0","pricing_plan_id":"cebpf4jnsgd1na2vs0mg"},{"bike_id":"1b99b27f-85fa-4747-b190-ab8d712e5964","system_id":"levelo_inurba_marseille","lat":43.317557,"lon":5.390173,"is_reserved":false,"is_disabled":false,"rental_uris":{"android":"levelo://app?vid=1b99b27f-85fa-4747-b190-ab8d712e5964","ios":"levelo://app?vid=1b99b27f-85fa-4747-b190-ab8d712e5964"},"vehicle_type_id":"4","last_reported":1717441640,"current_range_meters":3200,"station_id":"ce4bhqp2rcd13ifvqhng","pricing_plan_id":"cebpf4jnsgd1na2vs0mg"},{"bike_id":"4220e567-e4b7-45d4-a02f-22e3db8c3610","system_id":"levelo_inurba_marseille","lat":43.317568,"lon":5.390198,"is_reserved":false,"is_disabled":false,"rental_uris":{"android":"levelo://app?vid=4220e567-e4b7-45d4-a02f-22e3db8c3610","ios":"levelo://app?vid=4220e567-e4b7-45d4-a02f-22e3db8c3610"},"vehicle_type_id":"4","last_reported":1717441640,"current_range_meters":0,"station_id":"ce4bhqp2rcd13ifvqhng","pricing_plan_id":"cebpf4jnsgd1na2vs0mg"},{"bike_id":"53f73770-7e22-453d-bfb6-0674642033fc","system_id":"levelo_inurba_marseille","lat":43.317557,"lon":5.390173,"is_reserved":false,"is_disabled":false,"rental_uris":{"android":"levelo://app?vid=53f73770-7e22-453d-bfb6-0674642033fc","ios":"levelo://app?vid=53f73770-7e22-453d-bfb6-0674642033fc"},"vehicle_type_id":"4","last_reported":1717441640,"current_range_meters":14800,"station_id":"ce4bhqp2rcd13ifvqhng","pricing_plan_id":"cebpf4jnsgd1na2vs0mg"},{"bike_id":"37c4cb9d-f72e-419b-850d-787055b10da1","system_id":"levelo_inurba_marseille","lat":43.299365,"lon":5.383517,"is_reserved":false,"is_disabled":false,"rental_uris":{"android":"levelo://app?vid=37c4cb9d-f72e-419b-850d-787055b10da1","ios":"levelo://app?vid=37c4cb9d-f72e-419b-850d-787055b10da1"},"vehicle_type_id":"4","last_reported":1717441640,"current_range_meters":19200,"station_id":"","pricing_plan_id":"cebpf4jnsgd1na2vs0mg"},{"bike_id":"dbf508e1-6664-48a1-83d9-4ea043e1e150","system_id":"levelo_inurba_marseille","lat":43.304278,"lon":5.388868,"is_reserved":false,"is_disabled":false,"rental_uris":{"android":"levelo://app?vid=dbf508e1-6664-48a1-83d9-4ea043e1e150","ios":"levelo://app?vid=dbf508e1-6664-48a1-83d9-4ea043e1e150"},"vehicle_type_id":"4","last_reported":1717441640,"current_range_meters":22400,"station_id":"ce4bgk12rcd13ifvqbi0","pricing_plan_id":"cebpf4jnsgd1na2vs0mg"},{"bike_id":"1b010fca-ab02-4c41-8c3d-0a64635a0147","system_id":"levelo_inurba_marseille","lat":43.304274,"lon":5.388873,"is_reserved":false,"is_disabled":false,"rental_uris":{"android":"levelo://app?vid=1b010fca-ab02-4c41-8c3d-0a64635a0147","ios":"levelo://app?vid=1b010fca-ab02-4c41-8c3d-0a64635a0147"},"vehicle_type_id":"4","last_reported":1717441640,"current_range_meters":17200,"station_id":"ce4bgk12rcd13ifvqbi0","pricing_plan_id":"cebpf4jnsgd1na2vs0mg"},{"bike_id":"f966ba66-7e85-4aaa-8547-c0fa3dfecf38","system_id":"levelo_inurba_marseille","lat":43.323464,"lon":5.406297,"is_reserved":false,"is_disabled":false,"rental_uris":{"android":"levelo://app?vid=f966ba66-7e85-4aaa-8547-c0fa3dfecf38","ios":"levelo://app?vid=f966ba66-7e85-4aaa-8547-c0fa3dfecf38"},"vehicle_type_id":"4","last_reported":1717441640,"current_range_meters":6400,"station_id":"ce4bhq92rcd13ifvqhjg","pricing_plan_id":"cebpf4jnsgd1na2vs0mg"},{"bike_id":"cd5d6f80-2662-4f31-950b-e0a06d4e41f2","system_id":"levelo_inurba_marseille","lat":43.29611,"lon":5.37713,"is_reserved":false,"is_disabled":false,"rental_uris":{"android":"levelo://app?vid=cd5d6f80-2662-4f31-950b-e0a06d4e41f2","ios":"levelo://app?vid=cd5d6f80-2662-4f31-950b-e0a06d4e41f2"},"vehicle_type_id":"4","last_reported":1717441640,"current_range_meters":4400,"station_id":"ce4bgi92rcd13ifvqb90","pricing_plan_id":"cebpf4jnsgd1na2vs0mg"},{"bike_id":"bba62ce6-e583-4244-9cc7-340fbee098b1","system_id":"levelo_inurba_marseille","lat":43.29531,"lon":5.37451,"is_reserved":false,"is_disabled":false,"rental_uris":{"android":"levelo://app?vid=bba62ce6-e583-4244-9cc7-340fbee098b1","ios":"levelo://app?vid=bba62ce6-e583-4244-9cc7-340fbee098b1"},"vehicle_type_id":"4","last_reported":1717441640,"current_range_meters":0,"station_id":"ce4bgkp2rcd13ifvqbmg","pricing_plan_id":"cebpf4jnsgd1na2vs0mg"},{"bike_id":"a2459bca-0ef0-41d3-99e9-2cb4d706415f","system_id":"levelo_inurba_marseille","lat":43.296156,"lon":5.377548,"is_reserved":false,"is_disabled":false,"rental_uris":{"android":"levelo://app?vid=a2459bca-0ef0-41d3-99e9-2cb4d706415f","ios":"levelo://app?vid=a2459bca-0ef0-41d3-99e9-2cb4d706415f"},"vehicle_type_id":"4","last_reported":1717441640,"current_range_meters":29600,"station_id":"ce4bgi92rcd13ifvqb90","pricing_plan_id":"cebpf4jnsgd1na2vs0mg"},{"bike_id":"b912035c-e4ec-4322-b896-83a3ddf704ed","system_id":"levelo_inurba_marseille","lat":43.295279,"lon":5.375048,"is_reserved":false,"is_disabled":false,"rental_uris":{"android":"levelo://app?vid=b912035c-e4ec-4322-b896-83a3ddf704ed","ios":"levelo://app?vid=b912035c-e4ec-4322-b896-83a3ddf704ed"},"vehicle_type_id":"4","last_reported":1717441640,"current_range_meters":0,"station_id":"ce4bgkp2rcd13ifvqbmg","pricing_plan_id":"cebpf4jnsgd1na2vs0mg"},{"bike_id":"a09ea126-f458-4a46-b065-b95ce2418c8e","system_id":"levelo_inurba_marseille","lat":43.295279,"lon":5.375048,"is_reserved":false,"is_disabled":false,"rental_uris":{"android":"levelo://app?vid=a09ea126-f458-4a46-b065-b95ce2418c8e","ios":"levelo://app?vid=a09ea126-f458-4a46-b065-b95ce2418c8e"},"vehicle_type_id":"4","last_reported":1717441640,"current_range_meters":800,"station_id":"ce4bgkp2rcd13ifvqbmg","pricing_plan_id":"cebpf4jnsgd1na2vs0mg"},{"bike_id":"48117acc-d309-4b04-8a56-eeef6b8ed074","system_id":"levelo_inurba_marseille","lat":43.29969,"lon":5.38493,"is_reserved":false,"is_disabled":false,"rental_uris":{"android":"levelo://app?vid=48117acc-d309-4b04-8a56-eeef6b8ed074","ios":"levelo://app?vid=48117acc-d309-4b04-8a56-eeef6b8ed074"},"vehicle_type_id":"4","last_reported":1717441640,"current_range_meters":0,"station_id":"ce4bgj92rcd13ifvqbd0","pricing_plan_id":"cebpf4jnsgd1na2vs0mg"},{"bike_id":"e557b8f3-67ee-4bee-a7fc-633b2ab48678","system_id":"levelo_inurba_marseille","lat":43.299717,"lon":5.384845,"is_reserved":false,"is_disabled":false,"rental_uris":{"android":"levelo://app?vid=e557b8f3-67ee-4bee-a7fc-633b2ab48678","ios":"levelo://app?vid=e557b8f3-67ee-4bee-a7fc-633b2ab48678"},"vehicle_type_id":"4","last_reported":1717441640,"current_range_meters":9600,"station_id":"ce4bgj92rcd13ifvqbd0","pricing_plan_id":"cebpf4jnsgd1na2vs0mg"},{"bike_id":"0e9d0b40-a16f-462b-b554-eb98bdd7af8f","system_id":"levelo_inurba_marseille","lat":43.29661,"lon":5.37962,"is_reserved":false,"is_disabled":false,"rental_uris":{"android":"levelo://app?vid=0e9d0b40-a16f-462b-b554-eb98bdd7af8f","ios":"levelo://app?vid=0e9d0b40-a16f-462b-b554-eb98bdd7af8f"},"vehicle_type_id":"4","last_reported":1717441640,"current_range_meters":18000,"station_id":"","pricing_plan_id":"cebpf4jnsgd1na2vs0mg"},{"bike_id":"598f2fbc-f381-4672-b3ae-043a293168fa","system_id":"levelo_inurba_marseille","lat":43.299717,"lon":5.384845,"is_reserved":false,"is_disabled":false,"rental_uris":{"android":"levelo://app?vid=598f2fbc-f381-4672-b3ae-043a293168fa","ios":"levelo://app?vid=598f2fbc-f381-4672-b3ae-043a293168fa"},"vehicle_type_id":"4","last_reported":1717441640,"current_range_meters":11600,"station_id":"ce4bgj92rcd13ifvqbd0","pricing_plan_id":"cebpf4jnsgd1na2vs0mg"},{"bike_id":"06a6853c-e4c2-4603-9ed1-4a9c3e8ef55b","system_id":"levelo_inurba_marseille","lat":43.31048,"lon":5.3931,"is_reserved":false,"is_disabled":false,"rental_uris":{"android":"levelo://app?vid=06a6853c-e4c2-4603-9ed1-4a9c3e8ef55b","ios":"levelo://app?vid=06a6853c-e4c2-4603-9ed1-4a9c3e8ef55b"},"vehicle_type_id":"4","last_reported":1717441640,"current_range_meters":4400,"station_id":"","pricing_plan_id":"cebpf4jnsgd1na2vs0mg"},{"bike_id":"95310373-a3bc-4266-9cf1-a267850db416","system_id":"levelo_inurba_marseille","lat":43.312025,"lon":5.393697,"is_reserved":false,"is_disabled":false,"rental_uris":{"android":"levelo://app?vid=95310373-a3bc-4266-9cf1-a267850db416","ios":"levelo://app?vid=95310373-a3bc-4266-9cf1-a267850db416"},"vehicle_type_id":"4","last_reported":1717441640,"current_range_meters":6000,"station_id":"","pricing_plan_id":"cebpf4jnsgd1na2vs0mg"},{"bike_id":"562be6d0-cc9b-46d3-b46e-4eceac3a103b","system_id":"levelo_inurba_marseille","lat":43.29602,"lon":5.381084,"is_reserved":false,"is_disabled":false,"rental_uris":{"android":"levelo://app?vid=562be6d0-cc9b-46d3-b46e-4eceac3a103b","ios":"levelo://app?vid=562be6d0-cc9b-46d3-b46e-4eceac3a103b"},"vehicle_type_id":"4","last_reported":1717441640,"current_range_meters":21600,"station_id":"ce4bgl12rcd13ifvqbo0","pricing_plan_id":"cebpf4jnsgd1na2vs0mg"},{"bike_id":"25bca815-d6b6-43e5-8e1b-47bbc0cd595c","system_id":"levelo_inurba_marseille","lat":43.29602,"lon":5.381084,"is_reserved":false,"is_disabled":false,"rental_uris":{"android":"levelo://app?vid=25bca815-d6b6-43e5-8e1b-47bbc0cd595c","ios":"levelo://app?vid=25bca815-d6b6-43e5-8e1b-47bbc0cd595c"},"vehicle_type_id":"4","last_reported":1717441640,"current_range_meters":21600,"station_id":"ce4bgl12rcd13ifvqbo0","pricing_plan_id":"cebpf4jnsgd1na2vs0mg"},{"bike_id":"7de0c050-758f-48d8-81c7-110b4172ea91","system_id":"levelo_inurba_marseille","lat":43.296001,"lon":5.38091,"is_reserved":false,"is_disabled":false,"rental_uris":{"android":"levelo://app?vid=7de0c050-758f-48d8-81c7-110b4172ea91","ios":"levelo://app?vid=7de0c050-758f-48d8-81c7-110b4172ea91"},"vehicle_type_id":"4","last_reported":1717441640,"current_range_meters":29600,"station_id":"ce4bgl12rcd13ifvqbo0","pricing_plan_id":"cebpf4jnsgd1na2vs0mg"},{"bike_id":"443d1c30-2659-4e21-b915-15736bba54d2","system_id":"levelo_inurba_marseille","lat":43.293259,"lon":5.371586,"is_reserved":false,"is_disabled":false,"rental_uris":{"android":"levelo://app?vid=443d1c30-2659-4e21-b915-15736bba54d2","ios":"levelo://app?vid=443d1c30-2659-4e21-b915-15736bba54d2"},"vehicle_type_id":"4","last_reported":1717441640,"current_range_meters":4000,"station_id":"ce4bgh92rcd13ifvqb40","pricing_plan_id":"cebpf4jnsgd1na2vs0mg"},{"bike_id":"20d2be00-1f96-4009-a9f8-1c3c67ee9f11","system_id":"levelo_inurba_marseille","lat":43.30248,"lon":5.39045,"is_reserved":false,"is_disabled":false,"rental_uris":{"android":"levelo://app?vid=20d2be00-1f96-4009-a9f8-1c3c67ee9f11","ios":"levelo://app?vid=20d2be00-1f96-4009-a9f8-1c3c67ee9f11"},"vehicle_type_id":"4","last_reported":1717441640,"current_range_meters":0,"station_id":"","pricing_plan_id":"cebpf4jnsgd1na2vs0mg"},{"bike_id":"6c71bc0a-56e0-4714-a147-f9d534e5cbaf","system_id":"levelo_inurba_marseille","lat":43.29274,"lon":5.3684,"is_reserved":false,"is_disabled":false,"rental_uris":{"android":"levelo://app?vid=6c71bc0a-56e0-4714-a147-f9d534e5cbaf","ios":"levelo://app?vid=6c71bc0a-56e0-4714-a147-f9d534e5cbaf"},"vehicle_type_id":"4","last_reported":1717441640,"current_range_meters":0,"station_id":"ce4bhbp2rcd13ifvqesg","pricing_plan_id":"cebpf4jnsgd1na2vs0mg"},{"bike_id":"517bb935-fb76-4e78-8e2d-492a03e5d954","system_id":"levelo_inurba_marseille","lat":43.305994,"lon":5.393687,"is_reserved":false,"is_disabled":false,"rental_uris":{"android":"levelo://app?vid=517bb935-fb76-4e78-8e2d-492a03e5d954","ios":"levelo://app?vid=517bb935-fb76-4e78-8e2d-492a03e5d954"},"vehicle_type_id":"4","last_reported":1717441640,"current_range_meters":800,"station_id":"ce4bh0p2rcd13ifvqd80","pricing_plan_id":"cebpf4jnsgd1na2vs0mg"},{"bike_id":"ed409449-b75a-44f2-8f14-ab6a5f0aae93","system_id":"levelo_inurba_marseille","lat":43.293009,"lon":5.374584,"is_reserved":false,"is_disabled":false,"rental_uris":{"android":"levelo://app?vid=ed409449-b75a-44f2-8f14-ab6a5f0aae93","ios":"levelo://app?vid=ed409449-b75a-44f2-8f14-ab6a5f0aae93"},"vehicle_type_id":"4","last_reported":1717441640,"current_range_meters":800,"station_id":"ce4bgi12rcd13ifvqb70","pricing_plan_id":"cebpf4jnsgd1na2vs0mg"},{"bike_id":"c5251244-0534-4491-a734-3be2be9a6034","system_id":"levelo_inurba_marseille","lat":43.293009,"lon":5.374584,"is_reserved":false,"is_disabled":false,"rental_uris":{"android":"levelo://app?vid=c5251244-0534-4491-a734-3be2be9a6034","ios":"levelo://app?vid=c5251244-0534-4491-a734-3be2be9a6034"},"vehicle_type_id":"4","last_reported":1717441640,"current_range_meters":1200,"station_id":"ce4bgi12rcd13ifvqb70","pricing_plan_id":"cebpf4jnsgd1na2vs0mg"},{"bike_id":"49fe8cbf-b2c8-4b36-9e02-01643f7aaee3","system_id":"levelo_inurba_marseille","lat":43.302987,"lon":5.391806,"is_reserved":false,"is_disabled":false,"rental_uris":{"android":"levelo://app?vid=49fe8cbf-b2c8-4b36-9e02-01643f7aaee3","ios":"levelo://app?vid=49fe8cbf-b2c8-4b36-9e02-01643f7aaee3"},"vehicle_type_id":"4","last_reported":1717441640,"current_range_meters":0,"station_id":"ce4bgkh2rcd13ifvqbk0","pricing_plan_id":"cebpf4jnsgd1na2vs0mg"},{"bike_id":"e30effdc-a75c-4852-b5a8-6ea6d46e20c2","system_id":"levelo_inurba_marseille","lat":43.305994,"lon":5.393687,"is_reserved":false,"is_disabled":false,"rental_uris":{"android":"levelo://app?vid=e30effdc-a75c-4852-b5a8-6ea6d46e20c2","ios":"levelo://app?vid=e30effdc-a75c-4852-b5a8-6ea6d46e20c2"},"vehicle_type_id":"4","last_reported":1717441640,"current_range_meters":25200,"station_id":"ce4bh0p2rcd13ifvqd80","pricing_plan_id":"cebpf4jnsgd1na2vs0mg"},{"bike_id":"ac5f8d76-6e85-40dc-92ef-97293e1b03cb","system_id":"levelo_inurba_marseille","lat":43.303002,"lon":5.392142,"is_reserved":false,"is_disabled":false,"rental_uris":{"android":"levelo://app?vid=ac5f8d76-6e85-40dc-92ef-97293e1b03cb","ios":"levelo://app?vid=ac5f8d76-6e85-40dc-92ef-97293e1b03cb"},"vehicle_type_id":"4","last_reported":1717441640,"current_range_meters":0,"station_id":"ce4bgkh2rcd13ifvqbk0","pricing_plan_id":"cebpf4jnsgd1na2vs0mg"},{"bike_id":"dc68e4d7-30ce-4d08-9aff-312acaa43c57","system_id":"levelo_inurba_marseille","lat":43.298764,"lon":5.388973,"is_reserved":false,"is_disabled":false,"rental_uris":{"android":"levelo://app?vid=dc68e4d7-30ce-4d08-9aff-312acaa43c57","ios":"levelo://app?vid=dc68e4d7-30ce-4d08-9aff-312acaa43c57"},"vehicle_type_id":"4","last_reported":1717441640,"current_range_meters":12000,"station_id":"ce4bh392rcd13ifvqdl0","pricing_plan_id":"cebpf4jnsgd1na2vs0mg"},{"bike_id":"3d52a4d4-16b8-4e4f-b348-741f29bd2463","system_id":"levelo_inurba_marseille","lat":43.2936,"lon":5.37835,"is_reserved":false,"is_disabled":false,"rental_uris":{"android":"levelo://app?vid=3d52a4d4-16b8-4e4f-b348-741f29bd2463","ios":"levelo://app?vid=3d52a4d4-16b8-4e4f-b348-741f29bd2463"},"vehicle_type_id":"4","last_reported":1717441640,"current_range_meters":2000,"station_id":"ce4bgjh2rcd13ifvqbf0","pricing_plan_id":"cebpf4jnsgd1na2vs0mg"},{"bike_id":"575af705-76cf-4420-b63e-9f16892b4aca","system_id":"levelo_inurba_marseille","lat":43.305994,"lon":5.393687,"is_reserved":false,"is_disabled":false,"rental_uris":{"android":"levelo://app?vid=575af705-76cf-4420-b63e-9f16892b4aca","ios":"levelo://app?vid=575af705-76cf-4420-b63e-9f16892b4aca"},"vehicle_type_id":"4","last_reported":1717441640,"current_range_meters":5200,"station_id":"ce4bh0p2rcd13ifvqd80","pricing_plan_id":"cebpf4jnsgd1na2vs0mg"},{"bike_id":"8ae9b703-e978-4a16-bd88-536687c40732","system_id":"levelo_inurba_marseille","lat":43.30337,"lon":5.39252,"is_reserved":false,"is_disabled":false,"rental_uris":{"android":"levelo://app?vid=8ae9b703-e978-4a16-bd88-536687c40732","ios":"levelo://app?vid=8ae9b703-e978-4a16-bd88-536687c40732"},"vehicle_type_id":"4","last_reported":1717441640,"current_range_meters":8400,"station_id":"","pricing_plan_id":"cebpf4jnsgd1na2vs0mg"},{"bike_id":"421d44b4-e00d-46cd-ba1a-931ef55e1514","system_id":"levelo_inurba_marseille","lat":43.292311,"lon":5.360731,"is_reserved":false,"is_disabled":false,"rental_uris":{"android":"levelo://app?vid=421d44b4-e00d-46cd-ba1a-931ef55e1514","ios":"levelo://app?vid=421d44b4-e00d-46cd-ba1a-931ef55e1514"},"vehicle_type_id":"4","last_reported":1717441640,"current_range_meters":29200,"station_id":"ce4bhbh2rcd13ifvqeqg","pricing_plan_id":"cebpf4jnsgd1na2vs0mg"},{"bike_id":"916c5c58-d3e9-4213-a157-cc8b842c3b06","system_id":"levelo_inurba_marseille","lat":43.292311,"lon":5.360731,"is_reserved":false,"is_disabled":false,"rental_uris":{"android":"levelo://app?vid=916c5c58-d3e9-4213-a157-cc8b842c3b06","ios":"levelo://app?vid=916c5c58-d3e9-4213-a157-cc8b842c3b06"},"vehicle_type_id":"4","last_reported":1717441640,"current_range_meters":31200,"station_id":"ce4bhbh2rcd13ifvqeqg","pricing_plan_id":"cebpf4jnsgd1na2vs0mg"},{"bike_id":"ec0838e9-6640-4f9c-9346-7d0b5b80d403","system_id":"levelo_inurba_marseille","lat":43.292311,"lon":5.360731,"is_reserved":false,"is_disabled":false,"rental_uris":{"android":"levelo://app?vid=ec0838e9-6640-4f9c-9346-7d0b5b80d403","ios":"levelo://app?vid=ec0838e9-6640-4f9c-9346-7d0b5b80d403"},"vehicle_type_id":"4","last_reported":1717441640,"current_range_meters":24000,"station_id":"ce4bhbh2rcd13ifvqeqg","pricing_plan_id":"cebpf4jnsgd1na2vs0mg"},{"bike_id":"7adb847f-edf0-470b-b6c2-556bedbb4c86","system_id":"levelo_inurba_marseille","lat":43.30085,"lon":5.390856,"is_reserved":false,"is_disabled":false,"rental_uris":{"android":"levelo://app?vid=7adb847f-edf0-470b-b6c2-556bedbb4c86","ios":"levelo://app?vid=7adb847f-edf0-470b-b6c2-556bedbb4c86"},"vehicle_type_id":"4","last_reported":1717441640,"current_range_meters":23600,"station_id":"ce4bh192rcd13ifvqdb0","pricing_plan_id":"cebpf4jnsgd1na2vs0mg"},{"bike_id":"686d3e12-42c3-4ad5-b877-c24e0e953377","system_id":"levelo_inurba_marseille","lat":43.292311,"lon":5.360731,"is_reserved":false,"is_disabled":false,"rental_uris":{"android":"levelo://app?vid=686d3e12-42c3-4ad5-b877-c24e0e953377","ios":"levelo://app?vid=686d3e12-42c3-4ad5-b877-c24e0e953377"},"vehicle_type_id":"4","last_reported":1717441640,"current_range_meters":29600,"station_id":"ce4bhbh2rcd13ifvqeqg","pricing_plan_id":"cebpf4jnsgd1na2vs0mg"},{"bike_id":"dca2068a-2929-4430-b351-ab82c4a25553","system_id":"levelo_inurba_marseille","lat":43.30085,"lon":5.390856,"is_reserved":false,"is_disabled":false,"rental_uris":{"android":"levelo://app?vid=dca2068a-2929-4430-b351-ab82c4a25553","ios":"levelo://app?vid=dca2068a-2929-4430-b351-ab82c4a25553"},"vehicle_type_id":"4","last_reported":1717441640,"current_range_meters":0,"station_id":"ce4bh192rcd13ifvqdb0","pricing_plan_id":"cebpf4jnsgd1na2vs0mg"},{"bike_id":"e3f92a40-ae2e-48bd-a91b-57e4181b5c60","system_id":"levelo_inurba_marseille","lat":43.302348,"lon":5.392248,"is_reserved":false,"is_disabled":false,"rental_uris":{"android":"levelo://app?vid=e3f92a40-ae2e-48bd-a91b-57e4181b5c60","ios":"levelo://app?vid=e3f92a40-ae2e-48bd-a91b-57e4181b5c60"},"vehicle_type_id":"4","last_reported":1717441640,"current_range_meters":0,"station_id":"ce4bgkh2rcd13ifvqbk0","pricing_plan_id":"cebpf4jnsgd1na2vs0mg"},{"bike_id":"7747193d-c6ea-4aad-bb9f-ac7473bf3c4e","system_id":"levelo_inurba_marseille","lat":43.30085,"lon":5.390856,"is_reserved":false,"is_disabled":false,"rental_uris":{"android":"levelo://app?vid=7747193d-c6ea-4aad-bb9f-ac7473bf3c4e","ios":"levelo://app?vid=7747193d-c6ea-4aad-bb9f-ac7473bf3c4e"},"vehicle_type_id":"4","last_reported":1717441640,"current_range_meters":12400,"station_id":"ce4bh192rcd13ifvqdb0","pricing_plan_id":"cebpf4jnsgd1na2vs0mg"},{"bike_id":"151ddbd5-7ca1-4da5-afaa-5a92dd8b52dd","system_id":"levelo_inurba_marseille","lat":43.29879,"lon":5.38903,"is_reserved":false,"is_disabled":false,"rental_uris":{"android":"levelo://app?vid=151ddbd5-7ca1-4da5-afaa-5a92dd8b52dd","ios":"levelo://app?vid=151ddbd5-7ca1-4da5-afaa-5a92dd8b52dd"},"vehicle_type_id":"4","last_reported":1717441640,"current_range_meters":0,"station_id":"ce4bh392rcd13ifvqdl0","pricing_plan_id":"cebpf4jnsgd1na2vs0mg"},{"bike_id":"7d6f6b7f-ac2b-4865-91c0-d136be56d7cc","system_id":"levelo_inurba_marseille","lat":43.29884,"lon":5.38909,"is_reserved":false,"is_disabled":false,"rental_uris":{"android":"levelo://app?vid=7d6f6b7f-ac2b-4865-91c0-d136be56d7cc","ios":"levelo://app?vid=7d6f6b7f-ac2b-4865-91c0-d136be56d7cc"},"vehicle_type_id":"4","last_reported":1717441640,"current_range_meters":0,"station_id":"ce4bh392rcd13ifvqdl0","pricing_plan_id":"cebpf4jnsgd1na2vs0mg"},{"bike_id":"aa46cce9-f5d1-4626-93f9-b03368994470","system_id":"levelo_inurba_marseille","lat":43.29179,"lon":5.37253,"is_reserved":false,"is_disabled":false,"rental_uris":{"android":"levelo://app?vid=aa46cce9-f5d1-4626-93f9-b03368994470","ios":"levelo://app?vid=aa46cce9-f5d1-4626-93f9-b03368994470"},"vehicle_type_id":"4","last_reported":1717441640,"current_range_meters":13200,"station_id":"","pricing_plan_id":"cebpf4jnsgd1na2vs0mg"},{"bike_id":"d688f50f-22e8-4df3-bb49-35480b9a60b1","system_id":"levelo_inurba_marseille","lat":43.302008,"lon":5.394694,"is_reserved":false,"is_disabled":false,"rental_uris":{"android":"levelo://app?vid=d688f50f-22e8-4df3-bb49-35480b9a60b1","ios":"levelo://app?vid=d688f50f-22e8-4df3-bb49-35480b9a60b1"},"vehicle_type_id":"4","last_reported":1717441640,"current_range_meters":3200,"station_id":"ce4bh0p2rcd13ifvqd70","pricing_plan_id":"cebpf4jnsgd1na2vs0mg"},{"bike_id":"e4d3f24f-099d-4348-b14f-9beed459606a","system_id":"levelo_inurba_marseille","lat":43.298798,"lon":5.389148,"is_reserved":false,"is_disabled":false,"rental_uris":{"android":"levelo://app?vid=e4d3f24f-099d-4348-b14f-9beed459606a","ios":"levelo://app?vid=e4d3f24f-099d-4348-b14f-9beed459606a"},"vehicle_type_id":"4","last_reported":1717441640,"current_range_meters":0,"station_id":"ce4bh392rcd13ifvqdl0","pricing_plan_id":"cebpf4jnsgd1na2vs0mg"},{"bike_id":"59589459-c335-445c-8442-16879bf97bcf","system_id":"levelo_inurba_marseille","lat":43.29877,"lon":5.38915,"is_reserved":false,"is_disabled":false,"rental_uris":{"android":"levelo://app?vid=59589459-c335-445c-8442-16879bf97bcf","ios":"levelo://app?vid=59589459-c335-445c-8442-16879bf97bcf"},"vehicle_type_id":"4","last_reported":1717441640,"current_range_meters":0,"station_id":"ce4bh392rcd13ifvqdl0","pricing_plan_id":"cebpf4jnsgd1na2vs0mg"},{"bike_id":"2c6da825-f0be-4c73-8f41-6a2cc7a3caa8","system_id":"levelo_inurba_marseille","lat":43.298764,"lon":5.388973,"is_reserved":false,"is_disabled":false,"rental_uris":{"android":"levelo://app?vid=2c6da825-f0be-4c73-8f41-6a2cc7a3caa8","ios":"levelo://app?vid=2c6da825-f0be-4c73-8f41-6a2cc7a3caa8"},"vehicle_type_id":"4","last_reported":1717441640,"current_range_meters":0,"station_id":"ce4bh392rcd13ifvqdl0","pricing_plan_id":"cebpf4jnsgd1na2vs0mg"},{"bike_id":"b811fbac-ad93-44e7-b6ce-80d6d8e10cf0","system_id":"levelo_inurba_marseille","lat":43.313291,"lon":5.396838,"is_reserved":false,"is_disabled":false,"rental_uris":{"android":"levelo://app?vid=b811fbac-ad93-44e7-b6ce-80d6d8e10cf0","ios":"levelo://app?vid=b811fbac-ad93-44e7-b6ce-80d6d8e10cf0"},"vehicle_type_id":"4","last_reported":1717441640,"current_range_meters":26800,"station_id":"ce4bgvp2rcd13ifvqcu0","pricing_plan_id":"cebpf4jnsgd1na2vs0mg"},{"bike_id":"fd58661c-9b46-4691-a6b2-9fbed91972d8","system_id":"levelo_inurba_marseille","lat":43.309038,"lon":5.396546,"is_reserved":false,"is_disabled":false,"rental_uris":{"android":"levelo://app?vid=fd58661c-9b46-4691-a6b2-9fbed91972d8","ios":"levelo://app?vid=fd58661c-9b46-4691-a6b2-9fbed91972d8"},"vehicle_type_id":"4","last_reported":1717441640,"current_range_meters":0,"station_id":"ce4bh012rcd13ifvqcv0","pricing_plan_id":"cebpf4jnsgd1na2vs0mg"},{"bike_id":"9fca102d-928f-4e6e-9ba7-1fb47387338f","system_id":"levelo_inurba_marseille","lat":43.292005,"lon":5.357875,"is_reserved":false,"is_disabled":false,"rental_uris":{"android":"levelo://app?vid=9fca102d-928f-4e6e-9ba7-1fb47387338f","ios":"levelo://app?vid=9fca102d-928f-4e6e-9ba7-1fb47387338f"},"vehicle_type_id":"4","last_reported":1717441640,"current_range_meters":31200,"station_id":"ce4bhb12rcd13ifvqel0","pricing_plan_id":"cebpf4jnsgd1na2vs0mg"},{"bike_id":"094d05b8-f655-4cd4-9d8f-a95d5ede42d0","system_id":"levelo_inurba_marseille","lat":43.292005,"lon":5.357875,"is_reserved":false,"is_disabled":false,"rental_uris":{"android":"levelo://app?vid=094d05b8-f655-4cd4-9d8f-a95d5ede42d0","ios":"levelo://app?vid=094d05b8-f655-4cd4-9d8f-a95d5ede42d0"},"vehicle_type_id":"4","last_reported":1717441640,"current_range_meters":28000,"station_id":"ce4bhb12rcd13ifvqel0","pricing_plan_id":"cebpf4jnsgd1na2vs0mg"},{"bike_id":"017333c9-960f-4929-8981-cca828fd84c0","system_id":"levelo_inurba_marseille","lat":43.292005,"lon":5.357875,"is_reserved":false,"is_disabled":false,"rental_uris":{"android":"levelo://app?vid=017333c9-960f-4929-8981-cca828fd84c0","ios":"levelo://app?vid=017333c9-960f-4929-8981-cca828fd84c0"},"vehicle_type_id":"4","last_reported":1717441640,"current_range_meters":27600,"station_id":"ce4bhb12rcd13ifvqel0","pricing_plan_id":"cebpf4jnsgd1na2vs0mg"},{"bike_id":"4546dcd5-5295-4816-b887-17e12ba9ae37","system_id":"levelo_inurba_marseille","lat":43.291994,"lon":5.357886,"is_reserved":false,"is_disabled":false,"rental_uris":{"android":"levelo://app?vid=4546dcd5-5295-4816-b887-17e12ba9ae37","ios":"levelo://app?vid=4546dcd5-5295-4816-b887-17e12ba9ae37"},"vehicle_type_id":"4","last_reported":1717441640,"current_range_meters":31200,"station_id":"ce4bhb12rcd13ifvqel0","pricing_plan_id":"cebpf4jnsgd1na2vs0mg"},{"bike_id":"b0da02aa-6e2e-404d-b847-3c9c4c12d0de","system_id":"levelo_inurba_marseille","lat":43.291994,"lon":5.357886,"is_reserved":false,"is_disabled":false,"rental_uris":{"android":"levelo://app?vid=b0da02aa-6e2e-404d-b847-3c9c4c12d0de","ios":"levelo://app?vid=b0da02aa-6e2e-404d-b847-3c9c4c12d0de"},"vehicle_type_id":"4","last_reported":1717441640,"current_range_meters":23600,"station_id":"ce4bhb12rcd13ifvqel0","pricing_plan_id":"cebpf4jnsgd1na2vs0mg"},{"bike_id":"1d95e04b-a372-4d75-bfc3-516f8b37cfdd","system_id":"levelo_inurba_marseille","lat":43.291944,"lon":5.358009,"is_reserved":false,"is_disabled":false,"rental_uris":{"android":"levelo://app?vid=1d95e04b-a372-4d75-bfc3-516f8b37cfdd","ios":"levelo://app?vid=1d95e04b-a372-4d75-bfc3-516f8b37cfdd"},"vehicle_type_id":"4","last_reported":1717441640,"current_range_meters":30800,"station_id":"ce4bhb12rcd13ifvqel0","pricing_plan_id":"cebpf4jnsgd1na2vs0mg"},{"bike_id":"acc41039-28bc-4329-bcd2-c580c9a02c75","system_id":"levelo_inurba_marseille","lat":43.292005,"lon":5.357875,"is_reserved":false,"is_disabled":false,"rental_uris":{"android":"levelo://app?vid=acc41039-28bc-4329-bcd2-c580c9a02c75","ios":"levelo://app?vid=acc41039-28bc-4329-bcd2-c580c9a02c75"},"vehicle_type_id":"4","last_reported":1717441640,"current_range_meters":26400,"station_id":"ce4bhb12rcd13ifvqel0","pricing_plan_id":"cebpf4jnsgd1na2vs0mg"},{"bike_id":"3e58cec3-a0a2-4a13-97e6-4c773d54aeb4","system_id":"levelo_inurba_marseille","lat":43.309047,"lon":5.396551,"is_reserved":false,"is_disabled":false,"rental_uris":{"android":"levelo://app?vid=3e58cec3-a0a2-4a13-97e6-4c773d54aeb4","ios":"levelo://app?vid=3e58cec3-a0a2-4a13-97e6-4c773d54aeb4"},"vehicle_type_id":"4","last_reported":1717441640,"current_range_meters":13200,"station_id":"ce4bh012rcd13ifvqcv0","pricing_plan_id":"cebpf4jnsgd1na2vs0mg"},{"bike_id":"b7a9979a-6418-4b0a-b6e0-a3f898fadaf5","system_id":"levelo_inurba_marseille","lat":43.31333,"lon":5.39692,"is_reserved":false,"is_disabled":false,"rental_uris":{"android":"levelo://app?vid=b7a9979a-6418-4b0a-b6e0-a3f898fadaf5","ios":"levelo://app?vid=b7a9979a-6418-4b0a-b6e0-a3f898fadaf5"},"vehicle_type_id":"4","last_reported":1717441640,"current_range_meters":23200,"station_id":"ce4bgvp2rcd13ifvqcu0","pricing_plan_id":"cebpf4jnsgd1na2vs0mg"},{"bike_id":"5cb95b48-0a4d-4ff5-8f5d-2e4e9361d1c4","system_id":"levelo_inurba_marseille","lat":43.309047,"lon":5.396551,"is_reserved":false,"is_disabled":false,"rental_uris":{"android":"levelo://app?vid=5cb95b48-0a4d-4ff5-8f5d-2e4e9361d1c4","ios":"levelo://app?vid=5cb95b48-0a4d-4ff5-8f5d-2e4e9361d1c4"},"vehicle_type_id":"4","last_reported":1717441640,"current_range_meters":800,"station_id":"ce4bh012rcd13ifvqcv0","pricing_plan_id":"cebpf4jnsgd1na2vs0mg"},{"bike_id":"04d390bb-df88-4050-b396-f9ba4a6ee525","system_id":"levelo_inurba_marseille","lat":43.30884,"lon":5.39648,"is_reserved":false,"is_disabled":false,"rental_uris":{"android":"levelo://app?vid=04d390bb-df88-4050-b396-f9ba4a6ee525","ios":"levelo://app?vid=04d390bb-df88-4050-b396-f9ba4a6ee525"},"vehicle_type_id":"4","last_reported":1717441640,"current_range_meters":6400,"station_id":"ce4bh012rcd13ifvqcv0","pricing_plan_id":"cebpf4jnsgd1na2vs0mg"},{"bike_id":"01c3de49-38ae-4867-89b6-06ffde7a1adf","system_id":"levelo_inurba_marseille","lat":43.313291,"lon":5.396838,"is_reserved":false,"is_disabled":false,"rental_uris":{"android":"levelo://app?vid=01c3de49-38ae-4867-89b6-06ffde7a1adf","ios":"levelo://app?vid=01c3de49-38ae-4867-89b6-06ffde7a1adf"},"vehicle_type_id":"4","last_reported":1717441640,"current_range_meters":800,"station_id":"ce4bgvp2rcd13ifvqcu0","pricing_plan_id":"cebpf4jnsgd1na2vs0mg"},{"bike_id":"4d3c82a3-c6c6-4d5c-a61a-301f82f9bcdc","system_id":"levelo_inurba_marseille","lat":43.313291,"lon":5.396838,"is_reserved":false,"is_disabled":false,"rental_uris":{"android":"levelo://app?vid=4d3c82a3-c6c6-4d5c-a61a-301f82f9bcdc","ios":"levelo://app?vid=4d3c82a3-c6c6-4d5c-a61a-301f82f9bcdc"},"vehicle_type_id":"4","last_reported":1717441640,"current_range_meters":28000,"station_id":"ce4bgvp2rcd13ifvqcu0","pricing_plan_id":"cebpf4jnsgd1na2vs0mg"},{"bike_id":"f140e1a4-047b-460f-98ef-0a30ab7719c3","system_id":"levelo_inurba_marseille","lat":43.313291,"lon":5.396838,"is_reserved":false,"is_disabled":false,"rental_uris":{"android":"levelo://app?vid=f140e1a4-047b-460f-98ef-0a30ab7719c3","ios":"levelo://app?vid=f140e1a4-047b-460f-98ef-0a30ab7719c3"},"vehicle_type_id":"4","last_reported":1717441640,"current_range_meters":14000,"station_id":"ce4bgvp2rcd13ifvqcu0","pricing_plan_id":"cebpf4jnsgd1na2vs0mg"},{"bike_id":"c1c08ebe-82c5-43c1-ac5d-9f23210b9244","system_id":"levelo_inurba_marseille","lat":43.313291,"lon":5.396838,"is_reserved":false,"is_disabled":false,"rental_uris":{"android":"levelo://app?vid=c1c08ebe-82c5-43c1-ac5d-9f23210b9244","ios":"levelo://app?vid=c1c08ebe-82c5-43c1-ac5d-9f23210b9244"},"vehicle_type_id":"4","last_reported":1717441640,"current_range_meters":22000,"station_id":"ce4bgvp2rcd13ifvqcu0","pricing_plan_id":"cebpf4jnsgd1na2vs0mg"},{"bike_id":"9c690514-fafc-4397-bbb5-adbbd6ce76b6","system_id":"levelo_inurba_marseille","lat":43.29529,"lon":5.385581,"is_reserved":false,"is_disabled":false,"rental_uris":{"android":"levelo://app?vid=9c690514-fafc-4397-bbb5-adbbd6ce76b6","ios":"levelo://app?vid=9c690514-fafc-4397-bbb5-adbbd6ce76b6"},"vehicle_type_id":"4","last_reported":1717441640,"current_range_meters":6800,"station_id":"ce4bgih2rcd13ifvqba0","pricing_plan_id":"cebpf4jnsgd1na2vs0mg"},{"bike_id":"eb6887a5-2f2a-429b-b1ba-af0867c28cf3","system_id":"levelo_inurba_marseille","lat":43.309047,"lon":5.396551,"is_reserved":false,"is_disabled":false,"rental_uris":{"android":"levelo://app?vid=eb6887a5-2f2a-429b-b1ba-af0867c28cf3","ios":"levelo://app?vid=eb6887a5-2f2a-429b-b1ba-af0867c28cf3"},"vehicle_type_id":"4","last_reported":1717441640,"current_range_meters":2800,"station_id":"ce4bh012rcd13ifvqcv0","pricing_plan_id":"cebpf4jnsgd1na2vs0mg"},{"bike_id":"bf838e39-c0b6-433f-8f23-379c6999f64c","system_id":"levelo_inurba_marseille","lat":43.31327,"lon":5.39703,"is_reserved":false,"is_disabled":false,"rental_uris":{"android":"levelo://app?vid=bf838e39-c0b6-433f-8f23-379c6999f64c","ios":"levelo://app?vid=bf838e39-c0b6-433f-8f23-379c6999f64c"},"vehicle_type_id":"4","last_reported":1717441640,"current_range_meters":2400,"station_id":"ce4bgvp2rcd13ifvqcu0","pricing_plan_id":"cebpf4jnsgd1na2vs0mg"},{"bike_id":"97c1ee96-2678-4f05-975f-0d4406924d99","system_id":"levelo_inurba_marseille","lat":43.313199,"lon":5.397053,"is_reserved":false,"is_disabled":false,"rental_uris":{"android":"levelo://app?vid=97c1ee96-2678-4f05-975f-0d4406924d99","ios":"levelo://app?vid=97c1ee96-2678-4f05-975f-0d4406924d99"},"vehicle_type_id":"4","last_reported":1717441640,"current_range_meters":22400,"station_id":"ce4bgvp2rcd13ifvqcu0","pricing_plan_id":"cebpf4jnsgd1na2vs0mg"},{"bike_id":"12f59f1f-766a-429e-98d9-e6640ff29335","system_id":"levelo_inurba_marseille","lat":43.313291,"lon":5.396838,"is_reserved":false,"is_disabled":false,"rental_uris":{"android":"levelo://app?vid=12f59f1f-766a-429e-98d9-e6640ff29335","ios":"levelo://app?vid=12f59f1f-766a-429e-98d9-e6640ff29335"},"vehicle_type_id":"4","last_reported":1717441640,"current_range_meters":21200,"station_id":"ce4bgvp2rcd13ifvqcu0","pricing_plan_id":"cebpf4jnsgd1na2vs0mg"},{"bike_id":"f9f060ef-2ed5-480c-b890-82dee5d2b829","system_id":"levelo_inurba_marseille","lat":43.29529,"lon":5.385581,"is_reserved":false,"is_disabled":false,"rental_uris":{"android":"levelo://app?vid=f9f060ef-2ed5-480c-b890-82dee5d2b829","ios":"levelo://app?vid=f9f060ef-2ed5-480c-b890-82dee5d2b829"},"vehicle_type_id":"4","last_reported":1717441640,"current_range_meters":28400,"station_id":"ce4bgih2rcd13ifvqba0","pricing_plan_id":"cebpf4jnsgd1na2vs0mg"},{"bike_id":"ab80dea1-c7f9-4250-a880-c0fcf1416699","system_id":"levelo_inurba_marseille","lat":43.29529,"lon":5.3855,"is_reserved":false,"is_disabled":false,"rental_uris":{"android":"levelo://app?vid=ab80dea1-c7f9-4250-a880-c0fcf1416699","ios":"levelo://app?vid=ab80dea1-c7f9-4250-a880-c0fcf1416699"},"vehicle_type_id":"4","last_reported":1717441640,"current_range_meters":24800,"station_id":"","pricing_plan_id":"cebpf4jnsgd1na2vs0mg"},{"bike_id":"73e8f4e2-d4cb-4520-89af-d273c876e895","system_id":"levelo_inurba_marseille","lat":43.29529,"lon":5.385581,"is_reserved":false,"is_disabled":false,"rental_uris":{"android":"levelo://app?vid=73e8f4e2-d4cb-4520-89af-d273c876e895","ios":"levelo://app?vid=73e8f4e2-d4cb-4520-89af-d273c876e895"},"vehicle_type_id":"4","last_reported":1717441640,"current_range_meters":30000,"station_id":"ce4bgih2rcd13ifvqba0","pricing_plan_id":"cebpf4jnsgd1na2vs0mg"},{"bike_id":"37666141-7480-4f4c-a950-0d8ad2c28652","system_id":"levelo_inurba_marseille","lat":43.29529,"lon":5.385581,"is_reserved":false,"is_disabled":false,"rental_uris":{"android":"levelo://app?vid=37666141-7480-4f4c-a950-0d8ad2c28652","ios":"levelo://app?vid=37666141-7480-4f4c-a950-0d8ad2c28652"},"vehicle_type_id":"4","last_reported":1717441640,"current_range_meters":6800,"station_id":"ce4bgih2rcd13ifvqba0","pricing_plan_id":"cebpf4jnsgd1na2vs0mg"},{"bike_id":"7890bfb1-5bc0-4386-8d06-fc528110955f","system_id":"levelo_inurba_marseille","lat":43.29529,"lon":5.385581,"is_reserved":false,"is_disabled":false,"rental_uris":{"android":"levelo://app?vid=7890bfb1-5bc0-4386-8d06-fc528110955f","ios":"levelo://app?vid=7890bfb1-5bc0-4386-8d06-fc528110955f"},"vehicle_type_id":"4","last_reported":1717441640,"current_range_meters":27200,"station_id":"ce4bgih2rcd13ifvqba0","pricing_plan_id":"cebpf4jnsgd1na2vs0mg"},{"bike_id":"ad6e3afa-6da8-433b-aaaa-dcaa4c01bd44","system_id":"levelo_inurba_marseille","lat":43.290779,"lon":5.371482,"is_reserved":false,"is_disabled":false,"rental_uris":{"android":"levelo://app?vid=ad6e3afa-6da8-433b-aaaa-dcaa4c01bd44","ios":"levelo://app?vid=ad6e3afa-6da8-433b-aaaa-dcaa4c01bd44"},"vehicle_type_id":"4","last_reported":1717441640,"current_range_meters":7200,"station_id":"ce4bh5p2rcd13ifvqe4g","pricing_plan_id":"cebpf4jnsgd1na2vs0mg"},{"bike_id":"06ba36d3-5f1a-4bd0-a6a3-4add281f7da3","system_id":"levelo_inurba_marseille","lat":43.290631,"lon":5.359244,"is_reserved":false,"is_disabled":false,"rental_uris":{"android":"levelo://app?vid=06ba36d3-5f1a-4bd0-a6a3-4add281f7da3","ios":"levelo://app?vid=06ba36d3-5f1a-4bd0-a6a3-4add281f7da3"},"vehicle_type_id":"4","last_reported":1717441640,"current_range_meters":2800,"station_id":"ce4bha92rcd13ifvqeg0","pricing_plan_id":"cebpf4jnsgd1na2vs0mg"},{"bike_id":"1bf04f4c-9cd1-45b1-aca2-106242ec17ea","system_id":"levelo_inurba_marseille","lat":43.29529,"lon":5.385581,"is_reserved":false,"is_disabled":false,"rental_uris":{"android":"levelo://app?vid=1bf04f4c-9cd1-45b1-aca2-106242ec17ea","ios":"levelo://app?vid=1bf04f4c-9cd1-45b1-aca2-106242ec17ea"},"vehicle_type_id":"4","last_reported":1717441640,"current_range_meters":28400,"station_id":"ce4bgih2rcd13ifvqba0","pricing_plan_id":"cebpf4jnsgd1na2vs0mg"},{"bike_id":"89fc41cd-5a2e-4d19-b7be-f2bc1c78ca63","system_id":"levelo_inurba_marseille","lat":43.302008,"lon":5.394694,"is_reserved":false,"is_disabled":false,"rental_uris":{"android":"levelo://app?vid=89fc41cd-5a2e-4d19-b7be-f2bc1c78ca63","ios":"levelo://app?vid=89fc41cd-5a2e-4d19-b7be-f2bc1c78ca63"},"vehicle_type_id":"4","last_reported":1717441640,"current_range_meters":3200,"station_id":"ce4bh0p2rcd13ifvqd70","pricing_plan_id":"cebpf4jnsgd1na2vs0mg"},{"bike_id":"dee258d3-19e1-48fe-8660-d985dcb6f0ff","system_id":"levelo_inurba_marseille","lat":43.302008,"lon":5.394694,"is_reserved":false,"is_disabled":false,"rental_uris":{"android":"levelo://app?vid=dee258d3-19e1-48fe-8660-d985dcb6f0ff","ios":"levelo://app?vid=dee258d3-19e1-48fe-8660-d985dcb6f0ff"},"vehicle_type_id":"4","last_reported":1717441640,"current_range_meters":800,"station_id":"ce4bh0p2rcd13ifvqd70","pricing_plan_id":"cebpf4jnsgd1na2vs0mg"},{"bike_id":"0e4c7fe0-9312-4e9d-ae48-7992e3e882e6","system_id":"levelo_inurba_marseille","lat":43.293598,"lon":5.38406,"is_reserved":false,"is_disabled":false,"rental_uris":{"android":"levelo://app?vid=0e4c7fe0-9312-4e9d-ae48-7992e3e882e6","ios":"levelo://app?vid=0e4c7fe0-9312-4e9d-ae48-7992e3e882e6"},"vehicle_type_id":"4","last_reported":1717441640,"current_range_meters":12400,"station_id":"","pricing_plan_id":"cebpf4jnsgd1na2vs0mg"},{"bike_id":"40fd90cd-4233-4454-ac6b-7c44a0f47048","system_id":"levelo_inurba_marseille","lat":43.302008,"lon":5.394694,"is_reserved":false,"is_disabled":false,"rental_uris":{"android":"levelo://app?vid=40fd90cd-4233-4454-ac6b-7c44a0f47048","ios":"levelo://app?vid=40fd90cd-4233-4454-ac6b-7c44a0f47048"},"vehicle_type_id":"4","last_reported":1717441640,"current_range_meters":0,"station_id":"ce4bh0p2rcd13ifvqd70","pricing_plan_id":"cebpf4jnsgd1na2vs0mg"},{"bike_id":"970e6d41-56f8-455b-8448-2619213be576","system_id":"levelo_inurba_marseille","lat":43.29095,"lon":5.37636,"is_reserved":false,"is_disabled":false,"rental_uris":{"android":"levelo://app?vid=970e6d41-56f8-455b-8448-2619213be576","ios":"levelo://app?vid=970e6d41-56f8-455b-8448-2619213be576"},"vehicle_type_id":"4","last_reported":1717441640,"current_range_meters":1200,"station_id":"","pricing_plan_id":"cebpf4jnsgd1na2vs0mg"},{"bike_id":"0cc7ba17-d155-4db4-9216-e4f5dddb75b2","system_id":"levelo_inurba_marseille","lat":43.290624,"lon":5.359245,"is_reserved":false,"is_disabled":false,"rental_uris":{"android":"levelo://app?vid=0cc7ba17-d155-4db4-9216-e4f5dddb75b2","ios":"levelo://app?vid=0cc7ba17-d155-4db4-9216-e4f5dddb75b2"},"vehicle_type_id":"4","last_reported":1717441640,"current_range_meters":31200,"station_id":"ce4bha92rcd13ifvqeg0","pricing_plan_id":"cebpf4jnsgd1na2vs0mg"},{"bike_id":"5b8416c6-4b8e-43c0-ada6-046078753d8a","system_id":"levelo_inurba_marseille","lat":43.294212,"lon":5.386024,"is_reserved":false,"is_disabled":false,"rental_uris":{"android":"levelo://app?vid=5b8416c6-4b8e-43c0-ada6-046078753d8a","ios":"levelo://app?vid=5b8416c6-4b8e-43c0-ada6-046078753d8a"},"vehicle_type_id":"4","last_reported":1717441640,"current_range_meters":0,"station_id":"ce4bh2h2rcd13ifvqdh0","pricing_plan_id":"cebpf4jnsgd1na2vs0mg"},{"bike_id":"fdc148bd-e294-4ce9-9711-4e616a274faa","system_id":"levelo_inurba_marseille","lat":43.302008,"lon":5.394694,"is_reserved":false,"is_disabled":false,"rental_uris":{"android":"levelo://app?vid=fdc148bd-e294-4ce9-9711-4e616a274faa","ios":"levelo://app?vid=fdc148bd-e294-4ce9-9711-4e616a274faa"},"vehicle_type_id":"4","last_reported":1717441640,"current_range_meters":6000,"station_id":"ce4bh0p2rcd13ifvqd70","pricing_plan_id":"cebpf4jnsgd1na2vs0mg"},{"bike_id":"47d4cfa1-b03d-46df-a936-f00d1bcb61ac","system_id":"levelo_inurba_marseille","lat":43.303364,"lon":5.396074,"is_reserved":false,"is_disabled":false,"rental_uris":{"android":"levelo://app?vid=47d4cfa1-b03d-46df-a936-f00d1bcb61ac","ios":"levelo://app?vid=47d4cfa1-b03d-46df-a936-f00d1bcb61ac"},"vehicle_type_id":"4","last_reported":1717441640,"current_range_meters":17200,"station_id":"","pricing_plan_id":"cebpf4jnsgd1na2vs0mg"},{"bike_id":"1726877f-121e-469a-a230-9525ed6decab","system_id":"levelo_inurba_marseille","lat":43.29022,"lon":5.35927,"is_reserved":false,"is_disabled":false,"rental_uris":{"android":"levelo://app?vid=1726877f-121e-469a-a230-9525ed6decab","ios":"levelo://app?vid=1726877f-121e-469a-a230-9525ed6decab"},"vehicle_type_id":"4","last_reported":1717441640,"current_range_meters":30000,"station_id":"ce4bha92rcd13ifvqeg0","pricing_plan_id":"cebpf4jnsgd1na2vs0mg"},{"bike_id":"8ea369c1-81ac-491d-8fde-10f8cf609cff","system_id":"levelo_inurba_marseille","lat":43.290327,"lon":5.375711,"is_reserved":false,"is_disabled":false,"rental_uris":{"android":"levelo://app?vid=8ea369c1-81ac-491d-8fde-10f8cf609cff","ios":"levelo://app?vid=8ea369c1-81ac-491d-8fde-10f8cf609cff"},"vehicle_type_id":"4","last_reported":1717441640,"current_range_meters":0,"station_id":"ce4bh692rcd13ifvqe90","pricing_plan_id":"cebpf4jnsgd1na2vs0mg"},{"bike_id":"87df2d0f-bf4a-4aca-9b1b-79c2e11c03d4","system_id":"levelo_inurba_marseille","lat":43.29422,"lon":5.38624,"is_reserved":false,"is_disabled":false,"rental_uris":{"android":"levelo://app?vid=87df2d0f-bf4a-4aca-9b1b-79c2e11c03d4","ios":"levelo://app?vid=87df2d0f-bf4a-4aca-9b1b-79c2e11c03d4"},"vehicle_type_id":"4","last_reported":1717441640,"current_range_meters":1600,"station_id":"ce4bh2h2rcd13ifvqdh0","pricing_plan_id":"cebpf4jnsgd1na2vs0mg"},{"bike_id":"1405acd3-e6dd-4162-b60d-c8ae3d548a28","system_id":"levelo_inurba_marseille","lat":43.294193,"lon":5.386219,"is_reserved":false,"is_disabled":false,"rental_uris":{"android":"levelo://app?vid=1405acd3-e6dd-4162-b60d-c8ae3d548a28","ios":"levelo://app?vid=1405acd3-e6dd-4162-b60d-c8ae3d548a28"},"vehicle_type_id":"4","last_reported":1717441640,"current_range_meters":0,"station_id":"ce4bh2h2rcd13ifvqdh0","pricing_plan_id":"cebpf4jnsgd1na2vs0mg"},{"bike_id":"ec722b84-30aa-4d35-924d-2f92491549c9","system_id":"levelo_inurba_marseille","lat":43.2942,"lon":5.38625,"is_reserved":false,"is_disabled":false,"rental_uris":{"android":"levelo://app?vid=ec722b84-30aa-4d35-924d-2f92491549c9","ios":"levelo://app?vid=ec722b84-30aa-4d35-924d-2f92491549c9"},"vehicle_type_id":"4","last_reported":1717441640,"current_range_meters":2400,"station_id":"ce4bh2h2rcd13ifvqdh0","pricing_plan_id":"cebpf4jnsgd1na2vs0mg"},{"bike_id":"c1f23f99-a1d8-40a8-b04e-37b57c460cfe","system_id":"levelo_inurba_marseille","lat":43.294203,"lon":5.386263,"is_reserved":false,"is_disabled":false,"rental_uris":{"android":"levelo://app?vid=c1f23f99-a1d8-40a8-b04e-37b57c460cfe","ios":"levelo://app?vid=c1f23f99-a1d8-40a8-b04e-37b57c460cfe"},"vehicle_type_id":"4","last_reported":1717441640,"current_range_meters":0,"station_id":"ce4bh2h2rcd13ifvqdh0","pricing_plan_id":"cebpf4jnsgd1na2vs0mg"},{"bike_id":"23dd71eb-c1b7-4832-81bb-9a9083a3a453","system_id":"levelo_inurba_marseille","lat":43.289452,"lon":5.36637,"is_reserved":false,"is_disabled":false,"rental_uris":{"android":"levelo://app?vid=23dd71eb-c1b7-4832-81bb-9a9083a3a453","ios":"levelo://app?vid=23dd71eb-c1b7-4832-81bb-9a9083a3a453"},"vehicle_type_id":"4","last_reported":1717441640,"current_range_meters":0,"station_id":"ce4bhap2rcd13ifvqek0","pricing_plan_id":"cebpf4jnsgd1na2vs0mg"},{"bike_id":"f26113f6-05d2-43b8-8361-226811d675da","system_id":"levelo_inurba_marseille","lat":43.29417,"lon":5.38625,"is_reserved":false,"is_disabled":false,"rental_uris":{"android":"levelo://app?vid=f26113f6-05d2-43b8-8361-226811d675da","ios":"levelo://app?vid=f26113f6-05d2-43b8-8361-226811d675da"},"vehicle_type_id":"4","last_reported":1717441640,"current_range_meters":1600,"station_id":"ce4bh2h2rcd13ifvqdh0","pricing_plan_id":"cebpf4jnsgd1na2vs0mg"},{"bike_id":"ba9da17e-e034-4821-8ed2-819c377e320a","system_id":"levelo_inurba_marseille","lat":43.294162,"lon":5.386292,"is_reserved":false,"is_disabled":false,"rental_uris":{"android":"levelo://app?vid=ba9da17e-e034-4821-8ed2-819c377e320a","ios":"levelo://app?vid=ba9da17e-e034-4821-8ed2-819c377e320a"},"vehicle_type_id":"4","last_reported":1717441640,"current_range_meters":2800,"station_id":"ce4bh2h2rcd13ifvqdh0","pricing_plan_id":"cebpf4jnsgd1na2vs0mg"},{"bike_id":"1db2adaf-769a-4151-95f2-d0da1b932bf3","system_id":"levelo_inurba_marseille","lat":43.28943,"lon":5.3663,"is_reserved":false,"is_disabled":false,"rental_uris":{"android":"levelo://app?vid=1db2adaf-769a-4151-95f2-d0da1b932bf3","ios":"levelo://app?vid=1db2adaf-769a-4151-95f2-d0da1b932bf3"},"vehicle_type_id":"4","last_reported":1717441640,"current_range_meters":0,"station_id":"ce4bhap2rcd13ifvqek0","pricing_plan_id":"cebpf4jnsgd1na2vs0mg"},{"bike_id":"04c98622-cea3-4498-87e2-d63e34cceebb","system_id":"levelo_inurba_marseille","lat":43.289424,"lon":5.36629,"is_reserved":false,"is_disabled":false,"rental_uris":{"android":"levelo://app?vid=04c98622-cea3-4498-87e2-d63e34cceebb","ios":"levelo://app?vid=04c98622-cea3-4498-87e2-d63e34cceebb"},"vehicle_type_id":"4","last_reported":1717441640,"current_range_meters":0,"station_id":"ce4bhap2rcd13ifvqek0","pricing_plan_id":"cebpf4jnsgd1na2vs0mg"},{"bike_id":"94f398ef-da2d-41f4-87a1-121095dd8440","system_id":"levelo_inurba_marseille","lat":43.289184,"lon":5.366408,"is_reserved":false,"is_disabled":false,"rental_uris":{"android":"levelo://app?vid=94f398ef-da2d-41f4-87a1-121095dd8440","ios":"levelo://app?vid=94f398ef-da2d-41f4-87a1-121095dd8440"},"vehicle_type_id":"4","last_reported":1717441640,"current_range_meters":0,"station_id":"ce4bhap2rcd13ifvqek0","pricing_plan_id":"cebpf4jnsgd1na2vs0mg"},{"bike_id":"b383eb87-f02b-43db-bb06-945d9056afe1","system_id":"levelo_inurba_marseille","lat":43.30085,"lon":5.390856,"is_reserved":false,"is_disabled":false,"rental_uris":{"android":"levelo://app?vid=b383eb87-f02b-43db-bb06-945d9056afe1","ios":"levelo://app?vid=b383eb87-f02b-43db-bb06-945d9056afe1"},"vehicle_type_id":"4","last_reported":1717441640,"current_range_meters":4000,"station_id":"ce4bh192rcd13ifvqdb0","pricing_plan_id":"cebpf4jnsgd1na2vs0mg"},{"bike_id":"3cf6c5c8-bd83-435d-89e4-c88fd4a4d64b","system_id":"levelo_inurba_marseille","lat":43.289184,"lon":5.366408,"is_reserved":false,"is_disabled":false,"rental_uris":{"android":"levelo://app?vid=3cf6c5c8-bd83-435d-89e4-c88fd4a4d64b","ios":"levelo://app?vid=3cf6c5c8-bd83-435d-89e4-c88fd4a4d64b"},"vehicle_type_id":"4","last_reported":1717441640,"current_range_meters":4400,"station_id":"ce4bhap2rcd13ifvqek0","pricing_plan_id":"cebpf4jnsgd1na2vs0mg"},{"bike_id":"d92b60ef-6401-4aed-9649-83c810982887","system_id":"levelo_inurba_marseille","lat":43.279952,"lon":5.400085,"is_reserved":false,"is_disabled":false,"rental_uris":{"android":"levelo://app?vid=d92b60ef-6401-4aed-9649-83c810982887","ios":"levelo://app?vid=d92b60ef-6401-4aed-9649-83c810982887"},"vehicle_type_id":"4","last_reported":1717441640,"current_range_meters":19200,"station_id":"ce4bho92rcd13ifvqh4g","pricing_plan_id":"cebpf4jnsgd1na2vs0mg"},{"bike_id":"609a84d9-875e-48e1-bf6b-870cea8677c4","system_id":"levelo_inurba_marseille","lat":43.2894,"lon":5.366366,"is_reserved":false,"is_disabled":false,"rental_uris":{"android":"levelo://app?vid=609a84d9-875e-48e1-bf6b-870cea8677c4","ios":"levelo://app?vid=609a84d9-875e-48e1-bf6b-870cea8677c4"},"vehicle_type_id":"4","last_reported":1717441640,"current_range_meters":0,"station_id":"ce4bhap2rcd13ifvqek0","pricing_plan_id":"cebpf4jnsgd1na2vs0mg"},{"bike_id":"ccbd1ee4-5f6a-46c5-9435-65442abbbc9f","system_id":"levelo_inurba_marseille","lat":43.28939,"lon":5.3663,"is_reserved":false,"is_disabled":false,"rental_uris":{"android":"levelo://app?vid=ccbd1ee4-5f6a-46c5-9435-65442abbbc9f","ios":"levelo://app?vid=ccbd1ee4-5f6a-46c5-9435-65442abbbc9f"},"vehicle_type_id":"4","last_reported":1717441640,"current_range_meters":0,"station_id":"ce4bhap2rcd13ifvqek0","pricing_plan_id":"cebpf4jnsgd1na2vs0mg"},{"bike_id":"9806d02f-8563-42f6-b2a9-5a08041cdb35","system_id":"levelo_inurba_marseille","lat":43.28938,"lon":5.36633,"is_reserved":false,"is_disabled":false,"rental_uris":{"android":"levelo://app?vid=9806d02f-8563-42f6-b2a9-5a08041cdb35","ios":"levelo://app?vid=9806d02f-8563-42f6-b2a9-5a08041cdb35"},"vehicle_type_id":"4","last_reported":1717441640,"current_range_meters":0,"station_id":"ce4bhap2rcd13ifvqek0","pricing_plan_id":"cebpf4jnsgd1na2vs0mg"},{"bike_id":"7f566d91-9b64-4bcd-be54-dcf318146708","system_id":"levelo_inurba_marseille","lat":43.289184,"lon":5.366408,"is_reserved":false,"is_disabled":false,"rental_uris":{"android":"levelo://app?vid=7f566d91-9b64-4bcd-be54-dcf318146708","ios":"levelo://app?vid=7f566d91-9b64-4bcd-be54-dcf318146708"},"vehicle_type_id":"4","last_reported":1717441640,"current_range_meters":27200,"station_id":"ce4bhap2rcd13ifvqek0","pricing_plan_id":"cebpf4jnsgd1na2vs0mg"},{"bike_id":"df3d21c2-379c-4fd9-921c-9cd83a4c9249","system_id":"levelo_inurba_marseille","lat":43.294162,"lon":5.386292,"is_reserved":false,"is_disabled":false,"rental_uris":{"android":"levelo://app?vid=df3d21c2-379c-4fd9-921c-9cd83a4c9249","ios":"levelo://app?vid=df3d21c2-379c-4fd9-921c-9cd83a4c9249"},"vehicle_type_id":"4","last_reported":1717441640,"current_range_meters":16000,"station_id":"ce4bh2h2rcd13ifvqdh0","pricing_plan_id":"cebpf4jnsgd1na2vs0mg"},{"bike_id":"af3c7aed-9b2f-479f-9a7b-4cc97ccf9ba8","system_id":"levelo_inurba_marseille","lat":43.304296,"lon":5.397513,"is_reserved":false,"is_disabled":false,"rental_uris":{"android":"levelo://app?vid=af3c7aed-9b2f-479f-9a7b-4cc97ccf9ba8","ios":"levelo://app?vid=af3c7aed-9b2f-479f-9a7b-4cc97ccf9ba8"},"vehicle_type_id":"4","last_reported":1717441640,"current_range_meters":5600,"station_id":"ce4bh092rcd13ifvqd20","pricing_plan_id":"cebpf4jnsgd1na2vs0mg"},{"bike_id":"f877a5a7-ffcc-4838-bb67-a23ba43a1b8f","system_id":"levelo_inurba_marseille","lat":43.292642,"lon":5.384254,"is_reserved":false,"is_disabled":false,"rental_uris":{"android":"levelo://app?vid=f877a5a7-ffcc-4838-bb67-a23ba43a1b8f","ios":"levelo://app?vid=f877a5a7-ffcc-4838-bb67-a23ba43a1b8f"},"vehicle_type_id":"4","last_reported":1717441640,"current_range_meters":5600,"station_id":"ce4bh692rcd13ifvqea0","pricing_plan_id":"cebpf4jnsgd1na2vs0mg"},{"bike_id":"ba2627c3-8358-493b-bb5a-3854679b3d71","system_id":"levelo_inurba_marseille","lat":43.292642,"lon":5.384254,"is_reserved":false,"is_disabled":false,"rental_uris":{"android":"levelo://app?vid=ba2627c3-8358-493b-bb5a-3854679b3d71","ios":"levelo://app?vid=ba2627c3-8358-493b-bb5a-3854679b3d71"},"vehicle_type_id":"4","last_reported":1717441640,"current_range_meters":26000,"station_id":"ce4bh692rcd13ifvqea0","pricing_plan_id":"cebpf4jnsgd1na2vs0mg"},{"bike_id":"6cd7584e-48b8-45ae-9b69-47170bfe5d39","system_id":"levelo_inurba_marseille","lat":43.292644,"lon":5.384257,"is_reserved":false,"is_disabled":false,"rental_uris":{"android":"levelo://app?vid=6cd7584e-48b8-45ae-9b69-47170bfe5d39","ios":"levelo://app?vid=6cd7584e-48b8-45ae-9b69-47170bfe5d39"},"vehicle_type_id":"4","last_reported":1717441640,"current_range_meters":27600,"station_id":"ce4bh692rcd13ifvqea0","pricing_plan_id":"cebpf4jnsgd1na2vs0mg"},{"bike_id":"8d10a215-1161-442e-95f1-156e772f62bd","system_id":"levelo_inurba_marseille","lat":43.292642,"lon":5.384254,"is_reserved":false,"is_disabled":false,"rental_uris":{"android":"levelo://app?vid=8d10a215-1161-442e-95f1-156e772f62bd","ios":"levelo://app?vid=8d10a215-1161-442e-95f1-156e772f62bd"},"vehicle_type_id":"4","last_reported":1717441640,"current_range_meters":6400,"station_id":"ce4bh692rcd13ifvqea0","pricing_plan_id":"cebpf4jnsgd1na2vs0mg"},{"bike_id":"c1aaf9e5-be4f-41ff-8d69-37b162a90688","system_id":"levelo_inurba_marseille","lat":43.292642,"lon":5.384254,"is_reserved":false,"is_disabled":false,"rental_uris":{"android":"levelo://app?vid=c1aaf9e5-be4f-41ff-8d69-37b162a90688","ios":"levelo://app?vid=c1aaf9e5-be4f-41ff-8d69-37b162a90688"},"vehicle_type_id":"4","last_reported":1717441640,"current_range_meters":19200,"station_id":"ce4bh692rcd13ifvqea0","pricing_plan_id":"cebpf4jnsgd1na2vs0mg"},{"bike_id":"4e5fd0bd-9983-45ba-a4f7-178d87ac83aa","system_id":"levelo_inurba_marseille","lat":43.29259,"lon":5.38449,"is_reserved":false,"is_disabled":false,"rental_uris":{"android":"levelo://app?vid=4e5fd0bd-9983-45ba-a4f7-178d87ac83aa","ios":"levelo://app?vid=4e5fd0bd-9983-45ba-a4f7-178d87ac83aa"},"vehicle_type_id":"4","last_reported":1717441640,"current_range_meters":24400,"station_id":"ce4bh692rcd13ifvqea0","pricing_plan_id":"cebpf4jnsgd1na2vs0mg"},{"bike_id":"21bc83e6-514e-47c8-b7e4-5a746792e0ee","system_id":"levelo_inurba_marseille","lat":43.292644,"lon":5.384257,"is_reserved":false,"is_disabled":false,"rental_uris":{"android":"levelo://app?vid=21bc83e6-514e-47c8-b7e4-5a746792e0ee","ios":"levelo://app?vid=21bc83e6-514e-47c8-b7e4-5a746792e0ee"},"vehicle_type_id":"4","last_reported":1717441640,"current_range_meters":1600,"station_id":"ce4bh692rcd13ifvqea0","pricing_plan_id":"cebpf4jnsgd1na2vs0mg"},{"bike_id":"9a37b162-9770-47bf-83ce-fac01caebb5b","system_id":"levelo_inurba_marseille","lat":43.292644,"lon":5.384257,"is_reserved":false,"is_disabled":false,"rental_uris":{"android":"levelo://app?vid=9a37b162-9770-47bf-83ce-fac01caebb5b","ios":"levelo://app?vid=9a37b162-9770-47bf-83ce-fac01caebb5b"},"vehicle_type_id":"4","last_reported":1717441640,"current_range_meters":13600,"station_id":"ce4bh692rcd13ifvqea0","pricing_plan_id":"cebpf4jnsgd1na2vs0mg"},{"bike_id":"22e086d2-401e-4154-8182-4628f34738a5","system_id":"levelo_inurba_marseille","lat":43.2901,"lon":5.35617,"is_reserved":false,"is_disabled":false,"rental_uris":{"android":"levelo://app?vid=22e086d2-401e-4154-8182-4628f34738a5","ios":"levelo://app?vid=22e086d2-401e-4154-8182-4628f34738a5"},"vehicle_type_id":"4","last_reported":1717441640,"current_range_meters":0,"station_id":"ce4bhb92rcd13ifvqen0","pricing_plan_id":"cebpf4jnsgd1na2vs0mg"},{"bike_id":"9f0d5b69-0de1-418f-a01e-2acbb9b38b0c","system_id":"levelo_inurba_marseille","lat":43.290104,"lon":5.356111,"is_reserved":false,"is_disabled":false,"rental_uris":{"android":"levelo://app?vid=9f0d5b69-0de1-418f-a01e-2acbb9b38b0c","ios":"levelo://app?vid=9f0d5b69-0de1-418f-a01e-2acbb9b38b0c"},"vehicle_type_id":"4","last_reported":1717441640,"current_range_meters":400,"station_id":"ce4bhb92rcd13ifvqen0","pricing_plan_id":"cebpf4jnsgd1na2vs0mg"},{"bike_id":"7495ac4e-aa4b-4364-a789-6a18c072de0e","system_id":"levelo_inurba_marseille","lat":43.290103,"lon":5.356114,"is_reserved":false,"is_disabled":false,"rental_uris":{"android":"levelo://app?vid=7495ac4e-aa4b-4364-a789-6a18c072de0e","ios":"levelo://app?vid=7495ac4e-aa4b-4364-a789-6a18c072de0e"},"vehicle_type_id":"4","last_reported":1717441640,"current_range_meters":28000,"station_id":"ce4bhb92rcd13ifvqen0","pricing_plan_id":"cebpf4jnsgd1na2vs0mg"},{"bike_id":"dd73ebfc-022b-4dc6-920c-0729439e875f","system_id":"levelo_inurba_marseille","lat":43.290103,"lon":5.356114,"is_reserved":false,"is_disabled":false,"rental_uris":{"android":"levelo://app?vid=dd73ebfc-022b-4dc6-920c-0729439e875f","ios":"levelo://app?vid=dd73ebfc-022b-4dc6-920c-0729439e875f"},"vehicle_type_id":"4","last_reported":1717441640,"current_range_meters":31200,"station_id":"ce4bhb92rcd13ifvqen0","pricing_plan_id":"cebpf4jnsgd1na2vs0mg"},{"bike_id":"10d68cd4-030e-4ed7-bbdb-c33a5487589c","system_id":"levelo_inurba_marseille","lat":43.290096,"lon":5.356089,"is_reserved":false,"is_disabled":false,"rental_uris":{"android":"levelo://app?vid=10d68cd4-030e-4ed7-bbdb-c33a5487589c","ios":"levelo://app?vid=10d68cd4-030e-4ed7-bbdb-c33a5487589c"},"vehicle_type_id":"4","last_reported":1717441640,"current_range_meters":4000,"station_id":"ce4bhb92rcd13ifvqen0","pricing_plan_id":"cebpf4jnsgd1na2vs0mg"},{"bike_id":"a63680fb-7dde-4597-a533-82fdf3181925","system_id":"levelo_inurba_marseille","lat":43.290069,"lon":5.356181,"is_reserved":false,"is_disabled":false,"rental_uris":{"android":"levelo://app?vid=a63680fb-7dde-4597-a533-82fdf3181925","ios":"levelo://app?vid=a63680fb-7dde-4597-a533-82fdf3181925"},"vehicle_type_id":"4","last_reported":1717441640,"current_range_meters":0,"station_id":"ce4bhb92rcd13ifvqen0","pricing_plan_id":"cebpf4jnsgd1na2vs0mg"},{"bike_id":"ae3d85c9-401d-4e1f-b12f-210a092b44a7","system_id":"levelo_inurba_marseille","lat":43.290104,"lon":5.356111,"is_reserved":false,"is_disabled":false,"rental_uris":{"android":"levelo://app?vid=ae3d85c9-401d-4e1f-b12f-210a092b44a7","ios":"levelo://app?vid=ae3d85c9-401d-4e1f-b12f-210a092b44a7"},"vehicle_type_id":"4","last_reported":1717441640,"current_range_meters":3200,"station_id":"ce4bhb92rcd13ifvqen0","pricing_plan_id":"cebpf4jnsgd1na2vs0mg"},{"bike_id":"67923ea6-7d4f-4495-94b0-479c73f77759","system_id":"levelo_inurba_marseille","lat":43.29008,"lon":5.35608,"is_reserved":false,"is_disabled":false,"rental_uris":{"android":"levelo://app?vid=67923ea6-7d4f-4495-94b0-479c73f77759","ios":"levelo://app?vid=67923ea6-7d4f-4495-94b0-479c73f77759"},"vehicle_type_id":"4","last_reported":1717441640,"current_range_meters":0,"station_id":"ce4bhb92rcd13ifvqen0","pricing_plan_id":"cebpf4jnsgd1na2vs0mg"},{"bike_id":"44edca46-7f7d-4110-b033-26c30d300aaf","system_id":"levelo_inurba_marseille","lat":43.290104,"lon":5.356111,"is_reserved":false,"is_disabled":false,"rental_uris":{"android":"levelo://app?vid=44edca46-7f7d-4110-b033-26c30d300aaf","ios":"levelo://app?vid=44edca46-7f7d-4110-b033-26c30d300aaf"},"vehicle_type_id":"4","last_reported":1717441640,"current_range_meters":0,"station_id":"ce4bhb92rcd13ifvqen0","pricing_plan_id":"cebpf4jnsgd1na2vs0mg"},{"bike_id":"b2c3a1a1-a35a-423d-b02f-6d8192f68d33","system_id":"levelo_inurba_marseille","lat":43.292482,"lon":5.384669,"is_reserved":false,"is_disabled":false,"rental_uris":{"android":"levelo://app?vid=b2c3a1a1-a35a-423d-b02f-6d8192f68d33","ios":"levelo://app?vid=b2c3a1a1-a35a-423d-b02f-6d8192f68d33"},"vehicle_type_id":"4","last_reported":1717441640,"current_range_meters":0,"station_id":"ce4bh692rcd13ifvqea0","pricing_plan_id":"cebpf4jnsgd1na2vs0mg"},{"bike_id":"4e616142-6e19-4a43-b9b0-576fd435c003","system_id":"levelo_inurba_marseille","lat":43.29,"lon":5.35608,"is_reserved":false,"is_disabled":false,"rental_uris":{"android":"levelo://app?vid=4e616142-6e19-4a43-b9b0-576fd435c003","ios":"levelo://app?vid=4e616142-6e19-4a43-b9b0-576fd435c003"},"vehicle_type_id":"4","last_reported":1717441640,"current_range_meters":0,"station_id":"ce4bhb92rcd13ifvqen0","pricing_plan_id":"cebpf4jnsgd1na2vs0mg"},{"bike_id":"25f286a9-785c-4634-985c-63f81ad2466e","system_id":"levelo_inurba_marseille","lat":43.290995,"lon":5.381361,"is_reserved":false,"is_disabled":false,"rental_uris":{"android":"levelo://app?vid=25f286a9-785c-4634-985c-63f81ad2466e","ios":"levelo://app?vid=25f286a9-785c-4634-985c-63f81ad2466e"},"vehicle_type_id":"4","last_reported":1717441640,"current_range_meters":4000,"station_id":"ce4bh512rcd13ifvqe2g","pricing_plan_id":"cebpf4jnsgd1na2vs0mg"},{"bike_id":"f75701e4-f962-444e-b914-7d427cd46239","system_id":"levelo_inurba_marseille","lat":43.290103,"lon":5.356114,"is_reserved":false,"is_disabled":false,"rental_uris":{"android":"levelo://app?vid=f75701e4-f962-444e-b914-7d427cd46239","ios":"levelo://app?vid=f75701e4-f962-444e-b914-7d427cd46239"},"vehicle_type_id":"4","last_reported":1717441640,"current_range_meters":31200,"station_id":"ce4bhb92rcd13ifvqen0","pricing_plan_id":"cebpf4jnsgd1na2vs0mg"},{"bike_id":"70b7eafd-46ab-4d08-9aec-76155f21f3ab","system_id":"levelo_inurba_marseille","lat":43.290995,"lon":5.381361,"is_reserved":false,"is_disabled":false,"rental_uris":{"android":"levelo://app?vid=70b7eafd-46ab-4d08-9aec-76155f21f3ab","ios":"levelo://app?vid=70b7eafd-46ab-4d08-9aec-76155f21f3ab"},"vehicle_type_id":"4","last_reported":1717441640,"current_range_meters":24000,"station_id":"ce4bh512rcd13ifvqe2g","pricing_plan_id":"cebpf4jnsgd1na2vs0mg"},{"bike_id":"a6acff3a-e660-4ae5-9989-de887ce60150","system_id":"levelo_inurba_marseille","lat":43.330108,"lon":5.390044,"is_reserved":false,"is_disabled":false,"rental_uris":{"android":"levelo://app?vid=a6acff3a-e660-4ae5-9989-de887ce60150","ios":"levelo://app?vid=a6acff3a-e660-4ae5-9989-de887ce60150"},"vehicle_type_id":"4","last_reported":1717441640,"current_range_meters":6400,"station_id":"ce4bhr92rcd13ifvqhrg","pricing_plan_id":"cebpf4jnsgd1na2vs0mg"},{"bike_id":"c469fe26-618d-4e36-9202-504f20e08805","system_id":"levelo_inurba_marseille","lat":43.289743,"lon":5.378304,"is_reserved":false,"is_disabled":false,"rental_uris":{"android":"levelo://app?vid=c469fe26-618d-4e36-9202-504f20e08805","ios":"levelo://app?vid=c469fe26-618d-4e36-9202-504f20e08805"},"vehicle_type_id":"4","last_reported":1717441640,"current_range_meters":12400,"station_id":"ce4bh9p2rcd13ifvqed0","pricing_plan_id":"cebpf4jnsgd1na2vs0mg"},{"bike_id":"d3524beb-42cc-4081-b146-6984a6046e64","system_id":"levelo_inurba_marseille","lat":43.291063,"lon":5.382018,"is_reserved":false,"is_disabled":false,"rental_uris":{"android":"levelo://app?vid=d3524beb-42cc-4081-b146-6984a6046e64","ios":"levelo://app?vid=d3524beb-42cc-4081-b146-6984a6046e64"},"vehicle_type_id":"4","last_reported":1717441640,"current_range_meters":0,"station_id":"ce4bh512rcd13ifvqe2g","pricing_plan_id":"cebpf4jnsgd1na2vs0mg"},{"bike_id":"929a0424-224f-411c-858d-aabee2ee5868","system_id":"levelo_inurba_marseille","lat":43.29787,"lon":5.39344,"is_reserved":false,"is_disabled":false,"rental_uris":{"android":"levelo://app?vid=929a0424-224f-411c-858d-aabee2ee5868","ios":"levelo://app?vid=929a0424-224f-411c-858d-aabee2ee5868"},"vehicle_type_id":"4","last_reported":1717441640,"current_range_meters":3600,"station_id":"chh1huq6cuj3fo74tm60","pricing_plan_id":"cebpf4jnsgd1na2vs0mg"},{"bike_id":"0953d654-6b4e-4c02-b309-45e6cd8546af","system_id":"levelo_inurba_marseille","lat":43.295169,"lon":5.390426,"is_reserved":false,"is_disabled":false,"rental_uris":{"android":"levelo://app?vid=0953d654-6b4e-4c02-b309-45e6cd8546af","ios":"levelo://app?vid=0953d654-6b4e-4c02-b309-45e6cd8546af"},"vehicle_type_id":"4","last_reported":1717441640,"current_range_meters":27200,"station_id":"ce4bh3p2rcd13ifvqdp0","pricing_plan_id":"cebpf4jnsgd1na2vs0mg"},