{"last_updated":1735078096,"ttl":60,"version":"2.2","data":{"bikes":[{"bike_id":"75c516d3-a5cc-4035-8666-739d671df90f","system_id":"levelo_inurba_marseille","lat":43.29968,"lon":5.38508,"is_reserved":false,"is_disabled":false,"rental_uris":{"android":"levelo://app?vid=75c516d3-a5cc-4035-8666-739d671df90f","ios":"levelo://app?vid=75c516d3-a5cc-4035-8666-739d671df90f"},"vehicle_type_id":"4","last_reported":1735078096,"current_range_meters":34000,"station_id":"ce4bgj92rcd13ifvqbd0","pricing_plan_id":"cebpf4jnsgd1na2vs0mg"},{"bike_id":"7c110a8b-097f-43aa-9eb5-b36685ee5243","system_id":"levelo_inurba_marseille","lat":43.28269,"lon":5.35071,"is_reserved":false,"is_disabled":false,"rental_uris":{"android":"levelo://app?vid=7c110a8b-097f-43aa-9eb5-b36685ee5243","ios":"levelo://app?vid=7c110a8b-097f-43aa-9eb5-b36685ee5243"},"vehicle_type_id":"4","last_reported":1735078096,"current_range_meters":38000,"station_id":"ce4bhbp2rcd13ifvqerg","pricing_plan_id":"cebpf4jnsgd1na2vs0mg"},{"bike_id":"f5a321f6-c838-4879-9e84-b78550753d71","system_id":"levelo_inurba_marseille","lat":43.28861,"lon":5.39294,"is_reserved":false,"is_disabled":false,"rental_uris":{"android":"levelo://app?vid=f5a321f6-c838-4879-9e84-b78550753d71","ios":"levelo://app?vid=f5a321f6-c838-4879-9e84-b78550753d71"},"vehicle_type_id":"4","last_reported":1735078096,"current_range_meters":32400,"station_id":"ce4bh2p2rcd13ifvqdi0","pricing_plan_id":"cebpf4jnsgd1na2vs0mg"},{"bike_id":"7160b1eb-33a0-4924-ba09-0166c2686280","system_id":"levelo_inurba_marseille","lat":43.32364,"lon":5.38886,"is_reserved":false,"is_disabled":false,"rental_uris":{"android":"levelo://app?vid=7160b1eb-33a0-4924-ba09-0166c2686280","ios":"levelo://app?vid=7160b1eb-33a0-4924-ba09-0166c2686280"},"vehicle_type_id":"4","last_reported":1735078096,"current_range_meters":32000,"station_id":"ce4bhqp2rcd13ifvqhog","pricing_plan_id":"cebpf4jnsgd1na2vs0mg"},{"bike_id":"9023135d-7e0b-45ba-b451-810ee41de07c","system_id":"levelo_inurba_marseille","lat":43.31122,"lon":5.37765,"is_reserved":false,"is_disabled":false,"rental_uris":{"android":"levelo://app?vid=9023135d-7e0b-45ba-b451-810ee41de07c","ios":"levelo://app?vid=9023135d-7e0b-45ba-b451-810ee41de07c"},"vehicle_type_id":"4","last_reported":1735078096,"current_range_meters":36000,"station_id":"ce4bgt92rcd13ifvqcg0","pricing_plan_id":"cebpf4jnsgd1na2vs0mg"},{"bike_id":"7bc7229d-6357-401a-bdf2-266d948e482e","system_id":"levelo_inurba_marseille","lat":43.28851,"lon":5.39322,"is_reserved":false,"is_disabled":true,"rental_uris":{"android":"levelo://app?vid=7bc7229d-6357-401a-bdf2-266d948e482e","ios":"levelo://app?vid=7bc7229d-6357-401a-bdf2-266d948e482e"},"vehicle_type_id":"4","last_reported":1735078096,"current_range_meters":34000,"station_id":"ce4bh2p2rcd13ifvqdi0","pricing_plan_id":"cebpf4jnsgd1na2vs0mg"},{"bike_id":"b74f3be8-f592-4627-aa66-3b768db349aa","system_id":"levelo_inurba_marseille","lat":43.2874,"lon":5.36077,"is_reserved":false,"is_disabled":false,"rental_uris":{"android":"levelo://app?vid=b74f3be8-f592-4627-aa66-3b768db349aa","ios":"levelo://app?vid=b74f3be8-f592-4627-aa66-3b768db349aa"},"vehicle_type_id":"4","last_reported":1735078096,"current_range_meters":37600,"station_id":"cki0cbj6b192h4jlfktg","pricing_plan_id":"cebpf4jnsgd1na2vs0mg"},{"bike_id":"d5c463a7-9745-4c1d-b4d2-81d7f102aea8","system_id":"levelo_inurba_marseille","lat":43.33555,"lon":5.40985,"is_reserved":false,"is_disabled":false,"rental_uris":{"android":"levelo://app?vid=d5c463a7-9745-4c1d-b4d2-81d7f102aea8","ios":"levelo://app?vid=d5c463a7-9745-4c1d-b4d2-81d7f102aea8"},"vehicle_type_id":"4","last_reported":1735078096,"current_range_meters":28800,"station_id":"","pricing_plan_id":"cebpf4jnsgd1na2vs0mg"},{"bike_id":"48563786-3a1f-413c-937a-39b3cb59c67f","system_id":"levelo_inurba_marseille","lat":43.29555,"lon":5.37499,"is_reserved":false,"is_disabled":false,"rental_uris":{"android":"levelo://app?vid=48563786-3a1f-413c-937a-39b3cb59c67f","ios":"levelo://app?vid=48563786-3a1f-413c-937a-39b3cb59c67f"},"vehicle_type_id":"4","last_reported":1735078096,"current_range_meters":17200,"station_id":"ce4bgkp2rcd13ifvqbmg","pricing_plan_id":"cebpf4jnsgd1na2vs0mg"},{"bike_id":"a6056214-7349-4e24-8688-8ac8cc295a81","system_id":"levelo_inurba_marseille","lat":43.29279,"lon":5.40122,"is_reserved":false,"is_disabled":false,"rental_uris":{"android":"levelo://app?vid=a6056214-7349-4e24-8688-8ac8cc295a81","ios":"levelo://app?vid=a6056214-7349-4e24-8688-8ac8cc295a81"},"vehicle_type_id":"4","last_reported":1735078096,"current_range_meters":38800,"station_id":"ce4bh312rcd13ifvqdk0","pricing_plan_id":"cebpf4jnsgd1na2vs0mg"},{"bike_id":"89a639d4-ff1f-4ff6-8b8c-a4df41cf2c0e","system_id":"levelo_inurba_marseille","lat":43.23957,"lon":5.36633,"is_reserved":false,"is_disabled":false,"rental_uris":{"android":"levelo://app?vid=89a639d4-ff1f-4ff6-8b8c-a4df41cf2c0e","ios":"levelo://app?vid=89a639d4-ff1f-4ff6-8b8c-a4df41cf2c0e"},"vehicle_type_id":"4","last_reported":1735078096,"current_range_meters":38800,"station_id":"ce4bhi12rcd13ifvqfp0","pricing_plan_id":"cebpf4jnsgd1na2vs0mg"},{"bike_id":"ad16f0da-0df8-48a3-b613-ecf0d020a0ec","system_id":"levelo_inurba_marseille","lat":43.31112,"lon":5.37762,"is_reserved":false,"is_disabled":false,"rental_uris":{"android":"levelo://app?vid=ad16f0da-0df8-48a3-b613-ecf0d020a0ec","ios":"levelo://app?vid=ad16f0da-0df8-48a3-b613-ecf0d020a0ec"},"vehicle_type_id":"4","last_reported":1735078096,"current_range_meters":31200,"station_id":"ce4bgt92rcd13ifvqcg0","pricing_plan_id":"cebpf4jnsgd1na2vs0mg"},{"bike_id":"96f67906-c94f-4a78-ae6e-fdff28a17019","system_id":"levelo_inurba_marseille","lat":43.33833,"lon":5.37432,"is_reserved":false,"is_disabled":false,"rental_uris":{"android":"levelo://app?vid=96f67906-c94f-4a78-ae6e-fdff28a17019","ios":"levelo://app?vid=96f67906-c94f-4a78-ae6e-fdff28a17019"},"vehicle_type_id":"4","last_reported":1735078096,"current_range_meters":8400,"station_id":"","pricing_plan_id":"cebpf4jnsgd1na2vs0mg"},{"bike_id":"b411a283-e781-467a-9dd8-9e52e59fbfa5","system_id":"levelo_inurba_marseille","lat":43.28733,"lon":5.36072,"is_reserved":false,"is_disabled":false,"rental_uris":{"android":"levelo://app?vid=b411a283-e781-467a-9dd8-9e52e59fbfa5","ios":"levelo://app?vid=b411a283-e781-467a-9dd8-9e52e59fbfa5"},"vehicle_type_id":"4","last_reported":1735078096,"current_range_meters":38800,"station_id":"cki0cbj6b192h4jlfktg","pricing_plan_id":"cebpf4jnsgd1na2vs0mg"},{"bike_id":"b9c83c83-cf96-4e57-b709-6459d0acaf9f","system_id":"levelo_inurba_marseille","lat":43.26815,"lon":5.40266,"is_reserved":false,"is_disabled":false,"rental_uris":{"android":"levelo://app?vid=b9c83c83-cf96-4e57-b709-6459d0acaf9f","ios":"levelo://app?vid=b9c83c83-cf96-4e57-b709-6459d0acaf9f"},"vehicle_type_id":"4","last_reported":1735078096,"current_range_meters":38400,"station_id":"ce501612rcd8frsf0b60","pricing_plan_id":"cebpf4jnsgd1na2vs0mg"},{"bike_id":"c4a602aa-8a8d-433e-9ace-469babb818bf","system_id":"levelo_inurba_marseille","lat":43.30406,"lon":5.39782,"is_reserved":false,"is_disabled":false,"rental_uris":{"android":"levelo://app?vid=c4a602aa-8a8d-433e-9ace-469babb818bf","ios":"levelo://app?vid=c4a602aa-8a8d-433e-9ace-469babb818bf"},"vehicle_type_id":"4","last_reported":1735078096,"current_range_meters":38000,"station_id":"ce4bh092rcd13ifvqd20","pricing_plan_id":"cebpf4jnsgd1na2vs0mg"},{"bike_id":"6c0d88cf-2303-4fc6-bdb3-776a9d505235","system_id":"levelo_inurba_marseille","lat":43.29738,"lon":5.3768,"is_reserved":false,"is_disabled":false,"rental_uris":{"android":"levelo://app?vid=6c0d88cf-2303-4fc6-bdb3-776a9d505235","ios":"levelo://app?vid=6c0d88cf-2303-4fc6-bdb3-776a9d505235"},"vehicle_type_id":"4","last_reported":1735078096,"current_range_meters":14800,"station_id":"ce4bgkh2rcd13ifvqbl0","pricing_plan_id":"cebpf4jnsgd1na2vs0mg"},{"bike_id":"fa3ed25e-9f65-4960-b3cb-77f0d1c71ed6","system_id":"levelo_inurba_marseille","lat":43.28102,"lon":5.37839,"is_reserved":false,"is_disabled":false,"rental_uris":{"android":"levelo://app?vid=fa3ed25e-9f65-4960-b3cb-77f0d1c71ed6","ios":"levelo://app?vid=fa3ed25e-9f65-4960-b3cb-77f0d1c71ed6"},"vehicle_type_id":"4","last_reported":1735078096,"current_range_meters":30400,"station_id":"ce4bha12rcd13ifvqee0","pricing_plan_id":"cebpf4jnsgd1na2vs0mg"},{"bike_id":"4337139c-b826-439f-889f-abe484bd80e4","system_id":"levelo_inurba_marseille","lat":43.27962,"lon":5.38709,"is_reserved":false,"is_disabled":false,"rental_uris":{"android":"levelo://app?vid=4337139c-b826-439f-889f-abe484bd80e4","ios":"levelo://app?vid=4337139c-b826-439f-889f-abe484bd80e4"},"vehicle_type_id":"4","last_reported":1735078096,"current_range_meters":30400,"station_id":"ce4bhg12rcd13ifvqf80","pricing_plan_id":"cebpf4jnsgd1na2vs0mg"},{"bike_id":"c545c064-810c-4b88-8ce1-2f5a358c01ce","system_id":"levelo_inurba_marseille","lat":43.29547,"lon":5.42268,"is_reserved":false,"is_disabled":false,"rental_uris":{"android":"levelo://app?vid=c545c064-810c-4b88-8ce1-2f5a358c01ce","ios":"levelo://app?vid=c545c064-810c-4b88-8ce1-2f5a358c01ce"},"vehicle_type_id":"4","last_reported":1735078096,"current_range_meters":16400,"station_id":"ce4bhph2rcd13ifvqhdg","pricing_plan_id":"cebpf4jnsgd1na2vs0mg"},{"bike_id":"b6174f09-affc-48de-b964-987935efedda","system_id":"levelo_inurba_marseille","lat":43.31078,"lon":5.38347,"is_reserved":false,"is_disabled":false,"rental_uris":{"android":"levelo://app?vid=b6174f09-affc-48de-b964-987935efedda","ios":"levelo://app?vid=b6174f09-affc-48de-b964-987935efedda"},"vehicle_type_id":"4","last_reported":1735078096,"current_range_meters":30000,"station_id":"ce4bgv92rcd13ifvqcr0","pricing_plan_id":"cebpf4jnsgd1na2vs0mg"},{"bike_id":"0c53249b-f8b0-49b1-a6ff-f0450399dcf4","system_id":"levelo_inurba_marseille","lat":43.30184,"lon":5.36623,"is_reserved":false,"is_disabled":false,"rental_uris":{"android":"levelo://app?vid=0c53249b-f8b0-49b1-a6ff-f0450399dcf4","ios":"levelo://app?vid=0c53249b-f8b0-49b1-a6ff-f0450399dcf4"},"vehicle_type_id":"4","last_reported":1735078096,"current_range_meters":38800,"station_id":"ce4bgrh2rcd13ifvqc8g","pricing_plan_id":"cebpf4jnsgd1na2vs0mg"},{"bike_id":"6e2ce516-9a65-4382-930b-c9c67ce2ce1a","system_id":"levelo_inurba_marseille","lat":43.31273,"lon":5.40154,"is_reserved":false,"is_disabled":false,"rental_uris":{"android":"levelo://app?vid=6e2ce516-9a65-4382-930b-c9c67ce2ce1a","ios":"levelo://app?vid=6e2ce516-9a65-4382-930b-c9c67ce2ce1a"},"vehicle_type_id":"4","last_reported":1735078096,"current_range_meters":32800,"station_id":"ce4bh092rcd13ifvqd30","pricing_plan_id":"cebpf4jnsgd1na2vs0mg"},{"bike_id":"9e5d7ffa-7997-49c9-9c43-682bae212a92","system_id":"levelo_inurba_marseille","lat":43.30462,"lon":5.37908,"is_reserved":false,"is_disabled":false,"rental_uris":{"android":"levelo://app?vid=9e5d7ffa-7997-49c9-9c43-682bae212a92","ios":"levelo://app?vid=9e5d7ffa-7997-49c9-9c43-682bae212a92"},"vehicle_type_id":"4","last_reported":1735078096,"current_range_meters":38800,"station_id":"ce4bgup2rcd13ifvqcn0","pricing_plan_id":"cebpf4jnsgd1na2vs0mg"},{"bike_id":"d5d3d2c2-5b18-4b1e-a14e-2a877450ed25","system_id":"levelo_inurba_marseille","lat":43.32344,"lon":5.40617,"is_reserved":false,"is_disabled":false,"rental_uris":{"android":"levelo://app?vid=d5d3d2c2-5b18-4b1e-a14e-2a877450ed25","ios":"levelo://app?vid=d5d3d2c2-5b18-4b1e-a14e-2a877450ed25"},"vehicle_type_id":"4","last_reported":1735078096,"current_range_meters":32400,"station_id":"ce4bhq92rcd13ifvqhjg","pricing_plan_id":"cebpf4jnsgd1na2vs0mg"},{"bike_id":"fba7b61d-832a-4843-a6b6-7aeaf903afb3","system_id":"levelo_inurba_marseille","lat":43.27421,"lon":5.39414,"is_reserved":false,"is_disabled":false,"rental_uris":{"android":"levelo://app?vid=fba7b61d-832a-4843-a6b6-7aeaf903afb3","ios":"levelo://app?vid=fba7b61d-832a-4843-a6b6-7aeaf903afb3"},"vehicle_type_id":"4","last_reported":1735078096,"current_range_meters":26000,"station_id":"ce4bhdp2rcd13ifvqf20","pricing_plan_id":"cebpf4jnsgd1na2vs0mg"},{"bike_id":"70d91ea8-bcf1-4b2a-80bf-9c28caf13ec7","system_id":"levelo_inurba_marseille","lat":43.28696,"lon":5.39986,"is_reserved":false,"is_disabled":false,"rental_uris":{"android":"levelo://app?vid=70d91ea8-bcf1-4b2a-80bf-9c28caf13ec7","ios":"levelo://app?vid=70d91ea8-bcf1-4b2a-80bf-9c28caf13ec7"},"vehicle_type_id":"4","last_reported":1735078096,"current_range_meters":17200,"station_id":"ce4bho92rcd13ifvqh3g","pricing_plan_id":"cebpf4jnsgd1na2vs0mg"},{"bike_id":"13a29cfb-4ca0-4903-96b1-b192a8a42624","system_id":"levelo_inurba_marseille","lat":43.23061,"lon":5.35489,"is_reserved":false,"is_disabled":false,"rental_uris":{"android":"levelo://app?vid=13a29cfb-4ca0-4903-96b1-b192a8a42624","ios":"levelo://app?vid=13a29cfb-4ca0-4903-96b1-b192a8a42624"},"vehicle_type_id":"4","last_reported":1735078096,"current_range_meters":36400,"station_id":"cpo3342slgdg3j2ifvpg","pricing_plan_id":"cebpf4jnsgd1na2vs0mg"},{"bike_id":"80db3b66-a5e8-44aa-b38d-701943d511de","system_id":"levelo_inurba_marseille","lat":43.25491,"lon":5.37661,"is_reserved":false,"is_disabled":false,"rental_uris":{"android":"levelo://app?vid=80db3b66-a5e8-44aa-b38d-701943d511de","ios":"levelo://app?vid=80db3b66-a5e8-44aa-b38d-701943d511de"},"vehicle_type_id":"4","last_reported":1735078096,"current_range_meters":12400,"station_id":"ce4bhh12rcd13ifvqff0","pricing_plan_id":"cebpf4jnsgd1na2vs0mg"},{"bike_id":"b76cea7e-5025-4e14-a8c7-eebf31292c4c","system_id":"levelo_inurba_marseille","lat":43.26067,"lon":5.39394,"is_reserved":false,"is_disabled":true,"rental_uris":{"android":"levelo://app?vid=b76cea7e-5025-4e14-a8c7-eebf31292c4c","ios":"levelo://app?vid=b76cea7e-5025-4e14-a8c7-eebf31292c4c"},"vehicle_type_id":"4","last_reported":1735078096,"current_range_meters":23200,"station_id":"ce4bhh92rcd13ifvqfj0","pricing_plan_id":"cebpf4jnsgd1na2vs0mg"},{"bike_id":"64bd181e-daca-4b41-84bd-e6d84057fcdc","system_id":"levelo_inurba_marseille","lat":43.29026,"lon":5.37554,"is_reserved":false,"is_disabled":false,"rental_uris":{"android":"levelo://app?vid=64bd181e-daca-4b41-84bd-e6d84057fcdc","ios":"levelo://app?vid=64bd181e-daca-4b41-84bd-e6d84057fcdc"},"vehicle_type_id":"4","last_reported":1735078096,"current_range_meters":38800,"station_id":"ce4bh692rcd13ifvqe90","pricing_plan_id":"cebpf4jnsgd1na2vs0mg"},{"bike_id":"24346bc7-f1dc-4975-9a51-bb54ce38a842","system_id":"levelo_inurba_marseille","lat":43.2985,"lon":5.36287,"is_reserved":false,"is_disabled":false,"rental_uris":{"android":"levelo://app?vid=24346bc7-f1dc-4975-9a51-bb54ce38a842","ios":"levelo://app?vid=24346bc7-f1dc-4975-9a51-bb54ce38a842"},"vehicle_type_id":"4","last_reported":1735078096,"current_range_meters":10000,"station_id":"ce4bgpp2rcd13ifvqc3g","pricing_plan_id":"cebpf4jnsgd1na2vs0mg"},{"bike_id":"d0533ccb-11ce-46dc-9cca-daa9f7a4985a","system_id":"levelo_inurba_marseille","lat":43.29608,"lon":5.42255,"is_reserved":false,"is_disabled":false,"rental_uris":{"android":"levelo://app?vid=d0533ccb-11ce-46dc-9cca-daa9f7a4985a","ios":"levelo://app?vid=d0533ccb-11ce-46dc-9cca-daa9f7a4985a"},"vehicle_type_id":"4","last_reported":1735078096,"current_range_meters":38800,"station_id":"ce4bhph2rcd13ifvqhdg","pricing_plan_id":"cebpf4jnsgd1na2vs0mg"},{"bike_id":"01c45f5b-1732-4f94-bce0-0927df1ef8fe","system_id":"levelo_inurba_marseille","lat":43.31363,"lon":5.38508,"is_reserved":false,"is_disabled":false,"rental_uris":{"android":"levelo://app?vid=01c45f5b-1732-4f94-bce0-0927df1ef8fe","ios":"levelo://app?vid=01c45f5b-1732-4f94-bce0-0927df1ef8fe"},"vehicle_type_id":"4","last_reported":1735078096,"current_range_meters":32400,"station_id":"ce4bgt92rcd13ifvqcf0","pricing_plan_id":"cebpf4jnsgd1na2vs0mg"},{"bike_id":"5d29fc56-dbb2-4006-96bc-27e181f8d4f5","system_id":"levelo_inurba_marseille","lat":43.29856,"lon":5.36289,"is_reserved":false,"is_disabled":false,"rental_uris":{"android":"levelo://app?vid=5d29fc56-dbb2-4006-96bc-27e181f8d4f5","ios":"levelo://app?vid=5d29fc56-dbb2-4006-96bc-27e181f8d4f5"},"vehicle_type_id":"4","last_reported":1735078096,"current_range_meters":34800,"station_id":"ce4bgpp2rcd13ifvqc3g","pricing_plan_id":"cebpf4jnsgd1na2vs0mg"},{"bike_id":"fdea77be-775a-439f-8feb-aaff8920f3a4","system_id":"levelo_inurba_marseille","lat":43.33611,"lon":5.41034,"is_reserved":false,"is_disabled":false,"rental_uris":{"android":"levelo://app?vid=fdea77be-775a-439f-8feb-aaff8920f3a4","ios":"levelo://app?vid=fdea77be-775a-439f-8feb-aaff8920f3a4"},"vehicle_type_id":"4","last_reported":1735078096,"current_range_meters":36800,"station_id":"ce4bhqh2rcd13ifvqhmg","pricing_plan_id":"cebpf4jnsgd1na2vs0mg"},{"bike_id":"353cf4bf-62f4-49e8-b2f4-5a6260c37422","system_id":"levelo_inurba_marseille","lat":43.29987,"lon":5.38517,"is_reserved":false,"is_disabled":false,"rental_uris":{"android":"levelo://app?vid=353cf4bf-62f4-49e8-b2f4-5a6260c37422","ios":"levelo://app?vid=353cf4bf-62f4-49e8-b2f4-5a6260c37422"},"vehicle_type_id":"4","last_reported":1735078096,"current_range_meters":37600,"station_id":"ce4bgj92rcd13ifvqbd0","pricing_plan_id":"cebpf4jnsgd1na2vs0mg"},{"bike_id":"12cf721d-cf48-40fa-a6cb-e48a42b4d86d","system_id":"levelo_inurba_marseille","lat":43.27046,"lon":5.40267,"is_reserved":false,"is_disabled":false,"rental_uris":{"android":"levelo://app?vid=12cf721d-cf48-40fa-a6cb-e48a42b4d86d","ios":"levelo://app?vid=12cf721d-cf48-40fa-a6cb-e48a42b4d86d"},"vehicle_type_id":"4","last_reported":1735078096,"current_range_meters":30000,"station_id":"ce4bhk92rcd13ifvqgc0","pricing_plan_id":"cebpf4jnsgd1na2vs0mg"},{"bike_id":"339ddeb4-ebfd-4dc3-99a8-5e444160ed17","system_id":"levelo_inurba_marseille","lat":43.28696,"lon":5.37398,"is_reserved":false,"is_disabled":false,"rental_uris":{"android":"levelo://app?vid=339ddeb4-ebfd-4dc3-99a8-5e444160ed17","ios":"levelo://app?vid=339ddeb4-ebfd-4dc3-99a8-5e444160ed17"},"vehicle_type_id":"4","last_reported":1735078096,"current_range_meters":33600,"station_id":"ce4bh3p2rcd13ifvqdq0","pricing_plan_id":"cebpf4jnsgd1na2vs0mg"},{"bike_id":"9c3a9d93-4051-4838-a4fc-2e6f7fa92716","system_id":"levelo_inurba_marseille","lat":43.27075,"lon":5.42272,"is_reserved":false,"is_disabled":false,"rental_uris":{"android":"levelo://app?vid=9c3a9d93-4051-4838-a4fc-2e6f7fa92716","ios":"levelo://app?vid=9c3a9d93-4051-4838-a4fc-2e6f7fa92716"},"vehicle_type_id":"4","last_reported":1735078096,"current_range_meters":24800,"station_id":"ce4bhk92rcd13ifvqgb0","pricing_plan_id":"cebpf4jnsgd1na2vs0mg"},{"bike_id":"a0ee720d-b396-4044-b80b-82eaeaee6c0e","system_id":"levelo_inurba_marseille","lat":43.29574,"lon":5.37503,"is_reserved":false,"is_disabled":false,"rental_uris":{"android":"levelo://app?vid=a0ee720d-b396-4044-b80b-82eaeaee6c0e","ios":"levelo://app?vid=a0ee720d-b396-4044-b80b-82eaeaee6c0e"},"vehicle_type_id":"4","last_reported":1735078096,"current_range_meters":21600,"station_id":"ce4bgh92rcd13ifvqb50","pricing_plan_id":"cebpf4jnsgd1na2vs0mg"},{"bike_id":"6025e78d-688d-479d-8265-20e74aeb1e4e","system_id":"levelo_inurba_marseille","lat":43.2841,"lon":5.37503,"is_reserved":false,"is_disabled":false,"rental_uris":{"android":"levelo://app?vid=6025e78d-688d-479d-8265-20e74aeb1e4e","ios":"levelo://app?vid=6025e78d-688d-479d-8265-20e74aeb1e4e"},"vehicle_type_id":"4","last_reported":1735078096,"current_range_meters":10000,"station_id":"ce4bh412rcd13ifvqds0","pricing_plan_id":"cebpf4jnsgd1na2vs0mg"},{"bike_id":"273956bb-97ab-46a9-b451-cb1b9b413f10","system_id":"levelo_inurba_marseille","lat":43.3117,"lon":5.38712,"is_reserved":false,"is_disabled":false,"rental_uris":{"android":"levelo://app?vid=273956bb-97ab-46a9-b451-cb1b9b413f10","ios":"levelo://app?vid=273956bb-97ab-46a9-b451-cb1b9b413f10"},"vehicle_type_id":"4","last_reported":1735078096,"current_range_meters":38800,"station_id":"ce4bgv12rcd13ifvqcp0","pricing_plan_id":"cebpf4jnsgd1na2vs0mg"},{"bike_id":"4a084c7e-6359-4acb-8f25-f015df249fc2","system_id":"levelo_inurba_marseille","lat":43.26496,"lon":5.39544,"is_reserved":false,"is_disabled":false,"rental_uris":{"android":"levelo://app?vid=4a084c7e-6359-4acb-8f25-f015df249fc2","ios":"levelo://app?vid=4a084c7e-6359-4acb-8f25-f015df249fc2"},"vehicle_type_id":"4","last_reported":1735078096,"current_range_meters":36000,"station_id":"ce4bhi12rcd13ifvqfq0","pricing_plan_id":"cebpf4jnsgd1na2vs0mg"},{"bike_id":"c3e392dd-fb9d-49c1-97de-a5f941076d5c","system_id":"levelo_inurba_marseille","lat":43.29257,"lon":5.409,"is_reserved":false,"is_disabled":false,"rental_uris":{"android":"levelo://app?vid=c3e392dd-fb9d-49c1-97de-a5f941076d5c","ios":"levelo://app?vid=c3e392dd-fb9d-49c1-97de-a5f941076d5c"},"vehicle_type_id":"4","last_reported":1735078096,"current_range_meters":24000,"station_id":"ce4bh192rcd13ifvqdc0","pricing_plan_id":"cebpf4jnsgd1na2vs0mg"},{"bike_id":"2652abeb-1c53-4b2a-907c-7b48c73ec35c","system_id":"levelo_inurba_marseille","lat":43.30591,"lon":5.37226,"is_reserved":false,"is_disabled":false,"rental_uris":{"android":"levelo://app?vid=2652abeb-1c53-4b2a-907c-7b48c73ec35c","ios":"levelo://app?vid=2652abeb-1c53-4b2a-907c-7b48c73ec35c"},"vehicle_type_id":"4","last_reported":1735078096,"current_range_meters":36400,"station_id":"ce4bgqh2rcd13ifvqc4g","pricing_plan_id":"cebpf4jnsgd1na2vs0mg"},{"bike_id":"eaa93ee8-361b-4bd6-bc3c-a3486958f70d","system_id":"levelo_inurba_marseille","lat":43.29795,"lon":5.37103,"is_reserved":false,"is_disabled":false,"rental_uris":{"android":"levelo://app?vid=eaa93ee8-361b-4bd6-bc3c-a3486958f70d","ios":"levelo://app?vid=eaa93ee8-361b-4bd6-bc3c-a3486958f70d"},"vehicle_type_id":"4","last_reported":1735078096,"current_range_meters":38800,"station_id":"ce4bgop2rcd13ifvqc1g","pricing_plan_id":"cebpf4jnsgd1na2vs0mg"},{"bike_id":"40c0bad0-8626-4c9b-b59b-9fad04a61df9","system_id":"levelo_inurba_marseille","lat":43.28375,"lon":5.38644,"is_reserved":false,"is_disabled":false,"rental_uris":{"android":"levelo://app?vid=40c0bad0-8626-4c9b-b59b-9fad04a61df9","ios":"levelo://app?vid=40c0bad0-8626-4c9b-b59b-9fad04a61df9"},"vehicle_type_id":"4","last_reported":1735078096,"current_range_meters":38800,"station_id":"ce4bh492rcd13ifvqdvg","pricing_plan_id":"cebpf4jnsgd1na2vs0mg"},{"bike_id":"e724f4e5-0922-4e36-91f4-8a4c9d514ff5","system_id":"levelo_inurba_marseille","lat":43.298456,"lon":5.362635,"is_reserved":false,"is_disabled":false,"rental_uris":{"android":"levelo://app?vid=e724f4e5-0922-4e36-91f4-8a4c9d514ff5","ios":"levelo://app?vid=e724f4e5-0922-4e36-91f4-8a4c9d514ff5"},"vehicle_type_id":"4","last_reported":1735078096,"current_range_meters":36800,"station_id":"ce4bgpp2rcd13ifvqc3g","pricing_plan_id":"cebpf4jnsgd1na2vs0mg"},{"bike_id":"b392a593-72dd-421f-8809-b96d8a7b6a48","system_id":"levelo_inurba_marseille","lat":43.30143,"lon":5.38765,"is_reserved":false,"is_disabled":false,"rental_uris":{"android":"levelo://app?vid=b392a593-72dd-421f-8809-b96d8a7b6a48","ios":"levelo://app?vid=b392a593-72dd-421f-8809-b96d8a7b6a48"},"vehicle_type_id":"4","last_reported":1735078096,"current_range_meters":37600,"station_id":"ce4bghh2rcd13ifvqb60","pricing_plan_id":"cebpf4jnsgd1na2vs0mg"},{"bike_id":"3a27b30d-c3f9-412d-bbb7-90b32a3ec120","system_id":"levelo_inurba_marseille","lat":43.28002,"lon":5.40012,"is_reserved":false,"is_disabled":false,"rental_uris":{"android":"levelo://app?vid=3a27b30d-c3f9-412d-bbb7-90b32a3ec120","ios":"levelo://app?vid=3a27b30d-c3f9-412d-bbb7-90b32a3ec120"},"vehicle_type_id":"4","last_reported":1735078096,"current_range_meters":37600,"station_id":"ce4bho92rcd13ifvqh4g","pricing_plan_id":"cebpf4jnsgd1na2vs0mg"},{"bike_id":"19c0a0c0-9857-43fa-bca0-8d8e9d966de8","system_id":"levelo_inurba_marseille","lat":43.31891,"lon":5.40729,"is_reserved":false,"is_disabled":false,"rental_uris":{"android":"levelo://app?vid=19c0a0c0-9857-43fa-bca0-8d8e9d966de8","ios":"levelo://app?vid=19c0a0c0-9857-43fa-bca0-8d8e9d966de8"},"vehicle_type_id":"4","last_reported":1735078096,"current_range_meters":38800,"station_id":"ce4bhq12rcd13ifvqhig","pricing_plan_id":"cebpf4jnsgd1na2vs0mg"},{"bike_id":"fa7b6f51-07ff-4e1f-ba75-2880fb9ee1b2","system_id":"levelo_inurba_marseille","lat":43.24169,"lon":5.36397,"is_reserved":false,"is_disabled":false,"rental_uris":{"android":"levelo://app?vid=fa7b6f51-07ff-4e1f-ba75-2880fb9ee1b2","ios":"levelo://app?vid=fa7b6f51-07ff-4e1f-ba75-2880fb9ee1b2"},"vehicle_type_id":"4","last_reported":1735078096,"current_range_meters":34800,"station_id":"cpo36qri1sfpv3e86is0","pricing_plan_id":"cebpf4jnsgd1na2vs0mg"},{"bike_id":"9ff763ff-e414-4d0e-8bb9-b34d48217a3e","system_id":"levelo_inurba_marseille","lat":43.23187,"lon":5.39979,"is_reserved":false,"is_disabled":false,"rental_uris":{"android":"levelo://app?vid=9ff763ff-e414-4d0e-8bb9-b34d48217a3e","ios":"levelo://app?vid=9ff763ff-e414-4d0e-8bb9-b34d48217a3e"},"vehicle_type_id":"4","last_reported":1735078096,"current_range_meters":23200,"station_id":"ce4bhn12rcd13ifvqgqg","pricing_plan_id":"cebpf4jnsgd1na2vs0mg"},{"bike_id":"b2f86a97-af08-41b2-8296-7e91d5858232","system_id":"levelo_inurba_marseille","lat":43.29008,"lon":5.35608,"is_reserved":false,"is_disabled":false,"rental_uris":{"android":"levelo://app?vid=b2f86a97-af08-41b2-8296-7e91d5858232","ios":"levelo://app?vid=b2f86a97-af08-41b2-8296-7e91d5858232"},"vehicle_type_id":"4","last_reported":1735078096,"current_range_meters":38400,"station_id":"ce4bhb92rcd13ifvqen0","pricing_plan_id":"cebpf4jnsgd1na2vs0mg"},{"bike_id":"1ec2a529-8c27-4a09-888d-5eb564064887","system_id":"levelo_inurba_marseille","lat":43.295769,"lon":5.399925,"is_reserved":false,"is_disabled":false,"rental_uris":{"android":"levelo://app?vid=1ec2a529-8c27-4a09-888d-5eb564064887","ios":"levelo://app?vid=1ec2a529-8c27-4a09-888d-5eb564064887"},"vehicle_type_id":"4","last_reported":1735078096,"current_range_meters":33600,"station_id":"ce4bh312rcd13ifvqdj0","pricing_plan_id":"cebpf4jnsgd1na2vs0mg"},{"bike_id":"d260eabd-d7e1-4f31-a251-3a682c05eccf","system_id":"levelo_inurba_marseille","lat":43.23188,"lon":5.39988,"is_reserved":false,"is_disabled":true,"rental_uris":{"android":"levelo://app?vid=d260eabd-d7e1-4f31-a251-3a682c05eccf","ios":"levelo://app?vid=d260eabd-d7e1-4f31-a251-3a682c05eccf"},"vehicle_type_id":"4","last_reported":1735078096,"current_range_meters":33200,"station_id":"ce4bhn12rcd13ifvqgqg","pricing_plan_id":"cebpf4jnsgd1na2vs0mg"},{"bike_id":"c7f2e706-b530-453a-987e-9b3f1de4a999","system_id":"levelo_inurba_marseille","lat":43.30798,"lon":5.38166,"is_reserved":false,"is_disabled":false,"rental_uris":{"android":"levelo://app?vid=c7f2e706-b530-453a-987e-9b3f1de4a999","ios":"levelo://app?vid=c7f2e706-b530-453a-987e-9b3f1de4a999"},"vehicle_type_id":"4","last_reported":1735078096,"current_range_meters":38000,"station_id":"ce4bgt12rcd13ifvqce0","pricing_plan_id":"cebpf4jnsgd1na2vs0mg"},{"bike_id":"b81e8144-3fa1-44dd-804b-b934f9862d1d","system_id":"levelo_inurba_marseille","lat":43.299072,"lon":5.381512,"is_reserved":false,"is_disabled":false,"rental_uris":{"android":"levelo://app?vid=b81e8144-3fa1-44dd-804b-b934f9862d1d","ios":"levelo://app?vid=b81e8144-3fa1-44dd-804b-b934f9862d1d"},"vehicle_type_id":"4","last_reported":1735078096,"current_range_meters":38800,"station_id":"ce4bgj12rcd13ifvqbc0","pricing_plan_id":"cebpf4jnsgd1na2vs0mg"},{"bike_id":"356d183b-f2f3-4f03-b14d-0521749fb3e6","system_id":"levelo_inurba_marseille","lat":43.2795,"lon":5.41051,"is_reserved":false,"is_disabled":false,"rental_uris":{"android":"levelo://app?vid=356d183b-f2f3-4f03-b14d-0521749fb3e6","ios":"levelo://app?vid=356d183b-f2f3-4f03-b14d-0521749fb3e6"},"vehicle_type_id":"4","last_reported":1735078096,"current_range_meters":30800,"station_id":"ce4bhnp2rcd13ifvqh0g","pricing_plan_id":"cebpf4jnsgd1na2vs0mg"},{"bike_id":"f68d00f0-3148-454c-ba66-1d06594aedb3","system_id":"levelo_inurba_marseille","lat":43.29907,"lon":5.38149,"is_reserved":false,"is_disabled":false,"rental_uris":{"android":"levelo://app?vid=f68d00f0-3148-454c-ba66-1d06594aedb3","ios":"levelo://app?vid=f68d00f0-3148-454c-ba66-1d06594aedb3"},"vehicle_type_id":"4","last_reported":1735078096,"current_range_meters":38800,"station_id":"ce4bgj12rcd13ifvqbc0","pricing_plan_id":"cebpf4jnsgd1na2vs0mg"},{"bike_id":"a87760bb-860a-41ff-af6f-797f55d9f68d","system_id":"levelo_inurba_marseille","lat":43.29789,"lon":5.39355,"is_reserved":false,"is_disabled":false,"rental_uris":{"android":"levelo://app?vid=a87760bb-860a-41ff-af6f-797f55d9f68d","ios":"levelo://app?vid=a87760bb-860a-41ff-af6f-797f55d9f68d"},"vehicle_type_id":"4","last_reported":1735078096,"current_range_meters":30000,"station_id":"chh1huq6cuj3fo74tm60","pricing_plan_id":"cebpf4jnsgd1na2vs0mg"},{"bike_id":"9ac10cdf-181a-4f36-9f3f-9d2ad904372d","system_id":"levelo_inurba_marseille","lat":43.29869,"lon":5.39721,"is_reserved":false,"is_disabled":false,"rental_uris":{"android":"levelo://app?vid=9ac10cdf-181a-4f36-9f3f-9d2ad904372d","ios":"levelo://app?vid=9ac10cdf-181a-4f36-9f3f-9d2ad904372d"},"vehicle_type_id":"4","last_reported":1735078096,"current_range_meters":28400,"station_id":"ce4bh0h2rcd13ifvqd50","pricing_plan_id":"cebpf4jnsgd1na2vs0mg"},{"bike_id":"fcaf1022-b8ca-4e5c-a198-375c8e01b7f0","system_id":"levelo_inurba_marseille","lat":43.29177,"lon":5.37142,"is_reserved":false,"is_disabled":false,"rental_uris":{"android":"levelo://app?vid=fcaf1022-b8ca-4e5c-a198-375c8e01b7f0","ios":"levelo://app?vid=fcaf1022-b8ca-4e5c-a198-375c8e01b7f0"},"vehicle_type_id":"4","last_reported":1735078096,"current_range_meters":38800,"station_id":"ce4bha92rcd13ifvqeh0","pricing_plan_id":"cebpf4jnsgd1na2vs0mg"},{"bike_id":"d584d26a-e0dc-4c67-b65d-1772f63f3cde","system_id":"levelo_inurba_marseille","lat":43.27617,"lon":5.36112,"is_reserved":false,"is_disabled":false,"rental_uris":{"android":"levelo://app?vid=d584d26a-e0dc-4c67-b65d-1772f63f3cde","ios":"levelo://app?vid=d584d26a-e0dc-4c67-b65d-1772f63f3cde"},"vehicle_type_id":"4","last_reported":1735078096,"current_range_meters":38000,"station_id":"ce4bgj92rcd13ifvqbe0","pricing_plan_id":"cebpf4jnsgd1na2vs0mg"},{"bike_id":"3c079412-698a-4ad7-872c-5c56e449290c","system_id":"levelo_inurba_marseille","lat":43.23147,"lon":5.4372,"is_reserved":false,"is_disabled":false,"rental_uris":{"android":"levelo://app?vid=3c079412-698a-4ad7-872c-5c56e449290c","ios":"levelo://app?vid=3c079412-698a-4ad7-872c-5c56e449290c"},"vehicle_type_id":"4","last_reported":1735078096,"current_range_meters":35600,"station_id":"ce4bhmp2rcd13ifvqgog","pricing_plan_id":"cebpf4jnsgd1na2vs0mg"},{"bike_id":"67762d54-053d-473b-84ab-533f9aa4bb0e","system_id":"levelo_inurba_marseille","lat":43.29789,"lon":5.39341,"is_reserved":false,"is_disabled":false,"rental_uris":{"android":"levelo://app?vid=67762d54-053d-473b-84ab-533f9aa4bb0e","ios":"levelo://app?vid=67762d54-053d-473b-84ab-533f9aa4bb0e"},"vehicle_type_id":"4","last_reported":1735078096,"current_range_meters":38800,"station_id":"chh1huq6cuj3fo74tm60","pricing_plan_id":"cebpf4jnsgd1na2vs0mg"},{"bike_id":"eb493c73-faad-4c01-b4aa-27ac99a1af59","system_id":"levelo_inurba_marseille","lat":43.29634,"lon":5.37161,"is_reserved":false,"is_disabled":false,"rental_uris":{"android":"levelo://app?vid=eb493c73-faad-4c01-b4aa-27ac99a1af59","ios":"levelo://app?vid=eb493c73-faad-4c01-b4aa-27ac99a1af59"},"vehicle_type_id":"4","last_reported":1735078096,"current_range_meters":38400,"station_id":"ce4bgnh2rcd13ifvqc0g","pricing_plan_id":"cebpf4jnsgd1na2vs0mg"},{"bike_id":"745b61e3-138e-43ed-a4d3-3d3125465bde","system_id":"levelo_inurba_marseille","lat":43.26555,"lon":5.39027,"is_reserved":false,"is_disabled":false,"rental_uris":{"android":"levelo://app?vid=745b61e3-138e-43ed-a4d3-3d3125465bde","ios":"levelo://app?vid=745b61e3-138e-43ed-a4d3-3d3125465bde"},"vehicle_type_id":"4","last_reported":1735078096,"current_range_meters":26800,"station_id":"ce4bhe12rcd13ifvqf30","pricing_plan_id":"cebpf4jnsgd1na2vs0mg"},{"bike_id":"4c4ae910-6a1c-4535-b027-ebf3f7594109","system_id":"levelo_inurba_marseille","lat":43.30667,"lon":5.40076,"is_reserved":false,"is_disabled":false,"rental_uris":{"android":"levelo://app?vid=4c4ae910-6a1c-4535-b027-ebf3f7594109","ios":"levelo://app?vid=4c4ae910-6a1c-4535-b027-ebf3f7594109"},"vehicle_type_id":"4","last_reported":1735078096,"current_range_meters":31200,"station_id":"ce4bh112rcd13ifvqda0","pricing_plan_id":"cebpf4jnsgd1na2vs0mg"},{"bike_id":"7608f1ad-6069-4760-9820-c5af492fd707","system_id":"levelo_inurba_marseille","lat":43.29602,"lon":5.36731,"is_reserved":false,"is_disabled":false,"rental_uris":{"android":"levelo://app?vid=7608f1ad-6069-4760-9820-c5af492fd707","ios":"levelo://app?vid=7608f1ad-6069-4760-9820-c5af492fd707"},"vehicle_type_id":"4","last_reported":1735078096,"current_range_meters":38400,"station_id":"ce4bgph2rcd13ifvqc2g","pricing_plan_id":"cebpf4jnsgd1na2vs0mg"},{"bike_id":"4844e9a3-3e0e-46b3-97e0-b21c829303d3","system_id":"levelo_inurba_marseille","lat":43.31896,"lon":5.40725,"is_reserved":false,"is_disabled":false,"rental_uris":{"android":"levelo://app?vid=4844e9a3-3e0e-46b3-97e0-b21c829303d3","ios":"levelo://app?vid=4844e9a3-3e0e-46b3-97e0-b21c829303d3"},"vehicle_type_id":"4","last_reported":1735078096,"current_range_meters":38800,"station_id":"ce4bhq12rcd13ifvqhig","pricing_plan_id":"cebpf4jnsgd1na2vs0mg"},{"bike_id":"2531a841-d2ae-4f82-b31e-c792b7d866bd","system_id":"levelo_inurba_marseille","lat":43.30664,"lon":5.40092,"is_reserved":false,"is_disabled":false,"rental_uris":{"android":"levelo://app?vid=2531a841-d2ae-4f82-b31e-c792b7d866bd","ios":"levelo://app?vid=2531a841-d2ae-4f82-b31e-c792b7d866bd"},"vehicle_type_id":"4","last_reported":1735078096,"current_range_meters":38000,"station_id":"ce4bh112rcd13ifvqda0","pricing_plan_id":"cebpf4jnsgd1na2vs0mg"},{"bike_id":"63aac863-d7ea-4344-81fa-3153d9ba0f58","system_id":"levelo_inurba_marseille","lat":43.29899,"lon":5.3813,"is_reserved":false,"is_disabled":false,"rental_uris":{"android":"levelo://app?vid=63aac863-d7ea-4344-81fa-3153d9ba0f58","ios":"levelo://app?vid=63aac863-d7ea-4344-81fa-3153d9ba0f58"},"vehicle_type_id":"4","last_reported":1735078096,"current_range_meters":36400,"station_id":"ce4bgj12rcd13ifvqbc0","pricing_plan_id":"cebpf4jnsgd1na2vs0mg"},{"bike_id":"6fc39219-982d-4feb-9b3b-e1ba4db40afe","system_id":"levelo_inurba_marseille","lat":43.29607,"lon":5.38089,"is_reserved":false,"is_disabled":false,"rental_uris":{"android":"levelo://app?vid=6fc39219-982d-4feb-9b3b-e1ba4db40afe","ios":"levelo://app?vid=6fc39219-982d-4feb-9b3b-e1ba4db40afe"},"vehicle_type_id":"4","last_reported":1735078096,"current_range_meters":38800,"station_id":"ce4bgl12rcd13ifvqbo0","pricing_plan_id":"cebpf4jnsgd1na2vs0mg"},{"bike_id":"e73e6057-e6e9-407b-a17e-f4e119a96aba","system_id":"levelo_inurba_marseille","lat":43.3211,"lon":5.36772,"is_reserved":false,"is_disabled":false,"rental_uris":{"android":"levelo://app?vid=e73e6057-e6e9-407b-a17e-f4e119a96aba","ios":"levelo://app?vid=e73e6057-e6e9-407b-a17e-f4e119a96aba"},"vehicle_type_id":"4","last_reported":1735078096,"current_range_meters":35200,"station_id":"ce4bhrh2rcd13ifvqhug","pricing_plan_id":"cebpf4jnsgd1na2vs0mg"},{"bike_id":"d3d57b3b-13bc-4c2a-ab0b-2ef5d4c4b8d5","system_id":"levelo_inurba_marseille","lat":43.27668,"lon":5.38887,"is_reserved":false,"is_disabled":false,"rental_uris":{"android":"levelo://app?vid=d3d57b3b-13bc-4c2a-ab0b-2ef5d4c4b8d5","ios":"levelo://app?vid=d3d57b3b-13bc-4c2a-ab0b-2ef5d4c4b8d5"},"vehicle_type_id":"4","last_reported":1735078096,"current_range_meters":20400,"station_id":"ce4bhi12rcd13ifvqfo0","pricing_plan_id":"cebpf4jnsgd1na2vs0mg"},{"bike_id":"ff19ce84-10b6-4ffc-b9fc-1625914b166c","system_id":"levelo_inurba_marseille","lat":43.297116,"lon":5.36612,"is_reserved":false,"is_disabled":false,"rental_uris":{"android":"levelo://app?vid=ff19ce84-10b6-4ffc-b9fc-1625914b166c","ios":"levelo://app?vid=ff19ce84-10b6-4ffc-b9fc-1625914b166c"},"vehicle_type_id":"4","last_reported":1735078096,"current_range_meters":24000,"station_id":"ce4bgn12rcd13ifvqbt0","pricing_plan_id":"cebpf4jnsgd1na2vs0mg"},{"bike_id":"365d08e9-1286-4e9d-b49e-032a6e023429","system_id":"levelo_inurba_marseille","lat":43.30601,"lon":5.37223,"is_reserved":false,"is_disabled":false,"rental_uris":{"android":"levelo://app?vid=365d08e9-1286-4e9d-b49e-032a6e023429","ios":"levelo://app?vid=365d08e9-1286-4e9d-b49e-032a6e023429"},"vehicle_type_id":"4","last_reported":1735078096,"current_range_meters":38800,"station_id":"ce4bgqh2rcd13ifvqc4g","pricing_plan_id":"cebpf4jnsgd1na2vs0mg"},{"bike_id":"7229805d-820e-4381-aa07-8ea31958c18a","system_id":"levelo_inurba_marseille","lat":43.30884,"lon":5.39639,"is_reserved":false,"is_disabled":false,"rental_uris":{"android":"levelo://app?vid=7229805d-820e-4381-aa07-8ea31958c18a","ios":"levelo://app?vid=7229805d-820e-4381-aa07-8ea31958c18a"},"vehicle_type_id":"4","last_reported":1735078096,"current_range_meters":29600,"station_id":"ce4bh012rcd13ifvqcv0","pricing_plan_id":"cebpf4jnsgd1na2vs0mg"},{"bike_id":"4bcb37c0-9249-499d-890c-0bbf93d29f8b","system_id":"levelo_inurba_marseille","lat":43.23189,"lon":5.35545,"is_reserved":false,"is_disabled":true,"rental_uris":{"android":"levelo://app?vid=4bcb37c0-9249-499d-890c-0bbf93d29f8b","ios":"levelo://app?vid=4bcb37c0-9249-499d-890c-0bbf93d29f8b"},"vehicle_type_id":"4","last_reported":1735078096,"current_range_meters":14000,"station_id":"ce4bhu92rcd13ifvqi70","pricing_plan_id":"cebpf4jnsgd1na2vs0mg"},{"bike_id":"2a3b7d32-cff7-495b-b04e-14004fa824a0","system_id":"levelo_inurba_marseille","lat":43.31359,"lon":5.38486,"is_reserved":false,"is_disabled":false,"rental_uris":{"android":"levelo://app?vid=2a3b7d32-cff7-495b-b04e-14004fa824a0","ios":"levelo://app?vid=2a3b7d32-cff7-495b-b04e-14004fa824a0"},"vehicle_type_id":"4","last_reported":1735078096,"current_range_meters":38800,"station_id":"ce4bgt92rcd13ifvqcf0","pricing_plan_id":"cebpf4jnsgd1na2vs0mg"},{"bike_id":"2133dc3b-71f3-49c7-931f-93dc7b490d11","system_id":"levelo_inurba_marseille","lat":43.26033,"lon":5.37546,"is_reserved":false,"is_disabled":false,"rental_uris":{"android":"levelo://app?vid=2133dc3b-71f3-49c7-931f-93dc7b490d11","ios":"levelo://app?vid=2133dc3b-71f3-49c7-931f-93dc7b490d11"},"vehicle_type_id":"4","last_reported":1735078096,"current_range_meters":38000,"station_id":"ce4bhgh2rcd13ifvqfa0","pricing_plan_id":"cebpf4jnsgd1na2vs0mg"},{"bike_id":"e3055757-4e5c-471b-bc49-10de19223f16","system_id":"levelo_inurba_marseille","lat":43.32029,"lon":5.41572,"is_reserved":false,"is_disabled":false,"rental_uris":{"android":"levelo://app?vid=e3055757-4e5c-471b-bc49-10de19223f16","ios":"levelo://app?vid=e3055757-4e5c-471b-bc49-10de19223f16"},"vehicle_type_id":"4","last_reported":1735078096,"current_range_meters":32800,"station_id":"ce4bhq92rcd13ifvqhkg","pricing_plan_id":"cebpf4jnsgd1na2vs0mg"},{"bike_id":"cd557ca8-748b-4022-87fb-b196f5f5086d","system_id":"levelo_inurba_marseille","lat":43.29786,"lon":5.37091,"is_reserved":false,"is_disabled":false,"rental_uris":{"android":"levelo://app?vid=cd557ca8-748b-4022-87fb-b196f5f5086d","ios":"levelo://app?vid=cd557ca8-748b-4022-87fb-b196f5f5086d"},"vehicle_type_id":"4","last_reported":1735078096,"current_range_meters":38000,"station_id":"ce4bgop2rcd13ifvqc1g","pricing_plan_id":"cebpf4jnsgd1na2vs0mg"},{"bike_id":"208be6ab-a99a-4aa4-afe7-ad23a20f3580","system_id":"levelo_inurba_marseille","lat":43.30134,"lon":5.38788,"is_reserved":false,"is_disabled":false,"rental_uris":{"android":"levelo://app?vid=208be6ab-a99a-4aa4-afe7-ad23a20f3580","ios":"levelo://app?vid=208be6ab-a99a-4aa4-afe7-ad23a20f3580"},"vehicle_type_id":"4","last_reported":1735078096,"current_range_meters":38800,"station_id":"ce4bghh2rcd13ifvqb60","pricing_plan_id":"cebpf4jnsgd1na2vs0mg"},{"bike_id":"3e0dffd7-74ff-4814-97ea-253d3881d122","system_id":"levelo_inurba_marseille","lat":43.29612,"lon":5.3774,"is_reserved":false,"is_disabled":false,"rental_uris":{"android":"levelo://app?vid=3e0dffd7-74ff-4814-97ea-253d3881d122","ios":"levelo://app?vid=3e0dffd7-74ff-4814-97ea-253d3881d122"},"vehicle_type_id":"4","last_reported":1735078096,"current_range_meters":33200,"station_id":"ce4bgi92rcd13ifvqb90","pricing_plan_id":"cebpf4jnsgd1na2vs0mg"},{"bike_id":"0d8e7050-5f36-4ff1-bb95-5ba4b8dd65b6","system_id":"levelo_inurba_marseille","lat":43.2604,"lon":5.39372,"is_reserved":false,"is_disabled":false,"rental_uris":{"android":"levelo://app?vid=0d8e7050-5f36-4ff1-bb95-5ba4b8dd65b6","ios":"levelo://app?vid=0d8e7050-5f36-4ff1-bb95-5ba4b8dd65b6"},"vehicle_type_id":"4","last_reported":1735078096,"current_range_meters":38000,"station_id":"ce4bhh92rcd13ifvqfj0","pricing_plan_id":"cebpf4jnsgd1na2vs0mg"},{"bike_id":"1401d782-4c42-4502-9233-ae0e4dbfcaa2","system_id":"levelo_inurba_marseille","lat":43.27427,"lon":5.39416,"is_reserved":false,"is_disabled":false,"rental_uris":{"android":"levelo://app?vid=1401d782-4c42-4502-9233-ae0e4dbfcaa2","ios":"levelo://app?vid=1401d782-4c42-4502-9233-ae0e4dbfcaa2"},"vehicle_type_id":"4","last_reported":1735078096,"current_range_meters":12800,"station_id":"ce4bhdp2rcd13ifvqf20","pricing_plan_id":"cebpf4jnsgd1na2vs0mg"},{"bike_id":"99d58419-7fd2-4ee3-85af-8e206f15bae9","system_id":"levelo_inurba_marseille","lat":43.308131,"lon":5.435198,"is_reserved":false,"is_disabled":false,"rental_uris":{"android":"levelo://app?vid=99d58419-7fd2-4ee3-85af-8e206f15bae9","ios":"levelo://app?vid=99d58419-7fd2-4ee3-85af-8e206f15bae9"},"vehicle_type_id":"4","last_reported":1735078096,"current_range_meters":38800,"station_id":"ce4bhph2rcd13ifvqheg","pricing_plan_id":"cebpf4jnsgd1na2vs0mg"},{"bike_id":"f1a05271-deb6-45df-a57b-c8df010d99a6","system_id":"levelo_inurba_marseille","lat":43.2985,"lon":5.36284,"is_reserved":false,"is_disabled":false,"rental_uris":{"android":"levelo://app?vid=f1a05271-deb6-45df-a57b-c8df010d99a6","ios":"levelo://app?vid=f1a05271-deb6-45df-a57b-c8df010d99a6"},"vehicle_type_id":"4","last_reported":1735078096,"current_range_meters":38800,"station_id":"ce4bgpp2rcd13ifvqc3g","pricing_plan_id":"cebpf4jnsgd1na2vs0mg"},{"bike_id":"ea2c332a-c7fe-4697-b615-7a1289ce9c2c","system_id":"levelo_inurba_marseille","lat":43.29038,"lon":5.37567,"is_reserved":false,"is_disabled":false,"rental_uris":{"android":"levelo://app?vid=ea2c332a-c7fe-4697-b615-7a1289ce9c2c","ios":"levelo://app?vid=ea2c332a-c7fe-4697-b615-7a1289ce9c2c"},"vehicle_type_id":"4","last_reported":1735078096,"current_range_meters":38800,"station_id":"ce4bh692rcd13ifvqe90","pricing_plan_id":"cebpf4jnsgd1na2vs0mg"},{"bike_id":"dad6db58-f5bc-4da2-b0b4-3d5d1002166b","system_id":"levelo_inurba_marseille","lat":43.3211,"lon":5.36776,"is_reserved":false,"is_disabled":false,"rental_uris":{"android":"levelo://app?vid=dad6db58-f5bc-4da2-b0b4-3d5d1002166b","ios":"levelo://app?vid=dad6db58-f5bc-4da2-b0b4-3d5d1002166b"},"vehicle_type_id":"4","last_reported":1735078096,"current_range_meters":29600,"station_id":"ce4bhrh2rcd13ifvqhug","pricing_plan_id":"cebpf4jnsgd1na2vs0mg"},{"bike_id":"d215e6a3-2dbb-4240-82c4-dbdd5ce5595f","system_id":"levelo_inurba_marseille","lat":43.29918,"lon":5.38147,"is_reserved":false,"is_disabled":false,"rental_uris":{"android":"levelo://app?vid=d215e6a3-2dbb-4240-82c4-dbdd5ce5595f","ios":"levelo://app?vid=d215e6a3-2dbb-4240-82c4-dbdd5ce5595f"},"vehicle_type_id":"4","last_reported":1735078096,"current_range_meters":38800,"station_id":"ce4bgj12rcd13ifvqbc0","pricing_plan_id":"cebpf4jnsgd1na2vs0mg"},{"bike_id":"dd7d4a3c-5899-4c44-8ca2-91d460496d28","system_id":"levelo_inurba_marseille","lat":43.24172,"lon":5.3973,"is_reserved":false,"is_disabled":false,"rental_uris":{"android":"levelo://app?vid=dd7d4a3c-5899-4c44-8ca2-91d460496d28","ios":"levelo://app?vid=dd7d4a3c-5899-4c44-8ca2-91d460496d28"},"vehicle_type_id":"4","last_reported":1735078096,"current_range_meters":38800,"station_id":"ce4bhn12rcd13ifvqgpg","pricing_plan_id":"cebpf4jnsgd1na2vs0mg"},{"bike_id":"7f8e539a-2241-4364-812f-32be0d6427b6","system_id":"levelo_inurba_marseille","lat":43.32103,"lon":5.36765,"is_reserved":false,"is_disabled":false,"rental_uris":{"android":"levelo://app?vid=7f8e539a-2241-4364-812f-32be0d6427b6","ios":"levelo://app?vid=7f8e539a-2241-4364-812f-32be0d6427b6"},"vehicle_type_id":"4","last_reported":1735078096,"current_range_meters":27600,"station_id":"ce4bhrh2rcd13ifvqhug","pricing_plan_id":"cebpf4jnsgd1na2vs0mg"},{"bike_id":"bb9b563a-45f8-4329-8f3c-a50a095982e4","system_id":"levelo_inurba_marseille","lat":43.29877,"lon":5.38128,"is_reserved":false,"is_disabled":false,"rental_uris":{"android":"levelo://app?vid=bb9b563a-45f8-4329-8f3c-a50a095982e4","ios":"levelo://app?vid=bb9b563a-45f8-4329-8f3c-a50a095982e4"},"vehicle_type_id":"4","last_reported":1735078096,"current_range_meters":38800,"station_id":"ce4bgj12rcd13ifvqbc0","pricing_plan_id":"cebpf4jnsgd1na2vs0mg"},{"bike_id":"a550f341-6e04-4989-b32f-77b133c98903","system_id":"levelo_inurba_marseille","lat":43.29623,"lon":5.37717,"is_reserved":false,"is_disabled":false,"rental_uris":{"android":"levelo://app?vid=a550f341-6e04-4989-b32f-77b133c98903","ios":"levelo://app?vid=a550f341-6e04-4989-b32f-77b133c98903"},"vehicle_type_id":"4","last_reported":1735078096,"current_range_meters":39200,"station_id":"ce4bgi92rcd13ifvqb90","pricing_plan_id":"cebpf4jnsgd1na2vs0mg"},{"bike_id":"1f60e3a9-5bdb-49c1-9912-d728d8f40aa3","system_id":"levelo_inurba_marseille","lat":43.23154,"lon":5.43712,"is_reserved":false,"is_disabled":false,"rental_uris":{"android":"levelo://app?vid=1f60e3a9-5bdb-49c1-9912-d728d8f40aa3","ios":"levelo://app?vid=1f60e3a9-5bdb-49c1-9912-d728d8f40aa3"},"vehicle_type_id":"4","last_reported":1735078096,"current_range_meters":37600,"station_id":"ce4bhmp2rcd13ifvqgog","pricing_plan_id":"cebpf4jnsgd1na2vs0mg"},{"bike_id":"61efb49e-53ce-4cd1-afef-a5daebcd0fcd","system_id":"levelo_inurba_marseille","lat":43.28411,"lon":5.37507,"is_reserved":false,"is_disabled":false,"rental_uris":{"android":"levelo://app?vid=61efb49e-53ce-4cd1-afef-a5daebcd0fcd","ios":"levelo://app?vid=61efb49e-53ce-4cd1-afef-a5daebcd0fcd"},"vehicle_type_id":"4","last_reported":1735078096,"current_range_meters":15200,"station_id":"ce4bh412rcd13ifvqds0","pricing_plan_id":"cebpf4jnsgd1na2vs0mg"},{"bike_id":"52e68332-07f1-4d50-be34-ff8900a1c988","system_id":"levelo_inurba_marseille","lat":43.29628,"lon":5.37726,"is_reserved":false,"is_disabled":false,"rental_uris":{"android":"levelo://app?vid=52e68332-07f1-4d50-be34-ff8900a1c988","ios":"levelo://app?vid=52e68332-07f1-4d50-be34-ff8900a1c988"},"vehicle_type_id":"4","last_reported":1735078096,"current_range_meters":39200,"station_id":"ce4bgi92rcd13ifvqb90","pricing_plan_id":"cebpf4jnsgd1na2vs0mg"},{"bike_id":"195a92d4-3ce5-42fe-a0f9-4a52f2312334","system_id":"levelo_inurba_marseille","lat":43.29867,"lon":5.3891,"is_reserved":false,"is_disabled":false,"rental_uris":{"android":"levelo://app?vid=195a92d4-3ce5-42fe-a0f9-4a52f2312334","ios":"levelo://app?vid=195a92d4-3ce5-42fe-a0f9-4a52f2312334"},"vehicle_type_id":"4","last_reported":1735078096,"current_range_meters":38800,"station_id":"ce4bh392rcd13ifvqdl0","pricing_plan_id":"cebpf4jnsgd1na2vs0mg"},{"bike_id":"7d51f556-7ada-4233-9b93-03f8f492aa76","system_id":"levelo_inurba_marseille","lat":43.24525,"lon":5.3951,"is_reserved":false,"is_disabled":true,"rental_uris":{"android":"levelo://app?vid=7d51f556-7ada-4233-9b93-03f8f492aa76","ios":"levelo://app?vid=7d51f556-7ada-4233-9b93-03f8f492aa76"},"vehicle_type_id":"4","last_reported":1735078096,"current_range_meters":6000,"station_id":"ce4bhlp2rcd13ifvqgjg","pricing_plan_id":"cebpf4jnsgd1na2vs0mg"},{"bike_id":"1866340a-45b4-4bd2-ac73-392a4ecb2e72","system_id":"levelo_inurba_marseille","lat":43.2985,"lon":5.36274,"is_reserved":false,"is_disabled":false,"rental_uris":{"android":"levelo://app?vid=1866340a-45b4-4bd2-ac73-392a4ecb2e72","ios":"levelo://app?vid=1866340a-45b4-4bd2-ac73-392a4ecb2e72"},"vehicle_type_id":"4","last_reported":1735078096,"current_range_meters":38800,"station_id":"ce4bgpp2rcd13ifvqc3g","pricing_plan_id":"cebpf4jnsgd1na2vs0mg"},{"bike_id":"5b5e383b-efa1-4eb1-84b6-4e597d310e17","system_id":"levelo_inurba_marseille","lat":43.24809,"lon":5.37457,"is_reserved":false,"is_disabled":false,"rental_uris":{"android":"levelo://app?vid=5b5e383b-efa1-4eb1-84b6-4e597d310e17","ios":"levelo://app?vid=5b5e383b-efa1-4eb1-84b6-4e597d310e17"},"vehicle_type_id":"4","last_reported":1735078096,"current_range_meters":38800,"station_id":"ce4bhgh2rcd13ifvqfb0","pricing_plan_id":"cebpf4jnsgd1na2vs0mg"},{"bike_id":"cb9ce6f9-df93-49bd-821d-3648929df4f2","system_id":"levelo_inurba_marseille","lat":43.29092,"lon":5.38142,"is_reserved":false,"is_disabled":false,"rental_uris":{"android":"levelo://app?vid=cb9ce6f9-df93-49bd-821d-3648929df4f2","ios":"levelo://app?vid=cb9ce6f9-df93-49bd-821d-3648929df4f2"},"vehicle_type_id":"4","last_reported":1735078096,"current_range_meters":22400,"station_id":"ce4bh512rcd13ifvqe2g","pricing_plan_id":"cebpf4jnsgd1na2vs0mg"},{"bike_id":"4ed0cabe-875c-4ebe-ad34-74644f479788","system_id":"levelo_inurba_marseille","lat":43.27679,"lon":5.38886,"is_reserved":false,"is_disabled":false,"rental_uris":{"android":"levelo://app?vid=4ed0cabe-875c-4ebe-ad34-74644f479788","ios":"levelo://app?vid=4ed0cabe-875c-4ebe-ad34-74644f479788"},"vehicle_type_id":"4","last_reported":1735078096,"current_range_meters":24000,"station_id":"ce4bhi12rcd13ifvqfo0","pricing_plan_id":"cebpf4jnsgd1na2vs0mg"},{"bike_id":"c2b13e1f-27c5-4ff9-b780-21ce47c387ee","system_id":"levelo_inurba_marseille","lat":43.23191,"lon":5.3998,"is_reserved":false,"is_disabled":false,"rental_uris":{"android":"levelo://app?vid=c2b13e1f-27c5-4ff9-b780-21ce47c387ee","ios":"levelo://app?vid=c2b13e1f-27c5-4ff9-b780-21ce47c387ee"},"vehicle_type_id":"4","last_reported":1735078096,"current_range_meters":38800,"station_id":"ce4bhn12rcd13ifvqgqg","pricing_plan_id":"cebpf4jnsgd1na2vs0mg"},{"bike_id":"836d944f-6d75-4c17-b70a-d071158594dd","system_id":"levelo_inurba_marseille","lat":43.2743,"lon":5.39393,"is_reserved":false,"is_disabled":false,"rental_uris":{"android":"levelo://app?vid=836d944f-6d75-4c17-b70a-d071158594dd","ios":"levelo://app?vid=836d944f-6d75-4c17-b70a-d071158594dd"},"vehicle_type_id":"4","last_reported":1735078096,"current_range_meters":32400,"station_id":"ce4bhdp2rcd13ifvqf20","pricing_plan_id":"cebpf4jnsgd1na2vs0mg"},{"bike_id":"83266379-37de-4908-b393-db3ef6bd1008","system_id":"levelo_inurba_marseille","lat":43.28849,"lon":5.3586,"is_reserved":false,"is_disabled":false,"rental_uris":{"android":"levelo://app?vid=83266379-37de-4908-b393-db3ef6bd1008","ios":"levelo://app?vid=83266379-37de-4908-b393-db3ef6bd1008"},"vehicle_type_id":"4","last_reported":1735078096,"current_range_meters":38800,"station_id":"ce4bhb12rcd13ifvqem0","pricing_plan_id":"cebpf4jnsgd1na2vs0mg"},{"bike_id":"13c39096-92de-47dd-a9ee-5b5cda0c5bbc","system_id":"levelo_inurba_marseille","lat":43.24643,"lon":5.38923,"is_reserved":false,"is_disabled":false,"rental_uris":{"android":"levelo://app?vid=13c39096-92de-47dd-a9ee-5b5cda0c5bbc","ios":"levelo://app?vid=13c39096-92de-47dd-a9ee-5b5cda0c5bbc"},"vehicle_type_id":"4","last_reported":1735078096,"current_range_meters":29600,"station_id":"ce4bhg12rcd13ifvqf60","pricing_plan_id":"cebpf4jnsgd1na2vs0mg"},{"bike_id":"1107b56a-98a5-4a01-8449-9eba086fee5a","system_id":"levelo_inurba_marseille","lat":43.29073,"lon":5.39885,"is_reserved":false,"is_disabled":false,"rental_uris":{"android":"levelo://app?vid=1107b56a-98a5-4a01-8449-9eba086fee5a","ios":"levelo://app?vid=1107b56a-98a5-4a01-8449-9eba086fee5a"},"vehicle_type_id":"4","last_reported":1735078096,"current_range_meters":22800,"station_id":"","pricing_plan_id":"cebpf4jnsgd1na2vs0mg"},{"bike_id":"21834ec0-2f02-45b5-b3ef-1dcac3adfa8f","system_id":"levelo_inurba_marseille","lat":43.3111,"lon":5.37763,"is_reserved":false,"is_disabled":false,"rental_uris":{"android":"levelo://app?vid=21834ec0-2f02-45b5-b3ef-1dcac3adfa8f","ios":"levelo://app?vid=21834ec0-2f02-45b5-b3ef-1dcac3adfa8f"},"vehicle_type_id":"4","last_reported":1735078096,"current_range_meters":38800,"station_id":"ce4bgt92rcd13ifvqcg0","pricing_plan_id":"cebpf4jnsgd1na2vs0mg"},{"bike_id":"29a0f1a8-1d67-4931-af5c-2e3a54c058e2","system_id":"levelo_inurba_marseille","lat":43.30136,"lon":5.39873,"is_reserved":false,"is_disabled":false,"rental_uris":{"android":"levelo://app?vid=29a0f1a8-1d67-4931-af5c-2e3a54c058e2","ios":"levelo://app?vid=29a0f1a8-1d67-4931-af5c-2e3a54c058e2"},"vehicle_type_id":"4","last_reported":1735078096,"current_range_meters":38800,"station_id":"ce4bh0h2rcd13ifvqd40","pricing_plan_id":"cebpf4jnsgd1na2vs0mg"},{"bike_id":"ac2aee16-50b3-41ee-a57d-f3da25ff9a0f","system_id":"levelo_inurba_marseille","lat":43.28685,"lon":5.38656,"is_reserved":false,"is_disabled":false,"rental_uris":{"android":"levelo://app?vid=ac2aee16-50b3-41ee-a57d-f3da25ff9a0f","ios":"levelo://app?vid=ac2aee16-50b3-41ee-a57d-f3da25ff9a0f"},"vehicle_type_id":"4","last_reported":1735078096,"current_range_meters":38000,"station_id":"ce4bh492rcd13ifvqdug","pricing_plan_id":"cebpf4jnsgd1na2vs0mg"},{"bike_id":"6f68edfd-fb24-4919-b968-971a44d10505","system_id":"levelo_inurba_marseille","lat":43.33765,"lon":5.39206,"is_reserved":false,"is_disabled":false,"rental_uris":{"android":"levelo://app?vid=6f68edfd-fb24-4919-b968-971a44d10505","ios":"levelo://app?vid=6f68edfd-fb24-4919-b968-971a44d10505"},"vehicle_type_id":"4","last_reported":1735078096,"current_range_meters":38800,"station_id":"ce4bhr92rcd13ifvqhsg","pricing_plan_id":"cebpf4jnsgd1na2vs0mg"},{"bike_id":"701a41ae-cc9c-4355-9ab3-3df20dac2c0e","system_id":"levelo_inurba_marseille","lat":43.29574,"lon":5.37495,"is_reserved":false,"is_disabled":false,"rental_uris":{"android":"levelo://app?vid=701a41ae-cc9c-4355-9ab3-3df20dac2c0e","ios":"levelo://app?vid=701a41ae-cc9c-4355-9ab3-3df20dac2c0e"},"vehicle_type_id":"4","last_reported":1735078096,"current_range_meters":36000,"station_id":"ce4bgh92rcd13ifvqb50","pricing_plan_id":"cebpf4jnsgd1na2vs0mg"},{"bike_id":"0a12f8eb-66bd-4951-8c87-6397f265a7c7","system_id":"levelo_inurba_marseille","lat":43.29708,"lon":5.36608,"is_reserved":false,"is_disabled":false,"rental_uris":{"android":"levelo://app?vid=0a12f8eb-66bd-4951-8c87-6397f265a7c7","ios":"levelo://app?vid=0a12f8eb-66bd-4951-8c87-6397f265a7c7"},"vehicle_type_id":"4","last_reported":1735078096,"current_range_meters":38800,"station_id":"ce4bgn12rcd13ifvqbt0","pricing_plan_id":"cebpf4jnsgd1na2vs0mg"},{"bike_id":"081617f2-352d-433d-abf2-e1c0c70491b7","system_id":"levelo_inurba_marseille","lat":43.27316,"lon":5.3909,"is_reserved":false,"is_disabled":false,"rental_uris":{"android":"levelo://app?vid=081617f2-352d-433d-abf2-e1c0c70491b7","ios":"levelo://app?vid=081617f2-352d-433d-abf2-e1c0c70491b7"},"vehicle_type_id":"4","last_reported":1735078096,"current_range_meters":38800,"station_id":"ce4bhgp2rcd13ifvqfe0","pricing_plan_id":"cebpf4jnsgd1na2vs0mg"},{"bike_id":"927c9afb-72ed-4ae3-a106-81664712a859","system_id":"levelo_inurba_marseille","lat":43.26934,"lon":5.38911,"is_reserved":false,"is_disabled":false,"rental_uris":{"android":"levelo://app?vid=927c9afb-72ed-4ae3-a106-81664712a859","ios":"levelo://app?vid=927c9afb-72ed-4ae3-a106-81664712a859"},"vehicle_type_id":"4","last_reported":1735078096,"current_range_meters":33600,"station_id":"ce4bhhh2rcd13ifvqfl0","pricing_plan_id":"cebpf4jnsgd1na2vs0mg"},{"bike_id":"4e6d0ca2-6374-490a-b48e-6cba90785a4f","system_id":"levelo_inurba_marseille","lat":43.24649,"lon":5.38891,"is_reserved":false,"is_disabled":false,"rental_uris":{"android":"levelo://app?vid=4e6d0ca2-6374-490a-b48e-6cba90785a4f","ios":"levelo://app?vid=4e6d0ca2-6374-490a-b48e-6cba90785a4f"},"vehicle_type_id":"4","last_reported":1735078096,"current_range_meters":20000,"station_id":"ce4bhg12rcd13ifvqf60","pricing_plan_id":"cebpf4jnsgd1na2vs0mg"},{"bike_id":"7270ea80-0eed-45f3-91ed-5899cab5719a","system_id":"levelo_inurba_marseille","lat":43.3088,"lon":5.37187,"is_reserved":false,"is_disabled":false,"rental_uris":{"android":"levelo://app?vid=7270ea80-0eed-45f3-91ed-5899cab5719a","ios":"levelo://app?vid=7270ea80-0eed-45f3-91ed-5899cab5719a"},"vehicle_type_id":"4","last_reported":1735078096,"current_range_meters":38800,"station_id":"ce4bguh2rcd13ifvqckg","pricing_plan_id":"cebpf4jnsgd1na2vs0mg"},{"bike_id":"a2da62ed-c4ca-4443-a1a1-134c277a106e","system_id":"levelo_inurba_marseille","lat":43.26943,"lon":5.40245,"is_reserved":false,"is_disabled":false,"rental_uris":{"android":"levelo://app?vid=a2da62ed-c4ca-4443-a1a1-134c277a106e","ios":"levelo://app?vid=a2da62ed-c4ca-4443-a1a1-134c277a106e"},"vehicle_type_id":"4","last_reported":1735078096,"current_range_meters":32400,"station_id":"cjm6bp8fraef2m0cb0m0","pricing_plan_id":"cebpf4jnsgd1na2vs0mg"},{"bike_id":"2f4d7309-f756-45b9-aaef-3b8e49501c09","system_id":"levelo_inurba_marseille","lat":43.29772,"lon":5.37095,"is_reserved":false,"is_disabled":false,"rental_uris":{"android":"levelo://app?vid=2f4d7309-f756-45b9-aaef-3b8e49501c09","ios":"levelo://app?vid=2f4d7309-f756-45b9-aaef-3b8e49501c09"},"vehicle_type_id":"4","last_reported":1735078096,"current_range_meters":26000,"station_id":"ce4bgop2rcd13ifvqc1g","pricing_plan_id":"cebpf4jnsgd1na2vs0mg"},{"bike_id":"b60afeb8-f744-4162-9ce6-9a0121ae1831","system_id":"levelo_inurba_marseille","lat":43.30885,"lon":5.39651,"is_reserved":false,"is_disabled":false,"rental_uris":{"android":"levelo://app?vid=b60afeb8-f744-4162-9ce6-9a0121ae1831","ios":"levelo://app?vid=b60afeb8-f744-4162-9ce6-9a0121ae1831"},"vehicle_type_id":"4","last_reported":1735078096,"current_range_meters":38400,"station_id":"ce4bh012rcd13ifvqcv0","pricing_plan_id":"cebpf4jnsgd1na2vs0mg"},{"bike_id":"d74a540a-4d93-448c-ace1-d7796f43408b","system_id":"levelo_inurba_marseille","lat":43.2722,"lon":5.39202,"is_reserved":false,"is_disabled":false,"rental_uris":{"android":"levelo://app?vid=d74a540a-4d93-448c-ace1-d7796f43408b","ios":"levelo://app?vid=d74a540a-4d93-448c-ace1-d7796f43408b"},"vehicle_type_id":"4","last_reported":1735078096,"current_range_meters":32000,"station_id":"ce4bhhp2rcd13ifvqfm0","pricing_plan_id":"cebpf4jnsgd1na2vs0mg"},{"bike_id":"ba65d07a-204d-4be9-96e0-b91b2ca6d251","system_id":"levelo_inurba_marseille","lat":43.26946,"lon":5.40259,"is_reserved":false,"is_disabled":false,"rental_uris":{"android":"levelo://app?vid=ba65d07a-204d-4be9-96e0-b91b2ca6d251","ios":"levelo://app?vid=ba65d07a-204d-4be9-96e0-b91b2ca6d251"},"vehicle_type_id":"4","last_reported":1735078096,"current_range_meters":38800,"station_id":"cjm6bp8fraef2m0cb0m0","pricing_plan_id":"cebpf4jnsgd1na2vs0mg"},{"bike_id":"8808175b-3a00-4679-9b39-e4e0a4897040","system_id":"levelo_inurba_marseille","lat":43.30593,"lon":5.39351,"is_reserved":false,"is_disabled":false,"rental_uris":{"android":"levelo://app?vid=8808175b-3a00-4679-9b39-e4e0a4897040","ios":"levelo://app?vid=8808175b-3a00-4679-9b39-e4e0a4897040"},"vehicle_type_id":"4","last_reported":1735078096,"current_range_meters":38000,"station_id":"ce4bh0p2rcd13ifvqd80","pricing_plan_id":"cebpf4jnsgd1na2vs0mg"},{"bike_id":"43472636-57cd-411f-b3bd-d2bda7647d04","system_id":"levelo_inurba_marseille","lat":43.2694,"lon":5.40252,"is_reserved":false,"is_disabled":false,"rental_uris":{"android":"levelo://app?vid=43472636-57cd-411f-b3bd-d2bda7647d04","ios":"levelo://app?vid=43472636-57cd-411f-b3bd-d2bda7647d04"},"vehicle_type_id":"4","last_reported":1735078096,"current_range_meters":38800,"station_id":"cjm6bp8fraef2m0cb0m0","pricing_plan_id":"cebpf4jnsgd1na2vs0mg"},{"bike_id":"e9ba0a83-93bd-4576-9168-5cc6cd4c54ad","system_id":"levelo_inurba_marseille","lat":43.24859,"lon":5.37471,"is_reserved":false,"is_disabled":false,"rental_uris":{"android":"levelo://app?vid=e9ba0a83-93bd-4576-9168-5cc6cd4c54ad","ios":"levelo://app?vid=e9ba0a83-93bd-4576-9168-5cc6cd4c54ad"},"vehicle_type_id":"4","last_reported":1735078096,"current_range_meters":9200,"station_id":"","pricing_plan_id":"cebpf4jnsgd1na2vs0mg"},{"bike_id":"070819ac-e257-4989-a8c7-15e25aa6a5f7","system_id":"levelo_inurba_marseille","lat":43.28468,"lon":5.38415,"is_reserved":false,"is_disabled":false,"rental_uris":{"android":"levelo://app?vid=070819ac-e257-4989-a8c7-15e25aa6a5f7","ios":"levelo://app?vid=070819ac-e257-4989-a8c7-15e25aa6a5f7"},"vehicle_type_id":"4","last_reported":1735078096,"current_range_meters":34800,"station_id":"ce4bh512rcd13ifvqe3g","pricing_plan_id":"cebpf4jnsgd1na2vs0mg"},{"bike_id":"6a8570d1-eb04-4587-aa7b-7e8a4cf28911","system_id":"levelo_inurba_marseille","lat":43.31327,"lon":5.39694,"is_reserved":false,"is_disabled":false,"rental_uris":{"android":"levelo://app?vid=6a8570d1-eb04-4587-aa7b-7e8a4cf28911","ios":"levelo://app?vid=6a8570d1-eb04-4587-aa7b-7e8a4cf28911"},"vehicle_type_id":"4","last_reported":1735078096,"current_range_meters":38800,"station_id":"ce4bgvp2rcd13ifvqcu0","pricing_plan_id":"cebpf4jnsgd1na2vs0mg"},{"bike_id":"58975c95-cbcc-4de2-ac6a-2c5c03741a00","system_id":"levelo_inurba_marseille","lat":43.27072,"lon":5.42278,"is_reserved":false,"is_disabled":false,"rental_uris":{"android":"levelo://app?vid=58975c95-cbcc-4de2-ac6a-2c5c03741a00","ios":"levelo://app?vid=58975c95-cbcc-4de2-ac6a-2c5c03741a00"},"vehicle_type_id":"4","last_reported":1735078096,"current_range_meters":38800,"station_id":"ce4bhk92rcd13ifvqgb0","pricing_plan_id":"cebpf4jnsgd1na2vs0mg"},{"bike_id":"efc7c228-42f5-4f3b-8ce8-2805c6b97d17","system_id":"levelo_inurba_marseille","lat":43.33832,"lon":5.40769,"is_reserved":false,"is_disabled":false,"rental_uris":{"android":"levelo://app?vid=efc7c228-42f5-4f3b-8ce8-2805c6b97d17","ios":"levelo://app?vid=efc7c228-42f5-4f3b-8ce8-2805c6b97d17"},"vehicle_type_id":"4","last_reported":1735078096,"current_range_meters":28800,"station_id":"","pricing_plan_id":"cebpf4jnsgd1na2vs0mg"},{"bike_id":"6acd59a7-8f7c-4599-aa0b-64fd7d521194","system_id":"levelo_inurba_marseille","lat":43.30425,"lon":5.39753,"is_reserved":false,"is_disabled":false,"rental_uris":{"android":"levelo://app?vid=6acd59a7-8f7c-4599-aa0b-64fd7d521194","ios":"levelo://app?vid=6acd59a7-8f7c-4599-aa0b-64fd7d521194"},"vehicle_type_id":"4","last_reported":1735078096,"current_range_meters":36400,"station_id":"ce4bh092rcd13ifvqd20","pricing_plan_id":"cebpf4jnsgd1na2vs0mg"},{"bike_id":"ebddb4d5-c9c6-4495-b655-a0cf132a3527","system_id":"levelo_inurba_marseille","lat":43.29537,"lon":5.38535,"is_reserved":false,"is_disabled":false,"rental_uris":{"android":"levelo://app?vid=ebddb4d5-c9c6-4495-b655-a0cf132a3527","ios":"levelo://app?vid=ebddb4d5-c9c6-4495-b655-a0cf132a3527"},"vehicle_type_id":"4","last_reported":1735078096,"current_range_meters":38800,"station_id":"ce4bgih2rcd13ifvqba0","pricing_plan_id":"cebpf4jnsgd1na2vs0mg"},{"bike_id":"00e0742d-d71f-4a86-841a-80701d1e7b61","system_id":"levelo_inurba_marseille","lat":43.24668,"lon":5.38154,"is_reserved":false,"is_disabled":false,"rental_uris":{"android":"levelo://app?vid=00e0742d-d71f-4a86-841a-80701d1e7b61","ios":"levelo://app?vid=00e0742d-d71f-4a86-841a-80701d1e7b61"},"vehicle_type_id":"4","last_reported":1735078096,"current_range_meters":36400,"station_id":"ce4bhih2rcd13ifvqfr0","pricing_plan_id":"cebpf4jnsgd1na2vs0mg"},{"bike_id":"fb0e6359-3fe6-4009-9014-99d06d5c7222","system_id":"levelo_inurba_marseille","lat":43.2962,"lon":5.37156,"is_reserved":false,"is_disabled":false,"rental_uris":{"android":"levelo://app?vid=fb0e6359-3fe6-4009-9014-99d06d5c7222","ios":"levelo://app?vid=fb0e6359-3fe6-4009-9014-99d06d5c7222"},"vehicle_type_id":"4","last_reported":1735078096,"current_range_meters":38800,"station_id":"ce4bgnh2rcd13ifvqc0g","pricing_plan_id":"cebpf4jnsgd1na2vs0mg"},{"bike_id":"22670bc0-d463-47c1-9e30-bf9e31731b85","system_id":"levelo_inurba_marseille","lat":43.29212,"lon":5.36068,"is_reserved":false,"is_disabled":false,"rental_uris":{"android":"levelo://app?vid=22670bc0-d463-47c1-9e30-bf9e31731b85","ios":"levelo://app?vid=22670bc0-d463-47c1-9e30-bf9e31731b85"},"vehicle_type_id":"4","last_reported":1735078096,"current_range_meters":27600,"station_id":"ce4bhbh2rcd13ifvqeqg","pricing_plan_id":"cebpf4jnsgd1na2vs0mg"},{"bike_id":"d93032f6-8f4e-4faf-9212-d96bb4bca970","system_id":"levelo_inurba_marseille","lat":43.28735,"lon":5.36078,"is_reserved":false,"is_disabled":false,"rental_uris":{"android":"levelo://app?vid=d93032f6-8f4e-4faf-9212-d96bb4bca970","ios":"levelo://app?vid=d93032f6-8f4e-4faf-9212-d96bb4bca970"},"vehicle_type_id":"4","last_reported":1735078096,"current_range_meters":38800,"station_id":"cki0cbj6b192h4jlfktg","pricing_plan_id":"cebpf4jnsgd1na2vs0mg"},{"bike_id":"40ae8cb8-e49e-4a0f-a442-f25bcd7620a2","system_id":"levelo_inurba_marseille","lat":43.30427,"lon":5.3975,"is_reserved":false,"is_disabled":false,"rental_uris":{"android":"levelo://app?vid=40ae8cb8-e49e-4a0f-a442-f25bcd7620a2","ios":"levelo://app?vid=40ae8cb8-e49e-4a0f-a442-f25bcd7620a2"},"vehicle_type_id":"4","last_reported":1735078096,"current_range_meters":38800,"station_id":"ce4bh092rcd13ifvqd20","pricing_plan_id":"cebpf4jnsgd1na2vs0mg"},{"bike_id":"c53e66df-8257-4398-a60b-2cac86243673","system_id":"levelo_inurba_marseille","lat":43.32662,"lon":5.40967,"is_reserved":false,"is_disabled":false,"rental_uris":{"android":"levelo://app?vid=c53e66df-8257-4398-a60b-2cac86243673","ios":"levelo://app?vid=c53e66df-8257-4398-a60b-2cac86243673"},"vehicle_type_id":"4","last_reported":1735078096,"current_range_meters":37600,"station_id":"ce4bhpp2rcd13ifvqhgg","pricing_plan_id":"cebpf4jnsgd1na2vs0mg"},{"bike_id":"1601cb4d-c6b7-4894-b7f8-eeab49590138","system_id":"levelo_inurba_marseille","lat":43.26564,"lon":5.37268,"is_reserved":false,"is_disabled":false,"rental_uris":{"android":"levelo://app?vid=1601cb4d-c6b7-4894-b7f8-eeab49590138","ios":"levelo://app?vid=1601cb4d-c6b7-4894-b7f8-eeab49590138"},"vehicle_type_id":"4","last_reported":1735078096,"current_range_meters":36400,"station_id":"ce4bhg12rcd13ifvqf70","pricing_plan_id":"cebpf4jnsgd1na2vs0mg"},{"bike_id":"1f51b21d-3179-4324-a3f5-a296554cea4d","system_id":"levelo_inurba_marseille","lat":43.27812,"lon":5.40714,"is_reserved":false,"is_disabled":false,"rental_uris":{"android":"levelo://app?vid=1f51b21d-3179-4324-a3f5-a296554cea4d","ios":"levelo://app?vid=1f51b21d-3179-4324-a3f5-a296554cea4d"},"vehicle_type_id":"4","last_reported":1735078096,"current_range_meters":38800,"station_id":"ce4bhnh2rcd13ifvqgtg","pricing_plan_id":"cebpf4jnsgd1na2vs0mg"},{"bike_id":"aa5d5d16-a2f6-4c81-8cd4-c9ee96949ae4","system_id":"levelo_inurba_marseille","lat":43.23215,"lon":5.39948,"is_reserved":false,"is_disabled":false,"rental_uris":{"android":"levelo://app?vid=aa5d5d16-a2f6-4c81-8cd4-c9ee96949ae4","ios":"levelo://app?vid=aa5d5d16-a2f6-4c81-8cd4-c9ee96949ae4"},"vehicle_type_id":"4","last_reported":1735078096,"current_range_meters":38800,"station_id":"ce4bhn12rcd13ifvqgqg","pricing_plan_id":"cebpf4jnsgd1na2vs0mg"},{"bike_id":"13721f9d-26f3-4f48-9c74-f57a74e3951e","system_id":"levelo_inurba_marseille","lat":43.260299,"lon":5.375495,"is_reserved":false,"is_disabled":false,"rental_uris":{"android":"levelo://app?vid=13721f9d-26f3-4f48-9c74-f57a74e3951e","ios":"levelo://app?vid=13721f9d-26f3-4f48-9c74-f57a74e3951e"},"vehicle_type_id":"4","last_reported":1735078096,"current_range_meters":38000,"station_id":"ce4bhgh2rcd13ifvqfa0","pricing_plan_id":"cebpf4jnsgd1na2vs0mg"},{"bike_id":"8a820efc-7584-4e57-bc6f-471c5345d18f","system_id":"levelo_inurba_marseille","lat":43.28463,"lon":5.38404,"is_reserved":false,"is_disabled":false,"rental_uris":{"android":"levelo://app?vid=8a820efc-7584-4e57-bc6f-471c5345d18f","ios":"levelo://app?vid=8a820efc-7584-4e57-bc6f-471c5345d18f"},"vehicle_type_id":"4","last_reported":1735078096,"current_range_meters":38800,"station_id":"ce4bh512rcd13ifvqe3g","pricing_plan_id":"cebpf4jnsgd1na2vs0mg"},{"bike_id":"00056a93-07fd-486f-80f4-3016f59a9c57","system_id":"levelo_inurba_marseille","lat":43.29556,"lon":5.37515,"is_reserved":false,"is_disabled":false,"rental_uris":{"android":"levelo://app?vid=00056a93-07fd-486f-80f4-3016f59a9c57","ios":"levelo://app?vid=00056a93-07fd-486f-80f4-3016f59a9c57"},"vehicle_type_id":"4","last_reported":1735078096,"current_range_meters":27200,"station_id":"ce4bgh92rcd13ifvqb50","pricing_plan_id":"cebpf4jnsgd1na2vs0mg"},{"bike_id":"bea19fdb-8eb3-4f91-a4cd-d59bd8812761","system_id":"levelo_inurba_marseille","lat":43.23149,"lon":5.43717,"is_reserved":false,"is_disabled":false,"rental_uris":{"android":"levelo://app?vid=bea19fdb-8eb3-4f91-a4cd-d59bd8812761","ios":"levelo://app?vid=bea19fdb-8eb3-4f91-a4cd-d59bd8812761"},"vehicle_type_id":"4","last_reported":1735078096,"current_range_meters":38000,"station_id":"ce4bhmp2rcd13ifvqgog","pricing_plan_id":"cebpf4jnsgd1na2vs0mg"},{"bike_id":"d7083b66-8af0-4c6b-8299-5b0c4e022bd2","system_id":"levelo_inurba_marseille","lat":43.28004,"lon":5.40013,"is_reserved":false,"is_disabled":false,"rental_uris":{"android":"levelo://app?vid=d7083b66-8af0-4c6b-8299-5b0c4e022bd2","ios":"levelo://app?vid=d7083b66-8af0-4c6b-8299-5b0c4e022bd2"},"vehicle_type_id":"4","last_reported":1735078096,"current_range_meters":32000,"station_id":"ce4bho92rcd13ifvqh4g","pricing_plan_id":"cebpf4jnsgd1na2vs0mg"},{"bike_id":"673ed0fe-3027-4e1f-9efc-2804b0e32190","system_id":"levelo_inurba_marseille","lat":43.26687,"lon":5.38279,"is_reserved":false,"is_disabled":false,"rental_uris":{"android":"levelo://app?vid=673ed0fe-3027-4e1f-9efc-2804b0e32190","ios":"levelo://app?vid=673ed0fe-3027-4e1f-9efc-2804b0e32190"},"vehicle_type_id":"4","last_reported":1735078096,"current_range_meters":31200,"station_id":"ce4bhg92rcd13ifvqf90","pricing_plan_id":"cebpf4jnsgd1na2vs0mg"},{"bike_id":"6301200f-0a21-434a-9aaa-37a5ff71b851","system_id":"levelo_inurba_marseille","lat":43.2621,"lon":5.3743,"is_reserved":false,"is_disabled":false,"rental_uris":{"android":"levelo://app?vid=6301200f-0a21-434a-9aaa-37a5ff71b851","ios":"levelo://app?vid=6301200f-0a21-434a-9aaa-37a5ff71b851"},"vehicle_type_id":"4","last_reported":1735078096,"current_range_meters":20800,"station_id":"ce4bhgp2rcd13ifvqfc0","pricing_plan_id":"cebpf4jnsgd1na2vs0mg"},{"bike_id":"3673e8e0-cf22-48be-b1b1-4e1ef08ae924","system_id":"levelo_inurba_marseille","lat":43.29603,"lon":5.38099,"is_reserved":false,"is_disabled":false,"rental_uris":{"android":"levelo://app?vid=3673e8e0-cf22-48be-b1b1-4e1ef08ae924","ios":"levelo://app?vid=3673e8e0-cf22-48be-b1b1-4e1ef08ae924"},"vehicle_type_id":"4","last_reported":1735078096,"current_range_meters":38000,"station_id":"ce4bgl12rcd13ifvqbo0","pricing_plan_id":"cebpf4jnsgd1na2vs0mg"},{"bike_id":"18bae43d-db69-4109-bad1-67a273db86d7","system_id":"levelo_inurba_marseille","lat":43.30134,"lon":5.3876,"is_reserved":false,"is_disabled":false,"rental_uris":{"android":"levelo://app?vid=18bae43d-db69-4109-bad1-67a273db86d7","ios":"levelo://app?vid=18bae43d-db69-4109-bad1-67a273db86d7"},"vehicle_type_id":"4","last_reported":1735078096,"current_range_meters":6000,"station_id":"ce4bhoh2rcd13ifvqh6g","pricing_plan_id":"cebpf4jnsgd1na2vs0mg"},{"bike_id":"8aa29a25-71b0-47b4-8794-3774a275bf08","system_id":"levelo_inurba_marseille","lat":43.27178,"lon":5.40989,"is_reserved":false,"is_disabled":false,"rental_uris":{"android":"levelo://app?vid=8aa29a25-71b0-47b4-8794-3774a275bf08","ios":"levelo://app?vid=8aa29a25-71b0-47b4-8794-3774a275bf08"},"vehicle_type_id":"4","last_reported":1735078096,"current_range_meters":12000,"station_id":"ce4bhl12rcd13ifvqgf0","pricing_plan_id":"cebpf4jnsgd1na2vs0mg"},{"bike_id":"50771762-6294-492b-bae5-db8bd88e73ed","system_id":"levelo_inurba_marseille","lat":43.27432,"lon":5.39411,"is_reserved":false,"is_disabled":false,"rental_uris":{"android":"levelo://app?vid=50771762-6294-492b-bae5-db8bd88e73ed","ios":"levelo://app?vid=50771762-6294-492b-bae5-db8bd88e73ed"},"vehicle_type_id":"4","last_reported":1735078096,"current_range_meters":38800,"station_id":"ce4bhdp2rcd13ifvqf20","pricing_plan_id":"cebpf4jnsgd1na2vs0mg"},{"bike_id":"ff0a833a-d938-44db-808d-2697dd8f9d04","system_id":"levelo_inurba_marseille","lat":43.28569,"lon":5.39502,"is_reserved":false,"is_disabled":false,"rental_uris":{"android":"levelo://app?vid=ff0a833a-d938-44db-808d-2697dd8f9d04","ios":"levelo://app?vid=ff0a833a-d938-44db-808d-2697dd8f9d04"},"vehicle_type_id":"4","last_reported":1735078096,"current_range_meters":37600,"station_id":"ce4bh292rcd13ifvqdg0","pricing_plan_id":"cebpf4jnsgd1na2vs0mg"},{"bike_id":"dba4252a-6ac0-4a91-a8ed-2c817b386ed4","system_id":"levelo_inurba_marseille","lat":43.30136,"lon":5.37422,"is_reserved":false,"is_disabled":true,"rental_uris":{"android":"levelo://app?vid=dba4252a-6ac0-4a91-a8ed-2c817b386ed4","ios":"levelo://app?vid=dba4252a-6ac0-4a91-a8ed-2c817b386ed4"},"vehicle_type_id":"4","last_reported":1735078096,"current_range_meters":9200,"station_id":"ce4bgs92rcd13ifvqcc0","pricing_plan_id":"cebpf4jnsgd1na2vs0mg"},{"bike_id":"79daacaf-40c6-41bf-8b74-c5c9a9bb7597","system_id":"levelo_inurba_marseille","lat":43.28872,"lon":5.39336,"is_reserved":false,"is_disabled":true,"rental_uris":{"android":"levelo://app?vid=79daacaf-40c6-41bf-8b74-c5c9a9bb7597","ios":"levelo://app?vid=79daacaf-40c6-41bf-8b74-c5c9a9bb7597"},"vehicle_type_id":"4","last_reported":1735078096,"current_range_meters":22000,"station_id":"ce4bh2p2rcd13ifvqdi0","pricing_plan_id":"cebpf4jnsgd1na2vs0mg"},{"bike_id":"82719b16-0394-44a1-963a-3161d6b762b8","system_id":"levelo_inurba_marseille","lat":43.29625,"lon":5.37143,"is_reserved":false,"is_disabled":false,"rental_uris":{"android":"levelo://app?vid=82719b16-0394-44a1-963a-3161d6b762b8","ios":"levelo://app?vid=82719b16-0394-44a1-963a-3161d6b762b8"},"vehicle_type_id":"4","last_reported":1735078096,"current_range_meters":37600,"station_id":"ce4bgnh2rcd13ifvqc0g","pricing_plan_id":"cebpf4jnsgd1na2vs0mg"},{"bike_id":"e17a11e0-b3c6-47c1-be20-5643d7d7457e","system_id":"levelo_inurba_marseille","lat":43.3128,"lon":5.40164,"is_reserved":false,"is_disabled":false,"rental_uris":{"android":"levelo://app?vid=e17a11e0-b3c6-47c1-be20-5643d7d7457e","ios":"levelo://app?vid=e17a11e0-b3c6-47c1-be20-5643d7d7457e"},"vehicle_type_id":"4","last_reported":1735078096,"current_range_meters":38800,"station_id":"ce4bh092rcd13ifvqd30","pricing_plan_id":"cebpf4jnsgd1na2vs0mg"},{"bike_id":"c5315344-fd5d-41fb-a9a2-9d011cd33821","system_id":"levelo_inurba_marseille","lat":43.31492,"lon":5.37281,"is_reserved":false,"is_disabled":false,"rental_uris":{"android":"levelo://app?vid=c5315344-fd5d-41fb-a9a2-9d011cd33821","ios":"levelo://app?vid=c5315344-fd5d-41fb-a9a2-9d011cd33821"},"vehicle_type_id":"4","last_reported":1735078096,"current_range_meters":11600,"station_id":"ce4bgt12rcd13ifvqcd0","pricing_plan_id":"cebpf4jnsgd1na2vs0mg"},{"bike_id":"af0b1ef8-a807-4b05-8aca-f6c986c6d4b6","system_id":"levelo_inurba_marseille","lat":43.33606,"lon":5.41027,"is_reserved":false,"is_disabled":false,"rental_uris":{"android":"levelo://app?vid=af0b1ef8-a807-4b05-8aca-f6c986c6d4b6","ios":"levelo://app?vid=af0b1ef8-a807-4b05-8aca-f6c986c6d4b6"},"vehicle_type_id":"4","last_reported":1735078096,"current_range_meters":27600,"station_id":"ce4bhqh2rcd13ifvqhmg","pricing_plan_id":"cebpf4jnsgd1na2vs0mg"},{"bike_id":"4a35463d-6286-4212-a2c7-04e728adcd62","system_id":"levelo_inurba_marseille","lat":43.28109,"lon":5.37835,"is_reserved":false,"is_disabled":false,"rental_uris":{"android":"levelo://app?vid=4a35463d-6286-4212-a2c7-04e728adcd62","ios":"levelo://app?vid=4a35463d-6286-4212-a2c7-04e728adcd62"},"vehicle_type_id":"4","last_reported":1735078096,"current_range_meters":38800,"station_id":"ce4bha12rcd13ifvqee0","pricing_plan_id":"cebpf4jnsgd1na2vs0mg"},{"bike_id":"9e57916c-72d8-4475-97bc-a8057a01ff62","system_id":"levelo_inurba_marseille","lat":43.29305,"lon":5.37161,"is_reserved":false,"is_disabled":false,"rental_uris":{"android":"levelo://app?vid=9e57916c-72d8-4475-97bc-a8057a01ff62","ios":"levelo://app?vid=9e57916c-72d8-4475-97bc-a8057a01ff62"},"vehicle_type_id":"4","last_reported":1735078096,"current_range_meters":38400,"station_id":"ce4bgh92rcd13ifvqb40","pricing_plan_id":"cebpf4jnsgd1na2vs0mg"},{"bike_id":"803f8c9b-2273-4883-ac63-11aea5b88c6b","system_id":"levelo_inurba_marseille","lat":43.2964,"lon":5.40596,"is_reserved":false,"is_disabled":false,"rental_uris":{"android":"levelo://app?vid=803f8c9b-2273-4883-ac63-11aea5b88c6b","ios":"levelo://app?vid=803f8c9b-2273-4883-ac63-11aea5b88c6b"},"vehicle_type_id":"4","last_reported":1735078096,"current_range_meters":36000,"station_id":"ce4bh0h2rcd13ifvqd60","pricing_plan_id":"cebpf4jnsgd1na2vs0mg"},{"bike_id":"5baae1af-217a-4423-a342-353613e5f31d","system_id":"levelo_inurba_marseille","lat":43.337444,"lon":5.374475,"is_reserved":false,"is_disabled":false,"rental_uris":{"android":"levelo://app?vid=5baae1af-217a-4423-a342-353613e5f31d","ios":"levelo://app?vid=5baae1af-217a-4423-a342-353613e5f31d"},"vehicle_type_id":"4","last_reported":1735078096,"current_range_meters":17600,"station_id":"","pricing_plan_id":"cebpf4jnsgd1na2vs0mg"},{"bike_id":"4f5db02c-99f9-460e-a880-3ca7100df048","system_id":"levelo_inurba_marseille","lat":43.27423,"lon":5.39403,"is_reserved":false,"is_disabled":false,"rental_uris":{"android":"levelo://app?vid=4f5db02c-99f9-460e-a880-3ca7100df048","ios":"levelo://app?vid=4f5db02c-99f9-460e-a880-3ca7100df048"},"vehicle_type_id":"4","last_reported":1735078096,"current_range_meters":38800,"station_id":"ce4bhdp2rcd13ifvqf20","pricing_plan_id":"cebpf4jnsgd1na2vs0mg"},{"bike_id":"fb0e9af5-7d6b-441c-998e-0381a1fe31bb","system_id":"levelo_inurba_marseille","lat":43.25728,"lon":5.41116,"is_reserved":false,"is_disabled":false,"rental_uris":{"android":"levelo://app?vid=fb0e9af5-7d6b-441c-998e-0381a1fe31bb","ios":"levelo://app?vid=fb0e9af5-7d6b-441c-998e-0381a1fe31bb"},"vehicle_type_id":"4","last_reported":1735078096,"current_range_meters":32000,"station_id":"ce4bhkp2rcd13ifvqgd0","pricing_plan_id":"cebpf4jnsgd1na2vs0mg"},{"bike_id":"5d35556a-77eb-471a-9074-b9042a3815ab","system_id":"levelo_inurba_marseille","lat":43.2959,"lon":5.3809,"is_reserved":false,"is_disabled":false,"rental_uris":{"android":"levelo://app?vid=5d35556a-77eb-471a-9074-b9042a3815ab","ios":"levelo://app?vid=5d35556a-77eb-471a-9074-b9042a3815ab"},"vehicle_type_id":"4","last_reported":1735078096,"current_range_meters":27600,"station_id":"ce4bgl12rcd13ifvqbo0","pricing_plan_id":"cebpf4jnsgd1na2vs0mg"},{"bike_id":"537ef1bf-3a78-45af-b334-3a2c52a599a8","system_id":"levelo_inurba_marseille","lat":43.34148,"lon":5.40895,"is_reserved":false,"is_disabled":false,"rental_uris":{"android":"levelo://app?vid=537ef1bf-3a78-45af-b334-3a2c52a599a8","ios":"levelo://app?vid=537ef1bf-3a78-45af-b334-3a2c52a599a8"},"vehicle_type_id":"4","last_reported":1735078096,"current_range_meters":30400,"station_id":"ce4bhqh2rcd13ifvqhlg","pricing_plan_id":"cebpf4jnsgd1na2vs0mg"},{"bike_id":"e5ec77c8-648b-4bda-921a-2babefb619a7","system_id":"levelo_inurba_marseille","lat":43.30129,"lon":5.39876,"is_reserved":false,"is_disabled":false,"rental_uris":{"android":"levelo://app?vid=e5ec77c8-648b-4bda-921a-2babefb619a7","ios":"levelo://app?vid=e5ec77c8-648b-4bda-921a-2babefb619a7"},"vehicle_type_id":"4","last_reported":1735078096,"current_range_meters":38800,"station_id":"ce4bh0h2rcd13ifvqd40","pricing_plan_id":"cebpf4jnsgd1na2vs0mg"},{"bike_id":"d1bc7ec4-ade9-4cc0-a31b-f0fa348d319b","system_id":"levelo_inurba_marseille","lat":43.24667,"lon":5.38154,"is_reserved":false,"is_disabled":false,"rental_uris":{"android":"levelo://app?vid=d1bc7ec4-ade9-4cc0-a31b-f0fa348d319b","ios":"levelo://app?vid=d1bc7ec4-ade9-4cc0-a31b-f0fa348d319b"},"vehicle_type_id":"4","last_reported":1735078096,"current_range_meters":25600,"station_id":"ce4bhih2rcd13ifvqfr0","pricing_plan_id":"cebpf4jnsgd1na2vs0mg"},{"bike_id":"75c21f1d-fb28-4032-9891-3a5c2003ce40","system_id":"levelo_inurba_marseille","lat":43.30935,"lon":5.40146,"is_reserved":false,"is_disabled":false,"rental_uris":{"android":"levelo://app?vid=75c21f1d-fb28-4032-9891-3a5c2003ce40","ios":"levelo://app?vid=75c21f1d-fb28-4032-9891-3a5c2003ce40"},"vehicle_type_id":"4","last_reported":1735078096,"current_range_meters":38800,"station_id":"ce4bgvp2rcd13ifvqct0","pricing_plan_id":"cebpf4jnsgd1na2vs0mg"},{"bike_id":"b07e0204-2c57-49d1-a1f7-320de8610e25","system_id":"levelo_inurba_marseille","lat":43.29402,"lon":5.37344,"is_reserved":false,"is_disabled":true,"rental_uris":{"android":"levelo://app?vid=b07e0204-2c57-49d1-a1f7-320de8610e25","ios":"levelo://app?vid=b07e0204-2c57-49d1-a1f7-320de8610e25"},"vehicle_type_id":"4","last_reported":1735078096,"current_range_meters":17600,"station_id":"","pricing_plan_id":"cebpf4jnsgd1na2vs0mg"},{"bike_id":"fdd038a4-79d5-4c95-a63d-a1c3452f83b6","system_id":"levelo_inurba_marseille","lat":43.309,"lon":5.36835,"is_reserved":false,"is_disabled":false,"rental_uris":{"android":"levelo://app?vid=fdd038a4-79d5-4c95-a63d-a1c3452f83b6","ios":"levelo://app?vid=fdd038a4-79d5-4c95-a63d-a1c3452f83b6"},"vehicle_type_id":"4","last_reported":1735078096,"current_range_meters":36400,"station_id":"ce4bgn92rcd13ifvqbvg","pricing_plan_id":"cebpf4jnsgd1na2vs0mg"},{"bike_id":"85fabded-8370-4be7-8fdc-f12d6abf8f67","system_id":"levelo_inurba_marseille","lat":43.27567,"lon":5.38417,"is_reserved":false,"is_disabled":false,"rental_uris":{"android":"levelo://app?vid=85fabded-8370-4be7-8fdc-f12d6abf8f67","ios":"levelo://app?vid=85fabded-8370-4be7-8fdc-f12d6abf8f67"},"vehicle_type_id":"4","last_reported":1735078096,"current_range_meters":33600,"station_id":"ce4bhh92rcd13ifvqfi0","pricing_plan_id":"cebpf4jnsgd1na2vs0mg"},{"bike_id":"41632095-6d88-40a7-b2e7-bb5f6e7b1393","system_id":"levelo_inurba_marseille","lat":43.26558,"lon":5.37282,"is_reserved":false,"is_disabled":false,"rental_uris":{"android":"levelo://app?vid=41632095-6d88-40a7-b2e7-bb5f6e7b1393","ios":"levelo://app?vid=41632095-6d88-40a7-b2e7-bb5f6e7b1393"},"vehicle_type_id":"4","last_reported":1735078096,"current_range_meters":19600,"station_id":"ce4bhg12rcd13ifvqf70","pricing_plan_id":"cebpf4jnsgd1na2vs0mg"},{"bike_id":"6dd041ef-a1ba-4337-8648-b463ddf038b5","system_id":"levelo_inurba_marseille","lat":43.2481,"lon":5.37453,"is_reserved":false,"is_disabled":false,"rental_uris":{"android":"levelo://app?vid=6dd041ef-a1ba-4337-8648-b463ddf038b5","ios":"levelo://app?vid=6dd041ef-a1ba-4337-8648-b463ddf038b5"},"vehicle_type_id":"4","last_reported":1735078096,"current_range_meters":24800,"station_id":"ce4bhgh2rcd13ifvqfb0","pricing_plan_id":"cebpf4jnsgd1na2vs0mg"},{"bike_id":"178d2327-1d17-48d4-92fe-75ce7ae99db3","system_id":"levelo_inurba_marseille","lat":43.29565,"lon":5.37464,"is_reserved":false,"is_disabled":false,"rental_uris":{"android":"levelo://app?vid=178d2327-1d17-48d4-92fe-75ce7ae99db3","ios":"levelo://app?vid=178d2327-1d17-48d4-92fe-75ce7ae99db3"},"vehicle_type_id":"4","last_reported":1735078096,"current_range_meters":38800,"station_id":"ce4bgkp2rcd13ifvqbmg","pricing_plan_id":"cebpf4jnsgd1na2vs0mg"},{"bike_id":"7edcbb41-a69d-4cbc-a5c7-a78beb437cd6","system_id":"levelo_inurba_marseille","lat":43.30883,"lon":5.39644,"is_reserved":false,"is_disabled":false,"rental_uris":{"android":"levelo://app?vid=7edcbb41-a69d-4cbc-a5c7-a78beb437cd6","ios":"levelo://app?vid=7edcbb41-a69d-4cbc-a5c7-a78beb437cd6"},"vehicle_type_id":"4","last_reported":1735078096,"current_range_meters":33600,"station_id":"ce4bh012rcd13ifvqcv0","pricing_plan_id":"cebpf4jnsgd1na2vs0mg"},{"bike_id":"d0928a2e-5cea-450a-a669-d6ca6d307f7d","system_id":"levelo_inurba_marseille","lat":43.31723,"lon":5.4242,"is_reserved":false,"is_disabled":false,"rental_uris":{"android":"levelo://app?vid=d0928a2e-5cea-450a-a669-d6ca6d307f7d","ios":"levelo://app?vid=d0928a2e-5cea-450a-a669-d6ca6d307f7d"},"vehicle_type_id":"4","last_reported":1735078096,"current_range_meters":38800,"station_id":"ce4bhp92rcd13ifvqhbg","pricing_plan_id":"cebpf4jnsgd1na2vs0mg"},{"bike_id":"a52b6a95-03b2-4a39-91a2-596fa5130c55","system_id":"levelo_inurba_marseille","lat":43.26935,"lon":5.38914,"is_reserved":false,"is_disabled":false,"rental_uris":{"android":"levelo://app?vid=a52b6a95-03b2-4a39-91a2-596fa5130c55","ios":"levelo://app?vid=a52b6a95-03b2-4a39-91a2-596fa5130c55"},"vehicle_type_id":"4","last_reported":1735078096,"current_range_meters":38800,"station_id":"ce4bhhh2rcd13ifvqfl0","pricing_plan_id":"cebpf4jnsgd1na2vs0mg"},{"bike_id":"4c414f1b-f40e-4a37-8051-77fc6cbc936d","system_id":"levelo_inurba_marseille","lat":43.23964,"lon":5.36619,"is_reserved":false,"is_disabled":false,"rental_uris":{"android":"levelo://app?vid=4c414f1b-f40e-4a37-8051-77fc6cbc936d","ios":"levelo://app?vid=4c414f1b-f40e-4a37-8051-77fc6cbc936d"},"vehicle_type_id":"4","last_reported":1735078096,"current_range_meters":9200,"station_id":"ce4bhi12rcd13ifvqfp0","pricing_plan_id":"cebpf4jnsgd1na2vs0mg"},{"bike_id":"1ca6e35e-4519-4a08-8f12-cc97c32227ac","system_id":"levelo_inurba_marseille","lat":43.29797,"lon":5.37099,"is_reserved":false,"is_disabled":false,"rental_uris":{"android":"levelo://app?vid=1ca6e35e-4519-4a08-8f12-cc97c32227ac","ios":"levelo://app?vid=1ca6e35e-4519-4a08-8f12-cc97c32227ac"},"vehicle_type_id":"4","last_reported":1735078096,"current_range_meters":36400,"station_id":"ce4bgop2rcd13ifvqc1g","pricing_plan_id":"cebpf4jnsgd1na2vs0mg"},{"bike_id":"5956c99d-10e6-4dc2-8784-a2701a9e178a","system_id":"levelo_inurba_marseille","lat":43.24678,"lon":5.38154,"is_reserved":false,"is_disabled":false,"rental_uris":{"android":"levelo://app?vid=5956c99d-10e6-4dc2-8784-a2701a9e178a","ios":"levelo://app?vid=5956c99d-10e6-4dc2-8784-a2701a9e178a"},"vehicle_type_id":"4","last_reported":1735078096,"current_range_meters":36800,"station_id":"ce4bhih2rcd13ifvqfr0","pricing_plan_id":"cebpf4jnsgd1na2vs0mg"},{"bike_id":"57ce3b60-b3c2-4874-9e1d-bbb72ff7d256","system_id":"levelo_inurba_marseille","lat":43.31719,"lon":5.40439,"is_reserved":false,"is_disabled":false,"rental_uris":{"android":"levelo://app?vid=57ce3b60-b3c2-4874-9e1d-bbb72ff7d256","ios":"levelo://app?vid=57ce3b60-b3c2-4874-9e1d-bbb72ff7d256"},"vehicle_type_id":"4","last_reported":1735078096,"current_range_meters":38800,"station_id":"ce4bh012rcd13ifvqd00","pricing_plan_id":"cebpf4jnsgd1na2vs0mg"},{"bike_id":"7bb30ece-0af1-4c43-a603-5d1612bde6de","system_id":"levelo_inurba_marseille","lat":43.29033,"lon":5.37546,"is_reserved":false,"is_disabled":false,"rental_uris":{"android":"levelo://app?vid=7bb30ece-0af1-4c43-a603-5d1612bde6de","ios":"levelo://app?vid=7bb30ece-0af1-4c43-a603-5d1612bde6de"},"vehicle_type_id":"4","last_reported":1735078096,"current_range_meters":36400,"station_id":"ce4bh692rcd13ifvqe90","pricing_plan_id":"cebpf4jnsgd1na2vs0mg"},{"bike_id":"c9751a8a-79d3-40c3-84a6-e2e10badf950","system_id":"levelo_inurba_marseille","lat":43.29894,"lon":5.3814,"is_reserved":false,"is_disabled":false,"rental_uris":{"android":"levelo://app?vid=c9751a8a-79d3-40c3-84a6-e2e10badf950","ios":"levelo://app?vid=c9751a8a-79d3-40c3-84a6-e2e10badf950"},"vehicle_type_id":"4","last_reported":1735078096,"current_range_meters":38800,"station_id":"ce4bgj12rcd13ifvqbc0","pricing_plan_id":"cebpf4jnsgd1na2vs0mg"},{"bike_id":"838230b7-e7c6-4ed2-908e-60cfb2c48ed7","system_id":"levelo_inurba_marseille","lat":43.28463,"lon":5.35887,"is_reserved":false,"is_disabled":false,"rental_uris":{"android":"levelo://app?vid=838230b7-e7c6-4ed2-908e-60cfb2c48ed7","ios":"levelo://app?vid=838230b7-e7c6-4ed2-908e-60cfb2c48ed7"},"vehicle_type_id":"4","last_reported":1735078096,"current_range_meters":10000,"station_id":"ce4bhah2rcd13ifvqei0","pricing_plan_id":"cebpf4jnsgd1na2vs0mg"},{"bike_id":"00f2299e-6e78-4b67-898f-d05e3c74d6f8","system_id":"levelo_inurba_marseille","lat":43.27433,"lon":5.39402,"is_reserved":false,"is_disabled":false,"rental_uris":{"android":"levelo://app?vid=00f2299e-6e78-4b67-898f-d05e3c74d6f8","ios":"levelo://app?vid=00f2299e-6e78-4b67-898f-d05e3c74d6f8"},"vehicle_type_id":"4","last_reported":1735078096,"current_range_meters":16400,"station_id":"ce4bhdp2rcd13ifvqf20","pricing_plan_id":"cebpf4jnsgd1na2vs0mg"},{"bike_id":"e2b61762-08a2-4e26-90ee-ce00e0039025","system_id":"levelo_inurba_marseille","lat":43.28694,"lon":5.37386,"is_reserved":false,"is_disabled":false,"rental_uris":{"android":"levelo://app?vid=e2b61762-08a2-4e26-90ee-ce00e0039025","ios":"levelo://app?vid=e2b61762-08a2-4e26-90ee-ce00e0039025"},"vehicle_type_id":"4","last_reported":1735078096,"current_range_meters":33600,"station_id":"ce4bh3p2rcd13ifvqdq0","pricing_plan_id":"cebpf4jnsgd1na2vs0mg"},{"bike_id":"6bca16b1-3eb4-4299-91bc-9740eea99592","system_id":"levelo_inurba_marseille","lat":43.29848,"lon":5.36268,"is_reserved":false,"is_disabled":false,"rental_uris":{"android":"levelo://app?vid=6bca16b1-3eb4-4299-91bc-9740eea99592","ios":"levelo://app?vid=6bca16b1-3eb4-4299-91bc-9740eea99592"},"vehicle_type_id":"4","last_reported":1735078096,"current_range_meters":38800,"station_id":"ce4bgpp2rcd13ifvqc3g","pricing_plan_id":"cebpf4jnsgd1na2vs0mg"},{"bike_id":"3dcfbc8b-e73d-4cb6-b242-a024a7453bed","system_id":"levelo_inurba_marseille","lat":43.31126,"lon":5.3777,"is_reserved":false,"is_disabled":false,"rental_uris":{"android":"levelo://app?vid=3dcfbc8b-e73d-4cb6-b242-a024a7453bed","ios":"levelo://app?vid=3dcfbc8b-e73d-4cb6-b242-a024a7453bed"},"vehicle_type_id":"4","last_reported":1735078096,"current_range_meters":29600,"station_id":"ce4bgt92rcd13ifvqcg0","pricing_plan_id":"cebpf4jnsgd1na2vs0mg"},{"bike_id":"76645d08-9114-4a5f-a5f1-858abed3e325","system_id":"levelo_inurba_marseille","lat":43.29717,"lon":5.36608,"is_reserved":false,"is_disabled":false,"rental_uris":{"android":"levelo://app?vid=76645d08-9114-4a5f-a5f1-858abed3e325","ios":"levelo://app?vid=76645d08-9114-4a5f-a5f1-858abed3e325"},"vehicle_type_id":"4","last_reported":1735078096,"current_range_meters":38800,"station_id":"ce4bgn12rcd13ifvqbt0","pricing_plan_id":"cebpf4jnsgd1na2vs0mg"},{"bike_id":"e05bf4ea-d74d-49ed-a7dc-94fa3a3cc350","system_id":"levelo_inurba_marseille","lat":43.32366,"lon":5.36767,"is_reserved":false,"is_disabled":false,"rental_uris":{"android":"levelo://app?vid=e05bf4ea-d74d-49ed-a7dc-94fa3a3cc350","ios":"levelo://app?vid=e05bf4ea-d74d-49ed-a7dc-94fa3a3cc350"},"vehicle_type_id":"4","last_reported":1735078096,"current_range_meters":36800,"station_id":"ce4bhsh2rcd13ifvqi2g","pricing_plan_id":"cebpf4jnsgd1na2vs0mg"},{"bike_id":"ebf68b28-9dbf-4ed8-a016-868e63c0edc1","system_id":"levelo_inurba_marseille","lat":43.29795,"lon":5.37101,"is_reserved":false,"is_disabled":false,"rental_uris":{"android":"levelo://app?vid=ebf68b28-9dbf-4ed8-a016-868e63c0edc1","ios":"levelo://app?vid=ebf68b28-9dbf-4ed8-a016-868e63c0edc1"},"vehicle_type_id":"4","last_reported":1735078096,"current_range_meters":35600,"station_id":"ce4bgop2rcd13ifvqc1g","pricing_plan_id":"cebpf4jnsgd1na2vs0mg"},{"bike_id":"2217e265-1c11-4717-a1be-e1d88a9cb56d","system_id":"levelo_inurba_marseille","lat":43.31125,"lon":5.37757,"is_reserved":false,"is_disabled":false,"rental_uris":{"android":"levelo://app?vid=2217e265-1c11-4717-a1be-e1d88a9cb56d","ios":"levelo://app?vid=2217e265-1c11-4717-a1be-e1d88a9cb56d"},"vehicle_type_id":"4","last_reported":1735078096,"current_range_meters":22400,"station_id":"ce4bgt92rcd13ifvqcg0","pricing_plan_id":"cebpf4jnsgd1na2vs0mg"},{"bike_id":"7a7b8261-f987-4749-9d9d-0acb49170ae0","system_id":"levelo_inurba_marseille","lat":43.25499,"lon":5.37641,"is_reserved":false,"is_disabled":false,"rental_uris":{"android":"levelo://app?vid=7a7b8261-f987-4749-9d9d-0acb49170ae0","ios":"levelo://app?vid=7a7b8261-f987-4749-9d9d-0acb49170ae0"},"vehicle_type_id":"4","last_reported":1735078096,"current_range_meters":36400,"station_id":"ce4bhh12rcd13ifvqff0","pricing_plan_id":"cebpf4jnsgd1na2vs0mg"},{"bike_id":"25d2bc58-f6d3-4508-aa97-5261c6aa48a4","system_id":"levelo_inurba_marseille","lat":43.30099,"lon":5.39071,"is_reserved":false,"is_disabled":false,"rental_uris":{"android":"levelo://app?vid=25d2bc58-f6d3-4508-aa97-5261c6aa48a4","ios":"levelo://app?vid=25d2bc58-f6d3-4508-aa97-5261c6aa48a4"},"vehicle_type_id":"4","last_reported":1735078096,"current_range_meters":32000,"station_id":"ce4bh192rcd13ifvqdb0","pricing_plan_id":"cebpf4jnsgd1na2vs0mg"},{"bike_id":"842888b9-0281-4137-8179-95fdfc851120","system_id":"levelo_inurba_marseille","lat":43.2695,"lon":5.40233,"is_reserved":false,"is_disabled":false,"rental_uris":{"android":"levelo://app?vid=842888b9-0281-4137-8179-95fdfc851120","ios":"levelo://app?vid=842888b9-0281-4137-8179-95fdfc851120"},"vehicle_type_id":"4","last_reported":1735078096,"current_range_meters":34000,"station_id":"cjm6bp8fraef2m0cb0m0","pricing_plan_id":"cebpf4jnsgd1na2vs0mg"},{"bike_id":"7510efb7-4ba0-4813-b045-c102d3d04d14","system_id":"levelo_inurba_marseille","lat":43.30537,"lon":5.38405,"is_reserved":false,"is_disabled":false,"rental_uris":{"android":"levelo://app?vid=7510efb7-4ba0-4813-b045-c102d3d04d14","ios":"levelo://app?vid=7510efb7-4ba0-4813-b045-c102d3d04d14"},"vehicle_type_id":"4","last_reported":1735078096,"current_range_meters":28400,"station_id":"ce4bgg92rcd13ifvqb30","pricing_plan_id":"cebpf4jnsgd1na2vs0mg"},{"bike_id":"d58e81d5-d7d2-47e1-bfa6-8384c12c6d38","system_id":"levelo_inurba_marseille","lat":43.28973,"lon":5.37833,"is_reserved":false,"is_disabled":false,"rental_uris":{"android":"levelo://app?vid=d58e81d5-d7d2-47e1-bfa6-8384c12c6d38","ios":"levelo://app?vid=d58e81d5-d7d2-47e1-bfa6-8384c12c6d38"},"vehicle_type_id":"4","last_reported":1735078096,"current_range_meters":38800,"station_id":"ce4bh9p2rcd13ifvqed0","pricing_plan_id":"cebpf4jnsgd1na2vs0mg"},{"bike_id":"584301e6-2901-4c73-97f8-5c258dacc73a","system_id":"levelo_inurba_marseille","lat":43.29972,"lon":5.38493,"is_reserved":false,"is_disabled":false,"rental_uris":{"android":"levelo://app?vid=584301e6-2901-4c73-97f8-5c258dacc73a","ios":"levelo://app?vid=584301e6-2901-4c73-97f8-5c258dacc73a"},"vehicle_type_id":"4","last_reported":1735078096,"current_range_meters":38800,"station_id":"ce4bgj92rcd13ifvqbd0","pricing_plan_id":"cebpf4jnsgd1na2vs0mg"},{"bike_id":"97f6e8cc-9e8c-4973-a544-3868a1479b0e","system_id":"levelo_inurba_marseille","lat":43.27947,"lon":5.41048,"is_reserved":false,"is_disabled":false,"rental_uris":{"android":"levelo://app?vid=97f6e8cc-9e8c-4973-a544-3868a1479b0e","ios":"levelo://app?vid=97f6e8cc-9e8c-4973-a544-3868a1479b0e"},"vehicle_type_id":"4","last_reported":1735078096,"current_range_meters":36400,"station_id":"ce4bhnp2rcd13ifvqh0g","pricing_plan_id":"cebpf4jnsgd1na2vs0mg"},{"bike_id":"f6b53831-a509-423f-92ef-cd957a87e01c","system_id":"levelo_inurba_marseille","lat":43.29007,"lon":5.35613,"is_reserved":false,"is_disabled":false,"rental_uris":{"android":"levelo://app?vid=f6b53831-a509-423f-92ef-cd957a87e01c","ios":"levelo://app?vid=f6b53831-a509-423f-92ef-cd957a87e01c"},"vehicle_type_id":"4","last_reported":1735078096,"current_range_meters":37600,"station_id":"ce4bhb92rcd13ifvqen0","pricing_plan_id":"cebpf4jnsgd1na2vs0mg"},{"bike_id":"04d3f0c7-a5a2-4301-9d35-89c0dd2bc4f8","system_id":"levelo_inurba_marseille","lat":43.27547,"lon":5.38435,"is_reserved":false,"is_disabled":false,"rental_uris":{"android":"levelo://app?vid=04d3f0c7-a5a2-4301-9d35-89c0dd2bc4f8","ios":"levelo://app?vid=04d3f0c7-a5a2-4301-9d35-89c0dd2bc4f8"},"vehicle_type_id":"4","last_reported":1735078096,"current_range_meters":38800,"station_id":"ce4bhh92rcd13ifvqfi0","pricing_plan_id":"cebpf4jnsgd1na2vs0mg"},{"bike_id":"427bc867-789e-4b23-8420-6d4d646a7d72","system_id":"levelo_inurba_marseille","lat":43.30798,"lon":5.38159,"is_reserved":false,"is_disabled":false,"rental_uris":{"android":"levelo://app?vid=427bc867-789e-4b23-8420-6d4d646a7d72","ios":"levelo://app?vid=427bc867-789e-4b23-8420-6d4d646a7d72"},"vehicle_type_id":"4","last_reported":1735078096,"current_range_meters":38800,"station_id":"ce4bgt12rcd13ifvqce0","pricing_plan_id":"cebpf4jnsgd1na2vs0mg"},{"bike_id":"efe8c37e-7257-49f1-b3d4-508e2ce2a300","system_id":"levelo_inurba_marseille","lat":43.30134,"lon":5.38781,"is_reserved":false,"is_disabled":false,"rental_uris":{"android":"levelo://app?vid=efe8c37e-7257-49f1-b3d4-508e2ce2a300","ios":"levelo://app?vid=efe8c37e-7257-49f1-b3d4-508e2ce2a300"},"vehicle_type_id":"4","last_reported":1735078096,"current_range_meters":21600,"station_id":"ce4bghh2rcd13ifvqb60","pricing_plan_id":"cebpf4jnsgd1na2vs0mg"},{"bike_id":"bcb51fee-0272-4a71-b9bd-d89ff73c0efe","system_id":"levelo_inurba_marseille","lat":43.29714,"lon":5.36615,"is_reserved":false,"is_disabled":false,"rental_uris":{"android":"levelo://app?vid=bcb51fee-0272-4a71-b9bd-d89ff73c0efe","ios":"levelo://app?vid=bcb51fee-0272-4a71-b9bd-d89ff73c0efe"},"vehicle_type_id":"4","last_reported":1735078096,"current_range_meters":38800,"station_id":"ce4bgn12rcd13ifvqbt0","pricing_plan_id":"cebpf4jnsgd1na2vs0mg"},{"bike_id":"8470d75c-1a4b-4272-b9c5-cce9edcaac69","system_id":"levelo_inurba_marseille","lat":43.264958,"lon":5.395438,"is_reserved":false,"is_disabled":false,"rental_uris":{"android":"levelo://app?vid=8470d75c-1a4b-4272-b9c5-cce9edcaac69","ios":"levelo://app?vid=8470d75c-1a4b-4272-b9c5-cce9edcaac69"},"vehicle_type_id":"4","last_reported":1735078096,"current_range_meters":28000,"station_id":"ce4bhi12rcd13ifvqfq0","pricing_plan_id":"cebpf4jnsgd1na2vs0mg"},{"bike_id":"6eb09a09-0ccd-48d5-a20d-bc09f65f11d1","system_id":"levelo_inurba_marseille","lat":43.32471,"lon":5.3656,"is_reserved":false,"is_disabled":false,"rental_uris":{"android":"levelo://app?vid=6eb09a09-0ccd-48d5-a20d-bc09f65f11d1","ios":"levelo://app?vid=6eb09a09-0ccd-48d5-a20d-bc09f65f11d1"},"vehicle_type_id":"4","last_reported":1735078096,"current_range_meters":38800,"station_id":"ce4bhs12rcd13ifvqhvg","pricing_plan_id":"cebpf4jnsgd1na2vs0mg"},{"bike_id":"72ad95bc-fa74-4b73-a8ce-6fdfe56679aa","system_id":"levelo_inurba_marseille","lat":43.308822,"lon":5.372024,"is_reserved":false,"is_disabled":false,"rental_uris":{"android":"levelo://app?vid=72ad95bc-fa74-4b73-a8ce-6fdfe56679aa","ios":"levelo://app?vid=72ad95bc-fa74-4b73-a8ce-6fdfe56679aa"},"vehicle_type_id":"4","last_reported":1735078096,"current_range_meters":27600,"station_id":"ce4bguh2rcd13ifvqckg","pricing_plan_id":"cebpf4jnsgd1na2vs0mg"},{"bike_id":"0f1e0fa6-5237-4f67-b177-ce610325d4bb","system_id":"levelo_inurba_marseille","lat":43.30209,"lon":5.3947,"is_reserved":false,"is_disabled":false,"rental_uris":{"android":"levelo://app?vid=0f1e0fa6-5237-4f67-b177-ce610325d4bb","ios":"levelo://app?vid=0f1e0fa6-5237-4f67-b177-ce610325d4bb"},"vehicle_type_id":"4","last_reported":1735078096,"current_range_meters":37600,"station_id":"ce4bh0p2rcd13ifvqd70","pricing_plan_id":"cebpf4jnsgd1na2vs0mg"},{"bike_id":"dd55c862-7efa-48b0-9eaa-28fa09652d9e","system_id":"levelo_inurba_marseille","lat":43.29249,"lon":5.40908,"is_reserved":false,"is_disabled":false,"rental_uris":{"android":"levelo://app?vid=dd55c862-7efa-48b0-9eaa-28fa09652d9e","ios":"levelo://app?vid=dd55c862-7efa-48b0-9eaa-28fa09652d9e"},"vehicle_type_id":"4","last_reported":1735078096,"current_range_meters":38400,"station_id":"ce4bh192rcd13ifvqdc0","pricing_plan_id":"cebpf4jnsgd1na2vs0mg"},{"bike_id":"89c31185-79e8-41ba-aeec-7ee23fd07219","system_id":"levelo_inurba_marseille","lat":43.26952,"lon":5.38625,"is_reserved":false,"is_disabled":false,"rental_uris":{"android":"levelo://app?vid=89c31185-79e8-41ba-aeec-7ee23fd07219","ios":"levelo://app?vid=89c31185-79e8-41ba-aeec-7ee23fd07219"},"vehicle_type_id":"4","last_reported":1735078096,"current_range_meters":38800,"station_id":"ce4bhh92rcd13ifvqfh0","pricing_plan_id":"cebpf4jnsgd1na2vs0mg"},{"bike_id":"416ccd23-b5d7-41d8-8d7e-5d2e6c47904e","system_id":"levelo_inurba_marseille","lat":43.3147,"lon":5.37288,"is_reserved":false,"is_disabled":false,"rental_uris":{"android":"levelo://app?vid=416ccd23-b5d7-41d8-8d7e-5d2e6c47904e","ios":"levelo://app?vid=416ccd23-b5d7-41d8-8d7e-5d2e6c47904e"},"vehicle_type_id":"4","last_reported":1735078096,"current_range_meters":18800,"station_id":"ce4bgt12rcd13ifvqcd0","pricing_plan_id":"cebpf4jnsgd1na2vs0mg"},{"bike_id":"dad2569f-c6f1-49c8-b60e-8c397489fca6","system_id":"levelo_inurba_marseille","lat":43.30881,"lon":5.39637,"is_reserved":false,"is_disabled":false,"rental_uris":{"android":"levelo://app?vid=dad2569f-c6f1-49c8-b60e-8c397489fca6","ios":"levelo://app?vid=dad2569f-c6f1-49c8-b60e-8c397489fca6"},"vehicle_type_id":"4","last_reported":1735078096,"current_range_meters":38800,"station_id":"ce4bh012rcd13ifvqcv0","pricing_plan_id":"cebpf4jnsgd1na2vs0mg"},{"bike_id":"eaa4434b-02d6-42f8-bad0-0039e128c298","system_id":"levelo_inurba_marseille","lat":43.27947,"lon":5.38698,"is_reserved":false,"is_disabled":false,"rental_uris":{"android":"levelo://app?vid=eaa4434b-02d6-42f8-bad0-0039e128c298","ios":"levelo://app?vid=eaa4434b-02d6-42f8-bad0-0039e128c298"},"vehicle_type_id":"4","last_reported":1735078096,"current_range_meters":35600,"station_id":"ce4bhg12rcd13ifvqf80","pricing_plan_id":"cebpf4jnsgd1na2vs0mg"},