{"last_updated":1750155096,"ttl":60,"version":"2.2","data":{"bikes":[{"bike_id":"3da29fb8-fc97-44c6-b9ac-31dd456b2fd4","system_id":"levelo_inurba_marseille","lat":43.33771,"lon":5.37424,"is_reserved":false,"is_disabled":true,"rental_uris":{"android":"levelo://app?vid=3da29fb8-fc97-44c6-b9ac-31dd456b2fd4","ios":"levelo://app?vid=3da29fb8-fc97-44c6-b9ac-31dd456b2fd4"},"vehicle_type_id":"4","last_reported":1750155096,"current_range_meters":0,"station_id":"","pricing_plan_id":"cebpf4jnsgd1na2vs0mg"},{"bike_id":"01861ad8-a8d7-4be6-816e-651927c87584","system_id":"levelo_inurba_marseille","lat":43.33751,"lon":5.37456,"is_reserved":false,"is_disabled":true,"rental_uris":{"android":"levelo://app?vid=01861ad8-a8d7-4be6-816e-651927c87584","ios":"levelo://app?vid=01861ad8-a8d7-4be6-816e-651927c87584"},"vehicle_type_id":"4","last_reported":1750155096,"current_range_meters":0,"station_id":"","pricing_plan_id":"cebpf4jnsgd1na2vs0mg"},{"bike_id":"b81ba2bd-624d-43c3-b702-6c0cdad38ab2","system_id":"levelo_inurba_marseille","lat":43.31136,"lon":5.39327,"is_reserved":false,"is_disabled":true,"rental_uris":{"android":"levelo://app?vid=b81ba2bd-624d-43c3-b702-6c0cdad38ab2","ios":"levelo://app?vid=b81ba2bd-624d-43c3-b702-6c0cdad38ab2"},"vehicle_type_id":"4","last_reported":1750155096,"current_range_meters":0,"station_id":"","pricing_plan_id":"cebpf4jnsgd1na2vs0mg"},{"bike_id":"1bbeebb8-1cc5-43a0-b29e-f5d2c33ca813","system_id":"levelo_inurba_marseille","lat":43.267914,"lon":5.394162,"is_reserved":false,"is_disabled":true,"rental_uris":{"android":"levelo://app?vid=1bbeebb8-1cc5-43a0-b29e-f5d2c33ca813","ios":"levelo://app?vid=1bbeebb8-1cc5-43a0-b29e-f5d2c33ca813"},"vehicle_type_id":"4","last_reported":1750155096,"current_range_meters":0,"station_id":"","pricing_plan_id":"cebpf4jnsgd1na2vs0mg"},{"bike_id":"d2bd57c8-6b64-48db-ad24-5398eb3fd9d6","system_id":"levelo_inurba_marseille","lat":43.337444,"lon":5.374475,"is_reserved":false,"is_disabled":true,"rental_uris":{"android":"levelo://app?vid=d2bd57c8-6b64-48db-ad24-5398eb3fd9d6","ios":"levelo://app?vid=d2bd57c8-6b64-48db-ad24-5398eb3fd9d6"},"vehicle_type_id":"4","last_reported":1750155096,"current_range_meters":0,"station_id":"","pricing_plan_id":"cebpf4jnsgd1na2vs0mg"},{"bike_id":"62a493c7-4534-4419-ad43-0582de34a72a","system_id":"levelo_inurba_marseille","lat":43.21366,"lon":5.355183,"is_reserved":false,"is_disabled":true,"rental_uris":{"android":"levelo://app?vid=62a493c7-4534-4419-ad43-0582de34a72a","ios":"levelo://app?vid=62a493c7-4534-4419-ad43-0582de34a72a"},"vehicle_type_id":"4","last_reported":1750155096,"current_range_meters":0,"station_id":"","pricing_plan_id":"cebpf4jnsgd1na2vs0mg"},{"bike_id":"93af304b-67b5-47b8-a3fd-e0775f7cde8c","system_id":"levelo_inurba_marseille","lat":43.215345,"lon":5.347374,"is_reserved":false,"is_disabled":true,"rental_uris":{"android":"levelo://app?vid=93af304b-67b5-47b8-a3fd-e0775f7cde8c","ios":"levelo://app?vid=93af304b-67b5-47b8-a3fd-e0775f7cde8c"},"vehicle_type_id":"4","last_reported":1750155096,"current_range_meters":0,"station_id":"","pricing_plan_id":"cebpf4jnsgd1na2vs0mg"},{"bike_id":"d6609b4f-333b-43c1-9ebe-8726f5e76e88","system_id":"levelo_inurba_marseille","lat":43.337444,"lon":5.374475,"is_reserved":false,"is_disabled":true,"rental_uris":{"android":"levelo://app?vid=d6609b4f-333b-43c1-9ebe-8726f5e76e88","ios":"levelo://app?vid=d6609b4f-333b-43c1-9ebe-8726f5e76e88"},"vehicle_type_id":"4","last_reported":1750155096,"current_range_meters":0,"station_id":"","pricing_plan_id":"cebpf4jnsgd1na2vs0mg"},{"bike_id":"7c6fdbaa-49a0-4e5c-bca1-a07989fcd59f","system_id":"levelo_inurba_marseille","lat":43.31258,"lon":5.38632,"is_reserved":false,"is_disabled":true,"rental_uris":{"android":"levelo://app?vid=7c6fdbaa-49a0-4e5c-bca1-a07989fcd59f","ios":"levelo://app?vid=7c6fdbaa-49a0-4e5c-bca1-a07989fcd59f"},"vehicle_type_id":"4","last_reported":1750155096,"current_range_meters":0,"station_id":"","pricing_plan_id":"cebpf4jnsgd1na2vs0mg"},{"bike_id":"25f6e4fb-d988-4e89-acce-fef2d6600035","system_id":"levelo_inurba_marseille","lat":43.30193,"lon":5.36619,"is_reserved":false,"is_disabled":true,"rental_uris":{"android":"levelo://app?vid=25f6e4fb-d988-4e89-acce-fef2d6600035","ios":"levelo://app?vid=25f6e4fb-d988-4e89-acce-fef2d6600035"},"vehicle_type_id":"4","last_reported":1750155096,"current_range_meters":0,"station_id":"ce4bgrh2rcd13ifvqc8g","pricing_plan_id":"cebpf4jnsgd1na2vs0mg"},{"bike_id":"847b7937-2e44-484f-ab16-3c8e0ccd8830","system_id":"levelo_inurba_marseille","lat":43.3136,"lon":5.38498,"is_reserved":false,"is_disabled":true,"rental_uris":{"android":"levelo://app?vid=847b7937-2e44-484f-ab16-3c8e0ccd8830","ios":"levelo://app?vid=847b7937-2e44-484f-ab16-3c8e0ccd8830"},"vehicle_type_id":"4","last_reported":1750155096,"current_range_meters":0,"station_id":"ce4bgt92rcd13ifvqcf0","pricing_plan_id":"cebpf4jnsgd1na2vs0mg"},{"bike_id":"c35ce775-9a64-4526-9987-e8626ee01eb5","system_id":"levelo_inurba_marseille","lat":43.30945,"lon":5.40143,"is_reserved":false,"is_disabled":true,"rental_uris":{"android":"levelo://app?vid=c35ce775-9a64-4526-9987-e8626ee01eb5","ios":"levelo://app?vid=c35ce775-9a64-4526-9987-e8626ee01eb5"},"vehicle_type_id":"4","last_reported":1750155096,"current_range_meters":0,"station_id":"ce4bgvp2rcd13ifvqct0","pricing_plan_id":"cebpf4jnsgd1na2vs0mg"},{"bike_id":"ce791404-efc9-4ad9-8f7f-6097f6a6332c","system_id":"levelo_inurba_marseille","lat":43.28276,"lon":5.35073,"is_reserved":false,"is_disabled":true,"rental_uris":{"android":"levelo://app?vid=ce791404-efc9-4ad9-8f7f-6097f6a6332c","ios":"levelo://app?vid=ce791404-efc9-4ad9-8f7f-6097f6a6332c"},"vehicle_type_id":"4","last_reported":1750155096,"current_range_meters":0,"station_id":"ce4bhbp2rcd13ifvqerg","pricing_plan_id":"cebpf4jnsgd1na2vs0mg"},{"bike_id":"8876e2a9-e173-4b2d-8823-7e0e290965f8","system_id":"levelo_inurba_marseille","lat":43.286107,"lon":5.351053,"is_reserved":false,"is_disabled":true,"rental_uris":{"android":"levelo://app?vid=8876e2a9-e173-4b2d-8823-7e0e290965f8","ios":"levelo://app?vid=8876e2a9-e173-4b2d-8823-7e0e290965f8"},"vehicle_type_id":"4","last_reported":1750155096,"current_range_meters":0,"station_id":"ce4bhch2rcd13ifvqeug","pricing_plan_id":"cebpf4jnsgd1na2vs0mg"},{"bike_id":"0bfd102e-1051-4eca-850e-072e5a1c5409","system_id":"levelo_inurba_marseille","lat":43.33723,"lon":5.39185,"is_reserved":false,"is_disabled":true,"rental_uris":{"android":"levelo://app?vid=0bfd102e-1051-4eca-850e-072e5a1c5409","ios":"levelo://app?vid=0bfd102e-1051-4eca-850e-072e5a1c5409"},"vehicle_type_id":"4","last_reported":1750155096,"current_range_meters":0,"station_id":"ce4bhr92rcd13ifvqhsg","pricing_plan_id":"cebpf4jnsgd1na2vs0mg"},{"bike_id":"04276415-42b1-4736-aa9f-2d33227b99de","system_id":"levelo_inurba_marseille","lat":43.3089,"lon":5.40143,"is_reserved":false,"is_disabled":true,"rental_uris":{"android":"levelo://app?vid=04276415-42b1-4736-aa9f-2d33227b99de","ios":"levelo://app?vid=04276415-42b1-4736-aa9f-2d33227b99de"},"vehicle_type_id":"4","last_reported":1750155096,"current_range_meters":400,"station_id":"ce4bgvp2rcd13ifvqct0","pricing_plan_id":"cebpf4jnsgd1na2vs0mg"},{"bike_id":"db16bf96-25d9-4ac3-919f-a5052f86098e","system_id":"levelo_inurba_marseille","lat":43.32117,"lon":5.36774,"is_reserved":false,"is_disabled":true,"rental_uris":{"android":"levelo://app?vid=db16bf96-25d9-4ac3-919f-a5052f86098e","ios":"levelo://app?vid=db16bf96-25d9-4ac3-919f-a5052f86098e"},"vehicle_type_id":"4","last_reported":1750155096,"current_range_meters":400,"station_id":"ce4bhrh2rcd13ifvqhug","pricing_plan_id":"cebpf4jnsgd1na2vs0mg"},{"bike_id":"6b8a0710-9656-4131-b80e-0a48275439f1","system_id":"levelo_inurba_marseille","lat":43.28062,"lon":5.37805,"is_reserved":false,"is_disabled":true,"rental_uris":{"android":"levelo://app?vid=6b8a0710-9656-4131-b80e-0a48275439f1","ios":"levelo://app?vid=6b8a0710-9656-4131-b80e-0a48275439f1"},"vehicle_type_id":"4","last_reported":1750155096,"current_range_meters":800,"station_id":"","pricing_plan_id":"cebpf4jnsgd1na2vs0mg"},{"bike_id":"8ee7d802-1625-4cdd-bd91-fabb8eb988be","system_id":"levelo_inurba_marseille","lat":43.30961,"lon":5.39035,"is_reserved":false,"is_disabled":true,"rental_uris":{"android":"levelo://app?vid=8ee7d802-1625-4cdd-bd91-fabb8eb988be","ios":"levelo://app?vid=8ee7d802-1625-4cdd-bd91-fabb8eb988be"},"vehicle_type_id":"4","last_reported":1750155096,"current_range_meters":800,"station_id":"ce4bgup2rcd13ifvqco0","pricing_plan_id":"cebpf4jnsgd1na2vs0mg"},{"bike_id":"cbcf514a-3068-4967-a0d3-54a3dc01d423","system_id":"levelo_inurba_marseille","lat":43.29531,"lon":5.39023,"is_reserved":false,"is_disabled":true,"rental_uris":{"android":"levelo://app?vid=cbcf514a-3068-4967-a0d3-54a3dc01d423","ios":"levelo://app?vid=cbcf514a-3068-4967-a0d3-54a3dc01d423"},"vehicle_type_id":"4","last_reported":1750155096,"current_range_meters":800,"station_id":"ce4bh3p2rcd13ifvqdp0","pricing_plan_id":"cebpf4jnsgd1na2vs0mg"},{"bike_id":"5af3f63a-4dbc-437b-8d2b-89759c9a7ab8","system_id":"levelo_inurba_marseille","lat":43.29233,"lon":5.36055,"is_reserved":false,"is_disabled":true,"rental_uris":{"android":"levelo://app?vid=5af3f63a-4dbc-437b-8d2b-89759c9a7ab8","ios":"levelo://app?vid=5af3f63a-4dbc-437b-8d2b-89759c9a7ab8"},"vehicle_type_id":"4","last_reported":1750155096,"current_range_meters":800,"station_id":"ce4bhbh2rcd13ifvqeqg","pricing_plan_id":"cebpf4jnsgd1na2vs0mg"},{"bike_id":"4bdf1556-fb5c-4217-b6d4-b3ac5c63a403","system_id":"levelo_inurba_marseille","lat":43.24385,"lon":5.37058,"is_reserved":false,"is_disabled":true,"rental_uris":{"android":"levelo://app?vid=4bdf1556-fb5c-4217-b6d4-b3ac5c63a403","ios":"levelo://app?vid=4bdf1556-fb5c-4217-b6d4-b3ac5c63a403"},"vehicle_type_id":"4","last_reported":1750155096,"current_range_meters":800,"station_id":"ce4bhhh2rcd13ifvqfk0","pricing_plan_id":"cebpf4jnsgd1na2vs0mg"},{"bike_id":"aac0fc11-191e-42ff-91e6-143cca72b34b","system_id":"levelo_inurba_marseille","lat":43.23198,"lon":5.35546,"is_reserved":false,"is_disabled":true,"rental_uris":{"android":"levelo://app?vid=aac0fc11-191e-42ff-91e6-143cca72b34b","ios":"levelo://app?vid=aac0fc11-191e-42ff-91e6-143cca72b34b"},"vehicle_type_id":"4","last_reported":1750155096,"current_range_meters":800,"station_id":"ce4bhu92rcd13ifvqi70","pricing_plan_id":"cebpf4jnsgd1na2vs0mg"},{"bike_id":"dbfce7a3-3423-4296-b193-a177dea644ac","system_id":"levelo_inurba_marseille","lat":43.27277,"lon":5.41597,"is_reserved":false,"is_disabled":true,"rental_uris":{"android":"levelo://app?vid=dbfce7a3-3423-4296-b193-a177dea644ac","ios":"levelo://app?vid=dbfce7a3-3423-4296-b193-a177dea644ac"},"vehicle_type_id":"4","last_reported":1750155096,"current_range_meters":1200,"station_id":"","pricing_plan_id":"cebpf4jnsgd1na2vs0mg"},{"bike_id":"a504485c-f568-4403-a49f-5d7459986974","system_id":"levelo_inurba_marseille","lat":43.32286,"lon":5.38277,"is_reserved":false,"is_disabled":true,"rental_uris":{"android":"levelo://app?vid=a504485c-f568-4403-a49f-5d7459986974","ios":"levelo://app?vid=a504485c-f568-4403-a49f-5d7459986974"},"vehicle_type_id":"4","last_reported":1750155096,"current_range_meters":1200,"station_id":"ce4bhr12rcd13ifvqhqg","pricing_plan_id":"cebpf4jnsgd1na2vs0mg"},{"bike_id":"f16a5698-ddc2-4e59-97f5-5526424b5a60","system_id":"levelo_inurba_marseille","lat":43.21198,"lon":5.35066,"is_reserved":false,"is_disabled":true,"rental_uris":{"android":"levelo://app?vid=f16a5698-ddc2-4e59-97f5-5526424b5a60","ios":"levelo://app?vid=f16a5698-ddc2-4e59-97f5-5526424b5a60"},"vehicle_type_id":"4","last_reported":1750155096,"current_range_meters":1200,"station_id":"st_cvj6sg6p6f1abm77japg","pricing_plan_id":"cebpf4jnsgd1na2vs0mg"},{"bike_id":"fc6431d9-1295-4528-9a4c-4ced56eca8b3","system_id":"levelo_inurba_marseille","lat":43.29528,"lon":5.38548,"is_reserved":false,"is_disabled":true,"rental_uris":{"android":"levelo://app?vid=fc6431d9-1295-4528-9a4c-4ced56eca8b3","ios":"levelo://app?vid=fc6431d9-1295-4528-9a4c-4ced56eca8b3"},"vehicle_type_id":"4","last_reported":1750155096,"current_range_meters":1600,"station_id":"ce4bgih2rcd13ifvqba0","pricing_plan_id":"cebpf4jnsgd1na2vs0mg"},{"bike_id":"65f22189-3361-436e-8ced-46c0ff911a37","system_id":"levelo_inurba_marseille","lat":43.27953,"lon":5.38709,"is_reserved":false,"is_disabled":true,"rental_uris":{"android":"levelo://app?vid=65f22189-3361-436e-8ced-46c0ff911a37","ios":"levelo://app?vid=65f22189-3361-436e-8ced-46c0ff911a37"},"vehicle_type_id":"4","last_reported":1750155096,"current_range_meters":1600,"station_id":"ce4bhg12rcd13ifvqf80","pricing_plan_id":"cebpf4jnsgd1na2vs0mg"},{"bike_id":"2561b5be-5324-47ea-9b68-bc83800f2407","system_id":"levelo_inurba_marseille","lat":43.23148,"lon":5.43717,"is_reserved":false,"is_disabled":true,"rental_uris":{"android":"levelo://app?vid=2561b5be-5324-47ea-9b68-bc83800f2407","ios":"levelo://app?vid=2561b5be-5324-47ea-9b68-bc83800f2407"},"vehicle_type_id":"4","last_reported":1750155096,"current_range_meters":1600,"station_id":"ce4bhmp2rcd13ifvqgog","pricing_plan_id":"cebpf4jnsgd1na2vs0mg"},{"bike_id":"2318124a-ea30-498d-91ab-601f07942910","system_id":"levelo_inurba_marseille","lat":43.27946,"lon":5.41049,"is_reserved":false,"is_disabled":true,"rental_uris":{"android":"levelo://app?vid=2318124a-ea30-498d-91ab-601f07942910","ios":"levelo://app?vid=2318124a-ea30-498d-91ab-601f07942910"},"vehicle_type_id":"4","last_reported":1750155096,"current_range_meters":1600,"station_id":"ce4bhnp2rcd13ifvqh0g","pricing_plan_id":"cebpf4jnsgd1na2vs0mg"},{"bike_id":"0bb04f54-2e81-413f-bb9f-5527cf775b47","system_id":"levelo_inurba_marseille","lat":43.29007,"lon":5.3561,"is_reserved":false,"is_disabled":true,"rental_uris":{"android":"levelo://app?vid=0bb04f54-2e81-413f-bb9f-5527cf775b47","ios":"levelo://app?vid=0bb04f54-2e81-413f-bb9f-5527cf775b47"},"vehicle_type_id":"4","last_reported":1750155096,"current_range_meters":2000,"station_id":"ce4bhb92rcd13ifvqen0","pricing_plan_id":"cebpf4jnsgd1na2vs0mg"},{"bike_id":"b4034de0-5545-47a7-9450-4764d4dd097a","system_id":"levelo_inurba_marseille","lat":43.27978,"lon":5.38733,"is_reserved":false,"is_disabled":true,"rental_uris":{"android":"levelo://app?vid=b4034de0-5545-47a7-9450-4764d4dd097a","ios":"levelo://app?vid=b4034de0-5545-47a7-9450-4764d4dd097a"},"vehicle_type_id":"4","last_reported":1750155096,"current_range_meters":2000,"station_id":"ce4bhg12rcd13ifvqf80","pricing_plan_id":"cebpf4jnsgd1na2vs0mg"},{"bike_id":"6dc90bcf-666d-4a45-80a6-9ccb72bb82f0","system_id":"levelo_inurba_marseille","lat":43.264913,"lon":5.395433,"is_reserved":false,"is_disabled":true,"rental_uris":{"android":"levelo://app?vid=6dc90bcf-666d-4a45-80a6-9ccb72bb82f0","ios":"levelo://app?vid=6dc90bcf-666d-4a45-80a6-9ccb72bb82f0"},"vehicle_type_id":"4","last_reported":1750155096,"current_range_meters":2000,"station_id":"ce4bhi12rcd13ifvqfq0","pricing_plan_id":"cebpf4jnsgd1na2vs0mg"},{"bike_id":"b9e37238-9abe-4b8b-b932-edaee33a7e59","system_id":"levelo_inurba_marseille","lat":43.274954,"lon":5.390049,"is_reserved":false,"is_disabled":false,"rental_uris":{"android":"levelo://app?vid=b9e37238-9abe-4b8b-b932-edaee33a7e59","ios":"levelo://app?vid=b9e37238-9abe-4b8b-b932-edaee33a7e59"},"vehicle_type_id":"4","last_reported":1750155096,"current_range_meters":2800,"station_id":"","pricing_plan_id":"cebpf4jnsgd1na2vs0mg"},{"bike_id":"4eabf809-c966-4cbf-b09e-6d79e221b603","system_id":"levelo_inurba_marseille","lat":43.31295,"lon":5.37307,"is_reserved":false,"is_disabled":false,"rental_uris":{"android":"levelo://app?vid=4eabf809-c966-4cbf-b09e-6d79e221b603","ios":"levelo://app?vid=4eabf809-c966-4cbf-b09e-6d79e221b603"},"vehicle_type_id":"4","last_reported":1750155096,"current_range_meters":3200,"station_id":"","pricing_plan_id":"cebpf4jnsgd1na2vs0mg"},{"bike_id":"00add97f-b019-47c3-a9f2-027dcb140f01","system_id":"levelo_inurba_marseille","lat":43.34147,"lon":5.40894,"is_reserved":false,"is_disabled":false,"rental_uris":{"android":"levelo://app?vid=00add97f-b019-47c3-a9f2-027dcb140f01","ios":"levelo://app?vid=00add97f-b019-47c3-a9f2-027dcb140f01"},"vehicle_type_id":"4","last_reported":1750155096,"current_range_meters":3200,"station_id":"ce4bhqh2rcd13ifvqhlg","pricing_plan_id":"cebpf4jnsgd1na2vs0mg"},{"bike_id":"2c5c6a38-2b3b-4de5-92c4-7a9c27c31805","system_id":"levelo_inurba_marseille","lat":43.28942,"lon":5.39614,"is_reserved":false,"is_disabled":false,"rental_uris":{"android":"levelo://app?vid=2c5c6a38-2b3b-4de5-92c4-7a9c27c31805","ios":"levelo://app?vid=2c5c6a38-2b3b-4de5-92c4-7a9c27c31805"},"vehicle_type_id":"4","last_reported":1750155096,"current_range_meters":3600,"station_id":"ce4bh3h2rcd13ifvqdn0","pricing_plan_id":"cebpf4jnsgd1na2vs0mg"},{"bike_id":"3e35cb00-7b2d-4acb-a07e-5a98b8474985","system_id":"levelo_inurba_marseille","lat":43.31083,"lon":5.42428,"is_reserved":false,"is_disabled":false,"rental_uris":{"android":"levelo://app?vid=3e35cb00-7b2d-4acb-a07e-5a98b8474985","ios":"levelo://app?vid=3e35cb00-7b2d-4acb-a07e-5a98b8474985"},"vehicle_type_id":"4","last_reported":1750155096,"current_range_meters":3600,"station_id":"ce4bhp92rcd13ifvqhag","pricing_plan_id":"cebpf4jnsgd1na2vs0mg"},{"bike_id":"8d297b38-f666-4a46-9dee-0132f800019c","system_id":"levelo_inurba_marseille","lat":43.32204,"lon":5.38566,"is_reserved":false,"is_disabled":false,"rental_uris":{"android":"levelo://app?vid=8d297b38-f666-4a46-9dee-0132f800019c","ios":"levelo://app?vid=8d297b38-f666-4a46-9dee-0132f800019c"},"vehicle_type_id":"4","last_reported":1750155096,"current_range_meters":4000,"station_id":"","pricing_plan_id":"cebpf4jnsgd1na2vs0mg"},{"bike_id":"70aef3cb-3a50-4d6b-8fca-f3a7a0d508f5","system_id":"levelo_inurba_marseille","lat":43.2738,"lon":5.36258,"is_reserved":false,"is_disabled":false,"rental_uris":{"android":"levelo://app?vid=70aef3cb-3a50-4d6b-8fca-f3a7a0d508f5","ios":"levelo://app?vid=70aef3cb-3a50-4d6b-8fca-f3a7a0d508f5"},"vehicle_type_id":"4","last_reported":1750155096,"current_range_meters":4000,"station_id":"ce4bhbh2rcd13ifvqeo0","pricing_plan_id":"cebpf4jnsgd1na2vs0mg"},{"bike_id":"82b653d7-fe36-4990-a702-f797cb2977ff","system_id":"levelo_inurba_marseille","lat":43.29108,"lon":5.38134,"is_reserved":false,"is_disabled":false,"rental_uris":{"android":"levelo://app?vid=82b653d7-fe36-4990-a702-f797cb2977ff","ios":"levelo://app?vid=82b653d7-fe36-4990-a702-f797cb2977ff"},"vehicle_type_id":"4","last_reported":1750155096,"current_range_meters":4400,"station_id":"ce4bh512rcd13ifvqe2g","pricing_plan_id":"cebpf4jnsgd1na2vs0mg"},{"bike_id":"0870eb02-cb12-4a5e-8ce8-193a04a9f9ee","system_id":"levelo_inurba_marseille","lat":43.28498,"lon":5.38411,"is_reserved":false,"is_disabled":false,"rental_uris":{"android":"levelo://app?vid=0870eb02-cb12-4a5e-8ce8-193a04a9f9ee","ios":"levelo://app?vid=0870eb02-cb12-4a5e-8ce8-193a04a9f9ee"},"vehicle_type_id":"4","last_reported":1750155096,"current_range_meters":4400,"station_id":"ce4bh512rcd13ifvqe3g","pricing_plan_id":"cebpf4jnsgd1na2vs0mg"},{"bike_id":"355d33db-d830-4abb-a2f9-34e06aea68bc","system_id":"levelo_inurba_marseille","lat":43.32218,"lon":5.38097,"is_reserved":false,"is_disabled":false,"rental_uris":{"android":"levelo://app?vid=355d33db-d830-4abb-a2f9-34e06aea68bc","ios":"levelo://app?vid=355d33db-d830-4abb-a2f9-34e06aea68bc"},"vehicle_type_id":"4","last_reported":1750155096,"current_range_meters":4800,"station_id":"","pricing_plan_id":"cebpf4jnsgd1na2vs0mg"},{"bike_id":"0b332d37-9e29-440b-95db-b02b238bcc85","system_id":"levelo_inurba_marseille","lat":43.31177,"lon":5.38719,"is_reserved":false,"is_disabled":false,"rental_uris":{"android":"levelo://app?vid=0b332d37-9e29-440b-95db-b02b238bcc85","ios":"levelo://app?vid=0b332d37-9e29-440b-95db-b02b238bcc85"},"vehicle_type_id":"4","last_reported":1750155096,"current_range_meters":4800,"station_id":"ce4bgv12rcd13ifvqcp0","pricing_plan_id":"cebpf4jnsgd1na2vs0mg"},{"bike_id":"7f8a3718-92f3-4d8f-b137-2b70ada08f1e","system_id":"levelo_inurba_marseille","lat":43.34143,"lon":5.40897,"is_reserved":false,"is_disabled":false,"rental_uris":{"android":"levelo://app?vid=7f8a3718-92f3-4d8f-b137-2b70ada08f1e","ios":"levelo://app?vid=7f8a3718-92f3-4d8f-b137-2b70ada08f1e"},"vehicle_type_id":"4","last_reported":1750155096,"current_range_meters":4800,"station_id":"ce4bhqh2rcd13ifvqhlg","pricing_plan_id":"cebpf4jnsgd1na2vs0mg"},{"bike_id":"f03501b3-7634-4444-9a22-7f996a732b4a","system_id":"levelo_inurba_marseille","lat":43.31375,"lon":5.3671,"is_reserved":false,"is_disabled":false,"rental_uris":{"android":"levelo://app?vid=f03501b3-7634-4444-9a22-7f996a732b4a","ios":"levelo://app?vid=f03501b3-7634-4444-9a22-7f996a732b4a"},"vehicle_type_id":"4","last_reported":1750155096,"current_range_meters":5600,"station_id":"ce4bgr92rcd13ifvqc6g","pricing_plan_id":"cebpf4jnsgd1na2vs0mg"},{"bike_id":"4d2513ec-9b5d-4a87-a782-9f6d67a2b9c7","system_id":"levelo_inurba_marseille","lat":43.24389,"lon":5.37059,"is_reserved":false,"is_disabled":false,"rental_uris":{"android":"levelo://app?vid=4d2513ec-9b5d-4a87-a782-9f6d67a2b9c7","ios":"levelo://app?vid=4d2513ec-9b5d-4a87-a782-9f6d67a2b9c7"},"vehicle_type_id":"4","last_reported":1750155096,"current_range_meters":6000,"station_id":"ce4bhhh2rcd13ifvqfk0","pricing_plan_id":"cebpf4jnsgd1na2vs0mg"},{"bike_id":"dcb87a9a-18f8-41c6-9134-949f31e21b42","system_id":"levelo_inurba_marseille","lat":43.27004,"lon":5.39961,"is_reserved":false,"is_disabled":false,"rental_uris":{"android":"levelo://app?vid=dcb87a9a-18f8-41c6-9134-949f31e21b42","ios":"levelo://app?vid=dcb87a9a-18f8-41c6-9134-949f31e21b42"},"vehicle_type_id":"4","last_reported":1750155096,"current_range_meters":6400,"station_id":"","pricing_plan_id":"cebpf4jnsgd1na2vs0mg"},{"bike_id":"1db768cf-ab18-4939-ab09-86d7ddf698a9","system_id":"levelo_inurba_marseille","lat":43.29778,"lon":5.37066,"is_reserved":false,"is_disabled":false,"rental_uris":{"android":"levelo://app?vid=1db768cf-ab18-4939-ab09-86d7ddf698a9","ios":"levelo://app?vid=1db768cf-ab18-4939-ab09-86d7ddf698a9"},"vehicle_type_id":"4","last_reported":1750155096,"current_range_meters":6800,"station_id":"","pricing_plan_id":"cebpf4jnsgd1na2vs0mg"},{"bike_id":"b6346b71-e3a8-4f9f-bfd5-8ef73fd1abda","system_id":"levelo_inurba_marseille","lat":43.29896,"lon":5.3889,"is_reserved":false,"is_disabled":false,"rental_uris":{"android":"levelo://app?vid=b6346b71-e3a8-4f9f-bfd5-8ef73fd1abda","ios":"levelo://app?vid=b6346b71-e3a8-4f9f-bfd5-8ef73fd1abda"},"vehicle_type_id":"4","last_reported":1750155096,"current_range_meters":6800,"station_id":"ce4bh392rcd13ifvqdl0","pricing_plan_id":"cebpf4jnsgd1na2vs0mg"},{"bike_id":"5f578bb0-9acb-4447-9de9-683f5979e9fe","system_id":"levelo_inurba_marseille","lat":43.28713,"lon":5.37386,"is_reserved":false,"is_disabled":false,"rental_uris":{"android":"levelo://app?vid=5f578bb0-9acb-4447-9de9-683f5979e9fe","ios":"levelo://app?vid=5f578bb0-9acb-4447-9de9-683f5979e9fe"},"vehicle_type_id":"4","last_reported":1750155096,"current_range_meters":6800,"station_id":"ce4bh3p2rcd13ifvqdq0","pricing_plan_id":"cebpf4jnsgd1na2vs0mg"},{"bike_id":"3042c9e5-c5a5-4a11-94d1-8e536b5e25f7","system_id":"levelo_inurba_marseille","lat":43.21193,"lon":5.35065,"is_reserved":false,"is_disabled":false,"rental_uris":{"android":"levelo://app?vid=3042c9e5-c5a5-4a11-94d1-8e536b5e25f7","ios":"levelo://app?vid=3042c9e5-c5a5-4a11-94d1-8e536b5e25f7"},"vehicle_type_id":"4","last_reported":1750155096,"current_range_meters":6800,"station_id":"st_cvj6sg6p6f1abm77japg","pricing_plan_id":"cebpf4jnsgd1na2vs0mg"},{"bike_id":"26a09134-8508-4070-aaff-ae574614f5c0","system_id":"levelo_inurba_marseille","lat":43.31221,"lon":5.36843,"is_reserved":false,"is_disabled":false,"rental_uris":{"android":"levelo://app?vid=26a09134-8508-4070-aaff-ae574614f5c0","ios":"levelo://app?vid=26a09134-8508-4070-aaff-ae574614f5c0"},"vehicle_type_id":"4","last_reported":1750155096,"current_range_meters":7200,"station_id":"ce4bgl92rcd13ifvqbq0","pricing_plan_id":"cebpf4jnsgd1na2vs0mg"},{"bike_id":"ba90fa7e-d29e-48a7-b1af-f3e07f3b8524","system_id":"levelo_inurba_marseille","lat":43.31224,"lon":5.36852,"is_reserved":false,"is_disabled":false,"rental_uris":{"android":"levelo://app?vid=ba90fa7e-d29e-48a7-b1af-f3e07f3b8524","ios":"levelo://app?vid=ba90fa7e-d29e-48a7-b1af-f3e07f3b8524"},"vehicle_type_id":"4","last_reported":1750155096,"current_range_meters":8000,"station_id":"ce4bgl92rcd13ifvqbq0","pricing_plan_id":"cebpf4jnsgd1na2vs0mg"},{"bike_id":"cfc82a10-8d52-42f6-94f0-8ed715236c6e","system_id":"levelo_inurba_marseille","lat":43.30954,"lon":5.39043,"is_reserved":false,"is_disabled":false,"rental_uris":{"android":"levelo://app?vid=cfc82a10-8d52-42f6-94f0-8ed715236c6e","ios":"levelo://app?vid=cfc82a10-8d52-42f6-94f0-8ed715236c6e"},"vehicle_type_id":"4","last_reported":1750155096,"current_range_meters":8000,"station_id":"ce4bgup2rcd13ifvqco0","pricing_plan_id":"cebpf4jnsgd1na2vs0mg"},{"bike_id":"93f21924-efbe-42c7-950c-9d90255234dd","system_id":"levelo_inurba_marseille","lat":43.30952,"lon":5.39042,"is_reserved":false,"is_disabled":false,"rental_uris":{"android":"levelo://app?vid=93f21924-efbe-42c7-950c-9d90255234dd","ios":"levelo://app?vid=93f21924-efbe-42c7-950c-9d90255234dd"},"vehicle_type_id":"4","last_reported":1750155096,"current_range_meters":8000,"station_id":"ce4bgup2rcd13ifvqco0","pricing_plan_id":"cebpf4jnsgd1na2vs0mg"},{"bike_id":"6afc644c-08c3-42de-8619-3f94e2ba41cd","system_id":"levelo_inurba_marseille","lat":43.29967,"lon":5.43722,"is_reserved":false,"is_disabled":false,"rental_uris":{"android":"levelo://app?vid=6afc644c-08c3-42de-8619-3f94e2ba41cd","ios":"levelo://app?vid=6afc644c-08c3-42de-8619-3f94e2ba41cd"},"vehicle_type_id":"4","last_reported":1750155096,"current_range_meters":8000,"station_id":"ce4bhpp2rcd13ifvqhfg","pricing_plan_id":"cebpf4jnsgd1na2vs0mg"},{"bike_id":"297ec0e9-01d4-4410-946b-23f690dec365","system_id":"levelo_inurba_marseille","lat":43.30552,"lon":5.36551,"is_reserved":false,"is_disabled":false,"rental_uris":{"android":"levelo://app?vid=297ec0e9-01d4-4410-946b-23f690dec365","ios":"levelo://app?vid=297ec0e9-01d4-4410-946b-23f690dec365"},"vehicle_type_id":"4","last_reported":1750155096,"current_range_meters":8400,"station_id":"ce4bgs12rcd13ifvqcag","pricing_plan_id":"cebpf4jnsgd1na2vs0mg"},{"bike_id":"49e10b2d-9e95-4858-94f2-ee277f6c100b","system_id":"levelo_inurba_marseille","lat":43.28418,"lon":5.34983,"is_reserved":false,"is_disabled":false,"rental_uris":{"android":"levelo://app?vid=49e10b2d-9e95-4858-94f2-ee277f6c100b","ios":"levelo://app?vid=49e10b2d-9e95-4858-94f2-ee277f6c100b"},"vehicle_type_id":"4","last_reported":1750155096,"current_range_meters":8400,"station_id":"ce4bhbh2rcd13ifvqepg","pricing_plan_id":"cebpf4jnsgd1na2vs0mg"},{"bike_id":"545d22d0-4bdb-4967-b574-d0f808cfcbea","system_id":"levelo_inurba_marseille","lat":43.21189,"lon":5.35072,"is_reserved":false,"is_disabled":false,"rental_uris":{"android":"levelo://app?vid=545d22d0-4bdb-4967-b574-d0f808cfcbea","ios":"levelo://app?vid=545d22d0-4bdb-4967-b574-d0f808cfcbea"},"vehicle_type_id":"4","last_reported":1750155096,"current_range_meters":8400,"station_id":"st_cvj6sg6p6f1abm77japg","pricing_plan_id":"cebpf4jnsgd1na2vs0mg"},{"bike_id":"c66d4bd8-6686-4c6d-a0f4-5989411e96de","system_id":"levelo_inurba_marseille","lat":43.30952,"lon":5.39032,"is_reserved":false,"is_disabled":false,"rental_uris":{"android":"levelo://app?vid=c66d4bd8-6686-4c6d-a0f4-5989411e96de","ios":"levelo://app?vid=c66d4bd8-6686-4c6d-a0f4-5989411e96de"},"vehicle_type_id":"4","last_reported":1750155096,"current_range_meters":8800,"station_id":"ce4bgup2rcd13ifvqco0","pricing_plan_id":"cebpf4jnsgd1na2vs0mg"},{"bike_id":"d308aadf-7b57-42b5-8ac5-4e6a5d4d7d4a","system_id":"levelo_inurba_marseille","lat":43.30889,"lon":5.39656,"is_reserved":false,"is_disabled":false,"rental_uris":{"android":"levelo://app?vid=d308aadf-7b57-42b5-8ac5-4e6a5d4d7d4a","ios":"levelo://app?vid=d308aadf-7b57-42b5-8ac5-4e6a5d4d7d4a"},"vehicle_type_id":"4","last_reported":1750155096,"current_range_meters":8800,"station_id":"ce4bh012rcd13ifvqcv0","pricing_plan_id":"cebpf4jnsgd1na2vs0mg"},{"bike_id":"98fa00ce-a438-4812-a731-b3f5176ce7f8","system_id":"levelo_inurba_marseille","lat":43.28618,"lon":5.35104,"is_reserved":false,"is_disabled":false,"rental_uris":{"android":"levelo://app?vid=98fa00ce-a438-4812-a731-b3f5176ce7f8","ios":"levelo://app?vid=98fa00ce-a438-4812-a731-b3f5176ce7f8"},"vehicle_type_id":"4","last_reported":1750155096,"current_range_meters":8800,"station_id":"ce4bhch2rcd13ifvqeug","pricing_plan_id":"cebpf4jnsgd1na2vs0mg"},{"bike_id":"7c98454d-a966-4030-b903-ba271eb2ac8c","system_id":"levelo_inurba_marseille","lat":43.2675,"lon":5.39419,"is_reserved":false,"is_disabled":false,"rental_uris":{"android":"levelo://app?vid=7c98454d-a966-4030-b903-ba271eb2ac8c","ios":"levelo://app?vid=7c98454d-a966-4030-b903-ba271eb2ac8c"},"vehicle_type_id":"4","last_reported":1750155096,"current_range_meters":9200,"station_id":"","pricing_plan_id":"cebpf4jnsgd1na2vs0mg"},{"bike_id":"0654a3d1-d6f7-46a2-a1ea-ac35d80a8ee1","system_id":"levelo_inurba_marseille","lat":43.30143,"lon":5.38779,"is_reserved":false,"is_disabled":false,"rental_uris":{"android":"levelo://app?vid=0654a3d1-d6f7-46a2-a1ea-ac35d80a8ee1","ios":"levelo://app?vid=0654a3d1-d6f7-46a2-a1ea-ac35d80a8ee1"},"vehicle_type_id":"4","last_reported":1750155096,"current_range_meters":9200,"station_id":"ce4bghh2rcd13ifvqb60","pricing_plan_id":"cebpf4jnsgd1na2vs0mg"},{"bike_id":"dfc74b38-091f-445e-a3ef-c771e281c3e4","system_id":"levelo_inurba_marseille","lat":43.30951,"lon":5.39037,"is_reserved":false,"is_disabled":false,"rental_uris":{"android":"levelo://app?vid=dfc74b38-091f-445e-a3ef-c771e281c3e4","ios":"levelo://app?vid=dfc74b38-091f-445e-a3ef-c771e281c3e4"},"vehicle_type_id":"4","last_reported":1750155096,"current_range_meters":9200,"station_id":"ce4bgup2rcd13ifvqco0","pricing_plan_id":"cebpf4jnsgd1na2vs0mg"},{"bike_id":"da3e1724-606c-4f9a-9130-d56dd48e22e0","system_id":"levelo_inurba_marseille","lat":43.32976,"lon":5.40594,"is_reserved":false,"is_disabled":false,"rental_uris":{"android":"levelo://app?vid=da3e1724-606c-4f9a-9130-d56dd48e22e0","ios":"levelo://app?vid=da3e1724-606c-4f9a-9130-d56dd48e22e0"},"vehicle_type_id":"4","last_reported":1750155096,"current_range_meters":9600,"station_id":"","pricing_plan_id":"cebpf4jnsgd1na2vs0mg"},{"bike_id":"64c6d212-acc6-47e3-9e04-fbaf04a7ed4e","system_id":"levelo_inurba_marseille","lat":43.2701,"lon":5.38778,"is_reserved":false,"is_disabled":false,"rental_uris":{"android":"levelo://app?vid=64c6d212-acc6-47e3-9e04-fbaf04a7ed4e","ios":"levelo://app?vid=64c6d212-acc6-47e3-9e04-fbaf04a7ed4e"},"vehicle_type_id":"4","last_reported":1750155096,"current_range_meters":9600,"station_id":"","pricing_plan_id":"cebpf4jnsgd1na2vs0mg"},{"bike_id":"0626f844-851d-46f7-b927-0098a85ccedf","system_id":"levelo_inurba_marseille","lat":43.30141,"lon":5.37412,"is_reserved":false,"is_disabled":false,"rental_uris":{"android":"levelo://app?vid=0626f844-851d-46f7-b927-0098a85ccedf","ios":"levelo://app?vid=0626f844-851d-46f7-b927-0098a85ccedf"},"vehicle_type_id":"4","last_reported":1750155096,"current_range_meters":9600,"station_id":"ce4bgs92rcd13ifvqcc0","pricing_plan_id":"cebpf4jnsgd1na2vs0mg"},{"bike_id":"5afbb755-a5c2-4b7e-8b3f-e6032506b9af","system_id":"levelo_inurba_marseille","lat":43.33147,"lon":5.39054,"is_reserved":false,"is_disabled":false,"rental_uris":{"android":"levelo://app?vid=5afbb755-a5c2-4b7e-8b3f-e6032506b9af","ios":"levelo://app?vid=5afbb755-a5c2-4b7e-8b3f-e6032506b9af"},"vehicle_type_id":"4","last_reported":1750155096,"current_range_meters":9600,"station_id":"ce4bhr92rcd13ifvqhrg","pricing_plan_id":"cebpf4jnsgd1na2vs0mg"},{"bike_id":"16d1eb4f-e479-477d-b2cb-5fd8838c33e7","system_id":"levelo_inurba_marseille","lat":43.22948,"lon":5.35374,"is_reserved":false,"is_disabled":false,"rental_uris":{"android":"levelo://app?vid=16d1eb4f-e479-477d-b2cb-5fd8838c33e7","ios":"levelo://app?vid=16d1eb4f-e479-477d-b2cb-5fd8838c33e7"},"vehicle_type_id":"4","last_reported":1750155096,"current_range_meters":9600,"station_id":"cpo3532slgdg3j2ikp40","pricing_plan_id":"cebpf4jnsgd1na2vs0mg"},{"bike_id":"b35914ae-da38-46fc-9230-b3564743afac","system_id":"levelo_inurba_marseille","lat":43.31723,"lon":5.40441,"is_reserved":false,"is_disabled":false,"rental_uris":{"android":"levelo://app?vid=b35914ae-da38-46fc-9230-b3564743afac","ios":"levelo://app?vid=b35914ae-da38-46fc-9230-b3564743afac"},"vehicle_type_id":"4","last_reported":1750155096,"current_range_meters":10000,"station_id":"","pricing_plan_id":"cebpf4jnsgd1na2vs0mg"},{"bike_id":"495ed5a6-10f8-4ae0-9798-3eec6b4ecf2c","system_id":"levelo_inurba_marseille","lat":43.26238,"lon":5.3932,"is_reserved":false,"is_disabled":false,"rental_uris":{"android":"levelo://app?vid=495ed5a6-10f8-4ae0-9798-3eec6b4ecf2c","ios":"levelo://app?vid=495ed5a6-10f8-4ae0-9798-3eec6b4ecf2c"},"vehicle_type_id":"4","last_reported":1750155096,"current_range_meters":10000,"station_id":"","pricing_plan_id":"cebpf4jnsgd1na2vs0mg"},{"bike_id":"356258c8-0ad6-493b-b5a4-77e865070f65","system_id":"levelo_inurba_marseille","lat":43.32613,"lon":5.41978,"is_reserved":false,"is_disabled":false,"rental_uris":{"android":"levelo://app?vid=356258c8-0ad6-493b-b5a4-77e865070f65","ios":"levelo://app?vid=356258c8-0ad6-493b-b5a4-77e865070f65"},"vehicle_type_id":"4","last_reported":1750155096,"current_range_meters":10000,"station_id":"","pricing_plan_id":"cebpf4jnsgd1na2vs0mg"},{"bike_id":"7e1dc2a4-b810-42ac-ac46-e32681dbeb70","system_id":"levelo_inurba_marseille","lat":43.28076,"lon":5.35248,"is_reserved":false,"is_disabled":false,"rental_uris":{"android":"levelo://app?vid=7e1dc2a4-b810-42ac-ac46-e32681dbeb70","ios":"levelo://app?vid=7e1dc2a4-b810-42ac-ac46-e32681dbeb70"},"vehicle_type_id":"4","last_reported":1750155096,"current_range_meters":10000,"station_id":"","pricing_plan_id":"cebpf4jnsgd1na2vs0mg"},{"bike_id":"caff9461-825e-4eec-9c12-4ca61d2dde3b","system_id":"levelo_inurba_marseille","lat":43.27375,"lon":5.36257,"is_reserved":false,"is_disabled":false,"rental_uris":{"android":"levelo://app?vid=caff9461-825e-4eec-9c12-4ca61d2dde3b","ios":"levelo://app?vid=caff9461-825e-4eec-9c12-4ca61d2dde3b"},"vehicle_type_id":"4","last_reported":1750155096,"current_range_meters":10000,"station_id":"ce4bhbh2rcd13ifvqeo0","pricing_plan_id":"cebpf4jnsgd1na2vs0mg"},{"bike_id":"a71d6554-b76e-45cb-bbdb-f22b0e98760b","system_id":"levelo_inurba_marseille","lat":43.24812,"lon":5.37457,"is_reserved":false,"is_disabled":false,"rental_uris":{"android":"levelo://app?vid=a71d6554-b76e-45cb-bbdb-f22b0e98760b","ios":"levelo://app?vid=a71d6554-b76e-45cb-bbdb-f22b0e98760b"},"vehicle_type_id":"4","last_reported":1750155096,"current_range_meters":10000,"station_id":"ce4bhgh2rcd13ifvqfb0","pricing_plan_id":"cebpf4jnsgd1na2vs0mg"},{"bike_id":"7db2dafb-5c52-41eb-95fb-ee667194c9d2","system_id":"levelo_inurba_marseille","lat":43.30956,"lon":5.39049,"is_reserved":false,"is_disabled":false,"rental_uris":{"android":"levelo://app?vid=7db2dafb-5c52-41eb-95fb-ee667194c9d2","ios":"levelo://app?vid=7db2dafb-5c52-41eb-95fb-ee667194c9d2"},"vehicle_type_id":"4","last_reported":1750155096,"current_range_meters":10800,"station_id":"ce4bgup2rcd13ifvqco0","pricing_plan_id":"cebpf4jnsgd1na2vs0mg"},{"bike_id":"79a76075-2c5b-4555-b2f3-558f4cdc08d8","system_id":"levelo_inurba_marseille","lat":43.29542,"lon":5.39396,"is_reserved":false,"is_disabled":false,"rental_uris":{"android":"levelo://app?vid=79a76075-2c5b-4555-b2f3-558f4cdc08d8","ios":"levelo://app?vid=79a76075-2c5b-4555-b2f3-558f4cdc08d8"},"vehicle_type_id":"4","last_reported":1750155096,"current_range_meters":10800,"station_id":"ce4bh292rcd13ifvqdf0","pricing_plan_id":"cebpf4jnsgd1na2vs0mg"},{"bike_id":"7de54e41-e99b-4589-a8f0-d7178e437205","system_id":"levelo_inurba_marseille","lat":43.26497,"lon":5.3954,"is_reserved":false,"is_disabled":false,"rental_uris":{"android":"levelo://app?vid=7de54e41-e99b-4589-a8f0-d7178e437205","ios":"levelo://app?vid=7de54e41-e99b-4589-a8f0-d7178e437205"},"vehicle_type_id":"4","last_reported":1750155096,"current_range_meters":10800,"station_id":"ce4bhi12rcd13ifvqfq0","pricing_plan_id":"cebpf4jnsgd1na2vs0mg"},{"bike_id":"7e52ac49-9390-4e00-93db-891533d7da4c","system_id":"levelo_inurba_marseille","lat":43.29528,"lon":5.39401,"is_reserved":false,"is_disabled":false,"rental_uris":{"android":"levelo://app?vid=7e52ac49-9390-4e00-93db-891533d7da4c","ios":"levelo://app?vid=7e52ac49-9390-4e00-93db-891533d7da4c"},"vehicle_type_id":"4","last_reported":1750155096,"current_range_meters":11200,"station_id":"ce4bh292rcd13ifvqdf0","pricing_plan_id":"cebpf4jnsgd1na2vs0mg"},{"bike_id":"3b136301-d892-4bf1-aa15-695ec30464ca","system_id":"levelo_inurba_marseille","lat":43.32091,"lon":5.36762,"is_reserved":false,"is_disabled":false,"rental_uris":{"android":"levelo://app?vid=3b136301-d892-4bf1-aa15-695ec30464ca","ios":"levelo://app?vid=3b136301-d892-4bf1-aa15-695ec30464ca"},"vehicle_type_id":"4","last_reported":1750155096,"current_range_meters":11200,"station_id":"ce4bhrh2rcd13ifvqhug","pricing_plan_id":"cebpf4jnsgd1na2vs0mg"},{"bike_id":"25960fd9-8509-4555-9b23-fa4fae1e21d0","system_id":"levelo_inurba_marseille","lat":43.29007,"lon":5.3821,"is_reserved":false,"is_disabled":false,"rental_uris":{"android":"levelo://app?vid=25960fd9-8509-4555-9b23-fa4fae1e21d0","ios":"levelo://app?vid=25960fd9-8509-4555-9b23-fa4fae1e21d0"},"vehicle_type_id":"4","last_reported":1750155096,"current_range_meters":11600,"station_id":"","pricing_plan_id":"cebpf4jnsgd1na2vs0mg"},{"bike_id":"d804df7d-c3ab-4628-870a-312f957f478e","system_id":"levelo_inurba_marseille","lat":43.2621,"lon":5.37439,"is_reserved":false,"is_disabled":false,"rental_uris":{"android":"levelo://app?vid=d804df7d-c3ab-4628-870a-312f957f478e","ios":"levelo://app?vid=d804df7d-c3ab-4628-870a-312f957f478e"},"vehicle_type_id":"4","last_reported":1750155096,"current_range_meters":11600,"station_id":"ce4bhgp2rcd13ifvqfc0","pricing_plan_id":"cebpf4jnsgd1na2vs0mg"},{"bike_id":"11a07009-6a43-4b6c-ab02-6f2252779585","system_id":"levelo_inurba_marseille","lat":43.29676,"lon":5.37288,"is_reserved":false,"is_disabled":false,"rental_uris":{"android":"levelo://app?vid=11a07009-6a43-4b6c-ab02-6f2252779585","ios":"levelo://app?vid=11a07009-6a43-4b6c-ab02-6f2252779585"},"vehicle_type_id":"4","last_reported":1750155096,"current_range_meters":12000,"station_id":"ce4bgk12rcd13ifvqbj0","pricing_plan_id":"cebpf4jnsgd1na2vs0mg"},{"bike_id":"753c4dda-a1c0-449b-8905-a94fd983bcba","system_id":"levelo_inurba_marseille","lat":43.3057,"lon":5.36552,"is_reserved":false,"is_disabled":false,"rental_uris":{"android":"levelo://app?vid=753c4dda-a1c0-449b-8905-a94fd983bcba","ios":"levelo://app?vid=753c4dda-a1c0-449b-8905-a94fd983bcba"},"vehicle_type_id":"4","last_reported":1750155096,"current_range_meters":12000,"station_id":"ce4bgs12rcd13ifvqcag","pricing_plan_id":"cebpf4jnsgd1na2vs0mg"},{"bike_id":"7ff16737-7b66-4a0a-81df-3130fe99c332","system_id":"levelo_inurba_marseille","lat":43.30338,"lon":5.40429,"is_reserved":false,"is_disabled":false,"rental_uris":{"android":"levelo://app?vid=7ff16737-7b66-4a0a-81df-3130fe99c332","ios":"levelo://app?vid=7ff16737-7b66-4a0a-81df-3130fe99c332"},"vehicle_type_id":"4","last_reported":1750155096,"current_range_meters":12000,"station_id":"ce4bh012rcd13ifvqd10","pricing_plan_id":"cebpf4jnsgd1na2vs0mg"},{"bike_id":"98d88eac-d984-4a39-a088-d2025dcca2b5","system_id":"levelo_inurba_marseille","lat":43.2857,"lon":5.39489,"is_reserved":false,"is_disabled":false,"rental_uris":{"android":"levelo://app?vid=98d88eac-d984-4a39-a088-d2025dcca2b5","ios":"levelo://app?vid=98d88eac-d984-4a39-a088-d2025dcca2b5"},"vehicle_type_id":"4","last_reported":1750155096,"current_range_meters":12000,"station_id":"ce4bh292rcd13ifvqdg0","pricing_plan_id":"cebpf4jnsgd1na2vs0mg"},{"bike_id":"f1dcdb06-8b5e-4278-8395-871e7d9d408b","system_id":"levelo_inurba_marseille","lat":43.27365,"lon":5.36259,"is_reserved":false,"is_disabled":false,"rental_uris":{"android":"levelo://app?vid=f1dcdb06-8b5e-4278-8395-871e7d9d408b","ios":"levelo://app?vid=f1dcdb06-8b5e-4278-8395-871e7d9d408b"},"vehicle_type_id":"4","last_reported":1750155096,"current_range_meters":12000,"station_id":"ce4bhbh2rcd13ifvqeo0","pricing_plan_id":"cebpf4jnsgd1na2vs0mg"},{"bike_id":"cf0b7e8f-23ce-4844-b6f6-bc3fe4b9236b","system_id":"levelo_inurba_marseille","lat":43.23153,"lon":5.43707,"is_reserved":false,"is_disabled":false,"rental_uris":{"android":"levelo://app?vid=cf0b7e8f-23ce-4844-b6f6-bc3fe4b9236b","ios":"levelo://app?vid=cf0b7e8f-23ce-4844-b6f6-bc3fe4b9236b"},"vehicle_type_id":"4","last_reported":1750155096,"current_range_meters":12000,"station_id":"ce4bhmp2rcd13ifvqgog","pricing_plan_id":"cebpf4jnsgd1na2vs0mg"},{"bike_id":"222abc74-91c7-44a6-88b6-c71afabef20f","system_id":"levelo_inurba_marseille","lat":43.324915,"lon":5.36566,"is_reserved":false,"is_disabled":false,"rental_uris":{"android":"levelo://app?vid=222abc74-91c7-44a6-88b6-c71afabef20f","ios":"levelo://app?vid=222abc74-91c7-44a6-88b6-c71afabef20f"},"vehicle_type_id":"4","last_reported":1750155096,"current_range_meters":12000,"station_id":"ce4bhs12rcd13ifvqhvg","pricing_plan_id":"cebpf4jnsgd1na2vs0mg"},{"bike_id":"fecb1707-00a5-41d4-8e5a-64177f296127","system_id":"levelo_inurba_marseille","lat":43.25845,"lon":5.4103,"is_reserved":false,"is_disabled":false,"rental_uris":{"android":"levelo://app?vid=fecb1707-00a5-41d4-8e5a-64177f296127","ios":"levelo://app?vid=fecb1707-00a5-41d4-8e5a-64177f296127"},"vehicle_type_id":"4","last_reported":1750155096,"current_range_meters":12400,"station_id":"","pricing_plan_id":"cebpf4jnsgd1na2vs0mg"},{"bike_id":"d15e97b3-501f-458f-810d-aadce744705f","system_id":"levelo_inurba_marseille","lat":43.31254,"lon":5.36835,"is_reserved":false,"is_disabled":false,"rental_uris":{"android":"levelo://app?vid=d15e97b3-501f-458f-810d-aadce744705f","ios":"levelo://app?vid=d15e97b3-501f-458f-810d-aadce744705f"},"vehicle_type_id":"4","last_reported":1750155096,"current_range_meters":12400,"station_id":"ce4bgl92rcd13ifvqbq0","pricing_plan_id":"cebpf4jnsgd1na2vs0mg"},{"bike_id":"e0e3cbb2-0e2a-49f1-91aa-e9800bcabee8","system_id":"levelo_inurba_marseille","lat":43.25501,"lon":5.37649,"is_reserved":false,"is_disabled":false,"rental_uris":{"android":"levelo://app?vid=e0e3cbb2-0e2a-49f1-91aa-e9800bcabee8","ios":"levelo://app?vid=e0e3cbb2-0e2a-49f1-91aa-e9800bcabee8"},"vehicle_type_id":"4","last_reported":1750155096,"current_range_meters":12400,"station_id":"ce4bhh12rcd13ifvqff0","pricing_plan_id":"cebpf4jnsgd1na2vs0mg"},{"bike_id":"e15767f9-99de-440a-9aa0-bf83ccab5aef","system_id":"levelo_inurba_marseille","lat":43.280773,"lon":5.396563,"is_reserved":false,"is_disabled":false,"rental_uris":{"android":"levelo://app?vid=e15767f9-99de-440a-9aa0-bf83ccab5aef","ios":"levelo://app?vid=e15767f9-99de-440a-9aa0-bf83ccab5aef"},"vehicle_type_id":"4","last_reported":1750155096,"current_range_meters":12400,"station_id":"ce4bho12rcd13ifvqh2g","pricing_plan_id":"cebpf4jnsgd1na2vs0mg"},{"bike_id":"1e373418-986e-4d3c-9ff7-c37dd7c7a214","system_id":"levelo_inurba_marseille","lat":43.299,"lon":5.43669,"is_reserved":false,"is_disabled":false,"rental_uris":{"android":"levelo://app?vid=1e373418-986e-4d3c-9ff7-c37dd7c7a214","ios":"levelo://app?vid=1e373418-986e-4d3c-9ff7-c37dd7c7a214"},"vehicle_type_id":"4","last_reported":1750155096,"current_range_meters":12400,"station_id":"ce4bhpp2rcd13ifvqhfg","pricing_plan_id":"cebpf4jnsgd1na2vs0mg"},{"bike_id":"a51813a8-7366-4e85-b788-575b55843d78","system_id":"levelo_inurba_marseille","lat":43.28273,"lon":5.35078,"is_reserved":false,"is_disabled":false,"rental_uris":{"android":"levelo://app?vid=a51813a8-7366-4e85-b788-575b55843d78","ios":"levelo://app?vid=a51813a8-7366-4e85-b788-575b55843d78"},"vehicle_type_id":"4","last_reported":1750155096,"current_range_meters":12800,"station_id":"ce4bhbp2rcd13ifvqerg","pricing_plan_id":"cebpf4jnsgd1na2vs0mg"},{"bike_id":"87a7dee4-f514-4999-9bac-ca2a9680d245","system_id":"levelo_inurba_marseille","lat":43.2679,"lon":5.39411,"is_reserved":false,"is_disabled":false,"rental_uris":{"android":"levelo://app?vid=87a7dee4-f514-4999-9bac-ca2a9680d245","ios":"levelo://app?vid=87a7dee4-f514-4999-9bac-ca2a9680d245"},"vehicle_type_id":"4","last_reported":1750155096,"current_range_meters":12800,"station_id":"ce4bhh12rcd13ifvqfg0","pricing_plan_id":"cebpf4jnsgd1na2vs0mg"},{"bike_id":"953a7c18-4e6d-47aa-8116-d64ebd3dda17","system_id":"levelo_inurba_marseille","lat":43.25123,"lon":5.40315,"is_reserved":false,"is_disabled":false,"rental_uris":{"android":"levelo://app?vid=953a7c18-4e6d-47aa-8116-d64ebd3dda17","ios":"levelo://app?vid=953a7c18-4e6d-47aa-8116-d64ebd3dda17"},"vehicle_type_id":"4","last_reported":1750155096,"current_range_meters":12800,"station_id":"ce4bhlh2rcd13ifvqgig","pricing_plan_id":"cebpf4jnsgd1na2vs0mg"},{"bike_id":"0e27dafc-21df-4fb1-bd36-2450a7866702","system_id":"levelo_inurba_marseille","lat":43.27163,"lon":5.40003,"is_reserved":false,"is_disabled":false,"rental_uris":{"android":"levelo://app?vid=0e27dafc-21df-4fb1-bd36-2450a7866702","ios":"levelo://app?vid=0e27dafc-21df-4fb1-bd36-2450a7866702"},"vehicle_type_id":"4","last_reported":1750155096,"current_range_meters":13600,"station_id":"","pricing_plan_id":"cebpf4jnsgd1na2vs0mg"},{"bike_id":"bea1bb31-6171-4459-a020-3937d5cfbf61","system_id":"levelo_inurba_marseille","lat":43.26196,"lon":5.37447,"is_reserved":false,"is_disabled":false,"rental_uris":{"android":"levelo://app?vid=bea1bb31-6171-4459-a020-3937d5cfbf61","ios":"levelo://app?vid=bea1bb31-6171-4459-a020-3937d5cfbf61"},"vehicle_type_id":"4","last_reported":1750155096,"current_range_meters":14000,"station_id":"ce4bhgp2rcd13ifvqfc0","pricing_plan_id":"cebpf4jnsgd1na2vs0mg"},{"bike_id":"eca25bd6-1b44-4388-a7b0-074a85a4f502","system_id":"levelo_inurba_marseille","lat":43.31094,"lon":5.39725,"is_reserved":false,"is_disabled":false,"rental_uris":{"android":"levelo://app?vid=eca25bd6-1b44-4388-a7b0-074a85a4f502","ios":"levelo://app?vid=eca25bd6-1b44-4388-a7b0-074a85a4f502"},"vehicle_type_id":"4","last_reported":1750155096,"current_range_meters":14400,"station_id":"","pricing_plan_id":"cebpf4jnsgd1na2vs0mg"},{"bike_id":"1da7ab44-329a-41ed-b444-ba6bd8a3d2d9","system_id":"levelo_inurba_marseille","lat":43.28272,"lon":5.35071,"is_reserved":false,"is_disabled":false,"rental_uris":{"android":"levelo://app?vid=1da7ab44-329a-41ed-b444-ba6bd8a3d2d9","ios":"levelo://app?vid=1da7ab44-329a-41ed-b444-ba6bd8a3d2d9"},"vehicle_type_id":"4","last_reported":1750155096,"current_range_meters":14800,"station_id":"ce4bhbp2rcd13ifvqerg","pricing_plan_id":"cebpf4jnsgd1na2vs0mg"},{"bike_id":"381bd0ad-ce73-4a4f-b643-1e1c87957c84","system_id":"levelo_inurba_marseille","lat":43.2408,"lon":5.37764,"is_reserved":false,"is_disabled":false,"rental_uris":{"android":"levelo://app?vid=381bd0ad-ce73-4a4f-b643-1e1c87957c84","ios":"levelo://app?vid=381bd0ad-ce73-4a4f-b643-1e1c87957c84"},"vehicle_type_id":"4","last_reported":1750155096,"current_range_meters":14800,"station_id":"ce4bhnp2rcd13ifvqgvg","pricing_plan_id":"cebpf4jnsgd1na2vs0mg"},{"bike_id":"6d392914-420e-49a0-9a62-e1c19d840639","system_id":"levelo_inurba_marseille","lat":43.30376,"lon":5.42487,"is_reserved":false,"is_disabled":false,"rental_uris":{"android":"levelo://app?vid=6d392914-420e-49a0-9a62-e1c19d840639","ios":"levelo://app?vid=6d392914-420e-49a0-9a62-e1c19d840639"},"vehicle_type_id":"4","last_reported":1750155096,"current_range_meters":14800,"station_id":"ce4bhoh2rcd13ifvqh6g","pricing_plan_id":"cebpf4jnsgd1na2vs0mg"},{"bike_id":"8f3ce912-d888-4d21-b0ae-50b62344cd42","system_id":"levelo_inurba_marseille","lat":43.24166,"lon":5.3639,"is_reserved":false,"is_disabled":false,"rental_uris":{"android":"levelo://app?vid=8f3ce912-d888-4d21-b0ae-50b62344cd42","ios":"levelo://app?vid=8f3ce912-d888-4d21-b0ae-50b62344cd42"},"vehicle_type_id":"4","last_reported":1750155096,"current_range_meters":14800,"station_id":"cpo36qri1sfpv3e86is0","pricing_plan_id":"cebpf4jnsgd1na2vs0mg"},{"bike_id":"83cfee7d-980d-496a-98c8-745c7e44c68d","system_id":"levelo_inurba_marseille","lat":43.32969,"lon":5.39101,"is_reserved":false,"is_disabled":false,"rental_uris":{"android":"levelo://app?vid=83cfee7d-980d-496a-98c8-745c7e44c68d","ios":"levelo://app?vid=83cfee7d-980d-496a-98c8-745c7e44c68d"},"vehicle_type_id":"4","last_reported":1750155096,"current_range_meters":15200,"station_id":"","pricing_plan_id":"cebpf4jnsgd1na2vs0mg"},{"bike_id":"c9e882ea-4f58-437f-9077-7c5d8b1da622","system_id":"levelo_inurba_marseille","lat":43.28943,"lon":5.39621,"is_reserved":false,"is_disabled":false,"rental_uris":{"android":"levelo://app?vid=c9e882ea-4f58-437f-9077-7c5d8b1da622","ios":"levelo://app?vid=c9e882ea-4f58-437f-9077-7c5d8b1da622"},"vehicle_type_id":"4","last_reported":1750155096,"current_range_meters":16000,"station_id":"ce4bh3h2rcd13ifvqdn0","pricing_plan_id":"cebpf4jnsgd1na2vs0mg"},{"bike_id":"2090556a-ebe6-4fcd-b60b-df67d7c8e4f7","system_id":"levelo_inurba_marseille","lat":43.29903,"lon":5.43675,"is_reserved":false,"is_disabled":false,"rental_uris":{"android":"levelo://app?vid=2090556a-ebe6-4fcd-b60b-df67d7c8e4f7","ios":"levelo://app?vid=2090556a-ebe6-4fcd-b60b-df67d7c8e4f7"},"vehicle_type_id":"4","last_reported":1750155096,"current_range_meters":16000,"station_id":"ce4bhpp2rcd13ifvqhfg","pricing_plan_id":"cebpf4jnsgd1na2vs0mg"},{"bike_id":"4b9479ef-e54b-47bb-b3a8-384d3699ed97","system_id":"levelo_inurba_marseille","lat":43.22936,"lon":5.35366,"is_reserved":false,"is_disabled":false,"rental_uris":{"android":"levelo://app?vid=4b9479ef-e54b-47bb-b3a8-384d3699ed97","ios":"levelo://app?vid=4b9479ef-e54b-47bb-b3a8-384d3699ed97"},"vehicle_type_id":"4","last_reported":1750155096,"current_range_meters":16000,"station_id":"cpo3532slgdg3j2ikp40","pricing_plan_id":"cebpf4jnsgd1na2vs0mg"},{"bike_id":"6902f7ed-dd7d-4504-a1b0-93be81c870e7","system_id":"levelo_inurba_marseille","lat":43.30553,"lon":5.367,"is_reserved":false,"is_disabled":false,"rental_uris":{"android":"levelo://app?vid=6902f7ed-dd7d-4504-a1b0-93be81c870e7","ios":"levelo://app?vid=6902f7ed-dd7d-4504-a1b0-93be81c870e7"},"vehicle_type_id":"4","last_reported":1750155096,"current_range_meters":16400,"station_id":"ce4bgrp2rcd13ifvqc9g","pricing_plan_id":"cebpf4jnsgd1na2vs0mg"},{"bike_id":"675ba28e-d230-4f78-89cd-e8c81d8da15f","system_id":"levelo_inurba_marseille","lat":43.21196,"lon":5.35069,"is_reserved":false,"is_disabled":false,"rental_uris":{"android":"levelo://app?vid=675ba28e-d230-4f78-89cd-e8c81d8da15f","ios":"levelo://app?vid=675ba28e-d230-4f78-89cd-e8c81d8da15f"},"vehicle_type_id":"4","last_reported":1750155096,"current_range_meters":16400,"station_id":"st_cvj6sg6p6f1abm77japg","pricing_plan_id":"cebpf4jnsgd1na2vs0mg"},{"bike_id":"de0f7c2b-5974-4035-a240-8ed367c0e3f3","system_id":"levelo_inurba_marseille","lat":43.31986,"lon":5.37621,"is_reserved":false,"is_disabled":false,"rental_uris":{"android":"levelo://app?vid=de0f7c2b-5974-4035-a240-8ed367c0e3f3","ios":"levelo://app?vid=de0f7c2b-5974-4035-a240-8ed367c0e3f3"},"vehicle_type_id":"4","last_reported":1750155096,"current_range_meters":16800,"station_id":"","pricing_plan_id":"cebpf4jnsgd1na2vs0mg"},{"bike_id":"05c69818-3392-46c3-b0f3-ecb06c2ebdb3","system_id":"levelo_inurba_marseille","lat":43.28272,"lon":5.35059,"is_reserved":false,"is_disabled":false,"rental_uris":{"android":"levelo://app?vid=05c69818-3392-46c3-b0f3-ecb06c2ebdb3","ios":"levelo://app?vid=05c69818-3392-46c3-b0f3-ecb06c2ebdb3"},"vehicle_type_id":"4","last_reported":1750155096,"current_range_meters":16800,"station_id":"ce4bhbp2rcd13ifvqerg","pricing_plan_id":"cebpf4jnsgd1na2vs0mg"},{"bike_id":"31ac1c6c-b608-4f86-8941-e01ea9ffa527","system_id":"levelo_inurba_marseille","lat":43.259254,"lon":5.408871,"is_reserved":false,"is_disabled":false,"rental_uris":{"android":"levelo://app?vid=31ac1c6c-b608-4f86-8941-e01ea9ffa527","ios":"levelo://app?vid=31ac1c6c-b608-4f86-8941-e01ea9ffa527"},"vehicle_type_id":"4","last_reported":1750155096,"current_range_meters":16800,"station_id":"ce4bhm92rcd13ifvqglg","pricing_plan_id":"cebpf4jnsgd1na2vs0mg"},{"bike_id":"dab6fb6d-3e6d-412b-a0e1-f672326dbd00","system_id":"levelo_inurba_marseille","lat":43.241832,"lon":5.397354,"is_reserved":false,"is_disabled":false,"rental_uris":{"android":"levelo://app?vid=dab6fb6d-3e6d-412b-a0e1-f672326dbd00","ios":"levelo://app?vid=dab6fb6d-3e6d-412b-a0e1-f672326dbd00"},"vehicle_type_id":"4","last_reported":1750155096,"current_range_meters":16800,"station_id":"ce4bhn12rcd13ifvqgpg","pricing_plan_id":"cebpf4jnsgd1na2vs0mg"},{"bike_id":"8ce88c20-7164-4569-bf49-0f29de965c0b","system_id":"levelo_inurba_marseille","lat":43.28077,"lon":5.39663,"is_reserved":false,"is_disabled":false,"rental_uris":{"android":"levelo://app?vid=8ce88c20-7164-4569-bf49-0f29de965c0b","ios":"levelo://app?vid=8ce88c20-7164-4569-bf49-0f29de965c0b"},"vehicle_type_id":"4","last_reported":1750155096,"current_range_meters":16800,"station_id":"ce4bho12rcd13ifvqh2g","pricing_plan_id":"cebpf4jnsgd1na2vs0mg"},{"bike_id":"68b69c32-2076-4a85-9793-aa4899be2f55","system_id":"levelo_inurba_marseille","lat":43.2119,"lon":5.35074,"is_reserved":false,"is_disabled":false,"rental_uris":{"android":"levelo://app?vid=68b69c32-2076-4a85-9793-aa4899be2f55","ios":"levelo://app?vid=68b69c32-2076-4a85-9793-aa4899be2f55"},"vehicle_type_id":"4","last_reported":1750155096,"current_range_meters":16800,"station_id":"st_cvj6sg6p6f1abm77japg","pricing_plan_id":"cebpf4jnsgd1na2vs0mg"},{"bike_id":"3518210a-6d90-482f-a11b-11cb7c94acd1","system_id":"levelo_inurba_marseille","lat":43.26473,"lon":5.39119,"is_reserved":false,"is_disabled":false,"rental_uris":{"android":"levelo://app?vid=3518210a-6d90-482f-a11b-11cb7c94acd1","ios":"levelo://app?vid=3518210a-6d90-482f-a11b-11cb7c94acd1"},"vehicle_type_id":"4","last_reported":1750155096,"current_range_meters":17200,"station_id":"","pricing_plan_id":"cebpf4jnsgd1na2vs0mg"},{"bike_id":"7bab1357-0955-44b8-b824-f7514e893fad","system_id":"levelo_inurba_marseille","lat":43.29568,"lon":5.37529,"is_reserved":false,"is_disabled":false,"rental_uris":{"android":"levelo://app?vid=7bab1357-0955-44b8-b824-f7514e893fad","ios":"levelo://app?vid=7bab1357-0955-44b8-b824-f7514e893fad"},"vehicle_type_id":"4","last_reported":1750155096,"current_range_meters":17200,"station_id":"ce4bgh92rcd13ifvqb50","pricing_plan_id":"cebpf4jnsgd1na2vs0mg"},{"bike_id":"7fc88b82-acc3-439b-a061-cd3b98db433c","system_id":"levelo_inurba_marseille","lat":43.29533,"lon":5.38547,"is_reserved":false,"is_disabled":false,"rental_uris":{"android":"levelo://app?vid=7fc88b82-acc3-439b-a061-cd3b98db433c","ios":"levelo://app?vid=7fc88b82-acc3-439b-a061-cd3b98db433c"},"vehicle_type_id":"4","last_reported":1750155096,"current_range_meters":17200,"station_id":"ce4bgih2rcd13ifvqba0","pricing_plan_id":"cebpf4jnsgd1na2vs0mg"},{"bike_id":"95e06898-ad82-4ef1-a550-0e86556dfec5","system_id":"levelo_inurba_marseille","lat":43.28978,"lon":5.37819,"is_reserved":false,"is_disabled":false,"rental_uris":{"android":"levelo://app?vid=95e06898-ad82-4ef1-a550-0e86556dfec5","ios":"levelo://app?vid=95e06898-ad82-4ef1-a550-0e86556dfec5"},"vehicle_type_id":"4","last_reported":1750155096,"current_range_meters":17200,"station_id":"ce4bh9p2rcd13ifvqed0","pricing_plan_id":"cebpf4jnsgd1na2vs0mg"},{"bike_id":"1dca189b-e58d-407e-91a0-5d0b482c7bd9","system_id":"levelo_inurba_marseille","lat":43.28269,"lon":5.35076,"is_reserved":false,"is_disabled":false,"rental_uris":{"android":"levelo://app?vid=1dca189b-e58d-407e-91a0-5d0b482c7bd9","ios":"levelo://app?vid=1dca189b-e58d-407e-91a0-5d0b482c7bd9"},"vehicle_type_id":"4","last_reported":1750155096,"current_range_meters":17200,"station_id":"ce4bhbp2rcd13ifvqerg","pricing_plan_id":"cebpf4jnsgd1na2vs0mg"},{"bike_id":"59f7ee1e-cb39-4b14-9a4e-63f9f5b5d4e4","system_id":"levelo_inurba_marseille","lat":43.23152,"lon":5.43703,"is_reserved":false,"is_disabled":false,"rental_uris":{"android":"levelo://app?vid=59f7ee1e-cb39-4b14-9a4e-63f9f5b5d4e4","ios":"levelo://app?vid=59f7ee1e-cb39-4b14-9a4e-63f9f5b5d4e4"},"vehicle_type_id":"4","last_reported":1750155096,"current_range_meters":17200,"station_id":"ce4bhmp2rcd13ifvqgog","pricing_plan_id":"cebpf4jnsgd1na2vs0mg"},{"bike_id":"aa6a48be-cbea-4f78-9bf1-7a0dc30c67c0","system_id":"levelo_inurba_marseille","lat":43.29209,"lon":5.39338,"is_reserved":false,"is_disabled":false,"rental_uris":{"android":"levelo://app?vid=aa6a48be-cbea-4f78-9bf1-7a0dc30c67c0","ios":"levelo://app?vid=aa6a48be-cbea-4f78-9bf1-7a0dc30c67c0"},"vehicle_type_id":"4","last_reported":1750155096,"current_range_meters":17600,"station_id":"","pricing_plan_id":"cebpf4jnsgd1na2vs0mg"},{"bike_id":"2f0f7865-53e4-4955-8eb9-1bb98bf95595","system_id":"levelo_inurba_marseille","lat":43.31763,"lon":5.37575,"is_reserved":false,"is_disabled":false,"rental_uris":{"android":"levelo://app?vid=2f0f7865-53e4-4955-8eb9-1bb98bf95595","ios":"levelo://app?vid=2f0f7865-53e4-4955-8eb9-1bb98bf95595"},"vehicle_type_id":"4","last_reported":1750155096,"current_range_meters":17600,"station_id":"","pricing_plan_id":"cebpf4jnsgd1na2vs0mg"},{"bike_id":"d654637f-58e6-49a9-826b-64dd85d4fe00","system_id":"levelo_inurba_marseille","lat":43.29576,"lon":5.36738,"is_reserved":false,"is_disabled":false,"rental_uris":{"android":"levelo://app?vid=d654637f-58e6-49a9-826b-64dd85d4fe00","ios":"levelo://app?vid=d654637f-58e6-49a9-826b-64dd85d4fe00"},"vehicle_type_id":"4","last_reported":1750155096,"current_range_meters":17600,"station_id":"ce4bgph2rcd13ifvqc2g","pricing_plan_id":"cebpf4jnsgd1na2vs0mg"},{"bike_id":"ebfb692b-f013-40a4-b271-1cca54572bce","system_id":"levelo_inurba_marseille","lat":43.30778,"lon":5.376443,"is_reserved":false,"is_disabled":false,"rental_uris":{"android":"levelo://app?vid=ebfb692b-f013-40a4-b271-1cca54572bce","ios":"levelo://app?vid=ebfb692b-f013-40a4-b271-1cca54572bce"},"vehicle_type_id":"4","last_reported":1750155096,"current_range_meters":17600,"station_id":"ce4bgv92rcd13ifvqcq0","pricing_plan_id":"cebpf4jnsgd1na2vs0mg"},{"bike_id":"4206815c-8287-48a3-be42-63966bd28b9d","system_id":"levelo_inurba_marseille","lat":43.30785,"lon":5.37652,"is_reserved":false,"is_disabled":false,"rental_uris":{"android":"levelo://app?vid=4206815c-8287-48a3-be42-63966bd28b9d","ios":"levelo://app?vid=4206815c-8287-48a3-be42-63966bd28b9d"},"vehicle_type_id":"4","last_reported":1750155096,"current_range_meters":17600,"station_id":"ce4bgv92rcd13ifvqcq0","pricing_plan_id":"cebpf4jnsgd1na2vs0mg"},{"bike_id":"5f71d1d2-ff70-458e-b76c-9335afac6a43","system_id":"levelo_inurba_marseille","lat":43.29894,"lon":5.38894,"is_reserved":false,"is_disabled":false,"rental_uris":{"android":"levelo://app?vid=5f71d1d2-ff70-458e-b76c-9335afac6a43","ios":"levelo://app?vid=5f71d1d2-ff70-458e-b76c-9335afac6a43"},"vehicle_type_id":"4","last_reported":1750155096,"current_range_meters":17600,"station_id":"ce4bh392rcd13ifvqdl0","pricing_plan_id":"cebpf4jnsgd1na2vs0mg"},{"bike_id":"7a529b43-3b11-4663-9a4e-b2e108c78f3d","system_id":"levelo_inurba_marseille","lat":43.28421,"lon":5.34985,"is_reserved":false,"is_disabled":false,"rental_uris":{"android":"levelo://app?vid=7a529b43-3b11-4663-9a4e-b2e108c78f3d","ios":"levelo://app?vid=7a529b43-3b11-4663-9a4e-b2e108c78f3d"},"vehicle_type_id":"4","last_reported":1750155096,"current_range_meters":17600,"station_id":"ce4bhbh2rcd13ifvqepg","pricing_plan_id":"cebpf4jnsgd1na2vs0mg"},{"bike_id":"6c6ce972-4d4c-4210-922d-2711bd8ecabd","system_id":"levelo_inurba_marseille","lat":43.27057,"lon":5.40257,"is_reserved":false,"is_disabled":false,"rental_uris":{"android":"levelo://app?vid=6c6ce972-4d4c-4210-922d-2711bd8ecabd","ios":"levelo://app?vid=6c6ce972-4d4c-4210-922d-2711bd8ecabd"},"vehicle_type_id":"4","last_reported":1750155096,"current_range_meters":17600,"station_id":"ce4bhk92rcd13ifvqgc0","pricing_plan_id":"cebpf4jnsgd1na2vs0mg"},{"bike_id":"51490275-adbe-42c8-8c02-8d0998bae051","system_id":"levelo_inurba_marseille","lat":43.25711,"lon":5.41114,"is_reserved":false,"is_disabled":false,"rental_uris":{"android":"levelo://app?vid=51490275-adbe-42c8-8c02-8d0998bae051","ios":"levelo://app?vid=51490275-adbe-42c8-8c02-8d0998bae051"},"vehicle_type_id":"4","last_reported":1750155096,"current_range_meters":17600,"station_id":"ce4bhkp2rcd13ifvqgd0","pricing_plan_id":"cebpf4jnsgd1na2vs0mg"},{"bike_id":"e935c58c-7fed-483d-a10b-eb9941f6227c","system_id":"levelo_inurba_marseille","lat":43.29901,"lon":5.43669,"is_reserved":false,"is_disabled":false,"rental_uris":{"android":"levelo://app?vid=e935c58c-7fed-483d-a10b-eb9941f6227c","ios":"levelo://app?vid=e935c58c-7fed-483d-a10b-eb9941f6227c"},"vehicle_type_id":"4","last_reported":1750155096,"current_range_meters":17600,"station_id":"ce4bhpp2rcd13ifvqhfg","pricing_plan_id":"cebpf4jnsgd1na2vs0mg"},{"bike_id":"de0bda34-41a6-4231-8ed4-c93e07fc3176","system_id":"levelo_inurba_marseille","lat":43.32632,"lon":5.37519,"is_reserved":false,"is_disabled":false,"rental_uris":{"android":"levelo://app?vid=de0bda34-41a6-4231-8ed4-c93e07fc3176","ios":"levelo://app?vid=de0bda34-41a6-4231-8ed4-c93e07fc3176"},"vehicle_type_id":"4","last_reported":1750155096,"current_range_meters":18000,"station_id":"","pricing_plan_id":"cebpf4jnsgd1na2vs0mg"},{"bike_id":"7effa1d6-6762-4d51-b05b-edbcec45e3c4","system_id":"levelo_inurba_marseille","lat":43.25721,"lon":5.41096,"is_reserved":false,"is_disabled":false,"rental_uris":{"android":"levelo://app?vid=7effa1d6-6762-4d51-b05b-edbcec45e3c4","ios":"levelo://app?vid=7effa1d6-6762-4d51-b05b-edbcec45e3c4"},"vehicle_type_id":"4","last_reported":1750155096,"current_range_meters":18000,"station_id":"ce4bhkp2rcd13ifvqgd0","pricing_plan_id":"cebpf4jnsgd1na2vs0mg"},{"bike_id":"d8cca091-a0fe-4f51-8c26-021946b118f8","system_id":"levelo_inurba_marseille","lat":43.24183,"lon":5.39719,"is_reserved":false,"is_disabled":false,"rental_uris":{"android":"levelo://app?vid=d8cca091-a0fe-4f51-8c26-021946b118f8","ios":"levelo://app?vid=d8cca091-a0fe-4f51-8c26-021946b118f8"},"vehicle_type_id":"4","last_reported":1750155096,"current_range_meters":18000,"station_id":"ce4bhn12rcd13ifvqgpg","pricing_plan_id":"cebpf4jnsgd1na2vs0mg"},{"bike_id":"74f44111-0eea-4bc4-a0fb-7239ee2797e6","system_id":"levelo_inurba_marseille","lat":43.23196,"lon":5.3555,"is_reserved":false,"is_disabled":false,"rental_uris":{"android":"levelo://app?vid=74f44111-0eea-4bc4-a0fb-7239ee2797e6","ios":"levelo://app?vid=74f44111-0eea-4bc4-a0fb-7239ee2797e6"},"vehicle_type_id":"4","last_reported":1750155096,"current_range_meters":18000,"station_id":"ce4bhu92rcd13ifvqi70","pricing_plan_id":"cebpf4jnsgd1na2vs0mg"},{"bike_id":"4cda9327-46c6-426e-87dd-c291d5dc5ff7","system_id":"levelo_inurba_marseille","lat":43.212,"lon":5.35077,"is_reserved":false,"is_disabled":false,"rental_uris":{"android":"levelo://app?vid=4cda9327-46c6-426e-87dd-c291d5dc5ff7","ios":"levelo://app?vid=4cda9327-46c6-426e-87dd-c291d5dc5ff7"},"vehicle_type_id":"4","last_reported":1750155096,"current_range_meters":18000,"station_id":"st_cvj6sg6p6f1abm77japg","pricing_plan_id":"cebpf4jnsgd1na2vs0mg"},{"bike_id":"2bcdbebc-789a-4460-923a-20ef9246776d","system_id":"levelo_inurba_marseille","lat":43.21187,"lon":5.35077,"is_reserved":false,"is_disabled":false,"rental_uris":{"android":"levelo://app?vid=2bcdbebc-789a-4460-923a-20ef9246776d","ios":"levelo://app?vid=2bcdbebc-789a-4460-923a-20ef9246776d"},"vehicle_type_id":"4","last_reported":1750155096,"current_range_meters":18000,"station_id":"st_cvj6sg6p6f1abm77japg","pricing_plan_id":"cebpf4jnsgd1na2vs0mg"},{"bike_id":"4b8da722-ee9e-48a4-a5e5-3a8a10364708","system_id":"levelo_inurba_marseille","lat":43.31236,"lon":5.37814,"is_reserved":false,"is_disabled":false,"rental_uris":{"android":"levelo://app?vid=4b8da722-ee9e-48a4-a5e5-3a8a10364708","ios":"levelo://app?vid=4b8da722-ee9e-48a4-a5e5-3a8a10364708"},"vehicle_type_id":"4","last_reported":1750155096,"current_range_meters":18800,"station_id":"","pricing_plan_id":"cebpf4jnsgd1na2vs0mg"},{"bike_id":"4ce5b165-f22d-40cf-abd3-1cb294861955","system_id":"levelo_inurba_marseille","lat":43.21211,"lon":5.35072,"is_reserved":false,"is_disabled":false,"rental_uris":{"android":"levelo://app?vid=4ce5b165-f22d-40cf-abd3-1cb294861955","ios":"levelo://app?vid=4ce5b165-f22d-40cf-abd3-1cb294861955"},"vehicle_type_id":"4","last_reported":1750155096,"current_range_meters":18800,"station_id":"","pricing_plan_id":"cebpf4jnsgd1na2vs0mg"},{"bike_id":"092b451a-ca1a-4ef4-ae94-87645936d24d","system_id":"levelo_inurba_marseille","lat":43.21754,"lon":5.34598,"is_reserved":false,"is_disabled":false,"rental_uris":{"android":"levelo://app?vid=092b451a-ca1a-4ef4-ae94-87645936d24d","ios":"levelo://app?vid=092b451a-ca1a-4ef4-ae94-87645936d24d"},"vehicle_type_id":"4","last_reported":1750155096,"current_range_meters":18800,"station_id":"","pricing_plan_id":"cebpf4jnsgd1na2vs0mg"},{"bike_id":"9353f201-9ea2-4308-9fd8-7a27f94fc263","system_id":"levelo_inurba_marseille","lat":43.26551,"lon":5.37309,"is_reserved":false,"is_disabled":false,"rental_uris":{"android":"levelo://app?vid=9353f201-9ea2-4308-9fd8-7a27f94fc263","ios":"levelo://app?vid=9353f201-9ea2-4308-9fd8-7a27f94fc263"},"vehicle_type_id":"4","last_reported":1750155096,"current_range_meters":18800,"station_id":"ce4bhg12rcd13ifvqf70","pricing_plan_id":"cebpf4jnsgd1na2vs0mg"},{"bike_id":"a6b32ddc-9b6c-44ef-b1b5-321fb556560d","system_id":"levelo_inurba_marseille","lat":43.286994,"lon":5.39985,"is_reserved":false,"is_disabled":false,"rental_uris":{"android":"levelo://app?vid=a6b32ddc-9b6c-44ef-b1b5-321fb556560d","ios":"levelo://app?vid=a6b32ddc-9b6c-44ef-b1b5-321fb556560d"},"vehicle_type_id":"4","last_reported":1750155096,"current_range_meters":18800,"station_id":"ce4bho92rcd13ifvqh3g","pricing_plan_id":"cebpf4jnsgd1na2vs0mg"},{"bike_id":"5cbdd979-131e-4b0a-a5c9-96ef156802c9","system_id":"levelo_inurba_marseille","lat":43.28421,"lon":5.39217,"is_reserved":false,"is_disabled":false,"rental_uris":{"android":"levelo://app?vid=5cbdd979-131e-4b0a-a5c9-96ef156802c9","ios":"levelo://app?vid=5cbdd979-131e-4b0a-a5c9-96ef156802c9"},"vehicle_type_id":"4","last_reported":1750155096,"current_range_meters":18800,"station_id":"ce4bhoh2rcd13ifvqh5g","pricing_plan_id":"cebpf4jnsgd1na2vs0mg"},{"bike_id":"efafb8e3-3e4a-47ef-a848-4402305c8597","system_id":"levelo_inurba_marseille","lat":43.30603,"lon":5.43542,"is_reserved":false,"is_disabled":false,"rental_uris":{"android":"levelo://app?vid=efafb8e3-3e4a-47ef-a848-4402305c8597","ios":"levelo://app?vid=efafb8e3-3e4a-47ef-a848-4402305c8597"},"vehicle_type_id":"4","last_reported":1750155096,"current_range_meters":18800,"station_id":"ce4bhph2rcd13ifvqheg","pricing_plan_id":"cebpf4jnsgd1na2vs0mg"},{"bike_id":"cc8086c3-023b-4662-b7ba-91199240f1a1","system_id":"levelo_inurba_marseille","lat":43.23052,"lon":5.35489,"is_reserved":false,"is_disabled":false,"rental_uris":{"android":"levelo://app?vid=cc8086c3-023b-4662-b7ba-91199240f1a1","ios":"levelo://app?vid=cc8086c3-023b-4662-b7ba-91199240f1a1"},"vehicle_type_id":"4","last_reported":1750155096,"current_range_meters":18800,"station_id":"cpo3342slgdg3j2ifvpg","pricing_plan_id":"cebpf4jnsgd1na2vs0mg"},{"bike_id":"778bfcea-25e5-406c-8cbe-c80ec7c3b00f","system_id":"levelo_inurba_marseille","lat":43.33769,"lon":5.35589,"is_reserved":false,"is_disabled":false,"rental_uris":{"android":"levelo://app?vid=778bfcea-25e5-406c-8cbe-c80ec7c3b00f","ios":"levelo://app?vid=778bfcea-25e5-406c-8cbe-c80ec7c3b00f"},"vehicle_type_id":"4","last_reported":1750155096,"current_range_meters":19200,"station_id":"","pricing_plan_id":"cebpf4jnsgd1na2vs0mg"},{"bike_id":"c85eedfa-48b9-4839-a461-3c8c329eabc6","system_id":"levelo_inurba_marseille","lat":43.3052,"lon":5.36517,"is_reserved":false,"is_disabled":false,"rental_uris":{"android":"levelo://app?vid=c85eedfa-48b9-4839-a461-3c8c329eabc6","ios":"levelo://app?vid=c85eedfa-48b9-4839-a461-3c8c329eabc6"},"vehicle_type_id":"4","last_reported":1750155096,"current_range_meters":19200,"station_id":"","pricing_plan_id":"cebpf4jnsgd1na2vs0mg"},{"bike_id":"8c3d33c2-117b-44ab-81f9-61fd393f4aa8","system_id":"levelo_inurba_marseille","lat":43.30528,"lon":5.36718,"is_reserved":false,"is_disabled":false,"rental_uris":{"android":"levelo://app?vid=8c3d33c2-117b-44ab-81f9-61fd393f4aa8","ios":"levelo://app?vid=8c3d33c2-117b-44ab-81f9-61fd393f4aa8"},"vehicle_type_id":"4","last_reported":1750155096,"current_range_meters":19200,"station_id":"ce4bgrp2rcd13ifvqc9g","pricing_plan_id":"cebpf4jnsgd1na2vs0mg"},{"bike_id":"15c8ae02-8e99-4704-aa0b-0b411ebbfdc4","system_id":"levelo_inurba_marseille","lat":43.30544,"lon":5.36547,"is_reserved":false,"is_disabled":false,"rental_uris":{"android":"levelo://app?vid=15c8ae02-8e99-4704-aa0b-0b411ebbfdc4","ios":"levelo://app?vid=15c8ae02-8e99-4704-aa0b-0b411ebbfdc4"},"vehicle_type_id":"4","last_reported":1750155096,"current_range_meters":19200,"station_id":"ce4bgs12rcd13ifvqcag","pricing_plan_id":"cebpf4jnsgd1na2vs0mg"},{"bike_id":"3a3c0798-67af-41c2-8611-325c0b3cd12d","system_id":"levelo_inurba_marseille","lat":43.31715,"lon":5.40441,"is_reserved":false,"is_disabled":false,"rental_uris":{"android":"levelo://app?vid=3a3c0798-67af-41c2-8611-325c0b3cd12d","ios":"levelo://app?vid=3a3c0798-67af-41c2-8611-325c0b3cd12d"},"vehicle_type_id":"4","last_reported":1750155096,"current_range_meters":19200,"station_id":"ce4bh012rcd13ifvqd00","pricing_plan_id":"cebpf4jnsgd1na2vs0mg"},{"bike_id":"afeb1fc8-0f97-4165-a679-c6d1d394f03c","system_id":"levelo_inurba_marseille","lat":43.2622,"lon":5.37438,"is_reserved":false,"is_disabled":false,"rental_uris":{"android":"levelo://app?vid=afeb1fc8-0f97-4165-a679-c6d1d394f03c","ios":"levelo://app?vid=afeb1fc8-0f97-4165-a679-c6d1d394f03c"},"vehicle_type_id":"4","last_reported":1750155096,"current_range_meters":19200,"station_id":"ce4bhgp2rcd13ifvqfc0","pricing_plan_id":"cebpf4jnsgd1na2vs0mg"},{"bike_id":"2a977167-669d-4e13-bcb2-d7bdb4c33fc6","system_id":"levelo_inurba_marseille","lat":43.24387,"lon":5.37064,"is_reserved":false,"is_disabled":false,"rental_uris":{"android":"levelo://app?vid=2a977167-669d-4e13-bcb2-d7bdb4c33fc6","ios":"levelo://app?vid=2a977167-669d-4e13-bcb2-d7bdb4c33fc6"},"vehicle_type_id":"4","last_reported":1750155096,"current_range_meters":19200,"station_id":"ce4bhhh2rcd13ifvqfk0","pricing_plan_id":"cebpf4jnsgd1na2vs0mg"},{"bike_id":"9a4ffe69-44b2-4cdb-969f-39f9cc7ad753","system_id":"levelo_inurba_marseille","lat":43.27843,"lon":5.39204,"is_reserved":false,"is_disabled":false,"rental_uris":{"android":"levelo://app?vid=9a4ffe69-44b2-4cdb-969f-39f9cc7ad753","ios":"levelo://app?vid=9a4ffe69-44b2-4cdb-969f-39f9cc7ad753"},"vehicle_type_id":"4","last_reported":1750155096,"current_range_meters":19200,"station_id":"ce4bhjp2rcd13ifvqga0","pricing_plan_id":"cebpf4jnsgd1na2vs0mg"},{"bike_id":"a0512069-d971-4176-8087-d4274674d29e","system_id":"levelo_inurba_marseille","lat":43.275002,"lon":5.424526,"is_reserved":false,"is_disabled":false,"rental_uris":{"android":"levelo://app?vid=a0512069-d971-4176-8087-d4274674d29e","ios":"levelo://app?vid=a0512069-d971-4176-8087-d4274674d29e"},"vehicle_type_id":"4","last_reported":1750155096,"current_range_meters":19200,"station_id":"ce4bhn92rcd13ifvqgrg","pricing_plan_id":"cebpf4jnsgd1na2vs0mg"},{"bike_id":"653a05d9-205d-420f-b0c9-a638667f0917","system_id":"levelo_inurba_marseille","lat":43.21197,"lon":5.35068,"is_reserved":false,"is_disabled":false,"rental_uris":{"android":"levelo://app?vid=653a05d9-205d-420f-b0c9-a638667f0917","ios":"levelo://app?vid=653a05d9-205d-420f-b0c9-a638667f0917"},"vehicle_type_id":"4","last_reported":1750155096,"current_range_meters":19200,"station_id":"st_cvj6sg6p6f1abm77japg","pricing_plan_id":"cebpf4jnsgd1na2vs0mg"},{"bike_id":"268aafb4-1331-426c-97bc-a7d6564caeb6","system_id":"levelo_inurba_marseille","lat":43.32916,"lon":5.37921,"is_reserved":false,"is_disabled":false,"rental_uris":{"android":"levelo://app?vid=268aafb4-1331-426c-97bc-a7d6564caeb6","ios":"levelo://app?vid=268aafb4-1331-426c-97bc-a7d6564caeb6"},"vehicle_type_id":"4","last_reported":1750155096,"current_range_meters":19600,"station_id":"","pricing_plan_id":"cebpf4jnsgd1na2vs0mg"},{"bike_id":"b0a06a9c-7c88-46b3-a82b-7251e5478d79","system_id":"levelo_inurba_marseille","lat":43.30132,"lon":5.39865,"is_reserved":false,"is_disabled":false,"rental_uris":{"android":"levelo://app?vid=b0a06a9c-7c88-46b3-a82b-7251e5478d79","ios":"levelo://app?vid=b0a06a9c-7c88-46b3-a82b-7251e5478d79"},"vehicle_type_id":"4","last_reported":1750155096,"current_range_meters":19600,"station_id":"ce4bh0h2rcd13ifvqd40","pricing_plan_id":"cebpf4jnsgd1na2vs0mg"},{"bike_id":"123080ac-31e3-4524-b281-2ab7e9394dbb","system_id":"levelo_inurba_marseille","lat":43.28409,"lon":5.37516,"is_reserved":false,"is_disabled":false,"rental_uris":{"android":"levelo://app?vid=123080ac-31e3-4524-b281-2ab7e9394dbb","ios":"levelo://app?vid=123080ac-31e3-4524-b281-2ab7e9394dbb"},"vehicle_type_id":"4","last_reported":1750155096,"current_range_meters":19600,"station_id":"ce4bh412rcd13ifvqds0","pricing_plan_id":"cebpf4jnsgd1na2vs0mg"},{"bike_id":"d758b1de-b553-4d6d-b4e7-21d65690d39e","system_id":"levelo_inurba_marseille","lat":43.26215,"lon":5.37439,"is_reserved":false,"is_disabled":false,"rental_uris":{"android":"levelo://app?vid=d758b1de-b553-4d6d-b4e7-21d65690d39e","ios":"levelo://app?vid=d758b1de-b553-4d6d-b4e7-21d65690d39e"},"vehicle_type_id":"4","last_reported":1750155096,"current_range_meters":19600,"station_id":"ce4bhgp2rcd13ifvqfc0","pricing_plan_id":"cebpf4jnsgd1na2vs0mg"},{"bike_id":"ae1a1e4b-b44a-4b7f-bf60-016a7fa91655","system_id":"levelo_inurba_marseille","lat":43.25719,"lon":5.41111,"is_reserved":false,"is_disabled":false,"rental_uris":{"android":"levelo://app?vid=ae1a1e4b-b44a-4b7f-bf60-016a7fa91655","ios":"levelo://app?vid=ae1a1e4b-b44a-4b7f-bf60-016a7fa91655"},"vehicle_type_id":"4","last_reported":1750155096,"current_range_meters":19600,"station_id":"ce4bhkp2rcd13ifvqgd0","pricing_plan_id":"cebpf4jnsgd1na2vs0mg"},{"bike_id":"b5df771f-0292-4acc-afde-88c7e4fb1865","system_id":"levelo_inurba_marseille","lat":43.24178,"lon":5.39732,"is_reserved":false,"is_disabled":false,"rental_uris":{"android":"levelo://app?vid=b5df771f-0292-4acc-afde-88c7e4fb1865","ios":"levelo://app?vid=b5df771f-0292-4acc-afde-88c7e4fb1865"},"vehicle_type_id":"4","last_reported":1750155096,"current_range_meters":19600,"station_id":"ce4bhn12rcd13ifvqgpg","pricing_plan_id":"cebpf4jnsgd1na2vs0mg"},{"bike_id":"c63d8dbd-145d-403d-b011-a42987b43063","system_id":"levelo_inurba_marseille","lat":43.31229,"lon":5.36851,"is_reserved":false,"is_disabled":false,"rental_uris":{"android":"levelo://app?vid=c63d8dbd-145d-403d-b011-a42987b43063","ios":"levelo://app?vid=c63d8dbd-145d-403d-b011-a42987b43063"},"vehicle_type_id":"4","last_reported":1750155096,"current_range_meters":20000,"station_id":"ce4bgl92rcd13ifvqbq0","pricing_plan_id":"cebpf4jnsgd1na2vs0mg"},{"bike_id":"5308d525-fc73-4217-abf3-3aeba15d88ce","system_id":"levelo_inurba_marseille","lat":43.29582,"lon":5.3674,"is_reserved":false,"is_disabled":false,"rental_uris":{"android":"levelo://app?vid=5308d525-fc73-4217-abf3-3aeba15d88ce","ios":"levelo://app?vid=5308d525-fc73-4217-abf3-3aeba15d88ce"},"vehicle_type_id":"4","last_reported":1750155096,"current_range_meters":20000,"station_id":"ce4bgph2rcd13ifvqc2g","pricing_plan_id":"cebpf4jnsgd1na2vs0mg"},{"bike_id":"26464f4b-1e3b-4f18-b2a2-99ce7626ffd3","system_id":"levelo_inurba_marseille","lat":43.29593,"lon":5.36731,"is_reserved":false,"is_disabled":false,"rental_uris":{"android":"levelo://app?vid=26464f4b-1e3b-4f18-b2a2-99ce7626ffd3","ios":"levelo://app?vid=26464f4b-1e3b-4f18-b2a2-99ce7626ffd3"},"vehicle_type_id":"4","last_reported":1750155096,"current_range_meters":20000,"station_id":"ce4bgph2rcd13ifvqc2g","pricing_plan_id":"cebpf4jnsgd1na2vs0mg"},{"bike_id":"84f5f8ac-02e4-4db7-ab1c-0f7a02f3b56d","system_id":"levelo_inurba_marseille","lat":43.28926,"lon":5.3838,"is_reserved":false,"is_disabled":false,"rental_uris":{"android":"levelo://app?vid=84f5f8ac-02e4-4db7-ab1c-0f7a02f3b56d","ios":"levelo://app?vid=84f5f8ac-02e4-4db7-ab1c-0f7a02f3b56d"},"vehicle_type_id":"4","last_reported":1750155096,"current_range_meters":20000,"station_id":"ce4bh612rcd13ifvqe6g","pricing_plan_id":"cebpf4jnsgd1na2vs0mg"},{"bike_id":"5a12ca7e-f405-49b0-8b5e-d38683ca3f26","system_id":"levelo_inurba_marseille","lat":43.27372,"lon":5.36262,"is_reserved":false,"is_disabled":false,"rental_uris":{"android":"levelo://app?vid=5a12ca7e-f405-49b0-8b5e-d38683ca3f26","ios":"levelo://app?vid=5a12ca7e-f405-49b0-8b5e-d38683ca3f26"},"vehicle_type_id":"4","last_reported":1750155096,"current_range_meters":20000,"station_id":"ce4bhbh2rcd13ifvqeo0","pricing_plan_id":"cebpf4jnsgd1na2vs0mg"},{"bike_id":"986e67b0-cf98-42e7-83d8-2a3fe330f1bd","system_id":"levelo_inurba_marseille","lat":43.26211,"lon":5.37442,"is_reserved":false,"is_disabled":false,"rental_uris":{"android":"levelo://app?vid=986e67b0-cf98-42e7-83d8-2a3fe330f1bd","ios":"levelo://app?vid=986e67b0-cf98-42e7-83d8-2a3fe330f1bd"},"vehicle_type_id":"4","last_reported":1750155096,"current_range_meters":20000,"station_id":"ce4bhgp2rcd13ifvqfc0","pricing_plan_id":"cebpf4jnsgd1na2vs0mg"},{"bike_id":"b4397d39-1e5d-4ee3-80cb-c3a2cfae002b","system_id":"levelo_inurba_marseille","lat":43.28699,"lon":5.39981,"is_reserved":false,"is_disabled":false,"rental_uris":{"android":"levelo://app?vid=b4397d39-1e5d-4ee3-80cb-c3a2cfae002b","ios":"levelo://app?vid=b4397d39-1e5d-4ee3-80cb-c3a2cfae002b"},"vehicle_type_id":"4","last_reported":1750155096,"current_range_meters":20000,"station_id":"ce4bho92rcd13ifvqh3g","pricing_plan_id":"cebpf4jnsgd1na2vs0mg"},{"bike_id":"3eaf5d76-7bdb-454a-8e3f-54f986b432e6","system_id":"levelo_inurba_marseille","lat":43.31372,"lon":5.3673,"is_reserved":false,"is_disabled":false,"rental_uris":{"android":"levelo://app?vid=3eaf5d76-7bdb-454a-8e3f-54f986b432e6","ios":"levelo://app?vid=3eaf5d76-7bdb-454a-8e3f-54f986b432e6"},"vehicle_type_id":"4","last_reported":1750155096,"current_range_meters":20400,"station_id":"ce4bgr92rcd13ifvqc6g","pricing_plan_id":"cebpf4jnsgd1na2vs0mg"},{"bike_id":"bea5595f-dc4e-4787-a000-3ba86a97e39d","system_id":"levelo_inurba_marseille","lat":43.31346,"lon":5.36706,"is_reserved":false,"is_disabled":false,"rental_uris":{"android":"levelo://app?vid=bea5595f-dc4e-4787-a000-3ba86a97e39d","ios":"levelo://app?vid=bea5595f-dc4e-4787-a000-3ba86a97e39d"},"vehicle_type_id":"4","last_reported":1750155096,"current_range_meters":20400,"station_id":"ce4bgr92rcd13ifvqc6g","pricing_plan_id":"cebpf4jnsgd1na2vs0mg"},{"bike_id":"22cf017d-1434-4f23-b2bd-e75d03dad59f","system_id":"levelo_inurba_marseille","lat":43.30526,"lon":5.36519,"is_reserved":false,"is_disabled":false,"rental_uris":{"android":"levelo://app?vid=22cf017d-1434-4f23-b2bd-e75d03dad59f","ios":"levelo://app?vid=22cf017d-1434-4f23-b2bd-e75d03dad59f"},"vehicle_type_id":"4","last_reported":1750155096,"current_range_meters":20400,"station_id":"ce4bgs12rcd13ifvqcag","pricing_plan_id":"cebpf4jnsgd1na2vs0mg"},{"bike_id":"7db03259-d87a-4831-8898-dec180cd87f8","system_id":"levelo_inurba_marseille","lat":43.30949,"lon":5.39028,"is_reserved":false,"is_disabled":false,"rental_uris":{"android":"levelo://app?vid=7db03259-d87a-4831-8898-dec180cd87f8","ios":"levelo://app?vid=7db03259-d87a-4831-8898-dec180cd87f8"},"vehicle_type_id":"4","last_reported":1750155096,"current_range_meters":20400,"station_id":"ce4bgup2rcd13ifvqco0","pricing_plan_id":"cebpf4jnsgd1na2vs0mg"},{"bike_id":"1c724053-b460-4aee-a0dc-bd4b9a89ec38","system_id":"levelo_inurba_marseille","lat":43.23158,"lon":5.43711,"is_reserved":false,"is_disabled":false,"rental_uris":{"android":"levelo://app?vid=1c724053-b460-4aee-a0dc-bd4b9a89ec38","ios":"levelo://app?vid=1c724053-b460-4aee-a0dc-bd4b9a89ec38"},"vehicle_type_id":"4","last_reported":1750155096,"current_range_meters":20400,"station_id":"ce4bhmp2rcd13ifvqgog","pricing_plan_id":"cebpf4jnsgd1na2vs0mg"},{"bike_id":"2c53562f-8efd-4563-bdc9-9cab4208c158","system_id":"levelo_inurba_marseille","lat":43.28729,"lon":5.36082,"is_reserved":false,"is_disabled":false,"rental_uris":{"android":"levelo://app?vid=2c53562f-8efd-4563-bdc9-9cab4208c158","ios":"levelo://app?vid=2c53562f-8efd-4563-bdc9-9cab4208c158"},"vehicle_type_id":"4","last_reported":1750155096,"current_range_meters":20400,"station_id":"cki0cbj6b192h4jlfktg","pricing_plan_id":"cebpf4jnsgd1na2vs0mg"},{"bike_id":"398f5948-0649-42c2-90db-47a5c5c98c6d","system_id":"levelo_inurba_marseille","lat":43.27345,"lon":5.39107,"is_reserved":false,"is_disabled":false,"rental_uris":{"android":"levelo://app?vid=398f5948-0649-42c2-90db-47a5c5c98c6d","ios":"levelo://app?vid=398f5948-0649-42c2-90db-47a5c5c98c6d"},"vehicle_type_id":"4","last_reported":1750155096,"current_range_meters":20800,"station_id":"ce4bhgp2rcd13ifvqfe0","pricing_plan_id":"cebpf4jnsgd1na2vs0mg"},{"bike_id":"7ab828d7-bff8-42f2-a98a-78f3ebd2297f","system_id":"levelo_inurba_marseille","lat":43.255067,"lon":5.376317,"is_reserved":false,"is_disabled":false,"rental_uris":{"android":"levelo://app?vid=7ab828d7-bff8-42f2-a98a-78f3ebd2297f","ios":"levelo://app?vid=7ab828d7-bff8-42f2-a98a-78f3ebd2297f"},"vehicle_type_id":"4","last_reported":1750155096,"current_range_meters":20800,"station_id":"ce4bhh12rcd13ifvqff0","pricing_plan_id":"cebpf4jnsgd1na2vs0mg"},{"bike_id":"1b1a7839-8b75-4179-9520-ae71aec1ee79","system_id":"levelo_inurba_marseille","lat":43.268042,"lon":5.402702,"is_reserved":false,"is_disabled":false,"rental_uris":{"android":"levelo://app?vid=1b1a7839-8b75-4179-9520-ae71aec1ee79","ios":"levelo://app?vid=1b1a7839-8b75-4179-9520-ae71aec1ee79"},"vehicle_type_id":"4","last_reported":1750155096,"current_range_meters":20800,"station_id":"ce4bhl92rcd13ifvqghg","pricing_plan_id":"cebpf4jnsgd1na2vs0mg"},{"bike_id":"456e3e01-d483-4af3-ad8c-fac20db5c110","system_id":"levelo_inurba_marseille","lat":43.24185,"lon":5.39728,"is_reserved":false,"is_disabled":false,"rental_uris":{"android":"levelo://app?vid=456e3e01-d483-4af3-ad8c-fac20db5c110","ios":"levelo://app?vid=456e3e01-d483-4af3-ad8c-fac20db5c110"},"vehicle_type_id":"4","last_reported":1750155096,"current_range_meters":20800,"station_id":"ce4bhn12rcd13ifvqgpg","pricing_plan_id":"cebpf4jnsgd1na2vs0mg"},{"bike_id":"1ec1fdeb-870d-4a40-bfab-4cf6dc0f9eb7","system_id":"levelo_inurba_marseille","lat":43.31478,"lon":5.37275,"is_reserved":false,"is_disabled":false,"rental_uris":{"android":"levelo://app?vid=1ec1fdeb-870d-4a40-bfab-4cf6dc0f9eb7","ios":"levelo://app?vid=1ec1fdeb-870d-4a40-bfab-4cf6dc0f9eb7"},"vehicle_type_id":"4","last_reported":1750155096,"current_range_meters":21600,"station_id":"ce4bgt12rcd13ifvqcd0","pricing_plan_id":"cebpf4jnsgd1na2vs0mg"},{"bike_id":"80927306-d20e-4708-bfac-4bceb1a09ad3","system_id":"levelo_inurba_marseille","lat":43.28266,"lon":5.35071,"is_reserved":false,"is_disabled":false,"rental_uris":{"android":"levelo://app?vid=80927306-d20e-4708-bfac-4bceb1a09ad3","ios":"levelo://app?vid=80927306-d20e-4708-bfac-4bceb1a09ad3"},"vehicle_type_id":"4","last_reported":1750155096,"current_range_meters":21600,"station_id":"ce4bhbp2rcd13ifvqerg","pricing_plan_id":"cebpf4jnsgd1na2vs0mg"},{"bike_id":"bb4c407b-c251-4f15-aa9d-2245b6bdc4d0","system_id":"levelo_inurba_marseille","lat":43.24805,"lon":5.37454,"is_reserved":false,"is_disabled":false,"rental_uris":{"android":"levelo://app?vid=bb4c407b-c251-4f15-aa9d-2245b6bdc4d0","ios":"levelo://app?vid=bb4c407b-c251-4f15-aa9d-2245b6bdc4d0"},"vehicle_type_id":"4","last_reported":1750155096,"current_range_meters":21600,"station_id":"ce4bhgh2rcd13ifvqfb0","pricing_plan_id":"cebpf4jnsgd1na2vs0mg"},{"bike_id":"f1fd66bd-cfc2-46bc-a7de-0fb26acfec32","system_id":"levelo_inurba_marseille","lat":43.25722,"lon":5.41111,"is_reserved":false,"is_disabled":false,"rental_uris":{"android":"levelo://app?vid=f1fd66bd-cfc2-46bc-a7de-0fb26acfec32","ios":"levelo://app?vid=f1fd66bd-cfc2-46bc-a7de-0fb26acfec32"},"vehicle_type_id":"4","last_reported":1750155096,"current_range_meters":21600,"station_id":"ce4bhkp2rcd13ifvqgd0","pricing_plan_id":"cebpf4jnsgd1na2vs0mg"},{"bike_id":"57d49a74-ab18-4d5e-8063-2a7a9abfb7d1","system_id":"levelo_inurba_marseille","lat":43.31758,"lon":5.39013,"is_reserved":false,"is_disabled":false,"rental_uris":{"android":"levelo://app?vid=57d49a74-ab18-4d5e-8063-2a7a9abfb7d1","ios":"levelo://app?vid=57d49a74-ab18-4d5e-8063-2a7a9abfb7d1"},"vehicle_type_id":"4","last_reported":1750155096,"current_range_meters":21600,"station_id":"ce4bhqp2rcd13ifvqhng","pricing_plan_id":"cebpf4jnsgd1na2vs0mg"},{"bike_id":"61185e51-def2-4557-89b9-f06c340ff2e2","system_id":"levelo_inurba_marseille","lat":43.21202,"lon":5.35067,"is_reserved":false,"is_disabled":false,"rental_uris":{"android":"levelo://app?vid=61185e51-def2-4557-89b9-f06c340ff2e2","ios":"levelo://app?vid=61185e51-def2-4557-89b9-f06c340ff2e2"},"vehicle_type_id":"4","last_reported":1750155096,"current_range_meters":21600,"station_id":"st_cvj6sg6p6f1abm77japg","pricing_plan_id":"cebpf4jnsgd1na2vs0mg"},{"bike_id":"290dbe9c-fa48-488b-a614-b51d31af51d8","system_id":"levelo_inurba_marseille","lat":43.2872,"lon":5.3793,"is_reserved":false,"is_disabled":false,"rental_uris":{"android":"levelo://app?vid=290dbe9c-fa48-488b-a614-b51d31af51d8","ios":"levelo://app?vid=290dbe9c-fa48-488b-a614-b51d31af51d8"},"vehicle_type_id":"4","last_reported":1750155096,"current_range_meters":22000,"station_id":"ce4bh9p2rcd13ifvqec0","pricing_plan_id":"cebpf4jnsgd1na2vs0mg"},{"bike_id":"9cda15b5-48cc-4af8-be3e-d73fdc99b6f9","system_id":"levelo_inurba_marseille","lat":43.27424,"lon":5.39412,"is_reserved":false,"is_disabled":false,"rental_uris":{"android":"levelo://app?vid=9cda15b5-48cc-4af8-be3e-d73fdc99b6f9","ios":"levelo://app?vid=9cda15b5-48cc-4af8-be3e-d73fdc99b6f9"},"vehicle_type_id":"4","last_reported":1750155096,"current_range_meters":22000,"station_id":"ce4bhdp2rcd13ifvqf20","pricing_plan_id":"cebpf4jnsgd1na2vs0mg"},{"bike_id":"77aa3bbd-58a3-445b-977f-3ea02edd6669","system_id":"levelo_inurba_marseille","lat":43.27322,"lon":5.39073,"is_reserved":false,"is_disabled":false,"rental_uris":{"android":"levelo://app?vid=77aa3bbd-58a3-445b-977f-3ea02edd6669","ios":"levelo://app?vid=77aa3bbd-58a3-445b-977f-3ea02edd6669"},"vehicle_type_id":"4","last_reported":1750155096,"current_range_meters":22000,"station_id":"ce4bhgp2rcd13ifvqfe0","pricing_plan_id":"cebpf4jnsgd1na2vs0mg"},{"bike_id":"2d011489-3a50-4137-8707-13a2dba13148","system_id":"levelo_inurba_marseille","lat":43.25902,"lon":5.40889,"is_reserved":false,"is_disabled":false,"rental_uris":{"android":"levelo://app?vid=2d011489-3a50-4137-8707-13a2dba13148","ios":"levelo://app?vid=2d011489-3a50-4137-8707-13a2dba13148"},"vehicle_type_id":"4","last_reported":1750155096,"current_range_meters":22000,"station_id":"ce4bhm92rcd13ifvqglg","pricing_plan_id":"cebpf4jnsgd1na2vs0mg"},{"bike_id":"aebd12da-766f-4242-a9f6-9430df140b4c","system_id":"levelo_inurba_marseille","lat":43.24181,"lon":5.39727,"is_reserved":false,"is_disabled":false,"rental_uris":{"android":"levelo://app?vid=aebd12da-766f-4242-a9f6-9430df140b4c","ios":"levelo://app?vid=aebd12da-766f-4242-a9f6-9430df140b4c"},"vehicle_type_id":"4","last_reported":1750155096,"current_range_meters":22000,"station_id":"ce4bhn12rcd13ifvqgpg","pricing_plan_id":"cebpf4jnsgd1na2vs0mg"},{"bike_id":"8ad9234e-001a-4549-8bba-9baf2ef98804","system_id":"levelo_inurba_marseille","lat":43.26781,"lon":5.40209,"is_reserved":false,"is_disabled":false,"rental_uris":{"android":"levelo://app?vid=8ad9234e-001a-4549-8bba-9baf2ef98804","ios":"levelo://app?vid=8ad9234e-001a-4549-8bba-9baf2ef98804"},"vehicle_type_id":"4","last_reported":1750155096,"current_range_meters":22400,"station_id":"","pricing_plan_id":"cebpf4jnsgd1na2vs0mg"},{"bike_id":"9bfb787e-1f19-42b4-842a-23ba1d186bb1","system_id":"levelo_inurba_marseille","lat":43.3054,"lon":5.36535,"is_reserved":false,"is_disabled":false,"rental_uris":{"android":"levelo://app?vid=9bfb787e-1f19-42b4-842a-23ba1d186bb1","ios":"levelo://app?vid=9bfb787e-1f19-42b4-842a-23ba1d186bb1"},"vehicle_type_id":"4","last_reported":1750155096,"current_range_meters":22400,"station_id":"ce4bgs12rcd13ifvqcag","pricing_plan_id":"cebpf4jnsgd1na2vs0mg"},{"bike_id":"340be65c-b1c6-4c4d-9220-0a4ce317397f","system_id":"levelo_inurba_marseille","lat":43.309523,"lon":5.390332,"is_reserved":false,"is_disabled":false,"rental_uris":{"android":"levelo://app?vid=340be65c-b1c6-4c4d-9220-0a4ce317397f","ios":"levelo://app?vid=340be65c-b1c6-4c4d-9220-0a4ce317397f"},"vehicle_type_id":"4","last_reported":1750155096,"current_range_meters":22400,"station_id":"ce4bgup2rcd13ifvqco0","pricing_plan_id":"cebpf4jnsgd1na2vs0mg"},{"bike_id":"2b4a012a-6d20-424a-867e-2e5209a0c464","system_id":"levelo_inurba_marseille","lat":43.30789,"lon":5.37655,"is_reserved":false,"is_disabled":false,"rental_uris":{"android":"levelo://app?vid=2b4a012a-6d20-424a-867e-2e5209a0c464","ios":"levelo://app?vid=2b4a012a-6d20-424a-867e-2e5209a0c464"},"vehicle_type_id":"4","last_reported":1750155096,"current_range_meters":22400,"station_id":"ce4bgv92rcd13ifvqcq0","pricing_plan_id":"cebpf4jnsgd1na2vs0mg"},{"bike_id":"a00f7fd6-d395-4cac-9237-d24686695ab4","system_id":"levelo_inurba_marseille","lat":43.28272,"lon":5.35057,"is_reserved":false,"is_disabled":false,"rental_uris":{"android":"levelo://app?vid=a00f7fd6-d395-4cac-9237-d24686695ab4","ios":"levelo://app?vid=a00f7fd6-d395-4cac-9237-d24686695ab4"},"vehicle_type_id":"4","last_reported":1750155096,"current_range_meters":22400,"station_id":"ce4bhbp2rcd13ifvqerg","pricing_plan_id":"cebpf4jnsgd1na2vs0mg"},{"bike_id":"c189e9ab-927a-4036-bda0-f1e05096b490","system_id":"levelo_inurba_marseille","lat":43.30692,"lon":5.42477,"is_reserved":false,"is_disabled":false,"rental_uris":{"android":"levelo://app?vid=c189e9ab-927a-4036-bda0-f1e05096b490","ios":"levelo://app?vid=c189e9ab-927a-4036-bda0-f1e05096b490"},"vehicle_type_id":"4","last_reported":1750155096,"current_range_meters":22400,"station_id":"st_cvj6ca6bvosntc0bfgr0","pricing_plan_id":"cebpf4jnsgd1na2vs0mg"},{"bike_id":"6cb8910e-d48f-4998-8f89-bce55953f5bd","system_id":"levelo_inurba_marseille","lat":43.337661,"lon":5.374289,"is_reserved":false,"is_disabled":false,"rental_uris":{"android":"levelo://app?vid=6cb8910e-d48f-4998-8f89-bce55953f5bd","ios":"levelo://app?vid=6cb8910e-d48f-4998-8f89-bce55953f5bd"},"vehicle_type_id":"4","last_reported":1750155096,"current_range_meters":22800,"station_id":"","pricing_plan_id":"cebpf4jnsgd1na2vs0mg"},{"bike_id":"b2ebe29e-33d3-4402-93ef-8f3908c50936","system_id":"levelo_inurba_marseille","lat":43.30565,"lon":5.3655,"is_reserved":false,"is_disabled":false,"rental_uris":{"android":"levelo://app?vid=b2ebe29e-33d3-4402-93ef-8f3908c50936","ios":"levelo://app?vid=b2ebe29e-33d3-4402-93ef-8f3908c50936"},"vehicle_type_id":"4","last_reported":1750155096,"current_range_meters":22800,"station_id":"ce4bgs12rcd13ifvqcag","pricing_plan_id":"cebpf4jnsgd1na2vs0mg"},{"bike_id":"442ab95f-432a-40e3-b9dc-062ddcd0cf12","system_id":"levelo_inurba_marseille","lat":43.28623,"lon":5.35091,"is_reserved":false,"is_disabled":false,"rental_uris":{"android":"levelo://app?vid=442ab95f-432a-40e3-b9dc-062ddcd0cf12","ios":"levelo://app?vid=442ab95f-432a-40e3-b9dc-062ddcd0cf12"},"vehicle_type_id":"4","last_reported":1750155096,"current_range_meters":22800,"station_id":"ce4bhch2rcd13ifvqeug","pricing_plan_id":"cebpf4jnsgd1na2vs0mg"},{"bike_id":"227c0c1d-ce98-44ed-bbc8-7efb1eeb681e","system_id":"levelo_inurba_marseille","lat":43.25722,"lon":5.41094,"is_reserved":false,"is_disabled":false,"rental_uris":{"android":"levelo://app?vid=227c0c1d-ce98-44ed-bbc8-7efb1eeb681e","ios":"levelo://app?vid=227c0c1d-ce98-44ed-bbc8-7efb1eeb681e"},"vehicle_type_id":"4","last_reported":1750155096,"current_range_meters":22800,"station_id":"ce4bhkp2rcd13ifvqgd0","pricing_plan_id":"cebpf4jnsgd1na2vs0mg"},{"bike_id":"bda4715f-95c2-4107-8954-e1e56a63a1ee","system_id":"levelo_inurba_marseille","lat":43.33723,"lon":5.39187,"is_reserved":false,"is_disabled":false,"rental_uris":{"android":"levelo://app?vid=bda4715f-95c2-4107-8954-e1e56a63a1ee","ios":"levelo://app?vid=bda4715f-95c2-4107-8954-e1e56a63a1ee"},"vehicle_type_id":"4","last_reported":1750155096,"current_range_meters":22800,"station_id":"ce4bhr92rcd13ifvqhsg","pricing_plan_id":"cebpf4jnsgd1na2vs0mg"},{"bike_id":"8e077055-7ad0-4e0a-b9a5-744e94f44b1d","system_id":"levelo_inurba_marseille","lat":43.31391,"lon":5.3671,"is_reserved":false,"is_disabled":false,"rental_uris":{"android":"levelo://app?vid=8e077055-7ad0-4e0a-b9a5-744e94f44b1d","ios":"levelo://app?vid=8e077055-7ad0-4e0a-b9a5-744e94f44b1d"},"vehicle_type_id":"4","last_reported":1750155096,"current_range_meters":23200,"station_id":"","pricing_plan_id":"cebpf4jnsgd1na2vs0mg"},{"bike_id":"4ccb0642-fe06-4075-a80c-a645df608b4e","system_id":"levelo_inurba_marseille","lat":43.30521,"lon":5.36529,"is_reserved":false,"is_disabled":false,"rental_uris":{"android":"levelo://app?vid=4ccb0642-fe06-4075-a80c-a645df608b4e","ios":"levelo://app?vid=4ccb0642-fe06-4075-a80c-a645df608b4e"},"vehicle_type_id":"4","last_reported":1750155096,"current_range_meters":23200,"station_id":"","pricing_plan_id":"cebpf4jnsgd1na2vs0mg"},{"bike_id":"58400248-5a5d-42c3-a3e3-342d7913d325","system_id":"levelo_inurba_marseille","lat":43.30565,"lon":5.36676,"is_reserved":false,"is_disabled":false,"rental_uris":{"android":"levelo://app?vid=58400248-5a5d-42c3-a3e3-342d7913d325","ios":"levelo://app?vid=58400248-5a5d-42c3-a3e3-342d7913d325"},"vehicle_type_id":"4","last_reported":1750155096,"current_range_meters":23200,"station_id":"ce4bgrp2rcd13ifvqc9g","pricing_plan_id":"cebpf4jnsgd1na2vs0mg"},{"bike_id":"5e78ae37-e8e2-4ad9-827c-d004f0c1bbb5","system_id":"levelo_inurba_marseille","lat":43.29034,"lon":5.3813,"is_reserved":false,"is_disabled":false,"rental_uris":{"android":"levelo://app?vid=5e78ae37-e8e2-4ad9-827c-d004f0c1bbb5","ios":"levelo://app?vid=5e78ae37-e8e2-4ad9-827c-d004f0c1bbb5"},"vehicle_type_id":"4","last_reported":1750155096,"current_range_meters":23200,"station_id":"ce4bh4p2rcd13ifvqe1g","pricing_plan_id":"cebpf4jnsgd1na2vs0mg"},{"bike_id":"dc5eabff-d994-4946-ab2d-bbbe647d08d8","system_id":"levelo_inurba_marseille","lat":43.23968,"lon":5.36616,"is_reserved":false,"is_disabled":false,"rental_uris":{"android":"levelo://app?vid=dc5eabff-d994-4946-ab2d-bbbe647d08d8","ios":"levelo://app?vid=dc5eabff-d994-4946-ab2d-bbbe647d08d8"},"vehicle_type_id":"4","last_reported":1750155096,"current_range_meters":23200,"station_id":"ce4bhi12rcd13ifvqfp0","pricing_plan_id":"cebpf4jnsgd1na2vs0mg"},{"bike_id":"50c39119-4714-4616-8b98-47b9529168d0","system_id":"levelo_inurba_marseille","lat":43.2707,"lon":5.42277,"is_reserved":false,"is_disabled":false,"rental_uris":{"android":"levelo://app?vid=50c39119-4714-4616-8b98-47b9529168d0","ios":"levelo://app?vid=50c39119-4714-4616-8b98-47b9529168d0"},"vehicle_type_id":"4","last_reported":1750155096,"current_range_meters":23200,"station_id":"ce4bhk92rcd13ifvqgb0","pricing_plan_id":"cebpf4jnsgd1na2vs0mg"},{"bike_id":"a90e6956-0a5e-44e1-9177-563817432922","system_id":"levelo_inurba_marseille","lat":43.25707,"lon":5.41105,"is_reserved":false,"is_disabled":false,"rental_uris":{"android":"levelo://app?vid=a90e6956-0a5e-44e1-9177-563817432922","ios":"levelo://app?vid=a90e6956-0a5e-44e1-9177-563817432922"},"vehicle_type_id":"4","last_reported":1750155096,"current_range_meters":23200,"station_id":"ce4bhkp2rcd13ifvqgd0","pricing_plan_id":"cebpf4jnsgd1na2vs0mg"},{"bike_id":"e08b95eb-cad0-4ce5-9d8b-c16666a81575","system_id":"levelo_inurba_marseille","lat":43.24166,"lon":5.39723,"is_reserved":false,"is_disabled":false,"rental_uris":{"android":"levelo://app?vid=e08b95eb-cad0-4ce5-9d8b-c16666a81575","ios":"levelo://app?vid=e08b95eb-cad0-4ce5-9d8b-c16666a81575"},"vehicle_type_id":"4","last_reported":1750155096,"current_range_meters":23200,"station_id":"ce4bhn12rcd13ifvqgpg","pricing_plan_id":"cebpf4jnsgd1na2vs0mg"},{"bike_id":"9faf55fe-1e7f-43ab-8b2c-706b378e561c","system_id":"levelo_inurba_marseille","lat":43.21191,"lon":5.35066,"is_reserved":false,"is_disabled":false,"rental_uris":{"android":"levelo://app?vid=9faf55fe-1e7f-43ab-8b2c-706b378e561c","ios":"levelo://app?vid=9faf55fe-1e7f-43ab-8b2c-706b378e561c"},"vehicle_type_id":"4","last_reported":1750155096,"current_range_meters":23200,"station_id":"st_cvj6sg6p6f1abm77japg","pricing_plan_id":"cebpf4jnsgd1na2vs0mg"},{"bike_id":"4e14f70e-c7b6-4219-9495-f04f5d31390f","system_id":"levelo_inurba_marseille","lat":43.211924,"lon":5.350723,"is_reserved":false,"is_disabled":false,"rental_uris":{"android":"levelo://app?vid=4e14f70e-c7b6-4219-9495-f04f5d31390f","ios":"levelo://app?vid=4e14f70e-c7b6-4219-9495-f04f5d31390f"},"vehicle_type_id":"4","last_reported":1750155096,"current_range_meters":23200,"station_id":"st_cvj6sg6p6f1abm77japg","pricing_plan_id":"cebpf4jnsgd1na2vs0mg"},{"bike_id":"bccf3f0c-cab7-44d2-8ffb-915e21563a12","system_id":"levelo_inurba_marseille","lat":43.337444,"lon":5.374475,"is_reserved":false,"is_disabled":false,"rental_uris":{"android":"levelo://app?vid=bccf3f0c-cab7-44d2-8ffb-915e21563a12","ios":"levelo://app?vid=bccf3f0c-cab7-44d2-8ffb-915e21563a12"},"vehicle_type_id":"4","last_reported":1750155096,"current_range_meters":24000,"station_id":"","pricing_plan_id":"cebpf4jnsgd1na2vs0mg"},{"bike_id":"819aa901-cd25-4f87-8ada-faa6e708ebd8","system_id":"levelo_inurba_marseille","lat":43.30143,"lon":5.37424,"is_reserved":false,"is_disabled":false,"rental_uris":{"android":"levelo://app?vid=819aa901-cd25-4f87-8ada-faa6e708ebd8","ios":"levelo://app?vid=819aa901-cd25-4f87-8ada-faa6e708ebd8"},"vehicle_type_id":"4","last_reported":1750155096,"current_range_meters":24000,"station_id":"ce4bgs92rcd13ifvqcc0","pricing_plan_id":"cebpf4jnsgd1na2vs0mg"},{"bike_id":"c4f43bf4-8d78-40b1-8e4a-44f89cdb26e3","system_id":"levelo_inurba_marseille","lat":43.28265,"lon":5.35065,"is_reserved":false,"is_disabled":false,"rental_uris":{"android":"levelo://app?vid=c4f43bf4-8d78-40b1-8e4a-44f89cdb26e3","ios":"levelo://app?vid=c4f43bf4-8d78-40b1-8e4a-44f89cdb26e3"},"vehicle_type_id":"4","last_reported":1750155096,"current_range_meters":24000,"station_id":"ce4bhbp2rcd13ifvqerg","pricing_plan_id":"cebpf4jnsgd1na2vs0mg"},{"bike_id":"51e0f529-f94c-4e87-928f-983dab1a80c9","system_id":"levelo_inurba_marseille","lat":43.231537,"lon":5.437047,"is_reserved":false,"is_disabled":false,"rental_uris":{"android":"levelo://app?vid=51e0f529-f94c-4e87-928f-983dab1a80c9","ios":"levelo://app?vid=51e0f529-f94c-4e87-928f-983dab1a80c9"},"vehicle_type_id":"4","last_reported":1750155096,"current_range_meters":24000,"station_id":"ce4bhmp2rcd13ifvqgog","pricing_plan_id":"cebpf4jnsgd1na2vs0mg"},{"bike_id":"3053fffc-393c-45b8-9b30-68ad54766752","system_id":"levelo_inurba_marseille","lat":43.32662,"lon":5.40985,"is_reserved":false,"is_disabled":false,"rental_uris":{"android":"levelo://app?vid=3053fffc-393c-45b8-9b30-68ad54766752","ios":"levelo://app?vid=3053fffc-393c-45b8-9b30-68ad54766752"},"vehicle_type_id":"4","last_reported":1750155096,"current_range_meters":24000,"station_id":"ce4bhpp2rcd13ifvqhgg","pricing_plan_id":"cebpf4jnsgd1na2vs0mg"},{"bike_id":"9a1a9adc-b6d5-45f8-adb1-6b35f3e9580b","system_id":"levelo_inurba_marseille","lat":43.341393,"lon":5.408976,"is_reserved":false,"is_disabled":false,"rental_uris":{"android":"levelo://app?vid=9a1a9adc-b6d5-45f8-adb1-6b35f3e9580b","ios":"levelo://app?vid=9a1a9adc-b6d5-45f8-adb1-6b35f3e9580b"},"vehicle_type_id":"4","last_reported":1750155096,"current_range_meters":24000,"station_id":"ce4bhqh2rcd13ifvqhlg","pricing_plan_id":"cebpf4jnsgd1na2vs0mg"},{"bike_id":"9e29d55e-d8a5-435c-aec3-d8808940534a","system_id":"levelo_inurba_marseille","lat":43.23202,"lon":5.35561,"is_reserved":false,"is_disabled":false,"rental_uris":{"android":"levelo://app?vid=9e29d55e-d8a5-435c-aec3-d8808940534a","ios":"levelo://app?vid=9e29d55e-d8a5-435c-aec3-d8808940534a"},"vehicle_type_id":"4","last_reported":1750155096,"current_range_meters":24000,"station_id":"ce4bhu92rcd13ifvqi70","pricing_plan_id":"cebpf4jnsgd1na2vs0mg"},{"bike_id":"395588bd-7ccc-4bb1-b111-225cad1af767","system_id":"levelo_inurba_marseille","lat":43.24163,"lon":5.36394,"is_reserved":false,"is_disabled":false,"rental_uris":{"android":"levelo://app?vid=395588bd-7ccc-4bb1-b111-225cad1af767","ios":"levelo://app?vid=395588bd-7ccc-4bb1-b111-225cad1af767"},