{"last_updated":1738167068,"ttl":60,"version":"2.2","data":{"bikes":[{"bike_id":"ee5e61c1-197e-4ec6-883c-2846f16a43b2","system_id":"levelo_inurba_marseille","lat":43.26948,"lon":5.40251,"is_reserved":false,"is_disabled":false,"rental_uris":{"android":"levelo://app?vid=ee5e61c1-197e-4ec6-883c-2846f16a43b2","ios":"levelo://app?vid=ee5e61c1-197e-4ec6-883c-2846f16a43b2"},"vehicle_type_id":"4","last_reported":1738167068,"current_range_meters":8400,"station_id":"cjm6bp8fraef2m0cb0m0","pricing_plan_id":"cebpf4jnsgd1na2vs0mg"},{"bike_id":"041686b5-fe9c-4b96-a9ce-907665db98ab","system_id":"levelo_inurba_marseille","lat":43.295166,"lon":5.390256,"is_reserved":false,"is_disabled":false,"rental_uris":{"android":"levelo://app?vid=041686b5-fe9c-4b96-a9ce-907665db98ab","ios":"levelo://app?vid=041686b5-fe9c-4b96-a9ce-907665db98ab"},"vehicle_type_id":"4","last_reported":1738167068,"current_range_meters":35600,"station_id":"ce4bh3p2rcd13ifvqdp0","pricing_plan_id":"cebpf4jnsgd1na2vs0mg"},{"bike_id":"9fd73913-dbae-4c44-9a9b-e393df78b1e9","system_id":"levelo_inurba_marseille","lat":43.25579,"lon":5.38228,"is_reserved":false,"is_disabled":true,"rental_uris":{"android":"levelo://app?vid=9fd73913-dbae-4c44-9a9b-e393df78b1e9","ios":"levelo://app?vid=9fd73913-dbae-4c44-9a9b-e393df78b1e9"},"vehicle_type_id":"4","last_reported":1738167068,"current_range_meters":1600,"station_id":"ce4bhih2rcd13ifvqfs0","pricing_plan_id":"cebpf4jnsgd1na2vs0mg"},{"bike_id":"a8dcf4d3-0fa3-476c-92e6-d0d14581a95b","system_id":"levelo_inurba_marseille","lat":43.26215,"lon":5.3744,"is_reserved":false,"is_disabled":false,"rental_uris":{"android":"levelo://app?vid=a8dcf4d3-0fa3-476c-92e6-d0d14581a95b","ios":"levelo://app?vid=a8dcf4d3-0fa3-476c-92e6-d0d14581a95b"},"vehicle_type_id":"4","last_reported":1738167068,"current_range_meters":37600,"station_id":"ce4bhgp2rcd13ifvqfc0","pricing_plan_id":"cebpf4jnsgd1na2vs0mg"},{"bike_id":"56f49f8b-4bf2-4d84-97ce-54c8a66ab5f7","system_id":"levelo_inurba_marseille","lat":43.29982,"lon":5.37183,"is_reserved":false,"is_disabled":false,"rental_uris":{"android":"levelo://app?vid=56f49f8b-4bf2-4d84-97ce-54c8a66ab5f7","ios":"levelo://app?vid=56f49f8b-4bf2-4d84-97ce-54c8a66ab5f7"},"vehicle_type_id":"4","last_reported":1738167068,"current_range_meters":38800,"station_id":"ce4bgr92rcd13ifvqc7g","pricing_plan_id":"cebpf4jnsgd1na2vs0mg"},{"bike_id":"f7f8117f-03ef-415e-85c6-2eeaf165e4f2","system_id":"levelo_inurba_marseille","lat":43.26234,"lon":5.40442,"is_reserved":false,"is_disabled":true,"rental_uris":{"android":"levelo://app?vid=f7f8117f-03ef-415e-85c6-2eeaf165e4f2","ios":"levelo://app?vid=f7f8117f-03ef-415e-85c6-2eeaf165e4f2"},"vehicle_type_id":"4","last_reported":1738167068,"current_range_meters":28400,"station_id":"ce4bhmh2rcd13ifvqgmg","pricing_plan_id":"cebpf4jnsgd1na2vs0mg"},{"bike_id":"00bf1f10-83dd-439f-abf3-3a310f3dd441","system_id":"levelo_inurba_marseille","lat":43.30203,"lon":5.39457,"is_reserved":false,"is_disabled":false,"rental_uris":{"android":"levelo://app?vid=00bf1f10-83dd-439f-abf3-3a310f3dd441","ios":"levelo://app?vid=00bf1f10-83dd-439f-abf3-3a310f3dd441"},"vehicle_type_id":"4","last_reported":1738167068,"current_range_meters":30400,"station_id":"ce4bh0p2rcd13ifvqd70","pricing_plan_id":"cebpf4jnsgd1na2vs0mg"},{"bike_id":"68640d3f-c334-4d54-b86b-f5e8a87a18e9","system_id":"levelo_inurba_marseille","lat":43.27822,"lon":5.40693,"is_reserved":false,"is_disabled":false,"rental_uris":{"android":"levelo://app?vid=68640d3f-c334-4d54-b86b-f5e8a87a18e9","ios":"levelo://app?vid=68640d3f-c334-4d54-b86b-f5e8a87a18e9"},"vehicle_type_id":"4","last_reported":1738167068,"current_range_meters":34000,"station_id":"ce4bhnh2rcd13ifvqgtg","pricing_plan_id":"cebpf4jnsgd1na2vs0mg"},{"bike_id":"8efde077-468b-4998-94a5-cdb2f9f4bd51","system_id":"levelo_inurba_marseille","lat":43.27991,"lon":5.38758,"is_reserved":false,"is_disabled":false,"rental_uris":{"android":"levelo://app?vid=8efde077-468b-4998-94a5-cdb2f9f4bd51","ios":"levelo://app?vid=8efde077-468b-4998-94a5-cdb2f9f4bd51"},"vehicle_type_id":"4","last_reported":1738167068,"current_range_meters":33600,"station_id":"ce4bhg12rcd13ifvqf80","pricing_plan_id":"cebpf4jnsgd1na2vs0mg"},{"bike_id":"f93041b9-b8e0-42d2-8838-ad70483b616d","system_id":"levelo_inurba_marseille","lat":43.26849,"lon":5.3946,"is_reserved":false,"is_disabled":false,"rental_uris":{"android":"levelo://app?vid=f93041b9-b8e0-42d2-8838-ad70483b616d","ios":"levelo://app?vid=f93041b9-b8e0-42d2-8838-ad70483b616d"},"vehicle_type_id":"4","last_reported":1738167068,"current_range_meters":16800,"station_id":"ce4bhh12rcd13ifvqfg0","pricing_plan_id":"cebpf4jnsgd1na2vs0mg"},{"bike_id":"adc2855c-ce96-4ab1-9132-d4c82e18f627","system_id":"levelo_inurba_marseille","lat":43.26498,"lon":5.3957,"is_reserved":false,"is_disabled":false,"rental_uris":{"android":"levelo://app?vid=adc2855c-ce96-4ab1-9132-d4c82e18f627","ios":"levelo://app?vid=adc2855c-ce96-4ab1-9132-d4c82e18f627"},"vehicle_type_id":"4","last_reported":1738167068,"current_range_meters":32400,"station_id":"ce4bhi12rcd13ifvqfq0","pricing_plan_id":"cebpf4jnsgd1na2vs0mg"},{"bike_id":"3fbfbd60-098f-4bf5-a9e5-f84a629323b0","system_id":"levelo_inurba_marseille","lat":43.28625,"lon":5.35088,"is_reserved":false,"is_disabled":false,"rental_uris":{"android":"levelo://app?vid=3fbfbd60-098f-4bf5-a9e5-f84a629323b0","ios":"levelo://app?vid=3fbfbd60-098f-4bf5-a9e5-f84a629323b0"},"vehicle_type_id":"4","last_reported":1738167068,"current_range_meters":18800,"station_id":"ce4bhch2rcd13ifvqeug","pricing_plan_id":"cebpf4jnsgd1na2vs0mg"},{"bike_id":"df517269-7978-40e7-92b9-aba0b6440d0d","system_id":"levelo_inurba_marseille","lat":43.2737,"lon":5.36252,"is_reserved":false,"is_disabled":false,"rental_uris":{"android":"levelo://app?vid=df517269-7978-40e7-92b9-aba0b6440d0d","ios":"levelo://app?vid=df517269-7978-40e7-92b9-aba0b6440d0d"},"vehicle_type_id":"4","last_reported":1738167068,"current_range_meters":28000,"station_id":"ce4bhbh2rcd13ifvqeo0","pricing_plan_id":"cebpf4jnsgd1na2vs0mg"},{"bike_id":"96c6d005-88bb-4fd6-98f4-0a014c553eb8","system_id":"levelo_inurba_marseille","lat":43.33018,"lon":5.39014,"is_reserved":false,"is_disabled":false,"rental_uris":{"android":"levelo://app?vid=96c6d005-88bb-4fd6-98f4-0a014c553eb8","ios":"levelo://app?vid=96c6d005-88bb-4fd6-98f4-0a014c553eb8"},"vehicle_type_id":"4","last_reported":1738167068,"current_range_meters":38800,"station_id":"ce4bhr92rcd13ifvqhrg","pricing_plan_id":"cebpf4jnsgd1na2vs0mg"},{"bike_id":"73c4a85e-c64d-40c4-9c70-e2b4caa8d957","system_id":"levelo_inurba_marseille","lat":43.27805,"lon":5.40701,"is_reserved":false,"is_disabled":false,"rental_uris":{"android":"levelo://app?vid=73c4a85e-c64d-40c4-9c70-e2b4caa8d957","ios":"levelo://app?vid=73c4a85e-c64d-40c4-9c70-e2b4caa8d957"},"vehicle_type_id":"4","last_reported":1738167068,"current_range_meters":28800,"station_id":"ce4bhnh2rcd13ifvqgtg","pricing_plan_id":"cebpf4jnsgd1na2vs0mg"},{"bike_id":"bc3629a3-c1e6-4bef-8ea5-b5ddcb6ee325","system_id":"levelo_inurba_marseille","lat":43.30876,"lon":5.39647,"is_reserved":false,"is_disabled":true,"rental_uris":{"android":"levelo://app?vid=bc3629a3-c1e6-4bef-8ea5-b5ddcb6ee325","ios":"levelo://app?vid=bc3629a3-c1e6-4bef-8ea5-b5ddcb6ee325"},"vehicle_type_id":"4","last_reported":1738167068,"current_range_meters":400,"station_id":"ce4bh012rcd13ifvqcv0","pricing_plan_id":"cebpf4jnsgd1na2vs0mg"},{"bike_id":"69899191-e293-497b-a27d-18f1e8ac236e","system_id":"levelo_inurba_marseille","lat":43.30062,"lon":5.39082,"is_reserved":false,"is_disabled":false,"rental_uris":{"android":"levelo://app?vid=69899191-e293-497b-a27d-18f1e8ac236e","ios":"levelo://app?vid=69899191-e293-497b-a27d-18f1e8ac236e"},"vehicle_type_id":"4","last_reported":1738167068,"current_range_meters":36800,"station_id":"ce4bh192rcd13ifvqdb0","pricing_plan_id":"cebpf4jnsgd1na2vs0mg"},{"bike_id":"e05d3339-457c-46fa-9827-97d4d0e79dfd","system_id":"levelo_inurba_marseille","lat":43.25865,"lon":5.39915,"is_reserved":false,"is_disabled":false,"rental_uris":{"android":"levelo://app?vid=e05d3339-457c-46fa-9827-97d4d0e79dfd","ios":"levelo://app?vid=e05d3339-457c-46fa-9827-97d4d0e79dfd"},"vehicle_type_id":"4","last_reported":1738167068,"current_range_meters":38800,"station_id":"ce4bhl92rcd13ifvqghg","pricing_plan_id":"cebpf4jnsgd1na2vs0mg"},{"bike_id":"9bd21267-26f6-4122-9567-2f0b5d4f790f","system_id":"levelo_inurba_marseille","lat":43.32369,"lon":5.38882,"is_reserved":false,"is_disabled":false,"rental_uris":{"android":"levelo://app?vid=9bd21267-26f6-4122-9567-2f0b5d4f790f","ios":"levelo://app?vid=9bd21267-26f6-4122-9567-2f0b5d4f790f"},"vehicle_type_id":"4","last_reported":1738167068,"current_range_meters":8400,"station_id":"ce4bhqp2rcd13ifvqhog","pricing_plan_id":"cebpf4jnsgd1na2vs0mg"},{"bike_id":"45a998ac-53b1-4554-b7da-c0c498eb8a92","system_id":"levelo_inurba_marseille","lat":43.298,"lon":5.38125,"is_reserved":false,"is_disabled":false,"rental_uris":{"android":"levelo://app?vid=45a998ac-53b1-4554-b7da-c0c498eb8a92","ios":"levelo://app?vid=45a998ac-53b1-4554-b7da-c0c498eb8a92"},"vehicle_type_id":"4","last_reported":1738167068,"current_range_meters":35200,"station_id":"ce4bgip2rcd13ifvqbb0","pricing_plan_id":"cebpf4jnsgd1na2vs0mg"},{"bike_id":"62fa4956-a921-4fb6-aa16-b51e55abc994","system_id":"levelo_inurba_marseille","lat":43.26224,"lon":5.40441,"is_reserved":false,"is_disabled":false,"rental_uris":{"android":"levelo://app?vid=62fa4956-a921-4fb6-aa16-b51e55abc994","ios":"levelo://app?vid=62fa4956-a921-4fb6-aa16-b51e55abc994"},"vehicle_type_id":"4","last_reported":1738167068,"current_range_meters":10800,"station_id":"ce4bhmh2rcd13ifvqgmg","pricing_plan_id":"cebpf4jnsgd1na2vs0mg"},{"bike_id":"0986ae15-9553-4069-b9b8-89b80c24cf40","system_id":"levelo_inurba_marseille","lat":43.29573,"lon":5.39971,"is_reserved":false,"is_disabled":false,"rental_uris":{"android":"levelo://app?vid=0986ae15-9553-4069-b9b8-89b80c24cf40","ios":"levelo://app?vid=0986ae15-9553-4069-b9b8-89b80c24cf40"},"vehicle_type_id":"4","last_reported":1738167068,"current_range_meters":30800,"station_id":"ce4bh312rcd13ifvqdj0","pricing_plan_id":"cebpf4jnsgd1na2vs0mg"},{"bike_id":"88742122-ac11-41f2-878f-0f3cbb39e3ff","system_id":"levelo_inurba_marseille","lat":43.29317,"lon":5.41159,"is_reserved":false,"is_disabled":false,"rental_uris":{"android":"levelo://app?vid=88742122-ac11-41f2-878f-0f3cbb39e3ff","ios":"levelo://app?vid=88742122-ac11-41f2-878f-0f3cbb39e3ff"},"vehicle_type_id":"4","last_reported":1738167068,"current_range_meters":36000,"station_id":"","pricing_plan_id":"cebpf4jnsgd1na2vs0mg"},{"bike_id":"1c63fa7b-8bb3-4da5-8267-9c40ab75cc0b","system_id":"levelo_inurba_marseille","lat":43.3377,"lon":5.39153,"is_reserved":false,"is_disabled":false,"rental_uris":{"android":"levelo://app?vid=1c63fa7b-8bb3-4da5-8267-9c40ab75cc0b","ios":"levelo://app?vid=1c63fa7b-8bb3-4da5-8267-9c40ab75cc0b"},"vehicle_type_id":"4","last_reported":1738167068,"current_range_meters":38800,"station_id":"ce4bhr92rcd13ifvqhsg","pricing_plan_id":"cebpf4jnsgd1na2vs0mg"},{"bike_id":"e91c96b5-9be8-4d36-82c9-b84d1011de85","system_id":"levelo_inurba_marseille","lat":43.2507,"lon":5.39526,"is_reserved":false,"is_disabled":false,"rental_uris":{"android":"levelo://app?vid=e91c96b5-9be8-4d36-82c9-b84d1011de85","ios":"levelo://app?vid=e91c96b5-9be8-4d36-82c9-b84d1011de85"},"vehicle_type_id":"4","last_reported":1738167068,"current_range_meters":16800,"station_id":"ce4bhm12rcd13ifvqgkg","pricing_plan_id":"cebpf4jnsgd1na2vs0mg"},{"bike_id":"fb57aee5-301b-407c-a9d0-c23dec2dfbec","system_id":"levelo_inurba_marseille","lat":43.27369,"lon":5.36268,"is_reserved":false,"is_disabled":false,"rental_uris":{"android":"levelo://app?vid=fb57aee5-301b-407c-a9d0-c23dec2dfbec","ios":"levelo://app?vid=fb57aee5-301b-407c-a9d0-c23dec2dfbec"},"vehicle_type_id":"4","last_reported":1738167068,"current_range_meters":30000,"station_id":"ce4bhbh2rcd13ifvqeo0","pricing_plan_id":"cebpf4jnsgd1na2vs0mg"},{"bike_id":"5d4915e0-4a9f-4c36-821a-8bde58abc3cd","system_id":"levelo_inurba_marseille","lat":43.25119,"lon":5.40323,"is_reserved":false,"is_disabled":true,"rental_uris":{"android":"levelo://app?vid=5d4915e0-4a9f-4c36-821a-8bde58abc3cd","ios":"levelo://app?vid=5d4915e0-4a9f-4c36-821a-8bde58abc3cd"},"vehicle_type_id":"4","last_reported":1738167068,"current_range_meters":38800,"station_id":"ce4bhlh2rcd13ifvqgig","pricing_plan_id":"cebpf4jnsgd1na2vs0mg"},{"bike_id":"3b73f869-c0b6-47ae-b722-497fb04b80c8","system_id":"levelo_inurba_marseille","lat":43.32475,"lon":5.36563,"is_reserved":false,"is_disabled":false,"rental_uris":{"android":"levelo://app?vid=3b73f869-c0b6-47ae-b722-497fb04b80c8","ios":"levelo://app?vid=3b73f869-c0b6-47ae-b722-497fb04b80c8"},"vehicle_type_id":"4","last_reported":1738167068,"current_range_meters":36400,"station_id":"ce4bhs12rcd13ifvqhvg","pricing_plan_id":"cebpf4jnsgd1na2vs0mg"},{"bike_id":"99e0b5ba-e433-4378-9e88-b4b03733dbf3","system_id":"levelo_inurba_marseille","lat":43.29021,"lon":5.39952,"is_reserved":false,"is_disabled":false,"rental_uris":{"android":"levelo://app?vid=99e0b5ba-e433-4378-9e88-b4b03733dbf3","ios":"levelo://app?vid=99e0b5ba-e433-4378-9e88-b4b03733dbf3"},"vehicle_type_id":"4","last_reported":1738167068,"current_range_meters":6800,"station_id":"ce4bh392rcd13ifvqdm0","pricing_plan_id":"cebpf4jnsgd1na2vs0mg"},{"bike_id":"6325b2e4-1145-482e-a98b-ea9ba7994f1b","system_id":"levelo_inurba_marseille","lat":43.25941,"lon":5.40855,"is_reserved":false,"is_disabled":false,"rental_uris":{"android":"levelo://app?vid=6325b2e4-1145-482e-a98b-ea9ba7994f1b","ios":"levelo://app?vid=6325b2e4-1145-482e-a98b-ea9ba7994f1b"},"vehicle_type_id":"4","last_reported":1738167068,"current_range_meters":30400,"station_id":"ce4bhm92rcd13ifvqglg","pricing_plan_id":"cebpf4jnsgd1na2vs0mg"},{"bike_id":"ad78f700-89fc-4724-9a6e-18c847f90b37","system_id":"levelo_inurba_marseille","lat":43.29983,"lon":5.38496,"is_reserved":false,"is_disabled":false,"rental_uris":{"android":"levelo://app?vid=ad78f700-89fc-4724-9a6e-18c847f90b37","ios":"levelo://app?vid=ad78f700-89fc-4724-9a6e-18c847f90b37"},"vehicle_type_id":"4","last_reported":1738167068,"current_range_meters":35600,"station_id":"ce4bgj92rcd13ifvqbd0","pricing_plan_id":"cebpf4jnsgd1na2vs0mg"},{"bike_id":"bada47ba-5454-418a-8f5a-80b86bced572","system_id":"levelo_inurba_marseille","lat":43.26161,"lon":5.42065,"is_reserved":false,"is_disabled":false,"rental_uris":{"android":"levelo://app?vid=bada47ba-5454-418a-8f5a-80b86bced572","ios":"levelo://app?vid=bada47ba-5454-418a-8f5a-80b86bced572"},"vehicle_type_id":"4","last_reported":1738167068,"current_range_meters":30000,"station_id":"","pricing_plan_id":"cebpf4jnsgd1na2vs0mg"},{"bike_id":"d88ab39a-593a-4b88-a74f-db6e3a11c037","system_id":"levelo_inurba_marseille","lat":43.29924,"lon":5.37479,"is_reserved":false,"is_disabled":false,"rental_uris":{"android":"levelo://app?vid=d88ab39a-593a-4b88-a74f-db6e3a11c037","ios":"levelo://app?vid=d88ab39a-593a-4b88-a74f-db6e3a11c037"},"vehicle_type_id":"4","last_reported":1738167068,"current_range_meters":37600,"station_id":"ce4bgjh2rcd13ifvqbg0","pricing_plan_id":"cebpf4jnsgd1na2vs0mg"},{"bike_id":"d6af585f-c468-474f-9bf8-9417f47a5f4b","system_id":"levelo_inurba_marseille","lat":43.31348,"lon":5.36797,"is_reserved":false,"is_disabled":false,"rental_uris":{"android":"levelo://app?vid=d6af585f-c468-474f-9bf8-9417f47a5f4b","ios":"levelo://app?vid=d6af585f-c468-474f-9bf8-9417f47a5f4b"},"vehicle_type_id":"4","last_reported":1738167068,"current_range_meters":38800,"station_id":"ce4bgr92rcd13ifvqc6g","pricing_plan_id":"cebpf4jnsgd1na2vs0mg"},{"bike_id":"3c6336fe-eb72-435e-95d3-a1bde11ea3e3","system_id":"levelo_inurba_marseille","lat":43.30358,"lon":5.41888,"is_reserved":false,"is_disabled":false,"rental_uris":{"android":"levelo://app?vid=3c6336fe-eb72-435e-95d3-a1bde11ea3e3","ios":"levelo://app?vid=3c6336fe-eb72-435e-95d3-a1bde11ea3e3"},"vehicle_type_id":"4","last_reported":1738167068,"current_range_meters":38400,"station_id":"ce4bhop2rcd13ifvqh7g","pricing_plan_id":"cebpf4jnsgd1na2vs0mg"},{"bike_id":"dd5c5c45-05d7-435f-b329-97ebdf5c921f","system_id":"levelo_inurba_marseille","lat":43.25109,"lon":5.40316,"is_reserved":false,"is_disabled":true,"rental_uris":{"android":"levelo://app?vid=dd5c5c45-05d7-435f-b329-97ebdf5c921f","ios":"levelo://app?vid=dd5c5c45-05d7-435f-b329-97ebdf5c921f"},"vehicle_type_id":"4","last_reported":1738167068,"current_range_meters":0,"station_id":"ce4bhlh2rcd13ifvqgig","pricing_plan_id":"cebpf4jnsgd1na2vs0mg"},{"bike_id":"722ce177-0c4a-4ce3-80ae-b0fd2c692aab","system_id":"levelo_inurba_marseille","lat":43.27207,"lon":5.39179,"is_reserved":false,"is_disabled":false,"rental_uris":{"android":"levelo://app?vid=722ce177-0c4a-4ce3-80ae-b0fd2c692aab","ios":"levelo://app?vid=722ce177-0c4a-4ce3-80ae-b0fd2c692aab"},"vehicle_type_id":"4","last_reported":1738167068,"current_range_meters":24800,"station_id":"ce4bhhp2rcd13ifvqfm0","pricing_plan_id":"cebpf4jnsgd1na2vs0mg"},{"bike_id":"2726ab7d-4283-49db-be89-c5e6b97f39e0","system_id":"levelo_inurba_marseille","lat":43.29694,"lon":5.37652,"is_reserved":false,"is_disabled":false,"rental_uris":{"android":"levelo://app?vid=2726ab7d-4283-49db-be89-c5e6b97f39e0","ios":"levelo://app?vid=2726ab7d-4283-49db-be89-c5e6b97f39e0"},"vehicle_type_id":"4","last_reported":1738167068,"current_range_meters":30400,"station_id":"ce4bgkh2rcd13ifvqbl0","pricing_plan_id":"cebpf4jnsgd1na2vs0mg"},{"bike_id":"9f7cbc3c-6e0b-4442-8c70-64c0b2a1452e","system_id":"levelo_inurba_marseille","lat":43.230552,"lon":5.354987,"is_reserved":false,"is_disabled":false,"rental_uris":{"android":"levelo://app?vid=9f7cbc3c-6e0b-4442-8c70-64c0b2a1452e","ios":"levelo://app?vid=9f7cbc3c-6e0b-4442-8c70-64c0b2a1452e"},"vehicle_type_id":"4","last_reported":1738167068,"current_range_meters":17200,"station_id":"cpo3342slgdg3j2ifvpg","pricing_plan_id":"cebpf4jnsgd1na2vs0mg"},{"bike_id":"c8a3a0ed-dff2-4f3c-87dc-2e6b47b1ad28","system_id":"levelo_inurba_marseille","lat":43.337444,"lon":5.374475,"is_reserved":false,"is_disabled":true,"rental_uris":{"android":"levelo://app?vid=c8a3a0ed-dff2-4f3c-87dc-2e6b47b1ad28","ios":"levelo://app?vid=c8a3a0ed-dff2-4f3c-87dc-2e6b47b1ad28"},"vehicle_type_id":"4","last_reported":1738167068,"current_range_meters":400,"station_id":"","pricing_plan_id":"cebpf4jnsgd1na2vs0mg"},{"bike_id":"56b21505-0aab-463f-8b11-cb19b7370689","system_id":"levelo_inurba_marseille","lat":43.30232,"lon":5.40086,"is_reserved":false,"is_disabled":false,"rental_uris":{"android":"levelo://app?vid=56b21505-0aab-463f-8b11-cb19b7370689","ios":"levelo://app?vid=56b21505-0aab-463f-8b11-cb19b7370689"},"vehicle_type_id":"4","last_reported":1738167068,"current_range_meters":38800,"station_id":"ce4bgvh2rcd13ifvqcs0","pricing_plan_id":"cebpf4jnsgd1na2vs0mg"},{"bike_id":"e10e9408-d6dc-414f-bc56-fcb3b1a2c3d6","system_id":"levelo_inurba_marseille","lat":43.29711,"lon":5.36605,"is_reserved":false,"is_disabled":false,"rental_uris":{"android":"levelo://app?vid=e10e9408-d6dc-414f-bc56-fcb3b1a2c3d6","ios":"levelo://app?vid=e10e9408-d6dc-414f-bc56-fcb3b1a2c3d6"},"vehicle_type_id":"4","last_reported":1738167068,"current_range_meters":22800,"station_id":"ce4bgn12rcd13ifvqbt0","pricing_plan_id":"cebpf4jnsgd1na2vs0mg"},{"bike_id":"5a1b1c58-9c23-48ab-ab93-dd54646f4440","system_id":"levelo_inurba_marseille","lat":43.294118,"lon":5.386137,"is_reserved":false,"is_disabled":false,"rental_uris":{"android":"levelo://app?vid=5a1b1c58-9c23-48ab-ab93-dd54646f4440","ios":"levelo://app?vid=5a1b1c58-9c23-48ab-ab93-dd54646f4440"},"vehicle_type_id":"4","last_reported":1738167068,"current_range_meters":12800,"station_id":"ce4bh2h2rcd13ifvqdh0","pricing_plan_id":"cebpf4jnsgd1na2vs0mg"},{"bike_id":"9fb6afbc-8b4b-4018-889d-09f7621d62cd","system_id":"levelo_inurba_marseille","lat":43.24165,"lon":5.3639,"is_reserved":false,"is_disabled":false,"rental_uris":{"android":"levelo://app?vid=9fb6afbc-8b4b-4018-889d-09f7621d62cd","ios":"levelo://app?vid=9fb6afbc-8b4b-4018-889d-09f7621d62cd"},"vehicle_type_id":"4","last_reported":1738167068,"current_range_meters":20000,"station_id":"cpo36qri1sfpv3e86is0","pricing_plan_id":"cebpf4jnsgd1na2vs0mg"},{"bike_id":"c17d6db0-09a4-478c-ac21-8a3c4848aa8b","system_id":"levelo_inurba_marseille","lat":43.28409,"lon":5.37507,"is_reserved":false,"is_disabled":false,"rental_uris":{"android":"levelo://app?vid=c17d6db0-09a4-478c-ac21-8a3c4848aa8b","ios":"levelo://app?vid=c17d6db0-09a4-478c-ac21-8a3c4848aa8b"},"vehicle_type_id":"4","last_reported":1738167068,"current_range_meters":29600,"station_id":"ce4bh412rcd13ifvqds0","pricing_plan_id":"cebpf4jnsgd1na2vs0mg"},{"bike_id":"693267d0-0c3a-4d7f-8254-487806157f56","system_id":"levelo_inurba_marseille","lat":43.27322,"lon":5.39101,"is_reserved":false,"is_disabled":false,"rental_uris":{"android":"levelo://app?vid=693267d0-0c3a-4d7f-8254-487806157f56","ios":"levelo://app?vid=693267d0-0c3a-4d7f-8254-487806157f56"},"vehicle_type_id":"4","last_reported":1738167068,"current_range_meters":4400,"station_id":"ce4bhgp2rcd13ifvqfe0","pricing_plan_id":"cebpf4jnsgd1na2vs0mg"},{"bike_id":"93636cf6-1f79-4e47-ad1d-01729b80aed5","system_id":"levelo_inurba_marseille","lat":43.32539,"lon":5.41431,"is_reserved":false,"is_disabled":false,"rental_uris":{"android":"levelo://app?vid=93636cf6-1f79-4e47-ad1d-01729b80aed5","ios":"levelo://app?vid=93636cf6-1f79-4e47-ad1d-01729b80aed5"},"vehicle_type_id":"4","last_reported":1738167068,"current_range_meters":38800,"station_id":"ce4bhq12rcd13ifvqhhg","pricing_plan_id":"cebpf4jnsgd1na2vs0mg"},{"bike_id":"a99754b0-533c-4b68-ad89-42118685fbc7","system_id":"levelo_inurba_marseille","lat":43.27997,"lon":5.41665,"is_reserved":false,"is_disabled":false,"rental_uris":{"android":"levelo://app?vid=a99754b0-533c-4b68-ad89-42118685fbc7","ios":"levelo://app?vid=a99754b0-533c-4b68-ad89-42118685fbc7"},"vehicle_type_id":"4","last_reported":1738167068,"current_range_meters":24000,"station_id":"ce4bho12rcd13ifvqh1g","pricing_plan_id":"cebpf4jnsgd1na2vs0mg"},{"bike_id":"a18de11b-85b2-4093-9dbd-4a4b560b949f","system_id":"levelo_inurba_marseille","lat":43.30807,"lon":5.38161,"is_reserved":false,"is_disabled":false,"rental_uris":{"android":"levelo://app?vid=a18de11b-85b2-4093-9dbd-4a4b560b949f","ios":"levelo://app?vid=a18de11b-85b2-4093-9dbd-4a4b560b949f"},"vehicle_type_id":"4","last_reported":1738167068,"current_range_meters":14000,"station_id":"ce4bgt12rcd13ifvqce0","pricing_plan_id":"cebpf4jnsgd1na2vs0mg"},{"bike_id":"33fa8942-ed11-444f-961f-3548825ef612","system_id":"levelo_inurba_marseille","lat":43.28972,"lon":5.36376,"is_reserved":false,"is_disabled":false,"rental_uris":{"android":"levelo://app?vid=33fa8942-ed11-444f-961f-3548825ef612","ios":"levelo://app?vid=33fa8942-ed11-444f-961f-3548825ef612"},"vehicle_type_id":"4","last_reported":1738167068,"current_range_meters":37600,"station_id":"ce4bhc92rcd13ifvqetg","pricing_plan_id":"cebpf4jnsgd1na2vs0mg"},{"bike_id":"96111419-020e-4b85-8005-96ab906d2273","system_id":"levelo_inurba_marseille","lat":43.2815,"lon":5.4264,"is_reserved":false,"is_disabled":true,"rental_uris":{"android":"levelo://app?vid=96111419-020e-4b85-8005-96ab906d2273","ios":"levelo://app?vid=96111419-020e-4b85-8005-96ab906d2273"},"vehicle_type_id":"4","last_reported":1738167068,"current_range_meters":0,"station_id":"ce4bhnh2rcd13ifvqgug","pricing_plan_id":"cebpf4jnsgd1na2vs0mg"},{"bike_id":"6154358a-439a-46b5-9df8-fc726363e491","system_id":"levelo_inurba_marseille","lat":43.28872,"lon":5.38434,"is_reserved":false,"is_disabled":false,"rental_uris":{"android":"levelo://app?vid=6154358a-439a-46b5-9df8-fc726363e491","ios":"levelo://app?vid=6154358a-439a-46b5-9df8-fc726363e491"},"vehicle_type_id":"4","last_reported":1738167068,"current_range_meters":7200,"station_id":"","pricing_plan_id":"cebpf4jnsgd1na2vs0mg"},{"bike_id":"9838cc78-2b53-49d3-ae13-82df62c4fd64","system_id":"levelo_inurba_marseille","lat":43.28412,"lon":5.40934,"is_reserved":false,"is_disabled":true,"rental_uris":{"android":"levelo://app?vid=9838cc78-2b53-49d3-ae13-82df62c4fd64","ios":"levelo://app?vid=9838cc78-2b53-49d3-ae13-82df62c4fd64"},"vehicle_type_id":"4","last_reported":1738167068,"current_range_meters":0,"station_id":"","pricing_plan_id":"cebpf4jnsgd1na2vs0mg"},{"bike_id":"a765fe06-018c-4a73-898c-2082c09f528c","system_id":"levelo_inurba_marseille","lat":43.27196,"lon":5.40966,"is_reserved":false,"is_disabled":false,"rental_uris":{"android":"levelo://app?vid=a765fe06-018c-4a73-898c-2082c09f528c","ios":"levelo://app?vid=a765fe06-018c-4a73-898c-2082c09f528c"},"vehicle_type_id":"4","last_reported":1738167068,"current_range_meters":27200,"station_id":"ce4bhl12rcd13ifvqgf0","pricing_plan_id":"cebpf4jnsgd1na2vs0mg"},{"bike_id":"c01c3492-3b23-45a3-8aa8-ecd597d43db6","system_id":"levelo_inurba_marseille","lat":43.33026,"lon":5.390213,"is_reserved":false,"is_disabled":false,"rental_uris":{"android":"levelo://app?vid=c01c3492-3b23-45a3-8aa8-ecd597d43db6","ios":"levelo://app?vid=c01c3492-3b23-45a3-8aa8-ecd597d43db6"},"vehicle_type_id":"4","last_reported":1738167068,"current_range_meters":16400,"station_id":"ce4bhr92rcd13ifvqhrg","pricing_plan_id":"cebpf4jnsgd1na2vs0mg"},{"bike_id":"3d6c8d89-6889-44b0-97b4-2ab5336e329f","system_id":"levelo_inurba_marseille","lat":43.28927,"lon":5.38402,"is_reserved":false,"is_disabled":false,"rental_uris":{"android":"levelo://app?vid=3d6c8d89-6889-44b0-97b4-2ab5336e329f","ios":"levelo://app?vid=3d6c8d89-6889-44b0-97b4-2ab5336e329f"},"vehicle_type_id":"4","last_reported":1738167068,"current_range_meters":35200,"station_id":"ce4bh612rcd13ifvqe6g","pricing_plan_id":"cebpf4jnsgd1na2vs0mg"},{"bike_id":"c4b612cf-bd83-4c1a-9a6d-5ad5ed4741f9","system_id":"levelo_inurba_marseille","lat":43.2719,"lon":5.40979,"is_reserved":false,"is_disabled":false,"rental_uris":{"android":"levelo://app?vid=c4b612cf-bd83-4c1a-9a6d-5ad5ed4741f9","ios":"levelo://app?vid=c4b612cf-bd83-4c1a-9a6d-5ad5ed4741f9"},"vehicle_type_id":"4","last_reported":1738167068,"current_range_meters":38800,"station_id":"ce4bhl12rcd13ifvqgf0","pricing_plan_id":"cebpf4jnsgd1na2vs0mg"},{"bike_id":"cebc1cc3-2475-48cb-aa41-05d47858d44e","system_id":"levelo_inurba_marseille","lat":43.29897,"lon":5.43669,"is_reserved":false,"is_disabled":false,"rental_uris":{"android":"levelo://app?vid=cebc1cc3-2475-48cb-aa41-05d47858d44e","ios":"levelo://app?vid=cebc1cc3-2475-48cb-aa41-05d47858d44e"},"vehicle_type_id":"4","last_reported":1738167068,"current_range_meters":27200,"station_id":"ce4bhpp2rcd13ifvqhfg","pricing_plan_id":"cebpf4jnsgd1na2vs0mg"},{"bike_id":"d09fbc8b-1664-4bee-b0d4-ddf0f6322931","system_id":"levelo_inurba_marseille","lat":43.3055,"lon":5.365412,"is_reserved":false,"is_disabled":false,"rental_uris":{"android":"levelo://app?vid=d09fbc8b-1664-4bee-b0d4-ddf0f6322931","ios":"levelo://app?vid=d09fbc8b-1664-4bee-b0d4-ddf0f6322931"},"vehicle_type_id":"4","last_reported":1738167068,"current_range_meters":28800,"station_id":"ce4bgs12rcd13ifvqcag","pricing_plan_id":"cebpf4jnsgd1na2vs0mg"},{"bike_id":"ff5fd589-9930-4c8e-b978-2a6477df7932","system_id":"levelo_inurba_marseille","lat":43.26543,"lon":5.37309,"is_reserved":false,"is_disabled":false,"rental_uris":{"android":"levelo://app?vid=ff5fd589-9930-4c8e-b978-2a6477df7932","ios":"levelo://app?vid=ff5fd589-9930-4c8e-b978-2a6477df7932"},"vehicle_type_id":"4","last_reported":1738167068,"current_range_meters":3200,"station_id":"ce4bhg12rcd13ifvqf70","pricing_plan_id":"cebpf4jnsgd1na2vs0mg"},{"bike_id":"30d1c8f3-5300-4043-9503-c4ce7894e403","system_id":"levelo_inurba_marseille","lat":43.24173,"lon":5.39721,"is_reserved":false,"is_disabled":false,"rental_uris":{"android":"levelo://app?vid=30d1c8f3-5300-4043-9503-c4ce7894e403","ios":"levelo://app?vid=30d1c8f3-5300-4043-9503-c4ce7894e403"},"vehicle_type_id":"4","last_reported":1738167068,"current_range_meters":8400,"station_id":"ce4bhn12rcd13ifvqgpg","pricing_plan_id":"cebpf4jnsgd1na2vs0mg"},{"bike_id":"542c2176-6593-4f82-a71f-f1de3a92562f","system_id":"levelo_inurba_marseille","lat":43.22931,"lon":5.35384,"is_reserved":false,"is_disabled":false,"rental_uris":{"android":"levelo://app?vid=542c2176-6593-4f82-a71f-f1de3a92562f","ios":"levelo://app?vid=542c2176-6593-4f82-a71f-f1de3a92562f"},"vehicle_type_id":"4","last_reported":1738167068,"current_range_meters":38800,"station_id":"cpo3532slgdg3j2ikp40","pricing_plan_id":"cebpf4jnsgd1na2vs0mg"},{"bike_id":"ef9fd0be-fb1f-4586-9634-8da08c9ceb17","system_id":"levelo_inurba_marseille","lat":43.30942,"lon":5.39035,"is_reserved":false,"is_disabled":false,"rental_uris":{"android":"levelo://app?vid=ef9fd0be-fb1f-4586-9634-8da08c9ceb17","ios":"levelo://app?vid=ef9fd0be-fb1f-4586-9634-8da08c9ceb17"},"vehicle_type_id":"4","last_reported":1738167068,"current_range_meters":21600,"station_id":"ce4bgup2rcd13ifvqco0","pricing_plan_id":"cebpf4jnsgd1na2vs0mg"},{"bike_id":"ff49a996-1d94-4ab3-9b35-1ca88f8e3ce8","system_id":"levelo_inurba_marseille","lat":43.25126,"lon":5.40336,"is_reserved":false,"is_disabled":false,"rental_uris":{"android":"levelo://app?vid=ff49a996-1d94-4ab3-9b35-1ca88f8e3ce8","ios":"levelo://app?vid=ff49a996-1d94-4ab3-9b35-1ca88f8e3ce8"},"vehicle_type_id":"4","last_reported":1738167068,"current_range_meters":36000,"station_id":"ce4bhlh2rcd13ifvqgig","pricing_plan_id":"cebpf4jnsgd1na2vs0mg"},{"bike_id":"e616b313-df38-422a-b95a-06db009f6756","system_id":"levelo_inurba_marseille","lat":43.27176,"lon":5.40989,"is_reserved":false,"is_disabled":false,"rental_uris":{"android":"levelo://app?vid=e616b313-df38-422a-b95a-06db009f6756","ios":"levelo://app?vid=e616b313-df38-422a-b95a-06db009f6756"},"vehicle_type_id":"4","last_reported":1738167068,"current_range_meters":9600,"station_id":"ce4bhl12rcd13ifvqgf0","pricing_plan_id":"cebpf4jnsgd1na2vs0mg"},{"bike_id":"d979d8d2-ec65-47af-9229-e4270aab279a","system_id":"levelo_inurba_marseille","lat":43.23023,"lon":5.35523,"is_reserved":false,"is_disabled":false,"rental_uris":{"android":"levelo://app?vid=d979d8d2-ec65-47af-9229-e4270aab279a","ios":"levelo://app?vid=d979d8d2-ec65-47af-9229-e4270aab279a"},"vehicle_type_id":"4","last_reported":1738167068,"current_range_meters":18000,"station_id":"cpo3342slgdg3j2ifvpg","pricing_plan_id":"cebpf4jnsgd1na2vs0mg"},{"bike_id":"beec82ff-6bac-4064-befa-4bdf4421761b","system_id":"levelo_inurba_marseille","lat":43.31728,"lon":5.42405,"is_reserved":false,"is_disabled":false,"rental_uris":{"android":"levelo://app?vid=beec82ff-6bac-4064-befa-4bdf4421761b","ios":"levelo://app?vid=beec82ff-6bac-4064-befa-4bdf4421761b"},"vehicle_type_id":"4","last_reported":1738167068,"current_range_meters":35200,"station_id":"ce4bhp92rcd13ifvqhbg","pricing_plan_id":"cebpf4jnsgd1na2vs0mg"},{"bike_id":"aec583a2-45af-40e8-a122-88c6ef8524d3","system_id":"levelo_inurba_marseille","lat":43.29617,"lon":5.37157,"is_reserved":false,"is_disabled":true,"rental_uris":{"android":"levelo://app?vid=aec583a2-45af-40e8-a122-88c6ef8524d3","ios":"levelo://app?vid=aec583a2-45af-40e8-a122-88c6ef8524d3"},"vehicle_type_id":"4","last_reported":1738167068,"current_range_meters":0,"station_id":"ce4bgnh2rcd13ifvqc0g","pricing_plan_id":"cebpf4jnsgd1na2vs0mg"},{"bike_id":"775bb6e9-5b80-4fc9-8781-a0f0c4e11df4","system_id":"levelo_inurba_marseille","lat":43.30554,"lon":5.36547,"is_reserved":false,"is_disabled":true,"rental_uris":{"android":"levelo://app?vid=775bb6e9-5b80-4fc9-8781-a0f0c4e11df4","ios":"levelo://app?vid=775bb6e9-5b80-4fc9-8781-a0f0c4e11df4"},"vehicle_type_id":"4","last_reported":1738167068,"current_range_meters":1200,"station_id":"ce4bgs12rcd13ifvqcag","pricing_plan_id":"cebpf4jnsgd1na2vs0mg"},{"bike_id":"a12460e5-ac14-4bf6-bb58-e47f6b7def4d","system_id":"levelo_inurba_marseille","lat":43.31768,"lon":5.39015,"is_reserved":false,"is_disabled":false,"rental_uris":{"android":"levelo://app?vid=a12460e5-ac14-4bf6-bb58-e47f6b7def4d","ios":"levelo://app?vid=a12460e5-ac14-4bf6-bb58-e47f6b7def4d"},"vehicle_type_id":"4","last_reported":1738167068,"current_range_meters":28000,"station_id":"ce4bhqp2rcd13ifvqhng","pricing_plan_id":"cebpf4jnsgd1na2vs0mg"},{"bike_id":"f2e1f0af-7edd-4aa6-8583-a898c55ade83","system_id":"levelo_inurba_marseille","lat":43.29624,"lon":5.37719,"is_reserved":false,"is_disabled":false,"rental_uris":{"android":"levelo://app?vid=f2e1f0af-7edd-4aa6-8583-a898c55ade83","ios":"levelo://app?vid=f2e1f0af-7edd-4aa6-8583-a898c55ade83"},"vehicle_type_id":"4","last_reported":1738167068,"current_range_meters":6000,"station_id":"ce4bgi92rcd13ifvqb90","pricing_plan_id":"cebpf4jnsgd1na2vs0mg"},{"bike_id":"515b2309-2b67-49d8-80b9-07aa6837d4e4","system_id":"levelo_inurba_marseille","lat":43.26451,"lon":5.39619,"is_reserved":false,"is_disabled":false,"rental_uris":{"android":"levelo://app?vid=515b2309-2b67-49d8-80b9-07aa6837d4e4","ios":"levelo://app?vid=515b2309-2b67-49d8-80b9-07aa6837d4e4"},"vehicle_type_id":"4","last_reported":1738167068,"current_range_meters":38800,"station_id":"","pricing_plan_id":"cebpf4jnsgd1na2vs0mg"},{"bike_id":"c8b36cbd-3864-4855-ab22-85cdc7c04a09","system_id":"levelo_inurba_marseille","lat":43.249611,"lon":5.37508,"is_reserved":false,"is_disabled":false,"rental_uris":{"android":"levelo://app?vid=c8b36cbd-3864-4855-ab22-85cdc7c04a09","ios":"levelo://app?vid=c8b36cbd-3864-4855-ab22-85cdc7c04a09"},"vehicle_type_id":"4","last_reported":1738167068,"current_range_meters":13600,"station_id":"ce4bhhh2rcd13ifvqfk0","pricing_plan_id":"cebpf4jnsgd1na2vs0mg"},{"bike_id":"a7fa174b-9e7a-480f-96ea-d7b68ff91040","system_id":"levelo_inurba_marseille","lat":43.29971,"lon":5.38495,"is_reserved":false,"is_disabled":true,"rental_uris":{"android":"levelo://app?vid=a7fa174b-9e7a-480f-96ea-d7b68ff91040","ios":"levelo://app?vid=a7fa174b-9e7a-480f-96ea-d7b68ff91040"},"vehicle_type_id":"4","last_reported":1738167068,"current_range_meters":34000,"station_id":"ce4bgj92rcd13ifvqbd0","pricing_plan_id":"cebpf4jnsgd1na2vs0mg"},{"bike_id":"d8b1c3f9-ff6e-4179-8423-4ba0d2a2af0e","system_id":"levelo_inurba_marseille","lat":43.33696,"lon":5.39206,"is_reserved":false,"is_disabled":false,"rental_uris":{"android":"levelo://app?vid=d8b1c3f9-ff6e-4179-8423-4ba0d2a2af0e","ios":"levelo://app?vid=d8b1c3f9-ff6e-4179-8423-4ba0d2a2af0e"},"vehicle_type_id":"4","last_reported":1738167068,"current_range_meters":38800,"station_id":"ce4bhr92rcd13ifvqhsg","pricing_plan_id":"cebpf4jnsgd1na2vs0mg"},{"bike_id":"42d87150-9c0e-420b-919d-c5d7697d840c","system_id":"levelo_inurba_marseille","lat":43.330285,"lon":5.390345,"is_reserved":false,"is_disabled":false,"rental_uris":{"android":"levelo://app?vid=42d87150-9c0e-420b-919d-c5d7697d840c","ios":"levelo://app?vid=42d87150-9c0e-420b-919d-c5d7697d840c"},"vehicle_type_id":"4","last_reported":1738167068,"current_range_meters":37600,"station_id":"ce4bhr92rcd13ifvqhrg","pricing_plan_id":"cebpf4jnsgd1na2vs0mg"},{"bike_id":"91394c05-5d2c-4802-8f5f-6f60929bbe7d","system_id":"levelo_inurba_marseille","lat":43.26824,"lon":5.3946,"is_reserved":false,"is_disabled":false,"rental_uris":{"android":"levelo://app?vid=91394c05-5d2c-4802-8f5f-6f60929bbe7d","ios":"levelo://app?vid=91394c05-5d2c-4802-8f5f-6f60929bbe7d"},"vehicle_type_id":"4","last_reported":1738167068,"current_range_meters":36800,"station_id":"ce4bhh12rcd13ifvqfg0","pricing_plan_id":"cebpf4jnsgd1na2vs0mg"},{"bike_id":"05a87480-f5ed-46e6-b3e3-da7d1b3a8d2f","system_id":"levelo_inurba_marseille","lat":43.29912,"lon":5.38149,"is_reserved":false,"is_disabled":false,"rental_uris":{"android":"levelo://app?vid=05a87480-f5ed-46e6-b3e3-da7d1b3a8d2f","ios":"levelo://app?vid=05a87480-f5ed-46e6-b3e3-da7d1b3a8d2f"},"vehicle_type_id":"4","last_reported":1738167068,"current_range_meters":26800,"station_id":"ce4bgj12rcd13ifvqbc0","pricing_plan_id":"cebpf4jnsgd1na2vs0mg"},{"bike_id":"f4dd74a9-a4e1-4171-8564-2f3d5f39ace6","system_id":"levelo_inurba_marseille","lat":43.27818,"lon":5.4068,"is_reserved":false,"is_disabled":false,"rental_uris":{"android":"levelo://app?vid=f4dd74a9-a4e1-4171-8564-2f3d5f39ace6","ios":"levelo://app?vid=f4dd74a9-a4e1-4171-8564-2f3d5f39ace6"},"vehicle_type_id":"4","last_reported":1738167068,"current_range_meters":36400,"station_id":"ce4bhnh2rcd13ifvqgtg","pricing_plan_id":"cebpf4jnsgd1na2vs0mg"},{"bike_id":"3bcf24e5-b5ba-45f7-b35a-419ddd7a3763","system_id":"levelo_inurba_marseille","lat":43.28939,"lon":5.36401,"is_reserved":false,"is_disabled":false,"rental_uris":{"android":"levelo://app?vid=3bcf24e5-b5ba-45f7-b35a-419ddd7a3763","ios":"levelo://app?vid=3bcf24e5-b5ba-45f7-b35a-419ddd7a3763"},"vehicle_type_id":"4","last_reported":1738167068,"current_range_meters":24400,"station_id":"ce4bhc92rcd13ifvqetg","pricing_plan_id":"cebpf4jnsgd1na2vs0mg"},{"bike_id":"3c9c9088-9c27-4609-bc62-8218c0dc2be8","system_id":"levelo_inurba_marseille","lat":43.23197,"lon":5.35546,"is_reserved":false,"is_disabled":false,"rental_uris":{"android":"levelo://app?vid=3c9c9088-9c27-4609-bc62-8218c0dc2be8","ios":"levelo://app?vid=3c9c9088-9c27-4609-bc62-8218c0dc2be8"},"vehicle_type_id":"4","last_reported":1738167068,"current_range_meters":38800,"station_id":"ce4bhu92rcd13ifvqi70","pricing_plan_id":"cebpf4jnsgd1na2vs0mg"},{"bike_id":"0016f63d-7d96-4430-8408-3bc47c1e91c5","system_id":"levelo_inurba_marseille","lat":43.31325,"lon":5.39696,"is_reserved":false,"is_disabled":false,"rental_uris":{"android":"levelo://app?vid=0016f63d-7d96-4430-8408-3bc47c1e91c5","ios":"levelo://app?vid=0016f63d-7d96-4430-8408-3bc47c1e91c5"},"vehicle_type_id":"4","last_reported":1738167068,"current_range_meters":16800,"station_id":"ce4bgvp2rcd13ifvqcu0","pricing_plan_id":"cebpf4jnsgd1na2vs0mg"},{"bike_id":"d39706cf-4521-445c-b3de-d2f0addf77b2","system_id":"levelo_inurba_marseille","lat":43.27993,"lon":5.41669,"is_reserved":false,"is_disabled":false,"rental_uris":{"android":"levelo://app?vid=d39706cf-4521-445c-b3de-d2f0addf77b2","ios":"levelo://app?vid=d39706cf-4521-445c-b3de-d2f0addf77b2"},"vehicle_type_id":"4","last_reported":1738167068,"current_range_meters":35200,"station_id":"ce4bho12rcd13ifvqh1g","pricing_plan_id":"cebpf4jnsgd1na2vs0mg"},{"bike_id":"93c099cf-b51e-4356-b98b-9baefe90a739","system_id":"levelo_inurba_marseille","lat":43.29564,"lon":5.3997,"is_reserved":false,"is_disabled":true,"rental_uris":{"android":"levelo://app?vid=93c099cf-b51e-4356-b98b-9baefe90a739","ios":"levelo://app?vid=93c099cf-b51e-4356-b98b-9baefe90a739"},"vehicle_type_id":"4","last_reported":1738167068,"current_range_meters":0,"station_id":"ce4bh312rcd13ifvqdj0","pricing_plan_id":"cebpf4jnsgd1na2vs0mg"},{"bike_id":"53fa82d1-eb43-4e19-8ac1-1347a372b80a","system_id":"levelo_inurba_marseille","lat":43.25842,"lon":5.39907,"is_reserved":false,"is_disabled":false,"rental_uris":{"android":"levelo://app?vid=53fa82d1-eb43-4e19-8ac1-1347a372b80a","ios":"levelo://app?vid=53fa82d1-eb43-4e19-8ac1-1347a372b80a"},"vehicle_type_id":"4","last_reported":1738167068,"current_range_meters":34000,"station_id":"ce4bhl92rcd13ifvqghg","pricing_plan_id":"cebpf4jnsgd1na2vs0mg"},{"bike_id":"684d9683-ae51-473c-b687-84d92f8716cd","system_id":"levelo_inurba_marseille","lat":43.33755,"lon":5.39111,"is_reserved":false,"is_disabled":false,"rental_uris":{"android":"levelo://app?vid=684d9683-ae51-473c-b687-84d92f8716cd","ios":"levelo://app?vid=684d9683-ae51-473c-b687-84d92f8716cd"},"vehicle_type_id":"4","last_reported":1738167068,"current_range_meters":30000,"station_id":"ce4bhr92rcd13ifvqhsg","pricing_plan_id":"cebpf4jnsgd1na2vs0mg"},{"bike_id":"cb1cb754-bf9c-4123-8443-bd07f90b1d49","system_id":"levelo_inurba_marseille","lat":43.27901,"lon":5.38016,"is_reserved":false,"is_disabled":false,"rental_uris":{"android":"levelo://app?vid=cb1cb754-bf9c-4123-8443-bd07f90b1d49","ios":"levelo://app?vid=cb1cb754-bf9c-4123-8443-bd07f90b1d49"},"vehicle_type_id":"4","last_reported":1738167068,"current_range_meters":36000,"station_id":"ce4bhf92rcd13ifvqf50","pricing_plan_id":"cebpf4jnsgd1na2vs0mg"},{"bike_id":"18840f5f-fe55-4b34-a6dd-48bd270f3c85","system_id":"levelo_inurba_marseille","lat":43.25106,"lon":5.40321,"is_reserved":false,"is_disabled":false,"rental_uris":{"android":"levelo://app?vid=18840f5f-fe55-4b34-a6dd-48bd270f3c85","ios":"levelo://app?vid=18840f5f-fe55-4b34-a6dd-48bd270f3c85"},"vehicle_type_id":"4","last_reported":1738167068,"current_range_meters":16800,"station_id":"ce4bhlh2rcd13ifvqgig","pricing_plan_id":"cebpf4jnsgd1na2vs0mg"},{"bike_id":"e7da3827-f333-45ae-91e3-0f9d159cfec9","system_id":"levelo_inurba_marseille","lat":43.29217,"lon":5.36027,"is_reserved":false,"is_disabled":false,"rental_uris":{"android":"levelo://app?vid=e7da3827-f333-45ae-91e3-0f9d159cfec9","ios":"levelo://app?vid=e7da3827-f333-45ae-91e3-0f9d159cfec9"},"vehicle_type_id":"4","last_reported":1738167068,"current_range_meters":28000,"station_id":"ce4bhbh2rcd13ifvqeqg","pricing_plan_id":"cebpf4jnsgd1na2vs0mg"},{"bike_id":"7427c665-2cc8-4882-8959-647a0d86024a","system_id":"levelo_inurba_marseille","lat":43.30345,"lon":5.41887,"is_reserved":false,"is_disabled":false,"rental_uris":{"android":"levelo://app?vid=7427c665-2cc8-4882-8959-647a0d86024a","ios":"levelo://app?vid=7427c665-2cc8-4882-8959-647a0d86024a"},"vehicle_type_id":"4","last_reported":1738167068,"current_range_meters":38800,"station_id":"ce4bhop2rcd13ifvqh7g","pricing_plan_id":"cebpf4jnsgd1na2vs0mg"},{"bike_id":"3bebacc3-fff0-40d6-aaf0-78a532b4447f","system_id":"levelo_inurba_marseille","lat":43.30547,"lon":5.36532,"is_reserved":false,"is_disabled":false,"rental_uris":{"android":"levelo://app?vid=3bebacc3-fff0-40d6-aaf0-78a532b4447f","ios":"levelo://app?vid=3bebacc3-fff0-40d6-aaf0-78a532b4447f"},"vehicle_type_id":"4","last_reported":1738167068,"current_range_meters":24800,"station_id":"ce4bgs12rcd13ifvqcag","pricing_plan_id":"cebpf4jnsgd1na2vs0mg"},{"bike_id":"53d46465-1c69-4274-9bb5-d6a4feb5e603","system_id":"levelo_inurba_marseille","lat":43.31385,"lon":5.36702,"is_reserved":false,"is_disabled":false,"rental_uris":{"android":"levelo://app?vid=53d46465-1c69-4274-9bb5-d6a4feb5e603","ios":"levelo://app?vid=53d46465-1c69-4274-9bb5-d6a4feb5e603"},"vehicle_type_id":"4","last_reported":1738167068,"current_range_meters":38800,"station_id":"ce4bgr92rcd13ifvqc6g","pricing_plan_id":"cebpf4jnsgd1na2vs0mg"},{"bike_id":"771b624c-8e9b-46e4-9f22-9a39986a9e20","system_id":"levelo_inurba_marseille","lat":43.30335,"lon":5.40368,"is_reserved":false,"is_disabled":false,"rental_uris":{"android":"levelo://app?vid=771b624c-8e9b-46e4-9f22-9a39986a9e20","ios":"levelo://app?vid=771b624c-8e9b-46e4-9f22-9a39986a9e20"},"vehicle_type_id":"4","last_reported":1738167068,"current_range_meters":16400,"station_id":"ce4bh012rcd13ifvqd10","pricing_plan_id":"cebpf4jnsgd1na2vs0mg"},{"bike_id":"aac2d971-8bd1-4c3a-8cf1-653402c81c6d","system_id":"levelo_inurba_marseille","lat":43.27612,"lon":5.36108,"is_reserved":false,"is_disabled":false,"rental_uris":{"android":"levelo://app?vid=aac2d971-8bd1-4c3a-8cf1-653402c81c6d","ios":"levelo://app?vid=aac2d971-8bd1-4c3a-8cf1-653402c81c6d"},"vehicle_type_id":"4","last_reported":1738167068,"current_range_meters":38800,"station_id":"ce4bgj92rcd13ifvqbe0","pricing_plan_id":"cebpf4jnsgd1na2vs0mg"},{"bike_id":"c5eb7cd5-a440-44e5-a8d6-429e35c11ba4","system_id":"levelo_inurba_marseille","lat":43.29568,"lon":5.39982,"is_reserved":false,"is_disabled":false,"rental_uris":{"android":"levelo://app?vid=c5eb7cd5-a440-44e5-a8d6-429e35c11ba4","ios":"levelo://app?vid=c5eb7cd5-a440-44e5-a8d6-429e35c11ba4"},"vehicle_type_id":"4","last_reported":1738167068,"current_range_meters":6400,"station_id":"ce4bh312rcd13ifvqdj0","pricing_plan_id":"cebpf4jnsgd1na2vs0mg"},{"bike_id":"ab2c796a-c23b-4a3a-9534-777b873d6a05","system_id":"levelo_inurba_marseille","lat":43.24181,"lon":5.36373,"is_reserved":false,"is_disabled":false,"rental_uris":{"android":"levelo://app?vid=ab2c796a-c23b-4a3a-9534-777b873d6a05","ios":"levelo://app?vid=ab2c796a-c23b-4a3a-9534-777b873d6a05"},"vehicle_type_id":"4","last_reported":1738167068,"current_range_meters":16000,"station_id":"cpo36qri1sfpv3e86is0","pricing_plan_id":"cebpf4jnsgd1na2vs0mg"},{"bike_id":"c27f2729-83ba-401f-91fe-b437130e32a6","system_id":"levelo_inurba_marseille","lat":43.29615,"lon":5.38086,"is_reserved":false,"is_disabled":false,"rental_uris":{"android":"levelo://app?vid=c27f2729-83ba-401f-91fe-b437130e32a6","ios":"levelo://app?vid=c27f2729-83ba-401f-91fe-b437130e32a6"},"vehicle_type_id":"4","last_reported":1738167068,"current_range_meters":36000,"station_id":"ce4bgl12rcd13ifvqbo0","pricing_plan_id":"cebpf4jnsgd1na2vs0mg"},{"bike_id":"cb8337e2-b608-459b-8dc0-123502081dce","system_id":"levelo_inurba_marseille","lat":43.30153,"lon":5.38092,"is_reserved":false,"is_disabled":false,"rental_uris":{"android":"levelo://app?vid=cb8337e2-b608-459b-8dc0-123502081dce","ios":"levelo://app?vid=cb8337e2-b608-459b-8dc0-123502081dce"},"vehicle_type_id":"4","last_reported":1738167068,"current_range_meters":36400,"station_id":"ce4bgjp2rcd13ifvqbh0","pricing_plan_id":"cebpf4jnsgd1na2vs0mg"},{"bike_id":"e17bae85-ac7a-4f85-afe6-b25e8db02192","system_id":"levelo_inurba_marseille","lat":43.31729,"lon":5.42393,"is_reserved":false,"is_disabled":false,"rental_uris":{"android":"levelo://app?vid=e17bae85-ac7a-4f85-afe6-b25e8db02192","ios":"levelo://app?vid=e17bae85-ac7a-4f85-afe6-b25e8db02192"},"vehicle_type_id":"4","last_reported":1738167068,"current_range_meters":38000,"station_id":"ce4bhp92rcd13ifvqhbg","pricing_plan_id":"cebpf4jnsgd1na2vs0mg"},{"bike_id":"d6411d20-985e-47d1-8ebb-17c259248b16","system_id":"levelo_inurba_marseille","lat":43.29032,"lon":5.38137,"is_reserved":false,"is_disabled":false,"rental_uris":{"android":"levelo://app?vid=d6411d20-985e-47d1-8ebb-17c259248b16","ios":"levelo://app?vid=d6411d20-985e-47d1-8ebb-17c259248b16"},"vehicle_type_id":"4","last_reported":1738167068,"current_range_meters":8400,"station_id":"ce4bh4p2rcd13ifvqe1g","pricing_plan_id":"cebpf4jnsgd1na2vs0mg"},{"bike_id":"b0dd7760-1104-4663-adc9-a25324e5af1a","system_id":"levelo_inurba_marseille","lat":43.25496,"lon":5.39415,"is_reserved":false,"is_disabled":false,"rental_uris":{"android":"levelo://app?vid=b0dd7760-1104-4663-adc9-a25324e5af1a","ios":"levelo://app?vid=b0dd7760-1104-4663-adc9-a25324e5af1a"},"vehicle_type_id":"4","last_reported":1738167068,"current_range_meters":8000,"station_id":"ce4bh2h2rcd13ifvqdh0","pricing_plan_id":"cebpf4jnsgd1na2vs0mg"},{"bike_id":"f0f07e84-01c4-443b-852b-4e00b882c1d8","system_id":"levelo_inurba_marseille","lat":43.30797,"lon":5.43537,"is_reserved":false,"is_disabled":false,"rental_uris":{"android":"levelo://app?vid=f0f07e84-01c4-443b-852b-4e00b882c1d8","ios":"levelo://app?vid=f0f07e84-01c4-443b-852b-4e00b882c1d8"},"vehicle_type_id":"4","last_reported":1738167068,"current_range_meters":38800,"station_id":"ce4bhph2rcd13ifvqheg","pricing_plan_id":"cebpf4jnsgd1na2vs0mg"},{"bike_id":"c2566f0a-ab1a-46f7-bfff-23600ba4bedb","system_id":"levelo_inurba_marseille","lat":43.30248,"lon":5.40069,"is_reserved":false,"is_disabled":false,"rental_uris":{"android":"levelo://app?vid=c2566f0a-ab1a-46f7-bfff-23600ba4bedb","ios":"levelo://app?vid=c2566f0a-ab1a-46f7-bfff-23600ba4bedb"},"vehicle_type_id":"4","last_reported":1738167068,"current_range_meters":24800,"station_id":"ce4bgvh2rcd13ifvqcs0","pricing_plan_id":"cebpf4jnsgd1na2vs0mg"},{"bike_id":"4e331cde-9b58-436f-9288-d266e9017c62","system_id":"levelo_inurba_marseille","lat":43.24167,"lon":5.39727,"is_reserved":false,"is_disabled":false,"rental_uris":{"android":"levelo://app?vid=4e331cde-9b58-436f-9288-d266e9017c62","ios":"levelo://app?vid=4e331cde-9b58-436f-9288-d266e9017c62"},"vehicle_type_id":"4","last_reported":1738167068,"current_range_meters":10800,"station_id":"ce4bhn12rcd13ifvqgpg","pricing_plan_id":"cebpf4jnsgd1na2vs0mg"},{"bike_id":"3afe2907-14fe-40b0-8ce8-247215ed16c8","system_id":"levelo_inurba_marseille","lat":43.26945,"lon":5.38926,"is_reserved":false,"is_disabled":true,"rental_uris":{"android":"levelo://app?vid=3afe2907-14fe-40b0-8ce8-247215ed16c8","ios":"levelo://app?vid=3afe2907-14fe-40b0-8ce8-247215ed16c8"},"vehicle_type_id":"4","last_reported":1738167068,"current_range_meters":4000,"station_id":"ce4bhhh2rcd13ifvqfl0","pricing_plan_id":"cebpf4jnsgd1na2vs0mg"},{"bike_id":"e8e1f7c6-d773-4c38-bfcc-4a6d773355ce","system_id":"levelo_inurba_marseille","lat":43.22935,"lon":5.35376,"is_reserved":false,"is_disabled":false,"rental_uris":{"android":"levelo://app?vid=e8e1f7c6-d773-4c38-bfcc-4a6d773355ce","ios":"levelo://app?vid=e8e1f7c6-d773-4c38-bfcc-4a6d773355ce"},"vehicle_type_id":"4","last_reported":1738167068,"current_range_meters":38800,"station_id":"cpo3532slgdg3j2ikp40","pricing_plan_id":"cebpf4jnsgd1na2vs0mg"},{"bike_id":"f0ed3e26-8dad-4678-bee9-f6903412b754","system_id":"levelo_inurba_marseille","lat":43.28113,"lon":5.37833,"is_reserved":false,"is_disabled":false,"rental_uris":{"android":"levelo://app?vid=f0ed3e26-8dad-4678-bee9-f6903412b754","ios":"levelo://app?vid=f0ed3e26-8dad-4678-bee9-f6903412b754"},"vehicle_type_id":"4","last_reported":1738167068,"current_range_meters":37600,"station_id":"ce4bha12rcd13ifvqee0","pricing_plan_id":"cebpf4jnsgd1na2vs0mg"},{"bike_id":"89912b16-d597-4986-94f3-4eb50fdfeaf0","system_id":"levelo_inurba_marseille","lat":43.30439,"lon":5.38901,"is_reserved":false,"is_disabled":false,"rental_uris":{"android":"levelo://app?vid=89912b16-d597-4986-94f3-4eb50fdfeaf0","ios":"levelo://app?vid=89912b16-d597-4986-94f3-4eb50fdfeaf0"},"vehicle_type_id":"4","last_reported":1738167068,"current_range_meters":2800,"station_id":"ce4bgk12rcd13ifvqbi0","pricing_plan_id":"cebpf4jnsgd1na2vs0mg"},{"bike_id":"9f2a6170-d1e0-43fc-bb6c-d14864625bf3","system_id":"levelo_inurba_marseille","lat":43.29705,"lon":5.37694,"is_reserved":false,"is_disabled":false,"rental_uris":{"android":"levelo://app?vid=9f2a6170-d1e0-43fc-bb6c-d14864625bf3","ios":"levelo://app?vid=9f2a6170-d1e0-43fc-bb6c-d14864625bf3"},"vehicle_type_id":"4","last_reported":1738167068,"current_range_meters":30000,"station_id":"ce4bgkh2rcd13ifvqbl0","pricing_plan_id":"cebpf4jnsgd1na2vs0mg"},{"bike_id":"b9c67b31-5b70-486d-ab63-ac678ea85199","system_id":"levelo_inurba_marseille","lat":43.26192,"lon":5.37447,"is_reserved":false,"is_disabled":false,"rental_uris":{"android":"levelo://app?vid=b9c67b31-5b70-486d-ab63-ac678ea85199","ios":"levelo://app?vid=b9c67b31-5b70-486d-ab63-ac678ea85199"},"vehicle_type_id":"4","last_reported":1738167068,"current_range_meters":23200,"station_id":"ce4bhgp2rcd13ifvqfc0","pricing_plan_id":"cebpf4jnsgd1na2vs0mg"},{"bike_id":"4301504e-f221-477d-b3fb-49ed9ef2488d","system_id":"levelo_inurba_marseille","lat":43.28461,"lon":5.35894,"is_reserved":false,"is_disabled":false,"rental_uris":{"android":"levelo://app?vid=4301504e-f221-477d-b3fb-49ed9ef2488d","ios":"levelo://app?vid=4301504e-f221-477d-b3fb-49ed9ef2488d"},"vehicle_type_id":"4","last_reported":1738167068,"current_range_meters":30000,"station_id":"ce4bhah2rcd13ifvqei0","pricing_plan_id":"cebpf4jnsgd1na2vs0mg"},{"bike_id":"b7b2d640-56eb-4aeb-bf82-415ca54187d4","system_id":"levelo_inurba_marseille","lat":43.27235,"lon":5.39202,"is_reserved":false,"is_disabled":false,"rental_uris":{"android":"levelo://app?vid=b7b2d640-56eb-4aeb-bf82-415ca54187d4","ios":"levelo://app?vid=b7b2d640-56eb-4aeb-bf82-415ca54187d4"},"vehicle_type_id":"4","last_reported":1738167068,"current_range_meters":38800,"station_id":"ce4bhhp2rcd13ifvqfm0","pricing_plan_id":"cebpf4jnsgd1na2vs0mg"},{"bike_id":"0130004a-3cb1-40d0-852c-ac344ef2588c","system_id":"levelo_inurba_marseille","lat":43.26936,"lon":5.4025,"is_reserved":false,"is_disabled":false,"rental_uris":{"android":"levelo://app?vid=0130004a-3cb1-40d0-852c-ac344ef2588c","ios":"levelo://app?vid=0130004a-3cb1-40d0-852c-ac344ef2588c"},"vehicle_type_id":"4","last_reported":1738167068,"current_range_meters":36800,"station_id":"cjm6bp8fraef2m0cb0m0","pricing_plan_id":"cebpf4jnsgd1na2vs0mg"},{"bike_id":"b44e55cf-bb88-4765-93bb-b3366d96aec2","system_id":"levelo_inurba_marseille","lat":43.27371,"lon":5.36251,"is_reserved":false,"is_disabled":false,"rental_uris":{"android":"levelo://app?vid=b44e55cf-bb88-4765-93bb-b3366d96aec2","ios":"levelo://app?vid=b44e55cf-bb88-4765-93bb-b3366d96aec2"},"vehicle_type_id":"4","last_reported":1738167068,"current_range_meters":38800,"station_id":"ce4bhbh2rcd13ifvqeo0","pricing_plan_id":"cebpf4jnsgd1na2vs0mg"},{"bike_id":"dd195832-ff3f-4763-a260-74003ef7ff4c","system_id":"levelo_inurba_marseille","lat":43.29217,"lon":5.36049,"is_reserved":false,"is_disabled":false,"rental_uris":{"android":"levelo://app?vid=dd195832-ff3f-4763-a260-74003ef7ff4c","ios":"levelo://app?vid=dd195832-ff3f-4763-a260-74003ef7ff4c"},"vehicle_type_id":"4","last_reported":1738167068,"current_range_meters":33200,"station_id":"ce4bhbh2rcd13ifvqeqg","pricing_plan_id":"cebpf4jnsgd1na2vs0mg"},{"bike_id":"90e4f7fe-f8df-48d8-a322-dceedd2c6521","system_id":"levelo_inurba_marseille","lat":43.28699,"lon":5.37399,"is_reserved":false,"is_disabled":false,"rental_uris":{"android":"levelo://app?vid=90e4f7fe-f8df-48d8-a322-dceedd2c6521","ios":"levelo://app?vid=90e4f7fe-f8df-48d8-a322-dceedd2c6521"},"vehicle_type_id":"4","last_reported":1738167068,"current_range_meters":38800,"station_id":"ce4bh3p2rcd13ifvqdq0","pricing_plan_id":"cebpf4jnsgd1na2vs0mg"},{"bike_id":"7883a5f1-f3ad-457d-b1d5-9c27364a453a","system_id":"levelo_inurba_marseille","lat":43.31163,"lon":5.38716,"is_reserved":false,"is_disabled":false,"rental_uris":{"android":"levelo://app?vid=7883a5f1-f3ad-457d-b1d5-9c27364a453a","ios":"levelo://app?vid=7883a5f1-f3ad-457d-b1d5-9c27364a453a"},"vehicle_type_id":"4","last_reported":1738167068,"current_range_meters":14400,"station_id":"ce4bgv12rcd13ifvqcp0","pricing_plan_id":"cebpf4jnsgd1na2vs0mg"},{"bike_id":"c1d1ce73-8f8f-42c4-8303-66858ad4f592","system_id":"levelo_inurba_marseille","lat":43.27516,"lon":5.42463,"is_reserved":false,"is_disabled":true,"rental_uris":{"android":"levelo://app?vid=c1d1ce73-8f8f-42c4-8303-66858ad4f592","ios":"levelo://app?vid=c1d1ce73-8f8f-42c4-8303-66858ad4f592"},"vehicle_type_id":"4","last_reported":1738167068,"current_range_meters":27600,"station_id":"ce4bhn92rcd13ifvqgrg","pricing_plan_id":"cebpf4jnsgd1na2vs0mg"},{"bike_id":"47f5f540-363f-4a14-a840-974faa5229cb","system_id":"levelo_inurba_marseille","lat":43.28928,"lon":5.38408,"is_reserved":false,"is_disabled":false,"rental_uris":{"android":"levelo://app?vid=47f5f540-363f-4a14-a840-974faa5229cb","ios":"levelo://app?vid=47f5f540-363f-4a14-a840-974faa5229cb"},"vehicle_type_id":"4","last_reported":1738167068,"current_range_meters":11600,"station_id":"ce4bh612rcd13ifvqe6g","pricing_plan_id":"cebpf4jnsgd1na2vs0mg"},{"bike_id":"71f34f72-d3b7-46a5-9bd4-1fe057b3152f","system_id":"levelo_inurba_marseille","lat":43.22945,"lon":5.35367,"is_reserved":false,"is_disabled":false,"rental_uris":{"android":"levelo://app?vid=71f34f72-d3b7-46a5-9bd4-1fe057b3152f","ios":"levelo://app?vid=71f34f72-d3b7-46a5-9bd4-1fe057b3152f"},"vehicle_type_id":"4","last_reported":1738167068,"current_range_meters":38800,"station_id":"cpo3532slgdg3j2ikp40","pricing_plan_id":"cebpf4jnsgd1na2vs0mg"},{"bike_id":"20029bdd-9f9c-4ff9-86e4-5ba6ed30f46a","system_id":"levelo_inurba_marseille","lat":43.23161,"lon":5.4372,"is_reserved":false,"is_disabled":true,"rental_uris":{"android":"levelo://app?vid=20029bdd-9f9c-4ff9-86e4-5ba6ed30f46a","ios":"levelo://app?vid=20029bdd-9f9c-4ff9-86e4-5ba6ed30f46a"},"vehicle_type_id":"4","last_reported":1738167068,"current_range_meters":0,"station_id":"ce4bhmp2rcd13ifvqgog","pricing_plan_id":"cebpf4jnsgd1na2vs0mg"},{"bike_id":"b422b296-01a0-4da8-bee4-7a2cfbb92b89","system_id":"levelo_inurba_marseille","lat":43.31274,"lon":5.40177,"is_reserved":false,"is_disabled":true,"rental_uris":{"android":"levelo://app?vid=b422b296-01a0-4da8-bee4-7a2cfbb92b89","ios":"levelo://app?vid=b422b296-01a0-4da8-bee4-7a2cfbb92b89"},"vehicle_type_id":"4","last_reported":1738167068,"current_range_meters":400,"station_id":"ce4bh092rcd13ifvqd30","pricing_plan_id":"cebpf4jnsgd1na2vs0mg"},{"bike_id":"ecf6e76f-5faa-4cd6-aaac-ee69b01d2a2c","system_id":"levelo_inurba_marseille","lat":43.2619,"lon":5.37445,"is_reserved":false,"is_disabled":false,"rental_uris":{"android":"levelo://app?vid=ecf6e76f-5faa-4cd6-aaac-ee69b01d2a2c","ios":"levelo://app?vid=ecf6e76f-5faa-4cd6-aaac-ee69b01d2a2c"},"vehicle_type_id":"4","last_reported":1738167068,"current_range_meters":38800,"station_id":"ce4bhgp2rcd13ifvqfc0","pricing_plan_id":"cebpf4jnsgd1na2vs0mg"},{"bike_id":"46f1f77e-98b6-4ba2-a396-1e36c4b255d1","system_id":"levelo_inurba_marseille","lat":43.2811,"lon":5.37829,"is_reserved":false,"is_disabled":false,"rental_uris":{"android":"levelo://app?vid=46f1f77e-98b6-4ba2-a396-1e36c4b255d1","ios":"levelo://app?vid=46f1f77e-98b6-4ba2-a396-1e36c4b255d1"},"vehicle_type_id":"4","last_reported":1738167068,"current_range_meters":18000,"station_id":"ce4bha12rcd13ifvqee0","pricing_plan_id":"cebpf4jnsgd1na2vs0mg"},{"bike_id":"bee89fe1-75de-4aa4-8834-a29197d70af2","system_id":"levelo_inurba_marseille","lat":43.2882,"lon":5.39331,"is_reserved":false,"is_disabled":true,"rental_uris":{"android":"levelo://app?vid=bee89fe1-75de-4aa4-8834-a29197d70af2","ios":"levelo://app?vid=bee89fe1-75de-4aa4-8834-a29197d70af2"},"vehicle_type_id":"4","last_reported":1738167068,"current_range_meters":1600,"station_id":"ce4bh2p2rcd13ifvqdi0","pricing_plan_id":"cebpf4jnsgd1na2vs0mg"},{"bike_id":"2ec84c22-8666-467b-b9ab-b38e4ac8ff9f","system_id":"levelo_inurba_marseille","lat":43.29898,"lon":5.4367,"is_reserved":false,"is_disabled":true,"rental_uris":{"android":"levelo://app?vid=2ec84c22-8666-467b-b9ab-b38e4ac8ff9f","ios":"levelo://app?vid=2ec84c22-8666-467b-b9ab-b38e4ac8ff9f"},"vehicle_type_id":"4","last_reported":1738167068,"current_range_meters":33200,"station_id":"ce4bhpp2rcd13ifvqhfg","pricing_plan_id":"cebpf4jnsgd1na2vs0mg"},{"bike_id":"4a83b2b6-68f0-4008-ba39-b126399eeea3","system_id":"levelo_inurba_marseille","lat":43.28413,"lon":5.37524,"is_reserved":false,"is_disabled":false,"rental_uris":{"android":"levelo://app?vid=4a83b2b6-68f0-4008-ba39-b126399eeea3","ios":"levelo://app?vid=4a83b2b6-68f0-4008-ba39-b126399eeea3"},"vehicle_type_id":"4","last_reported":1738167068,"current_range_meters":17200,"station_id":"ce4bh412rcd13ifvqds0","pricing_plan_id":"cebpf4jnsgd1na2vs0mg"},{"bike_id":"a9eaae4d-3875-4425-8362-4de13abed7b5","system_id":"levelo_inurba_marseille","lat":43.24644,"lon":5.38894,"is_reserved":false,"is_disabled":false,"rental_uris":{"android":"levelo://app?vid=a9eaae4d-3875-4425-8362-4de13abed7b5","ios":"levelo://app?vid=a9eaae4d-3875-4425-8362-4de13abed7b5"},"vehicle_type_id":"4","last_reported":1738167068,"current_range_meters":36800,"station_id":"ce4bhg12rcd13ifvqf60","pricing_plan_id":"cebpf4jnsgd1na2vs0mg"},{"bike_id":"ff68af14-5554-4f8d-a3de-4549d987f602","system_id":"levelo_inurba_marseille","lat":43.29878,"lon":5.43661,"is_reserved":false,"is_disabled":false,"rental_uris":{"android":"levelo://app?vid=ff68af14-5554-4f8d-a3de-4549d987f602","ios":"levelo://app?vid=ff68af14-5554-4f8d-a3de-4549d987f602"},"vehicle_type_id":"4","last_reported":1738167068,"current_range_meters":30800,"station_id":"ce4bhpp2rcd13ifvqhfg","pricing_plan_id":"cebpf4jnsgd1na2vs0mg"},{"bike_id":"296acca2-a355-4830-bc97-a6939a85f573","system_id":"levelo_inurba_marseille","lat":43.25578,"lon":5.38227,"is_reserved":false,"is_disabled":false,"rental_uris":{"android":"levelo://app?vid=296acca2-a355-4830-bc97-a6939a85f573","ios":"levelo://app?vid=296acca2-a355-4830-bc97-a6939a85f573"},"vehicle_type_id":"4","last_reported":1738167068,"current_range_meters":24000,"station_id":"ce4bhih2rcd13ifvqfs0","pricing_plan_id":"cebpf4jnsgd1na2vs0mg"},{"bike_id":"89173a0f-95d8-48c0-90bb-d27d4518452d","system_id":"levelo_inurba_marseille","lat":43.2953,"lon":5.39037,"is_reserved":false,"is_disabled":false,"rental_uris":{"android":"levelo://app?vid=89173a0f-95d8-48c0-90bb-d27d4518452d","ios":"levelo://app?vid=89173a0f-95d8-48c0-90bb-d27d4518452d"},"vehicle_type_id":"4","last_reported":1738167068,"current_range_meters":36400,"station_id":"ce4bh3p2rcd13ifvqdp0","pricing_plan_id":"cebpf4jnsgd1na2vs0mg"},{"bike_id":"8381ecee-e398-4ae4-a060-80727e153d18","system_id":"levelo_inurba_marseille","lat":43.30558,"lon":5.36704,"is_reserved":false,"is_disabled":false,"rental_uris":{"android":"levelo://app?vid=8381ecee-e398-4ae4-a060-80727e153d18","ios":"levelo://app?vid=8381ecee-e398-4ae4-a060-80727e153d18"},"vehicle_type_id":"4","last_reported":1738167068,"current_range_meters":38800,"station_id":"ce4bgrp2rcd13ifvqc9g","pricing_plan_id":"cebpf4jnsgd1na2vs0mg"},{"bike_id":"3a9a6922-0d67-4749-bd04-54223434d0d2","system_id":"levelo_inurba_marseille","lat":43.29598,"lon":5.38109,"is_reserved":false,"is_disabled":false,"rental_uris":{"android":"levelo://app?vid=3a9a6922-0d67-4749-bd04-54223434d0d2","ios":"levelo://app?vid=3a9a6922-0d67-4749-bd04-54223434d0d2"},"vehicle_type_id":"4","last_reported":1738167068,"current_range_meters":11200,"station_id":"ce4bgl12rcd13ifvqbo0","pricing_plan_id":"cebpf4jnsgd1na2vs0mg"},{"bike_id":"c3306b38-b23d-4969-83bb-1a5b72f77539","system_id":"levelo_inurba_marseille","lat":43.30135,"lon":5.39888,"is_reserved":false,"is_disabled":false,"rental_uris":{"android":"levelo://app?vid=c3306b38-b23d-4969-83bb-1a5b72f77539","ios":"levelo://app?vid=c3306b38-b23d-4969-83bb-1a5b72f77539"},"vehicle_type_id":"4","last_reported":1738167068,"current_range_meters":27600,"station_id":"ce4bh0h2rcd13ifvqd40","pricing_plan_id":"cebpf4jnsgd1na2vs0mg"},{"bike_id":"60ce30e7-9301-4ca8-982f-21e0e801cbbe","system_id":"levelo_inurba_marseille","lat":43.299312,"lon":5.37484,"is_reserved":false,"is_disabled":false,"rental_uris":{"android":"levelo://app?vid=60ce30e7-9301-4ca8-982f-21e0e801cbbe","ios":"levelo://app?vid=60ce30e7-9301-4ca8-982f-21e0e801cbbe"},"vehicle_type_id":"4","last_reported":1738167068,"current_range_meters":38800,"station_id":"ce4bgjh2rcd13ifvqbg0","pricing_plan_id":"cebpf4jnsgd1na2vs0mg"},{"bike_id":"24daecd2-89dd-436f-a0d6-413bdba2056c","system_id":"levelo_inurba_marseille","lat":43.27376,"lon":5.36257,"is_reserved":false,"is_disabled":false,"rental_uris":{"android":"levelo://app?vid=24daecd2-89dd-436f-a0d6-413bdba2056c","ios":"levelo://app?vid=24daecd2-89dd-436f-a0d6-413bdba2056c"},"vehicle_type_id":"4","last_reported":1738167068,"current_range_meters":5600,"station_id":"ce4bhbh2rcd13ifvqeo0","pricing_plan_id":"cebpf4jnsgd1na2vs0mg"},{"bike_id":"35a5c402-13ca-468f-8a93-76197813b571","system_id":"levelo_inurba_marseille","lat":43.25941,"lon":5.40829,"is_reserved":false,"is_disabled":true,"rental_uris":{"android":"levelo://app?vid=35a5c402-13ca-468f-8a93-76197813b571","ios":"levelo://app?vid=35a5c402-13ca-468f-8a93-76197813b571"},"vehicle_type_id":"4","last_reported":1738167068,"current_range_meters":1600,"station_id":"","pricing_plan_id":"cebpf4jnsgd1na2vs0mg"},{"bike_id":"86fc14ee-d03a-45f0-b66a-0050f206491b","system_id":"levelo_inurba_marseille","lat":43.2919,"lon":5.35803,"is_reserved":false,"is_disabled":false,"rental_uris":{"android":"levelo://app?vid=86fc14ee-d03a-45f0-b66a-0050f206491b","ios":"levelo://app?vid=86fc14ee-d03a-45f0-b66a-0050f206491b"},"vehicle_type_id":"4","last_reported":1738167068,"current_range_meters":31200,"station_id":"ce4bhb12rcd13ifvqel0","pricing_plan_id":"cebpf4jnsgd1na2vs0mg"},{"bike_id":"e3c5a10e-948d-477c-91ce-8c835a7fe362","system_id":"levelo_inurba_marseille","lat":43.280772,"lon":5.396483,"is_reserved":false,"is_disabled":true,"rental_uris":{"android":"levelo://app?vid=e3c5a10e-948d-477c-91ce-8c835a7fe362","ios":"levelo://app?vid=e3c5a10e-948d-477c-91ce-8c835a7fe362"},"vehicle_type_id":"4","last_reported":1738167068,"current_range_meters":0,"station_id":"ce4bho12rcd13ifvqh2g","pricing_plan_id":"cebpf4jnsgd1na2vs0mg"},{"bike_id":"f9d35a32-65b2-4842-bd83-8cbe10324274","system_id":"levelo_inurba_marseille","lat":43.28611,"lon":5.35115,"is_reserved":false,"is_disabled":false,"rental_uris":{"android":"levelo://app?vid=f9d35a32-65b2-4842-bd83-8cbe10324274","ios":"levelo://app?vid=f9d35a32-65b2-4842-bd83-8cbe10324274"},"vehicle_type_id":"4","last_reported":1738167068,"current_range_meters":22400,"station_id":"ce4bhch2rcd13ifvqeug","pricing_plan_id":"cebpf4jnsgd1na2vs0mg"},{"bike_id":"734c1759-6970-4f27-952b-4b9b3c2afe16","system_id":"levelo_inurba_marseille","lat":43.26954,"lon":5.38632,"is_reserved":false,"is_disabled":false,"rental_uris":{"android":"levelo://app?vid=734c1759-6970-4f27-952b-4b9b3c2afe16","ios":"levelo://app?vid=734c1759-6970-4f27-952b-4b9b3c2afe16"},"vehicle_type_id":"4","last_reported":1738167068,"current_range_meters":6800,"station_id":"ce4bhh92rcd13ifvqfh0","pricing_plan_id":"cebpf4jnsgd1na2vs0mg"},{"bike_id":"a5863a51-70f5-42cc-938c-01df0becf285","system_id":"levelo_inurba_marseille","lat":43.29719,"lon":5.39133,"is_reserved":false,"is_disabled":false,"rental_uris":{"android":"levelo://app?vid=a5863a51-70f5-42cc-938c-01df0becf285","ios":"levelo://app?vid=a5863a51-70f5-42cc-938c-01df0becf285"},"vehicle_type_id":"4","last_reported":1738167068,"current_range_meters":35600,"station_id":"ce4bh0h2rcd13ifvqd40","pricing_plan_id":"cebpf4jnsgd1na2vs0mg"},{"bike_id":"1e7882da-a016-4654-9a16-4361fd531dc2","system_id":"levelo_inurba_marseille","lat":43.27203,"lon":5.40977,"is_reserved":false,"is_disabled":false,"rental_uris":{"android":"levelo://app?vid=1e7882da-a016-4654-9a16-4361fd531dc2","ios":"levelo://app?vid=1e7882da-a016-4654-9a16-4361fd531dc2"},"vehicle_type_id":"4","last_reported":1738167068,"current_range_meters":23200,"station_id":"ce4bhl12rcd13ifvqgf0","pricing_plan_id":"cebpf4jnsgd1na2vs0mg"},{"bike_id":"fef8f4dc-7b3f-4f9d-9ace-5962177c579b","system_id":"levelo_inurba_marseille","lat":43.26568,"lon":5.3728,"is_reserved":false,"is_disabled":false,"rental_uris":{"android":"levelo://app?vid=fef8f4dc-7b3f-4f9d-9ace-5962177c579b","ios":"levelo://app?vid=fef8f4dc-7b3f-4f9d-9ace-5962177c579b"},"vehicle_type_id":"4","last_reported":1738167068,"current_range_meters":38800,"station_id":"ce4bhg12rcd13ifvqf70","pricing_plan_id":"cebpf4jnsgd1na2vs0mg"},{"bike_id":"085eb1b9-3157-475b-a7c3-09fe52f481b0","system_id":"levelo_inurba_marseille","lat":43.27839,"lon":5.40686,"is_reserved":false,"is_disabled":false,"rental_uris":{"android":"levelo://app?vid=085eb1b9-3157-475b-a7c3-09fe52f481b0","ios":"levelo://app?vid=085eb1b9-3157-475b-a7c3-09fe52f481b0"},"vehicle_type_id":"4","last_reported":1738167068,"current_range_meters":38800,"station_id":"ce4bhnh2rcd13ifvqgtg","pricing_plan_id":"cebpf4jnsgd1na2vs0mg"},{"bike_id":"48e76a07-5c0c-47c1-98f6-9d02d4c22943","system_id":"levelo_inurba_marseille","lat":43.26757,"lon":5.41095,"is_reserved":false,"is_disabled":false,"rental_uris":{"android":"levelo://app?vid=48e76a07-5c0c-47c1-98f6-9d02d4c22943","ios":"levelo://app?vid=48e76a07-5c0c-47c1-98f6-9d02d4c22943"},"vehicle_type_id":"4","last_reported":1738167068,"current_range_meters":24800,"station_id":"","pricing_plan_id":"cebpf4jnsgd1na2vs0mg"},{"bike_id":"0528a8e0-bc90-4885-82ff-1f025b1bce6b","system_id":"levelo_inurba_marseille","lat":43.30261,"lon":5.4008,"is_reserved":false,"is_disabled":false,"rental_uris":{"android":"levelo://app?vid=0528a8e0-bc90-4885-82ff-1f025b1bce6b","ios":"levelo://app?vid=0528a8e0-bc90-4885-82ff-1f025b1bce6b"},"vehicle_type_id":"4","last_reported":1738167068,"current_range_meters":23200,"station_id":"ce4bgvh2rcd13ifvqcs0","pricing_plan_id":"cebpf4jnsgd1na2vs0mg"},{"bike_id":"dc7c1c67-58fd-4b23-90e5-a1f21ef47cbc","system_id":"levelo_inurba_marseille","lat":43.29591,"lon":5.36738,"is_reserved":false,"is_disabled":false,"rental_uris":{"android":"levelo://app?vid=dc7c1c67-58fd-4b23-90e5-a1f21ef47cbc","ios":"levelo://app?vid=dc7c1c67-58fd-4b23-90e5-a1f21ef47cbc"},"vehicle_type_id":"4","last_reported":1738167068,"current_range_meters":38800,"station_id":"ce4bgph2rcd13ifvqc2g","pricing_plan_id":"cebpf4jnsgd1na2vs0mg"},{"bike_id":"923826fd-de6f-4713-81f3-4d0480fbda02","system_id":"levelo_inurba_marseille","lat":43.28423,"lon":5.35003,"is_reserved":false,"is_disabled":false,"rental_uris":{"android":"levelo://app?vid=923826fd-de6f-4713-81f3-4d0480fbda02","ios":"levelo://app?vid=923826fd-de6f-4713-81f3-4d0480fbda02"},"vehicle_type_id":"4","last_reported":1738167068,"current_range_meters":37600,"station_id":"ce4bhbh2rcd13ifvqepg","pricing_plan_id":"cebpf4jnsgd1na2vs0mg"},{"bike_id":"411f1180-ee1b-4e0d-b105-6b6b17f8f02f","system_id":"levelo_inurba_marseille","lat":43.2989,"lon":5.39723,"is_reserved":false,"is_disabled":false,"rental_uris":{"android":"levelo://app?vid=411f1180-ee1b-4e0d-b105-6b6b17f8f02f","ios":"levelo://app?vid=411f1180-ee1b-4e0d-b105-6b6b17f8f02f"},"vehicle_type_id":"4","last_reported":1738167068,"current_range_meters":20800,"station_id":"ce4bh0h2rcd13ifvqd50","pricing_plan_id":"cebpf4jnsgd1na2vs0mg"},{"bike_id":"b891a845-22ae-4964-87fe-61c6bc3a8303","system_id":"levelo_inurba_marseille","lat":43.27822,"lon":5.40709,"is_reserved":false,"is_disabled":false,"rental_uris":{"android":"levelo://app?vid=b891a845-22ae-4964-87fe-61c6bc3a8303","ios":"levelo://app?vid=b891a845-22ae-4964-87fe-61c6bc3a8303"},"vehicle_type_id":"4","last_reported":1738167068,"current_range_meters":31200,"station_id":"ce4bhnh2rcd13ifvqgtg","pricing_plan_id":"cebpf4jnsgd1na2vs0mg"},{"bike_id":"63a95aba-38f7-438d-a03c-58081e34a184","system_id":"levelo_inurba_marseille","lat":43.28724,"lon":5.36085,"is_reserved":false,"is_disabled":false,"rental_uris":{"android":"levelo://app?vid=63a95aba-38f7-438d-a03c-58081e34a184","ios":"levelo://app?vid=63a95aba-38f7-438d-a03c-58081e34a184"},"vehicle_type_id":"4","last_reported":1738167068,"current_range_meters":17600,"station_id":"cki0cbj6b192h4jlfktg","pricing_plan_id":"cebpf4jnsgd1na2vs0mg"},{"bike_id":"3ad10b32-c1b1-4c7a-9f3c-30dcc350bc0c","system_id":"levelo_inurba_marseille","lat":43.27951,"lon":5.41043,"is_reserved":false,"is_disabled":false,"rental_uris":{"android":"levelo://app?vid=3ad10b32-c1b1-4c7a-9f3c-30dcc350bc0c","ios":"levelo://app?vid=3ad10b32-c1b1-4c7a-9f3c-30dcc350bc0c"},"vehicle_type_id":"4","last_reported":1738167068,"current_range_meters":10800,"station_id":"ce4bhnp2rcd13ifvqh0g","pricing_plan_id":"cebpf4jnsgd1na2vs0mg"},{"bike_id":"8382186f-0d25-40e6-beca-2632cc8590f2","system_id":"levelo_inurba_marseille","lat":43.2955,"lon":5.4228,"is_reserved":false,"is_disabled":true,"rental_uris":{"android":"levelo://app?vid=8382186f-0d25-40e6-beca-2632cc8590f2","ios":"levelo://app?vid=8382186f-0d25-40e6-beca-2632cc8590f2"},"vehicle_type_id":"4","last_reported":1738167068,"current_range_meters":12400,"station_id":"ce4bhph2rcd13ifvqhdg","pricing_plan_id":"cebpf4jnsgd1na2vs0mg"},{"bike_id":"44a2692f-71ce-4483-a988-fcdcfe06292b","system_id":"levelo_inurba_marseille","lat":43.2996,"lon":5.37114,"is_reserved":false,"is_disabled":false,"rental_uris":{"android":"levelo://app?vid=44a2692f-71ce-4483-a988-fcdcfe06292b","ios":"levelo://app?vid=44a2692f-71ce-4483-a988-fcdcfe06292b"},"vehicle_type_id":"4","last_reported":1738167068,"current_range_meters":26000,"station_id":"","pricing_plan_id":"cebpf4jnsgd1na2vs0mg"},{"bike_id":"26e16b70-9bb9-4eb2-89e9-69b33ec960e6","system_id":"levelo_inurba_marseille","lat":43.29623,"lon":5.37169,"is_reserved":false,"is_disabled":false,"rental_uris":{"android":"levelo://app?vid=26e16b70-9bb9-4eb2-89e9-69b33ec960e6","ios":"levelo://app?vid=26e16b70-9bb9-4eb2-89e9-69b33ec960e6"},"vehicle_type_id":"4","last_reported":1738167068,"current_range_meters":25600,"station_id":"ce4bgnh2rcd13ifvqc0g","pricing_plan_id":"cebpf4jnsgd1na2vs0mg"},{"bike_id":"70f0c963-8c36-418f-a110-4edb8ff73131","system_id":"levelo_inurba_marseille","lat":43.29515,"lon":5.39401,"is_reserved":false,"is_disabled":true,"rental_uris":{"android":"levelo://app?vid=70f0c963-8c36-418f-a110-4edb8ff73131","ios":"levelo://app?vid=70f0c963-8c36-418f-a110-4edb8ff73131"},"vehicle_type_id":"4","last_reported":1738167068,"current_range_meters":36800,"station_id":"ce4bh292rcd13ifvqdf0","pricing_plan_id":"cebpf4jnsgd1na2vs0mg"},{"bike_id":"b6a6b106-c0a9-4afa-ad24-a5822ef23f96","system_id":"levelo_inurba_marseille","lat":43.28268,"lon":5.35092,"is_reserved":false,"is_disabled":false,"rental_uris":{"android":"levelo://app?vid=b6a6b106-c0a9-4afa-ad24-a5822ef23f96","ios":"levelo://app?vid=b6a6b106-c0a9-4afa-ad24-a5822ef23f96"},"vehicle_type_id":"4","last_reported":1738167068,"current_range_meters":38800,"station_id":"ce4bhbp2rcd13ifvqerg","pricing_plan_id":"cebpf4jnsgd1na2vs0mg"},{"bike_id":"7c3df97a-2f27-4ded-9b4c-5f084cc1020d","system_id":"levelo_inurba_marseille","lat":43.28028,"lon":5.36938,"is_reserved":false,"is_disabled":false,"rental_uris":{"android":"levelo://app?vid=7c3df97a-2f27-4ded-9b4c-5f084cc1020d","ios":"levelo://app?vid=7c3df97a-2f27-4ded-9b4c-5f084cc1020d"},"vehicle_type_id":"4","last_reported":1738167068,"current_range_meters":4000,"station_id":"ce4bha12rcd13ifvqef0","pricing_plan_id":"cebpf4jnsgd1na2vs0mg"},{"bike_id":"4e25d392-4200-41fa-9bdc-7fd393881cbd","system_id":"levelo_inurba_marseille","lat":43.28417,"lon":5.37511,"is_reserved":false,"is_disabled":false,"rental_uris":{"android":"levelo://app?vid=4e25d392-4200-41fa-9bdc-7fd393881cbd","ios":"levelo://app?vid=4e25d392-4200-41fa-9bdc-7fd393881cbd"},"vehicle_type_id":"4","last_reported":1738167068,"current_range_meters":9600,"station_id":"ce4bh412rcd13ifvqds0","pricing_plan_id":"cebpf4jnsgd1na2vs0mg"},{"bike_id":"732e0f21-9776-437d-9e9c-e54f5beff5db","system_id":"levelo_inurba_marseille","lat":43.28,"lon":5.40017,"is_reserved":false,"is_disabled":false,"rental_uris":{"android":"levelo://app?vid=732e0f21-9776-437d-9e9c-e54f5beff5db","ios":"levelo://app?vid=732e0f21-9776-437d-9e9c-e54f5beff5db"},"vehicle_type_id":"4","last_reported":1738167068,"current_range_meters":11600,"station_id":"ce4bho92rcd13ifvqh4g","pricing_plan_id":"cebpf4jnsgd1na2vs0mg"},{"bike_id":"f41a1e34-accd-406d-829e-29c2eebefd57","system_id":"levelo_inurba_marseille","lat":43.27672,"lon":5.38937,"is_reserved":false,"is_disabled":false,"rental_uris":{"android":"levelo://app?vid=f41a1e34-accd-406d-829e-29c2eebefd57","ios":"levelo://app?vid=f41a1e34-accd-406d-829e-29c2eebefd57"},"vehicle_type_id":"4","last_reported":1738167068,"current_range_meters":23200,"station_id":"ce4bhi12rcd13ifvqfo0","pricing_plan_id":"cebpf4jnsgd1na2vs0mg"},{"bike_id":"2b8acffa-5a68-4deb-8a39-8cb9917ffcd9","system_id":"levelo_inurba_marseille","lat":43.28411,"lon":5.37519,"is_reserved":false,"is_disabled":false,"rental_uris":{"android":"levelo://app?vid=2b8acffa-5a68-4deb-8a39-8cb9917ffcd9","ios":"levelo://app?vid=2b8acffa-5a68-4deb-8a39-8cb9917ffcd9"},"vehicle_type_id":"4","last_reported":1738167068,"current_range_meters":2800,"station_id":"ce4bh412rcd13ifvqds0","pricing_plan_id":"cebpf4jnsgd1na2vs0mg"},{"bike_id":"e3e26aee-15e1-425c-a48f-db58aa520742","system_id":"levelo_inurba_marseille","lat":43.23064,"lon":5.35492,"is_reserved":false,"is_disabled":false,"rental_uris":{"android":"levelo://app?vid=e3e26aee-15e1-425c-a48f-db58aa520742","ios":"levelo://app?vid=e3e26aee-15e1-425c-a48f-db58aa520742"},"vehicle_type_id":"4","last_reported":1738167068,"current_range_meters":33200,"station_id":"cpo3342slgdg3j2ifvpg","pricing_plan_id":"cebpf4jnsgd1na2vs0mg"},{"bike_id":"0a2fd205-d616-4064-aa75-d4d529957d90","system_id":"levelo_inurba_marseille","lat":43.23067,"lon":5.35493,"is_reserved":false,"is_disabled":false,"rental_uris":{"android":"levelo://app?vid=0a2fd205-d616-4064-aa75-d4d529957d90","ios":"levelo://app?vid=0a2fd205-d616-4064-aa75-d4d529957d90"},"vehicle_type_id":"4","last_reported":1738167068,"current_range_meters":27600,"station_id":"cpo3342slgdg3j2ifvpg","pricing_plan_id":"cebpf4jnsgd1na2vs0mg"},{"bike_id":"7286b5a8-1e87-439a-b184-c747ee4ca030","system_id":"levelo_inurba_marseille","lat":43.29616,"lon":5.37741,"is_reserved":false,"is_disabled":false,"rental_uris":{"android":"levelo://app?vid=7286b5a8-1e87-439a-b184-c747ee4ca030","ios":"levelo://app?vid=7286b5a8-1e87-439a-b184-c747ee4ca030"},"vehicle_type_id":"4","last_reported":1738167068,"current_range_meters":38800,"station_id":"ce4bgi92rcd13ifvqb90","pricing_plan_id":"cebpf4jnsgd1na2vs0mg"},{"bike_id":"999b0b1c-2aaf-4617-a2f1-cda4dfce9580","system_id":"levelo_inurba_marseille","lat":43.29252,"lon":5.40932,"is_reserved":false,"is_disabled":false,"rental_uris":{"android":"levelo://app?vid=999b0b1c-2aaf-4617-a2f1-cda4dfce9580","ios":"levelo://app?vid=999b0b1c-2aaf-4617-a2f1-cda4dfce9580"},"vehicle_type_id":"4","last_reported":1738167068,"current_range_meters":38400,"station_id":"ce4bh192rcd13ifvqdc0","pricing_plan_id":"cebpf4jnsgd1na2vs0mg"},{"bike_id":"e4083074-e92a-473e-bcc2-f7b10a8f53e9","system_id":"levelo_inurba_marseille","lat":43.3302,"lon":5.39038,"is_reserved":false,"is_disabled":false,"rental_uris":{"android":"levelo://app?vid=e4083074-e92a-473e-bcc2-f7b10a8f53e9","ios":"levelo://app?vid=e4083074-e92a-473e-bcc2-f7b10a8f53e9"},"vehicle_type_id":"4","last_reported":1738167068,"current_range_meters":28800,"station_id":"ce4bhr92rcd13ifvqhrg","pricing_plan_id":"cebpf4jnsgd1na2vs0mg"},{"bike_id":"7c78a755-c7f5-4f07-a96b-621451d47948","system_id":"levelo_inurba_marseille","lat":43.29895,"lon":5.43669,"is_reserved":false,"is_disabled":false,"rental_uris":{"android":"levelo://app?vid=7c78a755-c7f5-4f07-a96b-621451d47948","ios":"levelo://app?vid=7c78a755-c7f5-4f07-a96b-621451d47948"},"vehicle_type_id":"4","last_reported":1738167068,"current_range_meters":17600,"station_id":"ce4bhpp2rcd13ifvqhfg","pricing_plan_id":"cebpf4jnsgd1na2vs0mg"},{"bike_id":"92e88fc6-62a7-4499-a169-6d36e7b5d58c","system_id":"levelo_inurba_marseille","lat":43.29278,"lon":5.40121,"is_reserved":false,"is_disabled":false,"rental_uris":{"android":"levelo://app?vid=92e88fc6-62a7-4499-a169-6d36e7b5d58c","ios":"levelo://app?vid=92e88fc6-62a7-4499-a169-6d36e7b5d58c"},"vehicle_type_id":"4","last_reported":1738167068,"current_range_meters":19600,"station_id":"ce4bh312rcd13ifvqdk0","pricing_plan_id":"cebpf4jnsgd1na2vs0mg"},{"bike_id":"3d1fcd99-fa1f-402d-be1e-7639922ccd47","system_id":"levelo_inurba_marseille","lat":43.22937,"lon":5.35381,"is_reserved":false,"is_disabled":false,"rental_uris":{"android":"levelo://app?vid=3d1fcd99-fa1f-402d-be1e-7639922ccd47","ios":"levelo://app?vid=3d1fcd99-fa1f-402d-be1e-7639922ccd47"},"vehicle_type_id":"4","last_reported":1738167068,"current_range_meters":38800,"station_id":"cpo3532slgdg3j2ikp40","pricing_plan_id":"cebpf4jnsgd1na2vs0mg"},{"bike_id":"2073d1d5-276f-4c95-b9a8-faa50a643868","system_id":"levelo_inurba_marseille","lat":43.29868,"lon":5.36296,"is_reserved":false,"is_disabled":false,"rental_uris":{"android":"levelo://app?vid=2073d1d5-276f-4c95-b9a8-faa50a643868","ios":"levelo://app?vid=2073d1d5-276f-4c95-b9a8-faa50a643868"},"vehicle_type_id":"4","last_reported":1738167068,"current_range_meters":38800,"station_id":"ce4bgpp2rcd13ifvqc3g","pricing_plan_id":"cebpf4jnsgd1na2vs0mg"},{"bike_id":"487cba91-0c16-4a7d-9ef2-660cb42c7641","system_id":"levelo_inurba_marseille","lat":43.28481,"lon":5.3855,"is_reserved":false,"is_disabled":false,"rental_uris":{"android":"levelo://app?vid=487cba91-0c16-4a7d-9ef2-660cb42c7641","ios":"levelo://app?vid=487cba91-0c16-4a7d-9ef2-660cb42c7641"},"vehicle_type_id":"4","last_reported":1738167068,"current_range_meters":38800,"station_id":"ce4bh8p2rcd13ifvqeb0","pricing_plan_id":"cebpf4jnsgd1na2vs0mg"},{"bike_id":"803e03d8-7d2e-4feb-ac46-774902d16dee","system_id":"levelo_inurba_marseille","lat":43.33731,"lon":5.37442,"is_reserved":false,"is_disabled":true,"rental_uris":{"android":"levelo://app?vid=803e03d8-7d2e-4feb-ac46-774902d16dee","ios":"levelo://app?vid=803e03d8-7d2e-4feb-ac46-774902d16dee"},"vehicle_type_id":"4","last_reported":1738167068,"current_range_meters":32800,"station_id":"","pricing_plan_id":"cebpf4jnsgd1na2vs0mg"},{"bike_id":"72da52e5-f9d6-4be0-86bb-ad65ebadd0b9","system_id":"levelo_inurba_marseille","lat":43.27239,"lon":5.40964,"is_reserved":false,"is_disabled":false,"rental_uris":{"android":"levelo://app?vid=72da52e5-f9d6-4be0-86bb-ad65ebadd0b9","ios":"levelo://app?vid=72da52e5-f9d6-4be0-86bb-ad65ebadd0b9"},"vehicle_type_id":"4","last_reported":1738167068,"current_range_meters":28000,"station_id":"","pricing_plan_id":"cebpf4jnsgd1na2vs0mg"},{"bike_id":"3ca0b02d-0211-487d-b570-96974d36540a","system_id":"levelo_inurba_marseille","lat":43.30806,"lon":5.38172,"is_reserved":false,"is_disabled":false,"rental_uris":{"android":"levelo://app?vid=3ca0b02d-0211-487d-b570-96974d36540a","ios":"levelo://app?vid=3ca0b02d-0211-487d-b570-96974d36540a"},"vehicle_type_id":"4","last_reported":1738167068,"current_range_meters":38800,"station_id":"ce4bgt12rcd13ifvqce0","pricing_plan_id":"cebpf4jnsgd1na2vs0mg"},{"bike_id":"e01b48cb-9ca7-4c6e-9fce-13ad8af1a3f4","system_id":"levelo_inurba_marseille","lat":43.28031,"lon":5.36952,"is_reserved":false,"is_disabled":false,"rental_uris":{"android":"levelo://app?vid=e01b48cb-9ca7-4c6e-9fce-13ad8af1a3f4","ios":"levelo://app?vid=e01b48cb-9ca7-4c6e-9fce-13ad8af1a3f4"},"vehicle_type_id":"4","last_reported":1738167068,"current_range_meters":9200,"station_id":"ce4bha12rcd13ifvqef0","pricing_plan_id":"cebpf4jnsgd1na2vs0mg"},{"bike_id":"6d1da78d-00cf-4bf6-8937-cad8764c7ccc","system_id":"levelo_inurba_marseille","lat":43.30303,"lon":5.368987,"is_reserved":false,"is_disabled":false,"rental_uris":{"android":"levelo://app?vid=6d1da78d-00cf-4bf6-8937-cad8764c7ccc","ios":"levelo://app?vid=6d1da78d-00cf-4bf6-8937-cad8764c7ccc"},"vehicle_type_id":"4","last_reported":1738167068,"current_range_meters":10800,"station_id":"ce4bgqh2rcd13ifvqc5g","pricing_plan_id":"cebpf4jnsgd1na2vs0mg"},{"bike_id":"3622e152-b5be-42cb-bc60-3cf0f1d519df","system_id":"levelo_inurba_marseille","lat":43.2669,"lon":5.38243,"is_reserved":false,"is_disabled":false,"rental_uris":{"android":"levelo://app?vid=3622e152-b5be-42cb-bc60-3cf0f1d519df","ios":"levelo://app?vid=3622e152-b5be-42cb-bc60-3cf0f1d519df"},"vehicle_type_id":"4","last_reported":1738167068,"current_range_meters":38800,"station_id":"ce4bhg92rcd13ifvqf90","pricing_plan_id":"cebpf4jnsgd1na2vs0mg"},{"bike_id":"fbf4a090-7867-4075-a3fd-edc6192db4f7","system_id":"levelo_inurba_marseille","lat":43.32657,"lon":5.40992,"is_reserved":false,"is_disabled":false,"rental_uris":{"android":"levelo://app?vid=fbf4a090-7867-4075-a3fd-edc6192db4f7","ios":"levelo://app?vid=fbf4a090-7867-4075-a3fd-edc6192db4f7"},"vehicle_type_id":"4","last_reported":1738167068,"current_range_meters":38400,"station_id":"ce4bhpp2rcd13ifvqhgg","pricing_plan_id":"cebpf4jnsgd1na2vs0mg"},{"bike_id":"e8824e7b-942e-4d59-8a6f-b1870b6107b3","system_id":"levelo_inurba_marseille","lat":43.28445,"lon":5.39205,"is_reserved":false,"is_disabled":false,"rental_uris":{"android":"levelo://app?vid=e8824e7b-942e-4d59-8a6f-b1870b6107b3","ios":"levelo://app?vid=e8824e7b-942e-4d59-8a6f-b1870b6107b3"},"vehicle_type_id":"4","last_reported":1738167068,"current_range_meters":33200,"station_id":"ce4bhoh2rcd13ifvqh5g","pricing_plan_id":"cebpf4jnsgd1na2vs0mg"},{"bike_id":"7a932788-39f8-4d3a-8997-624b5a4df5c4","system_id":"levelo_inurba_marseille","lat":43.32476,"lon":5.36581,"is_reserved":false,"is_disabled":false,"rental_uris":{"android":"levelo://app?vid=7a932788-39f8-4d3a-8997-624b5a4df5c4","ios":"levelo://app?vid=7a932788-39f8-4d3a-8997-624b5a4df5c4"},"vehicle_type_id":"4","last_reported":1738167068,"current_range_meters":38800,"station_id":"ce4bhs12rcd13ifvqhvg","pricing_plan_id":"cebpf4jnsgd1na2vs0mg"},{"bike_id":"3cab5ce9-fa36-4f37-a4fd-aa59591df4d1","system_id":"levelo_inurba_marseille","lat":43.28417,"lon":5.34996,"is_reserved":false,"is_disabled":true,"rental_uris":{"android":"levelo://app?vid=3cab5ce9-fa36-4f37-a4fd-aa59591df4d1","ios":"levelo://app?vid=3cab5ce9-fa36-4f37-a4fd-aa59591df4d1"},"vehicle_type_id":"4","last_reported":1738167068,"current_range_meters":30000,"station_id":"ce4bhbh2rcd13ifvqepg","pricing_plan_id":"cebpf4jnsgd1na2vs0mg"},{"bike_id":"81bfc391-c360-43c3-944e-b6bb52074c19","system_id":"levelo_inurba_marseille","lat":43.28932,"lon":5.36633,"is_reserved":false,"is_disabled":false,"rental_uris":{"android":"levelo://app?vid=81bfc391-c360-43c3-944e-b6bb52074c19","ios":"levelo://app?vid=81bfc391-c360-43c3-944e-b6bb52074c19"},"vehicle_type_id":"4","last_reported":1738167068,"current_range_meters":32400,"station_id":"ce4bhap2rcd13ifvqek0","pricing_plan_id":"cebpf4jnsgd1na2vs0mg"},{"bike_id":"85af6c92-372c-4cd2-84da-c4ec61fa470d","system_id":"levelo_inurba_marseille","lat":43.256871,"lon":5.411488,"is_reserved":false,"is_disabled":true,"rental_uris":{"android":"levelo://app?vid=85af6c92-372c-4cd2-84da-c4ec61fa470d","ios":"levelo://app?vid=85af6c92-372c-4cd2-84da-c4ec61fa470d"},"vehicle_type_id":"4","last_reported":1738167068,"current_range_meters":36400,"station_id":"ce4bhkp2rcd13ifvqgd0","pricing_plan_id":"cebpf4jnsgd1na2vs0mg"},{"bike_id":"911d971a-0124-498e-bf11-e1e6c7698135","system_id":"levelo_inurba_marseille","lat":43.29165,"lon":5.35832,"is_reserved":false,"is_disabled":false,"rental_uris":{"android":"levelo://app?vid=911d971a-0124-498e-bf11-e1e6c7698135","ios":"levelo://app?vid=911d971a-0124-498e-bf11-e1e6c7698135"},"vehicle_type_id":"4","last_reported":1738167068,"current_range_meters":30400,"station_id":"","pricing_plan_id":"cebpf4jnsgd1na2vs0mg"},{"bike_id":"5ac8aead-9f61-4a03-a716-643ab830f536","system_id":"levelo_inurba_marseille","lat":43.29963,"lon":5.38498,"is_reserved":false,"is_disabled":false,"rental_uris":{"android":"levelo://app?vid=5ac8aead-9f61-4a03-a716-643ab830f536","ios":"levelo://app?vid=5ac8aead-9f61-4a03-a716-643ab830f536"},"vehicle_type_id":"4","last_reported":1738167068,"current_range_meters":24400,"station_id":"ce4bgj92rcd13ifvqbd0","pricing_plan_id":"cebpf4jnsgd1na2vs0mg"},{"bike_id":"0d3f46ad-475b-45ab-bba3-a9b43b092108","system_id":"levelo_inurba_marseille","lat":43.27623,"lon":5.36102,"is_reserved":false,"is_disabled":false,"rental_uris":{"android":"levelo://app?vid=0d3f46ad-475b-45ab-bba3-a9b43b092108","ios":"levelo://app?vid=0d3f46ad-475b-45ab-bba3-a9b43b092108"},"vehicle_type_id":"4","last_reported":1738167068,"current_range_meters":38800,"station_id":"ce4bgj92rcd13ifvqbe0","pricing_plan_id":"cebpf4jnsgd1na2vs0mg"},{"bike_id":"f142c18a-f3a1-403f-81ba-d82fef31716f","system_id":"levelo_inurba_marseille","lat":43.27069,"lon":5.42279,"is_reserved":false,"is_disabled":false,"rental_uris":{"android":"levelo://app?vid=f142c18a-f3a1-403f-81ba-d82fef31716f","ios":"levelo://app?vid=f142c18a-f3a1-403f-81ba-d82fef31716f"},"vehicle_type_id":"4","last_reported":1738167068,"current_range_meters":3600,"station_id":"ce4bhk92rcd13ifvqgb0","pricing_plan_id":"cebpf4jnsgd1na2vs0mg"},{"bike_id":"3d98c6ce-e80d-46e8-b577-648cd8c28632","system_id":"levelo_inurba_marseille","lat":43.34699,"lon":5.34741,"is_reserved":false,"is_disabled":true,"rental_uris":{"android":"levelo://app?vid=3d98c6ce-e80d-46e8-b577-648cd8c28632","ios":"levelo://app?vid=3d98c6ce-e80d-46e8-b577-648cd8c28632"},"vehicle_type_id":"4","last_reported":1738167068,"current_range_meters":0,"station_id":"","pricing_plan_id":"cebpf4jnsgd1na2vs0mg"},{"bike_id":"9835d281-e3af-4a85-8ec7-3805184f3603","system_id":"levelo_inurba_marseille","lat":43.25493,"lon":5.37645,"is_reserved":false,"is_disabled":false,"rental_uris":{"android":"levelo://app?vid=9835d281-e3af-4a85-8ec7-3805184f3603","ios":"levelo://app?vid=9835d281-e3af-4a85-8ec7-3805184f3603"},"vehicle_type_id":"4","last_reported":1738167068,"current_range_meters":37600,"station_id":"ce4bhh12rcd13ifvqff0","pricing_plan_id":"cebpf4jnsgd1na2vs0mg"},{"bike_id":"7313dec2-5949-49e8-85f7-d76938192ea4","system_id":"levelo_inurba_marseille","lat":43.29914,"lon":5.37474,"is_reserved":false,"is_disabled":false,"rental_uris":{"android":"levelo://app?vid=7313dec2-5949-49e8-85f7-d76938192ea4","ios":"levelo://app?vid=7313dec2-5949-49e8-85f7-d76938192ea4"},"vehicle_type_id":"4","last_reported":1738167068,"current_range_meters":18000,"station_id":"ce4bgjh2rcd13ifvqbg0","pricing_plan_id":"cebpf4jnsgd1na2vs0mg"},{"bike_id":"399650eb-1f99-4a83-8fc7-4d589cf367a1","system_id":"levelo_inurba_marseille","lat":43.27573,"lon":5.38433,"is_reserved":false,"is_disabled":false,"rental_uris":{"android":"levelo://app?vid=399650eb-1f99-4a83-8fc7-4d589cf367a1","ios":"levelo://app?vid=399650eb-1f99-4a83-8fc7-4d589cf367a1"},"vehicle_type_id":"4","last_reported":1738167068,"current_range_meters":28000,"station_id":"ce4bhh92rcd13ifvqfi0","pricing_plan_id":"cebpf4jnsgd1na2vs0mg"},{"bike_id":"94c70d9c-5269-4124-9d60-ba1eb5f83fad","system_id":"levelo_inurba_marseille","lat":43.285037,"lon":5.385402,"is_reserved":false,"is_disabled":false,"rental_uris":{"android":"levelo://app?vid=94c70d9c-5269-4124-9d60-ba1eb5f83fad","ios":"levelo://app?vid=94c70d9c-5269-4124-9d60-ba1eb5f83fad"},"vehicle_type_id":"4","last_reported":1738167068,"current_range_meters":38400,"station_id":"ce4bh8p2rcd13ifvqeb0","pricing_plan_id":"cebpf4jnsgd1na2vs0mg"},{"bike_id":"23998e73-ed31-4851-b5af-39675d583041","system_id":"levelo_inurba_marseille","lat":43.24803,"lon":5.37456,"is_reserved":false,"is_disabled":false,"rental_uris":{"android":"levelo://app?vid=23998e73-ed31-4851-b5af-39675d583041","ios":"levelo://app?vid=23998e73-ed31-4851-b5af-39675d583041"},"vehicle_type_id":"4","last_reported":1738167068,"current_range_meters":36400,"station_id":"ce4bhgh2rcd13ifvqfb0","pricing_plan_id":"cebpf4jnsgd1na2vs0mg"},{"bike_id":"a0bfb8d9-1f4f-4656-a20c-e2e0d26c8491","system_id":"levelo_inurba_marseille","lat":43.28452,"lon":5.35891,"is_reserved":false,"is_disabled":false,"rental_uris":{"android":"levelo://app?vid=a0bfb8d9-1f4f-4656-a20c-e2e0d26c8491","ios":"levelo://app?vid=a0bfb8d9-1f4f-4656-a20c-e2e0d26c8491"},"vehicle_type_id":"4","last_reported":1738167068,"current_range_meters":32000,"station_id":"ce4bhah2rcd13ifvqei0","pricing_plan_id":"cebpf4jnsgd1na2vs0mg"},{"bike_id":"1cc72904-73db-4690-8d8d-9db3a2e22526","system_id":"levelo_inurba_marseille","lat":43.31078,"lon":5.42452,"is_reserved":false,"is_disabled":false,"rental_uris":{"android":"levelo://app?vid=1cc72904-73db-4690-8d8d-9db3a2e22526","ios":"levelo://app?vid=1cc72904-73db-4690-8d8d-9db3a2e22526"},"vehicle_type_id":"4","last_reported":1738167068,"current_range_meters":37600,"station_id":"ce4bhp92rcd13ifvqhag","pricing_plan_id":"cebpf4jnsgd1na2vs0mg"},{"bike_id":"34b2f8cb-53e7-4f73-a080-f9a100b4887f","system_id":"levelo_inurba_marseille","lat":43.30802,"lon":5.38158,"is_reserved":false,"is_disabled":false,"rental_uris":{"android":"levelo://app?vid=34b2f8cb-53e7-4f73-a080-f9a100b4887f","ios":"levelo://app?vid=34b2f8cb-53e7-4f73-a080-f9a100b4887f"},"vehicle_type_id":"4","last_reported":1738167068,"current_range_meters":38800,"station_id":"ce4bgt12rcd13ifvqce0","pricing_plan_id":"cebpf4jnsgd1na2vs0mg"},{"bike_id":"5e270b5d-db43-46ad-806a-7e28af26f105","system_id":"levelo_inurba_marseille","lat":43.25909,"lon":5.40882,"is_reserved":false,"is_disabled":false,"rental_uris":{"android":"levelo://app?vid=5e270b5d-db43-46ad-806a-7e28af26f105","ios":"levelo://app?vid=5e270b5d-db43-46ad-806a-7e28af26f105"},"vehicle_type_id":"4","last_reported":1738167068,"current_range_meters":9600,"station_id":"ce4bhm92rcd13ifvqglg","pricing_plan_id":"cebpf4jnsgd1na2vs0mg"},{"bike_id":"4008c5d4-accb-4981-8933-9e85f4cde128","system_id":"levelo_inurba_marseille","lat":43.23199,"lon":5.35552,"is_reserved":false,"is_disabled":false,"rental_uris":{"android":"levelo://app?vid=4008c5d4-accb-4981-8933-9e85f4cde128","ios":"levelo://app?vid=4008c5d4-accb-4981-8933-9e85f4cde128"},"vehicle_type_id":"4","last_reported":1738167068,"current_range_meters":38800,"station_id":"ce4bhu92rcd13ifvqi70","pricing_plan_id":"cebpf4jnsgd1na2vs0mg"},{"bike_id":"7e2a8852-e12e-4ba8-ad9d-79a94d73d16b","system_id":"levelo_inurba_marseille","lat":43.2985,"lon":5.3627,"is_reserved":false,"is_disabled":false,"rental_uris":{"android":"levelo://app?vid=7e2a8852-e12e-4ba8-ad9d-79a94d73d16b","ios":"levelo://app?vid=7e2a8852-e12e-4ba8-ad9d-79a94d73d16b"},"vehicle_type_id":"4","last_reported":1738167068,"current_range_meters":38800,"station_id":"ce4bgpp2rcd13ifvqc3g","pricing_plan_id":"cebpf4jnsgd1na2vs0mg"},{"bike_id":"0f4be29a-a56f-4442-bda5-7c6c96935d19","system_id":"levelo_inurba_marseille","lat":43.29042,"lon":5.37554,"is_reserved":false,"is_disabled":true,"rental_uris":{"android":"levelo://app?vid=0f4be29a-a56f-4442-bda5-7c6c96935d19","ios":"levelo://app?vid=0f4be29a-a56f-4442-bda5-7c6c96935d19"},"vehicle_type_id":"4","last_reported":1738167068,"current_range_meters":22400,"station_id":"ce4bh692rcd13ifvqe90","pricing_plan_id":"cebpf4jnsgd1na2vs0mg"},{"bike_id":"b35a3a9d-9039-4058-9299-00a1e7ec526d","system_id":"levelo_inurba_marseille","lat":43.305427,"lon":5.36555,"is_reserved":false,"is_disabled":false,"rental_uris":{"android":"levelo://app?vid=b35a3a9d-9039-4058-9299-00a1e7ec526d","ios":"levelo://app?vid=b35a3a9d-9039-4058-9299-00a1e7ec526d"},"vehicle_type_id":"4","last_reported":1738167068,"current_range_meters":5600,"station_id":"ce4bgs12rcd13ifvqcag","pricing_plan_id":"cebpf4jnsgd1na2vs0mg"},{"bike_id":"a00ba4d0-8ef2-4580-b284-03bedf171795","system_id":"levelo_inurba_marseille","lat":43.29691,"lon":5.36586,"is_reserved":false,"is_disabled":false,"rental_uris":{"android":"levelo://app?vid=a00ba4d0-8ef2-4580-b284-03bedf171795","ios":"levelo://app?vid=a00ba4d0-8ef2-4580-b284-03bedf171795"},"vehicle_type_id":"4","last_reported":1738167068,"current_range_meters":6800,"station_id":"ce4bgn12rcd13ifvqbt0","pricing_plan_id":"cebpf4jnsgd1na2vs0mg"},{"bike_id":"af27571c-dbd9-4da4-85f4-96f3d0a1f3af","system_id":"levelo_inurba_marseille","lat":43.25029,"lon":5.38897,"is_reserved":false,"is_disabled":false,"rental_uris":{"android":"levelo://app?vid=af27571c-dbd9-4da4-85f4-96f3d0a1f3af","ios":"levelo://app?vid=af27571c-dbd9-4da4-85f4-96f3d0a1f3af"},"vehicle_type_id":"4","last_reported":1738167068,"current_range_meters":32000,"station_id":"ce4bhgp2rcd13ifvqfd0","pricing_plan_id":"cebpf4jnsgd1na2vs0mg"},{"bike_id":"b4de0ab9-7e49-42b6-9196-d68d8f89669a","system_id":"levelo_inurba_marseille","lat":43.25106,"lon":5.40327,"is_reserved":false,"is_disabled":false,"rental_uris":{"android":"levelo://app?vid=b4de0ab9-7e49-42b6-9196-d68d8f89669a","ios":"levelo://app?vid=b4de0ab9-7e49-42b6-9196-d68d8f89669a"},"vehicle_type_id":"4","last_reported":1738167068,"current_range_meters":16800,"station_id":"ce4bhlh2rcd13ifvqgig","pricing_plan_id":"cebpf4jnsgd1na2vs0mg"},{"bike_id":"b9615491-40c4-4e88-b20c-ce4201425bf1","system_id":"levelo_inurba_marseille","lat":43.26693,"lon":5.38251,"is_reserved":false,"is_disabled":false,"rental_uris":{"android":"levelo://app?vid=b9615491-40c4-4e88-b20c-ce4201425bf1","ios":"levelo://app?vid=b9615491-40c4-4e88-b20c-ce4201425bf1"},"vehicle_type_id":"4","last_reported":1738167068,"current_range_meters":25600,"station_id":"ce4bhg92rcd13ifvqf90","pricing_plan_id":"cebpf4jnsgd1na2vs0mg"},{"bike_id":"41c95335-f2a5-4897-adae-380fbbffe345","system_id":"levelo_inurba_marseille","lat":43.28934,"lon":5.36398,"is_reserved":false,"is_disabled":false,"rental_uris":{"android":"levelo://app?vid=41c95335-f2a5-4897-adae-380fbbffe345","ios":"levelo://app?vid=41c95335-f2a5-4897-adae-380fbbffe345"},"vehicle_type_id":"4","last_reported":1738167068,"current_range_meters":38800,"station_id":"ce4bhc92rcd13ifvqetg","pricing_plan_id":"cebpf4jnsgd1na2vs0mg"},{"bike_id":"b8aaad74-d8ee-44c8-a6ec-50ab1e220cb9","system_id":"levelo_inurba_marseille","lat":43.31262,"lon":5.36875,"is_reserved":false,"is_disabled":true,"rental_uris":{"android":"levelo://app?vid=b8aaad74-d8ee-44c8-a6ec-50ab1e220cb9","ios":"levelo://app?vid=b8aaad74-d8ee-44c8-a6ec-50ab1e220cb9"},"vehicle_type_id":"4","last_reported":1738167068,"current_range_meters":0,"station_id":"ce4bgl92rcd13ifvqbq0","pricing_plan_id":"cebpf4jnsgd1na2vs0mg"},{"bike_id":"0149f8c0-d241-405c-9d52-3d839e80a0f6","system_id":"levelo_inurba_marseille","lat":43.29185,"lon":5.36068,"is_reserved":false,"is_disabled":true,"rental_uris":{"android":"levelo://app?vid=0149f8c0-d241-405c-9d52-3d839e80a0f6","ios":"levelo://app?vid=0149f8c0-d241-405c-9d52-3d839e80a0f6"},"vehicle_type_id":"4","last_reported":1738167068,"current_range_meters":0,"station_id":"","pricing_plan_id":"cebpf4jnsgd1na2vs0mg"},{"bike_id":"db1e6242-0d20-4475-9f35-54518a3e96dd","system_id":"levelo_inurba_marseille","lat":43.303021,"lon":5.369065,"is_reserved":false,"is_disabled":false,"rental_uris":{"android":"levelo://app?vid=db1e6242-0d20-4475-9f35-54518a3e96dd","ios":"levelo://app?vid=db1e6242-0d20-4475-9f35-54518a3e96dd"},"vehicle_type_id":"4","last_reported":1738167068,"current_range_meters":33200,"station_id":"ce4bgqh2rcd13ifvqc5g","pricing_plan_id":"cebpf4jnsgd1na2vs0mg"},{"bike_id":"26b39368-5d98-4cb3-910a-49f1019f8413","system_id":"levelo_inurba_marseille","lat":43.293002,"lon":5.371545,"is_reserved":false,"is_disabled":false,"rental_uris":{"android":"levelo://app?vid=26b39368-5d98-4cb3-910a-49f1019f8413","ios":"levelo://app?vid=26b39368-5d98-4cb3-910a-49f1019f8413"},"vehicle_type_id":"4","last_reported":1738167068,"current_range_meters":38000,"station_id":"","pricing_plan_id":"cebpf4jnsgd1na2vs0mg"},{"bike_id":"3fee8afb-f8f3-49eb-938c-1004961a292d","system_id":"levelo_inurba_marseille","lat":43.29994,"lon":5.38484,"is_reserved":false,"is_disabled":true,"rental_uris":{"android":"levelo://app?vid=3fee8afb-f8f3-49eb-938c-1004961a292d","ios":"levelo://app?vid=3fee8afb-f8f3-49eb-938c-1004961a292d"},"vehicle_type_id":"4","last_reported":1738167068,"current_range_meters":18000,"station_id":"ce4bgj92rcd13ifvqbd0","pricing_plan_id":"cebpf4jnsgd1na2vs0mg"},{"bike_id":"c88a8972-a497-41be-b9ed-a94d05e055eb","system_id":"levelo_inurba_marseille","lat":43.2953,"lon":5.39396,"is_reserved":false,"is_disabled":true,"rental_uris":{"android":"levelo://app?vid=c88a8972-a497-41be-b9ed-a94d05e055eb","ios":"levelo://app?vid=c88a8972-a497-41be-b9ed-a94d05e055eb"},"vehicle_type_id":"4","last_reported":1738167068,"current_range_meters":2000,"station_id":"ce4bh292rcd13ifvqdf0","pricing_plan_id":"cebpf4jnsgd1na2vs0mg"},{"bike_id":"536eca9d-7342-4be3-a146-01b7a91d7af7","system_id":"levelo_inurba_marseille","lat":43.27175,"lon":5.40982,"is_reserved":false,"is_disabled":false,"rental_uris":{"android":"levelo://app?vid=536eca9d-7342-4be3-a146-01b7a91d7af7","ios":"levelo://app?vid=536eca9d-7342-4be3-a146-01b7a91d7af7"},"vehicle_type_id":"4","last_reported":1738167068,"current_range_meters":8000,"station_id":"ce4bhl12rcd13ifvqgf0","pricing_plan_id":"cebpf4jnsgd1na2vs0mg"},{"bike_id":"e5309451-3a7e-43ab-926a-e4179992c6ac","system_id":"levelo_inurba_marseille","lat":43.27985,"lon":5.41666,"is_reserved":false,"is_disabled":false,"rental_uris":{"android":"levelo://app?vid=e5309451-3a7e-43ab-926a-e4179992c6ac","ios":"levelo://app?vid=e5309451-3a7e-43ab-926a-e4179992c6ac"},"vehicle_type_id":"4","last_reported":1738167068,"current_range_meters":35200,"station_id":"ce4bho12rcd13ifvqh1g","pricing_plan_id":"cebpf4jnsgd1na2vs0mg"},{"bike_id":"419228c4-5b44-40c1-ac6e-8b479f1c413f","system_id":"levelo_inurba_marseille","lat":43.29619,"lon":5.37728,"is_reserved":false,"is_disabled":false,"rental_uris":{"android":"levelo://app?vid=419228c4-5b44-40c1-ac6e-8b479f1c413f","ios":"levelo://app?vid=419228c4-5b44-40c1-ac6e-8b479f1c413f"},"vehicle_type_id":"4","last_reported":1738167068,"current_range_meters":6000,"station_id":"ce4bgi92rcd13ifvqb90","pricing_plan_id":"cebpf4jnsgd1na2vs0mg"},{"bike_id":"d54bb52f-f248-4491-959b-36de4ea93cef","system_id":"levelo_inurba_marseille","lat":43.25872,"lon":5.39882,"is_reserved":false,"is_disabled":false,"rental_uris":{"android":"levelo://app?vid=d54bb52f-f248-4491-959b-36de4ea93cef","ios":"levelo://app?vid=d54bb52f-f248-4491-959b-36de4ea93cef"},"vehicle_type_id":"4","last_reported":1738167068,"current_range_meters":7200,"station_id":"ce4bhl92rcd13ifvqghg","pricing_plan_id":"cebpf4jnsgd1na2vs0mg"},{"bike_id":"ac5c0433-0cb9-4d90-b306-1b90050d5eaa","system_id":"levelo_inurba_marseille","lat":43.2655,"lon":5.37285,"is_reserved":false,"is_disabled":false,"rental_uris":{"android":"levelo://app?vid=ac5c0433-0cb9-4d90-b306-1b90050d5eaa","ios":"levelo://app?vid=ac5c0433-0cb9-4d90-b306-1b90050d5eaa"},"vehicle_type_id":"4","last_reported":1738167068,"current_range_meters":27200,"station_id":"ce4bhg12rcd13ifvqf70","pricing_plan_id":"cebpf4jnsgd1na2vs0mg"},