{"last_updated":1702206338,"ttl":30,"version":"2.2","data":{"bikes":[{"bike_id":"193edc23-0b38-41a8-b183-b116744e39cc","system_id":"levelo_inurba_marseille","lat":43.314811,"lon":5.373103,"is_reserved":false,"is_disabled":false,"rental_uris":{"android":"levelo://app?vid=193edc23-0b38-41a8-b183-b116744e39cc","ios":"levelo://app?vid=193edc23-0b38-41a8-b183-b116744e39cc"},"vehicle_type_id":"4","last_reported":1702206339,"current_range_meters":15200,"station_id":"ce4bgt12rcd13ifvqcd0","pricing_plan_id":"free"},{"bike_id":"9d5e2381-23d7-4a1f-b02d-fbdbe1b0c117","system_id":"levelo_inurba_marseille","lat":43.309039,"lon":5.371797,"is_reserved":false,"is_disabled":false,"rental_uris":{"android":"levelo://app?vid=9d5e2381-23d7-4a1f-b02d-fbdbe1b0c117","ios":"levelo://app?vid=9d5e2381-23d7-4a1f-b02d-fbdbe1b0c117"},"vehicle_type_id":"4","last_reported":1702206339,"current_range_meters":5600,"station_id":"ce4bguh2rcd13ifvqckg","pricing_plan_id":"free"},{"bike_id":"0a3326dc-be74-4d55-9bc9-b5b5d5b32d4a","system_id":"levelo_inurba_marseille","lat":43.305712,"lon":5.365641,"is_reserved":false,"is_disabled":false,"rental_uris":{"android":"levelo://app?vid=0a3326dc-be74-4d55-9bc9-b5b5d5b32d4a","ios":"levelo://app?vid=0a3326dc-be74-4d55-9bc9-b5b5d5b32d4a"},"vehicle_type_id":"4","last_reported":1702206339,"current_range_meters":25600,"station_id":"ce4bgs12rcd13ifvqcag","pricing_plan_id":"free"},{"bike_id":"b046d570-4eeb-4b30-b9b9-cb66e61067d2","system_id":"levelo_inurba_marseille","lat":43.305368,"lon":5.367343,"is_reserved":false,"is_disabled":false,"rental_uris":{"android":"levelo://app?vid=b046d570-4eeb-4b30-b9b9-cb66e61067d2","ios":"levelo://app?vid=b046d570-4eeb-4b30-b9b9-cb66e61067d2"},"vehicle_type_id":"4","last_reported":1702206339,"current_range_meters":28000,"station_id":"ce4bgrp2rcd13ifvqc9g","pricing_plan_id":"free"},{"bike_id":"0437b84f-ada0-4342-9013-072616a750c6","system_id":"levelo_inurba_marseille","lat":43.305989,"lon":5.37225,"is_reserved":false,"is_disabled":false,"rental_uris":{"android":"levelo://app?vid=0437b84f-ada0-4342-9013-072616a750c6","ios":"levelo://app?vid=0437b84f-ada0-4342-9013-072616a750c6"},"vehicle_type_id":"4","last_reported":1702206339,"current_range_meters":6400,"station_id":"ce4bgqh2rcd13ifvqc4g","pricing_plan_id":"free"},{"bike_id":"fed02d1e-9aa9-412f-bc8e-8ec120dd269c","system_id":"levelo_inurba_marseille","lat":43.305989,"lon":5.37225,"is_reserved":false,"is_disabled":false,"rental_uris":{"android":"levelo://app?vid=fed02d1e-9aa9-412f-bc8e-8ec120dd269c","ios":"levelo://app?vid=fed02d1e-9aa9-412f-bc8e-8ec120dd269c"},"vehicle_type_id":"4","last_reported":1702206339,"current_range_meters":22000,"station_id":"ce4bgqh2rcd13ifvqc4g","pricing_plan_id":"free"},{"bike_id":"dd078838-dd8c-486c-926b-7ee396713183","system_id":"levelo_inurba_marseille","lat":43.30596,"lon":5.37229,"is_reserved":false,"is_disabled":false,"rental_uris":{"android":"levelo://app?vid=dd078838-dd8c-486c-926b-7ee396713183","ios":"levelo://app?vid=dd078838-dd8c-486c-926b-7ee396713183"},"vehicle_type_id":"4","last_reported":1702206339,"current_range_meters":24800,"station_id":"ce4bgqh2rcd13ifvqc4g","pricing_plan_id":"free"},{"bike_id":"40fd5225-dd87-4a92-a1cd-eae715b14296","system_id":"levelo_inurba_marseille","lat":43.31112,"lon":5.37759,"is_reserved":false,"is_disabled":false,"rental_uris":{"android":"levelo://app?vid=40fd5225-dd87-4a92-a1cd-eae715b14296","ios":"levelo://app?vid=40fd5225-dd87-4a92-a1cd-eae715b14296"},"vehicle_type_id":"4","last_reported":1702206339,"current_range_meters":31200,"station_id":"ce4bgt92rcd13ifvqcg0","pricing_plan_id":"free"},{"bike_id":"6047b679-ba72-4d83-82e3-f22c06b724c8","system_id":"levelo_inurba_marseille","lat":43.301939,"lon":5.366286,"is_reserved":false,"is_disabled":false,"rental_uris":{"android":"levelo://app?vid=6047b679-ba72-4d83-82e3-f22c06b724c8","ios":"levelo://app?vid=6047b679-ba72-4d83-82e3-f22c06b724c8"},"vehicle_type_id":"4","last_reported":1702206339,"current_range_meters":26800,"station_id":"ce4bgrh2rcd13ifvqc8g","pricing_plan_id":"free"},{"bike_id":"a82b5636-7b64-460c-8fd4-5c1947e9fffd","system_id":"levelo_inurba_marseille","lat":43.307996,"lon":5.381429,"is_reserved":false,"is_disabled":false,"rental_uris":{"android":"levelo://app?vid=a82b5636-7b64-460c-8fd4-5c1947e9fffd","ios":"levelo://app?vid=a82b5636-7b64-460c-8fd4-5c1947e9fffd"},"vehicle_type_id":"4","last_reported":1702206339,"current_range_meters":31200,"station_id":"ce4bgt12rcd13ifvqce0","pricing_plan_id":"free"},{"bike_id":"7460669f-ec83-4385-a615-168915ce99ee","system_id":"levelo_inurba_marseille","lat":43.308012,"lon":5.381511,"is_reserved":false,"is_disabled":false,"rental_uris":{"android":"levelo://app?vid=7460669f-ec83-4385-a615-168915ce99ee","ios":"levelo://app?vid=7460669f-ec83-4385-a615-168915ce99ee"},"vehicle_type_id":"4","last_reported":1702206339,"current_range_meters":14000,"station_id":"ce4bgt12rcd13ifvqce0","pricing_plan_id":"free"},{"bike_id":"77ffa0ae-5a40-4796-bae7-f79f0a4dce3d","system_id":"levelo_inurba_marseille","lat":43.302784,"lon":5.377158,"is_reserved":false,"is_disabled":false,"rental_uris":{"android":"levelo://app?vid=77ffa0ae-5a40-4796-bae7-f79f0a4dce3d","ios":"levelo://app?vid=77ffa0ae-5a40-4796-bae7-f79f0a4dce3d"},"vehicle_type_id":"4","last_reported":1702206339,"current_range_meters":2400,"station_id":"ce4bguh2rcd13ifvqcj0","pricing_plan_id":"free"},{"bike_id":"b6da99c5-b960-43e6-af69-524fff074ab9","system_id":"levelo_inurba_marseille","lat":43.302784,"lon":5.377158,"is_reserved":false,"is_disabled":false,"rental_uris":{"android":"levelo://app?vid=b6da99c5-b960-43e6-af69-524fff074ab9","ios":"levelo://app?vid=b6da99c5-b960-43e6-af69-524fff074ab9"},"vehicle_type_id":"4","last_reported":1702206339,"current_range_meters":22800,"station_id":"ce4bguh2rcd13ifvqcj0","pricing_plan_id":"free"},{"bike_id":"e606102b-a630-4793-8c67-412e6b33c3ae","system_id":"levelo_inurba_marseille","lat":43.31997,"lon":5.38155,"is_reserved":false,"is_disabled":false,"rental_uris":{"android":"levelo://app?vid=e606102b-a630-4793-8c67-412e6b33c3ae","ios":"levelo://app?vid=e606102b-a630-4793-8c67-412e6b33c3ae"},"vehicle_type_id":"4","last_reported":1702206339,"current_range_meters":10800,"station_id":"ce4bhr12rcd13ifvqhpg","pricing_plan_id":"free"},{"bike_id":"163f33b8-c9cb-4fd5-912d-7bfb438ab7dd","system_id":"levelo_inurba_marseille","lat":43.31362,"lon":5.38484,"is_reserved":false,"is_disabled":false,"rental_uris":{"android":"levelo://app?vid=163f33b8-c9cb-4fd5-912d-7bfb438ab7dd","ios":"levelo://app?vid=163f33b8-c9cb-4fd5-912d-7bfb438ab7dd"},"vehicle_type_id":"4","last_reported":1702206339,"current_range_meters":9600,"station_id":"ce4bgt92rcd13ifvqcf0","pricing_plan_id":"free"},{"bike_id":"18479a15-fb47-485b-8d92-c996b691184c","system_id":"levelo_inurba_marseille","lat":43.313571,"lon":5.384829,"is_reserved":false,"is_disabled":false,"rental_uris":{"android":"levelo://app?vid=18479a15-fb47-485b-8d92-c996b691184c","ios":"levelo://app?vid=18479a15-fb47-485b-8d92-c996b691184c"},"vehicle_type_id":"4","last_reported":1702206339,"current_range_meters":19200,"station_id":"ce4bgt92rcd13ifvqcf0","pricing_plan_id":"free"},{"bike_id":"d8be298e-f4c0-4479-a66b-e307c680d7cc","system_id":"levelo_inurba_marseille","lat":43.31356,"lon":5.38493,"is_reserved":false,"is_disabled":false,"rental_uris":{"android":"levelo://app?vid=d8be298e-f4c0-4479-a66b-e307c680d7cc","ios":"levelo://app?vid=d8be298e-f4c0-4479-a66b-e307c680d7cc"},"vehicle_type_id":"4","last_reported":1702206339,"current_range_meters":20400,"station_id":"ce4bgt92rcd13ifvqcf0","pricing_plan_id":"free"},{"bike_id":"39f8c234-b410-410a-80ef-1039e309d610","system_id":"levelo_inurba_marseille","lat":43.29941,"lon":5.365337,"is_reserved":false,"is_disabled":false,"rental_uris":{"android":"levelo://app?vid=39f8c234-b410-410a-80ef-1039e309d610","ios":"levelo://app?vid=39f8c234-b410-410a-80ef-1039e309d610"},"vehicle_type_id":"4","last_reported":1702206339,"current_range_meters":22000,"station_id":"ce4bgm92rcd13ifvqbr0","pricing_plan_id":"free"},{"bike_id":"fa0f6121-5666-4aa2-ba4b-b8713fbc9e2d","system_id":"levelo_inurba_marseille","lat":43.29937,"lon":5.36521,"is_reserved":false,"is_disabled":false,"rental_uris":{"android":"levelo://app?vid=fa0f6121-5666-4aa2-ba4b-b8713fbc9e2d","ios":"levelo://app?vid=fa0f6121-5666-4aa2-ba4b-b8713fbc9e2d"},"vehicle_type_id":"4","last_reported":1702206339,"current_range_meters":30400,"station_id":"ce4bgm92rcd13ifvqbr0","pricing_plan_id":"free"},{"bike_id":"d4323300-b469-4241-93c9-dcbf4a1a9f58","system_id":"levelo_inurba_marseille","lat":43.299724,"lon":5.371829,"is_reserved":false,"is_disabled":false,"rental_uris":{"android":"levelo://app?vid=d4323300-b469-4241-93c9-dcbf4a1a9f58","ios":"levelo://app?vid=d4323300-b469-4241-93c9-dcbf4a1a9f58"},"vehicle_type_id":"4","last_reported":1702206339,"current_range_meters":25200,"station_id":"ce4bgr92rcd13ifvqc7g","pricing_plan_id":"free"},{"bike_id":"c0a64277-f5dd-4691-8acb-5c084fb0cfac","system_id":"levelo_inurba_marseille","lat":43.298433,"lon":5.362774,"is_reserved":false,"is_disabled":false,"rental_uris":{"android":"levelo://app?vid=c0a64277-f5dd-4691-8acb-5c084fb0cfac","ios":"levelo://app?vid=c0a64277-f5dd-4691-8acb-5c084fb0cfac"},"vehicle_type_id":"4","last_reported":1702206339,"current_range_meters":26800,"station_id":"ce4bgpp2rcd13ifvqc3g","pricing_plan_id":"free"},{"bike_id":"c83a0210-bd4d-48be-bfb1-022b033daf6b","system_id":"levelo_inurba_marseille","lat":43.298433,"lon":5.362774,"is_reserved":false,"is_disabled":false,"rental_uris":{"android":"levelo://app?vid=c83a0210-bd4d-48be-bfb1-022b033daf6b","ios":"levelo://app?vid=c83a0210-bd4d-48be-bfb1-022b033daf6b"},"vehicle_type_id":"4","last_reported":1702206339,"current_range_meters":22800,"station_id":"ce4bgpp2rcd13ifvqc3g","pricing_plan_id":"free"},{"bike_id":"99780083-e608-4de6-979d-f0054908036e","system_id":"levelo_inurba_marseille","lat":43.305364,"lon":5.384119,"is_reserved":false,"is_disabled":false,"rental_uris":{"android":"levelo://app?vid=99780083-e608-4de6-979d-f0054908036e","ios":"levelo://app?vid=99780083-e608-4de6-979d-f0054908036e"},"vehicle_type_id":"4","last_reported":1702206339,"current_range_meters":26800,"station_id":"ce4bgg92rcd13ifvqb30","pricing_plan_id":"free"},{"bike_id":"33faa088-0255-4478-aac4-69ea1e4c0470","system_id":"levelo_inurba_marseille","lat":43.305364,"lon":5.384119,"is_reserved":false,"is_disabled":false,"rental_uris":{"android":"levelo://app?vid=33faa088-0255-4478-aac4-69ea1e4c0470","ios":"levelo://app?vid=33faa088-0255-4478-aac4-69ea1e4c0470"},"vehicle_type_id":"4","last_reported":1702206339,"current_range_meters":21200,"station_id":"ce4bgg92rcd13ifvqb30","pricing_plan_id":"free"},{"bike_id":"3fb272ad-b923-40ef-ad47-53fb17c945b4","system_id":"levelo_inurba_marseille","lat":43.298433,"lon":5.362774,"is_reserved":false,"is_disabled":false,"rental_uris":{"android":"levelo://app?vid=3fb272ad-b923-40ef-ad47-53fb17c945b4","ios":"levelo://app?vid=3fb272ad-b923-40ef-ad47-53fb17c945b4"},"vehicle_type_id":"4","last_reported":1702206339,"current_range_meters":26400,"station_id":"ce4bgpp2rcd13ifvqc3g","pricing_plan_id":"free"},{"bike_id":"b5bf9ac7-37c1-4dcf-a6ab-5f20f4514355","system_id":"levelo_inurba_marseille","lat":43.298433,"lon":5.362774,"is_reserved":false,"is_disabled":false,"rental_uris":{"android":"levelo://app?vid=b5bf9ac7-37c1-4dcf-a6ab-5f20f4514355","ios":"levelo://app?vid=b5bf9ac7-37c1-4dcf-a6ab-5f20f4514355"},"vehicle_type_id":"4","last_reported":1702206339,"current_range_meters":22400,"station_id":"ce4bgpp2rcd13ifvqc3g","pricing_plan_id":"free"},{"bike_id":"6f9b7a36-6cf5-4e58-bbf0-73a2baf67dd3","system_id":"levelo_inurba_marseille","lat":43.298433,"lon":5.362774,"is_reserved":false,"is_disabled":false,"rental_uris":{"android":"levelo://app?vid=6f9b7a36-6cf5-4e58-bbf0-73a2baf67dd3","ios":"levelo://app?vid=6f9b7a36-6cf5-4e58-bbf0-73a2baf67dd3"},"vehicle_type_id":"4","last_reported":1702206339,"current_range_meters":10800,"station_id":"ce4bgpp2rcd13ifvqc3g","pricing_plan_id":"free"},{"bike_id":"e854c070-66ac-4d09-9c46-8628c53f6f89","system_id":"levelo_inurba_marseille","lat":43.311722,"lon":5.387247,"is_reserved":false,"is_disabled":false,"rental_uris":{"android":"levelo://app?vid=e854c070-66ac-4d09-9c46-8628c53f6f89","ios":"levelo://app?vid=e854c070-66ac-4d09-9c46-8628c53f6f89"},"vehicle_type_id":"4","last_reported":1702206339,"current_range_meters":24400,"station_id":"ce4bgv12rcd13ifvqcp0","pricing_plan_id":"free"},{"bike_id":"0370f0dd-02e1-44c3-b626-7cdd11d7ffac","system_id":"levelo_inurba_marseille","lat":43.32287,"lon":5.38266,"is_reserved":false,"is_disabled":false,"rental_uris":{"android":"levelo://app?vid=0370f0dd-02e1-44c3-b626-7cdd11d7ffac","ios":"levelo://app?vid=0370f0dd-02e1-44c3-b626-7cdd11d7ffac"},"vehicle_type_id":"4","last_reported":1702206339,"current_range_meters":30800,"station_id":"ce4bhr12rcd13ifvqhqg","pricing_plan_id":"free"},{"bike_id":"ccd4fbf7-a0c2-498b-8ecc-15a67004cff0","system_id":"levelo_inurba_marseille","lat":43.322872,"lon":5.382756,"is_reserved":false,"is_disabled":false,"rental_uris":{"android":"levelo://app?vid=ccd4fbf7-a0c2-498b-8ecc-15a67004cff0","ios":"levelo://app?vid=ccd4fbf7-a0c2-498b-8ecc-15a67004cff0"},"vehicle_type_id":"4","last_reported":1702206339,"current_range_meters":15200,"station_id":"ce4bhr12rcd13ifvqhqg","pricing_plan_id":"free"},{"bike_id":"6ac675f1-e0be-498c-ad2f-b742a949d4b0","system_id":"levelo_inurba_marseille","lat":43.298218,"lon":5.374416,"is_reserved":false,"is_disabled":false,"rental_uris":{"android":"levelo://app?vid=6ac675f1-e0be-498c-ad2f-b742a949d4b0","ios":"levelo://app?vid=6ac675f1-e0be-498c-ad2f-b742a949d4b0"},"vehicle_type_id":"4","last_reported":1702206339,"current_range_meters":0,"station_id":"","pricing_plan_id":"free"},{"bike_id":"9a75aac0-2e54-4ffe-8b56-07e48315b873","system_id":"levelo_inurba_marseille","lat":43.32832,"lon":5.366834,"is_reserved":false,"is_disabled":false,"rental_uris":{"android":"levelo://app?vid=9a75aac0-2e54-4ffe-8b56-07e48315b873","ios":"levelo://app?vid=9a75aac0-2e54-4ffe-8b56-07e48315b873"},"vehicle_type_id":"4","last_reported":1702206339,"current_range_meters":24000,"station_id":"ce4bhs92rcd13ifvqi0g","pricing_plan_id":"free"},{"bike_id":"f61b677f-3973-45fb-b83e-f707a2caddc7","system_id":"levelo_inurba_marseille","lat":43.297163,"lon":5.365866,"is_reserved":false,"is_disabled":false,"rental_uris":{"android":"levelo://app?vid=f61b677f-3973-45fb-b83e-f707a2caddc7","ios":"levelo://app?vid=f61b677f-3973-45fb-b83e-f707a2caddc7"},"vehicle_type_id":"4","last_reported":1702206339,"current_range_meters":29600,"station_id":"ce4bgn12rcd13ifvqbt0","pricing_plan_id":"free"},{"bike_id":"e149d478-d444-4609-8060-a19b33662839","system_id":"levelo_inurba_marseille","lat":43.297163,"lon":5.365866,"is_reserved":false,"is_disabled":false,"rental_uris":{"android":"levelo://app?vid=e149d478-d444-4609-8060-a19b33662839","ios":"levelo://app?vid=e149d478-d444-4609-8060-a19b33662839"},"vehicle_type_id":"4","last_reported":1702206339,"current_range_meters":19200,"station_id":"ce4bgn12rcd13ifvqbt0","pricing_plan_id":"free"},{"bike_id":"84d177d6-87ee-4f1e-ba8b-e9b7505b4fd5","system_id":"levelo_inurba_marseille","lat":43.2968,"lon":5.37291,"is_reserved":false,"is_disabled":false,"rental_uris":{"android":"levelo://app?vid=84d177d6-87ee-4f1e-ba8b-e9b7505b4fd5","ios":"levelo://app?vid=84d177d6-87ee-4f1e-ba8b-e9b7505b4fd5"},"vehicle_type_id":"4","last_reported":1702206339,"current_range_meters":29600,"station_id":"ce4bgk12rcd13ifvqbj0","pricing_plan_id":"free"},{"bike_id":"9541beab-69a1-4cd5-a869-bf3e5616a0ce","system_id":"levelo_inurba_marseille","lat":43.296129,"lon":5.370777,"is_reserved":false,"is_disabled":false,"rental_uris":{"android":"levelo://app?vid=9541beab-69a1-4cd5-a869-bf3e5616a0ce","ios":"levelo://app?vid=9541beab-69a1-4cd5-a869-bf3e5616a0ce"},"vehicle_type_id":"4","last_reported":1702206339,"current_range_meters":31200,"station_id":"ce4bgnh2rcd13ifvqc0g","pricing_plan_id":"free"},{"bike_id":"76c0d334-27f1-4d6e-ba52-b131f608aaa2","system_id":"levelo_inurba_marseille","lat":43.29586,"lon":5.36731,"is_reserved":false,"is_disabled":false,"rental_uris":{"android":"levelo://app?vid=76c0d334-27f1-4d6e-ba52-b131f608aaa2","ios":"levelo://app?vid=76c0d334-27f1-4d6e-ba52-b131f608aaa2"},"vehicle_type_id":"4","last_reported":1702206339,"current_range_meters":1600,"station_id":"ce4bgph2rcd13ifvqc2g","pricing_plan_id":"free"},{"bike_id":"92dc65d6-6823-4de3-93d4-056f738f090c","system_id":"levelo_inurba_marseille","lat":43.316538,"lon":5.38954,"is_reserved":false,"is_disabled":false,"rental_uris":{"android":"levelo://app?vid=92dc65d6-6823-4de3-93d4-056f738f090c","ios":"levelo://app?vid=92dc65d6-6823-4de3-93d4-056f738f090c"},"vehicle_type_id":"4","last_reported":1702206339,"current_range_meters":0,"station_id":"","pricing_plan_id":"free"},{"bike_id":"380f034b-5370-4d56-ac23-33943140ae21","system_id":"levelo_inurba_marseille","lat":43.29583,"lon":5.36725,"is_reserved":false,"is_disabled":false,"rental_uris":{"android":"levelo://app?vid=380f034b-5370-4d56-ac23-33943140ae21","ios":"levelo://app?vid=380f034b-5370-4d56-ac23-33943140ae21"},"vehicle_type_id":"4","last_reported":1702206339,"current_range_meters":21600,"station_id":"ce4bgph2rcd13ifvqc2g","pricing_plan_id":"free"},{"bike_id":"3ac01fee-4687-430d-8e90-19b9e8655136","system_id":"levelo_inurba_marseille","lat":43.29573,"lon":5.367355,"is_reserved":false,"is_disabled":false,"rental_uris":{"android":"levelo://app?vid=3ac01fee-4687-430d-8e90-19b9e8655136","ios":"levelo://app?vid=3ac01fee-4687-430d-8e90-19b9e8655136"},"vehicle_type_id":"4","last_reported":1702206339,"current_range_meters":24000,"station_id":"ce4bgph2rcd13ifvqc2g","pricing_plan_id":"free"},{"bike_id":"93ed1efe-4eff-4b43-9c54-d8aaa3548f7d","system_id":"levelo_inurba_marseille","lat":43.317557,"lon":5.390173,"is_reserved":false,"is_disabled":false,"rental_uris":{"android":"levelo://app?vid=93ed1efe-4eff-4b43-9c54-d8aaa3548f7d","ios":"levelo://app?vid=93ed1efe-4eff-4b43-9c54-d8aaa3548f7d"},"vehicle_type_id":"4","last_reported":1702206339,"current_range_meters":400,"station_id":"ce4bhqp2rcd13ifvqhng","pricing_plan_id":"free"},{"bike_id":"81253b6d-7c76-4099-a048-26399a5352ae","system_id":"levelo_inurba_marseille","lat":43.295748,"lon":5.37522,"is_reserved":false,"is_disabled":false,"rental_uris":{"android":"levelo://app?vid=81253b6d-7c76-4099-a048-26399a5352ae","ios":"levelo://app?vid=81253b6d-7c76-4099-a048-26399a5352ae"},"vehicle_type_id":"4","last_reported":1702206339,"current_range_meters":24800,"station_id":"ce4bgh92rcd13ifvqb50","pricing_plan_id":"free"},{"bike_id":"80838f51-6a2a-4ce1-87bb-150370e5b11b","system_id":"levelo_inurba_marseille","lat":43.295279,"lon":5.375048,"is_reserved":false,"is_disabled":false,"rental_uris":{"android":"levelo://app?vid=80838f51-6a2a-4ce1-87bb-150370e5b11b","ios":"levelo://app?vid=80838f51-6a2a-4ce1-87bb-150370e5b11b"},"vehicle_type_id":"4","last_reported":1702206339,"current_range_meters":29600,"station_id":"ce4bgkp2rcd13ifvqbmg","pricing_plan_id":"free"},{"bike_id":"b2a22457-52f8-4e6e-90c4-3de1a5860a41","system_id":"levelo_inurba_marseille","lat":43.299717,"lon":5.384845,"is_reserved":false,"is_disabled":false,"rental_uris":{"android":"levelo://app?vid=b2a22457-52f8-4e6e-90c4-3de1a5860a41","ios":"levelo://app?vid=b2a22457-52f8-4e6e-90c4-3de1a5860a41"},"vehicle_type_id":"4","last_reported":1702206339,"current_range_meters":24000,"station_id":"ce4bgj92rcd13ifvqbd0","pricing_plan_id":"free"},{"bike_id":"417ae03d-ee8c-4d9a-a326-521f4c35b23b","system_id":"levelo_inurba_marseille","lat":43.295279,"lon":5.375048,"is_reserved":false,"is_disabled":false,"rental_uris":{"android":"levelo://app?vid=417ae03d-ee8c-4d9a-a326-521f4c35b23b","ios":"levelo://app?vid=417ae03d-ee8c-4d9a-a326-521f4c35b23b"},"vehicle_type_id":"4","last_reported":1702206339,"current_range_meters":28800,"station_id":"ce4bgkp2rcd13ifvqbmg","pricing_plan_id":"free"},{"bike_id":"07431399-9bd3-4878-aa2f-dddfe02a5108","system_id":"levelo_inurba_marseille","lat":43.292749,"lon":5.368402,"is_reserved":false,"is_disabled":false,"rental_uris":{"android":"levelo://app?vid=07431399-9bd3-4878-aa2f-dddfe02a5108","ios":"levelo://app?vid=07431399-9bd3-4878-aa2f-dddfe02a5108"},"vehicle_type_id":"4","last_reported":1702206339,"current_range_meters":0,"station_id":"ce4bhbp2rcd13ifvqesg","pricing_plan_id":"free"},{"bike_id":"f06f6edb-6ff7-4932-ac51-3e3e8321dad0","system_id":"levelo_inurba_marseille","lat":43.29304,"lon":5.37455,"is_reserved":false,"is_disabled":false,"rental_uris":{"android":"levelo://app?vid=f06f6edb-6ff7-4932-ac51-3e3e8321dad0","ios":"levelo://app?vid=f06f6edb-6ff7-4932-ac51-3e3e8321dad0"},"vehicle_type_id":"4","last_reported":1702206339,"current_range_meters":26000,"station_id":"ce4bgi12rcd13ifvqb70","pricing_plan_id":"free"},{"bike_id":"265ccf2a-f8e3-492f-8d80-d42510c83b87","system_id":"levelo_inurba_marseille","lat":43.294162,"lon":5.386292,"is_reserved":false,"is_disabled":false,"rental_uris":{"android":"levelo://app?vid=265ccf2a-f8e3-492f-8d80-d42510c83b87","ios":"levelo://app?vid=265ccf2a-f8e3-492f-8d80-d42510c83b87"},"vehicle_type_id":"4","last_reported":1702206339,"current_range_meters":14400,"station_id":"ce4bh2h2rcd13ifvqdh0","pricing_plan_id":"free"},{"bike_id":"0d55287e-6324-4a21-96f1-2aa124f5d1a5","system_id":"levelo_inurba_marseille","lat":43.290161,"lon":5.375651,"is_reserved":false,"is_disabled":false,"rental_uris":{"android":"levelo://app?vid=0d55287e-6324-4a21-96f1-2aa124f5d1a5","ios":"levelo://app?vid=0d55287e-6324-4a21-96f1-2aa124f5d1a5"},"vehicle_type_id":"4","last_reported":1702206339,"current_range_meters":10000,"station_id":"","pricing_plan_id":"free"},{"bike_id":"a02a1b20-1fb1-4951-988a-77389649024d","system_id":"levelo_inurba_marseille","lat":43.289259,"lon":5.366364,"is_reserved":false,"is_disabled":false,"rental_uris":{"android":"levelo://app?vid=a02a1b20-1fb1-4951-988a-77389649024d","ios":"levelo://app?vid=a02a1b20-1fb1-4951-988a-77389649024d"},"vehicle_type_id":"4","last_reported":1702206339,"current_range_meters":8400,"station_id":"","pricing_plan_id":"free"},{"bike_id":"c9e2ea41-608a-4b4e-943c-4ddde6b024e8","system_id":"levelo_inurba_marseille","lat":43.290103,"lon":5.356114,"is_reserved":false,"is_disabled":false,"rental_uris":{"android":"levelo://app?vid=c9e2ea41-608a-4b4e-943c-4ddde6b024e8","ios":"levelo://app?vid=c9e2ea41-608a-4b4e-943c-4ddde6b024e8"},"vehicle_type_id":"4","last_reported":1702206339,"current_range_meters":24800,"station_id":"ce4bhb92rcd13ifvqen0","pricing_plan_id":"free"},{"bike_id":"77a6c46d-d898-4e4f-8846-efa91689c7f0","system_id":"levelo_inurba_marseille","lat":43.330472,"lon":5.389159,"is_reserved":false,"is_disabled":false,"rental_uris":{"android":"levelo://app?vid=77a6c46d-d898-4e4f-8846-efa91689c7f0","ios":"levelo://app?vid=77a6c46d-d898-4e4f-8846-efa91689c7f0"},"vehicle_type_id":"4","last_reported":1702206339,"current_range_meters":0,"station_id":"ce4bhr92rcd13ifvqhrg","pricing_plan_id":"free"},{"bike_id":"bcb23dc9-234a-4073-ae41-388fc3bf1ea9","system_id":"levelo_inurba_marseille","lat":43.290995,"lon":5.381361,"is_reserved":false,"is_disabled":false,"rental_uris":{"android":"levelo://app?vid=bcb23dc9-234a-4073-ae41-388fc3bf1ea9","ios":"levelo://app?vid=bcb23dc9-234a-4073-ae41-388fc3bf1ea9"},"vehicle_type_id":"4","last_reported":1702206339,"current_range_meters":21200,"station_id":"ce4bh512rcd13ifvqe2g","pricing_plan_id":"free"},{"bike_id":"2a165000-fa77-4e2e-a7a1-9f9caafbd6c4","system_id":"levelo_inurba_marseille","lat":43.297824,"lon":5.39328,"is_reserved":false,"is_disabled":false,"rental_uris":{"android":"levelo://app?vid=2a165000-fa77-4e2e-a7a1-9f9caafbd6c4","ios":"levelo://app?vid=2a165000-fa77-4e2e-a7a1-9f9caafbd6c4"},"vehicle_type_id":"4","last_reported":1702206339,"current_range_meters":27200,"station_id":"chh1huq6cuj3fo74tm60","pricing_plan_id":"free"},{"bike_id":"16a548ac-a264-4843-91b1-f67b9819a473","system_id":"levelo_inurba_marseille","lat":43.337383,"lon":5.374693,"is_reserved":false,"is_disabled":false,"rental_uris":{"android":"levelo://app?vid=16a548ac-a264-4843-91b1-f67b9819a473","ios":"levelo://app?vid=16a548ac-a264-4843-91b1-f67b9819a473"},"vehicle_type_id":"4","last_reported":1702206339,"current_range_meters":29200,"station_id":"","pricing_plan_id":"free"},{"bike_id":"047142c2-79d9-47db-aeb4-e1c703cd9abc","system_id":"levelo_inurba_marseille","lat":43.33751,"lon":5.37455,"is_reserved":false,"is_disabled":false,"rental_uris":{"android":"levelo://app?vid=047142c2-79d9-47db-aeb4-e1c703cd9abc","ios":"levelo://app?vid=047142c2-79d9-47db-aeb4-e1c703cd9abc"},"vehicle_type_id":"4","last_reported":1702206339,"current_range_meters":29200,"station_id":"","pricing_plan_id":"free"},{"bike_id":"5c79bc93-8f13-4c40-8a8c-8f35d3902245","system_id":"levelo_inurba_marseille","lat":43.33672,"lon":5.37874,"is_reserved":false,"is_disabled":false,"rental_uris":{"android":"levelo://app?vid=5c79bc93-8f13-4c40-8a8c-8f35d3902245","ios":"levelo://app?vid=5c79bc93-8f13-4c40-8a8c-8f35d3902245"},"vehicle_type_id":"4","last_reported":1702206339,"current_range_meters":11600,"station_id":"","pricing_plan_id":"free"},{"bike_id":"5ed66215-e812-4934-8bd8-05fa06e2778c","system_id":"levelo_inurba_marseille","lat":43.33672,"lon":5.37876,"is_reserved":false,"is_disabled":false,"rental_uris":{"android":"levelo://app?vid=5ed66215-e812-4934-8bd8-05fa06e2778c","ios":"levelo://app?vid=5ed66215-e812-4934-8bd8-05fa06e2778c"},"vehicle_type_id":"4","last_reported":1702206339,"current_range_meters":26800,"station_id":"","pricing_plan_id":"free"},{"bike_id":"eb1c525b-f8f9-47fb-8c9a-d3d08127b4a2","system_id":"levelo_inurba_marseille","lat":43.301117,"lon":5.398795,"is_reserved":false,"is_disabled":false,"rental_uris":{"android":"levelo://app?vid=eb1c525b-f8f9-47fb-8c9a-d3d08127b4a2","ios":"levelo://app?vid=eb1c525b-f8f9-47fb-8c9a-d3d08127b4a2"},"vehicle_type_id":"4","last_reported":1702206339,"current_range_meters":27600,"station_id":"ce4bh0h2rcd13ifvqd40","pricing_plan_id":"free"},{"bike_id":"be47989e-a997-4f9b-9d05-c0e25fec8243","system_id":"levelo_inurba_marseille","lat":43.301117,"lon":5.398795,"is_reserved":false,"is_disabled":false,"rental_uris":{"android":"levelo://app?vid=be47989e-a997-4f9b-9d05-c0e25fec8243","ios":"levelo://app?vid=be47989e-a997-4f9b-9d05-c0e25fec8243"},"vehicle_type_id":"4","last_reported":1702206339,"current_range_meters":31600,"station_id":"ce4bh0h2rcd13ifvqd40","pricing_plan_id":"free"},{"bike_id":"9b7a6e02-58e4-4cb7-b228-e99b3422c9aa","system_id":"levelo_inurba_marseille","lat":43.30143,"lon":5.37413,"is_reserved":false,"is_disabled":false,"rental_uris":{"android":"levelo://app?vid=9b7a6e02-58e4-4cb7-b228-e99b3422c9aa","ios":"levelo://app?vid=9b7a6e02-58e4-4cb7-b228-e99b3422c9aa"},"vehicle_type_id":"4","last_reported":1702206339,"current_range_meters":26400,"station_id":"ce4bgs92rcd13ifvqcc0","pricing_plan_id":"free"},{"bike_id":"08bd1159-e0b3-4e13-b673-ade92101738e","system_id":"levelo_inurba_marseille","lat":43.301117,"lon":5.398795,"is_reserved":false,"is_disabled":false,"rental_uris":{"android":"levelo://app?vid=08bd1159-e0b3-4e13-b673-ade92101738e","ios":"levelo://app?vid=08bd1159-e0b3-4e13-b673-ade92101738e"},"vehicle_type_id":"4","last_reported":1702206339,"current_range_meters":28800,"station_id":"ce4bh0h2rcd13ifvqd40","pricing_plan_id":"free"},{"bike_id":"30229a6b-8162-4ca4-bbb4-8cf7d9caae17","system_id":"levelo_inurba_marseille","lat":43.302759,"lon":5.400793,"is_reserved":false,"is_disabled":false,"rental_uris":{"android":"levelo://app?vid=30229a6b-8162-4ca4-bbb4-8cf7d9caae17","ios":"levelo://app?vid=30229a6b-8162-4ca4-bbb4-8cf7d9caae17"},"vehicle_type_id":"4","last_reported":1702206339,"current_range_meters":15200,"station_id":"ce4bgvh2rcd13ifvqcs0","pricing_plan_id":"free"},{"bike_id":"c0e62308-2579-4e0d-9f05-37bb45dad119","system_id":"levelo_inurba_marseille","lat":43.289307,"lon":5.38406,"is_reserved":false,"is_disabled":false,"rental_uris":{"android":"levelo://app?vid=c0e62308-2579-4e0d-9f05-37bb45dad119","ios":"levelo://app?vid=c0e62308-2579-4e0d-9f05-37bb45dad119"},"vehicle_type_id":"4","last_reported":1702206339,"current_range_meters":15600,"station_id":"ce4bh612rcd13ifvqe6g","pricing_plan_id":"free"},{"bike_id":"345dd8c4-0c41-4123-95a2-458483cb0ecf","system_id":"levelo_inurba_marseille","lat":43.302759,"lon":5.400793,"is_reserved":false,"is_disabled":false,"rental_uris":{"android":"levelo://app?vid=345dd8c4-0c41-4123-95a2-458483cb0ecf","ios":"levelo://app?vid=345dd8c4-0c41-4123-95a2-458483cb0ecf"},"vehicle_type_id":"4","last_reported":1702206339,"current_range_meters":27600,"station_id":"ce4bgvh2rcd13ifvqcs0","pricing_plan_id":"free"},{"bike_id":"341cc646-fab1-4e02-83c6-f18cfd4932fe","system_id":"levelo_inurba_marseille","lat":43.284538,"lon":5.358657,"is_reserved":false,"is_disabled":false,"rental_uris":{"android":"levelo://app?vid=341cc646-fab1-4e02-83c6-f18cfd4932fe","ios":"levelo://app?vid=341cc646-fab1-4e02-83c6-f18cfd4932fe"},"vehicle_type_id":"4","last_reported":1702206339,"current_range_meters":18400,"station_id":"ce4bhah2rcd13ifvqei0","pricing_plan_id":"free"},{"bike_id":"74c6a2e4-6848-4479-8556-2615be17371d","system_id":"levelo_inurba_marseille","lat":43.284538,"lon":5.358657,"is_reserved":false,"is_disabled":false,"rental_uris":{"android":"levelo://app?vid=74c6a2e4-6848-4479-8556-2615be17371d","ios":"levelo://app?vid=74c6a2e4-6848-4479-8556-2615be17371d"},"vehicle_type_id":"4","last_reported":1702206339,"current_range_meters":18000,"station_id":"ce4bhah2rcd13ifvqei0","pricing_plan_id":"free"},{"bike_id":"bdac6b5c-c36c-4c7b-9ca0-d37ac0c8e541","system_id":"levelo_inurba_marseille","lat":43.288501,"lon":5.393087,"is_reserved":false,"is_disabled":false,"rental_uris":{"android":"levelo://app?vid=bdac6b5c-c36c-4c7b-9ca0-d37ac0c8e541","ios":"levelo://app?vid=bdac6b5c-c36c-4c7b-9ca0-d37ac0c8e541"},"vehicle_type_id":"4","last_reported":1702206339,"current_range_meters":10000,"station_id":"ce4bh2p2rcd13ifvqdi0","pricing_plan_id":"free"},{"bike_id":"991ddd9a-1c6e-4cbb-a571-16a27948f6ae","system_id":"levelo_inurba_marseille","lat":43.284246,"lon":5.349876,"is_reserved":false,"is_disabled":false,"rental_uris":{"android":"levelo://app?vid=991ddd9a-1c6e-4cbb-a571-16a27948f6ae","ios":"levelo://app?vid=991ddd9a-1c6e-4cbb-a571-16a27948f6ae"},"vehicle_type_id":"4","last_reported":1702206339,"current_range_meters":28400,"station_id":"ce4bhbh2rcd13ifvqepg","pricing_plan_id":"free"},{"bike_id":"65bb97de-59e5-4cf1-ac38-b497948a398e","system_id":"levelo_inurba_marseille","lat":43.282744,"lon":5.350533,"is_reserved":false,"is_disabled":false,"rental_uris":{"android":"levelo://app?vid=65bb97de-59e5-4cf1-ac38-b497948a398e","ios":"levelo://app?vid=65bb97de-59e5-4cf1-ac38-b497948a398e"},"vehicle_type_id":"4","last_reported":1702206339,"current_range_meters":24400,"station_id":"ce4bhbp2rcd13ifvqerg","pricing_plan_id":"free"},{"bike_id":"65eae0ac-50f9-49c6-8718-19339ab1ac8c","system_id":"levelo_inurba_marseille","lat":43.28039,"lon":5.369297,"is_reserved":false,"is_disabled":false,"rental_uris":{"android":"levelo://app?vid=65eae0ac-50f9-49c6-8718-19339ab1ac8c","ios":"levelo://app?vid=65eae0ac-50f9-49c6-8718-19339ab1ac8c"},"vehicle_type_id":"4","last_reported":1702206339,"current_range_meters":23200,"station_id":"ce4bha12rcd13ifvqef0","pricing_plan_id":"free"},{"bike_id":"322f5082-9618-45c6-b169-793c494546fd","system_id":"levelo_inurba_marseille","lat":43.284462,"lon":5.392121,"is_reserved":false,"is_disabled":false,"rental_uris":{"android":"levelo://app?vid=322f5082-9618-45c6-b169-793c494546fd","ios":"levelo://app?vid=322f5082-9618-45c6-b169-793c494546fd"},"vehicle_type_id":"4","last_reported":1702206339,"current_range_meters":18800,"station_id":"ce4bhoh2rcd13ifvqh5g","pricing_plan_id":"free"},{"bike_id":"b3378343-15f0-4dd1-924d-fc15a005eb3c","system_id":"levelo_inurba_marseille","lat":43.285697,"lon":5.395026,"is_reserved":false,"is_disabled":false,"rental_uris":{"android":"levelo://app?vid=b3378343-15f0-4dd1-924d-fc15a005eb3c","ios":"levelo://app?vid=b3378343-15f0-4dd1-924d-fc15a005eb3c"},"vehicle_type_id":"4","last_reported":1702206339,"current_range_meters":30800,"station_id":"","pricing_plan_id":"free"},{"bike_id":"84967abc-9260-4305-bef4-15f176edc9e9","system_id":"levelo_inurba_marseille","lat":43.285696,"lon":5.395028,"is_reserved":false,"is_disabled":false,"rental_uris":{"android":"levelo://app?vid=84967abc-9260-4305-bef4-15f176edc9e9","ios":"levelo://app?vid=84967abc-9260-4305-bef4-15f176edc9e9"},"vehicle_type_id":"4","last_reported":1702206339,"current_range_meters":30000,"station_id":"","pricing_plan_id":"free"},{"bike_id":"2f563e82-19e9-4d9e-832e-0aeb5f9c7e7c","system_id":"levelo_inurba_marseille","lat":43.28569,"lon":5.395029,"is_reserved":false,"is_disabled":false,"rental_uris":{"android":"levelo://app?vid=2f563e82-19e9-4d9e-832e-0aeb5f9c7e7c","ios":"levelo://app?vid=2f563e82-19e9-4d9e-832e-0aeb5f9c7e7c"},"vehicle_type_id":"4","last_reported":1702206339,"current_range_meters":26800,"station_id":"","pricing_plan_id":"free"},{"bike_id":"185d281d-5d3e-4634-8ea6-623574a52ae7","system_id":"levelo_inurba_marseille","lat":43.279742,"lon":5.38744,"is_reserved":false,"is_disabled":false,"rental_uris":{"android":"levelo://app?vid=185d281d-5d3e-4634-8ea6-623574a52ae7","ios":"levelo://app?vid=185d281d-5d3e-4634-8ea6-623574a52ae7"},"vehicle_type_id":"4","last_reported":1702206339,"current_range_meters":25600,"station_id":"ce4bhg12rcd13ifvqf80","pricing_plan_id":"free"},{"bike_id":"7b98637b-99b4-4017-ad8c-d48a53db3dda","system_id":"levelo_inurba_marseille","lat":43.279742,"lon":5.38744,"is_reserved":false,"is_disabled":false,"rental_uris":{"android":"levelo://app?vid=7b98637b-99b4-4017-ad8c-d48a53db3dda","ios":"levelo://app?vid=7b98637b-99b4-4017-ad8c-d48a53db3dda"},"vehicle_type_id":"4","last_reported":1702206339,"current_range_meters":31200,"station_id":"ce4bhg12rcd13ifvqf80","pricing_plan_id":"free"},{"bike_id":"4d1d7689-d42d-4d62-9ae3-61d31081cec9","system_id":"levelo_inurba_marseille","lat":43.292571,"lon":5.409107,"is_reserved":false,"is_disabled":false,"rental_uris":{"android":"levelo://app?vid=4d1d7689-d42d-4d62-9ae3-61d31081cec9","ios":"levelo://app?vid=4d1d7689-d42d-4d62-9ae3-61d31081cec9"},"vehicle_type_id":"4","last_reported":1702206339,"current_range_meters":19600,"station_id":"ce4bh192rcd13ifvqdc0","pricing_plan_id":"free"},{"bike_id":"306361f1-9d58-4739-b446-e243465089e5","system_id":"levelo_inurba_marseille","lat":43.279742,"lon":5.38744,"is_reserved":false,"is_disabled":false,"rental_uris":{"android":"levelo://app?vid=306361f1-9d58-4739-b446-e243465089e5","ios":"levelo://app?vid=306361f1-9d58-4739-b446-e243465089e5"},"vehicle_type_id":"4","last_reported":1702206339,"current_range_meters":6800,"station_id":"ce4bhg12rcd13ifvqf80","pricing_plan_id":"free"},{"bike_id":"e6cce5ff-faf8-4282-9fb1-9f27ce2c9556","system_id":"levelo_inurba_marseille","lat":43.292569,"lon":5.409107,"is_reserved":false,"is_disabled":false,"rental_uris":{"android":"levelo://app?vid=e6cce5ff-faf8-4282-9fb1-9f27ce2c9556","ios":"levelo://app?vid=e6cce5ff-faf8-4282-9fb1-9f27ce2c9556"},"vehicle_type_id":"4","last_reported":1702206339,"current_range_meters":29200,"station_id":"ce4bh192rcd13ifvqdc0","pricing_plan_id":"free"},{"bike_id":"da3d95bb-6927-48a7-aa3a-72225e152e2e","system_id":"levelo_inurba_marseille","lat":43.292571,"lon":5.409107,"is_reserved":false,"is_disabled":false,"rental_uris":{"android":"levelo://app?vid=da3d95bb-6927-48a7-aa3a-72225e152e2e","ios":"levelo://app?vid=da3d95bb-6927-48a7-aa3a-72225e152e2e"},"vehicle_type_id":"4","last_reported":1702206339,"current_range_meters":31200,"station_id":"ce4bh192rcd13ifvqdc0","pricing_plan_id":"free"},{"bike_id":"88e59060-d458-48a8-8abe-8a1913097d92","system_id":"levelo_inurba_marseille","lat":43.31713,"lon":5.42396,"is_reserved":false,"is_disabled":false,"rental_uris":{"android":"levelo://app?vid=88e59060-d458-48a8-8abe-8a1913097d92","ios":"levelo://app?vid=88e59060-d458-48a8-8abe-8a1913097d92"},"vehicle_type_id":"4","last_reported":1702206339,"current_range_meters":20400,"station_id":"ce4bhp92rcd13ifvqhbg","pricing_plan_id":"free"},{"bike_id":"02791883-a925-42a0-9dd3-b7193f6a574b","system_id":"levelo_inurba_marseille","lat":43.31714,"lon":5.42401,"is_reserved":false,"is_disabled":false,"rental_uris":{"android":"levelo://app?vid=02791883-a925-42a0-9dd3-b7193f6a574b","ios":"levelo://app?vid=02791883-a925-42a0-9dd3-b7193f6a574b"},"vehicle_type_id":"4","last_reported":1702206339,"current_range_meters":26800,"station_id":"ce4bhp92rcd13ifvqhbg","pricing_plan_id":"free"},{"bike_id":"e7bd1e73-4f86-473d-905c-a7b0f3d6ad8a","system_id":"levelo_inurba_marseille","lat":43.31723,"lon":5.42405,"is_reserved":false,"is_disabled":false,"rental_uris":{"android":"levelo://app?vid=e7bd1e73-4f86-473d-905c-a7b0f3d6ad8a","ios":"levelo://app?vid=e7bd1e73-4f86-473d-905c-a7b0f3d6ad8a"},"vehicle_type_id":"4","last_reported":1702206339,"current_range_meters":13600,"station_id":"ce4bhp92rcd13ifvqhbg","pricing_plan_id":"free"},{"bike_id":"63133364-316e-458e-b234-bbd4926c63fc","system_id":"levelo_inurba_marseille","lat":43.27583,"lon":5.39474,"is_reserved":false,"is_disabled":false,"rental_uris":{"android":"levelo://app?vid=63133364-316e-458e-b234-bbd4926c63fc","ios":"levelo://app?vid=63133364-316e-458e-b234-bbd4926c63fc"},"vehicle_type_id":"4","last_reported":1702206339,"current_range_meters":4000,"station_id":"","pricing_plan_id":"free"},{"bike_id":"a6ecc423-df4e-450b-924a-8011cc1eeb87","system_id":"levelo_inurba_marseille","lat":43.272124,"lon":5.391768,"is_reserved":false,"is_disabled":false,"rental_uris":{"android":"levelo://app?vid=a6ecc423-df4e-450b-924a-8011cc1eeb87","ios":"levelo://app?vid=a6ecc423-df4e-450b-924a-8011cc1eeb87"},"vehicle_type_id":"4","last_reported":1702206339,"current_range_meters":16000,"station_id":"ce4bhhp2rcd13ifvqfm0","pricing_plan_id":"free"},{"bike_id":"b3c43aaf-f89c-49a9-8384-c5b346044470","system_id":"levelo_inurba_marseille","lat":43.269467,"lon":5.386439,"is_reserved":false,"is_disabled":false,"rental_uris":{"android":"levelo://app?vid=b3c43aaf-f89c-49a9-8384-c5b346044470","ios":"levelo://app?vid=b3c43aaf-f89c-49a9-8384-c5b346044470"},"vehicle_type_id":"4","last_reported":1702206339,"current_range_meters":5600,"station_id":"ce4bhh92rcd13ifvqfh0","pricing_plan_id":"free"},{"bike_id":"873d671d-2fa2-41fe-91b8-3529c7166923","system_id":"levelo_inurba_marseille","lat":43.269467,"lon":5.386439,"is_reserved":false,"is_disabled":false,"rental_uris":{"android":"levelo://app?vid=873d671d-2fa2-41fe-91b8-3529c7166923","ios":"levelo://app?vid=873d671d-2fa2-41fe-91b8-3529c7166923"},"vehicle_type_id":"4","last_reported":1702206339,"current_range_meters":13200,"station_id":"ce4bhh92rcd13ifvqfh0","pricing_plan_id":"free"},{"bike_id":"eb508083-e921-49a5-924c-43865e7739ed","system_id":"levelo_inurba_marseille","lat":43.26681,"lon":5.382694,"is_reserved":false,"is_disabled":false,"rental_uris":{"android":"levelo://app?vid=eb508083-e921-49a5-924c-43865e7739ed","ios":"levelo://app?vid=eb508083-e921-49a5-924c-43865e7739ed"},"vehicle_type_id":"4","last_reported":1702206339,"current_range_meters":25600,"station_id":"ce4bhg92rcd13ifvqf90","pricing_plan_id":"free"},{"bike_id":"38ee7496-079e-437e-b855-43fddd3c262b","system_id":"levelo_inurba_marseille","lat":43.27996,"lon":5.416624,"is_reserved":false,"is_disabled":false,"rental_uris":{"android":"levelo://app?vid=38ee7496-079e-437e-b855-43fddd3c262b","ios":"levelo://app?vid=38ee7496-079e-437e-b855-43fddd3c262b"},"vehicle_type_id":"4","last_reported":1702206339,"current_range_meters":22800,"station_id":"ce4bho12rcd13ifvqh1g","pricing_plan_id":"free"},{"bike_id":"cbc62ad0-c507-4d27-a2c7-a6fa072fa0f8","system_id":"levelo_inurba_marseille","lat":43.27996,"lon":5.416624,"is_reserved":false,"is_disabled":false,"rental_uris":{"android":"levelo://app?vid=cbc62ad0-c507-4d27-a2c7-a6fa072fa0f8","ios":"levelo://app?vid=cbc62ad0-c507-4d27-a2c7-a6fa072fa0f8"},"vehicle_type_id":"4","last_reported":1702206339,"current_range_meters":23600,"station_id":"ce4bho12rcd13ifvqh1g","pricing_plan_id":"free"},{"bike_id":"ec6f32a4-cbd5-498b-9ed1-84ab20a7afaf","system_id":"levelo_inurba_marseille","lat":43.27997,"lon":5.41667,"is_reserved":false,"is_disabled":false,"rental_uris":{"android":"levelo://app?vid=ec6f32a4-cbd5-498b-9ed1-84ab20a7afaf","ios":"levelo://app?vid=ec6f32a4-cbd5-498b-9ed1-84ab20a7afaf"},"vehicle_type_id":"4","last_reported":1702206339,"current_range_meters":25200,"station_id":"ce4bho12rcd13ifvqh1g","pricing_plan_id":"free"},{"bike_id":"19cc942f-ece9-40d3-8083-cccfba7fe5b1","system_id":"levelo_inurba_marseille","lat":43.279881,"lon":5.416579,"is_reserved":false,"is_disabled":false,"rental_uris":{"android":"levelo://app?vid=19cc942f-ece9-40d3-8083-cccfba7fe5b1","ios":"levelo://app?vid=19cc942f-ece9-40d3-8083-cccfba7fe5b1"},"vehicle_type_id":"4","last_reported":1702206339,"current_range_meters":0,"station_id":"ce4bho12rcd13ifvqh1g","pricing_plan_id":"free"},{"bike_id":"d9905fd9-fc0a-4c9f-85fa-8aca947c9d38","system_id":"levelo_inurba_marseille","lat":43.30797,"lon":5.43515,"is_reserved":false,"is_disabled":false,"rental_uris":{"android":"levelo://app?vid=d9905fd9-fc0a-4c9f-85fa-8aca947c9d38","ios":"levelo://app?vid=d9905fd9-fc0a-4c9f-85fa-8aca947c9d38"},"vehicle_type_id":"4","last_reported":1702206339,"current_range_meters":25600,"station_id":"ce4bhph2rcd13ifvqheg","pricing_plan_id":"free"},{"bike_id":"983ed045-1f7b-4579-b9d1-f93588aba3b1","system_id":"levelo_inurba_marseille","lat":43.30799,"lon":5.43519,"is_reserved":false,"is_disabled":false,"rental_uris":{"android":"levelo://app?vid=983ed045-1f7b-4579-b9d1-f93588aba3b1","ios":"levelo://app?vid=983ed045-1f7b-4579-b9d1-f93588aba3b1"},"vehicle_type_id":"4","last_reported":1702206339,"current_range_meters":29600,"station_id":"ce4bhph2rcd13ifvqheg","pricing_plan_id":"free"},{"bike_id":"ddd5cc5c-290e-4c4f-9044-00d78bc24412","system_id":"levelo_inurba_marseille","lat":43.30803,"lon":5.43524,"is_reserved":false,"is_disabled":false,"rental_uris":{"android":"levelo://app?vid=ddd5cc5c-290e-4c4f-9044-00d78bc24412","ios":"levelo://app?vid=ddd5cc5c-290e-4c4f-9044-00d78bc24412"},"vehicle_type_id":"4","last_reported":1702206339,"current_range_meters":26400,"station_id":"ce4bhph2rcd13ifvqheg","pricing_plan_id":"free"},{"bike_id":"1594ab0c-8aba-4a4a-83ff-da41c83152d6","system_id":"levelo_inurba_marseille","lat":43.30798,"lon":5.43525,"is_reserved":false,"is_disabled":false,"rental_uris":{"android":"levelo://app?vid=1594ab0c-8aba-4a4a-83ff-da41c83152d6","ios":"levelo://app?vid=1594ab0c-8aba-4a4a-83ff-da41c83152d6"},"vehicle_type_id":"4","last_reported":1702206339,"current_range_meters":26000,"station_id":"ce4bhph2rcd13ifvqheg","pricing_plan_id":"free"},{"bike_id":"7b92c08c-423b-4d1e-a05d-76ea46aeb899","system_id":"levelo_inurba_marseille","lat":43.26949,"lon":5.40262,"is_reserved":false,"is_disabled":false,"rental_uris":{"android":"levelo://app?vid=7b92c08c-423b-4d1e-a05d-76ea46aeb899","ios":"levelo://app?vid=7b92c08c-423b-4d1e-a05d-76ea46aeb899"},"vehicle_type_id":"4","last_reported":1702206339,"current_range_meters":23200,"station_id":"cjm6bp8fraef2m0cb0m0","pricing_plan_id":"free"},{"bike_id":"206984e4-b14a-41bf-a587-1c07b395a537","system_id":"levelo_inurba_marseille","lat":43.26949,"lon":5.40262,"is_reserved":false,"is_disabled":false,"rental_uris":{"android":"levelo://app?vid=206984e4-b14a-41bf-a587-1c07b395a537","ios":"levelo://app?vid=206984e4-b14a-41bf-a587-1c07b395a537"},"vehicle_type_id":"4","last_reported":1702206339,"current_range_meters":19200,"station_id":"cjm6bp8fraef2m0cb0m0","pricing_plan_id":"free"},{"bike_id":"a46acb73-8cbd-4c9e-947d-c18119c20d30","system_id":"levelo_inurba_marseille","lat":43.261782,"lon":5.374515,"is_reserved":false,"is_disabled":false,"rental_uris":{"android":"levelo://app?vid=a46acb73-8cbd-4c9e-947d-c18119c20d30","ios":"levelo://app?vid=a46acb73-8cbd-4c9e-947d-c18119c20d30"},"vehicle_type_id":"4","last_reported":1702206339,"current_range_meters":8800,"station_id":"ce4bhgp2rcd13ifvqfc0","pricing_plan_id":"free"},{"bike_id":"dbacbb4a-9e99-4a7a-9713-43dac221ae4c","system_id":"levelo_inurba_marseille","lat":43.317104,"lon":5.436818,"is_reserved":false,"is_disabled":false,"rental_uris":{"android":"levelo://app?vid=dbacbb4a-9e99-4a7a-9713-43dac221ae4c","ios":"levelo://app?vid=dbacbb4a-9e99-4a7a-9713-43dac221ae4c"},"vehicle_type_id":"4","last_reported":1702206339,"current_range_meters":31200,"station_id":"ce4bhp92rcd13ifvqhcg","pricing_plan_id":"free"},{"bike_id":"484c2935-350d-4a8a-a7d1-7125e01c841f","system_id":"levelo_inurba_marseille","lat":43.271388,"lon":5.409269,"is_reserved":false,"is_disabled":false,"rental_uris":{"android":"levelo://app?vid=484c2935-350d-4a8a-a7d1-7125e01c841f","ios":"levelo://app?vid=484c2935-350d-4a8a-a7d1-7125e01c841f"},"vehicle_type_id":"4","last_reported":1702206339,"current_range_meters":26400,"station_id":"ce4bhl12rcd13ifvqgf0","pricing_plan_id":"free"},{"bike_id":"3ef100ae-f89f-44f5-89e8-967b4acd17f5","system_id":"levelo_inurba_marseille","lat":43.26202,"lon":5.379299,"is_reserved":false,"is_disabled":false,"rental_uris":{"android":"levelo://app?vid=3ef100ae-f89f-44f5-89e8-967b4acd17f5","ios":"levelo://app?vid=3ef100ae-f89f-44f5-89e8-967b4acd17f5"},"vehicle_type_id":"4","last_reported":1702206339,"current_range_meters":31200,"station_id":"ce4bhjp2rcd13ifvqg90","pricing_plan_id":"free"},{"bike_id":"4ce1dec0-e468-4bda-a7c4-8d9760fec2cf","system_id":"levelo_inurba_marseille","lat":43.26202,"lon":5.379299,"is_reserved":false,"is_disabled":false,"rental_uris":{"android":"levelo://app?vid=4ce1dec0-e468-4bda-a7c4-8d9760fec2cf","ios":"levelo://app?vid=4ce1dec0-e468-4bda-a7c4-8d9760fec2cf"},"vehicle_type_id":"4","last_reported":1702206339,"current_range_meters":12000,"station_id":"ce4bhjp2rcd13ifvqg90","pricing_plan_id":"free"},{"bike_id":"19a09792-2591-4277-b95d-77322a72d2ae","system_id":"levelo_inurba_marseille","lat":43.267959,"lon":5.402685,"is_reserved":false,"is_disabled":false,"rental_uris":{"android":"levelo://app?vid=19a09792-2591-4277-b95d-77322a72d2ae","ios":"levelo://app?vid=19a09792-2591-4277-b95d-77322a72d2ae"},"vehicle_type_id":"4","last_reported":1702206339,"current_range_meters":20400,"station_id":"ce501612rcd8frsf0b60","pricing_plan_id":"free"},{"bike_id":"6b17b896-99f2-456b-929e-df3811eeb274","system_id":"levelo_inurba_marseille","lat":43.298768,"lon":5.43643,"is_reserved":false,"is_disabled":false,"rental_uris":{"android":"levelo://app?vid=6b17b896-99f2-456b-929e-df3811eeb274","ios":"levelo://app?vid=6b17b896-99f2-456b-929e-df3811eeb274"},"vehicle_type_id":"4","last_reported":1702206339,"current_range_meters":26800,"station_id":"ce4bhpp2rcd13ifvqhfg","pricing_plan_id":"free"},{"bike_id":"4f68f183-a711-4386-a731-e8ea8e2f115e","system_id":"levelo_inurba_marseille","lat":43.298768,"lon":5.43643,"is_reserved":false,"is_disabled":false,"rental_uris":{"android":"levelo://app?vid=4f68f183-a711-4386-a731-e8ea8e2f115e","ios":"levelo://app?vid=4f68f183-a711-4386-a731-e8ea8e2f115e"},"vehicle_type_id":"4","last_reported":1702206339,"current_range_meters":24400,"station_id":"ce4bhpp2rcd13ifvqhfg","pricing_plan_id":"free"},{"bike_id":"0341a2e7-04a4-4d8e-b96d-44e5882da047","system_id":"levelo_inurba_marseille","lat":43.275028,"lon":5.424534,"is_reserved":false,"is_disabled":false,"rental_uris":{"android":"levelo://app?vid=0341a2e7-04a4-4d8e-b96d-44e5882da047","ios":"levelo://app?vid=0341a2e7-04a4-4d8e-b96d-44e5882da047"},"vehicle_type_id":"4","last_reported":1702206339,"current_range_meters":28000,"station_id":"ce4bhn92rcd13ifvqgrg","pricing_plan_id":"free"},{"bike_id":"c84a2b07-1a24-4c2b-9039-a2e319dc57fc","system_id":"levelo_inurba_marseille","lat":43.25569,"lon":5.38234,"is_reserved":false,"is_disabled":false,"rental_uris":{"android":"levelo://app?vid=c84a2b07-1a24-4c2b-9039-a2e319dc57fc","ios":"levelo://app?vid=c84a2b07-1a24-4c2b-9039-a2e319dc57fc"},"vehicle_type_id":"4","last_reported":1702206339,"current_range_meters":3200,"station_id":"ce4bhih2rcd13ifvqfs0","pricing_plan_id":"free"},{"bike_id":"cda2bc06-75c6-42b5-ae20-74a5b8c9a02b","system_id":"levelo_inurba_marseille","lat":43.254947,"lon":5.376454,"is_reserved":false,"is_disabled":false,"rental_uris":{"android":"levelo://app?vid=cda2bc06-75c6-42b5-ae20-74a5b8c9a02b","ios":"levelo://app?vid=cda2bc06-75c6-42b5-ae20-74a5b8c9a02b"},"vehicle_type_id":"4","last_reported":1702206339,"current_range_meters":19600,"station_id":"ce4bhh12rcd13ifvqff0","pricing_plan_id":"free"},{"bike_id":"9403a47c-9166-4906-a009-e96cb999ffef","system_id":"levelo_inurba_marseille","lat":43.254947,"lon":5.376454,"is_reserved":false,"is_disabled":false,"rental_uris":{"android":"levelo://app?vid=9403a47c-9166-4906-a009-e96cb999ffef","ios":"levelo://app?vid=9403a47c-9166-4906-a009-e96cb999ffef"},"vehicle_type_id":"4","last_reported":1702206339,"current_range_meters":23200,"station_id":"ce4bhh12rcd13ifvqff0","pricing_plan_id":"free"},{"bike_id":"4e510d28-2cd7-436a-9cc1-cfdedab91778","system_id":"levelo_inurba_marseille","lat":43.254947,"lon":5.376454,"is_reserved":false,"is_disabled":false,"rental_uris":{"android":"levelo://app?vid=4e510d28-2cd7-436a-9cc1-cfdedab91778","ios":"levelo://app?vid=4e510d28-2cd7-436a-9cc1-cfdedab91778"},"vehicle_type_id":"4","last_reported":1702206339,"current_range_meters":21600,"station_id":"ce4bhh12rcd13ifvqff0","pricing_plan_id":"free"},{"bike_id":"58259bb5-5307-46c9-8cd4-629b6ed3751d","system_id":"levelo_inurba_marseille","lat":43.254947,"lon":5.376454,"is_reserved":false,"is_disabled":false,"rental_uris":{"android":"levelo://app?vid=58259bb5-5307-46c9-8cd4-629b6ed3751d","ios":"levelo://app?vid=58259bb5-5307-46c9-8cd4-629b6ed3751d"},"vehicle_type_id":"4","last_reported":1702206339,"current_range_meters":30000,"station_id":"ce4bhh12rcd13ifvqff0","pricing_plan_id":"free"},{"bike_id":"71e4f32e-ccb2-4c9d-ad16-d9b4cb1405d0","system_id":"levelo_inurba_marseille","lat":43.254947,"lon":5.376454,"is_reserved":false,"is_disabled":false,"rental_uris":{"android":"levelo://app?vid=71e4f32e-ccb2-4c9d-ad16-d9b4cb1405d0","ios":"levelo://app?vid=71e4f32e-ccb2-4c9d-ad16-d9b4cb1405d0"},"vehicle_type_id":"4","last_reported":1702206339,"current_range_meters":14800,"station_id":"ce4bhh12rcd13ifvqff0","pricing_plan_id":"free"},{"bike_id":"26495acf-1b7d-40d0-a0e0-b2942c52decb","system_id":"levelo_inurba_marseille","lat":43.254945,"lon":5.376454,"is_reserved":false,"is_disabled":false,"rental_uris":{"android":"levelo://app?vid=26495acf-1b7d-40d0-a0e0-b2942c52decb","ios":"levelo://app?vid=26495acf-1b7d-40d0-a0e0-b2942c52decb"},"vehicle_type_id":"4","last_reported":1702206339,"current_range_meters":19200,"station_id":"ce4bhh12rcd13ifvqff0","pricing_plan_id":"free"},{"bike_id":"46488328-c339-4346-9280-ec5f809f328b","system_id":"levelo_inurba_marseille","lat":43.270721,"lon":5.422764,"is_reserved":false,"is_disabled":false,"rental_uris":{"android":"levelo://app?vid=46488328-c339-4346-9280-ec5f809f328b","ios":"levelo://app?vid=46488328-c339-4346-9280-ec5f809f328b"},"vehicle_type_id":"4","last_reported":1702206339,"current_range_meters":23600,"station_id":"ce4bhk92rcd13ifvqgb0","pricing_plan_id":"free"},{"bike_id":"23852011-45c0-4eb3-b521-fdccfcd75ec1","system_id":"levelo_inurba_marseille","lat":43.250009,"lon":5.389195,"is_reserved":false,"is_disabled":false,"rental_uris":{"android":"levelo://app?vid=23852011-45c0-4eb3-b521-fdccfcd75ec1","ios":"levelo://app?vid=23852011-45c0-4eb3-b521-fdccfcd75ec1"},"vehicle_type_id":"4","last_reported":1702206339,"current_range_meters":24400,"station_id":"ce4bhgp2rcd13ifvqfd0","pricing_plan_id":"free"},{"bike_id":"89f6b9c7-2e47-467d-a5da-27592e88272c","system_id":"levelo_inurba_marseille","lat":43.250966,"lon":5.395186,"is_reserved":false,"is_disabled":false,"rental_uris":{"android":"levelo://app?vid=89f6b9c7-2e47-467d-a5da-27592e88272c","ios":"levelo://app?vid=89f6b9c7-2e47-467d-a5da-27592e88272c"},"vehicle_type_id":"4","last_reported":1702206339,"current_range_meters":31200,"station_id":"ce4bhm12rcd13ifvqgkg","pricing_plan_id":"free"},{"bike_id":"f8751423-247d-463f-84eb-c4492f784372","system_id":"levelo_inurba_marseille","lat":43.24693,"lon":5.382096,"is_reserved":false,"is_disabled":false,"rental_uris":{"android":"levelo://app?vid=f8751423-247d-463f-84eb-c4492f784372","ios":"levelo://app?vid=f8751423-247d-463f-84eb-c4492f784372"},"vehicle_type_id":"4","last_reported":1702206339,"current_range_meters":22800,"station_id":"ce4bhih2rcd13ifvqfr0","pricing_plan_id":"free"},{"bike_id":"7720c45a-16fd-468c-820d-244fcf7910db","system_id":"levelo_inurba_marseille","lat":43.24693,"lon":5.382096,"is_reserved":false,"is_disabled":false,"rental_uris":{"android":"levelo://app?vid=7720c45a-16fd-468c-820d-244fcf7910db","ios":"levelo://app?vid=7720c45a-16fd-468c-820d-244fcf7910db"},"vehicle_type_id":"4","last_reported":1702206339,"current_range_meters":30400,"station_id":"ce4bhih2rcd13ifvqfr0","pricing_plan_id":"free"},{"bike_id":"fb0e0003-4c1b-43d3-9113-5980fdaf4a6b","system_id":"levelo_inurba_marseille","lat":43.25102,"lon":5.403214,"is_reserved":false,"is_disabled":false,"rental_uris":{"android":"levelo://app?vid=fb0e0003-4c1b-43d3-9113-5980fdaf4a6b","ios":"levelo://app?vid=fb0e0003-4c1b-43d3-9113-5980fdaf4a6b"},"vehicle_type_id":"4","last_reported":1702206339,"current_range_meters":20000,"station_id":"ce4bhlh2rcd13ifvqgig","pricing_plan_id":"free"},{"bike_id":"fd3f6665-316c-41dc-94ab-145c31afc58a","system_id":"levelo_inurba_marseille","lat":43.246461,"lon":5.389014,"is_reserved":false,"is_disabled":false,"rental_uris":{"android":"levelo://app?vid=fd3f6665-316c-41dc-94ab-145c31afc58a","ios":"levelo://app?vid=fd3f6665-316c-41dc-94ab-145c31afc58a"},"vehicle_type_id":"4","last_reported":1702206339,"current_range_meters":26000,"station_id":"ce4bhg12rcd13ifvqf60","pricing_plan_id":"free"},{"bike_id":"5e605dd7-7449-4197-aebf-bcb50d65c55f","system_id":"levelo_inurba_marseille","lat":43.246461,"lon":5.389014,"is_reserved":false,"is_disabled":false,"rental_uris":{"android":"levelo://app?vid=5e605dd7-7449-4197-aebf-bcb50d65c55f","ios":"levelo://app?vid=5e605dd7-7449-4197-aebf-bcb50d65c55f"},"vehicle_type_id":"4","last_reported":1702206339,"current_range_meters":26800,"station_id":"ce4bhg12rcd13ifvqf60","pricing_plan_id":"free"},{"bike_id":"1a23636c-273b-427e-ba3a-4cc57a24dce9","system_id":"levelo_inurba_marseille","lat":43.246467,"lon":5.388984,"is_reserved":false,"is_disabled":false,"rental_uris":{"android":"levelo://app?vid=1a23636c-273b-427e-ba3a-4cc57a24dce9","ios":"levelo://app?vid=1a23636c-273b-427e-ba3a-4cc57a24dce9"},"vehicle_type_id":"4","last_reported":1702206339,"current_range_meters":28800,"station_id":"ce4bhg12rcd13ifvqf60","pricing_plan_id":"free"},{"bike_id":"2189fc5b-972b-481a-8599-b7f74600c485","system_id":"levelo_inurba_marseille","lat":43.245581,"lon":5.395069,"is_reserved":false,"is_disabled":false,"rental_uris":{"android":"levelo://app?vid=2189fc5b-972b-481a-8599-b7f74600c485","ios":"levelo://app?vid=2189fc5b-972b-481a-8599-b7f74600c485"},"vehicle_type_id":"4","last_reported":1702206339,"current_range_meters":31600,"station_id":"ce4bhlp2rcd13ifvqgjg","pricing_plan_id":"free"},{"bike_id":"0e6c5ea3-a906-41bf-b83f-386fcbcaab78","system_id":"levelo_inurba_marseille","lat":43.245581,"lon":5.395069,"is_reserved":false,"is_disabled":false,"rental_uris":{"android":"levelo://app?vid=0e6c5ea3-a906-41bf-b83f-386fcbcaab78","ios":"levelo://app?vid=0e6c5ea3-a906-41bf-b83f-386fcbcaab78"},"vehicle_type_id":"4","last_reported":1702206339,"current_range_meters":5600,"station_id":"ce4bhlp2rcd13ifvqgjg","pricing_plan_id":"free"},{"bike_id":"c88399f4-54c8-4f15-97b0-4d47ee4d0a9d","system_id":"levelo_inurba_marseille","lat":43.24543,"lon":5.39522,"is_reserved":false,"is_disabled":false,"rental_uris":{"android":"levelo://app?vid=c88399f4-54c8-4f15-97b0-4d47ee4d0a9d","ios":"levelo://app?vid=c88399f4-54c8-4f15-97b0-4d47ee4d0a9d"},"vehicle_type_id":"4","last_reported":1702206339,"current_range_meters":27600,"station_id":"ce4bhlp2rcd13ifvqgjg","pricing_plan_id":"free"},{"bike_id":"e0027151-3876-4e17-8b4a-b5c8f5b31988","system_id":"levelo_inurba_marseille","lat":43.24073,"lon":5.37755,"is_reserved":false,"is_disabled":false,"rental_uris":{"android":"levelo://app?vid=e0027151-3876-4e17-8b4a-b5c8f5b31988","ios":"levelo://app?vid=e0027151-3876-4e17-8b4a-b5c8f5b31988"},"vehicle_type_id":"4","last_reported":1702206339,"current_range_meters":14000,"station_id":"ce4bhnp2rcd13ifvqgvg","pricing_plan_id":"free"},{"bike_id":"e822e132-2a58-4f66-a0e0-17916009b820","system_id":"levelo_inurba_marseille","lat":43.24071,"lon":5.37761,"is_reserved":false,"is_disabled":false,"rental_uris":{"android":"levelo://app?vid=e822e132-2a58-4f66-a0e0-17916009b820","ios":"levelo://app?vid=e822e132-2a58-4f66-a0e0-17916009b820"},"vehicle_type_id":"4","last_reported":1702206339,"current_range_meters":19200,"station_id":"ce4bhnp2rcd13ifvqgvg","pricing_plan_id":"free"},{"bike_id":"617c2586-f562-4602-ba86-a0b0c829c528","system_id":"levelo_inurba_marseille","lat":43.2396,"lon":5.36631,"is_reserved":false,"is_disabled":false,"rental_uris":{"android":"levelo://app?vid=617c2586-f562-4602-ba86-a0b0c829c528","ios":"levelo://app?vid=617c2586-f562-4602-ba86-a0b0c829c528"},"vehicle_type_id":"4","last_reported":1702206339,"current_range_meters":30400,"station_id":"ce4bhi12rcd13ifvqfp0","pricing_plan_id":"free"},{"bike_id":"a8c501f0-1f0c-4126-b8d3-0e787022ce6a","system_id":"levelo_inurba_marseille","lat":43.231919,"lon":5.355532,"is_reserved":false,"is_disabled":false,"rental_uris":{"android":"levelo://app?vid=a8c501f0-1f0c-4126-b8d3-0e787022ce6a","ios":"levelo://app?vid=a8c501f0-1f0c-4126-b8d3-0e787022ce6a"},"vehicle_type_id":"4","last_reported":1702206339,"current_range_meters":31200,"station_id":"ce4bhu92rcd13ifvqi70","pricing_plan_id":"free"},{"bike_id":"efdf0b62-a012-45f2-a093-48aedd562b0c","system_id":"levelo_inurba_marseille","lat":43.231919,"lon":5.355532,"is_reserved":false,"is_disabled":false,"rental_uris":{"android":"levelo://app?vid=efdf0b62-a012-45f2-a093-48aedd562b0c","ios":"levelo://app?vid=efdf0b62-a012-45f2-a093-48aedd562b0c"},"vehicle_type_id":"4","last_reported":1702206339,"current_range_meters":18400,"station_id":"ce4bhu92rcd13ifvqi70","pricing_plan_id":"free"},{"bike_id":"5ea7d020-ee50-45c9-9444-8ce1c595d7a8","system_id":"levelo_inurba_marseille","lat":43.231919,"lon":5.355532,"is_reserved":false,"is_disabled":false,"rental_uris":{"android":"levelo://app?vid=5ea7d020-ee50-45c9-9444-8ce1c595d7a8","ios":"levelo://app?vid=5ea7d020-ee50-45c9-9444-8ce1c595d7a8"},"vehicle_type_id":"4","last_reported":1702206339,"current_range_meters":7200,"station_id":"ce4bhu92rcd13ifvqi70","pricing_plan_id":"free"},{"bike_id":"3831fb4e-d51e-479d-b848-99ac4a0570df","system_id":"levelo_inurba_marseille","lat":43.231919,"lon":5.355532,"is_reserved":false,"is_disabled":false,"rental_uris":{"android":"levelo://app?vid=3831fb4e-d51e-479d-b848-99ac4a0570df","ios":"levelo://app?vid=3831fb4e-d51e-479d-b848-99ac4a0570df"},"vehicle_type_id":"4","last_reported":1702206339,"current_range_meters":15200,"station_id":"ce4bhu92rcd13ifvqi70","pricing_plan_id":"free"},{"bike_id":"58ff9dc1-4af4-47a9-84fb-2d1c30b7121a","system_id":"levelo_inurba_marseille","lat":43.23196,"lon":5.3555,"is_reserved":false,"is_disabled":false,"rental_uris":{"android":"levelo://app?vid=58ff9dc1-4af4-47a9-84fb-2d1c30b7121a","ios":"levelo://app?vid=58ff9dc1-4af4-47a9-84fb-2d1c30b7121a"},"vehicle_type_id":"4","last_reported":1702206339,"current_range_meters":10400,"station_id":"ce4bhu92rcd13ifvqi70","pricing_plan_id":"free"},{"bike_id":"88360225-83fa-42a7-aa9d-04d6e2f27256","system_id":"levelo_inurba_marseille","lat":43.231919,"lon":5.355532,"is_reserved":false,"is_disabled":false,"rental_uris":{"android":"levelo://app?vid=88360225-83fa-42a7-aa9d-04d6e2f27256","ios":"levelo://app?vid=88360225-83fa-42a7-aa9d-04d6e2f27256"},"vehicle_type_id":"4","last_reported":1702206339,"current_range_meters":31600,"station_id":"ce4bhu92rcd13ifvqi70","pricing_plan_id":"free"},{"bike_id":"e8ff1b9f-d4c6-4290-98b2-9726e68234e0","system_id":"levelo_inurba_marseille","lat":43.231919,"lon":5.355532,"is_reserved":false,"is_disabled":false,"rental_uris":{"android":"levelo://app?vid=e8ff1b9f-d4c6-4290-98b2-9726e68234e0","ios":"levelo://app?vid=e8ff1b9f-d4c6-4290-98b2-9726e68234e0"},"vehicle_type_id":"4","last_reported":1702206339,"current_range_meters":0,"station_id":"ce4bhu92rcd13ifvqi70","pricing_plan_id":"free"},{"bike_id":"64a5b057-ea07-4c8c-811b-1679198509c2","system_id":"levelo_inurba_marseille","lat":43.23195,"lon":5.35546,"is_reserved":false,"is_disabled":false,"rental_uris":{"android":"levelo://app?vid=64a5b057-ea07-4c8c-811b-1679198509c2","ios":"levelo://app?vid=64a5b057-ea07-4c8c-811b-1679198509c2"},"vehicle_type_id":"4","last_reported":1702206339,"current_range_meters":5200,"station_id":"ce4bhu92rcd13ifvqi70","pricing_plan_id":"free"},{"bike_id":"82f26454-9757-4cd7-a38a-2ee5545d6712","system_id":"levelo_inurba_marseille","lat":43.231937,"lon":5.355493,"is_reserved":false,"is_disabled":false,"rental_uris":{"android":"levelo://app?vid=82f26454-9757-4cd7-a38a-2ee5545d6712","ios":"levelo://app?vid=82f26454-9757-4cd7-a38a-2ee5545d6712"},"vehicle_type_id":"4","last_reported":1702206339,"current_range_meters":13200,"station_id":"ce4bhu92rcd13ifvqi70","pricing_plan_id":"free"},{"bike_id":"a652f9a4-284a-4e98-beed-fd97399ea793","system_id":"levelo_inurba_marseille","lat":43.231919,"lon":5.355532,"is_reserved":false,"is_disabled":false,"rental_uris":{"android":"levelo://app?vid=a652f9a4-284a-4e98-beed-fd97399ea793","ios":"levelo://app?vid=a652f9a4-284a-4e98-beed-fd97399ea793"},"vehicle_type_id":"4","last_reported":1702206339,"current_range_meters":13600,"station_id":"ce4bhu92rcd13ifvqi70","pricing_plan_id":"free"},{"bike_id":"700e6b70-153c-480d-94a9-4c3505f802ec","system_id":"levelo_inurba_marseille","lat":43.23192,"lon":5.35549,"is_reserved":false,"is_disabled":false,"rental_uris":{"android":"levelo://app?vid=700e6b70-153c-480d-94a9-4c3505f802ec","ios":"levelo://app?vid=700e6b70-153c-480d-94a9-4c3505f802ec"},"vehicle_type_id":"4","last_reported":1702206339,"current_range_meters":3600,"station_id":"ce4bhu92rcd13ifvqi70","pricing_plan_id":"free"},{"bike_id":"80d8ab24-a150-4dde-9538-91a3cb47394a","system_id":"levelo_inurba_marseille","lat":43.231919,"lon":5.355532,"is_reserved":false,"is_disabled":false,"rental_uris":{"android":"levelo://app?vid=80d8ab24-a150-4dde-9538-91a3cb47394a","ios":"levelo://app?vid=80d8ab24-a150-4dde-9538-91a3cb47394a"},"vehicle_type_id":"4","last_reported":1702206339,"current_range_meters":15600,"station_id":"ce4bhu92rcd13ifvqi70","pricing_plan_id":"free"},{"bike_id":"cfc4a276-4a67-412c-8f70-0b8c1f09f05d","system_id":"levelo_inurba_marseille","lat":43.231919,"lon":5.355532,"is_reserved":false,"is_disabled":false,"rental_uris":{"android":"levelo://app?vid=cfc4a276-4a67-412c-8f70-0b8c1f09f05d","ios":"levelo://app?vid=cfc4a276-4a67-412c-8f70-0b8c1f09f05d"},"vehicle_type_id":"4","last_reported":1702206339,"current_range_meters":14000,"station_id":"ce4bhu92rcd13ifvqi70","pricing_plan_id":"free"},{"bike_id":"277a9fb4-446d-4ea2-8de9-a95ecde66cf7","system_id":"levelo_inurba_marseille","lat":43.231793,"lon":5.400044,"is_reserved":false,"is_disabled":false,"rental_uris":{"android":"levelo://app?vid=277a9fb4-446d-4ea2-8de9-a95ecde66cf7","ios":"levelo://app?vid=277a9fb4-446d-4ea2-8de9-a95ecde66cf7"},"vehicle_type_id":"4","last_reported":1702206339,"current_range_meters":0,"station_id":"ce4bhn12rcd13ifvqgqg","pricing_plan_id":"free"},{"bike_id":"16361938-cd84-482c-b289-23629786eb5c","system_id":"levelo_inurba_marseille","lat":43.231794,"lon":5.400052,"is_reserved":false,"is_disabled":false,"rental_uris":{"android":"levelo://app?vid=16361938-cd84-482c-b289-23629786eb5c","ios":"levelo://app?vid=16361938-cd84-482c-b289-23629786eb5c"},"vehicle_type_id":"4","last_reported":1702206339,"current_range_meters":20800,"station_id":"ce4bhn12rcd13ifvqgqg","pricing_plan_id":"free"},{"bike_id":"57272284-6b87-49f3-ac85-06f51f10d6bd","system_id":"levelo_inurba_marseille","lat":43.231794,"lon":5.400052,"is_reserved":false,"is_disabled":false,"rental_uris":{"android":"levelo://app?vid=57272284-6b87-49f3-ac85-06f51f10d6bd","ios":"levelo://app?vid=57272284-6b87-49f3-ac85-06f51f10d6bd"},"vehicle_type_id":"4","last_reported":1702206339,"current_range_meters":13600,"station_id":"ce4bhn12rcd13ifvqgqg","pricing_plan_id":"free"}]}}