{"last_updated":1750068753,"ttl":60,"version":"2.2","data":{"bikes":[{"bike_id":"b31f0139-170f-4194-984f-4386218a1e9d","system_id":"levelo_inurba_marseille","lat":43.33771,"lon":5.37424,"is_reserved":false,"is_disabled":true,"rental_uris":{"android":"levelo://app?vid=b31f0139-170f-4194-984f-4386218a1e9d","ios":"levelo://app?vid=b31f0139-170f-4194-984f-4386218a1e9d"},"vehicle_type_id":"4","last_reported":1750068753,"current_range_meters":0,"station_id":"","pricing_plan_id":"cebpf4jnsgd1na2vs0mg"},{"bike_id":"1acfb620-cad7-48c0-8901-d7a5b74a5b65","system_id":"levelo_inurba_marseille","lat":43.33751,"lon":5.37456,"is_reserved":false,"is_disabled":true,"rental_uris":{"android":"levelo://app?vid=1acfb620-cad7-48c0-8901-d7a5b74a5b65","ios":"levelo://app?vid=1acfb620-cad7-48c0-8901-d7a5b74a5b65"},"vehicle_type_id":"4","last_reported":1750068753,"current_range_meters":0,"station_id":"","pricing_plan_id":"cebpf4jnsgd1na2vs0mg"},{"bike_id":"bf89d78c-eb96-40d5-beb0-f402ef102cc1","system_id":"levelo_inurba_marseille","lat":43.337444,"lon":5.374475,"is_reserved":false,"is_disabled":true,"rental_uris":{"android":"levelo://app?vid=bf89d78c-eb96-40d5-beb0-f402ef102cc1","ios":"levelo://app?vid=bf89d78c-eb96-40d5-beb0-f402ef102cc1"},"vehicle_type_id":"4","last_reported":1750068753,"current_range_meters":0,"station_id":"","pricing_plan_id":"cebpf4jnsgd1na2vs0mg"},{"bike_id":"3d6ef34c-1ec6-4ed3-88e4-07359f729c42","system_id":"levelo_inurba_marseille","lat":43.27578,"lon":5.43398,"is_reserved":false,"is_disabled":true,"rental_uris":{"android":"levelo://app?vid=3d6ef34c-1ec6-4ed3-88e4-07359f729c42","ios":"levelo://app?vid=3d6ef34c-1ec6-4ed3-88e4-07359f729c42"},"vehicle_type_id":"4","last_reported":1750068753,"current_range_meters":0,"station_id":"","pricing_plan_id":"cebpf4jnsgd1na2vs0mg"},{"bike_id":"5077581b-cebb-46fc-ba69-4fa8272d4810","system_id":"levelo_inurba_marseille","lat":43.21362,"lon":5.35522,"is_reserved":false,"is_disabled":true,"rental_uris":{"android":"levelo://app?vid=5077581b-cebb-46fc-ba69-4fa8272d4810","ios":"levelo://app?vid=5077581b-cebb-46fc-ba69-4fa8272d4810"},"vehicle_type_id":"4","last_reported":1750068753,"current_range_meters":0,"station_id":"","pricing_plan_id":"cebpf4jnsgd1na2vs0mg"},{"bike_id":"0084bbd7-8a64-49e3-aecc-4e8ead3b036a","system_id":"levelo_inurba_marseille","lat":43.24632,"lon":5.43246,"is_reserved":false,"is_disabled":true,"rental_uris":{"android":"levelo://app?vid=0084bbd7-8a64-49e3-aecc-4e8ead3b036a","ios":"levelo://app?vid=0084bbd7-8a64-49e3-aecc-4e8ead3b036a"},"vehicle_type_id":"4","last_reported":1750068753,"current_range_meters":0,"station_id":"","pricing_plan_id":"cebpf4jnsgd1na2vs0mg"},{"bike_id":"ebf89cec-3e1a-4275-9cd0-a3d19d69b5cf","system_id":"levelo_inurba_marseille","lat":43.27979,"lon":5.38479,"is_reserved":false,"is_disabled":true,"rental_uris":{"android":"levelo://app?vid=ebf89cec-3e1a-4275-9cd0-a3d19d69b5cf","ios":"levelo://app?vid=ebf89cec-3e1a-4275-9cd0-a3d19d69b5cf"},"vehicle_type_id":"4","last_reported":1750068753,"current_range_meters":0,"station_id":"","pricing_plan_id":"cebpf4jnsgd1na2vs0mg"},{"bike_id":"8d5b13ba-4ed3-4fe0-9cf9-1b79b6e1ad00","system_id":"levelo_inurba_marseille","lat":43.26052,"lon":5.38735,"is_reserved":false,"is_disabled":true,"rental_uris":{"android":"levelo://app?vid=8d5b13ba-4ed3-4fe0-9cf9-1b79b6e1ad00","ios":"levelo://app?vid=8d5b13ba-4ed3-4fe0-9cf9-1b79b6e1ad00"},"vehicle_type_id":"4","last_reported":1750068753,"current_range_meters":0,"station_id":"","pricing_plan_id":"cebpf4jnsgd1na2vs0mg"},{"bike_id":"8d60347d-541c-40fb-90ca-203bf6bd520a","system_id":"levelo_inurba_marseille","lat":43.27126,"lon":5.36396,"is_reserved":false,"is_disabled":true,"rental_uris":{"android":"levelo://app?vid=8d60347d-541c-40fb-90ca-203bf6bd520a","ios":"levelo://app?vid=8d60347d-541c-40fb-90ca-203bf6bd520a"},"vehicle_type_id":"4","last_reported":1750068753,"current_range_meters":0,"station_id":"","pricing_plan_id":"cebpf4jnsgd1na2vs0mg"},{"bike_id":"98afa141-26c5-45c8-a0a6-15fd54ac73ab","system_id":"levelo_inurba_marseille","lat":43.2153,"lon":5.34736,"is_reserved":false,"is_disabled":true,"rental_uris":{"android":"levelo://app?vid=98afa141-26c5-45c8-a0a6-15fd54ac73ab","ios":"levelo://app?vid=98afa141-26c5-45c8-a0a6-15fd54ac73ab"},"vehicle_type_id":"4","last_reported":1750068753,"current_range_meters":0,"station_id":"","pricing_plan_id":"cebpf4jnsgd1na2vs0mg"},{"bike_id":"492f4bbd-1190-4ef2-b66a-479ffe91b09b","system_id":"levelo_inurba_marseille","lat":43.337444,"lon":5.374475,"is_reserved":false,"is_disabled":true,"rental_uris":{"android":"levelo://app?vid=492f4bbd-1190-4ef2-b66a-479ffe91b09b","ios":"levelo://app?vid=492f4bbd-1190-4ef2-b66a-479ffe91b09b"},"vehicle_type_id":"4","last_reported":1750068753,"current_range_meters":0,"station_id":"","pricing_plan_id":"cebpf4jnsgd1na2vs0mg"},{"bike_id":"3ae2542c-ab15-4c97-ba4a-467b6d2ef6d6","system_id":"levelo_inurba_marseille","lat":43.26158,"lon":5.38825,"is_reserved":false,"is_disabled":true,"rental_uris":{"android":"levelo://app?vid=3ae2542c-ab15-4c97-ba4a-467b6d2ef6d6","ios":"levelo://app?vid=3ae2542c-ab15-4c97-ba4a-467b6d2ef6d6"},"vehicle_type_id":"4","last_reported":1750068753,"current_range_meters":0,"station_id":"","pricing_plan_id":"cebpf4jnsgd1na2vs0mg"},{"bike_id":"4fc655b3-839b-4e1f-9bbe-b6f35673f04f","system_id":"levelo_inurba_marseille","lat":43.29537,"lon":5.3854,"is_reserved":false,"is_disabled":true,"rental_uris":{"android":"levelo://app?vid=4fc655b3-839b-4e1f-9bbe-b6f35673f04f","ios":"levelo://app?vid=4fc655b3-839b-4e1f-9bbe-b6f35673f04f"},"vehicle_type_id":"4","last_reported":1750068753,"current_range_meters":0,"station_id":"ce4bgih2rcd13ifvqba0","pricing_plan_id":"cebpf4jnsgd1na2vs0mg"},{"bike_id":"be805492-ac04-44e4-a1a2-497ade6ba613","system_id":"levelo_inurba_marseille","lat":43.29253,"lon":5.4017,"is_reserved":false,"is_disabled":true,"rental_uris":{"android":"levelo://app?vid=be805492-ac04-44e4-a1a2-497ade6ba613","ios":"levelo://app?vid=be805492-ac04-44e4-a1a2-497ade6ba613"},"vehicle_type_id":"4","last_reported":1750068753,"current_range_meters":0,"station_id":"ce4bh312rcd13ifvqdk0","pricing_plan_id":"cebpf4jnsgd1na2vs0mg"},{"bike_id":"10b95a7c-d378-4167-87de-21a8a686e7cd","system_id":"levelo_inurba_marseille","lat":43.25822,"lon":5.39429,"is_reserved":false,"is_disabled":true,"rental_uris":{"android":"levelo://app?vid=10b95a7c-d378-4167-87de-21a8a686e7cd","ios":"levelo://app?vid=10b95a7c-d378-4167-87de-21a8a686e7cd"},"vehicle_type_id":"4","last_reported":1750068753,"current_range_meters":0,"station_id":"ce4bhip2rcd13ifvqft0","pricing_plan_id":"cebpf4jnsgd1na2vs0mg"},{"bike_id":"2078c0c9-3606-4ae2-a19e-bbbd44327bce","system_id":"levelo_inurba_marseille","lat":43.27083,"lon":5.40235,"is_reserved":false,"is_disabled":true,"rental_uris":{"android":"levelo://app?vid=2078c0c9-3606-4ae2-a19e-bbbd44327bce","ios":"levelo://app?vid=2078c0c9-3606-4ae2-a19e-bbbd44327bce"},"vehicle_type_id":"4","last_reported":1750068753,"current_range_meters":0,"station_id":"ce4bhk92rcd13ifvqgc0","pricing_plan_id":"cebpf4jnsgd1na2vs0mg"},{"bike_id":"1a053efc-6835-4fe3-8b2d-e42486c2efbb","system_id":"levelo_inurba_marseille","lat":43.23151,"lon":5.43695,"is_reserved":false,"is_disabled":true,"rental_uris":{"android":"levelo://app?vid=1a053efc-6835-4fe3-8b2d-e42486c2efbb","ios":"levelo://app?vid=1a053efc-6835-4fe3-8b2d-e42486c2efbb"},"vehicle_type_id":"4","last_reported":1750068753,"current_range_meters":0,"station_id":"ce4bhmp2rcd13ifvqgog","pricing_plan_id":"cebpf4jnsgd1na2vs0mg"},{"bike_id":"fe89e90b-41d2-42e6-a883-5e755af9533d","system_id":"levelo_inurba_marseille","lat":43.29556,"lon":5.42289,"is_reserved":false,"is_disabled":true,"rental_uris":{"android":"levelo://app?vid=fe89e90b-41d2-42e6-a883-5e755af9533d","ios":"levelo://app?vid=fe89e90b-41d2-42e6-a883-5e755af9533d"},"vehicle_type_id":"4","last_reported":1750068753,"current_range_meters":0,"station_id":"ce4bhph2rcd13ifvqhdg","pricing_plan_id":"cebpf4jnsgd1na2vs0mg"},{"bike_id":"0dee14fc-df47-4e09-8436-07dde73132a3","system_id":"levelo_inurba_marseille","lat":43.23196,"lon":5.35549,"is_reserved":false,"is_disabled":true,"rental_uris":{"android":"levelo://app?vid=0dee14fc-df47-4e09-8436-07dde73132a3","ios":"levelo://app?vid=0dee14fc-df47-4e09-8436-07dde73132a3"},"vehicle_type_id":"4","last_reported":1750068753,"current_range_meters":0,"station_id":"ce4bhu92rcd13ifvqi70","pricing_plan_id":"cebpf4jnsgd1na2vs0mg"},{"bike_id":"501b39d0-afad-4d54-8e5f-7c984c0c336d","system_id":"levelo_inurba_marseille","lat":43.21201,"lon":5.3505,"is_reserved":false,"is_disabled":true,"rental_uris":{"android":"levelo://app?vid=501b39d0-afad-4d54-8e5f-7c984c0c336d","ios":"levelo://app?vid=501b39d0-afad-4d54-8e5f-7c984c0c336d"},"vehicle_type_id":"4","last_reported":1750068753,"current_range_meters":0,"station_id":"st_cvj6sg6p6f1abm77japg","pricing_plan_id":"cebpf4jnsgd1na2vs0mg"},{"bike_id":"2a83ae2f-a99a-4a3e-9402-1e60d522e115","system_id":"levelo_inurba_marseille","lat":43.21192,"lon":5.35066,"is_reserved":false,"is_disabled":true,"rental_uris":{"android":"levelo://app?vid=2a83ae2f-a99a-4a3e-9402-1e60d522e115","ios":"levelo://app?vid=2a83ae2f-a99a-4a3e-9402-1e60d522e115"},"vehicle_type_id":"4","last_reported":1750068753,"current_range_meters":0,"station_id":"st_cvj6sg6p6f1abm77japg","pricing_plan_id":"cebpf4jnsgd1na2vs0mg"},{"bike_id":"1b333abc-a508-4381-b962-c606a4b9a8d3","system_id":"levelo_inurba_marseille","lat":43.21193,"lon":5.35072,"is_reserved":false,"is_disabled":true,"rental_uris":{"android":"levelo://app?vid=1b333abc-a508-4381-b962-c606a4b9a8d3","ios":"levelo://app?vid=1b333abc-a508-4381-b962-c606a4b9a8d3"},"vehicle_type_id":"4","last_reported":1750068753,"current_range_meters":0,"station_id":"st_cvj6sg6p6f1abm77japg","pricing_plan_id":"cebpf4jnsgd1na2vs0mg"},{"bike_id":"70695719-d19e-404f-b4b9-c10751a4193b","system_id":"levelo_inurba_marseille","lat":43.272053,"lon":5.39186,"is_reserved":false,"is_disabled":true,"rental_uris":{"android":"levelo://app?vid=70695719-d19e-404f-b4b9-c10751a4193b","ios":"levelo://app?vid=70695719-d19e-404f-b4b9-c10751a4193b"},"vehicle_type_id":"4","last_reported":1750068753,"current_range_meters":400,"station_id":"ce4bhhp2rcd13ifvqfm0","pricing_plan_id":"cebpf4jnsgd1na2vs0mg"},{"bike_id":"2ab31527-f915-4286-b3a0-0beafd2cdd50","system_id":"levelo_inurba_marseille","lat":43.30013,"lon":5.37021,"is_reserved":false,"is_disabled":true,"rental_uris":{"android":"levelo://app?vid=2ab31527-f915-4286-b3a0-0beafd2cdd50","ios":"levelo://app?vid=2ab31527-f915-4286-b3a0-0beafd2cdd50"},"vehicle_type_id":"4","last_reported":1750068753,"current_range_meters":800,"station_id":"","pricing_plan_id":"cebpf4jnsgd1na2vs0mg"},{"bike_id":"b2a9f3d3-e9b0-47d4-908c-88b6fb21205f","system_id":"levelo_inurba_marseille","lat":43.2725,"lon":5.36255,"is_reserved":false,"is_disabled":true,"rental_uris":{"android":"levelo://app?vid=b2a9f3d3-e9b0-47d4-908c-88b6fb21205f","ios":"levelo://app?vid=b2a9f3d3-e9b0-47d4-908c-88b6fb21205f"},"vehicle_type_id":"4","last_reported":1750068753,"current_range_meters":800,"station_id":"","pricing_plan_id":"cebpf4jnsgd1na2vs0mg"},{"bike_id":"357558f0-8b10-41dc-8e13-5c366ecd37b5","system_id":"levelo_inurba_marseille","lat":43.21196,"lon":5.35071,"is_reserved":false,"is_disabled":true,"rental_uris":{"android":"levelo://app?vid=357558f0-8b10-41dc-8e13-5c366ecd37b5","ios":"levelo://app?vid=357558f0-8b10-41dc-8e13-5c366ecd37b5"},"vehicle_type_id":"4","last_reported":1750068753,"current_range_meters":800,"station_id":"st_cvj6sg6p6f1abm77japg","pricing_plan_id":"cebpf4jnsgd1na2vs0mg"},{"bike_id":"811ddef8-e717-46df-b50b-f3d4d68cb441","system_id":"levelo_inurba_marseille","lat":43.29432,"lon":5.38608,"is_reserved":false,"is_disabled":true,"rental_uris":{"android":"levelo://app?vid=811ddef8-e717-46df-b50b-f3d4d68cb441","ios":"levelo://app?vid=811ddef8-e717-46df-b50b-f3d4d68cb441"},"vehicle_type_id":"4","last_reported":1750068753,"current_range_meters":1200,"station_id":"ce4bh2h2rcd13ifvqdh0","pricing_plan_id":"cebpf4jnsgd1na2vs0mg"},{"bike_id":"49d5da24-d3b6-450b-bcfd-5c43765b5024","system_id":"levelo_inurba_marseille","lat":43.33603,"lon":5.4103,"is_reserved":false,"is_disabled":true,"rental_uris":{"android":"levelo://app?vid=49d5da24-d3b6-450b-bcfd-5c43765b5024","ios":"levelo://app?vid=49d5da24-d3b6-450b-bcfd-5c43765b5024"},"vehicle_type_id":"4","last_reported":1750068753,"current_range_meters":1600,"station_id":"ce4bhqh2rcd13ifvqhmg","pricing_plan_id":"cebpf4jnsgd1na2vs0mg"},{"bike_id":"21cf423b-7145-4476-96ac-756bfa0e22bc","system_id":"levelo_inurba_marseille","lat":43.28254,"lon":5.37257,"is_reserved":false,"is_disabled":false,"rental_uris":{"android":"levelo://app?vid=21cf423b-7145-4476-96ac-756bfa0e22bc","ios":"levelo://app?vid=21cf423b-7145-4476-96ac-756bfa0e22bc"},"vehicle_type_id":"4","last_reported":1750068753,"current_range_meters":2800,"station_id":"","pricing_plan_id":"cebpf4jnsgd1na2vs0mg"},{"bike_id":"c5900ddb-8101-4116-8e12-b2c01806fc9d","system_id":"levelo_inurba_marseille","lat":43.28375,"lon":5.38633,"is_reserved":false,"is_disabled":false,"rental_uris":{"android":"levelo://app?vid=c5900ddb-8101-4116-8e12-b2c01806fc9d","ios":"levelo://app?vid=c5900ddb-8101-4116-8e12-b2c01806fc9d"},"vehicle_type_id":"4","last_reported":1750068753,"current_range_meters":2800,"station_id":"ce4bh492rcd13ifvqdvg","pricing_plan_id":"cebpf4jnsgd1na2vs0mg"},{"bike_id":"5c2dc1a2-c429-4b76-9efe-1b5bdc988a35","system_id":"levelo_inurba_marseille","lat":43.28019,"lon":5.40031,"is_reserved":false,"is_disabled":false,"rental_uris":{"android":"levelo://app?vid=5c2dc1a2-c429-4b76-9efe-1b5bdc988a35","ios":"levelo://app?vid=5c2dc1a2-c429-4b76-9efe-1b5bdc988a35"},"vehicle_type_id":"4","last_reported":1750068753,"current_range_meters":2800,"station_id":"ce4bho92rcd13ifvqh4g","pricing_plan_id":"cebpf4jnsgd1na2vs0mg"},{"bike_id":"f9d9f6e8-18f3-48d0-a831-37e5ef05de0f","system_id":"levelo_inurba_marseille","lat":43.23155,"lon":5.43701,"is_reserved":false,"is_disabled":false,"rental_uris":{"android":"levelo://app?vid=f9d9f6e8-18f3-48d0-a831-37e5ef05de0f","ios":"levelo://app?vid=f9d9f6e8-18f3-48d0-a831-37e5ef05de0f"},"vehicle_type_id":"4","last_reported":1750068753,"current_range_meters":3200,"station_id":"ce4bhmp2rcd13ifvqgog","pricing_plan_id":"cebpf4jnsgd1na2vs0mg"},{"bike_id":"6940bfa1-c026-456b-98ca-2b03f4e2c2d9","system_id":"levelo_inurba_marseille","lat":43.28618,"lon":5.35103,"is_reserved":false,"is_disabled":false,"rental_uris":{"android":"levelo://app?vid=6940bfa1-c026-456b-98ca-2b03f4e2c2d9","ios":"levelo://app?vid=6940bfa1-c026-456b-98ca-2b03f4e2c2d9"},"vehicle_type_id":"4","last_reported":1750068753,"current_range_meters":4000,"station_id":"ce4bhch2rcd13ifvqeug","pricing_plan_id":"cebpf4jnsgd1na2vs0mg"},{"bike_id":"ea8cbf0d-a744-4d5d-bd25-1fd7ee68db7e","system_id":"levelo_inurba_marseille","lat":43.28036,"lon":5.36946,"is_reserved":false,"is_disabled":false,"rental_uris":{"android":"levelo://app?vid=ea8cbf0d-a744-4d5d-bd25-1fd7ee68db7e","ios":"levelo://app?vid=ea8cbf0d-a744-4d5d-bd25-1fd7ee68db7e"},"vehicle_type_id":"4","last_reported":1750068753,"current_range_meters":4800,"station_id":"ce4bha12rcd13ifvqef0","pricing_plan_id":"cebpf4jnsgd1na2vs0mg"},{"bike_id":"a03675ec-3c4c-45c8-adb1-9b1853939693","system_id":"levelo_inurba_marseille","lat":43.25582,"lon":5.38231,"is_reserved":false,"is_disabled":false,"rental_uris":{"android":"levelo://app?vid=a03675ec-3c4c-45c8-adb1-9b1853939693","ios":"levelo://app?vid=a03675ec-3c4c-45c8-adb1-9b1853939693"},"vehicle_type_id":"4","last_reported":1750068753,"current_range_meters":5600,"station_id":"ce4bhih2rcd13ifvqfs0","pricing_plan_id":"cebpf4jnsgd1na2vs0mg"},{"bike_id":"eee37b92-da8f-4086-9175-f308ed9ddece","system_id":"levelo_inurba_marseille","lat":43.211931,"lon":5.350706,"is_reserved":false,"is_disabled":false,"rental_uris":{"android":"levelo://app?vid=eee37b92-da8f-4086-9175-f308ed9ddece","ios":"levelo://app?vid=eee37b92-da8f-4086-9175-f308ed9ddece"},"vehicle_type_id":"4","last_reported":1750068753,"current_range_meters":5600,"station_id":"st_cvj6sg6p6f1abm77japg","pricing_plan_id":"cebpf4jnsgd1na2vs0mg"},{"bike_id":"97d23763-2fe1-4530-af2f-0bffd2b33837","system_id":"levelo_inurba_marseille","lat":43.28273,"lon":5.35057,"is_reserved":false,"is_disabled":false,"rental_uris":{"android":"levelo://app?vid=97d23763-2fe1-4530-af2f-0bffd2b33837","ios":"levelo://app?vid=97d23763-2fe1-4530-af2f-0bffd2b33837"},"vehicle_type_id":"4","last_reported":1750068753,"current_range_meters":6400,"station_id":"ce4bhbp2rcd13ifvqerg","pricing_plan_id":"cebpf4jnsgd1na2vs0mg"},{"bike_id":"8592d59b-131c-4534-8e39-db4f7905c7e8","system_id":"levelo_inurba_marseille","lat":43.278093,"lon":5.407127,"is_reserved":false,"is_disabled":false,"rental_uris":{"android":"levelo://app?vid=8592d59b-131c-4534-8e39-db4f7905c7e8","ios":"levelo://app?vid=8592d59b-131c-4534-8e39-db4f7905c7e8"},"vehicle_type_id":"4","last_reported":1750068753,"current_range_meters":6800,"station_id":"ce4bhnh2rcd13ifvqgtg","pricing_plan_id":"cebpf4jnsgd1na2vs0mg"},{"bike_id":"a112d53b-ad54-4060-8f8e-fad339f5de6e","system_id":"levelo_inurba_marseille","lat":43.21188,"lon":5.35063,"is_reserved":false,"is_disabled":false,"rental_uris":{"android":"levelo://app?vid=a112d53b-ad54-4060-8f8e-fad339f5de6e","ios":"levelo://app?vid=a112d53b-ad54-4060-8f8e-fad339f5de6e"},"vehicle_type_id":"4","last_reported":1750068753,"current_range_meters":6800,"station_id":"st_cvj6sg6p6f1abm77japg","pricing_plan_id":"cebpf4jnsgd1na2vs0mg"},{"bike_id":"604affe5-9f04-4fd4-97c6-3b5603344135","system_id":"levelo_inurba_marseille","lat":43.27271,"lon":5.41658,"is_reserved":false,"is_disabled":false,"rental_uris":{"android":"levelo://app?vid=604affe5-9f04-4fd4-97c6-3b5603344135","ios":"levelo://app?vid=604affe5-9f04-4fd4-97c6-3b5603344135"},"vehicle_type_id":"4","last_reported":1750068753,"current_range_meters":7200,"station_id":"","pricing_plan_id":"cebpf4jnsgd1na2vs0mg"},{"bike_id":"d97dc030-8405-4eb1-abbf-845730c8e3dc","system_id":"levelo_inurba_marseille","lat":43.21191,"lon":5.35075,"is_reserved":false,"is_disabled":false,"rental_uris":{"android":"levelo://app?vid=d97dc030-8405-4eb1-abbf-845730c8e3dc","ios":"levelo://app?vid=d97dc030-8405-4eb1-abbf-845730c8e3dc"},"vehicle_type_id":"4","last_reported":1750068753,"current_range_meters":7200,"station_id":"st_cvj6sg6p6f1abm77japg","pricing_plan_id":"cebpf4jnsgd1na2vs0mg"},{"bike_id":"387d1fed-118c-437b-bd55-020621253e35","system_id":"levelo_inurba_marseille","lat":43.24093,"lon":5.36837,"is_reserved":false,"is_disabled":false,"rental_uris":{"android":"levelo://app?vid=387d1fed-118c-437b-bd55-020621253e35","ios":"levelo://app?vid=387d1fed-118c-437b-bd55-020621253e35"},"vehicle_type_id":"4","last_reported":1750068753,"current_range_meters":8000,"station_id":"","pricing_plan_id":"cebpf4jnsgd1na2vs0mg"},{"bike_id":"04c235f0-835f-4d5e-83c5-e983e8584ad8","system_id":"levelo_inurba_marseille","lat":43.32397,"lon":5.3677,"is_reserved":false,"is_disabled":false,"rental_uris":{"android":"levelo://app?vid=04c235f0-835f-4d5e-83c5-e983e8584ad8","ios":"levelo://app?vid=04c235f0-835f-4d5e-83c5-e983e8584ad8"},"vehicle_type_id":"4","last_reported":1750068753,"current_range_meters":8000,"station_id":"ce4bhsh2rcd13ifvqi2g","pricing_plan_id":"cebpf4jnsgd1na2vs0mg"},{"bike_id":"1129c865-6e95-462b-b2c1-b7d1a7504170","system_id":"levelo_inurba_marseille","lat":43.30176,"lon":5.36609,"is_reserved":false,"is_disabled":false,"rental_uris":{"android":"levelo://app?vid=1129c865-6e95-462b-b2c1-b7d1a7504170","ios":"levelo://app?vid=1129c865-6e95-462b-b2c1-b7d1a7504170"},"vehicle_type_id":"4","last_reported":1750068753,"current_range_meters":8400,"station_id":"ce4bgrh2rcd13ifvqc8g","pricing_plan_id":"cebpf4jnsgd1na2vs0mg"},{"bike_id":"975ec9a6-fb96-45b0-a458-adafc6f964ad","system_id":"levelo_inurba_marseille","lat":43.283946,"lon":5.349873,"is_reserved":false,"is_disabled":false,"rental_uris":{"android":"levelo://app?vid=975ec9a6-fb96-45b0-a458-adafc6f964ad","ios":"levelo://app?vid=975ec9a6-fb96-45b0-a458-adafc6f964ad"},"vehicle_type_id":"4","last_reported":1750068753,"current_range_meters":8400,"station_id":"ce4bhbh2rcd13ifvqepg","pricing_plan_id":"cebpf4jnsgd1na2vs0mg"},{"bike_id":"b60d3ddf-394b-4c0c-9668-6a46ea0542a8","system_id":"levelo_inurba_marseille","lat":43.28421,"lon":5.34985,"is_reserved":false,"is_disabled":false,"rental_uris":{"android":"levelo://app?vid=b60d3ddf-394b-4c0c-9668-6a46ea0542a8","ios":"levelo://app?vid=b60d3ddf-394b-4c0c-9668-6a46ea0542a8"},"vehicle_type_id":"4","last_reported":1750068753,"current_range_meters":8400,"station_id":"ce4bhbh2rcd13ifvqepg","pricing_plan_id":"cebpf4jnsgd1na2vs0mg"},{"bike_id":"1d9fc285-73ec-4507-9b00-b43b70dafd61","system_id":"levelo_inurba_marseille","lat":43.25498,"lon":5.37646,"is_reserved":false,"is_disabled":false,"rental_uris":{"android":"levelo://app?vid=1d9fc285-73ec-4507-9b00-b43b70dafd61","ios":"levelo://app?vid=1d9fc285-73ec-4507-9b00-b43b70dafd61"},"vehicle_type_id":"4","last_reported":1750068753,"current_range_meters":8400,"station_id":"ce4bhh12rcd13ifvqff0","pricing_plan_id":"cebpf4jnsgd1na2vs0mg"},{"bike_id":"669a955f-6026-44c0-ad89-a8ce73e40693","system_id":"levelo_inurba_marseille","lat":43.27061,"lon":5.40255,"is_reserved":false,"is_disabled":false,"rental_uris":{"android":"levelo://app?vid=669a955f-6026-44c0-ad89-a8ce73e40693","ios":"levelo://app?vid=669a955f-6026-44c0-ad89-a8ce73e40693"},"vehicle_type_id":"4","last_reported":1750068753,"current_range_meters":8400,"station_id":"ce4bhk92rcd13ifvqgc0","pricing_plan_id":"cebpf4jnsgd1na2vs0mg"},{"bike_id":"d8a4f7b4-052d-4bce-ae83-b9167311e0ea","system_id":"levelo_inurba_marseille","lat":43.211883,"lon":5.350767,"is_reserved":false,"is_disabled":false,"rental_uris":{"android":"levelo://app?vid=d8a4f7b4-052d-4bce-ae83-b9167311e0ea","ios":"levelo://app?vid=d8a4f7b4-052d-4bce-ae83-b9167311e0ea"},"vehicle_type_id":"4","last_reported":1750068753,"current_range_meters":8400,"station_id":"st_cvj6sg6p6f1abm77japg","pricing_plan_id":"cebpf4jnsgd1na2vs0mg"},{"bike_id":"ceef76cf-08ff-4881-89a4-a1ad2c201efd","system_id":"levelo_inurba_marseille","lat":43.295783,"lon":5.367365,"is_reserved":false,"is_disabled":false,"rental_uris":{"android":"levelo://app?vid=ceef76cf-08ff-4881-89a4-a1ad2c201efd","ios":"levelo://app?vid=ceef76cf-08ff-4881-89a4-a1ad2c201efd"},"vehicle_type_id":"4","last_reported":1750068753,"current_range_meters":8800,"station_id":"ce4bgph2rcd13ifvqc2g","pricing_plan_id":"cebpf4jnsgd1na2vs0mg"},{"bike_id":"f85494d8-4cf8-4720-979b-4fe00c377037","system_id":"levelo_inurba_marseille","lat":43.29845,"lon":5.36265,"is_reserved":false,"is_disabled":false,"rental_uris":{"android":"levelo://app?vid=f85494d8-4cf8-4720-979b-4fe00c377037","ios":"levelo://app?vid=f85494d8-4cf8-4720-979b-4fe00c377037"},"vehicle_type_id":"4","last_reported":1750068753,"current_range_meters":8800,"station_id":"ce4bgpp2rcd13ifvqc3g","pricing_plan_id":"cebpf4jnsgd1na2vs0mg"},{"bike_id":"10406b6e-0489-4dea-a5cf-647adfbdf548","system_id":"levelo_inurba_marseille","lat":43.2721,"lon":5.39176,"is_reserved":false,"is_disabled":false,"rental_uris":{"android":"levelo://app?vid=10406b6e-0489-4dea-a5cf-647adfbdf548","ios":"levelo://app?vid=10406b6e-0489-4dea-a5cf-647adfbdf548"},"vehicle_type_id":"4","last_reported":1750068753,"current_range_meters":9200,"station_id":"ce4bhhp2rcd13ifvqfm0","pricing_plan_id":"cebpf4jnsgd1na2vs0mg"},{"bike_id":"73d2bea6-f99d-4671-8954-580edff743bc","system_id":"levelo_inurba_marseille","lat":43.21213,"lon":5.35047,"is_reserved":false,"is_disabled":false,"rental_uris":{"android":"levelo://app?vid=73d2bea6-f99d-4671-8954-580edff743bc","ios":"levelo://app?vid=73d2bea6-f99d-4671-8954-580edff743bc"},"vehicle_type_id":"4","last_reported":1750068753,"current_range_meters":9200,"station_id":"st_cvj6sg6p6f1abm77japg","pricing_plan_id":"cebpf4jnsgd1na2vs0mg"},{"bike_id":"8da27483-9e04-4403-86f7-d05117b10347","system_id":"levelo_inurba_marseille","lat":43.29102,"lon":5.38139,"is_reserved":false,"is_disabled":false,"rental_uris":{"android":"levelo://app?vid=8da27483-9e04-4403-86f7-d05117b10347","ios":"levelo://app?vid=8da27483-9e04-4403-86f7-d05117b10347"},"vehicle_type_id":"4","last_reported":1750068753,"current_range_meters":9600,"station_id":"ce4bh512rcd13ifvqe2g","pricing_plan_id":"cebpf4jnsgd1na2vs0mg"},{"bike_id":"892b1f81-3717-4429-9cb5-d0602169cc7d","system_id":"levelo_inurba_marseille","lat":43.27203,"lon":5.3918,"is_reserved":false,"is_disabled":false,"rental_uris":{"android":"levelo://app?vid=892b1f81-3717-4429-9cb5-d0602169cc7d","ios":"levelo://app?vid=892b1f81-3717-4429-9cb5-d0602169cc7d"},"vehicle_type_id":"4","last_reported":1750068753,"current_range_meters":9600,"station_id":"ce4bhhp2rcd13ifvqfm0","pricing_plan_id":"cebpf4jnsgd1na2vs0mg"},{"bike_id":"6c1af265-e767-484a-aacf-3355e3093620","system_id":"levelo_inurba_marseille","lat":43.27495,"lon":5.42448,"is_reserved":false,"is_disabled":false,"rental_uris":{"android":"levelo://app?vid=6c1af265-e767-484a-aacf-3355e3093620","ios":"levelo://app?vid=6c1af265-e767-484a-aacf-3355e3093620"},"vehicle_type_id":"4","last_reported":1750068753,"current_range_meters":9600,"station_id":"ce4bhn92rcd13ifvqgrg","pricing_plan_id":"cebpf4jnsgd1na2vs0mg"},{"bike_id":"2319ce10-a51c-42ad-ad50-827b68e4f300","system_id":"levelo_inurba_marseille","lat":43.29649,"lon":5.37975,"is_reserved":false,"is_disabled":false,"rental_uris":{"android":"levelo://app?vid=2319ce10-a51c-42ad-ad50-827b68e4f300","ios":"levelo://app?vid=2319ce10-a51c-42ad-ad50-827b68e4f300"},"vehicle_type_id":"4","last_reported":1750068753,"current_range_meters":10000,"station_id":"","pricing_plan_id":"cebpf4jnsgd1na2vs0mg"},{"bike_id":"6d65cce0-4c68-4480-9248-9459cb3ab347","system_id":"levelo_inurba_marseille","lat":43.30588,"lon":5.37214,"is_reserved":false,"is_disabled":false,"rental_uris":{"android":"levelo://app?vid=6d65cce0-4c68-4480-9248-9459cb3ab347","ios":"levelo://app?vid=6d65cce0-4c68-4480-9248-9459cb3ab347"},"vehicle_type_id":"4","last_reported":1750068753,"current_range_meters":10000,"station_id":"ce4bgqh2rcd13ifvqc4g","pricing_plan_id":"cebpf4jnsgd1na2vs0mg"},{"bike_id":"ac2f3e24-f067-4d82-8a10-16e5da39b083","system_id":"levelo_inurba_marseille","lat":43.28572,"lon":5.39488,"is_reserved":false,"is_disabled":false,"rental_uris":{"android":"levelo://app?vid=ac2f3e24-f067-4d82-8a10-16e5da39b083","ios":"levelo://app?vid=ac2f3e24-f067-4d82-8a10-16e5da39b083"},"vehicle_type_id":"4","last_reported":1750068753,"current_range_meters":10000,"station_id":"ce4bh292rcd13ifvqdg0","pricing_plan_id":"cebpf4jnsgd1na2vs0mg"},{"bike_id":"7870d999-e864-4ddf-87b7-30fc86166447","system_id":"levelo_inurba_marseille","lat":43.24793,"lon":5.37476,"is_reserved":false,"is_disabled":false,"rental_uris":{"android":"levelo://app?vid=7870d999-e864-4ddf-87b7-30fc86166447","ios":"levelo://app?vid=7870d999-e864-4ddf-87b7-30fc86166447"},"vehicle_type_id":"4","last_reported":1750068753,"current_range_meters":10000,"station_id":"ce4bhgh2rcd13ifvqfb0","pricing_plan_id":"cebpf4jnsgd1na2vs0mg"},{"bike_id":"654eac4b-ef0a-4bfb-a829-03bd7cb11f27","system_id":"levelo_inurba_marseille","lat":43.33603,"lon":5.41028,"is_reserved":false,"is_disabled":false,"rental_uris":{"android":"levelo://app?vid=654eac4b-ef0a-4bfb-a829-03bd7cb11f27","ios":"levelo://app?vid=654eac4b-ef0a-4bfb-a829-03bd7cb11f27"},"vehicle_type_id":"4","last_reported":1750068753,"current_range_meters":10000,"station_id":"ce4bhqh2rcd13ifvqhmg","pricing_plan_id":"cebpf4jnsgd1na2vs0mg"},{"bike_id":"c8e281fa-e638-4480-abdc-32759daadf6e","system_id":"levelo_inurba_marseille","lat":43.32316,"lon":5.36713,"is_reserved":false,"is_disabled":false,"rental_uris":{"android":"levelo://app?vid=c8e281fa-e638-4480-abdc-32759daadf6e","ios":"levelo://app?vid=c8e281fa-e638-4480-abdc-32759daadf6e"},"vehicle_type_id":"4","last_reported":1750068753,"current_range_meters":10000,"station_id":"ce4bhsh2rcd13ifvqi2g","pricing_plan_id":"cebpf4jnsgd1na2vs0mg"},{"bike_id":"3db42ed2-756a-4f9e-b9e7-34a1f59e7066","system_id":"levelo_inurba_marseille","lat":43.31489,"lon":5.37291,"is_reserved":false,"is_disabled":false,"rental_uris":{"android":"levelo://app?vid=3db42ed2-756a-4f9e-b9e7-34a1f59e7066","ios":"levelo://app?vid=3db42ed2-756a-4f9e-b9e7-34a1f59e7066"},"vehicle_type_id":"4","last_reported":1750068753,"current_range_meters":10800,"station_id":"ce4bgt12rcd13ifvqcd0","pricing_plan_id":"cebpf4jnsgd1na2vs0mg"},{"bike_id":"64a964ec-cac9-40af-af19-a746d40fe133","system_id":"levelo_inurba_marseille","lat":43.30953,"lon":5.39043,"is_reserved":false,"is_disabled":false,"rental_uris":{"android":"levelo://app?vid=64a964ec-cac9-40af-af19-a746d40fe133","ios":"levelo://app?vid=64a964ec-cac9-40af-af19-a746d40fe133"},"vehicle_type_id":"4","last_reported":1750068753,"current_range_meters":10800,"station_id":"ce4bgup2rcd13ifvqco0","pricing_plan_id":"cebpf4jnsgd1na2vs0mg"},{"bike_id":"48b2083c-9111-4bd9-a0db-efedc6360004","system_id":"levelo_inurba_marseille","lat":43.32334,"lon":5.40621,"is_reserved":false,"is_disabled":false,"rental_uris":{"android":"levelo://app?vid=48b2083c-9111-4bd9-a0db-efedc6360004","ios":"levelo://app?vid=48b2083c-9111-4bd9-a0db-efedc6360004"},"vehicle_type_id":"4","last_reported":1750068753,"current_range_meters":10800,"station_id":"ce4bhq92rcd13ifvqhjg","pricing_plan_id":"cebpf4jnsgd1na2vs0mg"},{"bike_id":"0fecf8d1-b936-49e1-9fed-27c11ef02d3b","system_id":"levelo_inurba_marseille","lat":43.32486,"lon":5.36573,"is_reserved":false,"is_disabled":false,"rental_uris":{"android":"levelo://app?vid=0fecf8d1-b936-49e1-9fed-27c11ef02d3b","ios":"levelo://app?vid=0fecf8d1-b936-49e1-9fed-27c11ef02d3b"},"vehicle_type_id":"4","last_reported":1750068753,"current_range_meters":10800,"station_id":"ce4bhs12rcd13ifvqhvg","pricing_plan_id":"cebpf4jnsgd1na2vs0mg"},{"bike_id":"34661ccd-4a50-408b-9a97-f3b31c95e9eb","system_id":"levelo_inurba_marseille","lat":43.337444,"lon":5.374475,"is_reserved":false,"is_disabled":false,"rental_uris":{"android":"levelo://app?vid=34661ccd-4a50-408b-9a97-f3b31c95e9eb","ios":"levelo://app?vid=34661ccd-4a50-408b-9a97-f3b31c95e9eb"},"vehicle_type_id":"4","last_reported":1750068753,"current_range_meters":11200,"station_id":"","pricing_plan_id":"cebpf4jnsgd1na2vs0mg"},{"bike_id":"ecd6f987-e844-4307-b93f-34d8fbafc304","system_id":"levelo_inurba_marseille","lat":43.29612,"lon":5.37727,"is_reserved":false,"is_disabled":false,"rental_uris":{"android":"levelo://app?vid=ecd6f987-e844-4307-b93f-34d8fbafc304","ios":"levelo://app?vid=ecd6f987-e844-4307-b93f-34d8fbafc304"},"vehicle_type_id":"4","last_reported":1750068753,"current_range_meters":11200,"station_id":"ce4bgi92rcd13ifvqb90","pricing_plan_id":"cebpf4jnsgd1na2vs0mg"},{"bike_id":"25e1057f-ed48-4bb7-a4b7-ab1235616769","system_id":"levelo_inurba_marseille","lat":43.30595,"lon":5.39353,"is_reserved":false,"is_disabled":false,"rental_uris":{"android":"levelo://app?vid=25e1057f-ed48-4bb7-a4b7-ab1235616769","ios":"levelo://app?vid=25e1057f-ed48-4bb7-a4b7-ab1235616769"},"vehicle_type_id":"4","last_reported":1750068753,"current_range_meters":11200,"station_id":"ce4bh0p2rcd13ifvqd80","pricing_plan_id":"cebpf4jnsgd1na2vs0mg"},{"bike_id":"91753df6-b383-4702-8414-24237e81fab8","system_id":"levelo_inurba_marseille","lat":43.24418,"lon":5.37168,"is_reserved":false,"is_disabled":false,"rental_uris":{"android":"levelo://app?vid=91753df6-b383-4702-8414-24237e81fab8","ios":"levelo://app?vid=91753df6-b383-4702-8414-24237e81fab8"},"vehicle_type_id":"4","last_reported":1750068753,"current_range_meters":11600,"station_id":"","pricing_plan_id":"cebpf4jnsgd1na2vs0mg"},{"bike_id":"3d490c2c-e64d-44b5-a5c7-13d0fc2e555d","system_id":"levelo_inurba_marseille","lat":43.30601,"lon":5.37223,"is_reserved":false,"is_disabled":false,"rental_uris":{"android":"levelo://app?vid=3d490c2c-e64d-44b5-a5c7-13d0fc2e555d","ios":"levelo://app?vid=3d490c2c-e64d-44b5-a5c7-13d0fc2e555d"},"vehicle_type_id":"4","last_reported":1750068753,"current_range_meters":11600,"station_id":"ce4bgqh2rcd13ifvqc4g","pricing_plan_id":"cebpf4jnsgd1na2vs0mg"},{"bike_id":"604d5e47-30d3-4eee-b823-438601f9183e","system_id":"levelo_inurba_marseille","lat":43.29555,"lon":5.39383,"is_reserved":false,"is_disabled":false,"rental_uris":{"android":"levelo://app?vid=604d5e47-30d3-4eee-b823-438601f9183e","ios":"levelo://app?vid=604d5e47-30d3-4eee-b823-438601f9183e"},"vehicle_type_id":"4","last_reported":1750068753,"current_range_meters":11600,"station_id":"ce4bh292rcd13ifvqdf0","pricing_plan_id":"cebpf4jnsgd1na2vs0mg"},{"bike_id":"ff5676c8-3ed8-4967-bc57-2174d15f00fb","system_id":"levelo_inurba_marseille","lat":43.287098,"lon":5.400027,"is_reserved":false,"is_disabled":false,"rental_uris":{"android":"levelo://app?vid=ff5676c8-3ed8-4967-bc57-2174d15f00fb","ios":"levelo://app?vid=ff5676c8-3ed8-4967-bc57-2174d15f00fb"},"vehicle_type_id":"4","last_reported":1750068753,"current_range_meters":11600,"station_id":"ce4bho92rcd13ifvqh3g","pricing_plan_id":"cebpf4jnsgd1na2vs0mg"},{"bike_id":"36f7b675-3639-4183-8a18-8a942f2fdd0e","system_id":"levelo_inurba_marseille","lat":43.299134,"lon":5.436583,"is_reserved":false,"is_disabled":false,"rental_uris":{"android":"levelo://app?vid=36f7b675-3639-4183-8a18-8a942f2fdd0e","ios":"levelo://app?vid=36f7b675-3639-4183-8a18-8a942f2fdd0e"},"vehicle_type_id":"4","last_reported":1750068753,"current_range_meters":11600,"station_id":"ce4bhpp2rcd13ifvqhfg","pricing_plan_id":"cebpf4jnsgd1na2vs0mg"},{"bike_id":"0fe8d47d-0db3-437d-9239-f712b4736eb4","system_id":"levelo_inurba_marseille","lat":43.32075,"lon":5.36763,"is_reserved":false,"is_disabled":false,"rental_uris":{"android":"levelo://app?vid=0fe8d47d-0db3-437d-9239-f712b4736eb4","ios":"levelo://app?vid=0fe8d47d-0db3-437d-9239-f712b4736eb4"},"vehicle_type_id":"4","last_reported":1750068753,"current_range_meters":11600,"station_id":"ce4bhrh2rcd13ifvqhug","pricing_plan_id":"cebpf4jnsgd1na2vs0mg"},{"bike_id":"61eaaf96-2d2b-440f-b884-6098e1bc7a07","system_id":"levelo_inurba_marseille","lat":43.323,"lon":5.38274,"is_reserved":false,"is_disabled":false,"rental_uris":{"android":"levelo://app?vid=61eaaf96-2d2b-440f-b884-6098e1bc7a07","ios":"levelo://app?vid=61eaaf96-2d2b-440f-b884-6098e1bc7a07"},"vehicle_type_id":"4","last_reported":1750068753,"current_range_meters":12000,"station_id":"ce4bhr12rcd13ifvqhqg","pricing_plan_id":"cebpf4jnsgd1na2vs0mg"},{"bike_id":"ca404674-a7bb-4909-82c7-65fa93f0b6de","system_id":"levelo_inurba_marseille","lat":43.21183,"lon":5.35079,"is_reserved":false,"is_disabled":false,"rental_uris":{"android":"levelo://app?vid=ca404674-a7bb-4909-82c7-65fa93f0b6de","ios":"levelo://app?vid=ca404674-a7bb-4909-82c7-65fa93f0b6de"},"vehicle_type_id":"4","last_reported":1750068753,"current_range_meters":12000,"station_id":"st_cvj6sg6p6f1abm77japg","pricing_plan_id":"cebpf4jnsgd1na2vs0mg"},{"bike_id":"5bf19c18-d0ad-489b-bd15-9440a1d65b2d","system_id":"levelo_inurba_marseille","lat":43.21193,"lon":5.35066,"is_reserved":false,"is_disabled":false,"rental_uris":{"android":"levelo://app?vid=5bf19c18-d0ad-489b-bd15-9440a1d65b2d","ios":"levelo://app?vid=5bf19c18-d0ad-489b-bd15-9440a1d65b2d"},"vehicle_type_id":"4","last_reported":1750068753,"current_range_meters":12000,"station_id":"st_cvj6sg6p6f1abm77japg","pricing_plan_id":"cebpf4jnsgd1na2vs0mg"},{"bike_id":"293d17a2-7b6c-488f-95e0-e4e8f4c1d1e3","system_id":"levelo_inurba_marseille","lat":43.313182,"lon":5.372958,"is_reserved":false,"is_disabled":false,"rental_uris":{"android":"levelo://app?vid=293d17a2-7b6c-488f-95e0-e4e8f4c1d1e3","ios":"levelo://app?vid=293d17a2-7b6c-488f-95e0-e4e8f4c1d1e3"},"vehicle_type_id":"4","last_reported":1750068753,"current_range_meters":12400,"station_id":"","pricing_plan_id":"cebpf4jnsgd1na2vs0mg"},{"bike_id":"32a15697-89ec-4783-a6d3-8d88dee5f5c1","system_id":"levelo_inurba_marseille","lat":43.29267,"lon":5.37431,"is_reserved":false,"is_disabled":false,"rental_uris":{"android":"levelo://app?vid=32a15697-89ec-4783-a6d3-8d88dee5f5c1","ios":"levelo://app?vid=32a15697-89ec-4783-a6d3-8d88dee5f5c1"},"vehicle_type_id":"4","last_reported":1750068753,"current_range_meters":12400,"station_id":"ce4bgi12rcd13ifvqb70","pricing_plan_id":"cebpf4jnsgd1na2vs0mg"},{"bike_id":"5ca3258b-c85e-475f-9ea2-3ac1486a67ba","system_id":"levelo_inurba_marseille","lat":43.336089,"lon":5.410384,"is_reserved":false,"is_disabled":false,"rental_uris":{"android":"levelo://app?vid=5ca3258b-c85e-475f-9ea2-3ac1486a67ba","ios":"levelo://app?vid=5ca3258b-c85e-475f-9ea2-3ac1486a67ba"},"vehicle_type_id":"4","last_reported":1750068753,"current_range_meters":12400,"station_id":"ce4bhqh2rcd13ifvqhmg","pricing_plan_id":"cebpf4jnsgd1na2vs0mg"},{"bike_id":"037d24b8-0f7d-442c-a65b-b06f720ebe3a","system_id":"levelo_inurba_marseille","lat":43.31378,"lon":5.36691,"is_reserved":false,"is_disabled":false,"rental_uris":{"android":"levelo://app?vid=037d24b8-0f7d-442c-a65b-b06f720ebe3a","ios":"levelo://app?vid=037d24b8-0f7d-442c-a65b-b06f720ebe3a"},"vehicle_type_id":"4","last_reported":1750068753,"current_range_meters":12800,"station_id":"ce4bgr92rcd13ifvqc6g","pricing_plan_id":"cebpf4jnsgd1na2vs0mg"},{"bike_id":"e66dc34d-2f64-4540-b80b-4bc12a551064","system_id":"levelo_inurba_marseille","lat":43.29956,"lon":5.37167,"is_reserved":false,"is_disabled":false,"rental_uris":{"android":"levelo://app?vid=e66dc34d-2f64-4540-b80b-4bc12a551064","ios":"levelo://app?vid=e66dc34d-2f64-4540-b80b-4bc12a551064"},"vehicle_type_id":"4","last_reported":1750068753,"current_range_meters":12800,"station_id":"ce4bgr92rcd13ifvqc7g","pricing_plan_id":"cebpf4jnsgd1na2vs0mg"},{"bike_id":"ef842d0e-032b-42a4-a720-b932a413ca99","system_id":"levelo_inurba_marseille","lat":43.30552,"lon":5.36525,"is_reserved":false,"is_disabled":false,"rental_uris":{"android":"levelo://app?vid=ef842d0e-032b-42a4-a720-b932a413ca99","ios":"levelo://app?vid=ef842d0e-032b-42a4-a720-b932a413ca99"},"vehicle_type_id":"4","last_reported":1750068753,"current_range_meters":12800,"station_id":"ce4bgs12rcd13ifvqcag","pricing_plan_id":"cebpf4jnsgd1na2vs0mg"},{"bike_id":"30800f1b-ea19-44d0-b847-dc3bc3f1fa1e","system_id":"levelo_inurba_marseille","lat":43.31485,"lon":5.37297,"is_reserved":false,"is_disabled":false,"rental_uris":{"android":"levelo://app?vid=30800f1b-ea19-44d0-b847-dc3bc3f1fa1e","ios":"levelo://app?vid=30800f1b-ea19-44d0-b847-dc3bc3f1fa1e"},"vehicle_type_id":"4","last_reported":1750068753,"current_range_meters":12800,"station_id":"ce4bgt12rcd13ifvqcd0","pricing_plan_id":"cebpf4jnsgd1na2vs0mg"},{"bike_id":"2d16d2b6-c684-45ab-831f-9a77e91e8afb","system_id":"levelo_inurba_marseille","lat":43.21189,"lon":5.35065,"is_reserved":false,"is_disabled":false,"rental_uris":{"android":"levelo://app?vid=2d16d2b6-c684-45ab-831f-9a77e91e8afb","ios":"levelo://app?vid=2d16d2b6-c684-45ab-831f-9a77e91e8afb"},"vehicle_type_id":"4","last_reported":1750068753,"current_range_meters":12800,"station_id":"st_cvj6sg6p6f1abm77japg","pricing_plan_id":"cebpf4jnsgd1na2vs0mg"},{"bike_id":"793ae218-276b-430f-a1db-701a8456170b","system_id":"levelo_inurba_marseille","lat":43.31189,"lon":5.40155,"is_reserved":false,"is_disabled":false,"rental_uris":{"android":"levelo://app?vid=793ae218-276b-430f-a1db-701a8456170b","ios":"levelo://app?vid=793ae218-276b-430f-a1db-701a8456170b"},"vehicle_type_id":"4","last_reported":1750068753,"current_range_meters":13600,"station_id":"","pricing_plan_id":"cebpf4jnsgd1na2vs0mg"},{"bike_id":"a66c4499-80b2-4849-b750-619e2fe538d1","system_id":"levelo_inurba_marseille","lat":43.29853,"lon":5.36271,"is_reserved":false,"is_disabled":false,"rental_uris":{"android":"levelo://app?vid=a66c4499-80b2-4849-b750-619e2fe538d1","ios":"levelo://app?vid=a66c4499-80b2-4849-b750-619e2fe538d1"},"vehicle_type_id":"4","last_reported":1750068753,"current_range_meters":13600,"station_id":"ce4bgpp2rcd13ifvqc3g","pricing_plan_id":"cebpf4jnsgd1na2vs0mg"},{"bike_id":"e50f90c2-bbeb-400a-8c17-54fe0ef81832","system_id":"levelo_inurba_marseille","lat":43.2826,"lon":5.35066,"is_reserved":false,"is_disabled":false,"rental_uris":{"android":"levelo://app?vid=e50f90c2-bbeb-400a-8c17-54fe0ef81832","ios":"levelo://app?vid=e50f90c2-bbeb-400a-8c17-54fe0ef81832"},"vehicle_type_id":"4","last_reported":1750068753,"current_range_meters":13600,"station_id":"ce4bhbp2rcd13ifvqerg","pricing_plan_id":"cebpf4jnsgd1na2vs0mg"},{"bike_id":"0b9ebd98-10d1-4ed5-898b-5863bd831ded","system_id":"levelo_inurba_marseille","lat":43.25909,"lon":5.40895,"is_reserved":false,"is_disabled":false,"rental_uris":{"android":"levelo://app?vid=0b9ebd98-10d1-4ed5-898b-5863bd831ded","ios":"levelo://app?vid=0b9ebd98-10d1-4ed5-898b-5863bd831ded"},"vehicle_type_id":"4","last_reported":1750068753,"current_range_meters":13600,"station_id":"ce4bhm92rcd13ifvqglg","pricing_plan_id":"cebpf4jnsgd1na2vs0mg"},{"bike_id":"508c6318-2e37-4161-9247-29cc1ffa502e","system_id":"levelo_inurba_marseille","lat":43.3292,"lon":5.40556,"is_reserved":false,"is_disabled":false,"rental_uris":{"android":"levelo://app?vid=508c6318-2e37-4161-9247-29cc1ffa502e","ios":"levelo://app?vid=508c6318-2e37-4161-9247-29cc1ffa502e"},"vehicle_type_id":"4","last_reported":1750068753,"current_range_meters":14000,"station_id":"","pricing_plan_id":"cebpf4jnsgd1na2vs0mg"},{"bike_id":"ee501195-744e-4700-b705-d12ca5368cce","system_id":"levelo_inurba_marseille","lat":43.29536,"lon":5.38536,"is_reserved":false,"is_disabled":false,"rental_uris":{"android":"levelo://app?vid=ee501195-744e-4700-b705-d12ca5368cce","ios":"levelo://app?vid=ee501195-744e-4700-b705-d12ca5368cce"},"vehicle_type_id":"4","last_reported":1750068753,"current_range_meters":14000,"station_id":"ce4bgih2rcd13ifvqba0","pricing_plan_id":"cebpf4jnsgd1na2vs0mg"},{"bike_id":"68a473c4-8ef7-4514-aedc-8e60cdab0f8e","system_id":"levelo_inurba_marseille","lat":43.308904,"lon":5.371896,"is_reserved":false,"is_disabled":false,"rental_uris":{"android":"levelo://app?vid=68a473c4-8ef7-4514-aedc-8e60cdab0f8e","ios":"levelo://app?vid=68a473c4-8ef7-4514-aedc-8e60cdab0f8e"},"vehicle_type_id":"4","last_reported":1750068753,"current_range_meters":14000,"station_id":"ce4bguh2rcd13ifvqckg","pricing_plan_id":"cebpf4jnsgd1na2vs0mg"},{"bike_id":"0f964b5f-afff-4561-9715-f3d8a7c10de8","system_id":"levelo_inurba_marseille","lat":43.27068,"lon":5.42279,"is_reserved":false,"is_disabled":false,"rental_uris":{"android":"levelo://app?vid=0f964b5f-afff-4561-9715-f3d8a7c10de8","ios":"levelo://app?vid=0f964b5f-afff-4561-9715-f3d8a7c10de8"},"vehicle_type_id":"4","last_reported":1750068753,"current_range_meters":14000,"station_id":"ce4bhk92rcd13ifvqgb0","pricing_plan_id":"cebpf4jnsgd1na2vs0mg"},{"bike_id":"a95b8cc8-0840-4a59-9ea9-81043a541020","system_id":"levelo_inurba_marseille","lat":43.27015,"lon":5.38764,"is_reserved":false,"is_disabled":false,"rental_uris":{"android":"levelo://app?vid=a95b8cc8-0840-4a59-9ea9-81043a541020","ios":"levelo://app?vid=a95b8cc8-0840-4a59-9ea9-81043a541020"},"vehicle_type_id":"4","last_reported":1750068753,"current_range_meters":14400,"station_id":"","pricing_plan_id":"cebpf4jnsgd1na2vs0mg"},{"bike_id":"316f77fd-3e02-4b39-9193-0f909b046405","system_id":"levelo_inurba_marseille","lat":43.305341,"lon":5.365259,"is_reserved":false,"is_disabled":false,"rental_uris":{"android":"levelo://app?vid=316f77fd-3e02-4b39-9193-0f909b046405","ios":"levelo://app?vid=316f77fd-3e02-4b39-9193-0f909b046405"},"vehicle_type_id":"4","last_reported":1750068753,"current_range_meters":14400,"station_id":"ce4bgs12rcd13ifvqcag","pricing_plan_id":"cebpf4jnsgd1na2vs0mg"},{"bike_id":"dd4347f6-4643-4370-bb13-02cf2bbdc9ec","system_id":"levelo_inurba_marseille","lat":43.30276,"lon":5.37716,"is_reserved":false,"is_disabled":false,"rental_uris":{"android":"levelo://app?vid=dd4347f6-4643-4370-bb13-02cf2bbdc9ec","ios":"levelo://app?vid=dd4347f6-4643-4370-bb13-02cf2bbdc9ec"},"vehicle_type_id":"4","last_reported":1750068753,"current_range_meters":14400,"station_id":"ce4bguh2rcd13ifvqcj0","pricing_plan_id":"cebpf4jnsgd1na2vs0mg"},{"bike_id":"99f8b648-3b9f-4cf1-8043-bb2f703ff1b3","system_id":"levelo_inurba_marseille","lat":43.30512,"lon":5.38045,"is_reserved":false,"is_disabled":false,"rental_uris":{"android":"levelo://app?vid=99f8b648-3b9f-4cf1-8043-bb2f703ff1b3","ios":"levelo://app?vid=99f8b648-3b9f-4cf1-8043-bb2f703ff1b3"},"vehicle_type_id":"4","last_reported":1750068753,"current_range_meters":14800,"station_id":"","pricing_plan_id":"cebpf4jnsgd1na2vs0mg"},{"bike_id":"d8318d0f-4266-45df-b780-583298efbd5c","system_id":"levelo_inurba_marseille","lat":43.28427,"lon":5.34992,"is_reserved":false,"is_disabled":false,"rental_uris":{"android":"levelo://app?vid=d8318d0f-4266-45df-b780-583298efbd5c","ios":"levelo://app?vid=d8318d0f-4266-45df-b780-583298efbd5c"},"vehicle_type_id":"4","last_reported":1750068753,"current_range_meters":14800,"station_id":"ce4bhbh2rcd13ifvqepg","pricing_plan_id":"cebpf4jnsgd1na2vs0mg"},{"bike_id":"7b9010cb-65eb-4696-b39f-3538e90a6031","system_id":"levelo_inurba_marseille","lat":43.34183,"lon":5.37426,"is_reserved":false,"is_disabled":false,"rental_uris":{"android":"levelo://app?vid=7b9010cb-65eb-4696-b39f-3538e90a6031","ios":"levelo://app?vid=7b9010cb-65eb-4696-b39f-3538e90a6031"},"vehicle_type_id":"4","last_reported":1750068753,"current_range_meters":15200,"station_id":"","pricing_plan_id":"cebpf4jnsgd1na2vs0mg"},{"bike_id":"329ae3c2-034d-4124-845e-3ed383ce83fb","system_id":"levelo_inurba_marseille","lat":43.31239,"lon":5.36881,"is_reserved":false,"is_disabled":false,"rental_uris":{"android":"levelo://app?vid=329ae3c2-034d-4124-845e-3ed383ce83fb","ios":"levelo://app?vid=329ae3c2-034d-4124-845e-3ed383ce83fb"},"vehicle_type_id":"4","last_reported":1750068753,"current_range_meters":15200,"station_id":"ce4bgl92rcd13ifvqbq0","pricing_plan_id":"cebpf4jnsgd1na2vs0mg"},{"bike_id":"a75a36bb-aae6-4613-a231-ed652a4dae2b","system_id":"levelo_inurba_marseille","lat":43.265332,"lon":5.395246,"is_reserved":false,"is_disabled":false,"rental_uris":{"android":"levelo://app?vid=a75a36bb-aae6-4613-a231-ed652a4dae2b","ios":"levelo://app?vid=a75a36bb-aae6-4613-a231-ed652a4dae2b"},"vehicle_type_id":"4","last_reported":1750068753,"current_range_meters":16000,"station_id":"","pricing_plan_id":"cebpf4jnsgd1na2vs0mg"},{"bike_id":"2df65a0a-fd79-47f9-8268-e84932c7de6d","system_id":"levelo_inurba_marseille","lat":43.33772,"lon":5.37423,"is_reserved":false,"is_disabled":false,"rental_uris":{"android":"levelo://app?vid=2df65a0a-fd79-47f9-8268-e84932c7de6d","ios":"levelo://app?vid=2df65a0a-fd79-47f9-8268-e84932c7de6d"},"vehicle_type_id":"4","last_reported":1750068753,"current_range_meters":16000,"station_id":"","pricing_plan_id":"cebpf4jnsgd1na2vs0mg"},{"bike_id":"b103c92b-328b-47be-a0f1-7f3d4c367553","system_id":"levelo_inurba_marseille","lat":43.301748,"lon":5.366078,"is_reserved":false,"is_disabled":false,"rental_uris":{"android":"levelo://app?vid=b103c92b-328b-47be-a0f1-7f3d4c367553","ios":"levelo://app?vid=b103c92b-328b-47be-a0f1-7f3d4c367553"},"vehicle_type_id":"4","last_reported":1750068753,"current_range_meters":16000,"station_id":"ce4bgrh2rcd13ifvqc8g","pricing_plan_id":"cebpf4jnsgd1na2vs0mg"},{"bike_id":"0df8b950-28cb-4ac4-a7e4-ae326df06d7e","system_id":"levelo_inurba_marseille","lat":43.28617,"lon":5.35108,"is_reserved":false,"is_disabled":false,"rental_uris":{"android":"levelo://app?vid=0df8b950-28cb-4ac4-a7e4-ae326df06d7e","ios":"levelo://app?vid=0df8b950-28cb-4ac4-a7e4-ae326df06d7e"},"vehicle_type_id":"4","last_reported":1750068753,"current_range_meters":16000,"station_id":"ce4bhch2rcd13ifvqeug","pricing_plan_id":"cebpf4jnsgd1na2vs0mg"},{"bike_id":"1b9748db-e477-40ad-a5b3-6f044606f2ad","system_id":"levelo_inurba_marseille","lat":43.298917,"lon":5.436724,"is_reserved":false,"is_disabled":false,"rental_uris":{"android":"levelo://app?vid=1b9748db-e477-40ad-a5b3-6f044606f2ad","ios":"levelo://app?vid=1b9748db-e477-40ad-a5b3-6f044606f2ad"},"vehicle_type_id":"4","last_reported":1750068753,"current_range_meters":16000,"station_id":"ce4bhpp2rcd13ifvqhfg","pricing_plan_id":"cebpf4jnsgd1na2vs0mg"},{"bike_id":"824c9de1-838b-423a-850c-7b2e961d5689","system_id":"levelo_inurba_marseille","lat":43.324826,"lon":5.365618,"is_reserved":false,"is_disabled":false,"rental_uris":{"android":"levelo://app?vid=824c9de1-838b-423a-850c-7b2e961d5689","ios":"levelo://app?vid=824c9de1-838b-423a-850c-7b2e961d5689"},"vehicle_type_id":"4","last_reported":1750068753,"current_range_meters":16000,"station_id":"ce4bhs12rcd13ifvqhvg","pricing_plan_id":"cebpf4jnsgd1na2vs0mg"},{"bike_id":"b31d3165-d5e1-4bc6-a607-ca1a1c981148","system_id":"levelo_inurba_marseille","lat":43.27575,"lon":5.4175,"is_reserved":false,"is_disabled":false,"rental_uris":{"android":"levelo://app?vid=b31d3165-d5e1-4bc6-a607-ca1a1c981148","ios":"levelo://app?vid=b31d3165-d5e1-4bc6-a607-ca1a1c981148"},"vehicle_type_id":"4","last_reported":1750068753,"current_range_meters":16400,"station_id":"","pricing_plan_id":"cebpf4jnsgd1na2vs0mg"},{"bike_id":"b07b2209-7ef0-4bb6-b196-6d4d769d1ebe","system_id":"levelo_inurba_marseille","lat":43.28276,"lon":5.35078,"is_reserved":false,"is_disabled":false,"rental_uris":{"android":"levelo://app?vid=b07b2209-7ef0-4bb6-b196-6d4d769d1ebe","ios":"levelo://app?vid=b07b2209-7ef0-4bb6-b196-6d4d769d1ebe"},"vehicle_type_id":"4","last_reported":1750068753,"current_range_meters":16400,"station_id":"ce4bhbp2rcd13ifvqerg","pricing_plan_id":"cebpf4jnsgd1na2vs0mg"},{"bike_id":"87f597a4-cc46-4064-8295-153508e6e6ed","system_id":"levelo_inurba_marseille","lat":43.266785,"lon":5.382402,"is_reserved":false,"is_disabled":false,"rental_uris":{"android":"levelo://app?vid=87f597a4-cc46-4064-8295-153508e6e6ed","ios":"levelo://app?vid=87f597a4-cc46-4064-8295-153508e6e6ed"},"vehicle_type_id":"4","last_reported":1750068753,"current_range_meters":16400,"station_id":"ce4bhg92rcd13ifvqf90","pricing_plan_id":"cebpf4jnsgd1na2vs0mg"},{"bike_id":"8fa25928-cc79-4a34-b141-93d269b2dc8c","system_id":"levelo_inurba_marseille","lat":43.336,"lon":5.41019,"is_reserved":false,"is_disabled":false,"rental_uris":{"android":"levelo://app?vid=8fa25928-cc79-4a34-b141-93d269b2dc8c","ios":"levelo://app?vid=8fa25928-cc79-4a34-b141-93d269b2dc8c"},"vehicle_type_id":"4","last_reported":1750068753,"current_range_meters":16400,"station_id":"ce4bhqh2rcd13ifvqhmg","pricing_plan_id":"cebpf4jnsgd1na2vs0mg"},{"bike_id":"b200674b-2afa-40ff-b238-2359448b6baf","system_id":"levelo_inurba_marseille","lat":43.23192,"lon":5.35551,"is_reserved":false,"is_disabled":false,"rental_uris":{"android":"levelo://app?vid=b200674b-2afa-40ff-b238-2359448b6baf","ios":"levelo://app?vid=b200674b-2afa-40ff-b238-2359448b6baf"},"vehicle_type_id":"4","last_reported":1750068753,"current_range_meters":16400,"station_id":"ce4bhu92rcd13ifvqi70","pricing_plan_id":"cebpf4jnsgd1na2vs0mg"},{"bike_id":"6f904e79-074e-44f7-a4ee-8b0cd00a4a95","system_id":"levelo_inurba_marseille","lat":43.211811,"lon":5.350807,"is_reserved":false,"is_disabled":false,"rental_uris":{"android":"levelo://app?vid=6f904e79-074e-44f7-a4ee-8b0cd00a4a95","ios":"levelo://app?vid=6f904e79-074e-44f7-a4ee-8b0cd00a4a95"},"vehicle_type_id":"4","last_reported":1750068753,"current_range_meters":16400,"station_id":"st_cvj6sg6p6f1abm77japg","pricing_plan_id":"cebpf4jnsgd1na2vs0mg"},{"bike_id":"74150b49-482b-478a-a1ce-f6148165b8f3","system_id":"levelo_inurba_marseille","lat":43.282685,"lon":5.350604,"is_reserved":false,"is_disabled":false,"rental_uris":{"android":"levelo://app?vid=74150b49-482b-478a-a1ce-f6148165b8f3","ios":"levelo://app?vid=74150b49-482b-478a-a1ce-f6148165b8f3"},"vehicle_type_id":"4","last_reported":1750068753,"current_range_meters":16800,"station_id":"","pricing_plan_id":"cebpf4jnsgd1na2vs0mg"},{"bike_id":"ec3ea0fb-4ff5-43cb-86ba-89fd8914282a","system_id":"levelo_inurba_marseille","lat":43.30303,"lon":5.36903,"is_reserved":false,"is_disabled":false,"rental_uris":{"android":"levelo://app?vid=ec3ea0fb-4ff5-43cb-86ba-89fd8914282a","ios":"levelo://app?vid=ec3ea0fb-4ff5-43cb-86ba-89fd8914282a"},"vehicle_type_id":"4","last_reported":1750068753,"current_range_meters":16800,"station_id":"ce4bgqh2rcd13ifvqc5g","pricing_plan_id":"cebpf4jnsgd1na2vs0mg"},{"bike_id":"2443cc43-ddf7-403c-985e-d8dd08db7d75","system_id":"levelo_inurba_marseille","lat":43.266813,"lon":5.382664,"is_reserved":false,"is_disabled":false,"rental_uris":{"android":"levelo://app?vid=2443cc43-ddf7-403c-985e-d8dd08db7d75","ios":"levelo://app?vid=2443cc43-ddf7-403c-985e-d8dd08db7d75"},"vehicle_type_id":"4","last_reported":1750068753,"current_range_meters":16800,"station_id":"ce4bhg92rcd13ifvqf90","pricing_plan_id":"cebpf4jnsgd1na2vs0mg"},{"bike_id":"fdb03a84-b940-46c2-af8a-b956fc5b5684","system_id":"levelo_inurba_marseille","lat":43.26202,"lon":5.37926,"is_reserved":false,"is_disabled":false,"rental_uris":{"android":"levelo://app?vid=fdb03a84-b940-46c2-af8a-b956fc5b5684","ios":"levelo://app?vid=fdb03a84-b940-46c2-af8a-b956fc5b5684"},"vehicle_type_id":"4","last_reported":1750068753,"current_range_meters":16800,"station_id":"ce4bhjp2rcd13ifvqg90","pricing_plan_id":"cebpf4jnsgd1na2vs0mg"},{"bike_id":"cb242fd5-e668-4ec6-b916-8f2a3e79ee4b","system_id":"levelo_inurba_marseille","lat":43.243904,"lon":5.370612,"is_reserved":false,"is_disabled":false,"rental_uris":{"android":"levelo://app?vid=cb242fd5-e668-4ec6-b916-8f2a3e79ee4b","ios":"levelo://app?vid=cb242fd5-e668-4ec6-b916-8f2a3e79ee4b"},"vehicle_type_id":"4","last_reported":1750068753,"current_range_meters":17200,"station_id":"ce4bhhh2rcd13ifvqfk0","pricing_plan_id":"cebpf4jnsgd1na2vs0mg"},{"bike_id":"bef59111-cb80-4245-84ea-c8905429b10e","system_id":"levelo_inurba_marseille","lat":43.25886,"lon":5.40929,"is_reserved":false,"is_disabled":false,"rental_uris":{"android":"levelo://app?vid=bef59111-cb80-4245-84ea-c8905429b10e","ios":"levelo://app?vid=bef59111-cb80-4245-84ea-c8905429b10e"},"vehicle_type_id":"4","last_reported":1750068753,"current_range_meters":17200,"station_id":"ce4bhm92rcd13ifvqglg","pricing_plan_id":"cebpf4jnsgd1na2vs0mg"},{"bike_id":"791d4f1c-83c3-4b7a-bc7b-8e3da4a62e2d","system_id":"levelo_inurba_marseille","lat":43.298963,"lon":5.436824,"is_reserved":false,"is_disabled":false,"rental_uris":{"android":"levelo://app?vid=791d4f1c-83c3-4b7a-bc7b-8e3da4a62e2d","ios":"levelo://app?vid=791d4f1c-83c3-4b7a-bc7b-8e3da4a62e2d"},"vehicle_type_id":"4","last_reported":1750068753,"current_range_meters":17200,"station_id":"ce4bhpp2rcd13ifvqhfg","pricing_plan_id":"cebpf4jnsgd1na2vs0mg"},{"bike_id":"371b9041-9898-4624-ac60-3643bd42c174","system_id":"levelo_inurba_marseille","lat":43.30936,"lon":5.36851,"is_reserved":false,"is_disabled":false,"rental_uris":{"android":"levelo://app?vid=371b9041-9898-4624-ac60-3643bd42c174","ios":"levelo://app?vid=371b9041-9898-4624-ac60-3643bd42c174"},"vehicle_type_id":"4","last_reported":1750068753,"current_range_meters":17600,"station_id":"ce4bgn92rcd13ifvqbvg","pricing_plan_id":"cebpf4jnsgd1na2vs0mg"},{"bike_id":"4414718f-04f0-4afa-a804-68340b9e762a","system_id":"levelo_inurba_marseille","lat":43.30303,"lon":5.36893,"is_reserved":false,"is_disabled":false,"rental_uris":{"android":"levelo://app?vid=4414718f-04f0-4afa-a804-68340b9e762a","ios":"levelo://app?vid=4414718f-04f0-4afa-a804-68340b9e762a"},"vehicle_type_id":"4","last_reported":1750068753,"current_range_meters":17600,"station_id":"ce4bgqh2rcd13ifvqc5g","pricing_plan_id":"cebpf4jnsgd1na2vs0mg"},{"bike_id":"8f98ebc8-ca72-41dd-82c7-ce63ceee8c09","system_id":"levelo_inurba_marseille","lat":43.30189,"lon":5.36618,"is_reserved":false,"is_disabled":false,"rental_uris":{"android":"levelo://app?vid=8f98ebc8-ca72-41dd-82c7-ce63ceee8c09","ios":"levelo://app?vid=8f98ebc8-ca72-41dd-82c7-ce63ceee8c09"},"vehicle_type_id":"4","last_reported":1750068753,"current_range_meters":17600,"station_id":"ce4bgrh2rcd13ifvqc8g","pricing_plan_id":"cebpf4jnsgd1na2vs0mg"},{"bike_id":"18704289-a14d-4156-8962-39957b7479f8","system_id":"levelo_inurba_marseille","lat":43.31502,"lon":5.37309,"is_reserved":false,"is_disabled":false,"rental_uris":{"android":"levelo://app?vid=18704289-a14d-4156-8962-39957b7479f8","ios":"levelo://app?vid=18704289-a14d-4156-8962-39957b7479f8"},"vehicle_type_id":"4","last_reported":1750068753,"current_range_meters":17600,"station_id":"ce4bgt12rcd13ifvqcd0","pricing_plan_id":"cebpf4jnsgd1na2vs0mg"},{"bike_id":"b49ba9cd-4926-4898-a297-cdabb5c00ee2","system_id":"levelo_inurba_marseille","lat":43.28418,"lon":5.34974,"is_reserved":false,"is_disabled":false,"rental_uris":{"android":"levelo://app?vid=b49ba9cd-4926-4898-a297-cdabb5c00ee2","ios":"levelo://app?vid=b49ba9cd-4926-4898-a297-cdabb5c00ee2"},"vehicle_type_id":"4","last_reported":1750068753,"current_range_meters":17600,"station_id":"ce4bhbh2rcd13ifvqepg","pricing_plan_id":"cebpf4jnsgd1na2vs0mg"},{"bike_id":"d667ae93-3a26-4bdd-a7a6-755db4798b92","system_id":"levelo_inurba_marseille","lat":43.26195,"lon":5.37446,"is_reserved":false,"is_disabled":false,"rental_uris":{"android":"levelo://app?vid=d667ae93-3a26-4bdd-a7a6-755db4798b92","ios":"levelo://app?vid=d667ae93-3a26-4bdd-a7a6-755db4798b92"},"vehicle_type_id":"4","last_reported":1750068753,"current_range_meters":17600,"station_id":"ce4bhgp2rcd13ifvqfc0","pricing_plan_id":"cebpf4jnsgd1na2vs0mg"},{"bike_id":"3a4e3220-f890-43d0-8f6b-1783f08b7807","system_id":"levelo_inurba_marseille","lat":43.24188,"lon":5.39723,"is_reserved":false,"is_disabled":false,"rental_uris":{"android":"levelo://app?vid=3a4e3220-f890-43d0-8f6b-1783f08b7807","ios":"levelo://app?vid=3a4e3220-f890-43d0-8f6b-1783f08b7807"},"vehicle_type_id":"4","last_reported":1750068753,"current_range_meters":17600,"station_id":"ce4bhn12rcd13ifvqgpg","pricing_plan_id":"cebpf4jnsgd1na2vs0mg"},{"bike_id":"26e080b7-95d2-4195-a5b0-e90ab06e9bef","system_id":"levelo_inurba_marseille","lat":43.27182,"lon":5.39989,"is_reserved":false,"is_disabled":false,"rental_uris":{"android":"levelo://app?vid=26e080b7-95d2-4195-a5b0-e90ab06e9bef","ios":"levelo://app?vid=26e080b7-95d2-4195-a5b0-e90ab06e9bef"},"vehicle_type_id":"4","last_reported":1750068753,"current_range_meters":18000,"station_id":"","pricing_plan_id":"cebpf4jnsgd1na2vs0mg"},{"bike_id":"7a01436b-0e2f-4855-9acc-688a180ce41f","system_id":"levelo_inurba_marseille","lat":43.29566,"lon":5.3753,"is_reserved":false,"is_disabled":false,"rental_uris":{"android":"levelo://app?vid=7a01436b-0e2f-4855-9acc-688a180ce41f","ios":"levelo://app?vid=7a01436b-0e2f-4855-9acc-688a180ce41f"},"vehicle_type_id":"4","last_reported":1750068753,"current_range_meters":18000,"station_id":"ce4bgh92rcd13ifvqb50","pricing_plan_id":"cebpf4jnsgd1na2vs0mg"},{"bike_id":"7edfd724-f684-4c45-b550-87c63ecff5aa","system_id":"levelo_inurba_marseille","lat":43.30539,"lon":5.36558,"is_reserved":false,"is_disabled":false,"rental_uris":{"android":"levelo://app?vid=7edfd724-f684-4c45-b550-87c63ecff5aa","ios":"levelo://app?vid=7edfd724-f684-4c45-b550-87c63ecff5aa"},"vehicle_type_id":"4","last_reported":1750068753,"current_range_meters":18000,"station_id":"ce4bgs12rcd13ifvqcag","pricing_plan_id":"cebpf4jnsgd1na2vs0mg"},{"bike_id":"73d32a0c-a319-4cca-a127-e2a17d89ccff","system_id":"levelo_inurba_marseille","lat":43.30145,"lon":5.37403,"is_reserved":false,"is_disabled":false,"rental_uris":{"android":"levelo://app?vid=73d32a0c-a319-4cca-a127-e2a17d89ccff","ios":"levelo://app?vid=73d32a0c-a319-4cca-a127-e2a17d89ccff"},"vehicle_type_id":"4","last_reported":1750068753,"current_range_meters":18000,"station_id":"ce4bgs92rcd13ifvqcc0","pricing_plan_id":"cebpf4jnsgd1na2vs0mg"},{"bike_id":"c2d4dd75-05e4-4622-8112-c929cd066280","system_id":"levelo_inurba_marseille","lat":43.24388,"lon":5.37045,"is_reserved":false,"is_disabled":false,"rental_uris":{"android":"levelo://app?vid=c2d4dd75-05e4-4622-8112-c929cd066280","ios":"levelo://app?vid=c2d4dd75-05e4-4622-8112-c929cd066280"},"vehicle_type_id":"4","last_reported":1750068753,"current_range_meters":18000,"station_id":"ce4bhhh2rcd13ifvqfk0","pricing_plan_id":"cebpf4jnsgd1na2vs0mg"},{"bike_id":"db696f9f-9ecc-4e26-bd9c-bd73bc64204b","system_id":"levelo_inurba_marseille","lat":43.29897,"lon":5.43672,"is_reserved":false,"is_disabled":false,"rental_uris":{"android":"levelo://app?vid=db696f9f-9ecc-4e26-bd9c-bd73bc64204b","ios":"levelo://app?vid=db696f9f-9ecc-4e26-bd9c-bd73bc64204b"},"vehicle_type_id":"4","last_reported":1750068753,"current_range_meters":18000,"station_id":"ce4bhpp2rcd13ifvqhfg","pricing_plan_id":"cebpf4jnsgd1na2vs0mg"},{"bike_id":"c20451b8-ea3d-49aa-99f8-dc989295f9b4","system_id":"levelo_inurba_marseille","lat":43.23064,"lon":5.35472,"is_reserved":false,"is_disabled":false,"rental_uris":{"android":"levelo://app?vid=c20451b8-ea3d-49aa-99f8-dc989295f9b4","ios":"levelo://app?vid=c20451b8-ea3d-49aa-99f8-dc989295f9b4"},"vehicle_type_id":"4","last_reported":1750068753,"current_range_meters":18000,"station_id":"cpo3342slgdg3j2ifvpg","pricing_plan_id":"cebpf4jnsgd1na2vs0mg"},{"bike_id":"c937b220-d077-480a-817b-887f33f079c0","system_id":"levelo_inurba_marseille","lat":43.317408,"lon":5.371236,"is_reserved":false,"is_disabled":false,"rental_uris":{"android":"levelo://app?vid=c937b220-d077-480a-817b-887f33f079c0","ios":"levelo://app?vid=c937b220-d077-480a-817b-887f33f079c0"},"vehicle_type_id":"4","last_reported":1750068753,"current_range_meters":18800,"station_id":"","pricing_plan_id":"cebpf4jnsgd1na2vs0mg"},{"bike_id":"d45e206d-f09e-40f1-a630-53aa3e35aadb","system_id":"levelo_inurba_marseille","lat":43.28697,"lon":5.38642,"is_reserved":false,"is_disabled":false,"rental_uris":{"android":"levelo://app?vid=d45e206d-f09e-40f1-a630-53aa3e35aadb","ios":"levelo://app?vid=d45e206d-f09e-40f1-a630-53aa3e35aadb"},"vehicle_type_id":"4","last_reported":1750068753,"current_range_meters":18800,"station_id":"","pricing_plan_id":"cebpf4jnsgd1na2vs0mg"},{"bike_id":"b12f0834-9eb4-4707-8669-5067cbd09c06","system_id":"levelo_inurba_marseille","lat":43.32875,"lon":5.39103,"is_reserved":false,"is_disabled":false,"rental_uris":{"android":"levelo://app?vid=b12f0834-9eb4-4707-8669-5067cbd09c06","ios":"levelo://app?vid=b12f0834-9eb4-4707-8669-5067cbd09c06"},"vehicle_type_id":"4","last_reported":1750068753,"current_range_meters":18800,"station_id":"","pricing_plan_id":"cebpf4jnsgd1na2vs0mg"},{"bike_id":"826f0ca3-e5fc-4cf8-8696-cb1fe62172b3","system_id":"levelo_inurba_marseille","lat":43.211939,"lon":5.350739,"is_reserved":false,"is_disabled":false,"rental_uris":{"android":"levelo://app?vid=826f0ca3-e5fc-4cf8-8696-cb1fe62172b3","ios":"levelo://app?vid=826f0ca3-e5fc-4cf8-8696-cb1fe62172b3"},"vehicle_type_id":"4","last_reported":1750068753,"current_range_meters":18800,"station_id":"","pricing_plan_id":"cebpf4jnsgd1na2vs0mg"},{"bike_id":"3935fe38-0428-4717-ac04-aecea5d3ffd3","system_id":"levelo_inurba_marseille","lat":43.29845,"lon":5.36292,"is_reserved":false,"is_disabled":false,"rental_uris":{"android":"levelo://app?vid=3935fe38-0428-4717-ac04-aecea5d3ffd3","ios":"levelo://app?vid=3935fe38-0428-4717-ac04-aecea5d3ffd3"},"vehicle_type_id":"4","last_reported":1750068753,"current_range_meters":18800,"station_id":"ce4bgpp2rcd13ifvqc3g","pricing_plan_id":"cebpf4jnsgd1na2vs0mg"},{"bike_id":"20be44c7-9a80-4e31-8f98-fe2d8e38f1c7","system_id":"levelo_inurba_marseille","lat":43.309467,"lon":5.390272,"is_reserved":false,"is_disabled":false,"rental_uris":{"android":"levelo://app?vid=20be44c7-9a80-4e31-8f98-fe2d8e38f1c7","ios":"levelo://app?vid=20be44c7-9a80-4e31-8f98-fe2d8e38f1c7"},"vehicle_type_id":"4","last_reported":1750068753,"current_range_meters":18800,"station_id":"ce4bgup2rcd13ifvqco0","pricing_plan_id":"cebpf4jnsgd1na2vs0mg"},{"bike_id":"e5d712c2-022e-43b7-873e-5f3914148980","system_id":"levelo_inurba_marseille","lat":43.27311,"lon":5.39071,"is_reserved":false,"is_disabled":false,"rental_uris":{"android":"levelo://app?vid=e5d712c2-022e-43b7-873e-5f3914148980","ios":"levelo://app?vid=e5d712c2-022e-43b7-873e-5f3914148980"},"vehicle_type_id":"4","last_reported":1750068753,"current_range_meters":18800,"station_id":"ce4bhgp2rcd13ifvqfe0","pricing_plan_id":"cebpf4jnsgd1na2vs0mg"},{"bike_id":"a23cbb89-4acf-4ab4-a108-1b396500a80e","system_id":"levelo_inurba_marseille","lat":43.27328,"lon":5.39121,"is_reserved":false,"is_disabled":false,"rental_uris":{"android":"levelo://app?vid=a23cbb89-4acf-4ab4-a108-1b396500a80e","ios":"levelo://app?vid=a23cbb89-4acf-4ab4-a108-1b396500a80e"},"vehicle_type_id":"4","last_reported":1750068753,"current_range_meters":18800,"station_id":"ce4bhgp2rcd13ifvqfe0","pricing_plan_id":"cebpf4jnsgd1na2vs0mg"},{"bike_id":"e612b7a7-3207-4aae-b53e-c8d480fc9283","system_id":"levelo_inurba_marseille","lat":43.23194,"lon":5.35549,"is_reserved":false,"is_disabled":false,"rental_uris":{"android":"levelo://app?vid=e612b7a7-3207-4aae-b53e-c8d480fc9283","ios":"levelo://app?vid=e612b7a7-3207-4aae-b53e-c8d480fc9283"},"vehicle_type_id":"4","last_reported":1750068753,"current_range_meters":18800,"station_id":"ce4bhu92rcd13ifvqi70","pricing_plan_id":"cebpf4jnsgd1na2vs0mg"},{"bike_id":"6f31c1f8-e01a-4f79-b801-d62cf614b1b9","system_id":"levelo_inurba_marseille","lat":43.28326,"lon":5.39318,"is_reserved":false,"is_disabled":false,"rental_uris":{"android":"levelo://app?vid=6f31c1f8-e01a-4f79-b801-d62cf614b1b9","ios":"levelo://app?vid=6f31c1f8-e01a-4f79-b801-d62cf614b1b9"},"vehicle_type_id":"4","last_reported":1750068753,"current_range_meters":19200,"station_id":"","pricing_plan_id":"cebpf4jnsgd1na2vs0mg"},{"bike_id":"4323e427-2364-4de6-b052-a86908cce8ba","system_id":"levelo_inurba_marseille","lat":43.3096,"lon":5.39032,"is_reserved":false,"is_disabled":false,"rental_uris":{"android":"levelo://app?vid=4323e427-2364-4de6-b052-a86908cce8ba","ios":"levelo://app?vid=4323e427-2364-4de6-b052-a86908cce8ba"},"vehicle_type_id":"4","last_reported":1750068753,"current_range_meters":19200,"station_id":"ce4bgup2rcd13ifvqco0","pricing_plan_id":"cebpf4jnsgd1na2vs0mg"},{"bike_id":"015c17e9-71b7-4b78-9bdf-9db30b66f1fe","system_id":"levelo_inurba_marseille","lat":43.241726,"lon":5.397322,"is_reserved":false,"is_disabled":false,"rental_uris":{"android":"levelo://app?vid=015c17e9-71b7-4b78-9bdf-9db30b66f1fe","ios":"levelo://app?vid=015c17e9-71b7-4b78-9bdf-9db30b66f1fe"},"vehicle_type_id":"4","last_reported":1750068753,"current_range_meters":19200,"station_id":"ce4bhn12rcd13ifvqgpg","pricing_plan_id":"cebpf4jnsgd1na2vs0mg"},{"bike_id":"9d0ca9b6-fb3d-46dd-8058-17bda0ae4e63","system_id":"levelo_inurba_marseille","lat":43.24174,"lon":5.39729,"is_reserved":false,"is_disabled":false,"rental_uris":{"android":"levelo://app?vid=9d0ca9b6-fb3d-46dd-8058-17bda0ae4e63","ios":"levelo://app?vid=9d0ca9b6-fb3d-46dd-8058-17bda0ae4e63"},"vehicle_type_id":"4","last_reported":1750068753,"current_range_meters":19200,"station_id":"ce4bhn12rcd13ifvqgpg","pricing_plan_id":"cebpf4jnsgd1na2vs0mg"},{"bike_id":"787b84b3-f2f7-4378-bed5-5c31742da582","system_id":"levelo_inurba_marseille","lat":43.23191,"lon":5.3556,"is_reserved":false,"is_disabled":false,"rental_uris":{"android":"levelo://app?vid=787b84b3-f2f7-4378-bed5-5c31742da582","ios":"levelo://app?vid=787b84b3-f2f7-4378-bed5-5c31742da582"},"vehicle_type_id":"4","last_reported":1750068753,"current_range_meters":19200,"station_id":"ce4bhu92rcd13ifvqi70","pricing_plan_id":"cebpf4jnsgd1na2vs0mg"},{"bike_id":"5bc43ec5-1929-4869-823a-615a7e05b1f2","system_id":"levelo_inurba_marseille","lat":43.24175,"lon":5.36383,"is_reserved":false,"is_disabled":false,"rental_uris":{"android":"levelo://app?vid=5bc43ec5-1929-4869-823a-615a7e05b1f2","ios":"levelo://app?vid=5bc43ec5-1929-4869-823a-615a7e05b1f2"},"vehicle_type_id":"4","last_reported":1750068753,"current_range_meters":19200,"station_id":"cpo36qri1sfpv3e86is0","pricing_plan_id":"cebpf4jnsgd1na2vs0mg"},{"bike_id":"0e2e4a09-ce1c-4416-aa5a-b1080631b482","system_id":"levelo_inurba_marseille","lat":43.21754,"lon":5.34602,"is_reserved":false,"is_disabled":false,"rental_uris":{"android":"levelo://app?vid=0e2e4a09-ce1c-4416-aa5a-b1080631b482","ios":"levelo://app?vid=0e2e4a09-ce1c-4416-aa5a-b1080631b482"},"vehicle_type_id":"4","last_reported":1750068753,"current_range_meters":19200,"station_id":"st_cvj6r9ubvosntc0bgbag","pricing_plan_id":"cebpf4jnsgd1na2vs0mg"},{"bike_id":"f8f5c739-72f4-49b1-b3d4-90e1f195211d","system_id":"levelo_inurba_marseille","lat":43.21193,"lon":5.35077,"is_reserved":false,"is_disabled":false,"rental_uris":{"android":"levelo://app?vid=f8f5c739-72f4-49b1-b3d4-90e1f195211d","ios":"levelo://app?vid=f8f5c739-72f4-49b1-b3d4-90e1f195211d"},"vehicle_type_id":"4","last_reported":1750068753,"current_range_meters":19200,"station_id":"st_cvj6sg6p6f1abm77japg","pricing_plan_id":"cebpf4jnsgd1na2vs0mg"},{"bike_id":"b38da09b-f621-4f83-85a7-31d404e707f9","system_id":"levelo_inurba_marseille","lat":43.25317,"lon":5.393824,"is_reserved":false,"is_disabled":false,"rental_uris":{"android":"levelo://app?vid=b38da09b-f621-4f83-85a7-31d404e707f9","ios":"levelo://app?vid=b38da09b-f621-4f83-85a7-31d404e707f9"},"vehicle_type_id":"4","last_reported":1750068753,"current_range_meters":19600,"station_id":"","pricing_plan_id":"cebpf4jnsgd1na2vs0mg"},{"bike_id":"218fa702-4f50-4388-988d-d7cda4ee630c","system_id":"levelo_inurba_marseille","lat":43.3014,"lon":5.38971,"is_reserved":false,"is_disabled":false,"rental_uris":{"android":"levelo://app?vid=218fa702-4f50-4388-988d-d7cda4ee630c","ios":"levelo://app?vid=218fa702-4f50-4388-988d-d7cda4ee630c"},"vehicle_type_id":"4","last_reported":1750068753,"current_range_meters":19600,"station_id":"","pricing_plan_id":"cebpf4jnsgd1na2vs0mg"},{"bike_id":"305aa519-eb06-46c2-a841-03c8e5bd4f83","system_id":"levelo_inurba_marseille","lat":43.29298,"lon":5.37461,"is_reserved":false,"is_disabled":false,"rental_uris":{"android":"levelo://app?vid=305aa519-eb06-46c2-a841-03c8e5bd4f83","ios":"levelo://app?vid=305aa519-eb06-46c2-a841-03c8e5bd4f83"},"vehicle_type_id":"4","last_reported":1750068753,"current_range_meters":19600,"station_id":"ce4bgi12rcd13ifvqb70","pricing_plan_id":"cebpf4jnsgd1na2vs0mg"},{"bike_id":"eb610770-de4c-4586-8453-7b43ef64ae05","system_id":"levelo_inurba_marseille","lat":43.29965,"lon":5.38497,"is_reserved":false,"is_disabled":false,"rental_uris":{"android":"levelo://app?vid=eb610770-de4c-4586-8453-7b43ef64ae05","ios":"levelo://app?vid=eb610770-de4c-4586-8453-7b43ef64ae05"},"vehicle_type_id":"4","last_reported":1750068753,"current_range_meters":19600,"station_id":"ce4bgj92rcd13ifvqbd0","pricing_plan_id":"cebpf4jnsgd1na2vs0mg"},{"bike_id":"2486efc6-1954-47da-a063-27ce2f213763","system_id":"levelo_inurba_marseille","lat":43.31492,"lon":5.37302,"is_reserved":false,"is_disabled":false,"rental_uris":{"android":"levelo://app?vid=2486efc6-1954-47da-a063-27ce2f213763","ios":"levelo://app?vid=2486efc6-1954-47da-a063-27ce2f213763"},"vehicle_type_id":"4","last_reported":1750068753,"current_range_meters":19600,"station_id":"ce4bgt12rcd13ifvqcd0","pricing_plan_id":"cebpf4jnsgd1na2vs0mg"},{"bike_id":"f58eb47c-c3a1-4836-b416-50e48344a35f","system_id":"levelo_inurba_marseille","lat":43.30477,"lon":5.379,"is_reserved":false,"is_disabled":false,"rental_uris":{"android":"levelo://app?vid=f58eb47c-c3a1-4836-b416-50e48344a35f","ios":"levelo://app?vid=f58eb47c-c3a1-4836-b416-50e48344a35f"},"vehicle_type_id":"4","last_reported":1750068753,"current_range_meters":19600,"station_id":"ce4bgup2rcd13ifvqcn0","pricing_plan_id":"cebpf4jnsgd1na2vs0mg"},{"bike_id":"f3e37464-3394-42cb-91dc-639eb416c4f6","system_id":"levelo_inurba_marseille","lat":43.29009,"lon":5.35612,"is_reserved":false,"is_disabled":false,"rental_uris":{"android":"levelo://app?vid=f3e37464-3394-42cb-91dc-639eb416c4f6","ios":"levelo://app?vid=f3e37464-3394-42cb-91dc-639eb416c4f6"},"vehicle_type_id":"4","last_reported":1750068753,"current_range_meters":19600,"station_id":"ce4bhb92rcd13ifvqen0","pricing_plan_id":"cebpf4jnsgd1na2vs0mg"},{"bike_id":"732c24e1-3abc-48d4-8b05-2f6dacebc160","system_id":"levelo_inurba_marseille","lat":43.32349,"lon":5.36744,"is_reserved":false,"is_disabled":false,"rental_uris":{"android":"levelo://app?vid=732c24e1-3abc-48d4-8b05-2f6dacebc160","ios":"levelo://app?vid=732c24e1-3abc-48d4-8b05-2f6dacebc160"},"vehicle_type_id":"4","last_reported":1750068753,"current_range_meters":19600,"station_id":"ce4bhsh2rcd13ifvqi2g","pricing_plan_id":"cebpf4jnsgd1na2vs0mg"},{"bike_id":"0f1652d1-2afe-45c0-9d5e-72b7039f62d4","system_id":"levelo_inurba_marseille","lat":43.30427,"lon":5.38876,"is_reserved":false,"is_disabled":false,"rental_uris":{"android":"levelo://app?vid=0f1652d1-2afe-45c0-9d5e-72b7039f62d4","ios":"levelo://app?vid=0f1652d1-2afe-45c0-9d5e-72b7039f62d4"},"vehicle_type_id":"4","last_reported":1750068753,"current_range_meters":20000,"station_id":"ce4bgk12rcd13ifvqbi0","pricing_plan_id":"cebpf4jnsgd1na2vs0mg"},{"bike_id":"70e55e8d-18f0-421d-897c-9fd70da7f00c","system_id":"levelo_inurba_marseille","lat":43.3095,"lon":5.3904,"is_reserved":false,"is_disabled":false,"rental_uris":{"android":"levelo://app?vid=70e55e8d-18f0-421d-897c-9fd70da7f00c","ios":"levelo://app?vid=70e55e8d-18f0-421d-897c-9fd70da7f00c"},"vehicle_type_id":"4","last_reported":1750068753,"current_range_meters":20000,"station_id":"ce4bgup2rcd13ifvqco0","pricing_plan_id":"cebpf4jnsgd1na2vs0mg"},{"bike_id":"69ee49a4-f077-4c61-a17c-895aa9998a59","system_id":"levelo_inurba_marseille","lat":43.28617,"lon":5.35101,"is_reserved":false,"is_disabled":false,"rental_uris":{"android":"levelo://app?vid=69ee49a4-f077-4c61-a17c-895aa9998a59","ios":"levelo://app?vid=69ee49a4-f077-4c61-a17c-895aa9998a59"},"vehicle_type_id":"4","last_reported":1750068753,"current_range_meters":20000,"station_id":"ce4bhch2rcd13ifvqeug","pricing_plan_id":"cebpf4jnsgd1na2vs0mg"},{"bike_id":"6e109a25-b453-4c60-b595-9be2ab1913b0","system_id":"levelo_inurba_marseille","lat":43.22938,"lon":5.35369,"is_reserved":false,"is_disabled":false,"rental_uris":{"android":"levelo://app?vid=6e109a25-b453-4c60-b595-9be2ab1913b0","ios":"levelo://app?vid=6e109a25-b453-4c60-b595-9be2ab1913b0"},"vehicle_type_id":"4","last_reported":1750068753,"current_range_meters":20000,"station_id":"cpo3532slgdg3j2ikp40","pricing_plan_id":"cebpf4jnsgd1na2vs0mg"},{"bike_id":"1ed769ab-45f6-4674-af00-47b3a73b0b6f","system_id":"levelo_inurba_marseille","lat":43.30433,"lon":5.38885,"is_reserved":false,"is_disabled":false,"rental_uris":{"android":"levelo://app?vid=1ed769ab-45f6-4674-af00-47b3a73b0b6f","ios":"levelo://app?vid=1ed769ab-45f6-4674-af00-47b3a73b0b6f"},"vehicle_type_id":"4","last_reported":1750068753,"current_range_meters":20400,"station_id":"ce4bgk12rcd13ifvqbi0","pricing_plan_id":"cebpf4jnsgd1na2vs0mg"},{"bike_id":"b839ed1b-9527-4e87-90f6-ee4ed07f790d","system_id":"levelo_inurba_marseille","lat":43.28615,"lon":5.35104,"is_reserved":false,"is_disabled":false,"rental_uris":{"android":"levelo://app?vid=b839ed1b-9527-4e87-90f6-ee4ed07f790d","ios":"levelo://app?vid=b839ed1b-9527-4e87-90f6-ee4ed07f790d"},"vehicle_type_id":"4","last_reported":1750068753,"current_range_meters":20400,"station_id":"ce4bhch2rcd13ifvqeug","pricing_plan_id":"cebpf4jnsgd1na2vs0mg"},{"bike_id":"f9b670fe-7081-45e6-b232-f36c68540098","system_id":"levelo_inurba_marseille","lat":43.25006,"lon":5.38923,"is_reserved":false,"is_disabled":false,"rental_uris":{"android":"levelo://app?vid=f9b670fe-7081-45e6-b232-f36c68540098","ios":"levelo://app?vid=f9b670fe-7081-45e6-b232-f36c68540098"},"vehicle_type_id":"4","last_reported":1750068753,"current_range_meters":20400,"station_id":"ce4bhgp2rcd13ifvqfd0","pricing_plan_id":"cebpf4jnsgd1na2vs0mg"},{"bike_id":"683e9b66-a608-4a59-b365-39504d420ed4","system_id":"levelo_inurba_marseille","lat":43.24175,"lon":5.39717,"is_reserved":false,"is_disabled":false,"rental_uris":{"android":"levelo://app?vid=683e9b66-a608-4a59-b365-39504d420ed4","ios":"levelo://app?vid=683e9b66-a608-4a59-b365-39504d420ed4"},"vehicle_type_id":"4","last_reported":1750068753,"current_range_meters":20400,"station_id":"ce4bhn12rcd13ifvqgpg","pricing_plan_id":"cebpf4jnsgd1na2vs0mg"},{"bike_id":"ed0fab94-59c1-4447-a88b-627e73ed688c","system_id":"levelo_inurba_marseille","lat":43.29566,"lon":5.42287,"is_reserved":false,"is_disabled":false,"rental_uris":{"android":"levelo://app?vid=ed0fab94-59c1-4447-a88b-627e73ed688c","ios":"levelo://app?vid=ed0fab94-59c1-4447-a88b-627e73ed688c"},"vehicle_type_id":"4","last_reported":1750068753,"current_range_meters":20400,"station_id":"ce4bhph2rcd13ifvqhdg","pricing_plan_id":"cebpf4jnsgd1na2vs0mg"},{"bike_id":"c8dfb0ea-7452-4653-979a-81a495939d6b","system_id":"levelo_inurba_marseille","lat":43.29898,"lon":5.43662,"is_reserved":false,"is_disabled":false,"rental_uris":{"android":"levelo://app?vid=c8dfb0ea-7452-4653-979a-81a495939d6b","ios":"levelo://app?vid=c8dfb0ea-7452-4653-979a-81a495939d6b"},"vehicle_type_id":"4","last_reported":1750068753,"current_range_meters":20400,"station_id":"ce4bhpp2rcd13ifvqhfg","pricing_plan_id":"cebpf4jnsgd1na2vs0mg"},{"bike_id":"0fd57502-c8c8-401c-abe8-478c81ce99a3","system_id":"levelo_inurba_marseille","lat":43.33599,"lon":5.41017,"is_reserved":false,"is_disabled":false,"rental_uris":{"android":"levelo://app?vid=0fd57502-c8c8-401c-abe8-478c81ce99a3","ios":"levelo://app?vid=0fd57502-c8c8-401c-abe8-478c81ce99a3"},"vehicle_type_id":"4","last_reported":1750068753,"current_range_meters":20400,"station_id":"ce4bhqh2rcd13ifvqhmg","pricing_plan_id":"cebpf4jnsgd1na2vs0mg"},{"bike_id":"0b55291d-4312-4a1f-a028-e5f112a4783d","system_id":"levelo_inurba_marseille","lat":43.324851,"lon":5.365647,"is_reserved":false,"is_disabled":false,"rental_uris":{"android":"levelo://app?vid=0b55291d-4312-4a1f-a028-e5f112a4783d","ios":"levelo://app?vid=0b55291d-4312-4a1f-a028-e5f112a4783d"},"vehicle_type_id":"4","last_reported":1750068753,"current_range_meters":20400,"station_id":"ce4bhs12rcd13ifvqhvg","pricing_plan_id":"cebpf4jnsgd1na2vs0mg"},{"bike_id":"26a26ab7-0438-4161-bab4-638f55e757fa","system_id":"levelo_inurba_marseille","lat":43.23194,"lon":5.35538,"is_reserved":false,"is_disabled":false,"rental_uris":{"android":"levelo://app?vid=26a26ab7-0438-4161-bab4-638f55e757fa","ios":"levelo://app?vid=26a26ab7-0438-4161-bab4-638f55e757fa"},"vehicle_type_id":"4","last_reported":1750068753,"current_range_meters":20400,"station_id":"ce4bhu92rcd13ifvqi70","pricing_plan_id":"cebpf4jnsgd1na2vs0mg"},{"bike_id":"c694ab79-7bc2-408d-90fd-811dad4ac96a","system_id":"levelo_inurba_marseille","lat":43.217534,"lon":5.346002,"is_reserved":false,"is_disabled":false,"rental_uris":{"android":"levelo://app?vid=c694ab79-7bc2-408d-90fd-811dad4ac96a","ios":"levelo://app?vid=c694ab79-7bc2-408d-90fd-811dad4ac96a"},"vehicle_type_id":"4","last_reported":1750068753,"current_range_meters":20800,"station_id":"","pricing_plan_id":"cebpf4jnsgd1na2vs0mg"},{"bike_id":"5683c8dc-4e3e-466a-ac55-0f5a67c16820","system_id":"levelo_inurba_marseille","lat":43.337444,"lon":5.374475,"is_reserved":false,"is_disabled":false,"rental_uris":{"android":"levelo://app?vid=5683c8dc-4e3e-466a-ac55-0f5a67c16820","ios":"levelo://app?vid=5683c8dc-4e3e-466a-ac55-0f5a67c16820"},"vehicle_type_id":"4","last_reported":1750068753,"current_range_meters":20800,"station_id":"","pricing_plan_id":"cebpf4jnsgd1na2vs0mg"},{"bike_id":"39d32260-51d5-455a-ba53-6471389bd255","system_id":"levelo_inurba_marseille","lat":43.31973,"lon":5.37609,"is_reserved":false,"is_disabled":false,"rental_uris":{"android":"levelo://app?vid=39d32260-51d5-455a-ba53-6471389bd255","ios":"levelo://app?vid=39d32260-51d5-455a-ba53-6471389bd255"},"vehicle_type_id":"4","last_reported":1750068753,"current_range_meters":20800,"station_id":"","pricing_plan_id":"cebpf4jnsgd1na2vs0mg"},{"bike_id":"bd7bc889-0ace-44ba-adc2-5e336bdf27e2","system_id":"levelo_inurba_marseille","lat":43.30988,"lon":5.37449,"is_reserved":false,"is_disabled":false,"rental_uris":{"android":"levelo://app?vid=bd7bc889-0ace-44ba-adc2-5e336bdf27e2","ios":"levelo://app?vid=bd7bc889-0ace-44ba-adc2-5e336bdf27e2"},"vehicle_type_id":"4","last_reported":1750068753,"current_range_meters":20800,"station_id":"","pricing_plan_id":"cebpf4jnsgd1na2vs0mg"},{"bike_id":"c9aa57fe-9cf9-4ae7-8d20-4bb67134db4a","system_id":"levelo_inurba_marseille","lat":43.29843,"lon":5.36258,"is_reserved":false,"is_disabled":false,"rental_uris":{"android":"levelo://app?vid=c9aa57fe-9cf9-4ae7-8d20-4bb67134db4a","ios":"levelo://app?vid=c9aa57fe-9cf9-4ae7-8d20-4bb67134db4a"},"vehicle_type_id":"4","last_reported":1750068753,"current_range_meters":20800,"station_id":"ce4bgpp2rcd13ifvqc3g","pricing_plan_id":"cebpf4jnsgd1na2vs0mg"},{"bike_id":"9b0565d3-24e2-42fa-8396-b981bcba13cd","system_id":"levelo_inurba_marseille","lat":43.29029,"lon":5.38645,"is_reserved":false,"is_disabled":false,"rental_uris":{"android":"levelo://app?vid=9b0565d3-24e2-42fa-8396-b981bcba13cd","ios":"levelo://app?vid=9b0565d3-24e2-42fa-8396-b981bcba13cd"},"vehicle_type_id":"4","last_reported":1750068753,"current_range_meters":20800,"station_id":"ce4bh4p2rcd13ifvqe0g","pricing_plan_id":"cebpf4jnsgd1na2vs0mg"},{"bike_id":"e679dba7-3ec9-40a8-bc35-f770baf3daf1","system_id":"levelo_inurba_marseille","lat":43.28501,"lon":5.38413,"is_reserved":false,"is_disabled":false,"rental_uris":{"android":"levelo://app?vid=e679dba7-3ec9-40a8-bc35-f770baf3daf1","ios":"levelo://app?vid=e679dba7-3ec9-40a8-bc35-f770baf3daf1"},"vehicle_type_id":"4","last_reported":1750068753,"current_range_meters":20800,"station_id":"ce4bh512rcd13ifvqe3g","pricing_plan_id":"cebpf4jnsgd1na2vs0mg"},{"bike_id":"71fbb4be-36b9-400d-be29-80affb13bbf4","system_id":"levelo_inurba_marseille","lat":43.27372,"lon":5.36251,"is_reserved":false,"is_disabled":false,"rental_uris":{"android":"levelo://app?vid=71fbb4be-36b9-400d-be29-80affb13bbf4","ios":"levelo://app?vid=71fbb4be-36b9-400d-be29-80affb13bbf4"},"vehicle_type_id":"4","last_reported":1750068753,"current_range_meters":20800,"station_id":"ce4bhbh2rcd13ifvqeo0","pricing_plan_id":"cebpf4jnsgd1na2vs0mg"},{"bike_id":"313b9743-aadd-4668-a9ad-116ef02c73ee","system_id":"levelo_inurba_marseille","lat":43.314827,"lon":5.373041,"is_reserved":false,"is_disabled":false,"rental_uris":{"android":"levelo://app?vid=313b9743-aadd-4668-a9ad-116ef02c73ee","ios":"levelo://app?vid=313b9743-aadd-4668-a9ad-116ef02c73ee"},"vehicle_type_id":"4","last_reported":1750068753,"current_range_meters":21600,"station_id":"ce4bgt12rcd13ifvqcd0","pricing_plan_id":"cebpf4jnsgd1na2vs0mg"},{"bike_id":"70b7e8ee-0cd9-47a0-aa15-cbc22a1ed5d3","system_id":"levelo_inurba_marseille","lat":43.28486,"lon":5.38419,"is_reserved":false,"is_disabled":false,"rental_uris":{"android":"levelo://app?vid=70b7e8ee-0cd9-47a0-aa15-cbc22a1ed5d3","ios":"levelo://app?vid=70b7e8ee-0cd9-47a0-aa15-cbc22a1ed5d3"},"vehicle_type_id":"4","last_reported":1750068753,"current_range_meters":21600,"station_id":"ce4bh512rcd13ifvqe3g","pricing_plan_id":"cebpf4jnsgd1na2vs0mg"},{"bike_id":"8dd10cdd-77ef-47e2-ba4c-a39a48a433af","system_id":"levelo_inurba_marseille","lat":43.28417,"lon":5.34987,"is_reserved":false,"is_disabled":false,"rental_uris":{"android":"levelo://app?vid=8dd10cdd-77ef-47e2-ba4c-a39a48a433af","ios":"levelo://app?vid=8dd10cdd-77ef-47e2-ba4c-a39a48a433af"},"vehicle_type_id":"4","last_reported":1750068753,"current_range_meters":21600,"station_id":"ce4bhbh2rcd13ifvqepg","pricing_plan_id":"cebpf4jnsgd1na2vs0mg"},{"bike_id":"2ce96ed3-f273-4b5f-8a25-85a531b2a37e","system_id":"levelo_inurba_marseille","lat":43.26065,"lon":5.39391,"is_reserved":false,"is_disabled":false,"rental_uris":{"android":"levelo://app?vid=2ce96ed3-f273-4b5f-8a25-85a531b2a37e","ios":"levelo://app?vid=2ce96ed3-f273-4b5f-8a25-85a531b2a37e"},"vehicle_type_id":"4","last_reported":1750068753,"current_range_meters":21600,"station_id":"ce4bhh92rcd13ifvqfj0","pricing_plan_id":"cebpf4jnsgd1na2vs0mg"},{"bike_id":"18877686-938b-4358-acf0-744fd82f41d8","system_id":"levelo_inurba_marseille","lat":43.231541,"lon":5.437074,"is_reserved":false,"is_disabled":false,"rental_uris":{"android":"levelo://app?vid=18877686-938b-4358-acf0-744fd82f41d8","ios":"levelo://app?vid=18877686-938b-4358-acf0-744fd82f41d8"},"vehicle_type_id":"4","last_reported":1750068753,"current_range_meters":22000,"station_id":"ce4bhmp2rcd13ifvqgog","pricing_plan_id":"cebpf4jnsgd1na2vs0mg"},{"bike_id":"8f0e10f7-6ec9-4ab9-baf9-3de87425f363","system_id":"levelo_inurba_marseille","lat":43.2903,"lon":5.3747,"is_reserved":false,"is_disabled":false,"rental_uris":{"android":"levelo://app?vid=8f0e10f7-6ec9-4ab9-baf9-3de87425f363","ios":"levelo://app?vid=8f0e10f7-6ec9-4ab9-baf9-3de87425f363"},"vehicle_type_id":"4","last_reported":1750068753,"current_range_meters":22400,"station_id":"","pricing_plan_id":"cebpf4jnsgd1na2vs0mg"},{"bike_id":"5e071655-c8c9-4af4-b092-493d0b64283e","system_id":"levelo_inurba_marseille","lat":43.31353,"lon":5.367288,"is_reserved":false,"is_disabled":false,"rental_uris":{"android":"levelo://app?vid=5e071655-c8c9-4af4-b092-493d0b64283e","ios":"levelo://app?vid=5e071655-c8c9-4af4-b092-493d0b64283e"},"vehicle_type_id":"4","last_reported":1750068753,"current_range_meters":22400,"station_id":"ce4bgr92rcd13ifvqc6g","pricing_plan_id":"cebpf4jnsgd1na2vs0mg"},{"bike_id":"26b112b0-dd59-4b16-8442-0c93357c9d5d","system_id":"levelo_inurba_marseille","lat":43.30493,"lon":5.36673,"is_reserved":false,"is_disabled":false,"rental_uris":{"android":"levelo://app?vid=26b112b0-dd59-4b16-8442-0c93357c9d5d","ios":"levelo://app?vid=26b112b0-dd59-4b16-8442-0c93357c9d5d"},"vehicle_type_id":"4","last_reported":1750068753,"current_range_meters":22400,"station_id":"ce4bgrp2rcd13ifvqc9g","pricing_plan_id":"cebpf4jnsgd1na2vs0mg"},{"bike_id":"db6ca939-af3d-4c47-a5cc-b0e23450e441","system_id":"levelo_inurba_marseille","lat":43.27916,"lon":5.3957,"is_reserved":false,"is_disabled":false,"rental_uris":{"android":"levelo://app?vid=db6ca939-af3d-4c47-a5cc-b0e23450e441","ios":"levelo://app?vid=db6ca939-af3d-4c47-a5cc-b0e23450e441"},"vehicle_type_id":"4","last_reported":1750068753,"current_range_meters":22400,"station_id":"ce4bhf92rcd13ifvqf40","pricing_plan_id":"cebpf4jnsgd1na2vs0mg"},{"bike_id":"90af9db3-9dc2-4c79-8969-5005ae98ca42","system_id":"levelo_inurba_marseille","lat":43.29929,"lon":5.37471,"is_reserved":false,"is_disabled":false,"rental_uris":{"android":"levelo://app?vid=90af9db3-9dc2-4c79-8969-5005ae98ca42","ios":"levelo://app?vid=90af9db3-9dc2-4c79-8969-5005ae98ca42"},"vehicle_type_id":"4","last_reported":1750068753,"current_range_meters":22800,"station_id":"ce4bgjh2rcd13ifvqbg0","pricing_plan_id":"cebpf4jnsgd1na2vs0mg"},{"bike_id":"f4637e29-1691-43dc-b4b7-1b19b53c8c5e","system_id":"levelo_inurba_marseille","lat":43.30888,"lon":5.36881,"is_reserved":false,"is_disabled":false,"rental_uris":{"android":"levelo://app?vid=f4637e29-1691-43dc-b4b7-1b19b53c8c5e","ios":"levelo://app?vid=f4637e29-1691-43dc-b4b7-1b19b53c8c5e"},"vehicle_type_id":"4","last_reported":1750068753,"current_range_meters":22800,"station_id":"ce4bgn92rcd13ifvqbvg","pricing_plan_id":"cebpf4jnsgd1na2vs0mg"},{"bike_id":"50ab7d71-0ec7-4cd6-9613-7fb8bb164477","system_id":"levelo_inurba_marseille","lat":43.30587,"lon":5.37209,"is_reserved":false,"is_disabled":false,"rental_uris":{"android":"levelo://app?vid=50ab7d71-0ec7-4cd6-9613-7fb8bb164477","ios":"levelo://app?vid=50ab7d71-0ec7-4cd6-9613-7fb8bb164477"},"vehicle_type_id":"4","last_reported":1750068753,"current_range_meters":22800,"station_id":"ce4bgqh2rcd13ifvqc4g","pricing_plan_id":"cebpf4jnsgd1na2vs0mg"},{"bike_id":"74abfb01-7421-471f-83ce-339f5edac0b5","system_id":"levelo_inurba_marseille","lat":43.24388,"lon":5.3706,"is_reserved":false,"is_disabled":false,"rental_uris":{"android":"levelo://app?vid=74abfb01-7421-471f-83ce-339f5edac0b5","ios":"levelo://app?vid=74abfb01-7421-471f-83ce-339f5edac0b5"},"vehicle_type_id":"4","last_reported":1750068753,"current_range_meters":22800,"station_id":"ce4bhhh2rcd13ifvqfk0","pricing_plan_id":"cebpf4jnsgd1na2vs0mg"},{"bike_id":"85d1d919-a7d6-4505-81a1-da3c0b715fa9","system_id":"levelo_inurba_marseille","lat":43.23964,"lon":5.36633,"is_reserved":false,"is_disabled":false,"rental_uris":{"android":"levelo://app?vid=85d1d919-a7d6-4505-81a1-da3c0b715fa9","ios":"levelo://app?vid=85d1d919-a7d6-4505-81a1-da3c0b715fa9"},"vehicle_type_id":"4","last_reported":1750068753,"current_range_meters":22800,"station_id":"ce4bhi12rcd13ifvqfp0","pricing_plan_id":"cebpf4jnsgd1na2vs0mg"},{"bike_id":"40ab75e7-a872-4826-8328-b505385f632e","system_id":"levelo_inurba_marseille","lat":43.25716,"lon":5.4111,"is_reserved":false,"is_disabled":false,"rental_uris":{"android":"levelo://app?vid=40ab75e7-a872-4826-8328-b505385f632e","ios":"levelo://app?vid=40ab75e7-a872-4826-8328-b505385f632e"},"vehicle_type_id":"4","last_reported":1750068753,"current_range_meters":22800,"station_id":"ce4bhkp2rcd13ifvqgd0","pricing_plan_id":"cebpf4jnsgd1na2vs0mg"},{"bike_id":"8e628f81-9b1b-4066-968f-b1af6e1b58a3","system_id":"levelo_inurba_marseille","lat":43.23132,"lon":5.35506,"is_reserved":false,"is_disabled":false,"rental_uris":{"android":"levelo://app?vid=8e628f81-9b1b-4066-968f-b1af6e1b58a3","ios":"levelo://app?vid=8e628f81-9b1b-4066-968f-b1af6e1b58a3"},"vehicle_type_id":"4","last_reported":1750068753,"current_range_meters":23200,"station_id":"","pricing_plan_id":"cebpf4jnsgd1na2vs0mg"},{"bike_id":"598a48f5-e3f9-47b0-be6e-e3e011e8c294","system_id":"levelo_inurba_marseille","lat":43.21757,"lon":5.34589,"is_reserved":false,"is_disabled":false,"rental_uris":{"android":"levelo://app?vid=598a48f5-e3f9-47b0-be6e-e3e011e8c294","ios":"levelo://app?vid=598a48f5-e3f9-47b0-be6e-e3e011e8c294"},"vehicle_type_id":"4","last_reported":1750068753,"current_range_meters":23200,"station_id":"","pricing_plan_id":"cebpf4jnsgd1na2vs0mg"},{"bike_id":"324df68a-002f-45b0-b3a7-a8132aa279e8","system_id":"levelo_inurba_marseille","lat":43.30541,"lon":5.36507,"is_reserved":false,"is_disabled":false,"rental_uris":{"android":"levelo://app?vid=324df68a-002f-45b0-b3a7-a8132aa279e8","ios":"levelo://app?vid=324df68a-002f-45b0-b3a7-a8132aa279e8"},"vehicle_type_id":"4","last_reported":1750068753,"current_range_meters":23200,"station_id":"","pricing_plan_id":"cebpf4jnsgd1na2vs0mg"},{"bike_id":"68743d1b-e9ad-41a0-b3d7-748b18acbbe9","system_id":"levelo_inurba_marseille","lat":43.34673,"lon":5.37942,"is_reserved":false,"is_disabled":false,"rental_uris":{"android":"levelo://app?vid=68743d1b-e9ad-41a0-b3d7-748b18acbbe9","ios":"levelo://app?vid=68743d1b-e9ad-41a0-b3d7-748b18acbbe9"},"vehicle_type_id":"4","last_reported":1750068753,"current_range_meters":23200,"station_id":"","pricing_plan_id":"cebpf4jnsgd1na2vs0mg"},{"bike_id":"275d0c40-dedf-4796-a2ec-32f798264ae3","system_id":"levelo_inurba_marseille","lat":43.29957,"lon":5.36384,"is_reserved":false,"is_disabled":false,"rental_uris":{"android":"levelo://app?vid=275d0c40-dedf-4796-a2ec-32f798264ae3","ios":"levelo://app?vid=275d0c40-dedf-4796-a2ec-32f798264ae3"},"vehicle_type_id":"4","last_reported":1750068753,"current_range_meters":23200,"station_id":"ce4bgm92rcd13ifvqbr0","pricing_plan_id":"cebpf4jnsgd1na2vs0mg"},{"bike_id":"0d6589fd-ba5d-455c-b91d-74162e24f412","system_id":"levelo_inurba_marseille","lat":43.29848,"lon":5.36271,"is_reserved":false,"is_disabled":false,"rental_uris":{"android":"levelo://app?vid=0d6589fd-ba5d-455c-b91d-74162e24f412","ios":"levelo://app?vid=0d6589fd-ba5d-455c-b91d-74162e24f412"},"vehicle_type_id":"4","last_reported":1750068753,"current_range_meters":23200,"station_id":"ce4bgpp2rcd13ifvqc3g","pricing_plan_id":"cebpf4jnsgd1na2vs0mg"},{"bike_id":"0a3832a2-000e-420f-be9b-a57cb337f33c","system_id":"levelo_inurba_marseille","lat":43.31369,"lon":5.36707,"is_reserved":false,"is_disabled":false,"rental_uris":{"android":"levelo://app?vid=0a3832a2-000e-420f-be9b-a57cb337f33c","ios":"levelo://app?vid=0a3832a2-000e-420f-be9b-a57cb337f33c"},"vehicle_type_id":"4","last_reported":1750068753,"current_range_meters":23200,"station_id":"ce4bgr92rcd13ifvqc6g","pricing_plan_id":"cebpf4jnsgd1na2vs0mg"},{"bike_id":"48f40c4c-1f6e-4bdd-ae64-216c5d03e746","system_id":"levelo_inurba_marseille","lat":43.31384,"lon":5.367,"is_reserved":false,"is_disabled":false,"rental_uris":{"android":"levelo://app?vid=48f40c4c-1f6e-4bdd-ae64-216c5d03e746","ios":"levelo://app?vid=48f40c4c-1f6e-4bdd-ae64-216c5d03e746"},"vehicle_type_id":"4","last_reported":1750068753,"current_range_meters":23200,"station_id":"ce4bgr92rcd13ifvqc6g","pricing_plan_id":"cebpf4jnsgd1na2vs0mg"},{"bike_id":"5adbf533-d7a6-4a9a-8e28-b711a3dc5f01","system_id":"levelo_inurba_marseille","lat":43.30512,"lon":5.36692,"is_reserved":false,"is_disabled":false,"rental_uris":{"android":"levelo://app?vid=5adbf533-d7a6-4a9a-8e28-b711a3dc5f01","ios":"levelo://app?vid=5adbf533-d7a6-4a9a-8e28-b711a3dc5f01"},"vehicle_type_id":"4","last_reported":1750068753,"current_range_meters":23200,"station_id":"ce4bgrp2rcd13ifvqc9g","pricing_plan_id":"cebpf4jnsgd1na2vs0mg"},{"bike_id":"b201cf08-743e-4ae2-9b0c-95af280075b2","system_id":"levelo_inurba_marseille","lat":43.30777,"lon":5.37653,"is_reserved":false,"is_disabled":false,"rental_uris":{"android":"levelo://app?vid=b201cf08-743e-4ae2-9b0c-95af280075b2","ios":"levelo://app?vid=b201cf08-743e-4ae2-9b0c-95af280075b2"},"vehicle_type_id":"4","last_reported":1750068753,"current_range_meters":23200,"station_id":"ce4bgv92rcd13ifvqcq0","pricing_plan_id":"cebpf4jnsgd1na2vs0mg"},{"bike_id":"9f9b4a03-5519-4dbe-b61c-7ba2e6869925","system_id":"levelo_inurba_marseille","lat":43.2841,"lon":5.34994,"is_reserved":false,"is_disabled":false,"rental_uris":{"android":"levelo://app?vid=9f9b4a03-5519-4dbe-b61c-7ba2e6869925","ios":"levelo://app?vid=9f9b4a03-5519-4dbe-b61c-7ba2e6869925"},"vehicle_type_id":"4","last_reported":1750068753,"current_range_meters":23200,"station_id":"ce4bhbh2rcd13ifvqepg","pricing_plan_id":"cebpf4jnsgd1na2vs0mg"},{"bike_id":"081868be-fd0d-4790-bcdd-1206dce58342","system_id":"levelo_inurba_marseille","lat":43.24393,"lon":5.37058,"is_reserved":false,"is_disabled":false,"rental_uris":{"android":"levelo://app?vid=081868be-fd0d-4790-bcdd-1206dce58342","ios":"levelo://app?vid=081868be-fd0d-4790-bcdd-1206dce58342"},"vehicle_type_id":"4","last_reported":1750068753,"current_range_meters":23200,"station_id":"ce4bhhh2rcd13ifvqfk0","pricing_plan_id":"cebpf4jnsgd1na2vs0mg"},{"bike_id":"fa3fb97b-5d78-4528-93a4-517f15f2c50e","system_id":"levelo_inurba_marseille","lat":43.23046,"lon":5.35522,"is_reserved":false,"is_disabled":false,"rental_uris":{"android":"levelo://app?vid=fa3fb97b-5d78-4528-93a4-517f15f2c50e","ios":"levelo://app?vid=fa3fb97b-5d78-4528-93a4-517f15f2c50e"},"vehicle_type_id":"4","last_reported":1750068753,"current_range_meters":23200,"station_id":"cpo3342slgdg3j2ifvpg","pricing_plan_id":"cebpf4jnsgd1na2vs0mg"},{"bike_id":"d55c6d2b-5336-46f2-97dd-90834fd3b35e","system_id":"levelo_inurba_marseille","lat":43.21191,"lon":5.3506,"is_reserved":false,"is_disabled":false,"rental_uris":{"android":"levelo://app?vid=d55c6d2b-5336-46f2-97dd-90834fd3b35e","ios":"levelo://app?vid=d55c6d2b-5336-46f2-97dd-90834fd3b35e"},"vehicle_type_id":"4","last_reported":1750068753,"current_range_meters":23200,"station_id":"st_cvj6sg6p6f1abm77japg","pricing_plan_id":"cebpf4jnsgd1na2vs0mg"},{"bike_id":"4b3e9bee-cc53-44f1-bb13-73803bbfcdd4","system_id":"levelo_inurba_marseille","lat":43.34515,"lon":5.36646,"is_reserved":false,"is_disabled":false,"rental_uris":{"android":"levelo://app?vid=4b3e9bee-cc53-44f1-bb13-73803bbfcdd4","ios":"levelo://app?vid=4b3e9bee-cc53-44f1-bb13-73803bbfcdd4"},"vehicle_type_id":"4","last_reported":1750068753,"current_range_meters":24000,"station_id":"","pricing_plan_id":"cebpf4jnsgd1na2vs0mg"},{"bike_id":"02b356e3-2605-49ef-a16d-da6b25a8495c","system_id":"levelo_inurba_marseille","lat":43.30155,"lon":5.37409,"is_reserved":false,"is_disabled":false,"rental_uris":{"android":"levelo://app?vid=02b356e3-2605-49ef-a16d-da6b25a8495c","ios":"levelo://app?vid=02b356e3-2605-49ef-a16d-da6b25a8495c"},"vehicle_type_id":"4","last_reported":1750068753,"current_range_meters":24000,"station_id":"ce4bgs92rcd13ifvqcc0","pricing_plan_id":"cebpf4jnsgd1na2vs0mg"},{"bike_id":"fd75c572-6def-49dc-908f-8fbc980ce715","system_id":"levelo_inurba_marseille","lat":43.30273,"lon":5.37705,"is_reserved":false,"is_disabled":false,"rental_uris":{"android":"levelo://app?vid=fd75c572-6def-49dc-908f-8fbc980ce715","ios":"levelo://app?vid=fd75c572-6def-49dc-908f-8fbc980ce715"},"vehicle_type_id":"4","last_reported":1750068753,"current_range_meters":24000,"station_id":"ce4bguh2rcd13ifvqcj0","pricing_plan_id":"cebpf4jnsgd1na2vs0mg"},{"bike_id":"cac4fe2e-8d62-4814-a719-5b73f56bad56","system_id":"levelo_inurba_marseille","lat":43.29257,"lon":5.38437,"is_reserved":false,"is_disabled":false,"rental_uris":{"android":"levelo://app?vid=cac4fe2e-8d62-4814-a719-5b73f56bad56","ios":"levelo://app?vid=cac4fe2e-8d62-4814-a719-5b73f56bad56"},"vehicle_type_id":"4","last_reported":1750068753,"current_range_meters":24000,"station_id":"ce4bh692rcd13ifvqea0","pricing_plan_id":"cebpf4jnsgd1na2vs0mg"},{"bike_id":"f19f75b1-f974-49f8-bfd5-7fb3f49cd61a","system_id":"levelo_inurba_marseille","lat":43.29279,"lon":5.36844,"is_reserved":false,"is_disabled":false,"rental_uris":{"android":"levelo://app?vid=f19f75b1-f974-49f8-bfd5-7fb3f49cd61a","ios":"levelo://app?vid=f19f75b1-f974-49f8-bfd5-7fb3f49cd61a"},"vehicle_type_id":"4","last_reported":1750068753,"current_range_meters":24000,"station_id":"ce4bhbp2rcd13ifvqesg","pricing_plan_id":"cebpf4jnsgd1na2vs0mg"},{"bike_id":"3f7c1f72-1589-49e2-895a-b11595554540","system_id":"levelo_inurba_marseille","lat":43.23188,"lon":5.39985,"is_reserved":false,"is_disabled":false,"rental_uris":{"android":"levelo://app?vid=3f7c1f72-1589-49e2-895a-b11595554540","ios":"levelo://app?vid=3f7c1f72-1589-49e2-895a-b11595554540"},"vehicle_type_id":"4","last_reported":1750068753,"current_range_meters":24000,"station_id":"ce4bhn12rcd13ifvqgqg","pricing_plan_id":"cebpf4jnsgd1na2vs0mg"},{"bike_id":"0836bc4f-78d9-4431-9477-555965303845","system_id":"levelo_inurba_marseille","lat":43.31693,"lon":5.4369,"is_reserved":false,"is_disabled":false,"rental_uris":{"android":"levelo://app?vid=0836bc4f-78d9-4431-9477-555965303845","ios":"levelo://app?vid=0836bc4f-78d9-4431-9477-555965303845"},"vehicle_type_id":"4","last_reported":1750068753,"current_range_meters":24000,"station_id":"ce4bhp92rcd13ifvqhcg","pricing_plan_id":"cebpf4jnsgd1na2vs0mg"},{"bike_id":"1c1c7580-6a1a-4c72-8e5e-39cc37b8dfe6","system_id":"levelo_inurba_marseille","lat":43.2118,"lon":5.35069,"is_reserved":false,"is_disabled":false,"rental_uris":{"android":"levelo://app?vid=1c1c7580-6a1a-4c72-8e5e-39cc37b8dfe6","ios":"levelo://app?vid=1c1c7580-6a1a-4c72-8e5e-39cc37b8dfe6"},"vehicle_type_id":"4","last_reported":1750068753,"current_range_meters":24000,"station_id":"st_cvj6sg6p6f1abm77japg","pricing_plan_id":"cebpf4jnsgd1na2vs0mg"},{"bike_id":"4c8d3104-c474-4d8b-8da9-42cfcd85c234","system_id":"levelo_inurba_marseille","lat":43.31205,"lon":5.3683,"is_reserved":false,"is_disabled":false,"rental_uris":{"android":"levelo://app?vid=4c8d3104-c474-4d8b-8da9-42cfcd85c234","ios":"levelo://app?vid=4c8d3104-c474-4d8b-8da9-42cfcd85c234"},"vehicle_type_id":"4","last_reported":1750068753,"current_range_meters":24400,"station_id":"ce4bgl92rcd13ifvqbq0","pricing_plan_id":"cebpf4jnsgd1na2vs0mg"},{"bike_id":"71614aff-82f5-450f-97a6-f35b930311be","system_id":"levelo_inurba_marseille","lat":43.29842,"lon":5.36264,"is_reserved":false,"is_disabled":false,"rental_uris":{"android":"levelo://app?vid=71614aff-82f5-450f-97a6-f35b930311be","ios":"levelo://app?vid=71614aff-82f5-450f-97a6-f35b930311be"},"vehicle_type_id":"4","last_reported":1750068753,"current_range_meters":24400,"station_id":"ce4bgpp2rcd13ifvqc3g","pricing_plan_id":"cebpf4jnsgd1na2vs0mg"},{"bike_id":"8676e703-75d2-4a00-a3f9-f4fc11795ef0","system_id":"levelo_inurba_marseille","lat":43.30317,"lon":5.36901,"is_reserved":false,"is_disabled":false,"rental_uris":{"android":"levelo://app?vid=8676e703-75d2-4a00-a3f9-f4fc11795ef0","ios":"levelo://app?vid=8676e703-75d2-4a00-a3f9-f4fc11795ef0"},"vehicle_type_id":"4","last_reported":1750068753,"current_range_meters":24400,"station_id":"ce4bgqh2rcd13ifvqc5g","pricing_plan_id":"cebpf4jnsgd1na2vs0mg"},{"bike_id":"ca59942c-cc53-4126-aa94-cde3942e7279","system_id":"levelo_inurba_marseille","lat":43.29009,"lon":5.35605,"is_reserved":false,"is_disabled":false,"rental_uris":{"android":"levelo://app?vid=ca59942c-cc53-4126-aa94-cde3942e7279","ios":"levelo://app?vid=ca59942c-cc53-4126-aa94-cde3942e7279"},