{"last_updated":1703977598,"ttl":30,"version":"2.2","data":{"bikes":[{"bike_id":"2bf732d1-cd8c-466f-a8a7-9bd69662d50f","system_id":"levelo_inurba_marseille","lat":43.313391,"lon":5.36706,"is_reserved":false,"is_disabled":false,"rental_uris":{"android":"levelo://app?vid=2bf732d1-cd8c-466f-a8a7-9bd69662d50f","ios":"levelo://app?vid=2bf732d1-cd8c-466f-a8a7-9bd69662d50f"},"vehicle_type_id":"4","last_reported":1703977598,"current_range_meters":26800,"station_id":"ce4bgr92rcd13ifvqc6g","pricing_plan_id":"free"},{"bike_id":"160dd736-910e-4cd6-9a71-761005369b33","system_id":"levelo_inurba_marseille","lat":43.312239,"lon":5.368562,"is_reserved":false,"is_disabled":false,"rental_uris":{"android":"levelo://app?vid=160dd736-910e-4cd6-9a71-761005369b33","ios":"levelo://app?vid=160dd736-910e-4cd6-9a71-761005369b33"},"vehicle_type_id":"4","last_reported":1703977598,"current_range_meters":0,"station_id":"ce4bgl92rcd13ifvqbq0","pricing_plan_id":"free"},{"bike_id":"7180308b-443d-4039-8862-ed4addd16119","system_id":"levelo_inurba_marseille","lat":43.309076,"lon":5.368465,"is_reserved":false,"is_disabled":false,"rental_uris":{"android":"levelo://app?vid=7180308b-443d-4039-8862-ed4addd16119","ios":"levelo://app?vid=7180308b-443d-4039-8862-ed4addd16119"},"vehicle_type_id":"4","last_reported":1703977598,"current_range_meters":28400,"station_id":"ce4bgn92rcd13ifvqbvg","pricing_plan_id":"free"},{"bike_id":"c1792a81-afad-46e7-9530-06374cc0d7d3","system_id":"levelo_inurba_marseille","lat":43.309076,"lon":5.368465,"is_reserved":false,"is_disabled":false,"rental_uris":{"android":"levelo://app?vid=c1792a81-afad-46e7-9530-06374cc0d7d3","ios":"levelo://app?vid=c1792a81-afad-46e7-9530-06374cc0d7d3"},"vehicle_type_id":"4","last_reported":1703977598,"current_range_meters":31200,"station_id":"ce4bgn92rcd13ifvqbvg","pricing_plan_id":"free"},{"bike_id":"63749c65-a3ae-4dda-b16a-f3f884850e3c","system_id":"levelo_inurba_marseille","lat":43.314811,"lon":5.373103,"is_reserved":false,"is_disabled":false,"rental_uris":{"android":"levelo://app?vid=63749c65-a3ae-4dda-b16a-f3f884850e3c","ios":"levelo://app?vid=63749c65-a3ae-4dda-b16a-f3f884850e3c"},"vehicle_type_id":"4","last_reported":1703977598,"current_range_meters":7200,"station_id":"ce4bgt12rcd13ifvqcd0","pricing_plan_id":"free"},{"bike_id":"dd708c2c-a6d5-4133-a48a-a6744156db71","system_id":"levelo_inurba_marseille","lat":43.314811,"lon":5.373103,"is_reserved":false,"is_disabled":false,"rental_uris":{"android":"levelo://app?vid=dd708c2c-a6d5-4133-a48a-a6744156db71","ios":"levelo://app?vid=dd708c2c-a6d5-4133-a48a-a6744156db71"},"vehicle_type_id":"4","last_reported":1703977598,"current_range_meters":17200,"station_id":"ce4bgt12rcd13ifvqcd0","pricing_plan_id":"free"},{"bike_id":"393d281c-fc34-40cb-9e7a-49bf22cd7cc0","system_id":"levelo_inurba_marseille","lat":43.309039,"lon":5.371797,"is_reserved":false,"is_disabled":false,"rental_uris":{"android":"levelo://app?vid=393d281c-fc34-40cb-9e7a-49bf22cd7cc0","ios":"levelo://app?vid=393d281c-fc34-40cb-9e7a-49bf22cd7cc0"},"vehicle_type_id":"4","last_reported":1703977598,"current_range_meters":24400,"station_id":"ce4bguh2rcd13ifvqckg","pricing_plan_id":"free"},{"bike_id":"2bf1159c-4b34-4bc3-a8b5-156be571c011","system_id":"levelo_inurba_marseille","lat":43.307843,"lon":5.373431,"is_reserved":false,"is_disabled":false,"rental_uris":{"android":"levelo://app?vid=2bf1159c-4b34-4bc3-a8b5-156be571c011","ios":"levelo://app?vid=2bf1159c-4b34-4bc3-a8b5-156be571c011"},"vehicle_type_id":"4","last_reported":1703977598,"current_range_meters":26400,"station_id":"","pricing_plan_id":"free"},{"bike_id":"a3c8d623-a85c-45ca-8fac-8710ce7491da","system_id":"levelo_inurba_marseille","lat":43.30646,"lon":5.37181,"is_reserved":false,"is_disabled":false,"rental_uris":{"android":"levelo://app?vid=a3c8d623-a85c-45ca-8fac-8710ce7491da","ios":"levelo://app?vid=a3c8d623-a85c-45ca-8fac-8710ce7491da"},"vehicle_type_id":"4","last_reported":1703977598,"current_range_meters":6800,"station_id":"","pricing_plan_id":"free"},{"bike_id":"bb4f5003-6e3d-4663-8a5d-c74eb5223f4a","system_id":"levelo_inurba_marseille","lat":43.30537,"lon":5.367345,"is_reserved":false,"is_disabled":false,"rental_uris":{"android":"levelo://app?vid=bb4f5003-6e3d-4663-8a5d-c74eb5223f4a","ios":"levelo://app?vid=bb4f5003-6e3d-4663-8a5d-c74eb5223f4a"},"vehicle_type_id":"4","last_reported":1703977598,"current_range_meters":0,"station_id":"ce4bgrp2rcd13ifvqc9g","pricing_plan_id":"free"},{"bike_id":"ed8d2401-58d4-4308-af8b-a9de9b5d5f8b","system_id":"levelo_inurba_marseille","lat":43.305368,"lon":5.367343,"is_reserved":false,"is_disabled":false,"rental_uris":{"android":"levelo://app?vid=ed8d2401-58d4-4308-af8b-a9de9b5d5f8b","ios":"levelo://app?vid=ed8d2401-58d4-4308-af8b-a9de9b5d5f8b"},"vehicle_type_id":"4","last_reported":1703977598,"current_range_meters":0,"station_id":"ce4bgrp2rcd13ifvqc9g","pricing_plan_id":"free"},{"bike_id":"64a93320-b6f7-4f00-82e1-5c71938933c4","system_id":"levelo_inurba_marseille","lat":43.313868,"lon":5.376952,"is_reserved":false,"is_disabled":false,"rental_uris":{"android":"levelo://app?vid=64a93320-b6f7-4f00-82e1-5c71938933c4","ios":"levelo://app?vid=64a93320-b6f7-4f00-82e1-5c71938933c4"},"vehicle_type_id":"4","last_reported":1703977598,"current_range_meters":22400,"station_id":"","pricing_plan_id":"free"},{"bike_id":"e8fa1057-27ce-4e49-ba4b-40a8f8a74095","system_id":"levelo_inurba_marseille","lat":43.305989,"lon":5.37225,"is_reserved":false,"is_disabled":false,"rental_uris":{"android":"levelo://app?vid=e8fa1057-27ce-4e49-ba4b-40a8f8a74095","ios":"levelo://app?vid=e8fa1057-27ce-4e49-ba4b-40a8f8a74095"},"vehicle_type_id":"4","last_reported":1703977598,"current_range_meters":18000,"station_id":"ce4bgqh2rcd13ifvqc4g","pricing_plan_id":"free"},{"bike_id":"46a24cec-b842-49ba-9a12-32da2fc4b4cb","system_id":"levelo_inurba_marseille","lat":43.30589,"lon":5.37223,"is_reserved":false,"is_disabled":false,"rental_uris":{"android":"levelo://app?vid=46a24cec-b842-49ba-9a12-32da2fc4b4cb","ios":"levelo://app?vid=46a24cec-b842-49ba-9a12-32da2fc4b4cb"},"vehicle_type_id":"4","last_reported":1703977598,"current_range_meters":3600,"station_id":"ce4bgqh2rcd13ifvqc4g","pricing_plan_id":"free"},{"bike_id":"c21e22da-ec0d-4947-b771-cb0b5f74d7a1","system_id":"levelo_inurba_marseille","lat":43.311131,"lon":5.377651,"is_reserved":false,"is_disabled":false,"rental_uris":{"android":"levelo://app?vid=c21e22da-ec0d-4947-b771-cb0b5f74d7a1","ios":"levelo://app?vid=c21e22da-ec0d-4947-b771-cb0b5f74d7a1"},"vehicle_type_id":"4","last_reported":1703977598,"current_range_meters":16800,"station_id":"ce4bgt92rcd13ifvqcg0","pricing_plan_id":"free"},{"bike_id":"25af9e1c-886c-4f64-92f2-5ca68e46ae4a","system_id":"levelo_inurba_marseille","lat":43.31722,"lon":5.37668,"is_reserved":false,"is_disabled":false,"rental_uris":{"android":"levelo://app?vid=25af9e1c-886c-4f64-92f2-5ca68e46ae4a","ios":"levelo://app?vid=25af9e1c-886c-4f64-92f2-5ca68e46ae4a"},"vehicle_type_id":"4","last_reported":1703977598,"current_range_meters":24400,"station_id":"","pricing_plan_id":"free"},{"bike_id":"43ca8f0e-45c8-46db-88a7-88fa1ac98477","system_id":"levelo_inurba_marseille","lat":43.317075,"lon":5.377367,"is_reserved":false,"is_disabled":false,"rental_uris":{"android":"levelo://app?vid=43ca8f0e-45c8-46db-88a7-88fa1ac98477","ios":"levelo://app?vid=43ca8f0e-45c8-46db-88a7-88fa1ac98477"},"vehicle_type_id":"4","last_reported":1703977598,"current_range_meters":26400,"station_id":"ce4bgth2rcd13ifvqch0","pricing_plan_id":"free"},{"bike_id":"e396057a-9e96-4e6d-bb6b-ed001471212f","system_id":"levelo_inurba_marseille","lat":43.317075,"lon":5.377367,"is_reserved":false,"is_disabled":false,"rental_uris":{"android":"levelo://app?vid=e396057a-9e96-4e6d-bb6b-ed001471212f","ios":"levelo://app?vid=e396057a-9e96-4e6d-bb6b-ed001471212f"},"vehicle_type_id":"4","last_reported":1703977598,"current_range_meters":26400,"station_id":"ce4bgth2rcd13ifvqch0","pricing_plan_id":"free"},{"bike_id":"e5cdb6f6-1300-406e-9303-c0f03d781d71","system_id":"levelo_inurba_marseille","lat":43.317075,"lon":5.377367,"is_reserved":false,"is_disabled":false,"rental_uris":{"android":"levelo://app?vid=e5cdb6f6-1300-406e-9303-c0f03d781d71","ios":"levelo://app?vid=e5cdb6f6-1300-406e-9303-c0f03d781d71"},"vehicle_type_id":"4","last_reported":1703977598,"current_range_meters":31200,"station_id":"ce4bgth2rcd13ifvqch0","pricing_plan_id":"free"},{"bike_id":"d2a50887-7fae-4919-a646-1c2f42822421","system_id":"levelo_inurba_marseille","lat":43.30313,"lon":5.36896,"is_reserved":false,"is_disabled":false,"rental_uris":{"android":"levelo://app?vid=d2a50887-7fae-4919-a646-1c2f42822421","ios":"levelo://app?vid=d2a50887-7fae-4919-a646-1c2f42822421"},"vehicle_type_id":"4","last_reported":1703977598,"current_range_meters":2000,"station_id":"ce4bgqh2rcd13ifvqc5g","pricing_plan_id":"free"},{"bike_id":"61dd09e8-6a2b-47a2-b828-925d650fad59","system_id":"levelo_inurba_marseille","lat":43.3153,"lon":5.38021,"is_reserved":false,"is_disabled":false,"rental_uris":{"android":"levelo://app?vid=61dd09e8-6a2b-47a2-b828-925d650fad59","ios":"levelo://app?vid=61dd09e8-6a2b-47a2-b828-925d650fad59"},"vehicle_type_id":"4","last_reported":1703977598,"current_range_meters":5600,"station_id":"ce4bhsp2rcd13ifvqi50","pricing_plan_id":"free"},{"bike_id":"fa42125a-2b48-4e78-9b49-e4925096e263","system_id":"levelo_inurba_marseille","lat":43.315293,"lon":5.380349,"is_reserved":false,"is_disabled":false,"rental_uris":{"android":"levelo://app?vid=fa42125a-2b48-4e78-9b49-e4925096e263","ios":"levelo://app?vid=fa42125a-2b48-4e78-9b49-e4925096e263"},"vehicle_type_id":"4","last_reported":1703977598,"current_range_meters":10000,"station_id":"ce4bhsp2rcd13ifvqi50","pricing_plan_id":"free"},{"bike_id":"9030e957-1a0f-46ec-b66d-c018139363ee","system_id":"levelo_inurba_marseille","lat":43.301939,"lon":5.366286,"is_reserved":false,"is_disabled":false,"rental_uris":{"android":"levelo://app?vid=9030e957-1a0f-46ec-b66d-c018139363ee","ios":"levelo://app?vid=9030e957-1a0f-46ec-b66d-c018139363ee"},"vehicle_type_id":"4","last_reported":1703977598,"current_range_meters":30000,"station_id":"ce4bgrh2rcd13ifvqc8g","pricing_plan_id":"free"},{"bike_id":"9ac5bc2a-77aa-4411-9038-c55d7c79daf9","system_id":"levelo_inurba_marseille","lat":43.308,"lon":5.38145,"is_reserved":false,"is_disabled":false,"rental_uris":{"android":"levelo://app?vid=9ac5bc2a-77aa-4411-9038-c55d7c79daf9","ios":"levelo://app?vid=9ac5bc2a-77aa-4411-9038-c55d7c79daf9"},"vehicle_type_id":"4","last_reported":1703977598,"current_range_meters":13600,"station_id":"ce4bgt12rcd13ifvqce0","pricing_plan_id":"free"},{"bike_id":"c1c152b2-cc33-4c65-9df1-0d249a1a9868","system_id":"levelo_inurba_marseille","lat":43.308012,"lon":5.381511,"is_reserved":false,"is_disabled":false,"rental_uris":{"android":"levelo://app?vid=c1c152b2-cc33-4c65-9df1-0d249a1a9868","ios":"levelo://app?vid=c1c152b2-cc33-4c65-9df1-0d249a1a9868"},"vehicle_type_id":"4","last_reported":1703977598,"current_range_meters":22400,"station_id":"ce4bgt12rcd13ifvqce0","pricing_plan_id":"free"},{"bike_id":"ae301f64-08e0-43bc-a494-66085f8df053","system_id":"levelo_inurba_marseille","lat":43.308012,"lon":5.381511,"is_reserved":false,"is_disabled":false,"rental_uris":{"android":"levelo://app?vid=ae301f64-08e0-43bc-a494-66085f8df053","ios":"levelo://app?vid=ae301f64-08e0-43bc-a494-66085f8df053"},"vehicle_type_id":"4","last_reported":1703977598,"current_range_meters":30400,"station_id":"ce4bgt12rcd13ifvqce0","pricing_plan_id":"free"},{"bike_id":"9f4a4a6c-e398-4146-a840-73eaa248a6c7","system_id":"levelo_inurba_marseille","lat":43.308012,"lon":5.381511,"is_reserved":false,"is_disabled":false,"rental_uris":{"android":"levelo://app?vid=9f4a4a6c-e398-4146-a840-73eaa248a6c7","ios":"levelo://app?vid=9f4a4a6c-e398-4146-a840-73eaa248a6c7"},"vehicle_type_id":"4","last_reported":1703977598,"current_range_meters":20000,"station_id":"ce4bgt12rcd13ifvqce0","pricing_plan_id":"free"},{"bike_id":"42710a64-6e13-41e7-98e5-e51d7d6f4e3c","system_id":"levelo_inurba_marseille","lat":43.308012,"lon":5.381511,"is_reserved":false,"is_disabled":false,"rental_uris":{"android":"levelo://app?vid=42710a64-6e13-41e7-98e5-e51d7d6f4e3c","ios":"levelo://app?vid=42710a64-6e13-41e7-98e5-e51d7d6f4e3c"},"vehicle_type_id":"4","last_reported":1703977598,"current_range_meters":12800,"station_id":"ce4bgt12rcd13ifvqce0","pricing_plan_id":"free"},{"bike_id":"a6b08cc0-6a11-43f7-988d-1a546d3f5880","system_id":"levelo_inurba_marseille","lat":43.304606,"lon":5.379026,"is_reserved":false,"is_disabled":false,"rental_uris":{"android":"levelo://app?vid=a6b08cc0-6a11-43f7-988d-1a546d3f5880","ios":"levelo://app?vid=a6b08cc0-6a11-43f7-988d-1a546d3f5880"},"vehicle_type_id":"4","last_reported":1703977598,"current_range_meters":26800,"station_id":"ce4bgup2rcd13ifvqcn0","pricing_plan_id":"free"},{"bike_id":"e4dcb29d-6179-427e-822d-8621bcd08456","system_id":"levelo_inurba_marseille","lat":43.304708,"lon":5.379039,"is_reserved":false,"is_disabled":false,"rental_uris":{"android":"levelo://app?vid=e4dcb29d-6179-427e-822d-8621bcd08456","ios":"levelo://app?vid=e4dcb29d-6179-427e-822d-8621bcd08456"},"vehicle_type_id":"4","last_reported":1703977598,"current_range_meters":20800,"station_id":"","pricing_plan_id":"free"},{"bike_id":"43ac2794-2987-40ee-80e0-356544b81fcf","system_id":"levelo_inurba_marseille","lat":43.304606,"lon":5.379026,"is_reserved":false,"is_disabled":false,"rental_uris":{"android":"levelo://app?vid=43ac2794-2987-40ee-80e0-356544b81fcf","ios":"levelo://app?vid=43ac2794-2987-40ee-80e0-356544b81fcf"},"vehicle_type_id":"4","last_reported":1703977598,"current_range_meters":14800,"station_id":"ce4bgup2rcd13ifvqcn0","pricing_plan_id":"free"},{"bike_id":"cf7de832-7671-448c-8926-8c4cffc145a8","system_id":"levelo_inurba_marseille","lat":43.319935,"lon":5.381699,"is_reserved":false,"is_disabled":false,"rental_uris":{"android":"levelo://app?vid=cf7de832-7671-448c-8926-8c4cffc145a8","ios":"levelo://app?vid=cf7de832-7671-448c-8926-8c4cffc145a8"},"vehicle_type_id":"4","last_reported":1703977598,"current_range_meters":8000,"station_id":"ce4bhr12rcd13ifvqhpg","pricing_plan_id":"free"},{"bike_id":"b3f526e2-693a-475a-bacc-187135141c83","system_id":"levelo_inurba_marseille","lat":43.319935,"lon":5.381699,"is_reserved":false,"is_disabled":false,"rental_uris":{"android":"levelo://app?vid=b3f526e2-693a-475a-bacc-187135141c83","ios":"levelo://app?vid=b3f526e2-693a-475a-bacc-187135141c83"},"vehicle_type_id":"4","last_reported":1703977598,"current_range_meters":26400,"station_id":"ce4bhr12rcd13ifvqhpg","pricing_plan_id":"free"},{"bike_id":"7500c97d-9bf7-42bd-9502-7d8248cf6a90","system_id":"levelo_inurba_marseille","lat":43.313571,"lon":5.384829,"is_reserved":false,"is_disabled":false,"rental_uris":{"android":"levelo://app?vid=7500c97d-9bf7-42bd-9502-7d8248cf6a90","ios":"levelo://app?vid=7500c97d-9bf7-42bd-9502-7d8248cf6a90"},"vehicle_type_id":"4","last_reported":1703977598,"current_range_meters":23200,"station_id":"ce4bgt92rcd13ifvqcf0","pricing_plan_id":"free"},{"bike_id":"a38004ee-721c-4ebf-9263-150d7ec6133c","system_id":"levelo_inurba_marseille","lat":43.31361,"lon":5.38495,"is_reserved":false,"is_disabled":false,"rental_uris":{"android":"levelo://app?vid=a38004ee-721c-4ebf-9263-150d7ec6133c","ios":"levelo://app?vid=a38004ee-721c-4ebf-9263-150d7ec6133c"},"vehicle_type_id":"4","last_reported":1703977598,"current_range_meters":24400,"station_id":"ce4bgt92rcd13ifvqcf0","pricing_plan_id":"free"},{"bike_id":"c05d138a-9eaa-4578-84f8-5eb99c852b0c","system_id":"levelo_inurba_marseille","lat":43.299781,"lon":5.374276,"is_reserved":false,"is_disabled":false,"rental_uris":{"android":"levelo://app?vid=c05d138a-9eaa-4578-84f8-5eb99c852b0c","ios":"levelo://app?vid=c05d138a-9eaa-4578-84f8-5eb99c852b0c"},"vehicle_type_id":"4","last_reported":1703977598,"current_range_meters":6400,"station_id":"","pricing_plan_id":"free"},{"bike_id":"c0bba9cb-4ce0-4c34-aee3-db471da5bb16","system_id":"levelo_inurba_marseille","lat":43.305364,"lon":5.384119,"is_reserved":false,"is_disabled":false,"rental_uris":{"android":"levelo://app?vid=c0bba9cb-4ce0-4c34-aee3-db471da5bb16","ios":"levelo://app?vid=c0bba9cb-4ce0-4c34-aee3-db471da5bb16"},"vehicle_type_id":"4","last_reported":1703977598,"current_range_meters":18000,"station_id":"ce4bgg92rcd13ifvqb30","pricing_plan_id":"free"},{"bike_id":"3efc8b70-2bea-4ab5-a88e-58851c4f8fed","system_id":"levelo_inurba_marseille","lat":43.298433,"lon":5.362774,"is_reserved":false,"is_disabled":false,"rental_uris":{"android":"levelo://app?vid=3efc8b70-2bea-4ab5-a88e-58851c4f8fed","ios":"levelo://app?vid=3efc8b70-2bea-4ab5-a88e-58851c4f8fed"},"vehicle_type_id":"4","last_reported":1703977598,"current_range_meters":16400,"station_id":"ce4bgpp2rcd13ifvqc3g","pricing_plan_id":"free"},{"bike_id":"1b055bef-3706-4463-aeff-0c99e2b48564","system_id":"levelo_inurba_marseille","lat":43.305364,"lon":5.384119,"is_reserved":false,"is_disabled":false,"rental_uris":{"android":"levelo://app?vid=1b055bef-3706-4463-aeff-0c99e2b48564","ios":"levelo://app?vid=1b055bef-3706-4463-aeff-0c99e2b48564"},"vehicle_type_id":"4","last_reported":1703977598,"current_range_meters":27200,"station_id":"ce4bgg92rcd13ifvqb30","pricing_plan_id":"free"},{"bike_id":"85e03976-891e-40ac-9ec1-17cd2e562c8b","system_id":"levelo_inurba_marseille","lat":43.305364,"lon":5.384119,"is_reserved":false,"is_disabled":false,"rental_uris":{"android":"levelo://app?vid=85e03976-891e-40ac-9ec1-17cd2e562c8b","ios":"levelo://app?vid=85e03976-891e-40ac-9ec1-17cd2e562c8b"},"vehicle_type_id":"4","last_reported":1703977598,"current_range_meters":21200,"station_id":"ce4bgg92rcd13ifvqb30","pricing_plan_id":"free"},{"bike_id":"dc4b106d-c80d-4bd8-8ab9-5f1e1b429e00","system_id":"levelo_inurba_marseille","lat":43.311722,"lon":5.387247,"is_reserved":false,"is_disabled":false,"rental_uris":{"android":"levelo://app?vid=dc4b106d-c80d-4bd8-8ab9-5f1e1b429e00","ios":"levelo://app?vid=dc4b106d-c80d-4bd8-8ab9-5f1e1b429e00"},"vehicle_type_id":"4","last_reported":1703977598,"current_range_meters":26800,"station_id":"ce4bgv12rcd13ifvqcp0","pricing_plan_id":"free"},{"bike_id":"fdc0b565-20a1-493e-9668-b0fcc5598c2d","system_id":"levelo_inurba_marseille","lat":43.311722,"lon":5.387247,"is_reserved":false,"is_disabled":false,"rental_uris":{"android":"levelo://app?vid=fdc0b565-20a1-493e-9668-b0fcc5598c2d","ios":"levelo://app?vid=fdc0b565-20a1-493e-9668-b0fcc5598c2d"},"vehicle_type_id":"4","last_reported":1703977598,"current_range_meters":24000,"station_id":"ce4bgv12rcd13ifvqcp0","pricing_plan_id":"free"},{"bike_id":"4911eca9-9de5-440b-99c2-f0b5109ca9e7","system_id":"levelo_inurba_marseille","lat":43.311722,"lon":5.387247,"is_reserved":false,"is_disabled":false,"rental_uris":{"android":"levelo://app?vid=4911eca9-9de5-440b-99c2-f0b5109ca9e7","ios":"levelo://app?vid=4911eca9-9de5-440b-99c2-f0b5109ca9e7"},"vehicle_type_id":"4","last_reported":1703977598,"current_range_meters":25200,"station_id":"ce4bgv12rcd13ifvqcp0","pricing_plan_id":"free"},{"bike_id":"8e3c1396-3ebb-449b-b96d-9dc92db64366","system_id":"levelo_inurba_marseille","lat":43.311722,"lon":5.387247,"is_reserved":false,"is_disabled":false,"rental_uris":{"android":"levelo://app?vid=8e3c1396-3ebb-449b-b96d-9dc92db64366","ios":"levelo://app?vid=8e3c1396-3ebb-449b-b96d-9dc92db64366"},"vehicle_type_id":"4","last_reported":1703977598,"current_range_meters":20400,"station_id":"ce4bgv12rcd13ifvqcp0","pricing_plan_id":"free"},{"bike_id":"5f628256-6b8a-462d-bc50-6979c994c9a6","system_id":"levelo_inurba_marseille","lat":43.311722,"lon":5.387247,"is_reserved":false,"is_disabled":false,"rental_uris":{"android":"levelo://app?vid=5f628256-6b8a-462d-bc50-6979c994c9a6","ios":"levelo://app?vid=5f628256-6b8a-462d-bc50-6979c994c9a6"},"vehicle_type_id":"4","last_reported":1703977598,"current_range_meters":21200,"station_id":"ce4bgv12rcd13ifvqcp0","pricing_plan_id":"free"},{"bike_id":"c8810852-277f-44f2-a712-d1c79f44e282","system_id":"levelo_inurba_marseille","lat":43.297794,"lon":5.370888,"is_reserved":false,"is_disabled":false,"rental_uris":{"android":"levelo://app?vid=c8810852-277f-44f2-a712-d1c79f44e282","ios":"levelo://app?vid=c8810852-277f-44f2-a712-d1c79f44e282"},"vehicle_type_id":"4","last_reported":1703977598,"current_range_meters":0,"station_id":"ce4bgop2rcd13ifvqc1g","pricing_plan_id":"free"},{"bike_id":"78b2282b-b46b-4494-bc4d-0783d9b9b106","system_id":"levelo_inurba_marseille","lat":43.322872,"lon":5.382756,"is_reserved":false,"is_disabled":false,"rental_uris":{"android":"levelo://app?vid=78b2282b-b46b-4494-bc4d-0783d9b9b106","ios":"levelo://app?vid=78b2282b-b46b-4494-bc4d-0783d9b9b106"},"vehicle_type_id":"4","last_reported":1703977598,"current_range_meters":25600,"station_id":"ce4bhr12rcd13ifvqhqg","pricing_plan_id":"free"},{"bike_id":"2154e13a-10ef-4d79-b4f3-a92c055765e5","system_id":"levelo_inurba_marseille","lat":43.322872,"lon":5.382756,"is_reserved":false,"is_disabled":false,"rental_uris":{"android":"levelo://app?vid=2154e13a-10ef-4d79-b4f3-a92c055765e5","ios":"levelo://app?vid=2154e13a-10ef-4d79-b4f3-a92c055765e5"},"vehicle_type_id":"4","last_reported":1703977598,"current_range_meters":31200,"station_id":"ce4bhr12rcd13ifvqhqg","pricing_plan_id":"free"},{"bike_id":"51714c4a-3132-4951-88ec-80e85fa125e8","system_id":"levelo_inurba_marseille","lat":43.32822,"lon":5.36684,"is_reserved":false,"is_disabled":false,"rental_uris":{"android":"levelo://app?vid=51714c4a-3132-4951-88ec-80e85fa125e8","ios":"levelo://app?vid=51714c4a-3132-4951-88ec-80e85fa125e8"},"vehicle_type_id":"4","last_reported":1703977598,"current_range_meters":8000,"station_id":"ce4bhs92rcd13ifvqi0g","pricing_plan_id":"free"},{"bike_id":"3406ac08-144e-419c-8a8c-9c89910b5b78","system_id":"levelo_inurba_marseille","lat":43.32824,"lon":5.36685,"is_reserved":false,"is_disabled":false,"rental_uris":{"android":"levelo://app?vid=3406ac08-144e-419c-8a8c-9c89910b5b78","ios":"levelo://app?vid=3406ac08-144e-419c-8a8c-9c89910b5b78"},"vehicle_type_id":"4","last_reported":1703977598,"current_range_meters":8400,"station_id":"ce4bhs92rcd13ifvqi0g","pricing_plan_id":"free"},{"bike_id":"a677cd10-a09b-4b2e-bffd-45b05d2c9229","system_id":"levelo_inurba_marseille","lat":43.32824,"lon":5.36677,"is_reserved":false,"is_disabled":false,"rental_uris":{"android":"levelo://app?vid=a677cd10-a09b-4b2e-bffd-45b05d2c9229","ios":"levelo://app?vid=a677cd10-a09b-4b2e-bffd-45b05d2c9229"},"vehicle_type_id":"4","last_reported":1703977598,"current_range_meters":16400,"station_id":"ce4bhs92rcd13ifvqi0g","pricing_plan_id":"free"},{"bike_id":"b30b3d1b-ef61-4776-bd7b-61c34fd8cc81","system_id":"levelo_inurba_marseille","lat":43.32825,"lon":5.36687,"is_reserved":false,"is_disabled":false,"rental_uris":{"android":"levelo://app?vid=b30b3d1b-ef61-4776-bd7b-61c34fd8cc81","ios":"levelo://app?vid=b30b3d1b-ef61-4776-bd7b-61c34fd8cc81"},"vehicle_type_id":"4","last_reported":1703977598,"current_range_meters":5200,"station_id":"ce4bhs92rcd13ifvqi0g","pricing_plan_id":"free"},{"bike_id":"43517afb-7930-42e8-a305-e900a3000a28","system_id":"levelo_inurba_marseille","lat":43.32825,"lon":5.36679,"is_reserved":false,"is_disabled":false,"rental_uris":{"android":"levelo://app?vid=43517afb-7930-42e8-a305-e900a3000a28","ios":"levelo://app?vid=43517afb-7930-42e8-a305-e900a3000a28"},"vehicle_type_id":"4","last_reported":1703977598,"current_range_meters":18800,"station_id":"ce4bhs92rcd13ifvqi0g","pricing_plan_id":"free"},{"bike_id":"5c89eee7-6e83-42b4-bd81-efdcf68f6666","system_id":"levelo_inurba_marseille","lat":43.328266,"lon":5.366796,"is_reserved":false,"is_disabled":false,"rental_uris":{"android":"levelo://app?vid=5c89eee7-6e83-42b4-bd81-efdcf68f6666","ios":"levelo://app?vid=5c89eee7-6e83-42b4-bd81-efdcf68f6666"},"vehicle_type_id":"4","last_reported":1703977598,"current_range_meters":4400,"station_id":"ce4bhs92rcd13ifvqi0g","pricing_plan_id":"free"},{"bike_id":"74ff96ff-c851-4d57-8883-0d7347bd471f","system_id":"levelo_inurba_marseille","lat":43.32827,"lon":5.36686,"is_reserved":false,"is_disabled":false,"rental_uris":{"android":"levelo://app?vid=74ff96ff-c851-4d57-8883-0d7347bd471f","ios":"levelo://app?vid=74ff96ff-c851-4d57-8883-0d7347bd471f"},"vehicle_type_id":"4","last_reported":1703977598,"current_range_meters":29200,"station_id":"ce4bhs92rcd13ifvqi0g","pricing_plan_id":"free"},{"bike_id":"9d832f49-b330-492c-bca5-26b211dfab4e","system_id":"levelo_inurba_marseille","lat":43.328296,"lon":5.366871,"is_reserved":false,"is_disabled":false,"rental_uris":{"android":"levelo://app?vid=9d832f49-b330-492c-bca5-26b211dfab4e","ios":"levelo://app?vid=9d832f49-b330-492c-bca5-26b211dfab4e"},"vehicle_type_id":"4","last_reported":1703977598,"current_range_meters":18400,"station_id":"ce4bhs92rcd13ifvqi0g","pricing_plan_id":"free"},{"bike_id":"ea7074d7-b7c9-4941-82c2-dff391bae9cb","system_id":"levelo_inurba_marseille","lat":43.3283,"lon":5.36681,"is_reserved":false,"is_disabled":false,"rental_uris":{"android":"levelo://app?vid=ea7074d7-b7c9-4941-82c2-dff391bae9cb","ios":"levelo://app?vid=ea7074d7-b7c9-4941-82c2-dff391bae9cb"},"vehicle_type_id":"4","last_reported":1703977598,"current_range_meters":27200,"station_id":"ce4bhs92rcd13ifvqi0g","pricing_plan_id":"free"},{"bike_id":"a448ca86-2b35-41e1-89c4-32a99bab0563","system_id":"levelo_inurba_marseille","lat":43.328371,"lon":5.366912,"is_reserved":false,"is_disabled":false,"rental_uris":{"android":"levelo://app?vid=a448ca86-2b35-41e1-89c4-32a99bab0563","ios":"levelo://app?vid=a448ca86-2b35-41e1-89c4-32a99bab0563"},"vehicle_type_id":"4","last_reported":1703977598,"current_range_meters":13200,"station_id":"ce4bhs92rcd13ifvqi0g","pricing_plan_id":"free"},{"bike_id":"537ad82d-fe09-4a7c-a860-bfa3199eb24c","system_id":"levelo_inurba_marseille","lat":43.297163,"lon":5.365866,"is_reserved":false,"is_disabled":false,"rental_uris":{"android":"levelo://app?vid=537ad82d-fe09-4a7c-a860-bfa3199eb24c","ios":"levelo://app?vid=537ad82d-fe09-4a7c-a860-bfa3199eb24c"},"vehicle_type_id":"4","last_reported":1703977598,"current_range_meters":21600,"station_id":"ce4bgn12rcd13ifvqbt0","pricing_plan_id":"free"},{"bike_id":"7aa6a530-3ac6-4ec6-a447-a7bf4c489e07","system_id":"levelo_inurba_marseille","lat":43.32833,"lon":5.36688,"is_reserved":false,"is_disabled":false,"rental_uris":{"android":"levelo://app?vid=7aa6a530-3ac6-4ec6-a447-a7bf4c489e07","ios":"levelo://app?vid=7aa6a530-3ac6-4ec6-a447-a7bf4c489e07"},"vehicle_type_id":"4","last_reported":1703977598,"current_range_meters":18400,"station_id":"ce4bhs92rcd13ifvqi0g","pricing_plan_id":"free"},{"bike_id":"904f83aa-e9ab-401d-84c1-9edfed82b884","system_id":"levelo_inurba_marseille","lat":43.32833,"lon":5.36684,"is_reserved":false,"is_disabled":false,"rental_uris":{"android":"levelo://app?vid=904f83aa-e9ab-401d-84c1-9edfed82b884","ios":"levelo://app?vid=904f83aa-e9ab-401d-84c1-9edfed82b884"},"vehicle_type_id":"4","last_reported":1703977598,"current_range_meters":24400,"station_id":"ce4bhs92rcd13ifvqi0g","pricing_plan_id":"free"},{"bike_id":"593aab20-131a-4608-a0d0-42331260c100","system_id":"levelo_inurba_marseille","lat":43.297163,"lon":5.365866,"is_reserved":false,"is_disabled":false,"rental_uris":{"android":"levelo://app?vid=593aab20-131a-4608-a0d0-42331260c100","ios":"levelo://app?vid=593aab20-131a-4608-a0d0-42331260c100"},"vehicle_type_id":"4","last_reported":1703977598,"current_range_meters":25600,"station_id":"ce4bgn12rcd13ifvqbt0","pricing_plan_id":"free"},{"bike_id":"c99c1421-6c70-45e1-a99f-19afba82ca69","system_id":"levelo_inurba_marseille","lat":43.328416,"lon":5.366872,"is_reserved":false,"is_disabled":false,"rental_uris":{"android":"levelo://app?vid=c99c1421-6c70-45e1-a99f-19afba82ca69","ios":"levelo://app?vid=c99c1421-6c70-45e1-a99f-19afba82ca69"},"vehicle_type_id":"4","last_reported":1703977598,"current_range_meters":24400,"station_id":"ce4bhs92rcd13ifvqi0g","pricing_plan_id":"free"},{"bike_id":"370cccf7-c9ba-46c2-819b-c8e8cacc4c21","system_id":"levelo_inurba_marseille","lat":43.3277,"lon":5.37458,"is_reserved":false,"is_disabled":false,"rental_uris":{"android":"levelo://app?vid=370cccf7-c9ba-46c2-819b-c8e8cacc4c21","ios":"levelo://app?vid=370cccf7-c9ba-46c2-819b-c8e8cacc4c21"},"vehicle_type_id":"4","last_reported":1703977598,"current_range_meters":12800,"station_id":"","pricing_plan_id":"free"},{"bike_id":"921b424d-ad0d-4c7a-9d74-66e3a49bfa19","system_id":"levelo_inurba_marseille","lat":43.32934,"lon":5.36612,"is_reserved":false,"is_disabled":false,"rental_uris":{"android":"levelo://app?vid=921b424d-ad0d-4c7a-9d74-66e3a49bfa19","ios":"levelo://app?vid=921b424d-ad0d-4c7a-9d74-66e3a49bfa19"},"vehicle_type_id":"4","last_reported":1703977598,"current_range_meters":4000,"station_id":"","pricing_plan_id":"free"},{"bike_id":"79029ab8-31a8-4ed7-9239-bd60b5734ac5","system_id":"levelo_inurba_marseille","lat":43.2962,"lon":5.37163,"is_reserved":false,"is_disabled":false,"rental_uris":{"android":"levelo://app?vid=79029ab8-31a8-4ed7-9239-bd60b5734ac5","ios":"levelo://app?vid=79029ab8-31a8-4ed7-9239-bd60b5734ac5"},"vehicle_type_id":"4","last_reported":1703977598,"current_range_meters":0,"station_id":"ce4bgnh2rcd13ifvqc0g","pricing_plan_id":"free"},{"bike_id":"805ea9cb-00a1-4e15-afb0-c8d2a751faf7","system_id":"levelo_inurba_marseille","lat":43.299028,"lon":5.381509,"is_reserved":false,"is_disabled":false,"rental_uris":{"android":"levelo://app?vid=805ea9cb-00a1-4e15-afb0-c8d2a751faf7","ios":"levelo://app?vid=805ea9cb-00a1-4e15-afb0-c8d2a751faf7"},"vehicle_type_id":"4","last_reported":1703977598,"current_range_meters":26400,"station_id":"ce4bgj12rcd13ifvqbc0","pricing_plan_id":"free"},{"bike_id":"776fd869-f7c2-4fc9-b795-82bacf0a478c","system_id":"levelo_inurba_marseille","lat":43.317557,"lon":5.390173,"is_reserved":false,"is_disabled":false,"rental_uris":{"android":"levelo://app?vid=776fd869-f7c2-4fc9-b795-82bacf0a478c","ios":"levelo://app?vid=776fd869-f7c2-4fc9-b795-82bacf0a478c"},"vehicle_type_id":"4","last_reported":1703977598,"current_range_meters":24400,"station_id":"ce4bhqp2rcd13ifvqhng","pricing_plan_id":"free"},{"bike_id":"99908e46-37a9-41cf-99cb-dba921b44ce3","system_id":"levelo_inurba_marseille","lat":43.317557,"lon":5.390173,"is_reserved":false,"is_disabled":false,"rental_uris":{"android":"levelo://app?vid=99908e46-37a9-41cf-99cb-dba921b44ce3","ios":"levelo://app?vid=99908e46-37a9-41cf-99cb-dba921b44ce3"},"vehicle_type_id":"4","last_reported":1703977598,"current_range_meters":28800,"station_id":"ce4bhqp2rcd13ifvqhng","pricing_plan_id":"free"},{"bike_id":"b6f6f444-165b-4190-86d8-511f2ff8edaa","system_id":"levelo_inurba_marseille","lat":43.298037,"lon":5.381066,"is_reserved":false,"is_disabled":false,"rental_uris":{"android":"levelo://app?vid=b6f6f444-165b-4190-86d8-511f2ff8edaa","ios":"levelo://app?vid=b6f6f444-165b-4190-86d8-511f2ff8edaa"},"vehicle_type_id":"4","last_reported":1703977598,"current_range_meters":14400,"station_id":"ce4bgip2rcd13ifvqbb0","pricing_plan_id":"free"},{"bike_id":"aaec8ba1-4282-4bb5-81a2-a212b64f476f","system_id":"levelo_inurba_marseille","lat":43.304274,"lon":5.388873,"is_reserved":false,"is_disabled":false,"rental_uris":{"android":"levelo://app?vid=aaec8ba1-4282-4bb5-81a2-a212b64f476f","ios":"levelo://app?vid=aaec8ba1-4282-4bb5-81a2-a212b64f476f"},"vehicle_type_id":"4","last_reported":1703977598,"current_range_meters":19600,"station_id":"ce4bgk12rcd13ifvqbi0","pricing_plan_id":"free"},{"bike_id":"febadaf6-aa30-482f-96d6-b4a7ca5d8817","system_id":"levelo_inurba_marseille","lat":43.298037,"lon":5.381066,"is_reserved":false,"is_disabled":false,"rental_uris":{"android":"levelo://app?vid=febadaf6-aa30-482f-96d6-b4a7ca5d8817","ios":"levelo://app?vid=febadaf6-aa30-482f-96d6-b4a7ca5d8817"},"vehicle_type_id":"4","last_reported":1703977598,"current_range_meters":16400,"station_id":"ce4bgip2rcd13ifvqbb0","pricing_plan_id":"free"},{"bike_id":"fa03066f-3d56-47ba-a7fe-33e8441cafcd","system_id":"levelo_inurba_marseille","lat":43.296263,"lon":5.377094,"is_reserved":false,"is_disabled":false,"rental_uris":{"android":"levelo://app?vid=fa03066f-3d56-47ba-a7fe-33e8441cafcd","ios":"levelo://app?vid=fa03066f-3d56-47ba-a7fe-33e8441cafcd"},"vehicle_type_id":"4","last_reported":1703977598,"current_range_meters":29200,"station_id":"ce4bgi92rcd13ifvqb90","pricing_plan_id":"free"},{"bike_id":"d60802d6-4f47-444a-b234-883690eec05b","system_id":"levelo_inurba_marseille","lat":43.33062,"lon":5.3627,"is_reserved":false,"is_disabled":false,"rental_uris":{"android":"levelo://app?vid=d60802d6-4f47-444a-b234-883690eec05b","ios":"levelo://app?vid=d60802d6-4f47-444a-b234-883690eec05b"},"vehicle_type_id":"4","last_reported":1703977598,"current_range_meters":25600,"station_id":"","pricing_plan_id":"free"},{"bike_id":"7119845d-00aa-4d9f-be8c-fc97d41f1380","system_id":"levelo_inurba_marseille","lat":43.297594,"lon":5.381134,"is_reserved":false,"is_disabled":false,"rental_uris":{"android":"levelo://app?vid=7119845d-00aa-4d9f-be8c-fc97d41f1380","ios":"levelo://app?vid=7119845d-00aa-4d9f-be8c-fc97d41f1380"},"vehicle_type_id":"4","last_reported":1703977598,"current_range_meters":14000,"station_id":"ce4bgip2rcd13ifvqbb0","pricing_plan_id":"free"},{"bike_id":"322ea5a9-7782-400e-b2c2-88a09e1d7dd0","system_id":"levelo_inurba_marseille","lat":43.295279,"lon":5.375048,"is_reserved":false,"is_disabled":false,"rental_uris":{"android":"levelo://app?vid=322ea5a9-7782-400e-b2c2-88a09e1d7dd0","ios":"levelo://app?vid=322ea5a9-7782-400e-b2c2-88a09e1d7dd0"},"vehicle_type_id":"4","last_reported":1703977598,"current_range_meters":27200,"station_id":"ce4bgkp2rcd13ifvqbmg","pricing_plan_id":"free"},{"bike_id":"cb15adf0-73c6-448d-9f02-c1d7d5b3fc2e","system_id":"levelo_inurba_marseille","lat":43.299707,"lon":5.384859,"is_reserved":false,"is_disabled":false,"rental_uris":{"android":"levelo://app?vid=cb15adf0-73c6-448d-9f02-c1d7d5b3fc2e","ios":"levelo://app?vid=cb15adf0-73c6-448d-9f02-c1d7d5b3fc2e"},"vehicle_type_id":"4","last_reported":1703977598,"current_range_meters":1600,"station_id":"ce4bgj92rcd13ifvqbd0","pricing_plan_id":"free"},{"bike_id":"2a71bd69-a71c-4001-947b-0d63d0aa6465","system_id":"levelo_inurba_marseille","lat":43.299717,"lon":5.384845,"is_reserved":false,"is_disabled":false,"rental_uris":{"android":"levelo://app?vid=2a71bd69-a71c-4001-947b-0d63d0aa6465","ios":"levelo://app?vid=2a71bd69-a71c-4001-947b-0d63d0aa6465"},"vehicle_type_id":"4","last_reported":1703977598,"current_range_meters":8400,"station_id":"ce4bgj92rcd13ifvqbd0","pricing_plan_id":"free"},{"bike_id":"6dc8b67f-7677-4649-90b5-6c004787a94e","system_id":"levelo_inurba_marseille","lat":43.32367,"lon":5.388836,"is_reserved":false,"is_disabled":false,"rental_uris":{"android":"levelo://app?vid=6dc8b67f-7677-4649-90b5-6c004787a94e","ios":"levelo://app?vid=6dc8b67f-7677-4649-90b5-6c004787a94e"},"vehicle_type_id":"4","last_reported":1703977598,"current_range_meters":14000,"station_id":"ce4bhqp2rcd13ifvqhog","pricing_plan_id":"free"},{"bike_id":"c472997c-8921-4240-9407-9bbb195b44d8","system_id":"levelo_inurba_marseille","lat":43.32367,"lon":5.388836,"is_reserved":false,"is_disabled":false,"rental_uris":{"android":"levelo://app?vid=c472997c-8921-4240-9407-9bbb195b44d8","ios":"levelo://app?vid=c472997c-8921-4240-9407-9bbb195b44d8"},"vehicle_type_id":"4","last_reported":1703977598,"current_range_meters":0,"station_id":"ce4bhqp2rcd13ifvqhog","pricing_plan_id":"free"},{"bike_id":"21c35184-2cff-45c5-a579-0cd18467e694","system_id":"levelo_inurba_marseille","lat":43.32367,"lon":5.388836,"is_reserved":false,"is_disabled":false,"rental_uris":{"android":"levelo://app?vid=21c35184-2cff-45c5-a579-0cd18467e694","ios":"levelo://app?vid=21c35184-2cff-45c5-a579-0cd18467e694"},"vehicle_type_id":"4","last_reported":1703977598,"current_range_meters":7600,"station_id":"ce4bhqp2rcd13ifvqhog","pricing_plan_id":"free"},{"bike_id":"122ea523-742e-4de1-aad4-693e2611c6b8","system_id":"levelo_inurba_marseille","lat":43.32367,"lon":5.388836,"is_reserved":false,"is_disabled":false,"rental_uris":{"android":"levelo://app?vid=122ea523-742e-4de1-aad4-693e2611c6b8","ios":"levelo://app?vid=122ea523-742e-4de1-aad4-693e2611c6b8"},"vehicle_type_id":"4","last_reported":1703977598,"current_range_meters":5600,"station_id":"ce4bhqp2rcd13ifvqhog","pricing_plan_id":"free"},{"bike_id":"fdba10d6-6c0f-4aa0-aa2d-a60cd34dc728","system_id":"levelo_inurba_marseille","lat":43.32367,"lon":5.388836,"is_reserved":false,"is_disabled":false,"rental_uris":{"android":"levelo://app?vid=fdba10d6-6c0f-4aa0-aa2d-a60cd34dc728","ios":"levelo://app?vid=fdba10d6-6c0f-4aa0-aa2d-a60cd34dc728"},"vehicle_type_id":"4","last_reported":1703977598,"current_range_meters":13600,"station_id":"ce4bhqp2rcd13ifvqhog","pricing_plan_id":"free"},{"bike_id":"cab4be3a-9c9d-4731-a7e7-82558a984644","system_id":"levelo_inurba_marseille","lat":43.293259,"lon":5.371586,"is_reserved":false,"is_disabled":false,"rental_uris":{"android":"levelo://app?vid=cab4be3a-9c9d-4731-a7e7-82558a984644","ios":"levelo://app?vid=cab4be3a-9c9d-4731-a7e7-82558a984644"},"vehicle_type_id":"4","last_reported":1703977598,"current_range_meters":26400,"station_id":"ce4bgh92rcd13ifvqb40","pricing_plan_id":"free"},{"bike_id":"bbd13049-be27-4ce0-a696-2463e1929165","system_id":"levelo_inurba_marseille","lat":43.293259,"lon":5.371586,"is_reserved":false,"is_disabled":false,"rental_uris":{"android":"levelo://app?vid=bbd13049-be27-4ce0-a696-2463e1929165","ios":"levelo://app?vid=bbd13049-be27-4ce0-a696-2463e1929165"},"vehicle_type_id":"4","last_reported":1703977598,"current_range_meters":10800,"station_id":"ce4bgh92rcd13ifvqb40","pricing_plan_id":"free"},{"bike_id":"9cd04b80-893c-4bf0-86bf-e24f0426ac89","system_id":"levelo_inurba_marseille","lat":43.305994,"lon":5.393687,"is_reserved":false,"is_disabled":false,"rental_uris":{"android":"levelo://app?vid=9cd04b80-893c-4bf0-86bf-e24f0426ac89","ios":"levelo://app?vid=9cd04b80-893c-4bf0-86bf-e24f0426ac89"},"vehicle_type_id":"4","last_reported":1703977598,"current_range_meters":16000,"station_id":"ce4bh0p2rcd13ifvqd80","pricing_plan_id":"free"},{"bike_id":"32126314-c887-4c76-9350-02af730d593c","system_id":"levelo_inurba_marseille","lat":43.303002,"lon":5.392142,"is_reserved":false,"is_disabled":false,"rental_uris":{"android":"levelo://app?vid=32126314-c887-4c76-9350-02af730d593c","ios":"levelo://app?vid=32126314-c887-4c76-9350-02af730d593c"},"vehicle_type_id":"4","last_reported":1703977598,"current_range_meters":16800,"station_id":"ce4bgkh2rcd13ifvqbk0","pricing_plan_id":"free"},{"bike_id":"8b592588-c77a-4aed-8925-c5cee8ecb2c4","system_id":"levelo_inurba_marseille","lat":43.302992,"lon":5.392136,"is_reserved":false,"is_disabled":false,"rental_uris":{"android":"levelo://app?vid=8b592588-c77a-4aed-8925-c5cee8ecb2c4","ios":"levelo://app?vid=8b592588-c77a-4aed-8925-c5cee8ecb2c4"},"vehicle_type_id":"4","last_reported":1703977598,"current_range_meters":27200,"station_id":"ce4bgkh2rcd13ifvqbk0","pricing_plan_id":"free"},{"bike_id":"ae142509-d25d-44f3-b222-815b202bb211","system_id":"levelo_inurba_marseille","lat":43.302992,"lon":5.392136,"is_reserved":false,"is_disabled":false,"rental_uris":{"android":"levelo://app?vid=ae142509-d25d-44f3-b222-815b202bb211","ios":"levelo://app?vid=ae142509-d25d-44f3-b222-815b202bb211"},"vehicle_type_id":"4","last_reported":1703977598,"current_range_meters":800,"station_id":"ce4bgkh2rcd13ifvqbk0","pricing_plan_id":"free"},{"bike_id":"2da1ed21-bb39-467e-b66c-5d6bf4465df8","system_id":"levelo_inurba_marseille","lat":43.298661,"lon":5.389146,"is_reserved":false,"is_disabled":false,"rental_uris":{"android":"levelo://app?vid=2da1ed21-bb39-467e-b66c-5d6bf4465df8","ios":"levelo://app?vid=2da1ed21-bb39-467e-b66c-5d6bf4465df8"},"vehicle_type_id":"4","last_reported":1703977598,"current_range_meters":23200,"station_id":"","pricing_plan_id":"free"},{"bike_id":"dc86c63f-e497-4dc4-b167-4862199c82e7","system_id":"levelo_inurba_marseille","lat":43.309038,"lon":5.396546,"is_reserved":false,"is_disabled":false,"rental_uris":{"android":"levelo://app?vid=dc86c63f-e497-4dc4-b167-4862199c82e7","ios":"levelo://app?vid=dc86c63f-e497-4dc4-b167-4862199c82e7"},"vehicle_type_id":"4","last_reported":1703977598,"current_range_meters":18000,"station_id":"ce4bh012rcd13ifvqcv0","pricing_plan_id":"free"},{"bike_id":"5cf30968-0f7d-4d59-becc-64e3e994078f","system_id":"levelo_inurba_marseille","lat":43.313291,"lon":5.396838,"is_reserved":false,"is_disabled":false,"rental_uris":{"android":"levelo://app?vid=5cf30968-0f7d-4d59-becc-64e3e994078f","ios":"levelo://app?vid=5cf30968-0f7d-4d59-becc-64e3e994078f"},"vehicle_type_id":"4","last_reported":1703977598,"current_range_meters":28000,"station_id":"ce4bgvp2rcd13ifvqcu0","pricing_plan_id":"free"},{"bike_id":"a08d5d7e-1bce-4b74-8609-02c4624afbd1","system_id":"levelo_inurba_marseille","lat":43.313291,"lon":5.396838,"is_reserved":false,"is_disabled":false,"rental_uris":{"android":"levelo://app?vid=a08d5d7e-1bce-4b74-8609-02c4624afbd1","ios":"levelo://app?vid=a08d5d7e-1bce-4b74-8609-02c4624afbd1"},"vehicle_type_id":"4","last_reported":1703977598,"current_range_meters":26400,"station_id":"ce4bgvp2rcd13ifvqcu0","pricing_plan_id":"free"},{"bike_id":"8a5fefa3-01d9-4ec8-a9d6-78ce65169760","system_id":"levelo_inurba_marseille","lat":43.29529,"lon":5.385581,"is_reserved":false,"is_disabled":false,"rental_uris":{"android":"levelo://app?vid=8a5fefa3-01d9-4ec8-a9d6-78ce65169760","ios":"levelo://app?vid=8a5fefa3-01d9-4ec8-a9d6-78ce65169760"},"vehicle_type_id":"4","last_reported":1703977598,"current_range_meters":20400,"station_id":"ce4bgih2rcd13ifvqba0","pricing_plan_id":"free"},{"bike_id":"8f828561-201b-4ca9-9553-0d71f4b2b313","system_id":"levelo_inurba_marseille","lat":43.292571,"lon":5.409107,"is_reserved":false,"is_disabled":false,"rental_uris":{"android":"levelo://app?vid=8f828561-201b-4ca9-9553-0d71f4b2b313","ios":"levelo://app?vid=8f828561-201b-4ca9-9553-0d71f4b2b313"},"vehicle_type_id":"4","last_reported":1703977598,"current_range_meters":24400,"station_id":"ce4bh192rcd13ifvqdc0","pricing_plan_id":"free"},{"bike_id":"ee80da89-509b-412d-a6f1-c30e53303b8e","system_id":"levelo_inurba_marseille","lat":43.290779,"lon":5.371482,"is_reserved":false,"is_disabled":false,"rental_uris":{"android":"levelo://app?vid=ee80da89-509b-412d-a6f1-c30e53303b8e","ios":"levelo://app?vid=ee80da89-509b-412d-a6f1-c30e53303b8e"},"vehicle_type_id":"4","last_reported":1703977598,"current_range_meters":6000,"station_id":"ce4bh5p2rcd13ifvqe4g","pricing_plan_id":"free"},{"bike_id":"460d343b-b96a-4697-b435-3845d47aea53","system_id":"levelo_inurba_marseille","lat":43.302008,"lon":5.394694,"is_reserved":false,"is_disabled":false,"rental_uris":{"android":"levelo://app?vid=460d343b-b96a-4697-b435-3845d47aea53","ios":"levelo://app?vid=460d343b-b96a-4697-b435-3845d47aea53"},"vehicle_type_id":"4","last_reported":1703977598,"current_range_meters":1600,"station_id":"ce4bh0p2rcd13ifvqd70","pricing_plan_id":"free"},{"bike_id":"3d55334e-0903-45ef-8ae3-5f4fef5a4650","system_id":"levelo_inurba_marseille","lat":43.290631,"lon":5.359244,"is_reserved":false,"is_disabled":false,"rental_uris":{"android":"levelo://app?vid=3d55334e-0903-45ef-8ae3-5f4fef5a4650","ios":"levelo://app?vid=3d55334e-0903-45ef-8ae3-5f4fef5a4650"},"vehicle_type_id":"4","last_reported":1703977598,"current_range_meters":24800,"station_id":"ce4bha92rcd13ifvqeg0","pricing_plan_id":"free"},{"bike_id":"46c0c1c8-d843-40ca-a632-1f84051e4707","system_id":"levelo_inurba_marseille","lat":43.29045,"lon":5.37565,"is_reserved":false,"is_disabled":false,"rental_uris":{"android":"levelo://app?vid=46c0c1c8-d843-40ca-a632-1f84051e4707","ios":"levelo://app?vid=46c0c1c8-d843-40ca-a632-1f84051e4707"},"vehicle_type_id":"4","last_reported":1703977598,"current_range_meters":4000,"station_id":"ce4bh692rcd13ifvqe90","pricing_plan_id":"free"},{"bike_id":"9f8a1108-63f1-44bd-a253-118f8dd8f2e5","system_id":"levelo_inurba_marseille","lat":43.294162,"lon":5.386292,"is_reserved":false,"is_disabled":false,"rental_uris":{"android":"levelo://app?vid=9f8a1108-63f1-44bd-a253-118f8dd8f2e5","ios":"levelo://app?vid=9f8a1108-63f1-44bd-a253-118f8dd8f2e5"},"vehicle_type_id":"4","last_reported":1703977598,"current_range_meters":27200,"station_id":"ce4bh2h2rcd13ifvqdh0","pricing_plan_id":"free"},{"bike_id":"8d32155d-c205-48e5-af66-f691c3c98029","system_id":"levelo_inurba_marseille","lat":43.289184,"lon":5.366408,"is_reserved":false,"is_disabled":false,"rental_uris":{"android":"levelo://app?vid=8d32155d-c205-48e5-af66-f691c3c98029","ios":"levelo://app?vid=8d32155d-c205-48e5-af66-f691c3c98029"},"vehicle_type_id":"4","last_reported":1703977598,"current_range_meters":21200,"station_id":"ce4bhap2rcd13ifvqek0","pricing_plan_id":"free"},{"bike_id":"2ed46f73-5691-4c76-a478-86d17550e66b","system_id":"levelo_inurba_marseille","lat":43.289184,"lon":5.366408,"is_reserved":false,"is_disabled":false,"rental_uris":{"android":"levelo://app?vid=2ed46f73-5691-4c76-a478-86d17550e66b","ios":"levelo://app?vid=2ed46f73-5691-4c76-a478-86d17550e66b"},"vehicle_type_id":"4","last_reported":1703977598,"current_range_meters":28400,"station_id":"ce4bhap2rcd13ifvqek0","pricing_plan_id":"free"},{"bike_id":"3f4a2066-cf88-4d79-9596-c983b2d4c1c2","system_id":"levelo_inurba_marseille","lat":43.289468,"lon":5.363719,"is_reserved":false,"is_disabled":false,"rental_uris":{"android":"levelo://app?vid=3f4a2066-cf88-4d79-9596-c983b2d4c1c2","ios":"levelo://app?vid=3f4a2066-cf88-4d79-9596-c983b2d4c1c2"},"vehicle_type_id":"4","last_reported":1703977598,"current_range_meters":10000,"station_id":"ce4bhc92rcd13ifvqetg","pricing_plan_id":"free"},{"bike_id":"2cd6395e-a4db-4986-ae52-889cf9446be4","system_id":"levelo_inurba_marseille","lat":43.289184,"lon":5.366408,"is_reserved":false,"is_disabled":false,"rental_uris":{"android":"levelo://app?vid=2cd6395e-a4db-4986-ae52-889cf9446be4","ios":"levelo://app?vid=2cd6395e-a4db-4986-ae52-889cf9446be4"},"vehicle_type_id":"4","last_reported":1703977598,"current_range_meters":18400,"station_id":"ce4bhap2rcd13ifvqek0","pricing_plan_id":"free"},{"bike_id":"567be46f-5584-400f-bdf7-655785596383","system_id":"levelo_inurba_marseille","lat":43.289468,"lon":5.363719,"is_reserved":false,"is_disabled":false,"rental_uris":{"android":"levelo://app?vid=567be46f-5584-400f-bdf7-655785596383","ios":"levelo://app?vid=567be46f-5584-400f-bdf7-655785596383"},"vehicle_type_id":"4","last_reported":1703977598,"current_range_meters":29600,"station_id":"ce4bhc92rcd13ifvqetg","pricing_plan_id":"free"},{"bike_id":"a875ca5a-cd1c-415b-9bd1-de1408ff36cb","system_id":"levelo_inurba_marseille","lat":43.292644,"lon":5.384257,"is_reserved":false,"is_disabled":false,"rental_uris":{"android":"levelo://app?vid=a875ca5a-cd1c-415b-9bd1-de1408ff36cb","ios":"levelo://app?vid=a875ca5a-cd1c-415b-9bd1-de1408ff36cb"},"vehicle_type_id":"4","last_reported":1703977598,"current_range_meters":20400,"station_id":"ce4bh692rcd13ifvqea0","pricing_plan_id":"free"},{"bike_id":"2f3719b2-393b-4de2-97d6-dc6fcf4a5cda","system_id":"levelo_inurba_marseille","lat":43.290995,"lon":5.381361,"is_reserved":false,"is_disabled":false,"rental_uris":{"android":"levelo://app?vid=2f3719b2-393b-4de2-97d6-dc6fcf4a5cda","ios":"levelo://app?vid=2f3719b2-393b-4de2-97d6-dc6fcf4a5cda"},"vehicle_type_id":"4","last_reported":1703977598,"current_range_meters":30000,"station_id":"ce4bh512rcd13ifvqe2g","pricing_plan_id":"free"},{"bike_id":"4f64e2ec-66a1-423b-b265-6736d37b8f96","system_id":"levelo_inurba_marseille","lat":43.289743,"lon":5.378304,"is_reserved":false,"is_disabled":false,"rental_uris":{"android":"levelo://app?vid=4f64e2ec-66a1-423b-b265-6736d37b8f96","ios":"levelo://app?vid=4f64e2ec-66a1-423b-b265-6736d37b8f96"},"vehicle_type_id":"4","last_reported":1703977598,"current_range_meters":26000,"station_id":"ce4bh9p2rcd13ifvqed0","pricing_plan_id":"free"},{"bike_id":"495faf64-a935-4c6e-b77f-2b296d14493a","system_id":"levelo_inurba_marseille","lat":43.331017,"lon":5.389194,"is_reserved":false,"is_disabled":false,"rental_uris":{"android":"levelo://app?vid=495faf64-a935-4c6e-b77f-2b296d14493a","ios":"levelo://app?vid=495faf64-a935-4c6e-b77f-2b296d14493a"},"vehicle_type_id":"4","last_reported":1703977598,"current_range_meters":1200,"station_id":"","pricing_plan_id":"free"},{"bike_id":"6c965624-7b81-44b1-9c82-ecf2c3441ba9","system_id":"levelo_inurba_marseille","lat":43.28856,"lon":5.358371,"is_reserved":false,"is_disabled":false,"rental_uris":{"android":"levelo://app?vid=6c965624-7b81-44b1-9c82-ecf2c3441ba9","ios":"levelo://app?vid=6c965624-7b81-44b1-9c82-ecf2c3441ba9"},"vehicle_type_id":"4","last_reported":1703977598,"current_range_meters":23600,"station_id":"ce4bhb12rcd13ifvqem0","pricing_plan_id":"free"},{"bike_id":"cababbbd-bdea-44dd-a30c-3bd5cdef8812","system_id":"levelo_inurba_marseille","lat":43.312609,"lon":5.401662,"is_reserved":false,"is_disabled":false,"rental_uris":{"android":"levelo://app?vid=cababbbd-bdea-44dd-a30c-3bd5cdef8812","ios":"levelo://app?vid=cababbbd-bdea-44dd-a30c-3bd5cdef8812"},"vehicle_type_id":"4","last_reported":1703977598,"current_range_meters":10000,"station_id":"ce4bh092rcd13ifvqd30","pricing_plan_id":"free"},{"bike_id":"139bb083-3316-4723-b403-d0edcde8edb8","system_id":"levelo_inurba_marseille","lat":43.312609,"lon":5.401662,"is_reserved":false,"is_disabled":false,"rental_uris":{"android":"levelo://app?vid=139bb083-3316-4723-b403-d0edcde8edb8","ios":"levelo://app?vid=139bb083-3316-4723-b403-d0edcde8edb8"},"vehicle_type_id":"4","last_reported":1703977598,"current_range_meters":16400,"station_id":"ce4bh092rcd13ifvqd30","pricing_plan_id":"free"},{"bike_id":"3913fc9c-1c8d-419a-af8b-4b4564ea7ec0","system_id":"levelo_inurba_marseille","lat":43.312609,"lon":5.401662,"is_reserved":false,"is_disabled":false,"rental_uris":{"android":"levelo://app?vid=3913fc9c-1c8d-419a-af8b-4b4564ea7ec0","ios":"levelo://app?vid=3913fc9c-1c8d-419a-af8b-4b4564ea7ec0"},"vehicle_type_id":"4","last_reported":1703977598,"current_range_meters":5600,"station_id":"ce4bh092rcd13ifvqd30","pricing_plan_id":"free"},{"bike_id":"d29f7a6c-6eff-46b1-9d51-bbf08faabfa1","system_id":"levelo_inurba_marseille","lat":43.337477,"lon":5.374431,"is_reserved":false,"is_disabled":false,"rental_uris":{"android":"levelo://app?vid=d29f7a6c-6eff-46b1-9d51-bbf08faabfa1","ios":"levelo://app?vid=d29f7a6c-6eff-46b1-9d51-bbf08faabfa1"},"vehicle_type_id":"4","last_reported":1703977598,"current_range_meters":0,"station_id":"","pricing_plan_id":"free"},{"bike_id":"040af5c2-eba1-4830-bf49-9274e40d6f06","system_id":"levelo_inurba_marseille","lat":43.30922,"lon":5.40145,"is_reserved":false,"is_disabled":false,"rental_uris":{"android":"levelo://app?vid=040af5c2-eba1-4830-bf49-9274e40d6f06","ios":"levelo://app?vid=040af5c2-eba1-4830-bf49-9274e40d6f06"},"vehicle_type_id":"4","last_reported":1703977598,"current_range_meters":25200,"station_id":"ce4bgvp2rcd13ifvqct0","pricing_plan_id":"free"},{"bike_id":"64e9545d-fc4f-40e5-b705-c0d9610d79bb","system_id":"levelo_inurba_marseille","lat":43.306412,"lon":5.401035,"is_reserved":false,"is_disabled":false,"rental_uris":{"android":"levelo://app?vid=64e9545d-fc4f-40e5-b705-c0d9610d79bb","ios":"levelo://app?vid=64e9545d-fc4f-40e5-b705-c0d9610d79bb"},"vehicle_type_id":"4","last_reported":1703977598,"current_range_meters":12400,"station_id":"ce4bh112rcd13ifvqda0","pricing_plan_id":"free"},{"bike_id":"edf4253a-c105-4b98-ace4-2261934fd4d3","system_id":"levelo_inurba_marseille","lat":43.306412,"lon":5.401035,"is_reserved":false,"is_disabled":false,"rental_uris":{"android":"levelo://app?vid=edf4253a-c105-4b98-ace4-2261934fd4d3","ios":"levelo://app?vid=edf4253a-c105-4b98-ace4-2261934fd4d3"},"vehicle_type_id":"4","last_reported":1703977598,"current_range_meters":20800,"station_id":"ce4bh112rcd13ifvqda0","pricing_plan_id":"free"},{"bike_id":"49683cbc-fc5d-48cd-8fc3-e3861a5c6ee5","system_id":"levelo_inurba_marseille","lat":43.30642,"lon":5.401031,"is_reserved":false,"is_disabled":false,"rental_uris":{"android":"levelo://app?vid=49683cbc-fc5d-48cd-8fc3-e3861a5c6ee5","ios":"levelo://app?vid=49683cbc-fc5d-48cd-8fc3-e3861a5c6ee5"},"vehicle_type_id":"4","last_reported":1703977598,"current_range_meters":12000,"station_id":"ce4bh112rcd13ifvqda0","pricing_plan_id":"free"},{"bike_id":"0b82544b-5b20-4af3-bfa5-ff5db69c093a","system_id":"levelo_inurba_marseille","lat":43.301117,"lon":5.398795,"is_reserved":false,"is_disabled":false,"rental_uris":{"android":"levelo://app?vid=0b82544b-5b20-4af3-bfa5-ff5db69c093a","ios":"levelo://app?vid=0b82544b-5b20-4af3-bfa5-ff5db69c093a"},"vehicle_type_id":"4","last_reported":1703977598,"current_range_meters":18800,"station_id":"ce4bh0h2rcd13ifvqd40","pricing_plan_id":"free"},{"bike_id":"c301fb8c-cfe6-441c-8d68-c52db0e2a128","system_id":"levelo_inurba_marseille","lat":43.28727,"lon":5.36078,"is_reserved":false,"is_disabled":false,"rental_uris":{"android":"levelo://app?vid=c301fb8c-cfe6-441c-8d68-c52db0e2a128","ios":"levelo://app?vid=c301fb8c-cfe6-441c-8d68-c52db0e2a128"},"vehicle_type_id":"4","last_reported":1703977598,"current_range_meters":28400,"station_id":"cki0cbj6b192h4jlfktg","pricing_plan_id":"free"},{"bike_id":"b262299b-df41-4c0e-acea-7d1f4a3c6a3b","system_id":"levelo_inurba_marseille","lat":43.28727,"lon":5.36078,"is_reserved":false,"is_disabled":false,"rental_uris":{"android":"levelo://app?vid=b262299b-df41-4c0e-acea-7d1f4a3c6a3b","ios":"levelo://app?vid=b262299b-df41-4c0e-acea-7d1f4a3c6a3b"},"vehicle_type_id":"4","last_reported":1703977598,"current_range_meters":26400,"station_id":"cki0cbj6b192h4jlfktg","pricing_plan_id":"free"},{"bike_id":"c810458d-a663-4ae6-a45a-279868d73133","system_id":"levelo_inurba_marseille","lat":43.28727,"lon":5.36078,"is_reserved":false,"is_disabled":false,"rental_uris":{"android":"levelo://app?vid=c810458d-a663-4ae6-a45a-279868d73133","ios":"levelo://app?vid=c810458d-a663-4ae6-a45a-279868d73133"},"vehicle_type_id":"4","last_reported":1703977598,"current_range_meters":21200,"station_id":"cki0cbj6b192h4jlfktg","pricing_plan_id":"free"},{"bike_id":"e719190d-e902-4063-a6d1-dd569cd95147","system_id":"levelo_inurba_marseille","lat":43.286591,"lon":5.363346,"is_reserved":false,"is_disabled":false,"rental_uris":{"android":"levelo://app?vid=e719190d-e902-4063-a6d1-dd569cd95147","ios":"levelo://app?vid=e719190d-e902-4063-a6d1-dd569cd95147"},"vehicle_type_id":"4","last_reported":1703977598,"current_range_meters":6000,"station_id":"ce4bhah2rcd13ifvqej0","pricing_plan_id":"free"},{"bike_id":"d4fe8f65-8122-4378-966c-34cf788d5c8a","system_id":"levelo_inurba_marseille","lat":43.286591,"lon":5.363346,"is_reserved":false,"is_disabled":false,"rental_uris":{"android":"levelo://app?vid=d4fe8f65-8122-4378-966c-34cf788d5c8a","ios":"levelo://app?vid=d4fe8f65-8122-4378-966c-34cf788d5c8a"},"vehicle_type_id":"4","last_reported":1703977598,"current_range_meters":12000,"station_id":"ce4bhah2rcd13ifvqej0","pricing_plan_id":"free"},{"bike_id":"fa6ac9f3-bd46-495a-ab45-a0bb9d0a1b12","system_id":"levelo_inurba_marseille","lat":43.286591,"lon":5.363346,"is_reserved":false,"is_disabled":false,"rental_uris":{"android":"levelo://app?vid=fa6ac9f3-bd46-495a-ab45-a0bb9d0a1b12","ios":"levelo://app?vid=fa6ac9f3-bd46-495a-ab45-a0bb9d0a1b12"},"vehicle_type_id":"4","last_reported":1703977598,"current_range_meters":8000,"station_id":"ce4bhah2rcd13ifvqej0","pricing_plan_id":"free"},{"bike_id":"a5738968-8f49-4df4-be73-2bb217d4bb7e","system_id":"levelo_inurba_marseille","lat":43.286961,"lon":5.373785,"is_reserved":false,"is_disabled":false,"rental_uris":{"android":"levelo://app?vid=a5738968-8f49-4df4-be73-2bb217d4bb7e","ios":"levelo://app?vid=a5738968-8f49-4df4-be73-2bb217d4bb7e"},"vehicle_type_id":"4","last_reported":1703977598,"current_range_meters":19200,"station_id":"ce4bh3p2rcd13ifvqdq0","pricing_plan_id":"free"},{"bike_id":"ce867626-ed83-4aa0-958a-7975b1fe6eaa","system_id":"levelo_inurba_marseille","lat":43.286591,"lon":5.363346,"is_reserved":false,"is_disabled":false,"rental_uris":{"android":"levelo://app?vid=ce867626-ed83-4aa0-958a-7975b1fe6eaa","ios":"levelo://app?vid=ce867626-ed83-4aa0-958a-7975b1fe6eaa"},"vehicle_type_id":"4","last_reported":1703977598,"current_range_meters":29600,"station_id":"ce4bhah2rcd13ifvqej0","pricing_plan_id":"free"},{"bike_id":"c89234d4-bcf1-4bd4-9946-ba09dfa96b05","system_id":"levelo_inurba_marseille","lat":43.286961,"lon":5.373785,"is_reserved":false,"is_disabled":false,"rental_uris":{"android":"levelo://app?vid=c89234d4-bcf1-4bd4-9946-ba09dfa96b05","ios":"levelo://app?vid=c89234d4-bcf1-4bd4-9946-ba09dfa96b05"},"vehicle_type_id":"4","last_reported":1703977598,"current_range_meters":20800,"station_id":"ce4bh3p2rcd13ifvqdq0","pricing_plan_id":"free"},{"bike_id":"615bcdea-ecc6-4c9a-8905-845f099d9973","system_id":"levelo_inurba_marseille","lat":43.286961,"lon":5.373785,"is_reserved":false,"is_disabled":false,"rental_uris":{"android":"levelo://app?vid=615bcdea-ecc6-4c9a-8905-845f099d9973","ios":"levelo://app?vid=615bcdea-ecc6-4c9a-8905-845f099d9973"},"vehicle_type_id":"4","last_reported":1703977598,"current_range_meters":0,"station_id":"ce4bh3p2rcd13ifvqdq0","pricing_plan_id":"free"},{"bike_id":"f6058d4d-201a-446d-84ba-071699c74475","system_id":"levelo_inurba_marseille","lat":43.295194,"lon":5.39397,"is_reserved":false,"is_disabled":false,"rental_uris":{"android":"levelo://app?vid=f6058d4d-201a-446d-84ba-071699c74475","ios":"levelo://app?vid=f6058d4d-201a-446d-84ba-071699c74475"},"vehicle_type_id":"4","last_reported":1703977598,"current_range_meters":0,"station_id":"ce4bh292rcd13ifvqdf0","pricing_plan_id":"free"},{"bike_id":"ad9c77d3-fe4b-49de-863b-d602f813d1c2","system_id":"levelo_inurba_marseille","lat":43.29034,"lon":5.386473,"is_reserved":false,"is_disabled":false,"rental_uris":{"android":"levelo://app?vid=ad9c77d3-fe4b-49de-863b-d602f813d1c2","ios":"levelo://app?vid=ad9c77d3-fe4b-49de-863b-d602f813d1c2"},"vehicle_type_id":"4","last_reported":1703977598,"current_range_meters":0,"station_id":"ce4bh4p2rcd13ifvqe0g","pricing_plan_id":"free"},{"bike_id":"2712d5af-620d-4049-90da-dcca1a82f1d8","system_id":"levelo_inurba_marseille","lat":43.302759,"lon":5.400793,"is_reserved":false,"is_disabled":false,"rental_uris":{"android":"levelo://app?vid=2712d5af-620d-4049-90da-dcca1a82f1d8","ios":"levelo://app?vid=2712d5af-620d-4049-90da-dcca1a82f1d8"},"vehicle_type_id":"4","last_reported":1703977598,"current_range_meters":0,"station_id":"ce4bgvh2rcd13ifvqcs0","pricing_plan_id":"free"},{"bike_id":"4dc03683-ca87-4926-84bf-754bfc2259db","system_id":"levelo_inurba_marseille","lat":43.302759,"lon":5.400793,"is_reserved":false,"is_disabled":false,"rental_uris":{"android":"levelo://app?vid=4dc03683-ca87-4926-84bf-754bfc2259db","ios":"levelo://app?vid=4dc03683-ca87-4926-84bf-754bfc2259db"},"vehicle_type_id":"4","last_reported":1703977598,"current_range_meters":17600,"station_id":"ce4bgvh2rcd13ifvqcs0","pricing_plan_id":"free"},{"bike_id":"2e052d3f-46e1-47a6-8817-a9e3a05682f9","system_id":"levelo_inurba_marseille","lat":43.30258,"lon":5.40087,"is_reserved":false,"is_disabled":false,"rental_uris":{"android":"levelo://app?vid=2e052d3f-46e1-47a6-8817-a9e3a05682f9","ios":"levelo://app?vid=2e052d3f-46e1-47a6-8817-a9e3a05682f9"},"vehicle_type_id":"4","last_reported":1703977598,"current_range_meters":0,"station_id":"ce4bgvh2rcd13ifvqcs0","pricing_plan_id":"free"},{"bike_id":"5c28e87b-40b8-4984-9240-4ac6a465ad25","system_id":"levelo_inurba_marseille","lat":43.286039,"lon":5.370679,"is_reserved":false,"is_disabled":false,"rental_uris":{"android":"levelo://app?vid=5c28e87b-40b8-4984-9240-4ac6a465ad25","ios":"levelo://app?vid=5c28e87b-40b8-4984-9240-4ac6a465ad25"},"vehicle_type_id":"4","last_reported":1703977598,"current_range_meters":26000,"station_id":"ce4bht12rcd13ifvqi60","pricing_plan_id":"free"},{"bike_id":"203cd100-0d9b-455c-9f67-418c2e4291cd","system_id":"levelo_inurba_marseille","lat":43.298763,"lon":5.399526,"is_reserved":false,"is_disabled":false,"rental_uris":{"android":"levelo://app?vid=203cd100-0d9b-455c-9f67-418c2e4291cd","ios":"levelo://app?vid=203cd100-0d9b-455c-9f67-418c2e4291cd"},"vehicle_type_id":"4","last_reported":1703977598,"current_range_meters":1200,"station_id":"","pricing_plan_id":"free"},{"bike_id":"b6759fa3-933c-498c-bd74-724402406415","system_id":"levelo_inurba_marseille","lat":43.316828,"lon":5.404723,"is_reserved":false,"is_disabled":false,"rental_uris":{"android":"levelo://app?vid=b6759fa3-933c-498c-bd74-724402406415","ios":"levelo://app?vid=b6759fa3-933c-498c-bd74-724402406415"},"vehicle_type_id":"4","last_reported":1703977598,"current_range_meters":19200,"station_id":"ce4bh012rcd13ifvqd00","pricing_plan_id":"free"},{"bike_id":"4b70cf11-7ec8-4aea-b02b-4be8c85afbef","system_id":"levelo_inurba_marseille","lat":43.291994,"lon":5.392907,"is_reserved":false,"is_disabled":false,"rental_uris":{"android":"levelo://app?vid=4b70cf11-7ec8-4aea-b02b-4be8c85afbef","ios":"levelo://app?vid=4b70cf11-7ec8-4aea-b02b-4be8c85afbef"},"vehicle_type_id":"4","last_reported":1703977598,"current_range_meters":31200,"station_id":"ce4bh192rcd13ifvqdd0","pricing_plan_id":"free"},{"bike_id":"aa615a5f-261b-48d7-b06b-a6d8051df684","system_id":"levelo_inurba_marseille","lat":43.284534,"lon":5.358662,"is_reserved":false,"is_disabled":false,"rental_uris":{"android":"levelo://app?vid=aa615a5f-261b-48d7-b06b-a6d8051df684","ios":"levelo://app?vid=aa615a5f-261b-48d7-b06b-a6d8051df684"},"vehicle_type_id":"4","last_reported":1703977598,"current_range_meters":14800,"station_id":"ce4bhah2rcd13ifvqei0","pricing_plan_id":"free"},{"bike_id":"ddc3d933-be84-450b-845d-35a7ea264f1f","system_id":"levelo_inurba_marseille","lat":43.28454,"lon":5.35892,"is_reserved":false,"is_disabled":false,"rental_uris":{"android":"levelo://app?vid=ddc3d933-be84-450b-845d-35a7ea264f1f","ios":"levelo://app?vid=ddc3d933-be84-450b-845d-35a7ea264f1f"},"vehicle_type_id":"4","last_reported":1703977598,"current_range_meters":0,"station_id":"ce4bhah2rcd13ifvqei0","pricing_plan_id":"free"},{"bike_id":"f8b820db-7536-4948-8ad4-819129681b79","system_id":"levelo_inurba_marseille","lat":43.283998,"lon":5.375062,"is_reserved":false,"is_disabled":false,"rental_uris":{"android":"levelo://app?vid=f8b820db-7536-4948-8ad4-819129681b79","ios":"levelo://app?vid=f8b820db-7536-4948-8ad4-819129681b79"},"vehicle_type_id":"4","last_reported":1703977598,"current_range_meters":5200,"station_id":"ce4bh412rcd13ifvqds0","pricing_plan_id":"free"},{"bike_id":"63d6aee6-a03a-412d-b223-c6d3b28b510f","system_id":"levelo_inurba_marseille","lat":43.283998,"lon":5.375062,"is_reserved":false,"is_disabled":false,"rental_uris":{"android":"levelo://app?vid=63d6aee6-a03a-412d-b223-c6d3b28b510f","ios":"levelo://app?vid=63d6aee6-a03a-412d-b223-c6d3b28b510f"},"vehicle_type_id":"4","last_reported":1703977598,"current_range_meters":17600,"station_id":"ce4bh412rcd13ifvqds0","pricing_plan_id":"free"},{"bike_id":"72488151-34fd-436c-a4df-517689f03c40","system_id":"levelo_inurba_marseille","lat":43.283998,"lon":5.375062,"is_reserved":false,"is_disabled":false,"rental_uris":{"android":"levelo://app?vid=72488151-34fd-436c-a4df-517689f03c40","ios":"levelo://app?vid=72488151-34fd-436c-a4df-517689f03c40"},"vehicle_type_id":"4","last_reported":1703977598,"current_range_meters":7200,"station_id":"ce4bh412rcd13ifvqds0","pricing_plan_id":"free"},{"bike_id":"78be9d25-45c1-4bfe-b674-db38cc55b8f7","system_id":"levelo_inurba_marseille","lat":43.286595,"lon":5.386795,"is_reserved":false,"is_disabled":false,"rental_uris":{"android":"levelo://app?vid=78be9d25-45c1-4bfe-b674-db38cc55b8f7","ios":"levelo://app?vid=78be9d25-45c1-4bfe-b674-db38cc55b8f7"},"vehicle_type_id":"4","last_reported":1703977598,"current_range_meters":22400,"station_id":"ce4bh492rcd13ifvqdug","pricing_plan_id":"free"},{"bike_id":"2a34418a-68fc-4df0-a58c-b424089bf812","system_id":"levelo_inurba_marseille","lat":43.33717,"lon":5.391857,"is_reserved":false,"is_disabled":false,"rental_uris":{"android":"levelo://app?vid=2a34418a-68fc-4df0-a58c-b424089bf812","ios":"levelo://app?vid=2a34418a-68fc-4df0-a58c-b424089bf812"},"vehicle_type_id":"4","last_reported":1703977598,"current_range_meters":30800,"station_id":"ce4bhr92rcd13ifvqhsg","pricing_plan_id":"free"},{"bike_id":"81e98546-48f6-4e53-9a96-d12ea8cec360","system_id":"levelo_inurba_marseille","lat":43.323464,"lon":5.406297,"is_reserved":false,"is_disabled":false,"rental_uris":{"android":"levelo://app?vid=81e98546-48f6-4e53-9a96-d12ea8cec360","ios":"levelo://app?vid=81e98546-48f6-4e53-9a96-d12ea8cec360"},"vehicle_type_id":"4","last_reported":1703977598,"current_range_meters":28400,"station_id":"ce4bhq92rcd13ifvqhjg","pricing_plan_id":"free"},{"bike_id":"6f88c66c-95cb-43e7-9ffe-5f0278c685b8","system_id":"levelo_inurba_marseille","lat":43.337168,"lon":5.391825,"is_reserved":false,"is_disabled":false,"rental_uris":{"android":"levelo://app?vid=6f88c66c-95cb-43e7-9ffe-5f0278c685b8","ios":"levelo://app?vid=6f88c66c-95cb-43e7-9ffe-5f0278c685b8"},"vehicle_type_id":"4","last_reported":1703977598,"current_range_meters":30800,"station_id":"ce4bhr92rcd13ifvqhsg","pricing_plan_id":"free"},{"bike_id":"ca8cc347-d5bd-40d2-8cba-775c99edb6ed","system_id":"levelo_inurba_marseille","lat":43.33717,"lon":5.391857,"is_reserved":false,"is_disabled":false,"rental_uris":{"android":"levelo://app?vid=ca8cc347-d5bd-40d2-8cba-775c99edb6ed","ios":"levelo://app?vid=ca8cc347-d5bd-40d2-8cba-775c99edb6ed"},"vehicle_type_id":"4","last_reported":1703977598,"current_range_meters":25600,"station_id":"ce4bhr92rcd13ifvqhsg","pricing_plan_id":"free"},{"bike_id":"bd6d09de-be04-400f-9fa7-5220916378f9","system_id":"levelo_inurba_marseille","lat":43.337168,"lon":5.391825,"is_reserved":false,"is_disabled":false,"rental_uris":{"android":"levelo://app?vid=bd6d09de-be04-400f-9fa7-5220916378f9","ios":"levelo://app?vid=bd6d09de-be04-400f-9fa7-5220916378f9"},"vehicle_type_id":"4","last_reported":1703977598,"current_range_meters":8400,"station_id":"ce4bhr92rcd13ifvqhsg","pricing_plan_id":"free"},{"bike_id":"66253f3b-d229-458f-b92e-e4aec4a13723","system_id":"levelo_inurba_marseille","lat":43.297946,"lon":5.404063,"is_reserved":false,"is_disabled":false,"rental_uris":{"android":"levelo://app?vid=66253f3b-d229-458f-b92e-e4aec4a13723","ios":"levelo://app?vid=66253f3b-d229-458f-b92e-e4aec4a13723"},"vehicle_type_id":"4","last_reported":1703977598,"current_range_meters":27600,"station_id":"ce4bh112rcd13ifvqd90","pricing_plan_id":"free"},{"bike_id":"f49df42b-e9a9-478d-aefc-743bee48b998","system_id":"levelo_inurba_marseille","lat":43.288501,"lon":5.393087,"is_reserved":false,"is_disabled":false,"rental_uris":{"android":"levelo://app?vid=f49df42b-e9a9-478d-aefc-743bee48b998","ios":"levelo://app?vid=f49df42b-e9a9-478d-aefc-743bee48b998"},"vehicle_type_id":"4","last_reported":1703977598,"current_range_meters":20800,"station_id":"ce4bh2p2rcd13ifvqdi0","pricing_plan_id":"free"},{"bike_id":"7658bd4a-bf5c-4e59-a9e4-57ec9d12dba0","system_id":"levelo_inurba_marseille","lat":43.288501,"lon":5.393087,"is_reserved":false,"is_disabled":false,"rental_uris":{"android":"levelo://app?vid=7658bd4a-bf5c-4e59-a9e4-57ec9d12dba0","ios":"levelo://app?vid=7658bd4a-bf5c-4e59-a9e4-57ec9d12dba0"},"vehicle_type_id":"4","last_reported":1703977598,"current_range_meters":18400,"station_id":"ce4bh2p2rcd13ifvqdi0","pricing_plan_id":"free"},{"bike_id":"ff548aa3-08f2-4092-9b6a-1ca529179ae9","system_id":"levelo_inurba_marseille","lat":43.28477,"lon":5.38479,"is_reserved":false,"is_disabled":false,"rental_uris":{"android":"levelo://app?vid=ff548aa3-08f2-4092-9b6a-1ca529179ae9","ios":"levelo://app?vid=ff548aa3-08f2-4092-9b6a-1ca529179ae9"},"vehicle_type_id":"4","last_reported":1703977598,"current_range_meters":17600,"station_id":"","pricing_plan_id":"free"},{"bike_id":"4088bd45-ff4c-49a2-bea1-7b7e103acdb4","system_id":"levelo_inurba_marseille","lat":43.288501,"lon":5.393087,"is_reserved":false,"is_disabled":false,"rental_uris":{"android":"levelo://app?vid=4088bd45-ff4c-49a2-bea1-7b7e103acdb4","ios":"levelo://app?vid=4088bd45-ff4c-49a2-bea1-7b7e103acdb4"},"vehicle_type_id":"4","last_reported":1703977598,"current_range_meters":13600,"station_id":"ce4bh2p2rcd13ifvqdi0","pricing_plan_id":"free"},{"bike_id":"015475af-6c17-4fcb-8071-25eab9ed80a9","system_id":"levelo_inurba_marseille","lat":43.288501,"lon":5.393087,"is_reserved":false,"is_disabled":false,"rental_uris":{"android":"levelo://app?vid=015475af-6c17-4fcb-8071-25eab9ed80a9","ios":"levelo://app?vid=015475af-6c17-4fcb-8071-25eab9ed80a9"},"vehicle_type_id":"4","last_reported":1703977598,"current_range_meters":24000,"station_id":"ce4bh2p2rcd13ifvqdi0","pricing_plan_id":"free"},{"bike_id":"23e72be3-c6ff-4924-8512-bbbdf5dabead","system_id":"levelo_inurba_marseille","lat":43.288501,"lon":5.393087,"is_reserved":false,"is_disabled":false,"rental_uris":{"android":"levelo://app?vid=23e72be3-c6ff-4924-8512-bbbdf5dabead","ios":"levelo://app?vid=23e72be3-c6ff-4924-8512-bbbdf5dabead"},"vehicle_type_id":"4","last_reported":1703977598,"current_range_meters":13600,"station_id":"ce4bh2p2rcd13ifvqdi0","pricing_plan_id":"free"},{"bike_id":"e485450b-2736-4f4c-b94b-0da5a69b88aa","system_id":"levelo_inurba_marseille","lat":43.33385,"lon":5.39822,"is_reserved":false,"is_disabled":false,"rental_uris":{"android":"levelo://app?vid=e485450b-2736-4f4c-b94b-0da5a69b88aa","ios":"levelo://app?vid=e485450b-2736-4f4c-b94b-0da5a69b88aa"},"vehicle_type_id":"4","last_reported":1703977598,"current_range_meters":5600,"station_id":"","pricing_plan_id":"free"},{"bike_id":"041af8db-46e1-4b08-be93-ddac96a527c0","system_id":"levelo_inurba_marseille","lat":43.28342,"lon":5.38116,"is_reserved":false,"is_disabled":false,"rental_uris":{"android":"levelo://app?vid=041af8db-46e1-4b08-be93-ddac96a527c0","ios":"levelo://app?vid=041af8db-46e1-4b08-be93-ddac96a527c0"},"vehicle_type_id":"4","last_reported":1703977598,"current_range_meters":25600,"station_id":"ce4bh412rcd13ifvqdr0","pricing_plan_id":"free"},{"bike_id":"7db49108-9a26-43ce-9f14-d85b6fcc8e06","system_id":"levelo_inurba_marseille","lat":43.289363,"lon":5.396322,"is_reserved":false,"is_disabled":false,"rental_uris":{"android":"levelo://app?vid=7db49108-9a26-43ce-9f14-d85b6fcc8e06","ios":"levelo://app?vid=7db49108-9a26-43ce-9f14-d85b6fcc8e06"},"vehicle_type_id":"4","last_reported":1703977598,"current_range_meters":30800,"station_id":"ce4bh3h2rcd13ifvqdn0","pricing_plan_id":"free"},{"bike_id":"76a1ec55-09c7-4dd3-820f-b0a36b1f5982","system_id":"levelo_inurba_marseille","lat":43.289363,"lon":5.396322,"is_reserved":false,"is_disabled":false,"rental_uris":{"android":"levelo://app?vid=76a1ec55-09c7-4dd3-820f-b0a36b1f5982","ios":"levelo://app?vid=76a1ec55-09c7-4dd3-820f-b0a36b1f5982"},"vehicle_type_id":"4","last_reported":1703977598,"current_range_meters":26400,"station_id":"ce4bh3h2rcd13ifvqdn0","pricing_plan_id":"free"},{"bike_id":"86b85382-313d-40c0-8314-fe73f7da8bdb","system_id":"levelo_inurba_marseille","lat":43.29041,"lon":5.399634,"is_reserved":false,"is_disabled":false,"rental_uris":{"android":"levelo://app?vid=86b85382-313d-40c0-8314-fe73f7da8bdb","ios":"levelo://app?vid=86b85382-313d-40c0-8314-fe73f7da8bdb"},"vehicle_type_id":"4","last_reported":1703977598,"current_range_meters":20000,"station_id":"ce4bh392rcd13ifvqdm0","pricing_plan_id":"free"},{"bike_id":"e8d296d8-be9e-49d1-869e-2ab55d70e167","system_id":"levelo_inurba_marseille","lat":43.281044,"lon":5.378308,"is_reserved":false,"is_disabled":false,"rental_uris":{"android":"levelo://app?vid=e8d296d8-be9e-49d1-869e-2ab55d70e167","ios":"levelo://app?vid=e8d296d8-be9e-49d1-869e-2ab55d70e167"},"vehicle_type_id":"4","last_reported":1703977598,"current_range_meters":20000,"station_id":"ce4bha12rcd13ifvqee0","pricing_plan_id":"free"},{"bike_id":"a09dcb64-3f2b-43c5-84dd-b6c3492da34a","system_id":"levelo_inurba_marseille","lat":43.296263,"lon":5.40601,"is_reserved":false,"is_disabled":false,"rental_uris":{"android":"levelo://app?vid=a09dcb64-3f2b-43c5-84dd-b6c3492da34a","ios":"levelo://app?vid=a09dcb64-3f2b-43c5-84dd-b6c3492da34a"},"vehicle_type_id":"4","last_reported":1703977598,"current_range_meters":18400,"station_id":"ce4bh0h2rcd13ifvqd60","pricing_plan_id":"free"},{"bike_id":"4357504a-4db5-4063-97d7-75d37b498dda","system_id":"levelo_inurba_marseille","lat":43.281044,"lon":5.378308,"is_reserved":false,"is_disabled":false,"rental_uris":{"android":"levelo://app?vid=4357504a-4db5-4063-97d7-75d37b498dda","ios":"levelo://app?vid=4357504a-4db5-4063-97d7-75d37b498dda"},"vehicle_type_id":"4","last_reported":1703977598,"current_range_meters":23200,"station_id":"ce4bha12rcd13ifvqee0","pricing_plan_id":"free"},{"bike_id":"5c626aba-21a0-477e-9bbd-70f25b311c21","system_id":"levelo_inurba_marseille","lat":43.284462,"lon":5.392121,"is_reserved":false,"is_disabled":false,"rental_uris":{"android":"levelo://app?vid=5c626aba-21a0-477e-9bbd-70f25b311c21","ios":"levelo://app?vid=5c626aba-21a0-477e-9bbd-70f25b311c21"},"vehicle_type_id":"4","last_reported":1703977598,"current_range_meters":5200,"station_id":"ce4bhoh2rcd13ifvqh5g","pricing_plan_id":"free"},{"bike_id":"e1f1c9c3-a1f0-423f-b5f5-fed132db45b0","system_id":"levelo_inurba_marseille","lat":43.284462,"lon":5.392121,"is_reserved":false,"is_disabled":false,"rental_uris":{"android":"levelo://app?vid=e1f1c9c3-a1f0-423f-b5f5-fed132db45b0","ios":"levelo://app?vid=e1f1c9c3-a1f0-423f-b5f5-fed132db45b0"},"vehicle_type_id":"4","last_reported":1703977598,"current_range_meters":30400,"station_id":"ce4bhoh2rcd13ifvqh5g","pricing_plan_id":"free"},{"bike_id":"28568076-0351-4a09-9292-aebf4744976b","system_id":"levelo_inurba_marseille","lat":43.285694,"lon":5.394914,"is_reserved":false,"is_disabled":false,"rental_uris":{"android":"levelo://app?vid=28568076-0351-4a09-9292-aebf4744976b","ios":"levelo://app?vid=28568076-0351-4a09-9292-aebf4744976b"},"vehicle_type_id":"4","last_reported":1703977598,"current_range_meters":30800,"station_id":"ce4bh292rcd13ifvqdg0","pricing_plan_id":"free"},{"bike_id":"ac4a2c54-054c-45c7-bc29-432a2e94ebc6","system_id":"levelo_inurba_marseille","lat":43.326092,"lon":5.410808,"is_reserved":false,"is_disabled":false,"rental_uris":{"android":"levelo://app?vid=ac4a2c54-054c-45c7-bc29-432a2e94ebc6","ios":"levelo://app?vid=ac4a2c54-054c-45c7-bc29-432a2e94ebc6"},"vehicle_type_id":"4","last_reported":1703977598,"current_range_meters":28800,"station_id":"","pricing_plan_id":"free"},{"bike_id":"cfe8d5f0-8a12-4e7c-87a1-f7276043a595","system_id":"levelo_inurba_marseille","lat":43.32654,"lon":5.41061,"is_reserved":false,"is_disabled":false,"rental_uris":{"android":"levelo://app?vid=cfe8d5f0-8a12-4e7c-87a1-f7276043a595","ios":"levelo://app?vid=cfe8d5f0-8a12-4e7c-87a1-f7276043a595"},"vehicle_type_id":"4","last_reported":1703977598,"current_range_meters":24400,"station_id":"","pricing_plan_id":"free"},{"bike_id":"2350cc78-f5c8-4db9-b7eb-ef7b3e975ad0","system_id":"levelo_inurba_marseille","lat":43.287154,"lon":5.399979,"is_reserved":false,"is_disabled":false,"rental_uris":{"android":"levelo://app?vid=2350cc78-f5c8-4db9-b7eb-ef7b3e975ad0","ios":"levelo://app?vid=2350cc78-f5c8-4db9-b7eb-ef7b3e975ad0"},"vehicle_type_id":"4","last_reported":1703977598,"current_range_meters":28800,"station_id":"ce4bho92rcd13ifvqh3g","pricing_plan_id":"free"},{"bike_id":"80092eb8-f531-4bdc-bbb4-4f717c14fa34","system_id":"levelo_inurba_marseille","lat":43.287154,"lon":5.399979,"is_reserved":false,"is_disabled":false,"rental_uris":{"android":"levelo://app?vid=80092eb8-f531-4bdc-bbb4-4f717c14fa34","ios":"levelo://app?vid=80092eb8-f531-4bdc-bbb4-4f717c14fa34"},"vehicle_type_id":"4","last_reported":1703977598,"current_range_meters":22000,"station_id":"ce4bho92rcd13ifvqh3g","pricing_plan_id":"free"},{"bike_id":"6e2e90c0-18a5-4252-9c46-0ccc08fedcce","system_id":"levelo_inurba_marseille","lat":43.292569,"lon":5.409107,"is_reserved":false,"is_disabled":false,"rental_uris":{"android":"levelo://app?vid=6e2e90c0-18a5-4252-9c46-0ccc08fedcce","ios":"levelo://app?vid=6e2e90c0-18a5-4252-9c46-0ccc08fedcce"},"vehicle_type_id":"4","last_reported":1703977598,"current_range_meters":25200,"station_id":"ce4bh192rcd13ifvqdc0","pricing_plan_id":"free"},{"bike_id":"fa5c458a-b4cc-4de2-8913-82a42cb13005","system_id":"levelo_inurba_marseille","lat":43.292571,"lon":5.409107,"is_reserved":false,"is_disabled":false,"rental_uris":{"android":"levelo://app?vid=fa5c458a-b4cc-4de2-8913-82a42cb13005","ios":"levelo://app?vid=fa5c458a-b4cc-4de2-8913-82a42cb13005"},"vehicle_type_id":"4","last_reported":1703977598,"current_range_meters":14000,"station_id":"ce4bh192rcd13ifvqdc0","pricing_plan_id":"free"},{"bike_id":"e2116b2e-3a5f-4bd8-a1c8-2607f2cb6d00","system_id":"levelo_inurba_marseille","lat":43.325495,"lon":5.41432,"is_reserved":false,"is_disabled":false,"rental_uris":{"android":"levelo://app?vid=e2116b2e-3a5f-4bd8-a1c8-2607f2cb6d00","ios":"levelo://app?vid=e2116b2e-3a5f-4bd8-a1c8-2607f2cb6d00"},"vehicle_type_id":"4","last_reported":1703977598,"current_range_meters":9200,"station_id":"ce4bhq12rcd13ifvqhhg","pricing_plan_id":"free"},{"bike_id":"70017d6e-6f1a-4af6-baf6-320a119b5691","system_id":"levelo_inurba_marseille","lat":43.34828,"lon":5.349,"is_reserved":false,"is_disabled":false,"rental_uris":{"android":"levelo://app?vid=70017d6e-6f1a-4af6-baf6-320a119b5691","ios":"levelo://app?vid=70017d6e-6f1a-4af6-baf6-320a119b5691"},"vehicle_type_id":"4","last_reported":1703977598,"current_range_meters":29600,"station_id":"","pricing_plan_id":"free"},{"bike_id":"dcfb783e-4af4-4a2c-8b14-23597359d6a5","system_id":"levelo_inurba_marseille","lat":43.303837,"lon":5.418724,"is_reserved":false,"is_disabled":false,"rental_uris":{"android":"levelo://app?vid=dcfb783e-4af4-4a2c-8b14-23597359d6a5","ios":"levelo://app?vid=dcfb783e-4af4-4a2c-8b14-23597359d6a5"},"vehicle_type_id":"4","last_reported":1703977598,"current_range_meters":30400,"station_id":"ce4bhop2rcd13ifvqh7g","pricing_plan_id":"free"},{"bike_id":"4d3d0c8b-6b41-41e4-87c5-57930c62e9fb","system_id":"levelo_inurba_marseille","lat":43.278401,"lon":5.392152,"is_reserved":false,"is_disabled":false,"rental_uris":{"android":"levelo://app?vid=4d3d0c8b-6b41-41e4-87c5-57930c62e9fb","ios":"levelo://app?vid=4d3d0c8b-6b41-41e4-87c5-57930c62e9fb"},"vehicle_type_id":"4","last_reported":1703977598,"current_range_meters":29600,"station_id":"ce4bhjp2rcd13ifvqga0","pricing_plan_id":"free"},{"bike_id":"cbb66c40-c103-4fe1-b15c-e2526bef0177","system_id":"levelo_inurba_marseille","lat":43.273768,"lon":5.362529,"is_reserved":false,"is_disabled":false,"rental_uris":{"android":"levelo://app?vid=cbb66c40-c103-4fe1-b15c-e2526bef0177","ios":"levelo://app?vid=cbb66c40-c103-4fe1-b15c-e2526bef0177"},"vehicle_type_id":"4","last_reported":1703977598,"current_range_meters":0,"station_id":"ce4bhbh2rcd13ifvqeo0","pricing_plan_id":"free"},{"bike_id":"99106b63-21f1-4b49-9691-bc110c59fe67","system_id":"levelo_inurba_marseille","lat":43.275625,"lon":5.384392,"is_reserved":false,"is_disabled":false,"rental_uris":{"android":"levelo://app?vid=99106b63-21f1-4b49-9691-bc110c59fe67","ios":"levelo://app?vid=99106b63-21f1-4b49-9691-bc110c59fe67"},"vehicle_type_id":"4","last_reported":1703977598,"current_range_meters":30000,"station_id":"ce4bhh92rcd13ifvqfi0","pricing_plan_id":"free"},{"bike_id":"a69f4ca0-c247-4c77-885f-494b2985032d","system_id":"levelo_inurba_marseille","lat":43.336333,"lon":5.410319,"is_reserved":false,"is_disabled":false,"rental_uris":{"android":"levelo://app?vid=a69f4ca0-c247-4c77-885f-494b2985032d","ios":"levelo://app?vid=a69f4ca0-c247-4c77-885f-494b2985032d"},"vehicle_type_id":"4","last_reported":1703977598,"current_range_meters":28800,"station_id":"ce4bhqh2rcd13ifvqhmg","pricing_plan_id":"free"},{"bike_id":"d9c8318c-3031-4f68-9885-19375abd858f","system_id":"levelo_inurba_marseille","lat":43.31464,"lon":5.42616,"is_reserved":false,"is_disabled":false,"rental_uris":{"android":"levelo://app?vid=d9c8318c-3031-4f68-9885-19375abd858f","ios":"levelo://app?vid=d9c8318c-3031-4f68-9885-19375abd858f"},"vehicle_type_id":"4","last_reported":1703977598,"current_range_meters":5200,"station_id":"","pricing_plan_id":"free"},{"bike_id":"f469bb82-d41e-4cf7-88b8-44b7c61170d9","system_id":"levelo_inurba_marseille","lat":43.295511,"lon":5.422926,"is_reserved":false,"is_disabled":false,"rental_uris":{"android":"levelo://app?vid=f469bb82-d41e-4cf7-88b8-44b7c61170d9","ios":"levelo://app?vid=f469bb82-d41e-4cf7-88b8-44b7c61170d9"},"vehicle_type_id":"4","last_reported":1703977598,"current_range_meters":17600,"station_id":"ce4bhph2rcd13ifvqhdg","pricing_plan_id":"free"},{"bike_id":"1215a881-8c5c-4a50-8eb2-6fc7039f28ce","system_id":"levelo_inurba_marseille","lat":43.295523,"lon":5.422926,"is_reserved":false,"is_disabled":false,"rental_uris":{"android":"levelo://app?vid=1215a881-8c5c-4a50-8eb2-6fc7039f28ce","ios":"levelo://app?vid=1215a881-8c5c-4a50-8eb2-6fc7039f28ce"},"vehicle_type_id":"4","last_reported":1703977598,"current_range_meters":22000,"station_id":"ce4bhph2rcd13ifvqhdg","pricing_plan_id":"free"},{"bike_id":"061bb09e-908a-4f76-afb2-44bcfcb6aa80","system_id":"levelo_inurba_marseille","lat":43.295511,"lon":5.422926,"is_reserved":false,"is_disabled":false,"rental_uris":{"android":"levelo://app?vid=061bb09e-908a-4f76-afb2-44bcfcb6aa80","ios":"levelo://app?vid=061bb09e-908a-4f76-afb2-44bcfcb6aa80"},"vehicle_type_id":"4","last_reported":1703977598,"current_range_meters":30400,"station_id":"ce4bhph2rcd13ifvqhdg","pricing_plan_id":"free"},{"bike_id":"5e8328de-e376-4c91-8bdb-956a883a5950","system_id":"levelo_inurba_marseille","lat":43.295511,"lon":5.422926,"is_reserved":false,"is_disabled":false,"rental_uris":{"android":"levelo://app?vid=5e8328de-e376-4c91-8bdb-956a883a5950","ios":"levelo://app?vid=5e8328de-e376-4c91-8bdb-956a883a5950"},"vehicle_type_id":"4","last_reported":1703977598,"current_range_meters":7200,"station_id":"ce4bhph2rcd13ifvqhdg","pricing_plan_id":"free"},{"bike_id":"beb93061-85bf-4e20-99aa-79c67497ba42","system_id":"levelo_inurba_marseille","lat":43.295511,"lon":5.422926,"is_reserved":false,"is_disabled":false,"rental_uris":{"android":"levelo://app?vid=beb93061-85bf-4e20-99aa-79c67497ba42","ios":"levelo://app?vid=beb93061-85bf-4e20-99aa-79c67497ba42"},"vehicle_type_id":"4","last_reported":1703977598,"current_range_meters":18000,"station_id":"ce4bhph2rcd13ifvqhdg","pricing_plan_id":"free"},{"bike_id":"6876aea3-bcae-4465-9248-ec0980fc3939","system_id":"levelo_inurba_marseille","lat":43.295511,"lon":5.422926,"is_reserved":false,"is_disabled":false,"rental_uris":{"android":"levelo://app?vid=6876aea3-bcae-4465-9248-ec0980fc3939","ios":"levelo://app?vid=6876aea3-bcae-4465-9248-ec0980fc3939"},"vehicle_type_id":"4","last_reported":1703977598,"current_range_meters":16800,"station_id":"ce4bhph2rcd13ifvqhdg","pricing_plan_id":"free"},{"bike_id":"8c671fd2-70f3-49e3-b1ad-6215c69b20b9","system_id":"levelo_inurba_marseille","lat":43.272124,"lon":5.391768,"is_reserved":false,"is_disabled":false,"rental_uris":{"android":"levelo://app?vid=8c671fd2-70f3-49e3-b1ad-6215c69b20b9","ios":"levelo://app?vid=8c671fd2-70f3-49e3-b1ad-6215c69b20b9"},"vehicle_type_id":"4","last_reported":1703977598,"current_range_meters":14400,"station_id":"ce4bhhp2rcd13ifvqfm0","pricing_plan_id":"free"},{"bike_id":"9734c840-b4a7-4906-96ca-5ab8ce219363","system_id":"levelo_inurba_marseille","lat":43.272118,"lon":5.391758,"is_reserved":false,"is_disabled":false,"rental_uris":{"android":"levelo://app?vid=9734c840-b4a7-4906-96ca-5ab8ce219363","ios":"levelo://app?vid=9734c840-b4a7-4906-96ca-5ab8ce219363"},"vehicle_type_id":"4","last_reported":1703977598,"current_range_meters":7200,"station_id":"ce4bhhp2rcd13ifvqfm0","pricing_plan_id":"free"},{"bike_id":"87c655f2-c2e0-4a1d-90d3-4dab5ecef878","system_id":"levelo_inurba_marseille","lat":43.272116,"lon":5.391747,"is_reserved":false,"is_disabled":false,"rental_uris":{"android":"levelo://app?vid=87c655f2-c2e0-4a1d-90d3-4dab5ecef878","ios":"levelo://app?vid=87c655f2-c2e0-4a1d-90d3-4dab5ecef878"},"vehicle_type_id":"4","last_reported":1703977598,"current_range_meters":0,"station_id":"ce4bhhp2rcd13ifvqfm0","pricing_plan_id":"free"},{"bike_id":"d060ee75-2d43-419a-ab7d-06748f433214","system_id":"levelo_inurba_marseille","lat":43.278128,"lon":5.407195,"is_reserved":false,"is_disabled":false,"rental_uris":{"android":"levelo://app?vid=d060ee75-2d43-419a-ab7d-06748f433214","ios":"levelo://app?vid=d060ee75-2d43-419a-ab7d-06748f433214"},"vehicle_type_id":"4","last_reported":1703977598,"current_range_meters":31200,"station_id":"ce4bhnh2rcd13ifvqgtg","pricing_plan_id":"free"},{"bike_id":"1b427aac-5b26-4693-8c6d-5ea0e9b3c67e","system_id":"levelo_inurba_marseille","lat":43.269467,"lon":5.386439,"is_reserved":false,"is_disabled":false,"rental_uris":{"android":"levelo://app?vid=1b427aac-5b26-4693-8c6d-5ea0e9b3c67e","ios":"levelo://app?vid=1b427aac-5b26-4693-8c6d-5ea0e9b3c67e"},"vehicle_type_id":"4","last_reported":1703977598,"current_range_meters":7600,"station_id":"ce4bhh92rcd13ifvqfh0","pricing_plan_id":"free"},{"bike_id":"a651a69e-ab76-4599-8c57-6bb3630f7058","system_id":"levelo_inurba_marseille","lat":43.269319,"lon":5.389397,"is_reserved":false,"is_disabled":false,"rental_uris":{"android":"levelo://app?vid=a651a69e-ab76-4599-8c57-6bb3630f7058","ios":"levelo://app?vid=a651a69e-ab76-4599-8c57-6bb3630f7058"},"vehicle_type_id":"4","last_reported":1703977598,"current_range_meters":27600,"station_id":"ce4bhhh2rcd13ifvqfl0","pricing_plan_id":"free"},{"bike_id":"4ace0143-54eb-450f-874b-0d5359e906a6","system_id":"levelo_inurba_marseille","lat":43.31299,"lon":5.4309,"is_reserved":false,"is_disabled":false,"rental_uris":{"android":"levelo://app?vid=4ace0143-54eb-450f-874b-0d5359e906a6","ios":"levelo://app?vid=4ace0143-54eb-450f-874b-0d5359e906a6"},"vehicle_type_id":"4","last_reported":1703977598,"current_range_meters":29600,"station_id":"","pricing_plan_id":"free"},{"bike_id":"b13eed8c-1a94-4423-b5d6-ede7d4833ea0","system_id":"levelo_inurba_marseille","lat":43.27996,"lon":5.416624,"is_reserved":false,"is_disabled":false,"rental_uris":{"android":"levelo://app?vid=b13eed8c-1a94-4423-b5d6-ede7d4833ea0","ios":"levelo://app?vid=b13eed8c-1a94-4423-b5d6-ede7d4833ea0"},"vehicle_type_id":"4","last_reported":1703977598,"current_range_meters":20800,"station_id":"ce4bho12rcd13ifvqh1g","pricing_plan_id":"free"},{"bike_id":"1c7b2420-34e7-4cda-9b8d-e5551d4017de","system_id":"levelo_inurba_marseille","lat":43.27996,"lon":5.416624,"is_reserved":false,"is_disabled":false,"rental_uris":{"android":"levelo://app?vid=1c7b2420-34e7-4cda-9b8d-e5551d4017de","ios":"levelo://app?vid=1c7b2420-34e7-4cda-9b8d-e5551d4017de"},"vehicle_type_id":"4","last_reported":1703977598,"current_range_meters":20800,"station_id":"ce4bho12rcd13ifvqh1g","pricing_plan_id":"free"},{"bike_id":"cd635db9-8d90-4d69-96f1-7990be617026","system_id":"levelo_inurba_marseille","lat":43.27996,"lon":5.416624,"is_reserved":false,"is_disabled":false,"rental_uris":{"android":"levelo://app?vid=cd635db9-8d90-4d69-96f1-7990be617026","ios":"levelo://app?vid=cd635db9-8d90-4d69-96f1-7990be617026"},"vehicle_type_id":"4","last_reported":1703977598,"current_range_meters":14000,"station_id":"ce4bho12rcd13ifvqh1g","pricing_plan_id":"free"},{"bike_id":"40c945d6-0276-4a48-b299-960f10ed7965","system_id":"levelo_inurba_marseille","lat":43.27996,"lon":5.416624,"is_reserved":false,"is_disabled":false,"rental_uris":{"android":"levelo://app?vid=40c945d6-0276-4a48-b299-960f10ed7965","ios":"levelo://app?vid=40c945d6-0276-4a48-b299-960f10ed7965"},"vehicle_type_id":"4","last_reported":1703977598,"current_range_meters":14000,"station_id":"ce4bho12rcd13ifvqh1g","pricing_plan_id":"free"},{"bike_id":"2569f04e-45a6-4ae1-8672-b39d66a61ea8","system_id":"levelo_inurba_marseille","lat":43.27996,"lon":5.416624,"is_reserved":false,"is_disabled":false,"rental_uris":{"android":"levelo://app?vid=2569f04e-45a6-4ae1-8672-b39d66a61ea8","ios":"levelo://app?vid=2569f04e-45a6-4ae1-8672-b39d66a61ea8"},"vehicle_type_id":"4","last_reported":1703977598,"current_range_meters":16000,"station_id":"ce4bho12rcd13ifvqh1g","pricing_plan_id":"free"},{"bike_id":"267606f5-650f-4b88-939b-5a7bc7045522","system_id":"levelo_inurba_marseille","lat":43.27996,"lon":5.416624,"is_reserved":false,"is_disabled":false,"rental_uris":{"android":"levelo://app?vid=267606f5-650f-4b88-939b-5a7bc7045522","ios":"levelo://app?vid=267606f5-650f-4b88-939b-5a7bc7045522"},"vehicle_type_id":"4","last_reported":1703977598,"current_range_meters":28400,"station_id":"ce4bho12rcd13ifvqh1g","pricing_plan_id":"free"},{"bike_id":"6360d5f3-4af1-46b3-b9af-6b80a26ce6ca","system_id":"levelo_inurba_marseille","lat":43.27996,"lon":5.416624,"is_reserved":false,"is_disabled":false,"rental_uris":{"android":"levelo://app?vid=6360d5f3-4af1-46b3-b9af-6b80a26ce6ca","ios":"levelo://app?vid=6360d5f3-4af1-46b3-b9af-6b80a26ce6ca"},"vehicle_type_id":"4","last_reported":1703977598,"current_range_meters":28800,"station_id":"ce4bho12rcd13ifvqh1g","pricing_plan_id":"free"},{"bike_id":"794d1991-5e26-411d-81f7-e3cad63f67b8","system_id":"levelo_inurba_marseille","lat":43.308051,"lon":5.43527,"is_reserved":false,"is_disabled":false,"rental_uris":{"android":"levelo://app?vid=794d1991-5e26-411d-81f7-e3cad63f67b8","ios":"levelo://app?vid=794d1991-5e26-411d-81f7-e3cad63f67b8"},"vehicle_type_id":"4","last_reported":1703977598,"current_range_meters":8800,"station_id":"ce4bhph2rcd13ifvqheg","pricing_plan_id":"free"},{"bike_id":"109313f9-71f8-49b1-a95b-7c7e1a73f29b","system_id":"levelo_inurba_marseille","lat":43.308051,"lon":5.43527,"is_reserved":false,"is_disabled":false,"rental_uris":{"android":"levelo://app?vid=109313f9-71f8-49b1-a95b-7c7e1a73f29b","ios":"levelo://app?vid=109313f9-71f8-49b1-a95b-7c7e1a73f29b"},"vehicle_type_id":"4","last_reported":1703977598,"current_range_meters":27600,"station_id":"ce4bhph2rcd13ifvqheg","pricing_plan_id":"free"},{"bike_id":"9e15925c-33ab-47bd-a788-cbec8b9fb708","system_id":"levelo_inurba_marseille","lat":43.308051,"lon":5.43527,"is_reserved":false,"is_disabled":false,"rental_uris":{"android":"levelo://app?vid=9e15925c-33ab-47bd-a788-cbec8b9fb708","ios":"levelo://app?vid=9e15925c-33ab-47bd-a788-cbec8b9fb708"},"vehicle_type_id":"4","last_reported":1703977598,"current_range_meters":26800,"station_id":"ce4bhph2rcd13ifvqheg","pricing_plan_id":"free"},{"bike_id":"3d6f9101-849e-46ac-aab7-d2b230d90650","system_id":"levelo_inurba_marseille","lat":43.26949,"lon":5.40262,"is_reserved":false,"is_disabled":false,"rental_uris":{"android":"levelo://app?vid=3d6f9101-849e-46ac-aab7-d2b230d90650","ios":"levelo://app?vid=3d6f9101-849e-46ac-aab7-d2b230d90650"},"vehicle_type_id":"4","last_reported":1703977598,"current_range_meters":14000,"station_id":"cjm6bp8fraef2m0cb0m0","pricing_plan_id":"free"},{"bike_id":"dac5ea74-92f7-462e-b536-31f322bb01c0","system_id":"levelo_inurba_marseille","lat":43.331893,"lon":5.431791,"is_reserved":false,"is_disabled":false,"rental_uris":{"android":"levelo://app?vid=dac5ea74-92f7-462e-b536-31f322bb01c0","ios":"levelo://app?vid=dac5ea74-92f7-462e-b536-31f322bb01c0"},"vehicle_type_id":"4","last_reported":1703977598,"current_range_meters":13600,"station_id":"","pricing_plan_id":"free"},{"bike_id":"fe8b4f3d-85b9-44b6-af42-2a5b3cbec98c","system_id":"levelo_inurba_marseille","lat":43.317104,"lon":5.436818,"is_reserved":false,"is_disabled":false,"rental_uris":{"android":"levelo://app?vid=fe8b4f3d-85b9-44b6-af42-2a5b3cbec98c","ios":"levelo://app?vid=fe8b4f3d-85b9-44b6-af42-2a5b3cbec98c"},"vehicle_type_id":"4","last_reported":1703977598,"current_range_meters":26800,"station_id":"ce4bhp92rcd13ifvqhcg","pricing_plan_id":"free"},{"bike_id":"915d94a5-285f-4920-b9f1-782b255c72d3","system_id":"levelo_inurba_marseille","lat":43.317104,"lon":5.436818,"is_reserved":false,"is_disabled":false,"rental_uris":{"android":"levelo://app?vid=915d94a5-285f-4920-b9f1-782b255c72d3","ios":"levelo://app?vid=915d94a5-285f-4920-b9f1-782b255c72d3"},"vehicle_type_id":"4","last_reported":1703977598,"current_range_meters":16400,"station_id":"ce4bhp92rcd13ifvqhcg","pricing_plan_id":"free"},{"bike_id":"8b46248b-ee76-4399-b020-1926290994f4","system_id":"levelo_inurba_marseille","lat":43.26202,"lon":5.379299,"is_reserved":false,"is_disabled":false,"rental_uris":{"android":"levelo://app?vid=8b46248b-ee76-4399-b020-1926290994f4","ios":"levelo://app?vid=8b46248b-ee76-4399-b020-1926290994f4"},"vehicle_type_id":"4","last_reported":1703977598,"current_range_meters":0,"station_id":"ce4bhjp2rcd13ifvqg90","pricing_plan_id":"free"},{"bike_id":"0c125e61-f202-43bb-ae66-d9f50fb02940","system_id":"levelo_inurba_marseille","lat":43.26202,"lon":5.379299,"is_reserved":false,"is_disabled":false,"rental_uris":{"android":"levelo://app?vid=0c125e61-f202-43bb-ae66-d9f50fb02940","ios":"levelo://app?vid=0c125e61-f202-43bb-ae66-d9f50fb02940"},"vehicle_type_id":"4","last_reported":1703977598,"current_range_meters":15600,"station_id":"ce4bhjp2rcd13ifvqg90","pricing_plan_id":"free"},{"bike_id":"794ab64e-1955-4766-b844-628f1c76e2d8","system_id":"levelo_inurba_marseille","lat":43.27175,"lon":5.4099,"is_reserved":false,"is_disabled":false,"rental_uris":{"android":"levelo://app?vid=794ab64e-1955-4766-b844-628f1c76e2d8","ios":"levelo://app?vid=794ab64e-1955-4766-b844-628f1c76e2d8"},"vehicle_type_id":"4","last_reported":1703977598,"current_range_meters":24400,"station_id":"ce4bhl12rcd13ifvqgf0","pricing_plan_id":"free"},{"bike_id":"dbe878c3-ebe8-4a1a-bda1-21547808cc9b","system_id":"levelo_inurba_marseille","lat":43.271388,"lon":5.409269,"is_reserved":false,"is_disabled":false,"rental_uris":{"android":"levelo://app?vid=dbe878c3-ebe8-4a1a-bda1-21547808cc9b","ios":"levelo://app?vid=dbe878c3-ebe8-4a1a-bda1-21547808cc9b"},"vehicle_type_id":"4","last_reported":1703977598,"current_range_meters":19600,"station_id":"ce4bhl12rcd13ifvqgf0","pricing_plan_id":"free"},{"bike_id":"b85dcc16-ffcb-4df1-a788-3e6dccec2256","system_id":"levelo_inurba_marseille","lat":43.2651,"lon":5.39469,"is_reserved":false,"is_disabled":false,"rental_uris":{"android":"levelo://app?vid=b85dcc16-ffcb-4df1-a788-3e6dccec2256","ios":"levelo://app?vid=b85dcc16-ffcb-4df1-a788-3e6dccec2256"},"vehicle_type_id":"4","last_reported":1703977598,"current_range_meters":10800,"station_id":"ce4bhi12rcd13ifvqfq0","pricing_plan_id":"free"},{"bike_id":"048306d8-69df-4d21-99c9-8745e525e8de","system_id":"levelo_inurba_marseille","lat":43.29896,"lon":5.43657,"is_reserved":false,"is_disabled":false,"rental_uris":{"android":"levelo://app?vid=048306d8-69df-4d21-99c9-8745e525e8de","ios":"levelo://app?vid=048306d8-69df-4d21-99c9-8745e525e8de"},"vehicle_type_id":"4","last_reported":1703977598,"current_range_meters":5600,"station_id":"ce4bhpp2rcd13ifvqhfg","pricing_plan_id":"free"},{"bike_id":"812614fc-f43d-42cd-8379-6bce06a75358","system_id":"levelo_inurba_marseille","lat":43.298768,"lon":5.43643,"is_reserved":false,"is_disabled":false,"rental_uris":{"android":"levelo://app?vid=812614fc-f43d-42cd-8379-6bce06a75358","ios":"levelo://app?vid=812614fc-f43d-42cd-8379-6bce06a75358"},"vehicle_type_id":"4","last_reported":1703977598,"current_range_meters":31200,"station_id":"ce4bhpp2rcd13ifvqhfg","pricing_plan_id":"free"},{"bike_id":"4e011c37-f126-433b-a488-7ed2749557ae","system_id":"levelo_inurba_marseille","lat":43.298768,"lon":5.43643,"is_reserved":false,"is_disabled":false,"rental_uris":{"android":"levelo://app?vid=4e011c37-f126-433b-a488-7ed2749557ae","ios":"levelo://app?vid=4e011c37-f126-433b-a488-7ed2749557ae"},"vehicle_type_id":"4","last_reported":1703977598,"current_range_meters":21200,"station_id":"ce4bhpp2rcd13ifvqhfg","pricing_plan_id":"free"},{"bike_id":"0d574b27-0544-48a4-bf39-ede07ecbf8c3","system_id":"levelo_inurba_marseille","lat":43.281548,"lon":5.42643,"is_reserved":false,"is_disabled":false,"rental_uris":{"android":"levelo://app?vid=0d574b27-0544-48a4-bf39-ede07ecbf8c3","ios":"levelo://app?vid=0d574b27-0544-48a4-bf39-ede07ecbf8c3"},"vehicle_type_id":"4","last_reported":1703977598,"current_range_meters":10400,"station_id":"ce4bhnh2rcd13ifvqgug","pricing_plan_id":"free"},{"bike_id":"554274c1-29da-4e13-9454-6cf149455d56","system_id":"levelo_inurba_marseille","lat":43.281548,"lon":5.42643,"is_reserved":false,"is_disabled":false,"rental_uris":{"android":"levelo://app?vid=554274c1-29da-4e13-9454-6cf149455d56","ios":"levelo://app?vid=554274c1-29da-4e13-9454-6cf149455d56"},"vehicle_type_id":"4","last_reported":1703977598,"current_range_meters":31600,"station_id":"ce4bhnh2rcd13ifvqgug","pricing_plan_id":"free"},{"bike_id":"be10eabf-bd30-4d18-a41f-8d748a3064b1","system_id":"levelo_inurba_marseille","lat":43.281548,"lon":5.42643,"is_reserved":false,"is_disabled":false,"rental_uris":{"android":"levelo://app?vid=be10eabf-bd30-4d18-a41f-8d748a3064b1","ios":"levelo://app?vid=be10eabf-bd30-4d18-a41f-8d748a3064b1"},"vehicle_type_id":"4","last_reported":1703977598,"current_range_meters":18800,"station_id":"ce4bhnh2rcd13ifvqgug","pricing_plan_id":"free"},{"bike_id":"0c5cb810-16ed-4b8f-9df0-3ac1374db3bf","system_id":"levelo_inurba_marseille","lat":43.28155,"lon":5.42648,"is_reserved":false,"is_disabled":false,"rental_uris":{"android":"levelo://app?vid=0c5cb810-16ed-4b8f-9df0-3ac1374db3bf","ios":"levelo://app?vid=0c5cb810-16ed-4b8f-9df0-3ac1374db3bf"},"vehicle_type_id":"4","last_reported":1703977598,"current_range_meters":26400,"station_id":"ce4bhnh2rcd13ifvqgug","pricing_plan_id":"free"},{"bike_id":"dba94adf-8631-4e52-b14e-ab5df234ae8e","system_id":"levelo_inurba_marseille","lat":43.281548,"lon":5.42643,"is_reserved":false,"is_disabled":false,"rental_uris":{"android":"levelo://app?vid=dba94adf-8631-4e52-b14e-ab5df234ae8e","ios":"levelo://app?vid=dba94adf-8631-4e52-b14e-ab5df234ae8e"},"vehicle_type_id":"4","last_reported":1703977598,"current_range_meters":30000,"station_id":"ce4bhnh2rcd13ifvqgug","pricing_plan_id":"free"},{"bike_id":"908d71b6-e402-4dae-9c3f-6db73bd6aa09","system_id":"levelo_inurba_marseille","lat":43.275028,"lon":5.424534,"is_reserved":false,"is_disabled":false,"rental_uris":{"android":"levelo://app?vid=908d71b6-e402-4dae-9c3f-6db73bd6aa09","ios":"levelo://app?vid=908d71b6-e402-4dae-9c3f-6db73bd6aa09"},"vehicle_type_id":"4","last_reported":1703977598,"current_range_meters":6000,"station_id":"ce4bhn92rcd13ifvqgrg","pricing_plan_id":"free"},{"bike_id":"ca9c4ad1-1f51-4205-ae09-010309350867","system_id":"levelo_inurba_marseille","lat":43.25503,"lon":5.37649,"is_reserved":false,"is_disabled":false,"rental_uris":{"android":"levelo://app?vid=ca9c4ad1-1f51-4205-ae09-010309350867","ios":"levelo://app?vid=ca9c4ad1-1f51-4205-ae09-010309350867"},"vehicle_type_id":"4","last_reported":1703977598,"current_range_meters":24800,"station_id":"ce4bhh12rcd13ifvqff0","pricing_plan_id":"free"},{"bike_id":"52cb94c4-339b-4ef7-aba5-9c663d161322","system_id":"levelo_inurba_marseille","lat":43.255,"lon":5.37649,"is_reserved":false,"is_disabled":false,"rental_uris":{"android":"levelo://app?vid=52cb94c4-339b-4ef7-aba5-9c663d161322","ios":"levelo://app?vid=52cb94c4-339b-4ef7-aba5-9c663d161322"},"vehicle_type_id":"4","last_reported":1703977598,"current_range_meters":20800,"station_id":"ce4bhh12rcd13ifvqff0","pricing_plan_id":"free"},{"bike_id":"b5c0d518-fe08-4e57-b4da-6a19597bb3df","system_id":"levelo_inurba_marseille","lat":43.254945,"lon":5.376454,"is_reserved":false,"is_disabled":false,"rental_uris":{"android":"levelo://app?vid=b5c0d518-fe08-4e57-b4da-6a19597bb3df","ios":"levelo://app?vid=b5c0d518-fe08-4e57-b4da-6a19597bb3df"},"vehicle_type_id":"4","last_reported":1703977598,"current_range_meters":29600,"station_id":"ce4bhh12rcd13ifvqff0","pricing_plan_id":"free"},{"bike_id":"d1cda8d7-d86f-4140-be6e-b829c0223e99","system_id":"levelo_inurba_marseille","lat":43.270721,"lon":5.422764,"is_reserved":false,"is_disabled":false,"rental_uris":{"android":"levelo://app?vid=d1cda8d7-d86f-4140-be6e-b829c0223e99","ios":"levelo://app?vid=d1cda8d7-d86f-4140-be6e-b829c0223e99"},"vehicle_type_id":"4","last_reported":1703977598,"current_range_meters":30000,"station_id":"ce4bhk92rcd13ifvqgb0","pricing_plan_id":"free"},{"bike_id":"cbcbfa1f-f48c-4dfe-b60f-b1878906d6bf","system_id":"levelo_inurba_marseille","lat":43.258658,"lon":5.398935,"is_reserved":false,"is_disabled":false,"rental_uris":{"android":"levelo://app?vid=cbcbfa1f-f48c-4dfe-b60f-b1878906d6bf","ios":"levelo://app?vid=cbcbfa1f-f48c-4dfe-b60f-b1878906d6bf"},"vehicle_type_id":"4","last_reported":1703977598,"current_range_meters":10000,"station_id":"ce4bhl92rcd13ifvqghg","pricing_plan_id":"free"},