{"last_updated":1735808994,"ttl":60,"version":"2.2","data":{"bikes":[{"bike_id":"6921c701-675b-4411-b28e-a56903e4b8b7","system_id":"levelo_inurba_marseille","lat":43.28066,"lon":5.39613,"is_reserved":false,"is_disabled":false,"rental_uris":{"android":"levelo://app?vid=6921c701-675b-4411-b28e-a56903e4b8b7","ios":"levelo://app?vid=6921c701-675b-4411-b28e-a56903e4b8b7"},"vehicle_type_id":"4","last_reported":1735808995,"current_range_meters":29600,"station_id":"ce4bho12rcd13ifvqh2g","pricing_plan_id":"cebpf4jnsgd1na2vs0mg"},{"bike_id":"5ee06d1f-f474-4883-9d52-622f82f42531","system_id":"levelo_inurba_marseille","lat":43.32552,"lon":5.41439,"is_reserved":false,"is_disabled":false,"rental_uris":{"android":"levelo://app?vid=5ee06d1f-f474-4883-9d52-622f82f42531","ios":"levelo://app?vid=5ee06d1f-f474-4883-9d52-622f82f42531"},"vehicle_type_id":"4","last_reported":1735808995,"current_range_meters":38400,"station_id":"ce4bhq12rcd13ifvqhhg","pricing_plan_id":"cebpf4jnsgd1na2vs0mg"},{"bike_id":"172ccd61-d49f-41ee-9d70-c90aa70835fe","system_id":"levelo_inurba_marseille","lat":43.27439,"lon":5.39428,"is_reserved":false,"is_disabled":false,"rental_uris":{"android":"levelo://app?vid=172ccd61-d49f-41ee-9d70-c90aa70835fe","ios":"levelo://app?vid=172ccd61-d49f-41ee-9d70-c90aa70835fe"},"vehicle_type_id":"4","last_reported":1735808995,"current_range_meters":35600,"station_id":"ce4bhdp2rcd13ifvqf20","pricing_plan_id":"cebpf4jnsgd1na2vs0mg"},{"bike_id":"0750d2f4-8afa-40ed-9c4c-32e22a33c267","system_id":"levelo_inurba_marseille","lat":43.26807,"lon":5.4027,"is_reserved":false,"is_disabled":true,"rental_uris":{"android":"levelo://app?vid=0750d2f4-8afa-40ed-9c4c-32e22a33c267","ios":"levelo://app?vid=0750d2f4-8afa-40ed-9c4c-32e22a33c267"},"vehicle_type_id":"4","last_reported":1735808995,"current_range_meters":32400,"station_id":"ce501612rcd8frsf0b60","pricing_plan_id":"cebpf4jnsgd1na2vs0mg"},{"bike_id":"9f53e4dc-a826-426b-9ca9-adccc5d43e1f","system_id":"levelo_inurba_marseille","lat":43.259273,"lon":5.409002,"is_reserved":false,"is_disabled":false,"rental_uris":{"android":"levelo://app?vid=9f53e4dc-a826-426b-9ca9-adccc5d43e1f","ios":"levelo://app?vid=9f53e4dc-a826-426b-9ca9-adccc5d43e1f"},"vehicle_type_id":"4","last_reported":1735808995,"current_range_meters":26800,"station_id":"ce4bhm92rcd13ifvqglg","pricing_plan_id":"cebpf4jnsgd1na2vs0mg"},{"bike_id":"bc774450-9e82-4b77-bec0-9757df77a13c","system_id":"levelo_inurba_marseille","lat":43.26494,"lon":5.39548,"is_reserved":false,"is_disabled":false,"rental_uris":{"android":"levelo://app?vid=bc774450-9e82-4b77-bec0-9757df77a13c","ios":"levelo://app?vid=bc774450-9e82-4b77-bec0-9757df77a13c"},"vehicle_type_id":"4","last_reported":1735808995,"current_range_meters":38800,"station_id":"ce4bhi12rcd13ifvqfq0","pricing_plan_id":"cebpf4jnsgd1na2vs0mg"},{"bike_id":"30675ccc-9ef1-40b1-963e-228cee2b4741","system_id":"levelo_inurba_marseille","lat":43.27943,"lon":5.41051,"is_reserved":false,"is_disabled":true,"rental_uris":{"android":"levelo://app?vid=30675ccc-9ef1-40b1-963e-228cee2b4741","ios":"levelo://app?vid=30675ccc-9ef1-40b1-963e-228cee2b4741"},"vehicle_type_id":"4","last_reported":1735808995,"current_range_meters":16400,"station_id":"ce4bhnp2rcd13ifvqh0g","pricing_plan_id":"cebpf4jnsgd1na2vs0mg"},{"bike_id":"cec5c0fc-e772-4040-9404-4cb004601c12","system_id":"levelo_inurba_marseille","lat":43.28403,"lon":5.38565,"is_reserved":false,"is_disabled":false,"rental_uris":{"android":"levelo://app?vid=cec5c0fc-e772-4040-9404-4cb004601c12","ios":"levelo://app?vid=cec5c0fc-e772-4040-9404-4cb004601c12"},"vehicle_type_id":"4","last_reported":1735808995,"current_range_meters":39200,"station_id":"ce4bh492rcd13ifvqdvg","pricing_plan_id":"cebpf4jnsgd1na2vs0mg"},{"bike_id":"259412ae-a9bb-43fa-89b0-91ce274ab21d","system_id":"levelo_inurba_marseille","lat":43.25717,"lon":5.41084,"is_reserved":false,"is_disabled":false,"rental_uris":{"android":"levelo://app?vid=259412ae-a9bb-43fa-89b0-91ce274ab21d","ios":"levelo://app?vid=259412ae-a9bb-43fa-89b0-91ce274ab21d"},"vehicle_type_id":"4","last_reported":1735808995,"current_range_meters":38400,"station_id":"ce4bhkp2rcd13ifvqgd0","pricing_plan_id":"cebpf4jnsgd1na2vs0mg"},{"bike_id":"29c2c70e-848e-4bef-a039-791b9e86ab9b","system_id":"levelo_inurba_marseille","lat":43.29625,"lon":5.37731,"is_reserved":false,"is_disabled":false,"rental_uris":{"android":"levelo://app?vid=29c2c70e-848e-4bef-a039-791b9e86ab9b","ios":"levelo://app?vid=29c2c70e-848e-4bef-a039-791b9e86ab9b"},"vehicle_type_id":"4","last_reported":1735808995,"current_range_meters":35200,"station_id":"ce4bgi92rcd13ifvqb90","pricing_plan_id":"cebpf4jnsgd1na2vs0mg"},{"bike_id":"20659d93-4d73-4c77-bdf3-5a50208f850c","system_id":"levelo_inurba_marseille","lat":43.24666,"lon":5.38166,"is_reserved":false,"is_disabled":false,"rental_uris":{"android":"levelo://app?vid=20659d93-4d73-4c77-bdf3-5a50208f850c","ios":"levelo://app?vid=20659d93-4d73-4c77-bdf3-5a50208f850c"},"vehicle_type_id":"4","last_reported":1735808995,"current_range_meters":26800,"station_id":"ce4bhih2rcd13ifvqfr0","pricing_plan_id":"cebpf4jnsgd1na2vs0mg"},{"bike_id":"ecc3b496-caff-4199-ad9c-4fb48fb69a8c","system_id":"levelo_inurba_marseille","lat":43.25486,"lon":5.37658,"is_reserved":false,"is_disabled":false,"rental_uris":{"android":"levelo://app?vid=ecc3b496-caff-4199-ad9c-4fb48fb69a8c","ios":"levelo://app?vid=ecc3b496-caff-4199-ad9c-4fb48fb69a8c"},"vehicle_type_id":"4","last_reported":1735808995,"current_range_meters":37600,"station_id":"ce4bhh12rcd13ifvqff0","pricing_plan_id":"cebpf4jnsgd1na2vs0mg"},{"bike_id":"0ee7dbed-7540-4de9-94e5-dcf46398860b","system_id":"levelo_inurba_marseille","lat":43.26198,"lon":5.37454,"is_reserved":false,"is_disabled":false,"rental_uris":{"android":"levelo://app?vid=0ee7dbed-7540-4de9-94e5-dcf46398860b","ios":"levelo://app?vid=0ee7dbed-7540-4de9-94e5-dcf46398860b"},"vehicle_type_id":"4","last_reported":1735808995,"current_range_meters":27600,"station_id":"ce4bhgp2rcd13ifvqfc0","pricing_plan_id":"cebpf4jnsgd1na2vs0mg"},{"bike_id":"116f92ae-65b4-4f7c-a23b-1117c0a69b33","system_id":"levelo_inurba_marseille","lat":43.28599,"lon":5.3512,"is_reserved":false,"is_disabled":false,"rental_uris":{"android":"levelo://app?vid=116f92ae-65b4-4f7c-a23b-1117c0a69b33","ios":"levelo://app?vid=116f92ae-65b4-4f7c-a23b-1117c0a69b33"},"vehicle_type_id":"4","last_reported":1735808995,"current_range_meters":31200,"station_id":"ce4bhch2rcd13ifvqeug","pricing_plan_id":"cebpf4jnsgd1na2vs0mg"},{"bike_id":"e423629e-caf1-4427-8702-b30357fe9b81","system_id":"levelo_inurba_marseille","lat":43.24983,"lon":5.38941,"is_reserved":false,"is_disabled":false,"rental_uris":{"android":"levelo://app?vid=e423629e-caf1-4427-8702-b30357fe9b81","ios":"levelo://app?vid=e423629e-caf1-4427-8702-b30357fe9b81"},"vehicle_type_id":"4","last_reported":1735808995,"current_range_meters":16000,"station_id":"ce4bhgp2rcd13ifvqfd0","pricing_plan_id":"cebpf4jnsgd1na2vs0mg"},{"bike_id":"5430a545-a0f1-45ad-a500-b4193006fdcf","system_id":"levelo_inurba_marseille","lat":43.231926,"lon":5.355603,"is_reserved":false,"is_disabled":false,"rental_uris":{"android":"levelo://app?vid=5430a545-a0f1-45ad-a500-b4193006fdcf","ios":"levelo://app?vid=5430a545-a0f1-45ad-a500-b4193006fdcf"},"vehicle_type_id":"4","last_reported":1735808995,"current_range_meters":21600,"station_id":"ce4bhu92rcd13ifvqi70","pricing_plan_id":"cebpf4jnsgd1na2vs0mg"},{"bike_id":"e32d7aa6-4586-4a07-a65b-f19ace97ad67","system_id":"levelo_inurba_marseille","lat":43.2693,"lon":5.38652,"is_reserved":false,"is_disabled":false,"rental_uris":{"android":"levelo://app?vid=e32d7aa6-4586-4a07-a65b-f19ace97ad67","ios":"levelo://app?vid=e32d7aa6-4586-4a07-a65b-f19ace97ad67"},"vehicle_type_id":"4","last_reported":1735808995,"current_range_meters":30400,"station_id":"ce4bhh92rcd13ifvqfh0","pricing_plan_id":"cebpf4jnsgd1na2vs0mg"},{"bike_id":"ebb56956-e2e2-4f51-8f7a-80ccc26c078c","system_id":"levelo_inurba_marseille","lat":43.28151,"lon":5.42641,"is_reserved":false,"is_disabled":false,"rental_uris":{"android":"levelo://app?vid=ebb56956-e2e2-4f51-8f7a-80ccc26c078c","ios":"levelo://app?vid=ebb56956-e2e2-4f51-8f7a-80ccc26c078c"},"vehicle_type_id":"4","last_reported":1735808995,"current_range_meters":36000,"station_id":"ce4bhnh2rcd13ifvqgug","pricing_plan_id":"cebpf4jnsgd1na2vs0mg"},{"bike_id":"231101e3-5552-421b-ad79-40d05dd09ca1","system_id":"levelo_inurba_marseille","lat":43.33716,"lon":5.39165,"is_reserved":false,"is_disabled":false,"rental_uris":{"android":"levelo://app?vid=231101e3-5552-421b-ad79-40d05dd09ca1","ios":"levelo://app?vid=231101e3-5552-421b-ad79-40d05dd09ca1"},"vehicle_type_id":"4","last_reported":1735808995,"current_range_meters":38800,"station_id":"ce4bhr92rcd13ifvqhsg","pricing_plan_id":"cebpf4jnsgd1na2vs0mg"},{"bike_id":"66e8c50d-4c8f-4315-979e-1330a35be99c","system_id":"levelo_inurba_marseille","lat":43.29534,"lon":5.38539,"is_reserved":false,"is_disabled":false,"rental_uris":{"android":"levelo://app?vid=66e8c50d-4c8f-4315-979e-1330a35be99c","ios":"levelo://app?vid=66e8c50d-4c8f-4315-979e-1330a35be99c"},"vehicle_type_id":"4","last_reported":1735808995,"current_range_meters":39200,"station_id":"ce4bgih2rcd13ifvqba0","pricing_plan_id":"cebpf4jnsgd1na2vs0mg"},{"bike_id":"f11b9d11-ef3b-4e4c-946f-bb724c228700","system_id":"levelo_inurba_marseille","lat":43.24172,"lon":5.39737,"is_reserved":false,"is_disabled":false,"rental_uris":{"android":"levelo://app?vid=f11b9d11-ef3b-4e4c-946f-bb724c228700","ios":"levelo://app?vid=f11b9d11-ef3b-4e4c-946f-bb724c228700"},"vehicle_type_id":"4","last_reported":1735808995,"current_range_meters":26800,"station_id":"ce4bhn12rcd13ifvqgpg","pricing_plan_id":"cebpf4jnsgd1na2vs0mg"},{"bike_id":"406c72fc-c815-4840-861a-36d7f7f2fd01","system_id":"levelo_inurba_marseille","lat":43.23204,"lon":5.35559,"is_reserved":false,"is_disabled":false,"rental_uris":{"android":"levelo://app?vid=406c72fc-c815-4840-861a-36d7f7f2fd01","ios":"levelo://app?vid=406c72fc-c815-4840-861a-36d7f7f2fd01"},"vehicle_type_id":"4","last_reported":1735808995,"current_range_meters":38000,"station_id":"ce4bhu92rcd13ifvqi70","pricing_plan_id":"cebpf4jnsgd1na2vs0mg"},{"bike_id":"89dcc7b2-6e83-481a-8d85-32a7e16b5a26","system_id":"levelo_inurba_marseille","lat":43.29573,"lon":5.39957,"is_reserved":false,"is_disabled":false,"rental_uris":{"android":"levelo://app?vid=89dcc7b2-6e83-481a-8d85-32a7e16b5a26","ios":"levelo://app?vid=89dcc7b2-6e83-481a-8d85-32a7e16b5a26"},"vehicle_type_id":"4","last_reported":1735808995,"current_range_meters":38000,"station_id":"ce4bh312rcd13ifvqdj0","pricing_plan_id":"cebpf4jnsgd1na2vs0mg"},{"bike_id":"81cf0c67-d9bc-4d9d-b626-d6d1d5798db5","system_id":"levelo_inurba_marseille","lat":43.28442,"lon":5.39206,"is_reserved":false,"is_disabled":false,"rental_uris":{"android":"levelo://app?vid=81cf0c67-d9bc-4d9d-b626-d6d1d5798db5","ios":"levelo://app?vid=81cf0c67-d9bc-4d9d-b626-d6d1d5798db5"},"vehicle_type_id":"4","last_reported":1735808995,"current_range_meters":36400,"station_id":"ce4bhoh2rcd13ifvqh5g","pricing_plan_id":"cebpf4jnsgd1na2vs0mg"},{"bike_id":"668d2418-f0db-4f32-840e-e3d4191ae028","system_id":"levelo_inurba_marseille","lat":43.2853,"lon":5.38962,"is_reserved":false,"is_disabled":false,"rental_uris":{"android":"levelo://app?vid=668d2418-f0db-4f32-840e-e3d4191ae028","ios":"levelo://app?vid=668d2418-f0db-4f32-840e-e3d4191ae028"},"vehicle_type_id":"4","last_reported":1735808995,"current_range_meters":28400,"station_id":"","pricing_plan_id":"cebpf4jnsgd1na2vs0mg"},{"bike_id":"d04480cd-f1b6-48fa-bd9d-f10086f8995e","system_id":"levelo_inurba_marseille","lat":43.28477,"lon":5.38429,"is_reserved":false,"is_disabled":false,"rental_uris":{"android":"levelo://app?vid=d04480cd-f1b6-48fa-bd9d-f10086f8995e","ios":"levelo://app?vid=d04480cd-f1b6-48fa-bd9d-f10086f8995e"},"vehicle_type_id":"4","last_reported":1735808995,"current_range_meters":27600,"station_id":"ce4bh512rcd13ifvqe3g","pricing_plan_id":"cebpf4jnsgd1na2vs0mg"},{"bike_id":"a3517146-3a38-485e-9b65-46f28f14e1c6","system_id":"levelo_inurba_marseille","lat":43.26911,"lon":5.38917,"is_reserved":false,"is_disabled":false,"rental_uris":{"android":"levelo://app?vid=a3517146-3a38-485e-9b65-46f28f14e1c6","ios":"levelo://app?vid=a3517146-3a38-485e-9b65-46f28f14e1c6"},"vehicle_type_id":"4","last_reported":1735808995,"current_range_meters":27600,"station_id":"ce4bhhh2rcd13ifvqfl0","pricing_plan_id":"cebpf4jnsgd1na2vs0mg"},{"bike_id":"6d3379aa-0f1b-4ef6-a7dc-b0f6d379d543","system_id":"levelo_inurba_marseille","lat":43.25867,"lon":5.39898,"is_reserved":false,"is_disabled":false,"rental_uris":{"android":"levelo://app?vid=6d3379aa-0f1b-4ef6-a7dc-b0f6d379d543","ios":"levelo://app?vid=6d3379aa-0f1b-4ef6-a7dc-b0f6d379d543"},"vehicle_type_id":"4","last_reported":1735808995,"current_range_meters":37600,"station_id":"ce4bhl92rcd13ifvqghg","pricing_plan_id":"cebpf4jnsgd1na2vs0mg"},{"bike_id":"1bc86929-a7c5-4532-aa73-e694188946da","system_id":"levelo_inurba_marseille","lat":43.28668,"lon":5.36362,"is_reserved":false,"is_disabled":false,"rental_uris":{"android":"levelo://app?vid=1bc86929-a7c5-4532-aa73-e694188946da","ios":"levelo://app?vid=1bc86929-a7c5-4532-aa73-e694188946da"},"vehicle_type_id":"4","last_reported":1735808995,"current_range_meters":39200,"station_id":"ce4bhah2rcd13ifvqej0","pricing_plan_id":"cebpf4jnsgd1na2vs0mg"},{"bike_id":"1168c6b4-c56c-4acc-932a-3b6b04549ccf","system_id":"levelo_inurba_marseille","lat":43.28937,"lon":5.39646,"is_reserved":false,"is_disabled":false,"rental_uris":{"android":"levelo://app?vid=1168c6b4-c56c-4acc-932a-3b6b04549ccf","ios":"levelo://app?vid=1168c6b4-c56c-4acc-932a-3b6b04549ccf"},"vehicle_type_id":"4","last_reported":1735808995,"current_range_meters":38800,"station_id":"ce4bh3h2rcd13ifvqdn0","pricing_plan_id":"cebpf4jnsgd1na2vs0mg"},{"bike_id":"0414a468-1219-4f8e-a750-d9badae394df","system_id":"levelo_inurba_marseille","lat":43.28075,"lon":5.39641,"is_reserved":false,"is_disabled":false,"rental_uris":{"android":"levelo://app?vid=0414a468-1219-4f8e-a750-d9badae394df","ios":"levelo://app?vid=0414a468-1219-4f8e-a750-d9badae394df"},"vehicle_type_id":"4","last_reported":1735808995,"current_range_meters":38800,"station_id":"ce4bho12rcd13ifvqh2g","pricing_plan_id":"cebpf4jnsgd1na2vs0mg"},{"bike_id":"930759b3-4c88-4c7f-b6bb-3894bbc35b9c","system_id":"levelo_inurba_marseille","lat":43.29522,"lon":5.38548,"is_reserved":false,"is_disabled":false,"rental_uris":{"android":"levelo://app?vid=930759b3-4c88-4c7f-b6bb-3894bbc35b9c","ios":"levelo://app?vid=930759b3-4c88-4c7f-b6bb-3894bbc35b9c"},"vehicle_type_id":"4","last_reported":1735808995,"current_range_meters":28400,"station_id":"ce4bgih2rcd13ifvqba0","pricing_plan_id":"cebpf4jnsgd1na2vs0mg"},{"bike_id":"63897349-1a46-416c-accd-1549bc376970","system_id":"levelo_inurba_marseille","lat":43.25806,"lon":5.39423,"is_reserved":false,"is_disabled":false,"rental_uris":{"android":"levelo://app?vid=63897349-1a46-416c-accd-1549bc376970","ios":"levelo://app?vid=63897349-1a46-416c-accd-1549bc376970"},"vehicle_type_id":"4","last_reported":1735808995,"current_range_meters":36400,"station_id":"ce4bhip2rcd13ifvqft0","pricing_plan_id":"cebpf4jnsgd1na2vs0mg"},{"bike_id":"ff49d49a-53c3-499a-b296-89a67f332a8a","system_id":"levelo_inurba_marseille","lat":43.24165,"lon":5.36416,"is_reserved":false,"is_disabled":false,"rental_uris":{"android":"levelo://app?vid=ff49d49a-53c3-499a-b296-89a67f332a8a","ios":"levelo://app?vid=ff49d49a-53c3-499a-b296-89a67f332a8a"},"vehicle_type_id":"4","last_reported":1735808995,"current_range_meters":28400,"station_id":"cpo36qri1sfpv3e86is0","pricing_plan_id":"cebpf4jnsgd1na2vs0mg"},{"bike_id":"f33a9e6a-238e-42fd-8643-4a2e5eed0d61","system_id":"levelo_inurba_marseille","lat":43.30179,"lon":5.36617,"is_reserved":false,"is_disabled":false,"rental_uris":{"android":"levelo://app?vid=f33a9e6a-238e-42fd-8643-4a2e5eed0d61","ios":"levelo://app?vid=f33a9e6a-238e-42fd-8643-4a2e5eed0d61"},"vehicle_type_id":"4","last_reported":1735808995,"current_range_meters":38800,"station_id":"ce4bgrh2rcd13ifvqc8g","pricing_plan_id":"cebpf4jnsgd1na2vs0mg"},{"bike_id":"bcc47b98-405a-4d86-8e5f-bbe262abbd0d","system_id":"levelo_inurba_marseille","lat":43.32096,"lon":5.368,"is_reserved":false,"is_disabled":false,"rental_uris":{"android":"levelo://app?vid=bcc47b98-405a-4d86-8e5f-bbe262abbd0d","ios":"levelo://app?vid=bcc47b98-405a-4d86-8e5f-bbe262abbd0d"},"vehicle_type_id":"4","last_reported":1735808995,"current_range_meters":30400,"station_id":"ce4bhrh2rcd13ifvqhug","pricing_plan_id":"cebpf4jnsgd1na2vs0mg"},{"bike_id":"d7f3ef77-3b75-4aaf-a33f-4d85773622ef","system_id":"levelo_inurba_marseille","lat":43.29295,"lon":5.37162,"is_reserved":false,"is_disabled":false,"rental_uris":{"android":"levelo://app?vid=d7f3ef77-3b75-4aaf-a33f-4d85773622ef","ios":"levelo://app?vid=d7f3ef77-3b75-4aaf-a33f-4d85773622ef"},"vehicle_type_id":"4","last_reported":1735808995,"current_range_meters":38800,"station_id":"ce4bgh92rcd13ifvqb40","pricing_plan_id":"cebpf4jnsgd1na2vs0mg"},{"bike_id":"ec687720-4efc-448d-9ce8-fcfe4d3a5f30","system_id":"levelo_inurba_marseille","lat":43.2721,"lon":5.3919,"is_reserved":false,"is_disabled":false,"rental_uris":{"android":"levelo://app?vid=ec687720-4efc-448d-9ce8-fcfe4d3a5f30","ios":"levelo://app?vid=ec687720-4efc-448d-9ce8-fcfe4d3a5f30"},"vehicle_type_id":"4","last_reported":1735808995,"current_range_meters":24000,"station_id":"ce4bhhp2rcd13ifvqfm0","pricing_plan_id":"cebpf4jnsgd1na2vs0mg"},{"bike_id":"027085de-3c06-4c90-8099-b9537f78e863","system_id":"levelo_inurba_marseille","lat":43.23153,"lon":5.43682,"is_reserved":false,"is_disabled":false,"rental_uris":{"android":"levelo://app?vid=027085de-3c06-4c90-8099-b9537f78e863","ios":"levelo://app?vid=027085de-3c06-4c90-8099-b9537f78e863"},"vehicle_type_id":"4","last_reported":1735808995,"current_range_meters":30800,"station_id":"ce4bhmp2rcd13ifvqgog","pricing_plan_id":"cebpf4jnsgd1na2vs0mg"},{"bike_id":"0d4fa608-5549-4e6a-b3b6-b351020c9a5d","system_id":"levelo_inurba_marseille","lat":43.28421,"lon":5.37515,"is_reserved":false,"is_disabled":false,"rental_uris":{"android":"levelo://app?vid=0d4fa608-5549-4e6a-b3b6-b351020c9a5d","ios":"levelo://app?vid=0d4fa608-5549-4e6a-b3b6-b351020c9a5d"},"vehicle_type_id":"4","last_reported":1735808995,"current_range_meters":16400,"station_id":"ce4bh412rcd13ifvqds0","pricing_plan_id":"cebpf4jnsgd1na2vs0mg"},{"bike_id":"f585701f-ce56-4599-8126-d7d811fe7259","system_id":"levelo_inurba_marseille","lat":43.285681,"lon":5.394975,"is_reserved":false,"is_disabled":false,"rental_uris":{"android":"levelo://app?vid=f585701f-ce56-4599-8126-d7d811fe7259","ios":"levelo://app?vid=f585701f-ce56-4599-8126-d7d811fe7259"},"vehicle_type_id":"4","last_reported":1735808995,"current_range_meters":22400,"station_id":"ce4bh292rcd13ifvqdg0","pricing_plan_id":"cebpf4jnsgd1na2vs0mg"},{"bike_id":"747cdc20-1e87-471e-9182-016e75c83978","system_id":"levelo_inurba_marseille","lat":43.2465,"lon":5.38895,"is_reserved":false,"is_disabled":false,"rental_uris":{"android":"levelo://app?vid=747cdc20-1e87-471e-9182-016e75c83978","ios":"levelo://app?vid=747cdc20-1e87-471e-9182-016e75c83978"},"vehicle_type_id":"4","last_reported":1735808995,"current_range_meters":38000,"station_id":"ce4bhg12rcd13ifvqf60","pricing_plan_id":"cebpf4jnsgd1na2vs0mg"},{"bike_id":"e11f23ec-1018-471e-b1ae-f860bd8b1ebc","system_id":"levelo_inurba_marseille","lat":43.29671,"lon":5.37883,"is_reserved":false,"is_disabled":false,"rental_uris":{"android":"levelo://app?vid=e11f23ec-1018-471e-b1ae-f860bd8b1ebc","ios":"levelo://app?vid=e11f23ec-1018-471e-b1ae-f860bd8b1ebc"},"vehicle_type_id":"4","last_reported":1735808995,"current_range_meters":24400,"station_id":"","pricing_plan_id":"cebpf4jnsgd1na2vs0mg"},{"bike_id":"9b5916a1-20b4-45b5-ae28-a04ea7106c34","system_id":"levelo_inurba_marseille","lat":43.27556,"lon":5.38426,"is_reserved":false,"is_disabled":false,"rental_uris":{"android":"levelo://app?vid=9b5916a1-20b4-45b5-ae28-a04ea7106c34","ios":"levelo://app?vid=9b5916a1-20b4-45b5-ae28-a04ea7106c34"},"vehicle_type_id":"4","last_reported":1735808995,"current_range_meters":27200,"station_id":"ce4bhh92rcd13ifvqfi0","pricing_plan_id":"cebpf4jnsgd1na2vs0mg"},{"bike_id":"6903f890-7fc4-46b4-bda9-d6177c9b8416","system_id":"levelo_inurba_marseille","lat":43.29908,"lon":5.37472,"is_reserved":false,"is_disabled":false,"rental_uris":{"android":"levelo://app?vid=6903f890-7fc4-46b4-bda9-d6177c9b8416","ios":"levelo://app?vid=6903f890-7fc4-46b4-bda9-d6177c9b8416"},"vehicle_type_id":"4","last_reported":1735808995,"current_range_meters":33200,"station_id":"ce4bgjh2rcd13ifvqbg0","pricing_plan_id":"cebpf4jnsgd1na2vs0mg"},{"bike_id":"ad09079b-2a66-443a-a13d-b1f84ab569d5","system_id":"levelo_inurba_marseille","lat":43.24998,"lon":5.38938,"is_reserved":false,"is_disabled":false,"rental_uris":{"android":"levelo://app?vid=ad09079b-2a66-443a-a13d-b1f84ab569d5","ios":"levelo://app?vid=ad09079b-2a66-443a-a13d-b1f84ab569d5"},"vehicle_type_id":"4","last_reported":1735808995,"current_range_meters":35600,"station_id":"ce4bhgp2rcd13ifvqfd0","pricing_plan_id":"cebpf4jnsgd1na2vs0mg"},{"bike_id":"3c7472a4-a45c-4f46-a692-aa44ebf92f21","system_id":"levelo_inurba_marseille","lat":43.274274,"lon":5.394177,"is_reserved":false,"is_disabled":false,"rental_uris":{"android":"levelo://app?vid=3c7472a4-a45c-4f46-a692-aa44ebf92f21","ios":"levelo://app?vid=3c7472a4-a45c-4f46-a692-aa44ebf92f21"},"vehicle_type_id":"4","last_reported":1735808995,"current_range_meters":36800,"station_id":"ce4bhdp2rcd13ifvqf20","pricing_plan_id":"cebpf4jnsgd1na2vs0mg"},{"bike_id":"1b9666de-703f-4874-9b63-e9d42533848b","system_id":"levelo_inurba_marseille","lat":43.31885,"lon":5.40742,"is_reserved":false,"is_disabled":false,"rental_uris":{"android":"levelo://app?vid=1b9666de-703f-4874-9b63-e9d42533848b","ios":"levelo://app?vid=1b9666de-703f-4874-9b63-e9d42533848b"},"vehicle_type_id":"4","last_reported":1735808995,"current_range_meters":38000,"station_id":"ce4bhq12rcd13ifvqhig","pricing_plan_id":"cebpf4jnsgd1na2vs0mg"},{"bike_id":"b6681fcf-5292-4b5c-978e-fc7832cda4b8","system_id":"levelo_inurba_marseille","lat":43.26939,"lon":5.40246,"is_reserved":false,"is_disabled":false,"rental_uris":{"android":"levelo://app?vid=b6681fcf-5292-4b5c-978e-fc7832cda4b8","ios":"levelo://app?vid=b6681fcf-5292-4b5c-978e-fc7832cda4b8"},"vehicle_type_id":"4","last_reported":1735808995,"current_range_meters":24800,"station_id":"cjm6bp8fraef2m0cb0m0","pricing_plan_id":"cebpf4jnsgd1na2vs0mg"},{"bike_id":"461a91f7-abbd-4490-b359-539df559ba7b","system_id":"levelo_inurba_marseille","lat":43.26211,"lon":5.3746,"is_reserved":false,"is_disabled":false,"rental_uris":{"android":"levelo://app?vid=461a91f7-abbd-4490-b359-539df559ba7b","ios":"levelo://app?vid=461a91f7-abbd-4490-b359-539df559ba7b"},"vehicle_type_id":"4","last_reported":1735808995,"current_range_meters":30400,"station_id":"ce4bhgp2rcd13ifvqfc0","pricing_plan_id":"cebpf4jnsgd1na2vs0mg"},{"bike_id":"4b9b3c02-7773-410b-a74d-2537aad0fdc1","system_id":"levelo_inurba_marseille","lat":43.28398,"lon":5.37494,"is_reserved":false,"is_disabled":false,"rental_uris":{"android":"levelo://app?vid=4b9b3c02-7773-410b-a74d-2537aad0fdc1","ios":"levelo://app?vid=4b9b3c02-7773-410b-a74d-2537aad0fdc1"},"vehicle_type_id":"4","last_reported":1735808995,"current_range_meters":27600,"station_id":"ce4bh412rcd13ifvqds0","pricing_plan_id":"cebpf4jnsgd1na2vs0mg"},{"bike_id":"425c84f9-1c35-41a0-9556-3909dc44fc75","system_id":"levelo_inurba_marseille","lat":43.29579,"lon":5.36734,"is_reserved":false,"is_disabled":false,"rental_uris":{"android":"levelo://app?vid=425c84f9-1c35-41a0-9556-3909dc44fc75","ios":"levelo://app?vid=425c84f9-1c35-41a0-9556-3909dc44fc75"},"vehicle_type_id":"4","last_reported":1735808995,"current_range_meters":37600,"station_id":"ce4bgph2rcd13ifvqc2g","pricing_plan_id":"cebpf4jnsgd1na2vs0mg"},{"bike_id":"54f409ab-82fa-46b7-9531-9fdab74bf367","system_id":"levelo_inurba_marseille","lat":43.256337,"lon":5.376304,"is_reserved":false,"is_disabled":false,"rental_uris":{"android":"levelo://app?vid=54f409ab-82fa-46b7-9531-9fdab74bf367","ios":"levelo://app?vid=54f409ab-82fa-46b7-9531-9fdab74bf367"},"vehicle_type_id":"4","last_reported":1735808995,"current_range_meters":16800,"station_id":"","pricing_plan_id":"cebpf4jnsgd1na2vs0mg"},{"bike_id":"da3075ee-8070-42f9-8350-58e475a60c82","system_id":"levelo_inurba_marseille","lat":43.27571,"lon":5.38398,"is_reserved":false,"is_disabled":false,"rental_uris":{"android":"levelo://app?vid=da3075ee-8070-42f9-8350-58e475a60c82","ios":"levelo://app?vid=da3075ee-8070-42f9-8350-58e475a60c82"},"vehicle_type_id":"4","last_reported":1735808995,"current_range_meters":38800,"station_id":"ce4bhh92rcd13ifvqfi0","pricing_plan_id":"cebpf4jnsgd1na2vs0mg"},{"bike_id":"64892e48-5ccd-45a4-9b85-2f1946606be6","system_id":"levelo_inurba_marseille","lat":43.31775,"lon":5.39005,"is_reserved":false,"is_disabled":false,"rental_uris":{"android":"levelo://app?vid=64892e48-5ccd-45a4-9b85-2f1946606be6","ios":"levelo://app?vid=64892e48-5ccd-45a4-9b85-2f1946606be6"},"vehicle_type_id":"4","last_reported":1735808995,"current_range_meters":33600,"station_id":"ce4bhqp2rcd13ifvqhng","pricing_plan_id":"cebpf4jnsgd1na2vs0mg"},{"bike_id":"f4e21194-bae0-47dd-9943-53bf3035cc9f","system_id":"levelo_inurba_marseille","lat":43.24645,"lon":5.389,"is_reserved":false,"is_disabled":false,"rental_uris":{"android":"levelo://app?vid=f4e21194-bae0-47dd-9943-53bf3035cc9f","ios":"levelo://app?vid=f4e21194-bae0-47dd-9943-53bf3035cc9f"},"vehicle_type_id":"4","last_reported":1735808995,"current_range_meters":39200,"station_id":"ce4bhg12rcd13ifvqf60","pricing_plan_id":"cebpf4jnsgd1na2vs0mg"},{"bike_id":"edef67d7-5c40-4f54-afb7-0b1514203358","system_id":"levelo_inurba_marseille","lat":43.23204,"lon":5.39977,"is_reserved":false,"is_disabled":true,"rental_uris":{"android":"levelo://app?vid=edef67d7-5c40-4f54-afb7-0b1514203358","ios":"levelo://app?vid=edef67d7-5c40-4f54-afb7-0b1514203358"},"vehicle_type_id":"4","last_reported":1735808995,"current_range_meters":0,"station_id":"ce4bhn12rcd13ifvqgqg","pricing_plan_id":"cebpf4jnsgd1na2vs0mg"},{"bike_id":"a4185058-ecc1-4a61-892d-c65d0c4054d2","system_id":"levelo_inurba_marseille","lat":43.26676,"lon":5.38267,"is_reserved":false,"is_disabled":false,"rental_uris":{"android":"levelo://app?vid=a4185058-ecc1-4a61-892d-c65d0c4054d2","ios":"levelo://app?vid=a4185058-ecc1-4a61-892d-c65d0c4054d2"},"vehicle_type_id":"4","last_reported":1735808995,"current_range_meters":38400,"station_id":"ce4bhg92rcd13ifvqf90","pricing_plan_id":"cebpf4jnsgd1na2vs0mg"},{"bike_id":"74e94ab5-7b68-4b6f-b937-acac6a3aa677","system_id":"levelo_inurba_marseille","lat":43.2997,"lon":5.37177,"is_reserved":false,"is_disabled":false,"rental_uris":{"android":"levelo://app?vid=74e94ab5-7b68-4b6f-b937-acac6a3aa677","ios":"levelo://app?vid=74e94ab5-7b68-4b6f-b937-acac6a3aa677"},"vehicle_type_id":"4","last_reported":1735808995,"current_range_meters":38800,"station_id":"ce4bgr92rcd13ifvqc7g","pricing_plan_id":"cebpf4jnsgd1na2vs0mg"},{"bike_id":"e5fc90b8-f4d7-48fe-9b1b-e04042412667","system_id":"levelo_inurba_marseille","lat":43.31984,"lon":5.38155,"is_reserved":false,"is_disabled":false,"rental_uris":{"android":"levelo://app?vid=e5fc90b8-f4d7-48fe-9b1b-e04042412667","ios":"levelo://app?vid=e5fc90b8-f4d7-48fe-9b1b-e04042412667"},"vehicle_type_id":"4","last_reported":1735808995,"current_range_meters":38800,"station_id":"ce4bhr12rcd13ifvqhpg","pricing_plan_id":"cebpf4jnsgd1na2vs0mg"},{"bike_id":"e62be8ed-c268-492c-aa2c-0f49000a195a","system_id":"levelo_inurba_marseille","lat":43.30529,"lon":5.36541,"is_reserved":false,"is_disabled":false,"rental_uris":{"android":"levelo://app?vid=e62be8ed-c268-492c-aa2c-0f49000a195a","ios":"levelo://app?vid=e62be8ed-c268-492c-aa2c-0f49000a195a"},"vehicle_type_id":"4","last_reported":1735808995,"current_range_meters":16400,"station_id":"ce4bgs12rcd13ifvqcag","pricing_plan_id":"cebpf4jnsgd1na2vs0mg"},{"bike_id":"fa339e12-8405-4f84-8580-3f43033745d7","system_id":"levelo_inurba_marseille","lat":43.27839,"lon":5.39223,"is_reserved":false,"is_disabled":false,"rental_uris":{"android":"levelo://app?vid=fa339e12-8405-4f84-8580-3f43033745d7","ios":"levelo://app?vid=fa339e12-8405-4f84-8580-3f43033745d7"},"vehicle_type_id":"4","last_reported":1735808995,"current_range_meters":33600,"station_id":"ce4bhjp2rcd13ifvqga0","pricing_plan_id":"cebpf4jnsgd1na2vs0mg"},{"bike_id":"d0137bba-5489-4449-9aa6-55a5ebb92ac7","system_id":"levelo_inurba_marseille","lat":43.28267,"lon":5.35074,"is_reserved":false,"is_disabled":false,"rental_uris":{"android":"levelo://app?vid=d0137bba-5489-4449-9aa6-55a5ebb92ac7","ios":"levelo://app?vid=d0137bba-5489-4449-9aa6-55a5ebb92ac7"},"vehicle_type_id":"4","last_reported":1735808995,"current_range_meters":33200,"station_id":"ce4bhbp2rcd13ifvqerg","pricing_plan_id":"cebpf4jnsgd1na2vs0mg"},{"bike_id":"f0039e3d-c9f7-45d9-8d8f-4c3b22cd867c","system_id":"levelo_inurba_marseille","lat":43.280807,"lon":5.396511,"is_reserved":false,"is_disabled":false,"rental_uris":{"android":"levelo://app?vid=f0039e3d-c9f7-45d9-8d8f-4c3b22cd867c","ios":"levelo://app?vid=f0039e3d-c9f7-45d9-8d8f-4c3b22cd867c"},"vehicle_type_id":"4","last_reported":1735808995,"current_range_meters":33200,"station_id":"ce4bho12rcd13ifvqh2g","pricing_plan_id":"cebpf4jnsgd1na2vs0mg"},{"bike_id":"ea5d599e-d5d0-4166-be46-e65550957f69","system_id":"levelo_inurba_marseille","lat":43.3019,"lon":5.36625,"is_reserved":false,"is_disabled":false,"rental_uris":{"android":"levelo://app?vid=ea5d599e-d5d0-4166-be46-e65550957f69","ios":"levelo://app?vid=ea5d599e-d5d0-4166-be46-e65550957f69"},"vehicle_type_id":"4","last_reported":1735808995,"current_range_meters":19200,"station_id":"ce4bgrh2rcd13ifvqc8g","pricing_plan_id":"cebpf4jnsgd1na2vs0mg"},{"bike_id":"37fd69aa-45fe-4af6-b217-bec10957aebd","system_id":"levelo_inurba_marseille","lat":43.30804,"lon":5.3817,"is_reserved":false,"is_disabled":true,"rental_uris":{"android":"levelo://app?vid=37fd69aa-45fe-4af6-b217-bec10957aebd","ios":"levelo://app?vid=37fd69aa-45fe-4af6-b217-bec10957aebd"},"vehicle_type_id":"4","last_reported":1735808995,"current_range_meters":37600,"station_id":"ce4bgt12rcd13ifvqce0","pricing_plan_id":"cebpf4jnsgd1na2vs0mg"},{"bike_id":"7a12b188-1c55-487c-8f99-6b6d40d88f11","system_id":"levelo_inurba_marseille","lat":43.29272,"lon":5.40129,"is_reserved":false,"is_disabled":false,"rental_uris":{"android":"levelo://app?vid=7a12b188-1c55-487c-8f99-6b6d40d88f11","ios":"levelo://app?vid=7a12b188-1c55-487c-8f99-6b6d40d88f11"},"vehicle_type_id":"4","last_reported":1735808995,"current_range_meters":12400,"station_id":"ce4bh312rcd13ifvqdk0","pricing_plan_id":"cebpf4jnsgd1na2vs0mg"},{"bike_id":"555b18a6-3f1b-4cb4-91ff-ffdaa765de9b","system_id":"levelo_inurba_marseille","lat":43.25081,"lon":5.39525,"is_reserved":false,"is_disabled":false,"rental_uris":{"android":"levelo://app?vid=555b18a6-3f1b-4cb4-91ff-ffdaa765de9b","ios":"levelo://app?vid=555b18a6-3f1b-4cb4-91ff-ffdaa765de9b"},"vehicle_type_id":"4","last_reported":1735808995,"current_range_meters":38400,"station_id":"ce4bhm12rcd13ifvqgkg","pricing_plan_id":"cebpf4jnsgd1na2vs0mg"},{"bike_id":"e8ea0f1b-06f1-4852-9ead-b12ff78769fa","system_id":"levelo_inurba_marseille","lat":43.2668,"lon":5.3827,"is_reserved":false,"is_disabled":false,"rental_uris":{"android":"levelo://app?vid=e8ea0f1b-06f1-4852-9ead-b12ff78769fa","ios":"levelo://app?vid=e8ea0f1b-06f1-4852-9ead-b12ff78769fa"},"vehicle_type_id":"4","last_reported":1735808995,"current_range_meters":38800,"station_id":"ce4bhg92rcd13ifvqf90","pricing_plan_id":"cebpf4jnsgd1na2vs0mg"},{"bike_id":"8c7b8bfa-8164-41c2-88b2-9aec904a54b5","system_id":"levelo_inurba_marseille","lat":43.29973,"lon":5.37178,"is_reserved":false,"is_disabled":false,"rental_uris":{"android":"levelo://app?vid=8c7b8bfa-8164-41c2-88b2-9aec904a54b5","ios":"levelo://app?vid=8c7b8bfa-8164-41c2-88b2-9aec904a54b5"},"vehicle_type_id":"4","last_reported":1735808995,"current_range_meters":36000,"station_id":"ce4bgr92rcd13ifvqc7g","pricing_plan_id":"cebpf4jnsgd1na2vs0mg"},{"bike_id":"a1c87532-6196-402b-916e-8ad945b95f72","system_id":"levelo_inurba_marseille","lat":43.25113,"lon":5.40322,"is_reserved":false,"is_disabled":false,"rental_uris":{"android":"levelo://app?vid=a1c87532-6196-402b-916e-8ad945b95f72","ios":"levelo://app?vid=a1c87532-6196-402b-916e-8ad945b95f72"},"vehicle_type_id":"4","last_reported":1735808995,"current_range_meters":14800,"station_id":"ce4bhlh2rcd13ifvqgig","pricing_plan_id":"cebpf4jnsgd1na2vs0mg"},{"bike_id":"4ce38f45-b3ef-4ce1-84b1-8cf7c7ee4592","system_id":"levelo_inurba_marseille","lat":43.27935,"lon":5.41049,"is_reserved":false,"is_disabled":false,"rental_uris":{"android":"levelo://app?vid=4ce38f45-b3ef-4ce1-84b1-8cf7c7ee4592","ios":"levelo://app?vid=4ce38f45-b3ef-4ce1-84b1-8cf7c7ee4592"},"vehicle_type_id":"4","last_reported":1735808995,"current_range_meters":34800,"station_id":"ce4bhnp2rcd13ifvqh0g","pricing_plan_id":"cebpf4jnsgd1na2vs0mg"},{"bike_id":"0d647342-3b41-47e5-86af-3a3008499d95","system_id":"levelo_inurba_marseille","lat":43.28003,"lon":5.40004,"is_reserved":false,"is_disabled":false,"rental_uris":{"android":"levelo://app?vid=0d647342-3b41-47e5-86af-3a3008499d95","ios":"levelo://app?vid=0d647342-3b41-47e5-86af-3a3008499d95"},"vehicle_type_id":"4","last_reported":1735808995,"current_range_meters":28800,"station_id":"ce4bho92rcd13ifvqh4g","pricing_plan_id":"cebpf4jnsgd1na2vs0mg"},{"bike_id":"86eec8e7-8fb4-4114-aa18-b387b8a21c2e","system_id":"levelo_inurba_marseille","lat":43.31266,"lon":5.39298,"is_reserved":false,"is_disabled":false,"rental_uris":{"android":"levelo://app?vid=86eec8e7-8fb4-4114-aa18-b387b8a21c2e","ios":"levelo://app?vid=86eec8e7-8fb4-4114-aa18-b387b8a21c2e"},"vehicle_type_id":"4","last_reported":1735808995,"current_range_meters":27200,"station_id":"","pricing_plan_id":"cebpf4jnsgd1na2vs0mg"},{"bike_id":"849f7cfd-3f7e-49b1-9d6e-57047fbe1612","system_id":"levelo_inurba_marseille","lat":43.28166,"lon":5.42642,"is_reserved":false,"is_disabled":false,"rental_uris":{"android":"levelo://app?vid=849f7cfd-3f7e-49b1-9d6e-57047fbe1612","ios":"levelo://app?vid=849f7cfd-3f7e-49b1-9d6e-57047fbe1612"},"vehicle_type_id":"4","last_reported":1735808995,"current_range_meters":38800,"station_id":"ce4bhnh2rcd13ifvqgug","pricing_plan_id":"cebpf4jnsgd1na2vs0mg"},{"bike_id":"b6b20695-a312-4168-af64-70ee72bf8ce8","system_id":"levelo_inurba_marseille","lat":43.33764,"lon":5.37446,"is_reserved":false,"is_disabled":false,"rental_uris":{"android":"levelo://app?vid=b6b20695-a312-4168-af64-70ee72bf8ce8","ios":"levelo://app?vid=b6b20695-a312-4168-af64-70ee72bf8ce8"},"vehicle_type_id":"4","last_reported":1735808995,"current_range_meters":26000,"station_id":"","pricing_plan_id":"cebpf4jnsgd1na2vs0mg"},{"bike_id":"5f174842-9d50-4204-ab72-8f25770fe4ca","system_id":"levelo_inurba_marseille","lat":43.24996,"lon":5.3893,"is_reserved":false,"is_disabled":false,"rental_uris":{"android":"levelo://app?vid=5f174842-9d50-4204-ab72-8f25770fe4ca","ios":"levelo://app?vid=5f174842-9d50-4204-ab72-8f25770fe4ca"},"vehicle_type_id":"4","last_reported":1735808995,"current_range_meters":38800,"station_id":"ce4bhgp2rcd13ifvqfd0","pricing_plan_id":"cebpf4jnsgd1na2vs0mg"},{"bike_id":"50f2b819-c00e-4917-a76e-b6de5001b66a","system_id":"levelo_inurba_marseille","lat":43.29528,"lon":5.39042,"is_reserved":false,"is_disabled":true,"rental_uris":{"android":"levelo://app?vid=50f2b819-c00e-4917-a76e-b6de5001b66a","ios":"levelo://app?vid=50f2b819-c00e-4917-a76e-b6de5001b66a"},"vehicle_type_id":"4","last_reported":1735808995,"current_range_meters":39200,"station_id":"ce4bh3p2rcd13ifvqdp0","pricing_plan_id":"cebpf4jnsgd1na2vs0mg"},{"bike_id":"7bcbc76f-7d82-4a12-a9a9-15ae6600bb07","system_id":"levelo_inurba_marseille","lat":43.31486,"lon":5.37318,"is_reserved":false,"is_disabled":false,"rental_uris":{"android":"levelo://app?vid=7bcbc76f-7d82-4a12-a9a9-15ae6600bb07","ios":"levelo://app?vid=7bcbc76f-7d82-4a12-a9a9-15ae6600bb07"},"vehicle_type_id":"4","last_reported":1735808995,"current_range_meters":12400,"station_id":"ce4bgt12rcd13ifvqcd0","pricing_plan_id":"cebpf4jnsgd1na2vs0mg"},{"bike_id":"ea7186bb-b0d9-4e3f-be88-fa2ad919a859","system_id":"levelo_inurba_marseille","lat":43.26681,"lon":5.38245,"is_reserved":false,"is_disabled":false,"rental_uris":{"android":"levelo://app?vid=ea7186bb-b0d9-4e3f-be88-fa2ad919a859","ios":"levelo://app?vid=ea7186bb-b0d9-4e3f-be88-fa2ad919a859"},"vehicle_type_id":"4","last_reported":1735808995,"current_range_meters":39200,"station_id":"ce4bhg92rcd13ifvqf90","pricing_plan_id":"cebpf4jnsgd1na2vs0mg"},{"bike_id":"5841fdfe-5f4a-4c5e-a2ef-4340abbf223a","system_id":"levelo_inurba_marseille","lat":43.27823,"lon":5.39203,"is_reserved":false,"is_disabled":false,"rental_uris":{"android":"levelo://app?vid=5841fdfe-5f4a-4c5e-a2ef-4340abbf223a","ios":"levelo://app?vid=5841fdfe-5f4a-4c5e-a2ef-4340abbf223a"},"vehicle_type_id":"4","last_reported":1735808995,"current_range_meters":37600,"station_id":"ce4bhjp2rcd13ifvqga0","pricing_plan_id":"cebpf4jnsgd1na2vs0mg"},{"bike_id":"898b53a6-3c6a-47dd-b78e-1817a4cdb2b5","system_id":"levelo_inurba_marseille","lat":43.31386,"lon":5.36696,"is_reserved":false,"is_disabled":false,"rental_uris":{"android":"levelo://app?vid=898b53a6-3c6a-47dd-b78e-1817a4cdb2b5","ios":"levelo://app?vid=898b53a6-3c6a-47dd-b78e-1817a4cdb2b5"},"vehicle_type_id":"4","last_reported":1735808995,"current_range_meters":17600,"station_id":"","pricing_plan_id":"cebpf4jnsgd1na2vs0mg"},{"bike_id":"3adaba7d-6f33-4e53-b455-57669998eef5","system_id":"levelo_inurba_marseille","lat":43.276976,"lon":5.38918,"is_reserved":false,"is_disabled":false,"rental_uris":{"android":"levelo://app?vid=3adaba7d-6f33-4e53-b455-57669998eef5","ios":"levelo://app?vid=3adaba7d-6f33-4e53-b455-57669998eef5"},"vehicle_type_id":"4","last_reported":1735808995,"current_range_meters":38000,"station_id":"ce4bhi12rcd13ifvqfo0","pricing_plan_id":"cebpf4jnsgd1na2vs0mg"},{"bike_id":"94657e78-df48-49dc-b1ba-58dd71b2ca0e","system_id":"levelo_inurba_marseille","lat":43.265514,"lon":5.3729,"is_reserved":false,"is_disabled":false,"rental_uris":{"android":"levelo://app?vid=94657e78-df48-49dc-b1ba-58dd71b2ca0e","ios":"levelo://app?vid=94657e78-df48-49dc-b1ba-58dd71b2ca0e"},"vehicle_type_id":"4","last_reported":1735808995,"current_range_meters":38400,"station_id":"ce4bhg12rcd13ifvqf70","pricing_plan_id":"cebpf4jnsgd1na2vs0mg"},{"bike_id":"a77cb61b-7bf4-4634-bc34-29d17b6073d0","system_id":"levelo_inurba_marseille","lat":43.24388,"lon":5.37089,"is_reserved":false,"is_disabled":false,"rental_uris":{"android":"levelo://app?vid=a77cb61b-7bf4-4634-bc34-29d17b6073d0","ios":"levelo://app?vid=a77cb61b-7bf4-4634-bc34-29d17b6073d0"},"vehicle_type_id":"4","last_reported":1735808995,"current_range_meters":38800,"station_id":"ce4bhhh2rcd13ifvqfk0","pricing_plan_id":"cebpf4jnsgd1na2vs0mg"},{"bike_id":"1c767333-f70f-4718-bcc9-6de55d631ae5","system_id":"levelo_inurba_marseille","lat":43.26793,"lon":5.40232,"is_reserved":false,"is_disabled":false,"rental_uris":{"android":"levelo://app?vid=1c767333-f70f-4718-bcc9-6de55d631ae5","ios":"levelo://app?vid=1c767333-f70f-4718-bcc9-6de55d631ae5"},"vehicle_type_id":"4","last_reported":1735808995,"current_range_meters":24000,"station_id":"ce501612rcd8frsf0b60","pricing_plan_id":"cebpf4jnsgd1na2vs0mg"},{"bike_id":"d666387f-eb02-4930-89d7-7fbe4ab5b118","system_id":"levelo_inurba_marseille","lat":43.29253,"lon":5.38445,"is_reserved":false,"is_disabled":false,"rental_uris":{"android":"levelo://app?vid=d666387f-eb02-4930-89d7-7fbe4ab5b118","ios":"levelo://app?vid=d666387f-eb02-4930-89d7-7fbe4ab5b118"},"vehicle_type_id":"4","last_reported":1735808995,"current_range_meters":8800,"station_id":"ce4bh692rcd13ifvqea0","pricing_plan_id":"cebpf4jnsgd1na2vs0mg"},{"bike_id":"aec77826-2911-461c-95af-eb9adf8a9770","system_id":"levelo_inurba_marseille","lat":43.27547,"lon":5.38424,"is_reserved":false,"is_disabled":false,"rental_uris":{"android":"levelo://app?vid=aec77826-2911-461c-95af-eb9adf8a9770","ios":"levelo://app?vid=aec77826-2911-461c-95af-eb9adf8a9770"},"vehicle_type_id":"4","last_reported":1735808995,"current_range_meters":38800,"station_id":"ce4bhh92rcd13ifvqfi0","pricing_plan_id":"cebpf4jnsgd1na2vs0mg"},{"bike_id":"8279a3c2-e6b6-40a3-a7bc-76a43246ddb6","system_id":"levelo_inurba_marseille","lat":43.26782,"lon":5.39498,"is_reserved":false,"is_disabled":false,"rental_uris":{"android":"levelo://app?vid=8279a3c2-e6b6-40a3-a7bc-76a43246ddb6","ios":"levelo://app?vid=8279a3c2-e6b6-40a3-a7bc-76a43246ddb6"},"vehicle_type_id":"4","last_reported":1735808995,"current_range_meters":23200,"station_id":"ce4bhh12rcd13ifvqfg0","pricing_plan_id":"cebpf4jnsgd1na2vs0mg"},{"bike_id":"818b37e3-6bd0-4044-8453-8e3c464165c5","system_id":"levelo_inurba_marseille","lat":43.27811,"lon":5.40719,"is_reserved":false,"is_disabled":false,"rental_uris":{"android":"levelo://app?vid=818b37e3-6bd0-4044-8453-8e3c464165c5","ios":"levelo://app?vid=818b37e3-6bd0-4044-8453-8e3c464165c5"},"vehicle_type_id":"4","last_reported":1735808995,"current_range_meters":39200,"station_id":"ce4bhnh2rcd13ifvqgtg","pricing_plan_id":"cebpf4jnsgd1na2vs0mg"},{"bike_id":"cd74a333-9a1d-4930-b287-4902bed467c1","system_id":"levelo_inurba_marseille","lat":43.30439,"lon":5.39751,"is_reserved":false,"is_disabled":false,"rental_uris":{"android":"levelo://app?vid=cd74a333-9a1d-4930-b287-4902bed467c1","ios":"levelo://app?vid=cd74a333-9a1d-4930-b287-4902bed467c1"},"vehicle_type_id":"4","last_reported":1735808995,"current_range_meters":38800,"station_id":"ce4bh092rcd13ifvqd20","pricing_plan_id":"cebpf4jnsgd1na2vs0mg"},{"bike_id":"971bd521-576b-4c26-b482-75bc329316be","system_id":"levelo_inurba_marseille","lat":43.3055,"lon":5.36549,"is_reserved":false,"is_disabled":false,"rental_uris":{"android":"levelo://app?vid=971bd521-576b-4c26-b482-75bc329316be","ios":"levelo://app?vid=971bd521-576b-4c26-b482-75bc329316be"},"vehicle_type_id":"4","last_reported":1735808995,"current_range_meters":30000,"station_id":"ce4bgs12rcd13ifvqcag","pricing_plan_id":"cebpf4jnsgd1na2vs0mg"},{"bike_id":"aee5adc3-b4b0-4cc8-a5f9-ddc39b90c4f2","system_id":"levelo_inurba_marseille","lat":43.289565,"lon":5.396253,"is_reserved":false,"is_disabled":false,"rental_uris":{"android":"levelo://app?vid=aee5adc3-b4b0-4cc8-a5f9-ddc39b90c4f2","ios":"levelo://app?vid=aee5adc3-b4b0-4cc8-a5f9-ddc39b90c4f2"},"vehicle_type_id":"4","last_reported":1735808995,"current_range_meters":18000,"station_id":"ce4bh3h2rcd13ifvqdn0","pricing_plan_id":"cebpf4jnsgd1na2vs0mg"},{"bike_id":"71c8f6c4-4b62-4d76-a891-350fccb2f3ce","system_id":"levelo_inurba_marseille","lat":43.28427,"lon":5.34986,"is_reserved":false,"is_disabled":false,"rental_uris":{"android":"levelo://app?vid=71c8f6c4-4b62-4d76-a891-350fccb2f3ce","ios":"levelo://app?vid=71c8f6c4-4b62-4d76-a891-350fccb2f3ce"},"vehicle_type_id":"4","last_reported":1735808995,"current_range_meters":10000,"station_id":"ce4bhbh2rcd13ifvqepg","pricing_plan_id":"cebpf4jnsgd1na2vs0mg"},{"bike_id":"5f8820db-9ea3-4dc7-9893-40ad838a5be8","system_id":"levelo_inurba_marseille","lat":43.24807,"lon":5.37458,"is_reserved":false,"is_disabled":false,"rental_uris":{"android":"levelo://app?vid=5f8820db-9ea3-4dc7-9893-40ad838a5be8","ios":"levelo://app?vid=5f8820db-9ea3-4dc7-9893-40ad838a5be8"},"vehicle_type_id":"4","last_reported":1735808995,"current_range_meters":39200,"station_id":"ce4bhgh2rcd13ifvqfb0","pricing_plan_id":"cebpf4jnsgd1na2vs0mg"},{"bike_id":"5a57dbfb-b70b-4728-872a-f4d3ed3f2b44","system_id":"levelo_inurba_marseille","lat":43.27872,"lon":5.38223,"is_reserved":false,"is_disabled":false,"rental_uris":{"android":"levelo://app?vid=5a57dbfb-b70b-4728-872a-f4d3ed3f2b44","ios":"levelo://app?vid=5a57dbfb-b70b-4728-872a-f4d3ed3f2b44"},"vehicle_type_id":"4","last_reported":1735808995,"current_range_meters":8400,"station_id":"ce4bhf92rcd13ifvqf50","pricing_plan_id":"cebpf4jnsgd1na2vs0mg"},{"bike_id":"9296373e-a8da-4ff9-a488-98089ece75a4","system_id":"levelo_inurba_marseille","lat":43.28404,"lon":5.3499,"is_reserved":false,"is_disabled":false,"rental_uris":{"android":"levelo://app?vid=9296373e-a8da-4ff9-a488-98089ece75a4","ios":"levelo://app?vid=9296373e-a8da-4ff9-a488-98089ece75a4"},"vehicle_type_id":"4","last_reported":1735808995,"current_range_meters":33200,"station_id":"ce4bhbh2rcd13ifvqepg","pricing_plan_id":"cebpf4jnsgd1na2vs0mg"},{"bike_id":"ce064e95-77f8-4d72-bb40-da1d2d499fb0","system_id":"levelo_inurba_marseille","lat":43.29167,"lon":5.37164,"is_reserved":false,"is_disabled":false,"rental_uris":{"android":"levelo://app?vid=ce064e95-77f8-4d72-bb40-da1d2d499fb0","ios":"levelo://app?vid=ce064e95-77f8-4d72-bb40-da1d2d499fb0"},"vehicle_type_id":"4","last_reported":1735808995,"current_range_meters":35600,"station_id":"ce4bha92rcd13ifvqeh0","pricing_plan_id":"cebpf4jnsgd1na2vs0mg"},{"bike_id":"6df28892-4d8b-488f-818a-15b40f6bcc4f","system_id":"levelo_inurba_marseille","lat":43.30492,"lon":5.3791,"is_reserved":false,"is_disabled":false,"rental_uris":{"android":"levelo://app?vid=6df28892-4d8b-488f-818a-15b40f6bcc4f","ios":"levelo://app?vid=6df28892-4d8b-488f-818a-15b40f6bcc4f"},"vehicle_type_id":"4","last_reported":1735808995,"current_range_meters":38800,"station_id":"ce4bgup2rcd13ifvqcn0","pricing_plan_id":"cebpf4jnsgd1na2vs0mg"},{"bike_id":"ba32df11-9a06-4ad5-a7f3-6d90eee4c0b4","system_id":"levelo_inurba_marseille","lat":43.28617,"lon":5.35102,"is_reserved":false,"is_disabled":false,"rental_uris":{"android":"levelo://app?vid=ba32df11-9a06-4ad5-a7f3-6d90eee4c0b4","ios":"levelo://app?vid=ba32df11-9a06-4ad5-a7f3-6d90eee4c0b4"},"vehicle_type_id":"4","last_reported":1735808995,"current_range_meters":9200,"station_id":"ce4bhch2rcd13ifvqeug","pricing_plan_id":"cebpf4jnsgd1na2vs0mg"},{"bike_id":"5becd014-2ea4-4e6e-af75-6157a5a38862","system_id":"levelo_inurba_marseille","lat":43.29894,"lon":5.37487,"is_reserved":false,"is_disabled":false,"rental_uris":{"android":"levelo://app?vid=5becd014-2ea4-4e6e-af75-6157a5a38862","ios":"levelo://app?vid=5becd014-2ea4-4e6e-af75-6157a5a38862"},"vehicle_type_id":"4","last_reported":1735808995,"current_range_meters":38400,"station_id":"ce4bgjh2rcd13ifvqbg0","pricing_plan_id":"cebpf4jnsgd1na2vs0mg"},{"bike_id":"6d9d2a7c-9b40-4e63-bb6a-3ee4383880f2","system_id":"levelo_inurba_marseille","lat":43.30951,"lon":5.39066,"is_reserved":false,"is_disabled":false,"rental_uris":{"android":"levelo://app?vid=6d9d2a7c-9b40-4e63-bb6a-3ee4383880f2","ios":"levelo://app?vid=6d9d2a7c-9b40-4e63-bb6a-3ee4383880f2"},"vehicle_type_id":"4","last_reported":1735808995,"current_range_meters":37600,"station_id":"ce4bgup2rcd13ifvqco0","pricing_plan_id":"cebpf4jnsgd1na2vs0mg"},{"bike_id":"0d22c007-f5b2-4481-9b21-08f35f061702","system_id":"levelo_inurba_marseille","lat":43.29617,"lon":5.37147,"is_reserved":false,"is_disabled":true,"rental_uris":{"android":"levelo://app?vid=0d22c007-f5b2-4481-9b21-08f35f061702","ios":"levelo://app?vid=0d22c007-f5b2-4481-9b21-08f35f061702"},"vehicle_type_id":"4","last_reported":1735808995,"current_range_meters":0,"station_id":"ce4bgnh2rcd13ifvqc0g","pricing_plan_id":"cebpf4jnsgd1na2vs0mg"},{"bike_id":"062bd3e7-a1b0-4a7b-be3e-67845610f912","system_id":"levelo_inurba_marseille","lat":43.31283,"lon":5.40129,"is_reserved":false,"is_disabled":false,"rental_uris":{"android":"levelo://app?vid=062bd3e7-a1b0-4a7b-be3e-67845610f912","ios":"levelo://app?vid=062bd3e7-a1b0-4a7b-be3e-67845610f912"},"vehicle_type_id":"4","last_reported":1735808995,"current_range_meters":26000,"station_id":"ce4bh092rcd13ifvqd30","pricing_plan_id":"cebpf4jnsgd1na2vs0mg"},{"bike_id":"b65446bf-e8cd-42c0-a605-66d7275adaf9","system_id":"levelo_inurba_marseille","lat":43.24069,"lon":5.37761,"is_reserved":false,"is_disabled":false,"rental_uris":{"android":"levelo://app?vid=b65446bf-e8cd-42c0-a605-66d7275adaf9","ios":"levelo://app?vid=b65446bf-e8cd-42c0-a605-66d7275adaf9"},"vehicle_type_id":"4","last_reported":1735808995,"current_range_meters":22800,"station_id":"ce4bhnp2rcd13ifvqgvg","pricing_plan_id":"cebpf4jnsgd1na2vs0mg"},{"bike_id":"461971c0-0153-401c-a427-ccb84f8ecdb2","system_id":"levelo_inurba_marseille","lat":43.29785,"lon":5.39341,"is_reserved":false,"is_disabled":false,"rental_uris":{"android":"levelo://app?vid=461971c0-0153-401c-a427-ccb84f8ecdb2","ios":"levelo://app?vid=461971c0-0153-401c-a427-ccb84f8ecdb2"},"vehicle_type_id":"4","last_reported":1735808995,"current_range_meters":18000,"station_id":"chh1huq6cuj3fo74tm60","pricing_plan_id":"cebpf4jnsgd1na2vs0mg"},{"bike_id":"65de1a48-837c-4d3e-8090-e3b21b858f34","system_id":"levelo_inurba_marseille","lat":43.280709,"lon":5.396392,"is_reserved":false,"is_disabled":false,"rental_uris":{"android":"levelo://app?vid=65de1a48-837c-4d3e-8090-e3b21b858f34","ios":"levelo://app?vid=65de1a48-837c-4d3e-8090-e3b21b858f34"},"vehicle_type_id":"4","last_reported":1735808995,"current_range_meters":38800,"station_id":"ce4bho12rcd13ifvqh2g","pricing_plan_id":"cebpf4jnsgd1na2vs0mg"},{"bike_id":"ddb487b9-8adc-4c65-a4da-ed1e737c5e1d","system_id":"levelo_inurba_marseille","lat":43.28859,"lon":5.392977,"is_reserved":false,"is_disabled":false,"rental_uris":{"android":"levelo://app?vid=ddb487b9-8adc-4c65-a4da-ed1e737c5e1d","ios":"levelo://app?vid=ddb487b9-8adc-4c65-a4da-ed1e737c5e1d"},"vehicle_type_id":"4","last_reported":1735808995,"current_range_meters":39200,"station_id":"ce4bh2p2rcd13ifvqdi0","pricing_plan_id":"cebpf4jnsgd1na2vs0mg"},{"bike_id":"42d9687b-df97-4218-b4aa-bb5d351494d7","system_id":"levelo_inurba_marseille","lat":43.28145,"lon":5.42654,"is_reserved":false,"is_disabled":false,"rental_uris":{"android":"levelo://app?vid=42d9687b-df97-4218-b4aa-bb5d351494d7","ios":"levelo://app?vid=42d9687b-df97-4218-b4aa-bb5d351494d7"},"vehicle_type_id":"4","last_reported":1735808995,"current_range_meters":10000,"station_id":"ce4bhnh2rcd13ifvqgug","pricing_plan_id":"cebpf4jnsgd1na2vs0mg"},{"bike_id":"6ef39cf2-9335-427d-88a0-a018f070fb57","system_id":"levelo_inurba_marseille","lat":43.3176,"lon":5.39007,"is_reserved":false,"is_disabled":false,"rental_uris":{"android":"levelo://app?vid=6ef39cf2-9335-427d-88a0-a018f070fb57","ios":"levelo://app?vid=6ef39cf2-9335-427d-88a0-a018f070fb57"},"vehicle_type_id":"4","last_reported":1735808995,"current_range_meters":23200,"station_id":"ce4bhqp2rcd13ifvqhng","pricing_plan_id":"cebpf4jnsgd1na2vs0mg"},{"bike_id":"4fbcaf20-cf0a-4c4c-92d5-e96f1d04da7c","system_id":"levelo_inurba_marseille","lat":43.24994,"lon":5.3894,"is_reserved":false,"is_disabled":false,"rental_uris":{"android":"levelo://app?vid=4fbcaf20-cf0a-4c4c-92d5-e96f1d04da7c","ios":"levelo://app?vid=4fbcaf20-cf0a-4c4c-92d5-e96f1d04da7c"},"vehicle_type_id":"4","last_reported":1735808995,"current_range_meters":38800,"station_id":"ce4bhgp2rcd13ifvqfd0","pricing_plan_id":"cebpf4jnsgd1na2vs0mg"},{"bike_id":"01de914a-72cd-4732-981a-40c6fffcb3c3","system_id":"levelo_inurba_marseille","lat":43.25932,"lon":5.40848,"is_reserved":false,"is_disabled":false,"rental_uris":{"android":"levelo://app?vid=01de914a-72cd-4732-981a-40c6fffcb3c3","ios":"levelo://app?vid=01de914a-72cd-4732-981a-40c6fffcb3c3"},"vehicle_type_id":"4","last_reported":1735808995,"current_range_meters":36000,"station_id":"ce4bhm92rcd13ifvqglg","pricing_plan_id":"cebpf4jnsgd1na2vs0mg"},{"bike_id":"d9039fb6-1526-43a5-ab47-bf6c74051347","system_id":"levelo_inurba_marseille","lat":43.28154,"lon":5.42662,"is_reserved":false,"is_disabled":false,"rental_uris":{"android":"levelo://app?vid=d9039fb6-1526-43a5-ab47-bf6c74051347","ios":"levelo://app?vid=d9039fb6-1526-43a5-ab47-bf6c74051347"},"vehicle_type_id":"4","last_reported":1735808995,"current_range_meters":2800,"station_id":"ce4bhnh2rcd13ifvqgug","pricing_plan_id":"cebpf4jnsgd1na2vs0mg"},{"bike_id":"b5e3865b-10bc-4c4f-ad14-18834fa7a270","system_id":"levelo_inurba_marseille","lat":43.30336,"lon":5.36935,"is_reserved":false,"is_disabled":false,"rental_uris":{"android":"levelo://app?vid=b5e3865b-10bc-4c4f-ad14-18834fa7a270","ios":"levelo://app?vid=b5e3865b-10bc-4c4f-ad14-18834fa7a270"},"vehicle_type_id":"4","last_reported":1735808995,"current_range_meters":38800,"station_id":"ce4bgqh2rcd13ifvqc5g","pricing_plan_id":"cebpf4jnsgd1na2vs0mg"},{"bike_id":"628a5455-080f-4414-969d-c062a978390e","system_id":"levelo_inurba_marseille","lat":43.28463,"lon":5.38544,"is_reserved":false,"is_disabled":false,"rental_uris":{"android":"levelo://app?vid=628a5455-080f-4414-969d-c062a978390e","ios":"levelo://app?vid=628a5455-080f-4414-969d-c062a978390e"},"vehicle_type_id":"4","last_reported":1735808995,"current_range_meters":39200,"station_id":"ce4bh8p2rcd13ifvqeb0","pricing_plan_id":"cebpf4jnsgd1na2vs0mg"},{"bike_id":"29e74cc3-01c5-4c68-9cf1-710cc057bc39","system_id":"levelo_inurba_marseille","lat":43.28625,"lon":5.35092,"is_reserved":false,"is_disabled":false,"rental_uris":{"android":"levelo://app?vid=29e74cc3-01c5-4c68-9cf1-710cc057bc39","ios":"levelo://app?vid=29e74cc3-01c5-4c68-9cf1-710cc057bc39"},"vehicle_type_id":"4","last_reported":1735808995,"current_range_meters":18800,"station_id":"ce4bhch2rcd13ifvqeug","pricing_plan_id":"cebpf4jnsgd1na2vs0mg"},{"bike_id":"022d826a-d31d-48ef-b07e-f8dd0ceaa746","system_id":"levelo_inurba_marseille","lat":43.24996,"lon":5.38935,"is_reserved":false,"is_disabled":false,"rental_uris":{"android":"levelo://app?vid=022d826a-d31d-48ef-b07e-f8dd0ceaa746","ios":"levelo://app?vid=022d826a-d31d-48ef-b07e-f8dd0ceaa746"},"vehicle_type_id":"4","last_reported":1735808995,"current_range_meters":28400,"station_id":"ce4bhgp2rcd13ifvqfd0","pricing_plan_id":"cebpf4jnsgd1na2vs0mg"},{"bike_id":"29343630-08d2-464b-bbbd-14b31ece5206","system_id":"levelo_inurba_marseille","lat":43.3053,"lon":5.36706,"is_reserved":false,"is_disabled":false,"rental_uris":{"android":"levelo://app?vid=29343630-08d2-464b-bbbd-14b31ece5206","ios":"levelo://app?vid=29343630-08d2-464b-bbbd-14b31ece5206"},"vehicle_type_id":"4","last_reported":1735808995,"current_range_meters":25600,"station_id":"ce4bgrp2rcd13ifvqc9g","pricing_plan_id":"cebpf4jnsgd1na2vs0mg"},{"bike_id":"e5bb4a6c-dc1b-473c-941d-102c4ae9a6a7","system_id":"levelo_inurba_marseille","lat":43.29226,"lon":5.40216,"is_reserved":false,"is_disabled":false,"rental_uris":{"android":"levelo://app?vid=e5bb4a6c-dc1b-473c-941d-102c4ae9a6a7","ios":"levelo://app?vid=e5bb4a6c-dc1b-473c-941d-102c4ae9a6a7"},"vehicle_type_id":"4","last_reported":1735808995,"current_range_meters":38800,"station_id":"ce4bh312rcd13ifvqdk0","pricing_plan_id":"cebpf4jnsgd1na2vs0mg"},{"bike_id":"a723ce28-f7d0-48b7-8af4-639e73a4245c","system_id":"levelo_inurba_marseille","lat":43.29479,"lon":5.43843,"is_reserved":false,"is_disabled":false,"rental_uris":{"android":"levelo://app?vid=a723ce28-f7d0-48b7-8af4-639e73a4245c","ios":"levelo://app?vid=a723ce28-f7d0-48b7-8af4-639e73a4245c"},"vehicle_type_id":"4","last_reported":1735808995,"current_range_meters":15200,"station_id":"","pricing_plan_id":"cebpf4jnsgd1na2vs0mg"},{"bike_id":"2db47817-70dd-48ab-89a4-4191bad0939e","system_id":"levelo_inurba_marseille","lat":43.27676,"lon":5.38893,"is_reserved":false,"is_disabled":false,"rental_uris":{"android":"levelo://app?vid=2db47817-70dd-48ab-89a4-4191bad0939e","ios":"levelo://app?vid=2db47817-70dd-48ab-89a4-4191bad0939e"},"vehicle_type_id":"4","last_reported":1735808995,"current_range_meters":34000,"station_id":"ce4bhi12rcd13ifvqfo0","pricing_plan_id":"cebpf4jnsgd1na2vs0mg"},{"bike_id":"313f20f2-03cd-45e9-9ad2-6c4a5b48a8f1","system_id":"levelo_inurba_marseille","lat":43.30093,"lon":5.39088,"is_reserved":false,"is_disabled":false,"rental_uris":{"android":"levelo://app?vid=313f20f2-03cd-45e9-9ad2-6c4a5b48a8f1","ios":"levelo://app?vid=313f20f2-03cd-45e9-9ad2-6c4a5b48a8f1"},"vehicle_type_id":"4","last_reported":1735808995,"current_range_meters":25200,"station_id":"ce4bh192rcd13ifvqdb0","pricing_plan_id":"cebpf4jnsgd1na2vs0mg"},{"bike_id":"16fa307c-bc46-4c6c-be6d-9d204a724375","system_id":"levelo_inurba_marseille","lat":43.286186,"lon":5.351008,"is_reserved":false,"is_disabled":true,"rental_uris":{"android":"levelo://app?vid=16fa307c-bc46-4c6c-be6d-9d204a724375","ios":"levelo://app?vid=16fa307c-bc46-4c6c-be6d-9d204a724375"},"vehicle_type_id":"4","last_reported":1735808995,"current_range_meters":7200,"station_id":"ce4bhch2rcd13ifvqeug","pricing_plan_id":"cebpf4jnsgd1na2vs0mg"},{"bike_id":"1c50d353-62ad-4227-a3a2-473f6bd2be13","system_id":"levelo_inurba_marseille","lat":43.30193,"lon":5.3659,"is_reserved":false,"is_disabled":false,"rental_uris":{"android":"levelo://app?vid=1c50d353-62ad-4227-a3a2-473f6bd2be13","ios":"levelo://app?vid=1c50d353-62ad-4227-a3a2-473f6bd2be13"},"vehicle_type_id":"4","last_reported":1735808995,"current_range_meters":31200,"station_id":"ce4bgrh2rcd13ifvqc8g","pricing_plan_id":"cebpf4jnsgd1na2vs0mg"},{"bike_id":"8fefa1b7-1579-4507-9edd-507e41e62930","system_id":"levelo_inurba_marseille","lat":43.28431,"lon":5.39188,"is_reserved":false,"is_disabled":false,"rental_uris":{"android":"levelo://app?vid=8fefa1b7-1579-4507-9edd-507e41e62930","ios":"levelo://app?vid=8fefa1b7-1579-4507-9edd-507e41e62930"},"vehicle_type_id":"4","last_reported":1735808995,"current_range_meters":26000,"station_id":"ce4bhoh2rcd13ifvqh5g","pricing_plan_id":"cebpf4jnsgd1na2vs0mg"},{"bike_id":"55a8a7bb-98e9-461f-923e-fc4eca67cd2f","system_id":"levelo_inurba_marseille","lat":43.2783,"lon":5.39208,"is_reserved":false,"is_disabled":false,"rental_uris":{"android":"levelo://app?vid=55a8a7bb-98e9-461f-923e-fc4eca67cd2f","ios":"levelo://app?vid=55a8a7bb-98e9-461f-923e-fc4eca67cd2f"},"vehicle_type_id":"4","last_reported":1735808995,"current_range_meters":18000,"station_id":"ce4bhjp2rcd13ifvqga0","pricing_plan_id":"cebpf4jnsgd1na2vs0mg"},{"bike_id":"4fddba13-1e7b-4cbb-a7ff-2b7342e1322f","system_id":"levelo_inurba_marseille","lat":43.26206,"lon":5.37457,"is_reserved":false,"is_disabled":false,"rental_uris":{"android":"levelo://app?vid=4fddba13-1e7b-4cbb-a7ff-2b7342e1322f","ios":"levelo://app?vid=4fddba13-1e7b-4cbb-a7ff-2b7342e1322f"},"vehicle_type_id":"4","last_reported":1735808995,"current_range_meters":13600,"station_id":"ce4bhgp2rcd13ifvqfc0","pricing_plan_id":"cebpf4jnsgd1na2vs0mg"},{"bike_id":"44d177c7-eea4-4936-8fb2-f4e78401eb94","system_id":"levelo_inurba_marseille","lat":43.259304,"lon":5.408948,"is_reserved":false,"is_disabled":false,"rental_uris":{"android":"levelo://app?vid=44d177c7-eea4-4936-8fb2-f4e78401eb94","ios":"levelo://app?vid=44d177c7-eea4-4936-8fb2-f4e78401eb94"},"vehicle_type_id":"4","last_reported":1735808995,"current_range_meters":38000,"station_id":"ce4bhm92rcd13ifvqglg","pricing_plan_id":"cebpf4jnsgd1na2vs0mg"},{"bike_id":"189d832f-528f-4b42-a3f9-2aa8c8b4f686","system_id":"levelo_inurba_marseille","lat":43.298918,"lon":5.43652,"is_reserved":false,"is_disabled":false,"rental_uris":{"android":"levelo://app?vid=189d832f-528f-4b42-a3f9-2aa8c8b4f686","ios":"levelo://app?vid=189d832f-528f-4b42-a3f9-2aa8c8b4f686"},"vehicle_type_id":"4","last_reported":1735808995,"current_range_meters":39200,"station_id":"ce4bhpp2rcd13ifvqhfg","pricing_plan_id":"cebpf4jnsgd1na2vs0mg"},{"bike_id":"375263f7-8be8-4e9c-8273-54301f8efcdc","system_id":"levelo_inurba_marseille","lat":43.28148,"lon":5.42661,"is_reserved":false,"is_disabled":false,"rental_uris":{"android":"levelo://app?vid=375263f7-8be8-4e9c-8273-54301f8efcdc","ios":"levelo://app?vid=375263f7-8be8-4e9c-8273-54301f8efcdc"},"vehicle_type_id":"4","last_reported":1735808995,"current_range_meters":9600,"station_id":"ce4bhnh2rcd13ifvqgug","pricing_plan_id":"cebpf4jnsgd1na2vs0mg"},{"bike_id":"5f7c5d7f-f48c-4132-ae92-595dbbb1ff9f","system_id":"levelo_inurba_marseille","lat":43.27037,"lon":5.42321,"is_reserved":false,"is_disabled":false,"rental_uris":{"android":"levelo://app?vid=5f7c5d7f-f48c-4132-ae92-595dbbb1ff9f","ios":"levelo://app?vid=5f7c5d7f-f48c-4132-ae92-595dbbb1ff9f"},"vehicle_type_id":"4","last_reported":1735808995,"current_range_meters":38000,"station_id":"ce4bhk92rcd13ifvqgb0","pricing_plan_id":"cebpf4jnsgd1na2vs0mg"},{"bike_id":"a6cc3042-dfda-4de8-8ba5-43c81ce3efce","system_id":"levelo_inurba_marseille","lat":43.29912,"lon":5.37468,"is_reserved":false,"is_disabled":false,"rental_uris":{"android":"levelo://app?vid=a6cc3042-dfda-4de8-8ba5-43c81ce3efce","ios":"levelo://app?vid=a6cc3042-dfda-4de8-8ba5-43c81ce3efce"},"vehicle_type_id":"4","last_reported":1735808995,"current_range_meters":36400,"station_id":"ce4bgjh2rcd13ifvqbg0","pricing_plan_id":"cebpf4jnsgd1na2vs0mg"},{"bike_id":"177cfaf0-3a66-437e-945f-d636c244cbeb","system_id":"levelo_inurba_marseille","lat":43.29341,"lon":5.37151,"is_reserved":false,"is_disabled":true,"rental_uris":{"android":"levelo://app?vid=177cfaf0-3a66-437e-945f-d636c244cbeb","ios":"levelo://app?vid=177cfaf0-3a66-437e-945f-d636c244cbeb"},"vehicle_type_id":"4","last_reported":1735808995,"current_range_meters":30400,"station_id":"ce4bgh92rcd13ifvqb40","pricing_plan_id":"cebpf4jnsgd1na2vs0mg"},{"bike_id":"bffef0b7-80ed-47c7-9bf0-2b8c7bb36f0f","system_id":"levelo_inurba_marseille","lat":43.25094,"lon":5.3952,"is_reserved":false,"is_disabled":true,"rental_uris":{"android":"levelo://app?vid=bffef0b7-80ed-47c7-9bf0-2b8c7bb36f0f","ios":"levelo://app?vid=bffef0b7-80ed-47c7-9bf0-2b8c7bb36f0f"},"vehicle_type_id":"4","last_reported":1735808995,"current_range_meters":38400,"station_id":"ce4bhm12rcd13ifvqgkg","pricing_plan_id":"cebpf4jnsgd1na2vs0mg"},{"bike_id":"529d56a8-b2ac-446f-a54e-467a117abe09","system_id":"levelo_inurba_marseille","lat":43.29274,"lon":5.40123,"is_reserved":false,"is_disabled":false,"rental_uris":{"android":"levelo://app?vid=529d56a8-b2ac-446f-a54e-467a117abe09","ios":"levelo://app?vid=529d56a8-b2ac-446f-a54e-467a117abe09"},"vehicle_type_id":"4","last_reported":1735808995,"current_range_meters":38800,"station_id":"ce4bh312rcd13ifvqdk0","pricing_plan_id":"cebpf4jnsgd1na2vs0mg"},{"bike_id":"2fee7260-e55a-4ed6-964b-70a576822d5d","system_id":"levelo_inurba_marseille","lat":43.30896,"lon":5.37195,"is_reserved":false,"is_disabled":false,"rental_uris":{"android":"levelo://app?vid=2fee7260-e55a-4ed6-964b-70a576822d5d","ios":"levelo://app?vid=2fee7260-e55a-4ed6-964b-70a576822d5d"},"vehicle_type_id":"4","last_reported":1735808995,"current_range_meters":38800,"station_id":"ce4bguh2rcd13ifvqckg","pricing_plan_id":"cebpf4jnsgd1na2vs0mg"},{"bike_id":"875ddf3d-2cfd-49c8-bd8d-f51a9265e541","system_id":"levelo_inurba_marseille","lat":43.266893,"lon":5.382664,"is_reserved":false,"is_disabled":false,"rental_uris":{"android":"levelo://app?vid=875ddf3d-2cfd-49c8-bd8d-f51a9265e541","ios":"levelo://app?vid=875ddf3d-2cfd-49c8-bd8d-f51a9265e541"},"vehicle_type_id":"4","last_reported":1735808995,"current_range_meters":24800,"station_id":"ce4bhg92rcd13ifvqf90","pricing_plan_id":"cebpf4jnsgd1na2vs0mg"},{"bike_id":"e7f232e6-9751-45f4-a24f-005b95d10947","system_id":"levelo_inurba_marseille","lat":43.296092,"lon":5.377062,"is_reserved":false,"is_disabled":true,"rental_uris":{"android":"levelo://app?vid=e7f232e6-9751-45f4-a24f-005b95d10947","ios":"levelo://app?vid=e7f232e6-9751-45f4-a24f-005b95d10947"},"vehicle_type_id":"4","last_reported":1735808995,"current_range_meters":3600,"station_id":"ce4bgi92rcd13ifvqb90","pricing_plan_id":"cebpf4jnsgd1na2vs0mg"},{"bike_id":"20bcfc0e-ce4b-4a55-a910-2c3c546797cb","system_id":"levelo_inurba_marseille","lat":43.29909,"lon":5.3747,"is_reserved":false,"is_disabled":false,"rental_uris":{"android":"levelo://app?vid=20bcfc0e-ce4b-4a55-a910-2c3c546797cb","ios":"levelo://app?vid=20bcfc0e-ce4b-4a55-a910-2c3c546797cb"},"vehicle_type_id":"4","last_reported":1735808995,"current_range_meters":36000,"station_id":"ce4bgjh2rcd13ifvqbg0","pricing_plan_id":"cebpf4jnsgd1na2vs0mg"},{"bike_id":"f3998a04-3b93-4948-8eb7-aa16047370fd","system_id":"levelo_inurba_marseille","lat":43.27955,"lon":5.410446,"is_reserved":false,"is_disabled":false,"rental_uris":{"android":"levelo://app?vid=f3998a04-3b93-4948-8eb7-aa16047370fd","ios":"levelo://app?vid=f3998a04-3b93-4948-8eb7-aa16047370fd"},"vehicle_type_id":"4","last_reported":1735808995,"current_range_meters":24000,"station_id":"ce4bhnp2rcd13ifvqh0g","pricing_plan_id":"cebpf4jnsgd1na2vs0mg"},{"bike_id":"e07f95ea-a119-4145-b1f0-ec1fb5a5663c","system_id":"levelo_inurba_marseille","lat":43.30881,"lon":5.37194,"is_reserved":false,"is_disabled":false,"rental_uris":{"android":"levelo://app?vid=e07f95ea-a119-4145-b1f0-ec1fb5a5663c","ios":"levelo://app?vid=e07f95ea-a119-4145-b1f0-ec1fb5a5663c"},"vehicle_type_id":"4","last_reported":1735808995,"current_range_meters":38800,"station_id":"ce4bguh2rcd13ifvqckg","pricing_plan_id":"cebpf4jnsgd1na2vs0mg"},{"bike_id":"4e5ddd94-96b7-43d6-9911-f47ef0293625","system_id":"levelo_inurba_marseille","lat":43.303548,"lon":5.418725,"is_reserved":false,"is_disabled":false,"rental_uris":{"android":"levelo://app?vid=4e5ddd94-96b7-43d6-9911-f47ef0293625","ios":"levelo://app?vid=4e5ddd94-96b7-43d6-9911-f47ef0293625"},"vehicle_type_id":"4","last_reported":1735808995,"current_range_meters":38000,"station_id":"ce4bhop2rcd13ifvqh7g","pricing_plan_id":"cebpf4jnsgd1na2vs0mg"},{"bike_id":"454e635a-fe63-4370-ba83-5de3ae3da3e0","system_id":"levelo_inurba_marseille","lat":43.28408,"lon":5.37511,"is_reserved":false,"is_disabled":false,"rental_uris":{"android":"levelo://app?vid=454e635a-fe63-4370-ba83-5de3ae3da3e0","ios":"levelo://app?vid=454e635a-fe63-4370-ba83-5de3ae3da3e0"},"vehicle_type_id":"4","last_reported":1735808995,"current_range_meters":32400,"station_id":"ce4bh412rcd13ifvqds0","pricing_plan_id":"cebpf4jnsgd1na2vs0mg"},{"bike_id":"88230720-d1e4-4f3e-9bc3-d045f4b9d629","system_id":"levelo_inurba_marseille","lat":43.29872,"lon":5.3975,"is_reserved":false,"is_disabled":false,"rental_uris":{"android":"levelo://app?vid=88230720-d1e4-4f3e-9bc3-d045f4b9d629","ios":"levelo://app?vid=88230720-d1e4-4f3e-9bc3-d045f4b9d629"},"vehicle_type_id":"4","last_reported":1735808995,"current_range_meters":21600,"station_id":"ce4bh0h2rcd13ifvqd50","pricing_plan_id":"cebpf4jnsgd1na2vs0mg"},{"bike_id":"8ead7e35-2ddd-4db1-b525-2dbe32578065","system_id":"levelo_inurba_marseille","lat":43.30314,"lon":5.36927,"is_reserved":false,"is_disabled":true,"rental_uris":{"android":"levelo://app?vid=8ead7e35-2ddd-4db1-b525-2dbe32578065","ios":"levelo://app?vid=8ead7e35-2ddd-4db1-b525-2dbe32578065"},"vehicle_type_id":"4","last_reported":1735808995,"current_range_meters":30800,"station_id":"ce4bgqh2rcd13ifvqc5g","pricing_plan_id":"cebpf4jnsgd1na2vs0mg"},{"bike_id":"acd96d1e-4686-4dfb-9712-218288ec48d9","system_id":"levelo_inurba_marseille","lat":43.30948,"lon":5.39039,"is_reserved":false,"is_disabled":false,"rental_uris":{"android":"levelo://app?vid=acd96d1e-4686-4dfb-9712-218288ec48d9","ios":"levelo://app?vid=acd96d1e-4686-4dfb-9712-218288ec48d9"},"vehicle_type_id":"4","last_reported":1735808995,"current_range_meters":38400,"station_id":"ce4bgup2rcd13ifvqco0","pricing_plan_id":"cebpf4jnsgd1na2vs0mg"},{"bike_id":"e157af35-862f-4ff3-a971-0cec14143385","system_id":"levelo_inurba_marseille","lat":43.27933,"lon":5.411,"is_reserved":false,"is_disabled":false,"rental_uris":{"android":"levelo://app?vid=e157af35-862f-4ff3-a971-0cec14143385","ios":"levelo://app?vid=e157af35-862f-4ff3-a971-0cec14143385"},"vehicle_type_id":"4","last_reported":1735808995,"current_range_meters":28800,"station_id":"ce4bhnp2rcd13ifvqh0g","pricing_plan_id":"cebpf4jnsgd1na2vs0mg"},{"bike_id":"d81935cc-c2d8-41f1-87a6-1c6b256db8e0","system_id":"levelo_inurba_marseille","lat":43.32362,"lon":5.38879,"is_reserved":false,"is_disabled":false,"rental_uris":{"android":"levelo://app?vid=d81935cc-c2d8-41f1-87a6-1c6b256db8e0","ios":"levelo://app?vid=d81935cc-c2d8-41f1-87a6-1c6b256db8e0"},"vehicle_type_id":"4","last_reported":1735808995,"current_range_meters":28000,"station_id":"ce4bhqp2rcd13ifvqhog","pricing_plan_id":"cebpf4jnsgd1na2vs0mg"},{"bike_id":"703d0d5e-415c-49c6-943d-859388f28cf6","system_id":"levelo_inurba_marseille","lat":43.27194,"lon":5.40958,"is_reserved":false,"is_disabled":false,"rental_uris":{"android":"levelo://app?vid=703d0d5e-415c-49c6-943d-859388f28cf6","ios":"levelo://app?vid=703d0d5e-415c-49c6-943d-859388f28cf6"},"vehicle_type_id":"4","last_reported":1735808995,"current_range_meters":38800,"station_id":"ce4bhl12rcd13ifvqgf0","pricing_plan_id":"cebpf4jnsgd1na2vs0mg"},{"bike_id":"f5997a88-606e-48c9-933e-041b10894cea","system_id":"levelo_inurba_marseille","lat":43.270797,"lon":5.422643,"is_reserved":false,"is_disabled":false,"rental_uris":{"android":"levelo://app?vid=f5997a88-606e-48c9-933e-041b10894cea","ios":"levelo://app?vid=f5997a88-606e-48c9-933e-041b10894cea"},"vehicle_type_id":"4","last_reported":1735808995,"current_range_meters":14400,"station_id":"ce4bhk92rcd13ifvqgb0","pricing_plan_id":"cebpf4jnsgd1na2vs0mg"},{"bike_id":"f220877a-b57e-44b0-bc17-60476a285c86","system_id":"levelo_inurba_marseille","lat":43.30546,"lon":5.36535,"is_reserved":false,"is_disabled":false,"rental_uris":{"android":"levelo://app?vid=f220877a-b57e-44b0-bc17-60476a285c86","ios":"levelo://app?vid=f220877a-b57e-44b0-bc17-60476a285c86"},"vehicle_type_id":"4","last_reported":1735808995,"current_range_meters":32800,"station_id":"ce4bgs12rcd13ifvqcag","pricing_plan_id":"cebpf4jnsgd1na2vs0mg"},{"bike_id":"c5ea7010-2a08-4a99-a2ce-c8e7dd09c447","system_id":"levelo_inurba_marseille","lat":43.27802,"lon":5.40709,"is_reserved":false,"is_disabled":false,"rental_uris":{"android":"levelo://app?vid=c5ea7010-2a08-4a99-a2ce-c8e7dd09c447","ios":"levelo://app?vid=c5ea7010-2a08-4a99-a2ce-c8e7dd09c447"},"vehicle_type_id":"4","last_reported":1735808995,"current_range_meters":32800,"station_id":"ce4bhnh2rcd13ifvqgtg","pricing_plan_id":"cebpf4jnsgd1na2vs0mg"},{"bike_id":"02b9e2b7-c456-4117-99f8-a5a1cc0170b4","system_id":"levelo_inurba_marseille","lat":43.317556,"lon":5.390078,"is_reserved":false,"is_disabled":false,"rental_uris":{"android":"levelo://app?vid=02b9e2b7-c456-4117-99f8-a5a1cc0170b4","ios":"levelo://app?vid=02b9e2b7-c456-4117-99f8-a5a1cc0170b4"},"vehicle_type_id":"4","last_reported":1735808995,"current_range_meters":33600,"station_id":"ce4bhqp2rcd13ifvqhng","pricing_plan_id":"cebpf4jnsgd1na2vs0mg"},{"bike_id":"7962ce5c-a8c4-4343-a5f4-a8e8057715f7","system_id":"levelo_inurba_marseille","lat":43.25928,"lon":5.40897,"is_reserved":false,"is_disabled":false,"rental_uris":{"android":"levelo://app?vid=7962ce5c-a8c4-4343-a5f4-a8e8057715f7","ios":"levelo://app?vid=7962ce5c-a8c4-4343-a5f4-a8e8057715f7"},"vehicle_type_id":"4","last_reported":1735808995,"current_range_meters":33200,"station_id":"ce4bhm92rcd13ifvqglg","pricing_plan_id":"cebpf4jnsgd1na2vs0mg"},{"bike_id":"54a0f462-5615-4e56-ad72-7f076a7c39fe","system_id":"levelo_inurba_marseille","lat":43.28665,"lon":5.36347,"is_reserved":false,"is_disabled":false,"rental_uris":{"android":"levelo://app?vid=54a0f462-5615-4e56-ad72-7f076a7c39fe","ios":"levelo://app?vid=54a0f462-5615-4e56-ad72-7f076a7c39fe"},"vehicle_type_id":"4","last_reported":1735808995,"current_range_meters":38800,"station_id":"ce4bhah2rcd13ifvqej0","pricing_plan_id":"cebpf4jnsgd1na2vs0mg"},{"bike_id":"1758e404-548a-4b20-87fe-a9470e99ef0f","system_id":"levelo_inurba_marseille","lat":43.28344,"lon":5.38645,"is_reserved":false,"is_disabled":false,"rental_uris":{"android":"levelo://app?vid=1758e404-548a-4b20-87fe-a9470e99ef0f","ios":"levelo://app?vid=1758e404-548a-4b20-87fe-a9470e99ef0f"},"vehicle_type_id":"4","last_reported":1735808995,"current_range_meters":38800,"station_id":"ce4bh492rcd13ifvqdvg","pricing_plan_id":"cebpf4jnsgd1na2vs0mg"},{"bike_id":"f2caa754-dcf6-445a-9754-3f3e19bd3043","system_id":"levelo_inurba_marseille","lat":43.29916,"lon":5.3652,"is_reserved":false,"is_disabled":false,"rental_uris":{"android":"levelo://app?vid=f2caa754-dcf6-445a-9754-3f3e19bd3043","ios":"levelo://app?vid=f2caa754-dcf6-445a-9754-3f3e19bd3043"},"vehicle_type_id":"4","last_reported":1735808995,"current_range_meters":20400,"station_id":"ce4bgm92rcd13ifvqbr0","pricing_plan_id":"cebpf4jnsgd1na2vs0mg"},{"bike_id":"bcd20683-a7d2-4d73-b9c6-b696fde50e59","system_id":"levelo_inurba_marseille","lat":43.27053,"lon":5.42271,"is_reserved":false,"is_disabled":true,"rental_uris":{"android":"levelo://app?vid=bcd20683-a7d2-4d73-b9c6-b696fde50e59","ios":"levelo://app?vid=bcd20683-a7d2-4d73-b9c6-b696fde50e59"},"vehicle_type_id":"4","last_reported":1735808995,"current_range_meters":8400,"station_id":"ce4bhk92rcd13ifvqgb0","pricing_plan_id":"cebpf4jnsgd1na2vs0mg"},{"bike_id":"313a9a0d-cbde-465d-8a65-140655419224","system_id":"levelo_inurba_marseille","lat":43.25517,"lon":5.37667,"is_reserved":false,"is_disabled":false,"rental_uris":{"android":"levelo://app?vid=313a9a0d-cbde-465d-8a65-140655419224","ios":"levelo://app?vid=313a9a0d-cbde-465d-8a65-140655419224"},"vehicle_type_id":"4","last_reported":1735808995,"current_range_meters":39200,"station_id":"ce4bhh12rcd13ifvqff0","pricing_plan_id":"cebpf4jnsgd1na2vs0mg"},{"bike_id":"660aed1d-cdeb-4a3c-a6d4-d19ef9a2563b","system_id":"levelo_inurba_marseille","lat":43.29878,"lon":5.43666,"is_reserved":false,"is_disabled":false,"rental_uris":{"android":"levelo://app?vid=660aed1d-cdeb-4a3c-a6d4-d19ef9a2563b","ios":"levelo://app?vid=660aed1d-cdeb-4a3c-a6d4-d19ef9a2563b"},"vehicle_type_id":"4","last_reported":1735808995,"current_range_meters":19200,"station_id":"ce4bhpp2rcd13ifvqhfg","pricing_plan_id":"cebpf4jnsgd1na2vs0mg"},{"bike_id":"7d44431e-ed83-438c-86a7-892d7e053d01","system_id":"levelo_inurba_marseille","lat":43.32067,"lon":5.41536,"is_reserved":false,"is_disabled":false,"rental_uris":{"android":"levelo://app?vid=7d44431e-ed83-438c-86a7-892d7e053d01","ios":"levelo://app?vid=7d44431e-ed83-438c-86a7-892d7e053d01"},"vehicle_type_id":"4","last_reported":1735808995,"current_range_meters":38800,"station_id":"ce4bhq92rcd13ifvqhkg","pricing_plan_id":"cebpf4jnsgd1na2vs0mg"},{"bike_id":"84ff672c-254b-42d1-ad81-4f7d674dca47","system_id":"levelo_inurba_marseille","lat":43.24395,"lon":5.37043,"is_reserved":false,"is_disabled":false,"rental_uris":{"android":"levelo://app?vid=84ff672c-254b-42d1-ad81-4f7d674dca47","ios":"levelo://app?vid=84ff672c-254b-42d1-ad81-4f7d674dca47"},"vehicle_type_id":"4","last_reported":1735808995,"current_range_meters":38800,"station_id":"ce4bhhh2rcd13ifvqfk0","pricing_plan_id":"cebpf4jnsgd1na2vs0mg"},{"bike_id":"d1cc6b6d-73e2-4169-a036-4b8f55f5040c","system_id":"levelo_inurba_marseille","lat":43.317029,"lon":5.377631,"is_reserved":false,"is_disabled":false,"rental_uris":{"android":"levelo://app?vid=d1cc6b6d-73e2-4169-a036-4b8f55f5040c","ios":"levelo://app?vid=d1cc6b6d-73e2-4169-a036-4b8f55f5040c"},"vehicle_type_id":"4","last_reported":1735808995,"current_range_meters":38800,"station_id":"ce4bgth2rcd13ifvqch0","pricing_plan_id":"cebpf4jnsgd1na2vs0mg"},{"bike_id":"84574380-5e63-4a67-bbf0-475b0a817486","system_id":"levelo_inurba_marseille","lat":43.27709,"lon":5.38901,"is_reserved":false,"is_disabled":false,"rental_uris":{"android":"levelo://app?vid=84574380-5e63-4a67-bbf0-475b0a817486","ios":"levelo://app?vid=84574380-5e63-4a67-bbf0-475b0a817486"},"vehicle_type_id":"4","last_reported":1735808995,"current_range_meters":39200,"station_id":"ce4bhi12rcd13ifvqfo0","pricing_plan_id":"cebpf4jnsgd1na2vs0mg"},{"bike_id":"b8ad2f8b-4567-4e15-a896-c61988b20d51","system_id":"levelo_inurba_marseille","lat":43.28063,"lon":5.39665,"is_reserved":false,"is_disabled":false,"rental_uris":{"android":"levelo://app?vid=b8ad2f8b-4567-4e15-a896-c61988b20d51","ios":"levelo://app?vid=b8ad2f8b-4567-4e15-a896-c61988b20d51"},"vehicle_type_id":"4","last_reported":1735808995,"current_range_meters":38400,"station_id":"ce4bho12rcd13ifvqh2g","pricing_plan_id":"cebpf4jnsgd1na2vs0mg"},{"bike_id":"cf71aac8-1e52-435d-bf91-cac39ef804d5","system_id":"levelo_inurba_marseille","lat":43.341494,"lon":5.409063,"is_reserved":false,"is_disabled":false,"rental_uris":{"android":"levelo://app?vid=cf71aac8-1e52-435d-bf91-cac39ef804d5","ios":"levelo://app?vid=cf71aac8-1e52-435d-bf91-cac39ef804d5"},"vehicle_type_id":"4","last_reported":1735808995,"current_range_meters":35600,"station_id":"ce4bhqh2rcd13ifvqhlg","pricing_plan_id":"cebpf4jnsgd1na2vs0mg"},{"bike_id":"145ea73e-8190-48e4-8331-13a1a1cfe545","system_id":"levelo_inurba_marseille","lat":43.33729,"lon":5.39154,"is_reserved":false,"is_disabled":false,"rental_uris":{"android":"levelo://app?vid=145ea73e-8190-48e4-8331-13a1a1cfe545","ios":"levelo://app?vid=145ea73e-8190-48e4-8331-13a1a1cfe545"},"vehicle_type_id":"4","last_reported":1735808995,"current_range_meters":39200,"station_id":"ce4bhr92rcd13ifvqhsg","pricing_plan_id":"cebpf4jnsgd1na2vs0mg"},{"bike_id":"85f66c35-cf00-496f-866f-ed1cc2019cfb","system_id":"levelo_inurba_marseille","lat":43.28104,"lon":5.37832,"is_reserved":false,"is_disabled":false,"rental_uris":{"android":"levelo://app?vid=85f66c35-cf00-496f-866f-ed1cc2019cfb","ios":"levelo://app?vid=85f66c35-cf00-496f-866f-ed1cc2019cfb"},"vehicle_type_id":"4","last_reported":1735808995,"current_range_meters":25600,"station_id":"ce4bha12rcd13ifvqee0","pricing_plan_id":"cebpf4jnsgd1na2vs0mg"},{"bike_id":"0592da46-8016-4994-825f-ac1fa6a47e92","system_id":"levelo_inurba_marseille","lat":43.32446,"lon":5.36588,"is_reserved":false,"is_disabled":false,"rental_uris":{"android":"levelo://app?vid=0592da46-8016-4994-825f-ac1fa6a47e92","ios":"levelo://app?vid=0592da46-8016-4994-825f-ac1fa6a47e92"},"vehicle_type_id":"4","last_reported":1735808995,"current_range_meters":37600,"station_id":"ce4bhs12rcd13ifvqhvg","pricing_plan_id":"cebpf4jnsgd1na2vs0mg"},{"bike_id":"80918c45-89b7-4fd7-996f-c047d892f254","system_id":"levelo_inurba_marseille","lat":43.28422,"lon":5.35004,"is_reserved":false,"is_disabled":false,"rental_uris":{"android":"levelo://app?vid=80918c45-89b7-4fd7-996f-c047d892f254","ios":"levelo://app?vid=80918c45-89b7-4fd7-996f-c047d892f254"},"vehicle_type_id":"4","last_reported":1735808995,"current_range_meters":26000,"station_id":"ce4bhbh2rcd13ifvqepg","pricing_plan_id":"cebpf4jnsgd1na2vs0mg"},{"bike_id":"d502592a-d2f4-462b-a981-e532ff6a3185","system_id":"levelo_inurba_marseille","lat":43.28931,"lon":5.39638,"is_reserved":false,"is_disabled":false,"rental_uris":{"android":"levelo://app?vid=d502592a-d2f4-462b-a981-e532ff6a3185","ios":"levelo://app?vid=d502592a-d2f4-462b-a981-e532ff6a3185"},"vehicle_type_id":"4","last_reported":1735808995,"current_range_meters":38800,"station_id":"ce4bh3h2rcd13ifvqdn0","pricing_plan_id":"cebpf4jnsgd1na2vs0mg"},{"bike_id":"aba124d0-45ce-4be8-b53b-a3dc9f33072d","system_id":"levelo_inurba_marseille","lat":43.295257,"lon":5.3854,"is_reserved":false,"is_disabled":false,"rental_uris":{"android":"levelo://app?vid=aba124d0-45ce-4be8-b53b-a3dc9f33072d","ios":"levelo://app?vid=aba124d0-45ce-4be8-b53b-a3dc9f33072d"},"vehicle_type_id":"4","last_reported":1735808995,"current_range_meters":28400,"station_id":"ce4bgih2rcd13ifvqba0","pricing_plan_id":"cebpf4jnsgd1na2vs0mg"},{"bike_id":"2a3ee495-54a6-4f06-9833-38f47b15ce57","system_id":"levelo_inurba_marseille","lat":43.33734,"lon":5.37459,"is_reserved":false,"is_disabled":false,"rental_uris":{"android":"levelo://app?vid=2a3ee495-54a6-4f06-9833-38f47b15ce57","ios":"levelo://app?vid=2a3ee495-54a6-4f06-9833-38f47b15ce57"},"vehicle_type_id":"4","last_reported":1735808995,"current_range_meters":37600,"station_id":"","pricing_plan_id":"cebpf4jnsgd1na2vs0mg"},{"bike_id":"4e2e926a-cc62-4529-8b24-3abbcf0f0be2","system_id":"levelo_inurba_marseille","lat":43.23177,"lon":5.35556,"is_reserved":false,"is_disabled":false,"rental_uris":{"android":"levelo://app?vid=4e2e926a-cc62-4529-8b24-3abbcf0f0be2","ios":"levelo://app?vid=4e2e926a-cc62-4529-8b24-3abbcf0f0be2"},"vehicle_type_id":"4","last_reported":1735808995,"current_range_meters":37600,"station_id":"ce4bhu92rcd13ifvqi70","pricing_plan_id":"cebpf4jnsgd1na2vs0mg"},{"bike_id":"576c3c6b-bcf6-433f-9d79-5f33ae917960","system_id":"levelo_inurba_marseille","lat":43.295523,"lon":5.422817,"is_reserved":false,"is_disabled":false,"rental_uris":{"android":"levelo://app?vid=576c3c6b-bcf6-433f-9d79-5f33ae917960","ios":"levelo://app?vid=576c3c6b-bcf6-433f-9d79-5f33ae917960"},"vehicle_type_id":"4","last_reported":1735808995,"current_range_meters":38800,"station_id":"ce4bhph2rcd13ifvqhdg","pricing_plan_id":"cebpf4jnsgd1na2vs0mg"},{"bike_id":"d8c4f07d-c4fa-4c6c-8b8c-8a84d329593c","system_id":"levelo_inurba_marseille","lat":43.30419,"lon":5.39748,"is_reserved":false,"is_disabled":false,"rental_uris":{"android":"levelo://app?vid=d8c4f07d-c4fa-4c6c-8b8c-8a84d329593c","ios":"levelo://app?vid=d8c4f07d-c4fa-4c6c-8b8c-8a84d329593c"},"vehicle_type_id":"4","last_reported":1735808995,"current_range_meters":38000,"station_id":"ce4bh092rcd13ifvqd20","pricing_plan_id":"cebpf4jnsgd1na2vs0mg"},{"bike_id":"93292c85-39b6-45df-a123-5e652dddae6f","system_id":"levelo_inurba_marseille","lat":43.2896,"lon":5.3964,"is_reserved":false,"is_disabled":false,"rental_uris":{"android":"levelo://app?vid=93292c85-39b6-45df-a123-5e652dddae6f","ios":"levelo://app?vid=93292c85-39b6-45df-a123-5e652dddae6f"},"vehicle_type_id":"4","last_reported":1735808995,"current_range_meters":33600,"station_id":"ce4bh3h2rcd13ifvqdn0","pricing_plan_id":"cebpf4jnsgd1na2vs0mg"},{"bike_id":"e8bfb197-6499-4133-851b-4f477e31e3f9","system_id":"levelo_inurba_marseille","lat":43.33717,"lon":5.39211,"is_reserved":false,"is_disabled":false,"rental_uris":{"android":"levelo://app?vid=e8bfb197-6499-4133-851b-4f477e31e3f9","ios":"levelo://app?vid=e8bfb197-6499-4133-851b-4f477e31e3f9"},"vehicle_type_id":"4","last_reported":1735808995,"current_range_meters":30000,"station_id":"ce4bhr92rcd13ifvqhsg","pricing_plan_id":"cebpf4jnsgd1na2vs0mg"},{"bike_id":"c282168f-23b6-4bd5-b753-7f36e51f87d4","system_id":"levelo_inurba_marseille","lat":43.24084,"lon":5.3776,"is_reserved":false,"is_disabled":false,"rental_uris":{"android":"levelo://app?vid=c282168f-23b6-4bd5-b753-7f36e51f87d4","ios":"levelo://app?vid=c282168f-23b6-4bd5-b753-7f36e51f87d4"},"vehicle_type_id":"4","last_reported":1735808995,"current_range_meters":26000,"station_id":"ce4bhnp2rcd13ifvqgvg","pricing_plan_id":"cebpf4jnsgd1na2vs0mg"},{"bike_id":"2f71d5d0-4248-4fd8-90b9-7615dc7e3077","system_id":"levelo_inurba_marseille","lat":43.25115,"lon":5.40326,"is_reserved":false,"is_disabled":false,"rental_uris":{"android":"levelo://app?vid=2f71d5d0-4248-4fd8-90b9-7615dc7e3077","ios":"levelo://app?vid=2f71d5d0-4248-4fd8-90b9-7615dc7e3077"},"vehicle_type_id":"4","last_reported":1735808995,"current_range_meters":38800,"station_id":"ce4bhlh2rcd13ifvqgig","pricing_plan_id":"cebpf4jnsgd1na2vs0mg"},{"bike_id":"f46bd378-e30f-485c-b539-9d29fba578aa","system_id":"levelo_inurba_marseille","lat":43.34126,"lon":5.40924,"is_reserved":false,"is_disabled":false,"rental_uris":{"android":"levelo://app?vid=f46bd378-e30f-485c-b539-9d29fba578aa","ios":"levelo://app?vid=f46bd378-e30f-485c-b539-9d29fba578aa"},"vehicle_type_id":"4","last_reported":1735808995,"current_range_meters":38800,"station_id":"ce4bhqh2rcd13ifvqhlg","pricing_plan_id":"cebpf4jnsgd1na2vs0mg"},{"bike_id":"583adf00-139d-403f-8366-744378ddbd7e","system_id":"levelo_inurba_marseille","lat":43.28346,"lon":5.38635,"is_reserved":false,"is_disabled":false,"rental_uris":{"android":"levelo://app?vid=583adf00-139d-403f-8366-744378ddbd7e","ios":"levelo://app?vid=583adf00-139d-403f-8366-744378ddbd7e"},"vehicle_type_id":"4","last_reported":1735808995,"current_range_meters":37600,"station_id":"ce4bh492rcd13ifvqdvg","pricing_plan_id":"cebpf4jnsgd1na2vs0mg"},{"bike_id":"01f998dd-bf06-43ec-b417-0625ec0f7d04","system_id":"levelo_inurba_marseille","lat":43.29279,"lon":5.40114,"is_reserved":false,"is_disabled":false,"rental_uris":{"android":"levelo://app?vid=01f998dd-bf06-43ec-b417-0625ec0f7d04","ios":"levelo://app?vid=01f998dd-bf06-43ec-b417-0625ec0f7d04"},"vehicle_type_id":"4","last_reported":1735808995,"current_range_meters":36400,"station_id":"ce4bh312rcd13ifvqdk0","pricing_plan_id":"cebpf4jnsgd1na2vs0mg"},{"bike_id":"a10cb38b-c0a9-46c5-81e3-8b36eafcdd96","system_id":"levelo_inurba_marseille","lat":43.28976,"lon":5.37827,"is_reserved":false,"is_disabled":true,"rental_uris":{"android":"levelo://app?vid=a10cb38b-c0a9-46c5-81e3-8b36eafcdd96","ios":"levelo://app?vid=a10cb38b-c0a9-46c5-81e3-8b36eafcdd96"},"vehicle_type_id":"4","last_reported":1735808995,"current_range_meters":37600,"station_id":"ce4bh9p2rcd13ifvqed0","pricing_plan_id":"cebpf4jnsgd1na2vs0mg"},{"bike_id":"df334d50-4421-42a5-a762-fb7f39807cc1","system_id":"levelo_inurba_marseille","lat":43.33755,"lon":5.37428,"is_reserved":false,"is_disabled":false,"rental_uris":{"android":"levelo://app?vid=df334d50-4421-42a5-a762-fb7f39807cc1","ios":"levelo://app?vid=df334d50-4421-42a5-a762-fb7f39807cc1"},"vehicle_type_id":"4","last_reported":1735808995,"current_range_meters":32800,"station_id":"","pricing_plan_id":"cebpf4jnsgd1na2vs0mg"},{"bike_id":"87b9a921-e93d-4ee9-818f-18845bfae0db","system_id":"levelo_inurba_marseille","lat":43.28151,"lon":5.37841,"is_reserved":false,"is_disabled":false,"rental_uris":{"android":"levelo://app?vid=87b9a921-e93d-4ee9-818f-18845bfae0db","ios":"levelo://app?vid=87b9a921-e93d-4ee9-818f-18845bfae0db"},"vehicle_type_id":"4","last_reported":1735808995,"current_range_meters":18800,"station_id":"","pricing_plan_id":"cebpf4jnsgd1na2vs0mg"},{"bike_id":"35d7b981-f2f8-4e1f-bf58-6f3547d4e1f6","system_id":"levelo_inurba_marseille","lat":43.303129,"lon":5.369085,"is_reserved":false,"is_disabled":true,"rental_uris":{"android":"levelo://app?vid=35d7b981-f2f8-4e1f-bf58-6f3547d4e1f6","ios":"levelo://app?vid=35d7b981-f2f8-4e1f-bf58-6f3547d4e1f6"},"vehicle_type_id":"4","last_reported":1735808995,"current_range_meters":19200,"station_id":"ce4bgqh2rcd13ifvqc5g","pricing_plan_id":"cebpf4jnsgd1na2vs0mg"},{"bike_id":"176dc94c-6fa3-4dff-84cb-4c4762966efe","system_id":"levelo_inurba_marseille","lat":43.27439,"lon":5.39425,"is_reserved":false,"is_disabled":false,"rental_uris":{"android":"levelo://app?vid=176dc94c-6fa3-4dff-84cb-4c4762966efe","ios":"levelo://app?vid=176dc94c-6fa3-4dff-84cb-4c4762966efe"},"vehicle_type_id":"4","last_reported":1735808995,"current_range_meters":33200,"station_id":"ce4bhdp2rcd13ifvqf20","pricing_plan_id":"cebpf4jnsgd1na2vs0mg"},{"bike_id":"d6b7bffe-8f80-427e-946d-3914bf2c39b8","system_id":"levelo_inurba_marseille","lat":43.27905,"lon":5.39585,"is_reserved":false,"is_disabled":false,"rental_uris":{"android":"levelo://app?vid=d6b7bffe-8f80-427e-946d-3914bf2c39b8","ios":"levelo://app?vid=d6b7bffe-8f80-427e-946d-3914bf2c39b8"},"vehicle_type_id":"4","last_reported":1735808995,"current_range_meters":36000,"station_id":"ce4bhf92rcd13ifvqf40","pricing_plan_id":"cebpf4jnsgd1na2vs0mg"},{"bike_id":"c25dfa90-8357-4c06-945d-14c7820c2818","system_id":"levelo_inurba_marseille","lat":43.30912,"lon":5.36851,"is_reserved":false,"is_disabled":false,"rental_uris":{"android":"levelo://app?vid=c25dfa90-8357-4c06-945d-14c7820c2818","ios":"levelo://app?vid=c25dfa90-8357-4c06-945d-14c7820c2818"},"vehicle_type_id":"4","last_reported":1735808995,"current_range_meters":24400,"station_id":"ce4bgn92rcd13ifvqbvg","pricing_plan_id":"cebpf4jnsgd1na2vs0mg"},{"bike_id":"5367a292-5564-4681-91cd-97babb89fc00","system_id":"levelo_inurba_marseille","lat":43.22926,"lon":5.35378,"is_reserved":false,"is_disabled":false,"rental_uris":{"android":"levelo://app?vid=5367a292-5564-4681-91cd-97babb89fc00","ios":"levelo://app?vid=5367a292-5564-4681-91cd-97babb89fc00"},"vehicle_type_id":"4","last_reported":1735808995,"current_range_meters":19200,"station_id":"cpo3532slgdg3j2ikp40","pricing_plan_id":"cebpf4jnsgd1na2vs0mg"},{"bike_id":"1d5543c4-1c87-4447-ad2e-0cc64903ea75","system_id":"levelo_inurba_marseille","lat":43.25859,"lon":5.39916,"is_reserved":false,"is_disabled":false,"rental_uris":{"android":"levelo://app?vid=1d5543c4-1c87-4447-ad2e-0cc64903ea75","ios":"levelo://app?vid=1d5543c4-1c87-4447-ad2e-0cc64903ea75"},"vehicle_type_id":"4","last_reported":1735808995,"current_range_meters":38800,"station_id":"ce4bhl92rcd13ifvqghg","pricing_plan_id":"cebpf4jnsgd1na2vs0mg"},{"bike_id":"1db660db-9f72-40ef-8c1c-f3073889a308","system_id":"levelo_inurba_marseille","lat":43.30935,"lon":5.40143,"is_reserved":false,"is_disabled":false,"rental_uris":{"android":"levelo://app?vid=1db660db-9f72-40ef-8c1c-f3073889a308","ios":"levelo://app?vid=1db660db-9f72-40ef-8c1c-f3073889a308"},"vehicle_type_id":"4","last_reported":1735808995,"current_range_meters":38000,"station_id":"ce4bgvp2rcd13ifvqct0","pricing_plan_id":"cebpf4jnsgd1na2vs0mg"},{"bike_id":"c4f716b0-7e47-4061-aa89-d739dc102720","system_id":"levelo_inurba_marseille","lat":43.30284,"lon":5.39211,"is_reserved":false,"is_disabled":false,"rental_uris":{"android":"levelo://app?vid=c4f716b0-7e47-4061-aa89-d739dc102720","ios":"levelo://app?vid=c4f716b0-7e47-4061-aa89-d739dc102720"},"vehicle_type_id":"4","last_reported":1735808995,"current_range_meters":38000,"station_id":"ce4bgkh2rcd13ifvqbk0","pricing_plan_id":"cebpf4jnsgd1na2vs0mg"},{"bike_id":"f98fde69-1f61-4a82-80ea-97f37f2d8cf7","system_id":"levelo_inurba_marseille","lat":43.30173,"lon":5.36619,"is_reserved":false,"is_disabled":false,"rental_uris":{"android":"levelo://app?vid=f98fde69-1f61-4a82-80ea-97f37f2d8cf7","ios":"levelo://app?vid=f98fde69-1f61-4a82-80ea-97f37f2d8cf7"},"vehicle_type_id":"4","last_reported":1735808995,"current_range_meters":36800,"station_id":"ce4bgrh2rcd13ifvqc8g","pricing_plan_id":"cebpf4jnsgd1na2vs0mg"},{"bike_id":"9320d020-4c62-4fe4-ac9b-ff56a3eaad5a","system_id":"levelo_inurba_marseille","lat":43.26022,"lon":5.37556,"is_reserved":false,"is_disabled":false,"rental_uris":{"android":"levelo://app?vid=9320d020-4c62-4fe4-ac9b-ff56a3eaad5a","ios":"levelo://app?vid=9320d020-4c62-4fe4-ac9b-ff56a3eaad5a"},"vehicle_type_id":"4","last_reported":1735808995,"current_range_meters":37600,"station_id":"ce4bhgh2rcd13ifvqfa0","pricing_plan_id":"cebpf4jnsgd1na2vs0mg"},{"bike_id":"5805dd1a-e108-430b-8b6a-b20a2cc619b1","system_id":"levelo_inurba_marseille","lat":43.295731,"lon":5.399819,"is_reserved":false,"is_disabled":false,"rental_uris":{"android":"levelo://app?vid=5805dd1a-e108-430b-8b6a-b20a2cc619b1","ios":"levelo://app?vid=5805dd1a-e108-430b-8b6a-b20a2cc619b1"},"vehicle_type_id":"4","last_reported":1735808995,"current_range_meters":38800,"station_id":"ce4bh312rcd13ifvqdj0","pricing_plan_id":"cebpf4jnsgd1na2vs0mg"},{"bike_id":"addd4f10-99f5-4e98-a77b-9d17d1d03a73","system_id":"levelo_inurba_marseille","lat":43.27367,"lon":5.36247,"is_reserved":false,"is_disabled":false,"rental_uris":{"android":"levelo://app?vid=addd4f10-99f5-4e98-a77b-9d17d1d03a73","ios":"levelo://app?vid=addd4f10-99f5-4e98-a77b-9d17d1d03a73"},"vehicle_type_id":"4","last_reported":1735808995,"current_range_meters":24400,"station_id":"ce4bhbh2rcd13ifvqeo0","pricing_plan_id":"cebpf4jnsgd1na2vs0mg"},{"bike_id":"62076514-d312-4a15-ad75-f85cfe6d3f46","system_id":"levelo_inurba_marseille","lat":43.22934,"lon":5.35389,"is_reserved":false,"is_disabled":false,"rental_uris":{"android":"levelo://app?vid=62076514-d312-4a15-ad75-f85cfe6d3f46","ios":"levelo://app?vid=62076514-d312-4a15-ad75-f85cfe6d3f46"},"vehicle_type_id":"4","last_reported":1735808995,"current_range_meters":17200,"station_id":"cpo3532slgdg3j2ikp40","pricing_plan_id":"cebpf4jnsgd1na2vs0mg"},{"bike_id":"921c161c-81a9-4f62-88c9-fa7031ed1ea4","system_id":"levelo_inurba_marseille","lat":43.30181,"lon":5.36617,"is_reserved":false,"is_disabled":false,"rental_uris":{"android":"levelo://app?vid=921c161c-81a9-4f62-88c9-fa7031ed1ea4","ios":"levelo://app?vid=921c161c-81a9-4f62-88c9-fa7031ed1ea4"},"vehicle_type_id":"4","last_reported":1735808995,"current_range_meters":38800,"station_id":"ce4bgrh2rcd13ifvqc8g","pricing_plan_id":"cebpf4jnsgd1na2vs0mg"},{"bike_id":"337c71c9-4ec3-45b1-936a-31d8bdf83077","system_id":"levelo_inurba_marseille","lat":43.30162,"lon":5.37403,"is_reserved":false,"is_disabled":false,"rental_uris":{"android":"levelo://app?vid=337c71c9-4ec3-45b1-936a-31d8bdf83077","ios":"levelo://app?vid=337c71c9-4ec3-45b1-936a-31d8bdf83077"},"vehicle_type_id":"4","last_reported":1735808995,"current_range_meters":12000,"station_id":"ce4bgs92rcd13ifvqcc0","pricing_plan_id":"cebpf4jnsgd1na2vs0mg"},{"bike_id":"b3afc75c-abdc-4e55-84d0-a16da508bd99","system_id":"levelo_inurba_marseille","lat":43.28875,"lon":5.38187,"is_reserved":false,"is_disabled":false,"rental_uris":{"android":"levelo://app?vid=b3afc75c-abdc-4e55-84d0-a16da508bd99","ios":"levelo://app?vid=b3afc75c-abdc-4e55-84d0-a16da508bd99"},"vehicle_type_id":"4","last_reported":1735808995,"current_range_meters":6000,"station_id":"","pricing_plan_id":"cebpf4jnsgd1na2vs0mg"},{"bike_id":"800a8503-adf1-4192-a0db-d363390e33c8","system_id":"levelo_inurba_marseille","lat":43.28615,"lon":5.35101,"is_reserved":false,"is_disabled":true,"rental_uris":{"android":"levelo://app?vid=800a8503-adf1-4192-a0db-d363390e33c8","ios":"levelo://app?vid=800a8503-adf1-4192-a0db-d363390e33c8"},"vehicle_type_id":"4","last_reported":1735808995,"current_range_meters":38800,"station_id":"ce4bhch2rcd13ifvqeug","pricing_plan_id":"cebpf4jnsgd1na2vs0mg"},{"bike_id":"515e64d3-2742-40a4-9cbd-08e53c8330a3","system_id":"levelo_inurba_marseille","lat":43.28846,"lon":5.39299,"is_reserved":false,"is_disabled":false,"rental_uris":{"android":"levelo://app?vid=515e64d3-2742-40a4-9cbd-08e53c8330a3","ios":"levelo://app?vid=515e64d3-2742-40a4-9cbd-08e53c8330a3"},"vehicle_type_id":"4","last_reported":1735808995,"current_range_meters":38800,"station_id":"ce4bh2p2rcd13ifvqdi0","pricing_plan_id":"cebpf4jnsgd1na2vs0mg"},{"bike_id":"bbfc5010-5ad1-478a-9bf0-def17e142c1c","system_id":"levelo_inurba_marseille","lat":43.28027,"lon":5.36958,"is_reserved":false,"is_disabled":false,"rental_uris":{"android":"levelo://app?vid=bbfc5010-5ad1-478a-9bf0-def17e142c1c","ios":"levelo://app?vid=bbfc5010-5ad1-478a-9bf0-def17e142c1c"},"vehicle_type_id":"4","last_reported":1735808995,"current_range_meters":38800,"station_id":"ce4bha12rcd13ifvqef0","pricing_plan_id":"cebpf4jnsgd1na2vs0mg"},{"bike_id":"e9be51a1-ef71-4ae5-8ab2-1ac8e1634659","system_id":"levelo_inurba_marseille","lat":43.3008,"lon":5.3819,"is_reserved":false,"is_disabled":false,"rental_uris":{"android":"levelo://app?vid=e9be51a1-ef71-4ae5-8ab2-1ac8e1634659","ios":"levelo://app?vid=e9be51a1-ef71-4ae5-8ab2-1ac8e1634659"},"vehicle_type_id":"4","last_reported":1735808995,"current_range_meters":39200,"station_id":"ce4bgjp2rcd13ifvqbh0","pricing_plan_id":"cebpf4jnsgd1na2vs0mg"},{"bike_id":"975dd58f-37e7-4310-8d08-bb2645998887","system_id":"levelo_inurba_marseille","lat":43.25005,"lon":5.38925,"is_reserved":false,"is_disabled":false,"rental_uris":{"android":"levelo://app?vid=975dd58f-37e7-4310-8d08-bb2645998887","ios":"levelo://app?vid=975dd58f-37e7-4310-8d08-bb2645998887"},"vehicle_type_id":"4","last_reported":1735808995,"current_range_meters":36000,"station_id":"ce4bhgp2rcd13ifvqfd0","pricing_plan_id":"cebpf4jnsgd1na2vs0mg"},{"bike_id":"a3597e2d-fb98-407b-9432-8b4a2b613bde","system_id":"levelo_inurba_marseille","lat":43.3035,"lon":5.41881,"is_reserved":false,"is_disabled":false,"rental_uris":{"android":"levelo://app?vid=a3597e2d-fb98-407b-9432-8b4a2b613bde","ios":"levelo://app?vid=a3597e2d-fb98-407b-9432-8b4a2b613bde"},"vehicle_type_id":"4","last_reported":1735808995,"current_range_meters":38800,"station_id":"ce4bhop2rcd13ifvqh7g","pricing_plan_id":"cebpf4jnsgd1na2vs0mg"},{"bike_id":"9fc11948-a0d1-4b39-8d46-5ede6d39db06","system_id":"levelo_inurba_marseille","lat":43.26994,"lon":5.36594,"is_reserved":false,"is_disabled":false,"rental_uris":{"android":"levelo://app?vid=9fc11948-a0d1-4b39-8d46-5ede6d39db06","ios":"levelo://app?vid=9fc11948-a0d1-4b39-8d46-5ede6d39db06"},"vehicle_type_id":"4","last_reported":1735808995,"current_range_meters":4400,"station_id":"","pricing_plan_id":"cebpf4jnsgd1na2vs0mg"},{"bike_id":"dac94ecf-3203-4c89-acc0-21c14e979588","system_id":"levelo_inurba_marseille","lat":43.266834,"lon":5.382735,"is_reserved":false,"is_disabled":false,"rental_uris":{"android":"levelo://app?vid=dac94ecf-3203-4c89-acc0-21c14e979588","ios":"levelo://app?vid=dac94ecf-3203-4c89-acc0-21c14e979588"},"vehicle_type_id":"4","last_reported":1735808995,"current_range_meters":6000,"station_id":"ce4bhg92rcd13ifvqf90","pricing_plan_id":"cebpf4jnsgd1na2vs0mg"},{"bike_id":"de45fc42-35ce-420f-9ae9-481651f5b7a8","system_id":"levelo_inurba_marseille","lat":43.27187,"lon":5.3917,"is_reserved":false,"is_disabled":false,"rental_uris":{"android":"levelo://app?vid=de45fc42-35ce-420f-9ae9-481651f5b7a8","ios":"levelo://app?vid=de45fc42-35ce-420f-9ae9-481651f5b7a8"},"vehicle_type_id":"4","last_reported":1735808995,"current_range_meters":38800,"station_id":"ce4bhhp2rcd13ifvqfm0","pricing_plan_id":"cebpf4jnsgd1na2vs0mg"},{"bike_id":"4802f4cf-bdb4-4c46-ab2a-8cf4b2f0b54e","system_id":"levelo_inurba_marseille","lat":43.32378,"lon":5.38879,"is_reserved":false,"is_disabled":false,"rental_uris":{"android":"levelo://app?vid=4802f4cf-bdb4-4c46-ab2a-8cf4b2f0b54e","ios":"levelo://app?vid=4802f4cf-bdb4-4c46-ab2a-8cf4b2f0b54e"},"vehicle_type_id":"4","last_reported":1735808995,"current_range_meters":14000,"station_id":"ce4bhqp2rcd13ifvqhog","pricing_plan_id":"cebpf4jnsgd1na2vs0mg"},{"bike_id":"9c42c59a-a990-48ee-91ac-32ebebcaabf5","system_id":"levelo_inurba_marseille","lat":43.27561,"lon":5.38407,"is_reserved":false,"is_disabled":false,"rental_uris":{"android":"levelo://app?vid=9c42c59a-a990-48ee-91ac-32ebebcaabf5","ios":"levelo://app?vid=9c42c59a-a990-48ee-91ac-32ebebcaabf5"},"vehicle_type_id":"4","last_reported":1735808995,"current_range_meters":38800,"station_id":"ce4bhh92rcd13ifvqfi0","pricing_plan_id":"cebpf4jnsgd1na2vs0mg"},{"bike_id":"8718220a-6a37-41be-b92a-7cc1a59fedb2","system_id":"levelo_inurba_marseille","lat":43.27563,"lon":5.38417,"is_reserved":false,"is_disabled":false,"rental_uris":{"android":"levelo://app?vid=8718220a-6a37-41be-b92a-7cc1a59fedb2","ios":"levelo://app?vid=8718220a-6a37-41be-b92a-7cc1a59fedb2"},"vehicle_type_id":"4","last_reported":1735808995,"current_range_meters":8000,"station_id":"ce4bhh92rcd13ifvqfi0","pricing_plan_id":"cebpf4jnsgd1na2vs0mg"},{"bike_id":"ac4a50f1-7b84-4e9f-bca0-7ae6b4bd55d3","system_id":"levelo_inurba_marseille","lat":43.280298,"lon":5.369393,"is_reserved":false,"is_disabled":false,"rental_uris":{"android":"levelo://app?vid=ac4a50f1-7b84-4e9f-bca0-7ae6b4bd55d3","ios":"levelo://app?vid=ac4a50f1-7b84-4e9f-bca0-7ae6b4bd55d3"},"vehicle_type_id":"4","last_reported":1735808995,"current_range_meters":38400,"station_id":"ce4bha12rcd13ifvqef0","pricing_plan_id":"cebpf4jnsgd1na2vs0mg"},{"bike_id":"aedf5860-f6eb-47e7-83fc-9034dd48a1e6","system_id":"levelo_inurba_marseille","lat":43.29275,"lon":5.4012,"is_reserved":false,"is_disabled":false,"rental_uris":{"android":"levelo://app?vid=aedf5860-f6eb-47e7-83fc-9034dd48a1e6","ios":"levelo://app?vid=aedf5860-f6eb-47e7-83fc-9034dd48a1e6"},"vehicle_type_id":"4","last_reported":1735808995,"current_range_meters":38800,"station_id":"ce4bh312rcd13ifvqdk0","pricing_plan_id":"cebpf4jnsgd1na2vs0mg"},{"bike_id":"e76a1997-5d04-4a9a-b1f4-294fd443f7eb","system_id":"levelo_inurba_marseille","lat":43.23178,"lon":5.39989,"is_reserved":false,"is_disabled":false,"rental_uris":{"android":"levelo://app?vid=e76a1997-5d04-4a9a-b1f4-294fd443f7eb","ios":"levelo://app?vid=e76a1997-5d04-4a9a-b1f4-294fd443f7eb"},"vehicle_type_id":"4","last_reported":1735808995,"current_range_meters":19600,"station_id":"ce4bhn12rcd13ifvqgqg","pricing_plan_id":"cebpf4jnsgd1na2vs0mg"},{"bike_id":"ed8bfe29-9ee8-403b-abb1-2548d831d298","system_id":"levelo_inurba_marseille","lat":43.304178,"lon":5.397518,"is_reserved":false,"is_disabled":false,"rental_uris":{"android":"levelo://app?vid=ed8bfe29-9ee8-403b-abb1-2548d831d298","ios":"levelo://app?vid=ed8bfe29-9ee8-403b-abb1-2548d831d298"},"vehicle_type_id":"4","last_reported":1735808995,"current_range_meters":28800,"station_id":"ce4bh092rcd13ifvqd20","pricing_plan_id":"cebpf4jnsgd1na2vs0mg"},{"bike_id":"d41d5945-5cc8-478b-aaaa-223a793c25f1","system_id":"levelo_inurba_marseille","lat":43.26038,"lon":5.39404,"is_reserved":false,"is_disabled":false,"rental_uris":{"android":"levelo://app?vid=d41d5945-5cc8-478b-aaaa-223a793c25f1","ios":"levelo://app?vid=d41d5945-5cc8-478b-aaaa-223a793c25f1"},"vehicle_type_id":"4","last_reported":1735808995,"current_range_meters":38400,"station_id":"ce4bhh92rcd13ifvqfj0","pricing_plan_id":"cebpf4jnsgd1na2vs0mg"},