{"last_updated":1743505710,"ttl":60,"version":"2.2","data":{"bikes":[{"bike_id":"292433fa-4a2d-4b63-b220-38ddd47f301c","system_id":"levelo_inurba_marseille","lat":43.22935,"lon":5.35373,"is_reserved":false,"is_disabled":false,"rental_uris":{"android":"levelo://app?vid=292433fa-4a2d-4b63-b220-38ddd47f301c","ios":"levelo://app?vid=292433fa-4a2d-4b63-b220-38ddd47f301c"},"vehicle_type_id":"4","last_reported":1743505711,"current_range_meters":2800,"station_id":"cpo3532slgdg3j2ikp40","pricing_plan_id":"cebpf4jnsgd1na2vs0mg"},{"bike_id":"4f90445b-6759-4940-8b54-5bf90c63089a","system_id":"levelo_inurba_marseille","lat":43.28263,"lon":5.35064,"is_reserved":false,"is_disabled":false,"rental_uris":{"android":"levelo://app?vid=4f90445b-6759-4940-8b54-5bf90c63089a","ios":"levelo://app?vid=4f90445b-6759-4940-8b54-5bf90c63089a"},"vehicle_type_id":"4","last_reported":1743505711,"current_range_meters":2800,"station_id":"ce4bhbp2rcd13ifvqerg","pricing_plan_id":"cebpf4jnsgd1na2vs0mg"},{"bike_id":"38653b01-3b9f-4399-8584-20a9d8700484","system_id":"levelo_inurba_marseille","lat":43.28492,"lon":5.38419,"is_reserved":false,"is_disabled":false,"rental_uris":{"android":"levelo://app?vid=38653b01-3b9f-4399-8584-20a9d8700484","ios":"levelo://app?vid=38653b01-3b9f-4399-8584-20a9d8700484"},"vehicle_type_id":"4","last_reported":1743505711,"current_range_meters":2800,"station_id":"ce4bh512rcd13ifvqe3g","pricing_plan_id":"cebpf4jnsgd1na2vs0mg"},{"bike_id":"2cc02e9a-45c4-424f-be4c-f22fa53b1c90","system_id":"levelo_inurba_marseille","lat":43.28479,"lon":5.3842,"is_reserved":false,"is_disabled":false,"rental_uris":{"android":"levelo://app?vid=2cc02e9a-45c4-424f-be4c-f22fa53b1c90","ios":"levelo://app?vid=2cc02e9a-45c4-424f-be4c-f22fa53b1c90"},"vehicle_type_id":"4","last_reported":1743505711,"current_range_meters":0,"station_id":"ce4bh512rcd13ifvqe3g","pricing_plan_id":"cebpf4jnsgd1na2vs0mg"},{"bike_id":"565acd4d-2689-42e5-b464-33aebc4cf259","system_id":"levelo_inurba_marseille","lat":43.24081,"lon":5.37751,"is_reserved":false,"is_disabled":false,"rental_uris":{"android":"levelo://app?vid=565acd4d-2689-42e5-b464-33aebc4cf259","ios":"levelo://app?vid=565acd4d-2689-42e5-b464-33aebc4cf259"},"vehicle_type_id":"4","last_reported":1743505711,"current_range_meters":2800,"station_id":"ce4bhnp2rcd13ifvqgvg","pricing_plan_id":"cebpf4jnsgd1na2vs0mg"},{"bike_id":"6f08a519-5eba-4d37-af1e-f520542be29f","system_id":"levelo_inurba_marseille","lat":43.270497,"lon":5.402652,"is_reserved":false,"is_disabled":false,"rental_uris":{"android":"levelo://app?vid=6f08a519-5eba-4d37-af1e-f520542be29f","ios":"levelo://app?vid=6f08a519-5eba-4d37-af1e-f520542be29f"},"vehicle_type_id":"4","last_reported":1743505711,"current_range_meters":2800,"station_id":"ce4bhk92rcd13ifvqgb0","pricing_plan_id":"cebpf4jnsgd1na2vs0mg"},{"bike_id":"1da808a6-36fb-434e-b2cb-2df77d77936e","system_id":"levelo_inurba_marseille","lat":43.273803,"lon":5.362501,"is_reserved":false,"is_disabled":true,"rental_uris":{"android":"levelo://app?vid=1da808a6-36fb-434e-b2cb-2df77d77936e","ios":"levelo://app?vid=1da808a6-36fb-434e-b2cb-2df77d77936e"},"vehicle_type_id":"4","last_reported":1743505711,"current_range_meters":3200,"station_id":"ce4bhbh2rcd13ifvqeo0","pricing_plan_id":"cebpf4jnsgd1na2vs0mg"},{"bike_id":"246c9256-5abe-4976-84a5-dc2883143b02","system_id":"levelo_inurba_marseille","lat":43.27312,"lon":5.39074,"is_reserved":false,"is_disabled":false,"rental_uris":{"android":"levelo://app?vid=246c9256-5abe-4976-84a5-dc2883143b02","ios":"levelo://app?vid=246c9256-5abe-4976-84a5-dc2883143b02"},"vehicle_type_id":"4","last_reported":1743505711,"current_range_meters":3200,"station_id":"ce4bhgp2rcd13ifvqfe0","pricing_plan_id":"cebpf4jnsgd1na2vs0mg"},{"bike_id":"c90ef503-8211-4c90-ab1c-e026b45f4290","system_id":"levelo_inurba_marseille","lat":43.2842,"lon":5.3499,"is_reserved":false,"is_disabled":false,"rental_uris":{"android":"levelo://app?vid=c90ef503-8211-4c90-ab1c-e026b45f4290","ios":"levelo://app?vid=c90ef503-8211-4c90-ab1c-e026b45f4290"},"vehicle_type_id":"4","last_reported":1743505711,"current_range_meters":3200,"station_id":"ce4bhbh2rcd13ifvqepg","pricing_plan_id":"cebpf4jnsgd1na2vs0mg"},{"bike_id":"df3f97c1-c63d-4338-9b41-c699c5b543d3","system_id":"levelo_inurba_marseille","lat":43.27212,"lon":5.39165,"is_reserved":false,"is_disabled":false,"rental_uris":{"android":"levelo://app?vid=df3f97c1-c63d-4338-9b41-c699c5b543d3","ios":"levelo://app?vid=df3f97c1-c63d-4338-9b41-c699c5b543d3"},"vehicle_type_id":"4","last_reported":1743505711,"current_range_meters":3600,"station_id":"ce4bhhp2rcd13ifvqfm0","pricing_plan_id":"cebpf4jnsgd1na2vs0mg"},{"bike_id":"92661650-7aae-4113-a5a2-33a61e3917a5","system_id":"levelo_inurba_marseille","lat":43.3046,"lon":5.37904,"is_reserved":false,"is_disabled":false,"rental_uris":{"android":"levelo://app?vid=92661650-7aae-4113-a5a2-33a61e3917a5","ios":"levelo://app?vid=92661650-7aae-4113-a5a2-33a61e3917a5"},"vehicle_type_id":"4","last_reported":1743505711,"current_range_meters":3600,"station_id":"ce4bgup2rcd13ifvqcn0","pricing_plan_id":"cebpf4jnsgd1na2vs0mg"},{"bike_id":"a901628b-135b-4659-a26a-cbc4dc72d818","system_id":"levelo_inurba_marseille","lat":43.27811,"lon":5.409959,"is_reserved":false,"is_disabled":false,"rental_uris":{"android":"levelo://app?vid=a901628b-135b-4659-a26a-cbc4dc72d818","ios":"levelo://app?vid=a901628b-135b-4659-a26a-cbc4dc72d818"},"vehicle_type_id":"4","last_reported":1743505711,"current_range_meters":3600,"station_id":"","pricing_plan_id":"cebpf4jnsgd1na2vs0mg"},{"bike_id":"c22553a1-6c36-46f8-82db-e50d4ac7385e","system_id":"levelo_inurba_marseille","lat":43.27985,"lon":5.40014,"is_reserved":false,"is_disabled":true,"rental_uris":{"android":"levelo://app?vid=c22553a1-6c36-46f8-82db-e50d4ac7385e","ios":"levelo://app?vid=c22553a1-6c36-46f8-82db-e50d4ac7385e"},"vehicle_type_id":"4","last_reported":1743505711,"current_range_meters":3600,"station_id":"ce4bho92rcd13ifvqh4g","pricing_plan_id":"cebpf4jnsgd1na2vs0mg"},{"bike_id":"bdf890fb-b4bb-4948-a72f-c5fea0ba53f3","system_id":"levelo_inurba_marseille","lat":43.29006,"lon":5.35609,"is_reserved":false,"is_disabled":false,"rental_uris":{"android":"levelo://app?vid=bdf890fb-b4bb-4948-a72f-c5fea0ba53f3","ios":"levelo://app?vid=bdf890fb-b4bb-4948-a72f-c5fea0ba53f3"},"vehicle_type_id":"4","last_reported":1743505711,"current_range_meters":4000,"station_id":"ce4bhb92rcd13ifvqen0","pricing_plan_id":"cebpf4jnsgd1na2vs0mg"},{"bike_id":"9e98dcc1-7476-432e-ad4a-eef07c423114","system_id":"levelo_inurba_marseille","lat":43.29413,"lon":5.38621,"is_reserved":false,"is_disabled":false,"rental_uris":{"android":"levelo://app?vid=9e98dcc1-7476-432e-ad4a-eef07c423114","ios":"levelo://app?vid=9e98dcc1-7476-432e-ad4a-eef07c423114"},"vehicle_type_id":"4","last_reported":1743505711,"current_range_meters":4000,"station_id":"ce4bh2h2rcd13ifvqdh0","pricing_plan_id":"cebpf4jnsgd1na2vs0mg"},{"bike_id":"ebd01927-0b1e-41c3-8cd2-4fdf7fd87433","system_id":"levelo_inurba_marseille","lat":43.24187,"lon":5.39725,"is_reserved":false,"is_disabled":false,"rental_uris":{"android":"levelo://app?vid=ebd01927-0b1e-41c3-8cd2-4fdf7fd87433","ios":"levelo://app?vid=ebd01927-0b1e-41c3-8cd2-4fdf7fd87433"},"vehicle_type_id":"4","last_reported":1743505711,"current_range_meters":4400,"station_id":"ce4bhn12rcd13ifvqgpg","pricing_plan_id":"cebpf4jnsgd1na2vs0mg"},{"bike_id":"9a2af466-2aa8-49f7-bfd5-fc815a2aa07c","system_id":"levelo_inurba_marseille","lat":43.30665,"lon":5.40073,"is_reserved":false,"is_disabled":true,"rental_uris":{"android":"levelo://app?vid=9a2af466-2aa8-49f7-bfd5-fc815a2aa07c","ios":"levelo://app?vid=9a2af466-2aa8-49f7-bfd5-fc815a2aa07c"},"vehicle_type_id":"4","last_reported":1743505711,"current_range_meters":4400,"station_id":"ce4bh112rcd13ifvqda0","pricing_plan_id":"cebpf4jnsgd1na2vs0mg"},{"bike_id":"d16f1daf-473e-4375-b14d-6cbbc31e9b8d","system_id":"levelo_inurba_marseille","lat":43.30305,"lon":5.37732,"is_reserved":false,"is_disabled":false,"rental_uris":{"android":"levelo://app?vid=d16f1daf-473e-4375-b14d-6cbbc31e9b8d","ios":"levelo://app?vid=d16f1daf-473e-4375-b14d-6cbbc31e9b8d"},"vehicle_type_id":"4","last_reported":1743505711,"current_range_meters":4800,"station_id":"ce4bguh2rcd13ifvqcj0","pricing_plan_id":"cebpf4jnsgd1na2vs0mg"},{"bike_id":"1abdf19b-0a45-412a-91fc-d7f60163d5ed","system_id":"levelo_inurba_marseille","lat":43.31263,"lon":5.40158,"is_reserved":false,"is_disabled":false,"rental_uris":{"android":"levelo://app?vid=1abdf19b-0a45-412a-91fc-d7f60163d5ed","ios":"levelo://app?vid=1abdf19b-0a45-412a-91fc-d7f60163d5ed"},"vehicle_type_id":"4","last_reported":1743505711,"current_range_meters":4800,"station_id":"ce4bh092rcd13ifvqd30","pricing_plan_id":"cebpf4jnsgd1na2vs0mg"},{"bike_id":"854d324c-aec3-4bcf-8829-03d7ca834d0a","system_id":"levelo_inurba_marseille","lat":43.25123,"lon":5.40313,"is_reserved":false,"is_disabled":false,"rental_uris":{"android":"levelo://app?vid=854d324c-aec3-4bcf-8829-03d7ca834d0a","ios":"levelo://app?vid=854d324c-aec3-4bcf-8829-03d7ca834d0a"},"vehicle_type_id":"4","last_reported":1743505711,"current_range_meters":4800,"station_id":"ce4bhlh2rcd13ifvqgig","pricing_plan_id":"cebpf4jnsgd1na2vs0mg"},{"bike_id":"2bf31f9f-c5c0-434c-ab3b-b017d7dc966d","system_id":"levelo_inurba_marseille","lat":43.23069,"lon":5.3548,"is_reserved":false,"is_disabled":false,"rental_uris":{"android":"levelo://app?vid=2bf31f9f-c5c0-434c-ab3b-b017d7dc966d","ios":"levelo://app?vid=2bf31f9f-c5c0-434c-ab3b-b017d7dc966d"},"vehicle_type_id":"4","last_reported":1743505711,"current_range_meters":4800,"station_id":"cpo3342slgdg3j2ifvpg","pricing_plan_id":"cebpf4jnsgd1na2vs0mg"},{"bike_id":"e6a636bb-bdd3-4a61-8e1b-aaec12e34a43","system_id":"levelo_inurba_marseille","lat":43.31352,"lon":5.36714,"is_reserved":false,"is_disabled":false,"rental_uris":{"android":"levelo://app?vid=e6a636bb-bdd3-4a61-8e1b-aaec12e34a43","ios":"levelo://app?vid=e6a636bb-bdd3-4a61-8e1b-aaec12e34a43"},"vehicle_type_id":"4","last_reported":1743505711,"current_range_meters":4800,"station_id":"ce4bgr92rcd13ifvqc6g","pricing_plan_id":"cebpf4jnsgd1na2vs0mg"},{"bike_id":"ea26cff1-876d-4050-af3f-349fed32531f","system_id":"levelo_inurba_marseille","lat":43.23147,"lon":5.43708,"is_reserved":false,"is_disabled":false,"rental_uris":{"android":"levelo://app?vid=ea26cff1-876d-4050-af3f-349fed32531f","ios":"levelo://app?vid=ea26cff1-876d-4050-af3f-349fed32531f"},"vehicle_type_id":"4","last_reported":1743505711,"current_range_meters":4800,"station_id":"ce4bhmp2rcd13ifvqgog","pricing_plan_id":"cebpf4jnsgd1na2vs0mg"},{"bike_id":"244ba86c-f01f-4c17-be93-871633abd1b0","system_id":"levelo_inurba_marseille","lat":43.2833,"lon":5.38616,"is_reserved":false,"is_disabled":false,"rental_uris":{"android":"levelo://app?vid=244ba86c-f01f-4c17-be93-871633abd1b0","ios":"levelo://app?vid=244ba86c-f01f-4c17-be93-871633abd1b0"},"vehicle_type_id":"4","last_reported":1743505711,"current_range_meters":4800,"station_id":"ce4bh492rcd13ifvqdvg","pricing_plan_id":"cebpf4jnsgd1na2vs0mg"},{"bike_id":"ac484da8-0060-4728-8030-8ca6678798e8","system_id":"levelo_inurba_marseille","lat":43.2657,"lon":5.39009,"is_reserved":false,"is_disabled":false,"rental_uris":{"android":"levelo://app?vid=ac484da8-0060-4728-8030-8ca6678798e8","ios":"levelo://app?vid=ac484da8-0060-4728-8030-8ca6678798e8"},"vehicle_type_id":"4","last_reported":1743505711,"current_range_meters":5600,"station_id":"ce4bhe12rcd13ifvqf30","pricing_plan_id":"cebpf4jnsgd1na2vs0mg"},{"bike_id":"79a9d532-7e33-4610-b08c-af16bc13c935","system_id":"levelo_inurba_marseille","lat":43.2417,"lon":5.36399,"is_reserved":false,"is_disabled":false,"rental_uris":{"android":"levelo://app?vid=79a9d532-7e33-4610-b08c-af16bc13c935","ios":"levelo://app?vid=79a9d532-7e33-4610-b08c-af16bc13c935"},"vehicle_type_id":"4","last_reported":1743505711,"current_range_meters":5600,"station_id":"cpo36qri1sfpv3e86is0","pricing_plan_id":"cebpf4jnsgd1na2vs0mg"},{"bike_id":"2b50e9bb-1c0f-484e-a857-334701feb034","system_id":"levelo_inurba_marseille","lat":43.31262,"lon":5.40157,"is_reserved":false,"is_disabled":false,"rental_uris":{"android":"levelo://app?vid=2b50e9bb-1c0f-484e-a857-334701feb034","ios":"levelo://app?vid=2b50e9bb-1c0f-484e-a857-334701feb034"},"vehicle_type_id":"4","last_reported":1743505711,"current_range_meters":5600,"station_id":"ce4bh092rcd13ifvqd30","pricing_plan_id":"cebpf4jnsgd1na2vs0mg"},{"bike_id":"af3cfe8c-ba88-488e-950b-915dc1379ac0","system_id":"levelo_inurba_marseille","lat":43.2738,"lon":5.3626,"is_reserved":false,"is_disabled":false,"rental_uris":{"android":"levelo://app?vid=af3cfe8c-ba88-488e-950b-915dc1379ac0","ios":"levelo://app?vid=af3cfe8c-ba88-488e-950b-915dc1379ac0"},"vehicle_type_id":"4","last_reported":1743505711,"current_range_meters":5600,"station_id":"ce4bhbh2rcd13ifvqeo0","pricing_plan_id":"cebpf4jnsgd1na2vs0mg"},{"bike_id":"d7b0276e-d8ea-4391-9d5b-122c63333a37","system_id":"levelo_inurba_marseille","lat":43.285702,"lon":5.385612,"is_reserved":false,"is_disabled":false,"rental_uris":{"android":"levelo://app?vid=d7b0276e-d8ea-4391-9d5b-122c63333a37","ios":"levelo://app?vid=d7b0276e-d8ea-4391-9d5b-122c63333a37"},"vehicle_type_id":"4","last_reported":1743505711,"current_range_meters":5600,"station_id":"ce4bh8p2rcd13ifvqeb0","pricing_plan_id":"cebpf4jnsgd1na2vs0mg"},{"bike_id":"e0cb3b34-7e77-4274-8b6e-b0d7a88c6fb0","system_id":"levelo_inurba_marseille","lat":43.28483,"lon":5.38567,"is_reserved":false,"is_disabled":false,"rental_uris":{"android":"levelo://app?vid=e0cb3b34-7e77-4274-8b6e-b0d7a88c6fb0","ios":"levelo://app?vid=e0cb3b34-7e77-4274-8b6e-b0d7a88c6fb0"},"vehicle_type_id":"4","last_reported":1743505711,"current_range_meters":5600,"station_id":"ce4bh8p2rcd13ifvqeb0","pricing_plan_id":"cebpf4jnsgd1na2vs0mg"},{"bike_id":"60d1a674-7878-4290-a190-fb793e8a7d4e","system_id":"levelo_inurba_marseille","lat":43.33601,"lon":5.40974,"is_reserved":false,"is_disabled":false,"rental_uris":{"android":"levelo://app?vid=60d1a674-7878-4290-a190-fb793e8a7d4e","ios":"levelo://app?vid=60d1a674-7878-4290-a190-fb793e8a7d4e"},"vehicle_type_id":"4","last_reported":1743505711,"current_range_meters":5600,"station_id":"ce4bhqh2rcd13ifvqhmg","pricing_plan_id":"cebpf4jnsgd1na2vs0mg"},{"bike_id":"fc4e9077-0000-4de4-a2f8-40f395e240b8","system_id":"levelo_inurba_marseille","lat":43.291693,"lon":5.371656,"is_reserved":false,"is_disabled":false,"rental_uris":{"android":"levelo://app?vid=fc4e9077-0000-4de4-a2f8-40f395e240b8","ios":"levelo://app?vid=fc4e9077-0000-4de4-a2f8-40f395e240b8"},"vehicle_type_id":"4","last_reported":1743505711,"current_range_meters":5600,"station_id":"ce4bha92rcd13ifvqeh0","pricing_plan_id":"cebpf4jnsgd1na2vs0mg"},{"bike_id":"5d06d544-ae1c-4dfa-b63d-5f4340fa2e83","system_id":"levelo_inurba_marseille","lat":43.27919,"lon":5.39577,"is_reserved":false,"is_disabled":false,"rental_uris":{"android":"levelo://app?vid=5d06d544-ae1c-4dfa-b63d-5f4340fa2e83","ios":"levelo://app?vid=5d06d544-ae1c-4dfa-b63d-5f4340fa2e83"},"vehicle_type_id":"4","last_reported":1743505711,"current_range_meters":5600,"station_id":"ce4bhf92rcd13ifvqf40","pricing_plan_id":"cebpf4jnsgd1na2vs0mg"},{"bike_id":"f33ffb18-1d2d-4f69-8c6c-8b72c317df9a","system_id":"levelo_inurba_marseille","lat":43.31212,"lon":5.36846,"is_reserved":false,"is_disabled":false,"rental_uris":{"android":"levelo://app?vid=f33ffb18-1d2d-4f69-8c6c-8b72c317df9a","ios":"levelo://app?vid=f33ffb18-1d2d-4f69-8c6c-8b72c317df9a"},"vehicle_type_id":"4","last_reported":1743505711,"current_range_meters":5600,"station_id":"ce4bgl92rcd13ifvqbq0","pricing_plan_id":"cebpf4jnsgd1na2vs0mg"},{"bike_id":"45d09bcf-6a9e-4316-9465-a47e446d890f","system_id":"levelo_inurba_marseille","lat":43.29618,"lon":5.377135,"is_reserved":false,"is_disabled":false,"rental_uris":{"android":"levelo://app?vid=45d09bcf-6a9e-4316-9465-a47e446d890f","ios":"levelo://app?vid=45d09bcf-6a9e-4316-9465-a47e446d890f"},"vehicle_type_id":"4","last_reported":1743505711,"current_range_meters":6000,"station_id":"ce4bgi92rcd13ifvqb90","pricing_plan_id":"cebpf4jnsgd1na2vs0mg"},{"bike_id":"665c5514-9968-45ca-b80f-9d7a742f139d","system_id":"levelo_inurba_marseille","lat":43.29536,"lon":5.37515,"is_reserved":false,"is_disabled":false,"rental_uris":{"android":"levelo://app?vid=665c5514-9968-45ca-b80f-9d7a742f139d","ios":"levelo://app?vid=665c5514-9968-45ca-b80f-9d7a742f139d"},"vehicle_type_id":"4","last_reported":1743505711,"current_range_meters":6000,"station_id":"ce4bgkp2rcd13ifvqbmg","pricing_plan_id":"cebpf4jnsgd1na2vs0mg"},{"bike_id":"60e85f62-7610-49c2-af7f-96d28f6eddfc","system_id":"levelo_inurba_marseille","lat":43.29897,"lon":5.43663,"is_reserved":false,"is_disabled":false,"rental_uris":{"android":"levelo://app?vid=60e85f62-7610-49c2-af7f-96d28f6eddfc","ios":"levelo://app?vid=60e85f62-7610-49c2-af7f-96d28f6eddfc"},"vehicle_type_id":"4","last_reported":1743505711,"current_range_meters":6000,"station_id":"ce4bhpp2rcd13ifvqhfg","pricing_plan_id":"cebpf4jnsgd1na2vs0mg"},{"bike_id":"7fccf355-a00e-4905-8738-e2b4e7aa24a8","system_id":"levelo_inurba_marseille","lat":43.23148,"lon":5.43717,"is_reserved":false,"is_disabled":false,"rental_uris":{"android":"levelo://app?vid=7fccf355-a00e-4905-8738-e2b4e7aa24a8","ios":"levelo://app?vid=7fccf355-a00e-4905-8738-e2b4e7aa24a8"},"vehicle_type_id":"4","last_reported":1743505711,"current_range_meters":6000,"station_id":"ce4bhmp2rcd13ifvqgog","pricing_plan_id":"cebpf4jnsgd1na2vs0mg"},{"bike_id":"791f8b6d-c7b8-43a3-af53-554de4edbd8b","system_id":"levelo_inurba_marseille","lat":43.25711,"lon":5.41095,"is_reserved":false,"is_disabled":false,"rental_uris":{"android":"levelo://app?vid=791f8b6d-c7b8-43a3-af53-554de4edbd8b","ios":"levelo://app?vid=791f8b6d-c7b8-43a3-af53-554de4edbd8b"},"vehicle_type_id":"4","last_reported":1743505711,"current_range_meters":6400,"station_id":"ce4bhkp2rcd13ifvqgd0","pricing_plan_id":"cebpf4jnsgd1na2vs0mg"},{"bike_id":"7f45e2ea-0a95-442b-a3ab-822d192273d2","system_id":"levelo_inurba_marseille","lat":43.23154,"lon":5.43712,"is_reserved":false,"is_disabled":false,"rental_uris":{"android":"levelo://app?vid=7f45e2ea-0a95-442b-a3ab-822d192273d2","ios":"levelo://app?vid=7f45e2ea-0a95-442b-a3ab-822d192273d2"},"vehicle_type_id":"4","last_reported":1743505711,"current_range_meters":6400,"station_id":"ce4bhmp2rcd13ifvqgog","pricing_plan_id":"cebpf4jnsgd1na2vs0mg"},{"bike_id":"12185702-a78d-40bb-9685-159fc834a0c5","system_id":"levelo_inurba_marseille","lat":43.31338,"lon":5.3884,"is_reserved":false,"is_disabled":false,"rental_uris":{"android":"levelo://app?vid=12185702-a78d-40bb-9685-159fc834a0c5","ios":"levelo://app?vid=12185702-a78d-40bb-9685-159fc834a0c5"},"vehicle_type_id":"4","last_reported":1743505711,"current_range_meters":6400,"station_id":"","pricing_plan_id":"cebpf4jnsgd1na2vs0mg"},{"bike_id":"f50dd1be-9ee4-480d-920f-0721f0997798","system_id":"levelo_inurba_marseille","lat":43.2319,"lon":5.39959,"is_reserved":false,"is_disabled":false,"rental_uris":{"android":"levelo://app?vid=f50dd1be-9ee4-480d-920f-0721f0997798","ios":"levelo://app?vid=f50dd1be-9ee4-480d-920f-0721f0997798"},"vehicle_type_id":"4","last_reported":1743505711,"current_range_meters":6400,"station_id":"ce4bhn12rcd13ifvqgqg","pricing_plan_id":"cebpf4jnsgd1na2vs0mg"},{"bike_id":"9f2f977c-01e5-4485-8e97-b93dd7439b8c","system_id":"levelo_inurba_marseille","lat":43.336,"lon":5.41011,"is_reserved":false,"is_disabled":false,"rental_uris":{"android":"levelo://app?vid=9f2f977c-01e5-4485-8e97-b93dd7439b8c","ios":"levelo://app?vid=9f2f977c-01e5-4485-8e97-b93dd7439b8c"},"vehicle_type_id":"4","last_reported":1743505711,"current_range_meters":6400,"station_id":"ce4bhqh2rcd13ifvqhmg","pricing_plan_id":"cebpf4jnsgd1na2vs0mg"},{"bike_id":"b3a668b6-7bc2-488f-9b89-32011cc3e7e6","system_id":"levelo_inurba_marseille","lat":43.29174,"lon":5.37162,"is_reserved":false,"is_disabled":false,"rental_uris":{"android":"levelo://app?vid=b3a668b6-7bc2-488f-9b89-32011cc3e7e6","ios":"levelo://app?vid=b3a668b6-7bc2-488f-9b89-32011cc3e7e6"},"vehicle_type_id":"4","last_reported":1743505711,"current_range_meters":6400,"station_id":"ce4bha92rcd13ifvqeh0","pricing_plan_id":"cebpf4jnsgd1na2vs0mg"},{"bike_id":"9e414957-74dc-4194-88c9-1ed380a0f974","system_id":"levelo_inurba_marseille","lat":43.2466,"lon":5.38889,"is_reserved":false,"is_disabled":false,"rental_uris":{"android":"levelo://app?vid=9e414957-74dc-4194-88c9-1ed380a0f974","ios":"levelo://app?vid=9e414957-74dc-4194-88c9-1ed380a0f974"},"vehicle_type_id":"4","last_reported":1743505711,"current_range_meters":6400,"station_id":"ce4bhg12rcd13ifvqf60","pricing_plan_id":"cebpf4jnsgd1na2vs0mg"},{"bike_id":"70dcceb5-0129-441e-9f84-8b4f31ae51d3","system_id":"levelo_inurba_marseille","lat":43.25004,"lon":5.38921,"is_reserved":false,"is_disabled":false,"rental_uris":{"android":"levelo://app?vid=70dcceb5-0129-441e-9f84-8b4f31ae51d3","ios":"levelo://app?vid=70dcceb5-0129-441e-9f84-8b4f31ae51d3"},"vehicle_type_id":"4","last_reported":1743505711,"current_range_meters":6400,"station_id":"ce4bhgp2rcd13ifvqfd0","pricing_plan_id":"cebpf4jnsgd1na2vs0mg"},{"bike_id":"121010d1-d0ea-475b-97a6-f9054736109c","system_id":"levelo_inurba_marseille","lat":43.23208,"lon":5.39984,"is_reserved":false,"is_disabled":false,"rental_uris":{"android":"levelo://app?vid=121010d1-d0ea-475b-97a6-f9054736109c","ios":"levelo://app?vid=121010d1-d0ea-475b-97a6-f9054736109c"},"vehicle_type_id":"4","last_reported":1743505711,"current_range_meters":6800,"station_id":"ce4bhn12rcd13ifvqgqg","pricing_plan_id":"cebpf4jnsgd1na2vs0mg"},{"bike_id":"0dc859ba-55c4-4a25-8ca8-7c9f2b1386ea","system_id":"levelo_inurba_marseille","lat":43.27175,"lon":5.40992,"is_reserved":false,"is_disabled":false,"rental_uris":{"android":"levelo://app?vid=0dc859ba-55c4-4a25-8ca8-7c9f2b1386ea","ios":"levelo://app?vid=0dc859ba-55c4-4a25-8ca8-7c9f2b1386ea"},"vehicle_type_id":"4","last_reported":1743505711,"current_range_meters":6800,"station_id":"ce4bhl12rcd13ifvqgf0","pricing_plan_id":"cebpf4jnsgd1na2vs0mg"},{"bike_id":"ca714d62-d8d3-4aa6-9364-314236ef39f8","system_id":"levelo_inurba_marseille","lat":43.28364,"lon":5.38625,"is_reserved":false,"is_disabled":false,"rental_uris":{"android":"levelo://app?vid=ca714d62-d8d3-4aa6-9364-314236ef39f8","ios":"levelo://app?vid=ca714d62-d8d3-4aa6-9364-314236ef39f8"},"vehicle_type_id":"4","last_reported":1743505711,"current_range_meters":6800,"station_id":"ce4bh492rcd13ifvqdvg","pricing_plan_id":"cebpf4jnsgd1na2vs0mg"},{"bike_id":"139b6feb-730c-4111-9430-d901283db30e","system_id":"levelo_inurba_marseille","lat":43.32662,"lon":5.40985,"is_reserved":false,"is_disabled":false,"rental_uris":{"android":"levelo://app?vid=139b6feb-730c-4111-9430-d901283db30e","ios":"levelo://app?vid=139b6feb-730c-4111-9430-d901283db30e"},"vehicle_type_id":"4","last_reported":1743505711,"current_range_meters":6800,"station_id":"ce4bhpp2rcd13ifvqhgg","pricing_plan_id":"cebpf4jnsgd1na2vs0mg"},{"bike_id":"120b9dba-040c-468a-bc2c-c0d7b3c1fc39","system_id":"levelo_inurba_marseille","lat":43.30546,"lon":5.36524,"is_reserved":false,"is_disabled":false,"rental_uris":{"android":"levelo://app?vid=120b9dba-040c-468a-bc2c-c0d7b3c1fc39","ios":"levelo://app?vid=120b9dba-040c-468a-bc2c-c0d7b3c1fc39"},"vehicle_type_id":"4","last_reported":1743505711,"current_range_meters":6800,"station_id":"ce4bgs12rcd13ifvqcag","pricing_plan_id":"cebpf4jnsgd1na2vs0mg"},{"bike_id":"4f6db61e-8293-4a0d-bb9c-f9aae02e4996","system_id":"levelo_inurba_marseille","lat":43.25063,"lon":5.39524,"is_reserved":false,"is_disabled":false,"rental_uris":{"android":"levelo://app?vid=4f6db61e-8293-4a0d-bb9c-f9aae02e4996","ios":"levelo://app?vid=4f6db61e-8293-4a0d-bb9c-f9aae02e4996"},"vehicle_type_id":"4","last_reported":1743505711,"current_range_meters":6800,"station_id":"ce4bhm12rcd13ifvqgkg","pricing_plan_id":"cebpf4jnsgd1na2vs0mg"},{"bike_id":"5203ccbe-ce3c-4351-a8e9-f9ee5ad38a9c","system_id":"levelo_inurba_marseille","lat":43.23197,"lon":5.3998,"is_reserved":false,"is_disabled":false,"rental_uris":{"android":"levelo://app?vid=5203ccbe-ce3c-4351-a8e9-f9ee5ad38a9c","ios":"levelo://app?vid=5203ccbe-ce3c-4351-a8e9-f9ee5ad38a9c"},"vehicle_type_id":"4","last_reported":1743505711,"current_range_meters":7200,"station_id":"ce4bhn12rcd13ifvqgqg","pricing_plan_id":"cebpf4jnsgd1na2vs0mg"},{"bike_id":"6f6e3825-0038-4a5a-8d84-61932166b5a8","system_id":"levelo_inurba_marseille","lat":43.29203,"lon":5.35801,"is_reserved":false,"is_disabled":false,"rental_uris":{"android":"levelo://app?vid=6f6e3825-0038-4a5a-8d84-61932166b5a8","ios":"levelo://app?vid=6f6e3825-0038-4a5a-8d84-61932166b5a8"},"vehicle_type_id":"4","last_reported":1743505711,"current_range_meters":7200,"station_id":"ce4bhb12rcd13ifvqel0","pricing_plan_id":"cebpf4jnsgd1na2vs0mg"},{"bike_id":"017816c2-5951-4534-b964-255626c4ed1d","system_id":"levelo_inurba_marseille","lat":43.30599,"lon":5.39362,"is_reserved":false,"is_disabled":false,"rental_uris":{"android":"levelo://app?vid=017816c2-5951-4534-b964-255626c4ed1d","ios":"levelo://app?vid=017816c2-5951-4534-b964-255626c4ed1d"},"vehicle_type_id":"4","last_reported":1743505711,"current_range_meters":7200,"station_id":"ce4bh0p2rcd13ifvqd80","pricing_plan_id":"cebpf4jnsgd1na2vs0mg"},{"bike_id":"a2c81526-7c1b-4803-a220-fbeb87fd137b","system_id":"levelo_inurba_marseille","lat":43.29581,"lon":5.42263,"is_reserved":false,"is_disabled":false,"rental_uris":{"android":"levelo://app?vid=a2c81526-7c1b-4803-a220-fbeb87fd137b","ios":"levelo://app?vid=a2c81526-7c1b-4803-a220-fbeb87fd137b"},"vehicle_type_id":"4","last_reported":1743505711,"current_range_meters":8000,"station_id":"ce4bhph2rcd13ifvqhdg","pricing_plan_id":"cebpf4jnsgd1na2vs0mg"},{"bike_id":"23a2997f-acca-44d1-a72c-cccdd94a796c","system_id":"levelo_inurba_marseille","lat":43.30923,"lon":5.40151,"is_reserved":false,"is_disabled":true,"rental_uris":{"android":"levelo://app?vid=23a2997f-acca-44d1-a72c-cccdd94a796c","ios":"levelo://app?vid=23a2997f-acca-44d1-a72c-cccdd94a796c"},"vehicle_type_id":"4","last_reported":1743505711,"current_range_meters":8000,"station_id":"ce4bgvp2rcd13ifvqct0","pricing_plan_id":"cebpf4jnsgd1na2vs0mg"},{"bike_id":"b84efb85-49db-41ac-b871-1e20490349ec","system_id":"levelo_inurba_marseille","lat":43.28714,"lon":5.39967,"is_reserved":false,"is_disabled":false,"rental_uris":{"android":"levelo://app?vid=b84efb85-49db-41ac-b871-1e20490349ec","ios":"levelo://app?vid=b84efb85-49db-41ac-b871-1e20490349ec"},"vehicle_type_id":"4","last_reported":1743505711,"current_range_meters":8000,"station_id":"ce4bho92rcd13ifvqh3g","pricing_plan_id":"cebpf4jnsgd1na2vs0mg"},{"bike_id":"ec7c7592-7873-49fa-88e1-d87e5bbe3f4a","system_id":"levelo_inurba_marseille","lat":43.29306,"lon":5.37452,"is_reserved":false,"is_disabled":false,"rental_uris":{"android":"levelo://app?vid=ec7c7592-7873-49fa-88e1-d87e5bbe3f4a","ios":"levelo://app?vid=ec7c7592-7873-49fa-88e1-d87e5bbe3f4a"},"vehicle_type_id":"4","last_reported":1743505711,"current_range_meters":8000,"station_id":"ce4bgi12rcd13ifvqb70","pricing_plan_id":"cebpf4jnsgd1na2vs0mg"},{"bike_id":"4cc8652f-9b93-4bcd-b7ae-2a834e530011","system_id":"levelo_inurba_marseille","lat":43.26573,"lon":5.39015,"is_reserved":false,"is_disabled":false,"rental_uris":{"android":"levelo://app?vid=4cc8652f-9b93-4bcd-b7ae-2a834e530011","ios":"levelo://app?vid=4cc8652f-9b93-4bcd-b7ae-2a834e530011"},"vehicle_type_id":"4","last_reported":1743505711,"current_range_meters":8000,"station_id":"ce4bhe12rcd13ifvqf30","pricing_plan_id":"cebpf4jnsgd1na2vs0mg"},{"bike_id":"bc2731c5-d1f1-4f43-bf16-ed3324b6f121","system_id":"levelo_inurba_marseille","lat":43.27937,"lon":5.41064,"is_reserved":false,"is_disabled":true,"rental_uris":{"android":"levelo://app?vid=bc2731c5-d1f1-4f43-bf16-ed3324b6f121","ios":"levelo://app?vid=bc2731c5-d1f1-4f43-bf16-ed3324b6f121"},"vehicle_type_id":"4","last_reported":1743505711,"current_range_meters":8000,"station_id":"ce4bhnp2rcd13ifvqh0g","pricing_plan_id":"cebpf4jnsgd1na2vs0mg"},{"bike_id":"c38cda99-2023-44ab-a587-937b3d5505ca","system_id":"levelo_inurba_marseille","lat":43.29207,"lon":5.39312,"is_reserved":false,"is_disabled":false,"rental_uris":{"android":"levelo://app?vid=c38cda99-2023-44ab-a587-937b3d5505ca","ios":"levelo://app?vid=c38cda99-2023-44ab-a587-937b3d5505ca"},"vehicle_type_id":"4","last_reported":1743505711,"current_range_meters":8000,"station_id":"ce4bh192rcd13ifvqdd0","pricing_plan_id":"cebpf4jnsgd1na2vs0mg"},{"bike_id":"be9d297d-ae10-4648-b2c4-8c021ab70cb1","system_id":"levelo_inurba_marseille","lat":43.29418,"lon":5.38621,"is_reserved":false,"is_disabled":false,"rental_uris":{"android":"levelo://app?vid=be9d297d-ae10-4648-b2c4-8c021ab70cb1","ios":"levelo://app?vid=be9d297d-ae10-4648-b2c4-8c021ab70cb1"},"vehicle_type_id":"4","last_reported":1743505711,"current_range_meters":8400,"station_id":"ce4bh2h2rcd13ifvqdh0","pricing_plan_id":"cebpf4jnsgd1na2vs0mg"},{"bike_id":"f768acf2-449e-4946-8adf-fb8422e289eb","system_id":"levelo_inurba_marseille","lat":43.26677,"lon":5.38266,"is_reserved":false,"is_disabled":false,"rental_uris":{"android":"levelo://app?vid=f768acf2-449e-4946-8adf-fb8422e289eb","ios":"levelo://app?vid=f768acf2-449e-4946-8adf-fb8422e289eb"},"vehicle_type_id":"4","last_reported":1743505711,"current_range_meters":8400,"station_id":"ce4bhg92rcd13ifvqf90","pricing_plan_id":"cebpf4jnsgd1na2vs0mg"},{"bike_id":"596a359f-19dd-49f9-aebe-beda7121fee3","system_id":"levelo_inurba_marseille","lat":43.24077,"lon":5.37757,"is_reserved":false,"is_disabled":false,"rental_uris":{"android":"levelo://app?vid=596a359f-19dd-49f9-aebe-beda7121fee3","ios":"levelo://app?vid=596a359f-19dd-49f9-aebe-beda7121fee3"},"vehicle_type_id":"4","last_reported":1743505711,"current_range_meters":8400,"station_id":"ce4bhnp2rcd13ifvqgvg","pricing_plan_id":"cebpf4jnsgd1na2vs0mg"},{"bike_id":"ebf9ba2a-9109-475e-bcf1-47d446a15141","system_id":"levelo_inurba_marseille","lat":43.25121,"lon":5.40296,"is_reserved":false,"is_disabled":false,"rental_uris":{"android":"levelo://app?vid=ebf9ba2a-9109-475e-bcf1-47d446a15141","ios":"levelo://app?vid=ebf9ba2a-9109-475e-bcf1-47d446a15141"},"vehicle_type_id":"4","last_reported":1743505711,"current_range_meters":8400,"station_id":"ce4bhlh2rcd13ifvqgig","pricing_plan_id":"cebpf4jnsgd1na2vs0mg"},{"bike_id":"b3593ea0-f10f-4d2d-8fd4-ca8847ced39c","system_id":"levelo_inurba_marseille","lat":43.33617,"lon":5.41016,"is_reserved":false,"is_disabled":false,"rental_uris":{"android":"levelo://app?vid=b3593ea0-f10f-4d2d-8fd4-ca8847ced39c","ios":"levelo://app?vid=b3593ea0-f10f-4d2d-8fd4-ca8847ced39c"},"vehicle_type_id":"4","last_reported":1743505711,"current_range_meters":8400,"station_id":"ce4bhqh2rcd13ifvqhmg","pricing_plan_id":"cebpf4jnsgd1na2vs0mg"},{"bike_id":"36f55ed9-f95b-47db-b6ea-657436867115","system_id":"levelo_inurba_marseille","lat":43.3135,"lon":5.36693,"is_reserved":false,"is_disabled":false,"rental_uris":{"android":"levelo://app?vid=36f55ed9-f95b-47db-b6ea-657436867115","ios":"levelo://app?vid=36f55ed9-f95b-47db-b6ea-657436867115"},"vehicle_type_id":"4","last_reported":1743505711,"current_range_meters":8400,"station_id":"ce4bgr92rcd13ifvqc6g","pricing_plan_id":"cebpf4jnsgd1na2vs0mg"},{"bike_id":"486affef-ad2e-4232-89ab-51ae49629b20","system_id":"levelo_inurba_marseille","lat":43.29366,"lon":5.37855,"is_reserved":false,"is_disabled":false,"rental_uris":{"android":"levelo://app?vid=486affef-ad2e-4232-89ab-51ae49629b20","ios":"levelo://app?vid=486affef-ad2e-4232-89ab-51ae49629b20"},"vehicle_type_id":"4","last_reported":1743505711,"current_range_meters":9200,"station_id":"ce4bgjh2rcd13ifvqbf0","pricing_plan_id":"cebpf4jnsgd1na2vs0mg"},{"bike_id":"dd0e5a45-9a9e-4a78-b7f0-c387a228ecbc","system_id":"levelo_inurba_marseille","lat":43.2926,"lon":5.36849,"is_reserved":false,"is_disabled":true,"rental_uris":{"android":"levelo://app?vid=dd0e5a45-9a9e-4a78-b7f0-c387a228ecbc","ios":"levelo://app?vid=dd0e5a45-9a9e-4a78-b7f0-c387a228ecbc"},"vehicle_type_id":"4","last_reported":1743505711,"current_range_meters":8400,"station_id":"ce4bhbp2rcd13ifvqesg","pricing_plan_id":"cebpf4jnsgd1na2vs0mg"},{"bike_id":"dc68065b-e197-41bc-b251-7638ffa1a443","system_id":"levelo_inurba_marseille","lat":43.24392,"lon":5.3706,"is_reserved":false,"is_disabled":false,"rental_uris":{"android":"levelo://app?vid=dc68065b-e197-41bc-b251-7638ffa1a443","ios":"levelo://app?vid=dc68065b-e197-41bc-b251-7638ffa1a443"},"vehicle_type_id":"4","last_reported":1743505711,"current_range_meters":8400,"station_id":"ce4bhhh2rcd13ifvqfk0","pricing_plan_id":"cebpf4jnsgd1na2vs0mg"},{"bike_id":"60ed30e1-cadb-42d9-ab76-97f10cbd77b5","system_id":"levelo_inurba_marseille","lat":43.26216,"lon":5.37433,"is_reserved":false,"is_disabled":false,"rental_uris":{"android":"levelo://app?vid=60ed30e1-cadb-42d9-ab76-97f10cbd77b5","ios":"levelo://app?vid=60ed30e1-cadb-42d9-ab76-97f10cbd77b5"},"vehicle_type_id":"4","last_reported":1743505711,"current_range_meters":8400,"station_id":"ce4bhgp2rcd13ifvqfc0","pricing_plan_id":"cebpf4jnsgd1na2vs0mg"},{"bike_id":"bc38c8a5-f215-45f9-8706-6a1171ac11e9","system_id":"levelo_inurba_marseille","lat":43.29873,"lon":5.3973,"is_reserved":false,"is_disabled":true,"rental_uris":{"android":"levelo://app?vid=bc38c8a5-f215-45f9-8706-6a1171ac11e9","ios":"levelo://app?vid=bc38c8a5-f215-45f9-8706-6a1171ac11e9"},"vehicle_type_id":"4","last_reported":1743505711,"current_range_meters":8800,"station_id":"","pricing_plan_id":"cebpf4jnsgd1na2vs0mg"},{"bike_id":"17b1350e-ad0a-480f-8774-cf0fd004dbeb","system_id":"levelo_inurba_marseille","lat":43.31991,"lon":5.38149,"is_reserved":false,"is_disabled":false,"rental_uris":{"android":"levelo://app?vid=17b1350e-ad0a-480f-8774-cf0fd004dbeb","ios":"levelo://app?vid=17b1350e-ad0a-480f-8774-cf0fd004dbeb"},"vehicle_type_id":"4","last_reported":1743505711,"current_range_meters":8800,"station_id":"ce4bhr12rcd13ifvqhpg","pricing_plan_id":"cebpf4jnsgd1na2vs0mg"},{"bike_id":"40a66e01-b594-43cc-80a6-bf33d148d0f5","system_id":"levelo_inurba_marseille","lat":43.25106,"lon":5.40317,"is_reserved":false,"is_disabled":false,"rental_uris":{"android":"levelo://app?vid=40a66e01-b594-43cc-80a6-bf33d148d0f5","ios":"levelo://app?vid=40a66e01-b594-43cc-80a6-bf33d148d0f5"},"vehicle_type_id":"4","last_reported":1743505711,"current_range_meters":8800,"station_id":"ce4bhlh2rcd13ifvqgig","pricing_plan_id":"cebpf4jnsgd1na2vs0mg"},{"bike_id":"a8ada2cf-21e7-423e-9f71-4aa53e408a33","system_id":"levelo_inurba_marseille","lat":43.24081,"lon":5.37749,"is_reserved":false,"is_disabled":false,"rental_uris":{"android":"levelo://app?vid=a8ada2cf-21e7-423e-9f71-4aa53e408a33","ios":"levelo://app?vid=a8ada2cf-21e7-423e-9f71-4aa53e408a33"},"vehicle_type_id":"4","last_reported":1743505711,"current_range_meters":8800,"station_id":"ce4bhnp2rcd13ifvqgvg","pricing_plan_id":"cebpf4jnsgd1na2vs0mg"},{"bike_id":"5721a286-9b21-4672-9706-1c7d3dc3bedb","system_id":"levelo_inurba_marseille","lat":43.28694,"lon":5.39981,"is_reserved":false,"is_disabled":false,"rental_uris":{"android":"levelo://app?vid=5721a286-9b21-4672-9706-1c7d3dc3bedb","ios":"levelo://app?vid=5721a286-9b21-4672-9706-1c7d3dc3bedb"},"vehicle_type_id":"4","last_reported":1743505711,"current_range_meters":8800,"station_id":"ce4bho92rcd13ifvqh3g","pricing_plan_id":"cebpf4jnsgd1na2vs0mg"},{"bike_id":"d99ce310-26df-44db-b67f-35de3915c4ae","system_id":"levelo_inurba_marseille","lat":43.28038,"lon":5.36944,"is_reserved":false,"is_disabled":false,"rental_uris":{"android":"levelo://app?vid=d99ce310-26df-44db-b67f-35de3915c4ae","ios":"levelo://app?vid=d99ce310-26df-44db-b67f-35de3915c4ae"},"vehicle_type_id":"4","last_reported":1743505711,"current_range_meters":8400,"station_id":"ce4bha12rcd13ifvqef0","pricing_plan_id":"cebpf4jnsgd1na2vs0mg"},{"bike_id":"2f04edae-9512-46d3-b068-1782d17c6e53","system_id":"levelo_inurba_marseille","lat":43.24384,"lon":5.37063,"is_reserved":false,"is_disabled":false,"rental_uris":{"android":"levelo://app?vid=2f04edae-9512-46d3-b068-1782d17c6e53","ios":"levelo://app?vid=2f04edae-9512-46d3-b068-1782d17c6e53"},"vehicle_type_id":"4","last_reported":1743505711,"current_range_meters":8800,"station_id":"ce4bhhh2rcd13ifvqfk0","pricing_plan_id":"cebpf4jnsgd1na2vs0mg"},{"bike_id":"60308cee-2c9a-45d1-9bae-f1c2db02f3e8","system_id":"levelo_inurba_marseille","lat":43.31243,"lon":5.36862,"is_reserved":false,"is_disabled":false,"rental_uris":{"android":"levelo://app?vid=60308cee-2c9a-45d1-9bae-f1c2db02f3e8","ios":"levelo://app?vid=60308cee-2c9a-45d1-9bae-f1c2db02f3e8"},"vehicle_type_id":"4","last_reported":1743505711,"current_range_meters":8800,"station_id":"","pricing_plan_id":"cebpf4jnsgd1na2vs0mg"},{"bike_id":"7bcfce7f-fbb5-4814-8816-01b48a363aa3","system_id":"levelo_inurba_marseille","lat":43.31367,"lon":5.38513,"is_reserved":false,"is_disabled":false,"rental_uris":{"android":"levelo://app?vid=7bcfce7f-fbb5-4814-8816-01b48a363aa3","ios":"levelo://app?vid=7bcfce7f-fbb5-4814-8816-01b48a363aa3"},"vehicle_type_id":"4","last_reported":1743505711,"current_range_meters":8800,"station_id":"ce4bgt92rcd13ifvqcf0","pricing_plan_id":"cebpf4jnsgd1na2vs0mg"},{"bike_id":"3542c180-b6ff-4e87-ad9b-f9b1cf495b90","system_id":"levelo_inurba_marseille","lat":43.25502,"lon":5.37649,"is_reserved":false,"is_disabled":false,"rental_uris":{"android":"levelo://app?vid=3542c180-b6ff-4e87-ad9b-f9b1cf495b90","ios":"levelo://app?vid=3542c180-b6ff-4e87-ad9b-f9b1cf495b90"},"vehicle_type_id":"4","last_reported":1743505711,"current_range_meters":8800,"station_id":"ce4bhh12rcd13ifvqff0","pricing_plan_id":"cebpf4jnsgd1na2vs0mg"},{"bike_id":"5b899a73-6a88-4e0a-a3b1-1da10878729f","system_id":"levelo_inurba_marseille","lat":43.29527,"lon":5.38553,"is_reserved":false,"is_disabled":false,"rental_uris":{"android":"levelo://app?vid=5b899a73-6a88-4e0a-a3b1-1da10878729f","ios":"levelo://app?vid=5b899a73-6a88-4e0a-a3b1-1da10878729f"},"vehicle_type_id":"4","last_reported":1743505711,"current_range_meters":8800,"station_id":"ce4bgih2rcd13ifvqba0","pricing_plan_id":"cebpf4jnsgd1na2vs0mg"},{"bike_id":"45b62111-153f-4fef-bc44-90892d0efc6e","system_id":"levelo_inurba_marseille","lat":43.312655,"lon":5.401773,"is_reserved":false,"is_disabled":false,"rental_uris":{"android":"levelo://app?vid=45b62111-153f-4fef-bc44-90892d0efc6e","ios":"levelo://app?vid=45b62111-153f-4fef-bc44-90892d0efc6e"},"vehicle_type_id":"4","last_reported":1743505711,"current_range_meters":9200,"station_id":"ce4bh0h2rcd13ifvqd60","pricing_plan_id":"cebpf4jnsgd1na2vs0mg"},{"bike_id":"817e511e-8dd1-453d-b473-58de5d5b609c","system_id":"levelo_inurba_marseille","lat":43.312174,"lon":5.368498,"is_reserved":false,"is_disabled":false,"rental_uris":{"android":"levelo://app?vid=817e511e-8dd1-453d-b473-58de5d5b609c","ios":"levelo://app?vid=817e511e-8dd1-453d-b473-58de5d5b609c"},"vehicle_type_id":"4","last_reported":1743505711,"current_range_meters":9200,"station_id":"ce4bgl92rcd13ifvqbq0","pricing_plan_id":"cebpf4jnsgd1na2vs0mg"},{"bike_id":"2286499e-afb3-42f0-be29-239621d5e7b7","system_id":"levelo_inurba_marseille","lat":43.241717,"lon":5.397191,"is_reserved":false,"is_disabled":false,"rental_uris":{"android":"levelo://app?vid=2286499e-afb3-42f0-be29-239621d5e7b7","ios":"levelo://app?vid=2286499e-afb3-42f0-be29-239621d5e7b7"},"vehicle_type_id":"4","last_reported":1743505711,"current_range_meters":9200,"station_id":"ce4bhn12rcd13ifvqgpg","pricing_plan_id":"cebpf4jnsgd1na2vs0mg"},{"bike_id":"9190d2ff-bc13-4ed7-bf3f-c478ea6d863c","system_id":"levelo_inurba_marseille","lat":43.24393,"lon":5.3706,"is_reserved":false,"is_disabled":false,"rental_uris":{"android":"levelo://app?vid=9190d2ff-bc13-4ed7-bf3f-c478ea6d863c","ios":"levelo://app?vid=9190d2ff-bc13-4ed7-bf3f-c478ea6d863c"},"vehicle_type_id":"4","last_reported":1743505711,"current_range_meters":9200,"station_id":"","pricing_plan_id":"cebpf4jnsgd1na2vs0mg"},{"bike_id":"8cb8fb6e-14b3-4b47-88a7-df067badb670","system_id":"levelo_inurba_marseille","lat":43.22932,"lon":5.353782,"is_reserved":false,"is_disabled":false,"rental_uris":{"android":"levelo://app?vid=8cb8fb6e-14b3-4b47-88a7-df067badb670","ios":"levelo://app?vid=8cb8fb6e-14b3-4b47-88a7-df067badb670"},"vehicle_type_id":"4","last_reported":1743505711,"current_range_meters":9200,"station_id":"cpo3532slgdg3j2ikp40","pricing_plan_id":"cebpf4jnsgd1na2vs0mg"},{"bike_id":"11fb0821-8afa-433a-9d88-19545526da74","system_id":"levelo_inurba_marseille","lat":43.27911,"lon":5.37993,"is_reserved":false,"is_disabled":true,"rental_uris":{"android":"levelo://app?vid=11fb0821-8afa-433a-9d88-19545526da74","ios":"levelo://app?vid=11fb0821-8afa-433a-9d88-19545526da74"},"vehicle_type_id":"4","last_reported":1743505711,"current_range_meters":9200,"station_id":"ce4bhf92rcd13ifvqf50","pricing_plan_id":"cebpf4jnsgd1na2vs0mg"},{"bike_id":"c5f908d3-4610-4cae-8aeb-e89ca0e64cc1","system_id":"levelo_inurba_marseille","lat":43.33619,"lon":5.41027,"is_reserved":false,"is_disabled":false,"rental_uris":{"android":"levelo://app?vid=c5f908d3-4610-4cae-8aeb-e89ca0e64cc1","ios":"levelo://app?vid=c5f908d3-4610-4cae-8aeb-e89ca0e64cc1"},"vehicle_type_id":"4","last_reported":1743505711,"current_range_meters":9200,"station_id":"ce4bhqh2rcd13ifvqhmg","pricing_plan_id":"cebpf4jnsgd1na2vs0mg"},{"bike_id":"511af7e7-1964-4072-ac9d-5f44d148882c","system_id":"levelo_inurba_marseille","lat":43.32049,"lon":5.41551,"is_reserved":false,"is_disabled":false,"rental_uris":{"android":"levelo://app?vid=511af7e7-1964-4072-ac9d-5f44d148882c","ios":"levelo://app?vid=511af7e7-1964-4072-ac9d-5f44d148882c"},"vehicle_type_id":"4","last_reported":1743505711,"current_range_meters":9200,"station_id":"ce4bhq92rcd13ifvqhkg","pricing_plan_id":"cebpf4jnsgd1na2vs0mg"},{"bike_id":"e254df95-fbbf-4b46-aaba-a41a78def49e","system_id":"levelo_inurba_marseille","lat":43.22933,"lon":5.35373,"is_reserved":false,"is_disabled":false,"rental_uris":{"android":"levelo://app?vid=e254df95-fbbf-4b46-aaba-a41a78def49e","ios":"levelo://app?vid=e254df95-fbbf-4b46-aaba-a41a78def49e"},"vehicle_type_id":"4","last_reported":1743505711,"current_range_meters":9600,"station_id":"cpo3532slgdg3j2ikp40","pricing_plan_id":"cebpf4jnsgd1na2vs0mg"},{"bike_id":"0e019c4c-dc7c-4c50-a6db-14fb18524af0","system_id":"levelo_inurba_marseille","lat":43.31886,"lon":5.40735,"is_reserved":false,"is_disabled":false,"rental_uris":{"android":"levelo://app?vid=0e019c4c-dc7c-4c50-a6db-14fb18524af0","ios":"levelo://app?vid=0e019c4c-dc7c-4c50-a6db-14fb18524af0"},"vehicle_type_id":"4","last_reported":1743505711,"current_range_meters":9600,"station_id":"ce4bhq12rcd13ifvqhig","pricing_plan_id":"cebpf4jnsgd1na2vs0mg"},{"bike_id":"0e7078c5-818d-4e8a-b3ea-f66ca09c4103","system_id":"levelo_inurba_marseille","lat":43.26684,"lon":5.38268,"is_reserved":false,"is_disabled":false,"rental_uris":{"android":"levelo://app?vid=0e7078c5-818d-4e8a-b3ea-f66ca09c4103","ios":"levelo://app?vid=0e7078c5-818d-4e8a-b3ea-f66ca09c4103"},"vehicle_type_id":"4","last_reported":1743505711,"current_range_meters":9600,"station_id":"ce4bhg92rcd13ifvqf90","pricing_plan_id":"cebpf4jnsgd1na2vs0mg"},{"bike_id":"e85cfdc1-8235-4388-89fb-87b432b85acf","system_id":"levelo_inurba_marseille","lat":43.26193,"lon":5.37444,"is_reserved":false,"is_disabled":false,"rental_uris":{"android":"levelo://app?vid=e85cfdc1-8235-4388-89fb-87b432b85acf","ios":"levelo://app?vid=e85cfdc1-8235-4388-89fb-87b432b85acf"},"vehicle_type_id":"4","last_reported":1743505711,"current_range_meters":9600,"station_id":"ce4bhgp2rcd13ifvqfc0","pricing_plan_id":"cebpf4jnsgd1na2vs0mg"},{"bike_id":"25526cfa-8f51-402c-a25b-fc209020ed58","system_id":"levelo_inurba_marseille","lat":43.30954,"lon":5.39076,"is_reserved":false,"is_disabled":false,"rental_uris":{"android":"levelo://app?vid=25526cfa-8f51-402c-a25b-fc209020ed58","ios":"levelo://app?vid=25526cfa-8f51-402c-a25b-fc209020ed58"},"vehicle_type_id":"4","last_reported":1743505711,"current_range_meters":9600,"station_id":"ce4bgup2rcd13ifvqco0","pricing_plan_id":"cebpf4jnsgd1na2vs0mg"},{"bike_id":"bb3df07d-9a88-4ec3-851a-bff1de4b8aca","system_id":"levelo_inurba_marseille","lat":43.30432,"lon":5.38891,"is_reserved":false,"is_disabled":false,"rental_uris":{"android":"levelo://app?vid=bb3df07d-9a88-4ec3-851a-bff1de4b8aca","ios":"levelo://app?vid=bb3df07d-9a88-4ec3-851a-bff1de4b8aca"},"vehicle_type_id":"4","last_reported":1743505711,"current_range_meters":9600,"station_id":"ce4bgk12rcd13ifvqbi0","pricing_plan_id":"cebpf4jnsgd1na2vs0mg"},{"bike_id":"a65c60d0-9838-4fce-ab82-173f64a7b595","system_id":"levelo_inurba_marseille","lat":43.2418,"lon":5.39708,"is_reserved":false,"is_disabled":false,"rental_uris":{"android":"levelo://app?vid=a65c60d0-9838-4fce-ab82-173f64a7b595","ios":"levelo://app?vid=a65c60d0-9838-4fce-ab82-173f64a7b595"},"vehicle_type_id":"4","last_reported":1743505711,"current_range_meters":10000,"station_id":"ce4bhn12rcd13ifvqgpg","pricing_plan_id":"cebpf4jnsgd1na2vs0mg"},{"bike_id":"292ace63-b3f4-4abb-995a-22134383a472","system_id":"levelo_inurba_marseille","lat":43.23165,"lon":5.43673,"is_reserved":false,"is_disabled":false,"rental_uris":{"android":"levelo://app?vid=292ace63-b3f4-4abb-995a-22134383a472","ios":"levelo://app?vid=292ace63-b3f4-4abb-995a-22134383a472"},"vehicle_type_id":"4","last_reported":1743505711,"current_range_meters":10000,"station_id":"ce4bhmp2rcd13ifvqgog","pricing_plan_id":"cebpf4jnsgd1na2vs0mg"},{"bike_id":"c86f3dd7-4af6-4e32-832d-8c711682ef46","system_id":"levelo_inurba_marseille","lat":43.25926,"lon":5.40887,"is_reserved":false,"is_disabled":false,"rental_uris":{"android":"levelo://app?vid=c86f3dd7-4af6-4e32-832d-8c711682ef46","ios":"levelo://app?vid=c86f3dd7-4af6-4e32-832d-8c711682ef46"},"vehicle_type_id":"4","last_reported":1743505711,"current_range_meters":10000,"station_id":"ce4bhm92rcd13ifvqglg","pricing_plan_id":"cebpf4jnsgd1na2vs0mg"},{"bike_id":"e4eccfc6-e7a9-49dd-a833-f5d63fc4c333","system_id":"levelo_inurba_marseille","lat":43.31169,"lon":5.38696,"is_reserved":false,"is_disabled":false,"rental_uris":{"android":"levelo://app?vid=e4eccfc6-e7a9-49dd-a833-f5d63fc4c333","ios":"levelo://app?vid=e4eccfc6-e7a9-49dd-a833-f5d63fc4c333"},"vehicle_type_id":"4","last_reported":1743505711,"current_range_meters":10000,"station_id":"ce4bgv12rcd13ifvqcp0","pricing_plan_id":"cebpf4jnsgd1na2vs0mg"},{"bike_id":"92baaec8-1dbc-4605-a272-4a6b6c06d1cf","system_id":"levelo_inurba_marseille","lat":43.279724,"lon":5.387248,"is_reserved":false,"is_disabled":false,"rental_uris":{"android":"levelo://app?vid=92baaec8-1dbc-4605-a272-4a6b6c06d1cf","ios":"levelo://app?vid=92baaec8-1dbc-4605-a272-4a6b6c06d1cf"},"vehicle_type_id":"4","last_reported":1743505711,"current_range_meters":10800,"station_id":"ce4bhg12rcd13ifvqf80","pricing_plan_id":"cebpf4jnsgd1na2vs0mg"},{"bike_id":"4d1ef574-507a-4fec-a6d9-b5b49b8c445e","system_id":"levelo_inurba_marseille","lat":43.292783,"lon":5.368323,"is_reserved":false,"is_disabled":true,"rental_uris":{"android":"levelo://app?vid=4d1ef574-507a-4fec-a6d9-b5b49b8c445e","ios":"levelo://app?vid=4d1ef574-507a-4fec-a6d9-b5b49b8c445e"},"vehicle_type_id":"4","last_reported":1743505711,"current_range_meters":10800,"station_id":"ce4bhbp2rcd13ifvqesg","pricing_plan_id":"cebpf4jnsgd1na2vs0mg"},{"bike_id":"c8eaf46c-f86e-44ae-8f46-400cbe7c7e86","system_id":"levelo_inurba_marseille","lat":43.30138,"lon":5.39878,"is_reserved":false,"is_disabled":false,"rental_uris":{"android":"levelo://app?vid=c8eaf46c-f86e-44ae-8f46-400cbe7c7e86","ios":"levelo://app?vid=c8eaf46c-f86e-44ae-8f46-400cbe7c7e86"},"vehicle_type_id":"4","last_reported":1743505711,"current_range_meters":10800,"station_id":"ce4bh0h2rcd13ifvqd40","pricing_plan_id":"cebpf4jnsgd1na2vs0mg"},{"bike_id":"a61d69b6-c682-4e51-b65c-90e9332cb9b6","system_id":"levelo_inurba_marseille","lat":43.29253,"lon":5.3762,"is_reserved":false,"is_disabled":false,"rental_uris":{"android":"levelo://app?vid=a61d69b6-c682-4e51-b65c-90e9332cb9b6","ios":"levelo://app?vid=a61d69b6-c682-4e51-b65c-90e9332cb9b6"},"vehicle_type_id":"4","last_reported":1743505711,"current_range_meters":10800,"station_id":"ce4bgi12rcd13ifvqb80","pricing_plan_id":"cebpf4jnsgd1na2vs0mg"},{"bike_id":"2e3064e7-fed8-4bf4-837e-0a77afda17a2","system_id":"levelo_inurba_marseille","lat":43.28731,"lon":5.37936,"is_reserved":false,"is_disabled":false,"rental_uris":{"android":"levelo://app?vid=2e3064e7-fed8-4bf4-837e-0a77afda17a2","ios":"levelo://app?vid=2e3064e7-fed8-4bf4-837e-0a77afda17a2"},"vehicle_type_id":"4","last_reported":1743505711,"current_range_meters":10800,"station_id":"ce4bh9p2rcd13ifvqec0","pricing_plan_id":"cebpf4jnsgd1na2vs0mg"},{"bike_id":"df68c47c-c752-4248-8929-1c3c26eec160","system_id":"levelo_inurba_marseille","lat":43.30539,"lon":5.36532,"is_reserved":false,"is_disabled":false,"rental_uris":{"android":"levelo://app?vid=df68c47c-c752-4248-8929-1c3c26eec160","ios":"levelo://app?vid=df68c47c-c752-4248-8929-1c3c26eec160"},"vehicle_type_id":"4","last_reported":1743505711,"current_range_meters":10800,"station_id":"ce4bgs12rcd13ifvqcag","pricing_plan_id":"cebpf4jnsgd1na2vs0mg"},{"bike_id":"649b5ad5-62ac-4bfd-a6cd-60fc43d8fef1","system_id":"levelo_inurba_marseille","lat":43.292474,"lon":5.398232,"is_reserved":false,"is_disabled":false,"rental_uris":{"android":"levelo://app?vid=649b5ad5-62ac-4bfd-a6cd-60fc43d8fef1","ios":"levelo://app?vid=649b5ad5-62ac-4bfd-a6cd-60fc43d8fef1"},"vehicle_type_id":"4","last_reported":1743505711,"current_range_meters":10800,"station_id":"","pricing_plan_id":"cebpf4jnsgd1na2vs0mg"},{"bike_id":"c2ff4acb-2bad-440c-bd43-e94288d22944","system_id":"levelo_inurba_marseille","lat":43.28363,"lon":5.3862,"is_reserved":false,"is_disabled":false,"rental_uris":{"android":"levelo://app?vid=c2ff4acb-2bad-440c-bd43-e94288d22944","ios":"levelo://app?vid=c2ff4acb-2bad-440c-bd43-e94288d22944"},"vehicle_type_id":"4","last_reported":1743505711,"current_range_meters":11200,"station_id":"ce4bh492rcd13ifvqdvg","pricing_plan_id":"cebpf4jnsgd1na2vs0mg"},{"bike_id":"be21051a-47ac-4ec8-8afd-3c207d05b152","system_id":"levelo_inurba_marseille","lat":43.28412,"lon":5.34982,"is_reserved":false,"is_disabled":false,"rental_uris":{"android":"levelo://app?vid=be21051a-47ac-4ec8-8afd-3c207d05b152","ios":"levelo://app?vid=be21051a-47ac-4ec8-8afd-3c207d05b152"},"vehicle_type_id":"4","last_reported":1743505711,"current_range_meters":11200,"station_id":"ce4bhbh2rcd13ifvqepg","pricing_plan_id":"cebpf4jnsgd1na2vs0mg"},{"bike_id":"d230a30f-8939-4834-bb77-04786707fdd8","system_id":"levelo_inurba_marseille","lat":43.2869,"lon":5.39968,"is_reserved":false,"is_disabled":false,"rental_uris":{"android":"levelo://app?vid=d230a30f-8939-4834-bb77-04786707fdd8","ios":"levelo://app?vid=d230a30f-8939-4834-bb77-04786707fdd8"},"vehicle_type_id":"4","last_reported":1743505711,"current_range_meters":11200,"station_id":"ce4bho92rcd13ifvqh3g","pricing_plan_id":"cebpf4jnsgd1na2vs0mg"},{"bike_id":"42ca75fc-5455-455e-83fa-8a35f9431320","system_id":"levelo_inurba_marseille","lat":43.290206,"lon":5.381235,"is_reserved":false,"is_disabled":false,"rental_uris":{"android":"levelo://app?vid=42ca75fc-5455-455e-83fa-8a35f9431320","ios":"levelo://app?vid=42ca75fc-5455-455e-83fa-8a35f9431320"},"vehicle_type_id":"4","last_reported":1743505711,"current_range_meters":11200,"station_id":"ce4bh4p2rcd13ifvqe1g","pricing_plan_id":"cebpf4jnsgd1na2vs0mg"},{"bike_id":"41e7a323-5090-4c6c-9dbf-b8655af19255","system_id":"levelo_inurba_marseille","lat":43.31244,"lon":5.36846,"is_reserved":false,"is_disabled":false,"rental_uris":{"android":"levelo://app?vid=41e7a323-5090-4c6c-9dbf-b8655af19255","ios":"levelo://app?vid=41e7a323-5090-4c6c-9dbf-b8655af19255"},"vehicle_type_id":"4","last_reported":1743505711,"current_range_meters":11200,"station_id":"ce4bgl92rcd13ifvqbq0","pricing_plan_id":"cebpf4jnsgd1na2vs0mg"},{"bike_id":"3ba6ccff-1eda-46d4-acbd-01dbdd65bb76","system_id":"levelo_inurba_marseille","lat":43.299,"lon":5.43666,"is_reserved":false,"is_disabled":false,"rental_uris":{"android":"levelo://app?vid=3ba6ccff-1eda-46d4-acbd-01dbdd65bb76","ios":"levelo://app?vid=3ba6ccff-1eda-46d4-acbd-01dbdd65bb76"},"vehicle_type_id":"4","last_reported":1743505711,"current_range_meters":11200,"station_id":"ce4bhpp2rcd13ifvqhfg","pricing_plan_id":"cebpf4jnsgd1na2vs0mg"},{"bike_id":"93a428f6-6bad-4a02-8565-b91a2bee43a8","system_id":"levelo_inurba_marseille","lat":43.28411,"lon":5.37508,"is_reserved":false,"is_disabled":false,"rental_uris":{"android":"levelo://app?vid=93a428f6-6bad-4a02-8565-b91a2bee43a8","ios":"levelo://app?vid=93a428f6-6bad-4a02-8565-b91a2bee43a8"},"vehicle_type_id":"4","last_reported":1743505711,"current_range_meters":11200,"station_id":"ce4bh412rcd13ifvqds0","pricing_plan_id":"cebpf4jnsgd1na2vs0mg"},{"bike_id":"131021f3-d92d-4e27-b872-5016ad16868f","system_id":"levelo_inurba_marseille","lat":43.27815,"lon":5.40702,"is_reserved":false,"is_disabled":false,"rental_uris":{"android":"levelo://app?vid=131021f3-d92d-4e27-b872-5016ad16868f","ios":"levelo://app?vid=131021f3-d92d-4e27-b872-5016ad16868f"},"vehicle_type_id":"4","last_reported":1743505711,"current_range_meters":11600,"station_id":"ce4bhnh2rcd13ifvqgtg","pricing_plan_id":"cebpf4jnsgd1na2vs0mg"},{"bike_id":"2c567be4-626d-4614-8796-6c92d09d2fa1","system_id":"levelo_inurba_marseille","lat":43.28912,"lon":5.37082,"is_reserved":false,"is_disabled":false,"rental_uris":{"android":"levelo://app?vid=2c567be4-626d-4614-8796-6c92d09d2fa1","ios":"levelo://app?vid=2c567be4-626d-4614-8796-6c92d09d2fa1"},"vehicle_type_id":"4","last_reported":1743505711,"current_range_meters":11600,"station_id":"","pricing_plan_id":"cebpf4jnsgd1na2vs0mg"},{"bike_id":"c884ea63-085e-42fe-adc5-99bac559525a","system_id":"levelo_inurba_marseille","lat":43.29281,"lon":5.40107,"is_reserved":false,"is_disabled":true,"rental_uris":{"android":"levelo://app?vid=c884ea63-085e-42fe-adc5-99bac559525a","ios":"levelo://app?vid=c884ea63-085e-42fe-adc5-99bac559525a"},"vehicle_type_id":"4","last_reported":1743505711,"current_range_meters":11600,"station_id":"ce4bh312rcd13ifvqdk0","pricing_plan_id":"cebpf4jnsgd1na2vs0mg"},{"bike_id":"d7794249-6f7b-4447-84cb-4aaf6625e8d8","system_id":"levelo_inurba_marseille","lat":43.28699,"lon":5.39979,"is_reserved":false,"is_disabled":false,"rental_uris":{"android":"levelo://app?vid=d7794249-6f7b-4447-84cb-4aaf6625e8d8","ios":"levelo://app?vid=d7794249-6f7b-4447-84cb-4aaf6625e8d8"},"vehicle_type_id":"4","last_reported":1743505711,"current_range_meters":11600,"station_id":"ce4bho92rcd13ifvqh3g","pricing_plan_id":"cebpf4jnsgd1na2vs0mg"},{"bike_id":"dd83c443-49cf-4502-8f87-831710c358c0","system_id":"levelo_inurba_marseille","lat":43.27371,"lon":5.36254,"is_reserved":false,"is_disabled":false,"rental_uris":{"android":"levelo://app?vid=dd83c443-49cf-4502-8f87-831710c358c0","ios":"levelo://app?vid=dd83c443-49cf-4502-8f87-831710c358c0"},"vehicle_type_id":"4","last_reported":1743505711,"current_range_meters":11600,"station_id":"ce4bhbh2rcd13ifvqeo0","pricing_plan_id":"cebpf4jnsgd1na2vs0mg"},{"bike_id":"5f6eda96-1e32-4935-a08d-ade700a41ce1","system_id":"levelo_inurba_marseille","lat":43.30462,"lon":5.37899,"is_reserved":false,"is_disabled":true,"rental_uris":{"android":"levelo://app?vid=5f6eda96-1e32-4935-a08d-ade700a41ce1","ios":"levelo://app?vid=5f6eda96-1e32-4935-a08d-ade700a41ce1"},"vehicle_type_id":"4","last_reported":1743505711,"current_range_meters":11600,"station_id":"ce4bgup2rcd13ifvqcn0","pricing_plan_id":"cebpf4jnsgd1na2vs0mg"},{"bike_id":"06357cc9-b5a2-4479-a20a-541038310ad8","system_id":"levelo_inurba_marseille","lat":43.26813,"lon":5.40251,"is_reserved":false,"is_disabled":true,"rental_uris":{"android":"levelo://app?vid=06357cc9-b5a2-4479-a20a-541038310ad8","ios":"levelo://app?vid=06357cc9-b5a2-4479-a20a-541038310ad8"},"vehicle_type_id":"4","last_reported":1743505711,"current_range_meters":11600,"station_id":"","pricing_plan_id":"cebpf4jnsgd1na2vs0mg"},{"bike_id":"e47bc61d-df2d-41b3-b26b-dd94e6e5e301","system_id":"levelo_inurba_marseille","lat":43.2624,"lon":5.42134,"is_reserved":false,"is_disabled":false,"rental_uris":{"android":"levelo://app?vid=e47bc61d-df2d-41b3-b26b-dd94e6e5e301","ios":"levelo://app?vid=e47bc61d-df2d-41b3-b26b-dd94e6e5e301"},"vehicle_type_id":"4","last_reported":1743505711,"current_range_meters":11600,"station_id":"","pricing_plan_id":"cebpf4jnsgd1na2vs0mg"},{"bike_id":"686eb933-72cd-47d8-ad63-ce865a48561c","system_id":"levelo_inurba_marseille","lat":43.27914,"lon":5.39576,"is_reserved":false,"is_disabled":false,"rental_uris":{"android":"levelo://app?vid=686eb933-72cd-47d8-ad63-ce865a48561c","ios":"levelo://app?vid=686eb933-72cd-47d8-ad63-ce865a48561c"},"vehicle_type_id":"4","last_reported":1743505711,"current_range_meters":11600,"station_id":"ce4bhf92rcd13ifvqf40","pricing_plan_id":"cebpf4jnsgd1na2vs0mg"},{"bike_id":"34ead93f-0548-429e-a369-3703fc242f80","system_id":"levelo_inurba_marseille","lat":43.25576,"lon":5.38248,"is_reserved":false,"is_disabled":false,"rental_uris":{"android":"levelo://app?vid=34ead93f-0548-429e-a369-3703fc242f80","ios":"levelo://app?vid=34ead93f-0548-429e-a369-3703fc242f80"},"vehicle_type_id":"4","last_reported":1743505711,"current_range_meters":12000,"station_id":"ce4bhih2rcd13ifvqfs0","pricing_plan_id":"cebpf4jnsgd1na2vs0mg"},{"bike_id":"5471e7f4-e576-46b9-82eb-667434d7af4a","system_id":"levelo_inurba_marseille","lat":43.30554,"lon":5.3653,"is_reserved":false,"is_disabled":false,"rental_uris":{"android":"levelo://app?vid=5471e7f4-e576-46b9-82eb-667434d7af4a","ios":"levelo://app?vid=5471e7f4-e576-46b9-82eb-667434d7af4a"},"vehicle_type_id":"4","last_reported":1743505711,"current_range_meters":12000,"station_id":"ce4bgs12rcd13ifvqcag","pricing_plan_id":"cebpf4jnsgd1na2vs0mg"},{"bike_id":"1a59a5a4-ed31-4afe-a38b-9853d7b42438","system_id":"levelo_inurba_marseille","lat":43.30953,"lon":5.39024,"is_reserved":false,"is_disabled":false,"rental_uris":{"android":"levelo://app?vid=1a59a5a4-ed31-4afe-a38b-9853d7b42438","ios":"levelo://app?vid=1a59a5a4-ed31-4afe-a38b-9853d7b42438"},"vehicle_type_id":"4","last_reported":1743505711,"current_range_meters":12000,"station_id":"ce4bgup2rcd13ifvqco0","pricing_plan_id":"cebpf4jnsgd1na2vs0mg"},{"bike_id":"9d8b51bf-fd65-426c-9799-839498b24ee9","system_id":"levelo_inurba_marseille","lat":43.30667,"lon":5.36625,"is_reserved":false,"is_disabled":true,"rental_uris":{"android":"levelo://app?vid=9d8b51bf-fd65-426c-9799-839498b24ee9","ios":"levelo://app?vid=9d8b51bf-fd65-426c-9799-839498b24ee9"},"vehicle_type_id":"4","last_reported":1743505711,"current_range_meters":12000,"station_id":"","pricing_plan_id":"cebpf4jnsgd1na2vs0mg"},{"bike_id":"16dd592e-7732-47c3-a664-305413913b8b","system_id":"levelo_inurba_marseille","lat":43.28451,"lon":5.35888,"is_reserved":false,"is_disabled":true,"rental_uris":{"android":"levelo://app?vid=16dd592e-7732-47c3-a664-305413913b8b","ios":"levelo://app?vid=16dd592e-7732-47c3-a664-305413913b8b"},"vehicle_type_id":"4","last_reported":1743505711,"current_range_meters":12000,"station_id":"ce4bhah2rcd13ifvqei0","pricing_plan_id":"cebpf4jnsgd1na2vs0mg"},{"bike_id":"1b63ccb2-1298-4d96-b7f3-6ad6cace00e9","system_id":"levelo_inurba_marseille","lat":43.26118,"lon":5.40057,"is_reserved":false,"is_disabled":false,"rental_uris":{"android":"levelo://app?vid=1b63ccb2-1298-4d96-b7f3-6ad6cace00e9","ios":"levelo://app?vid=1b63ccb2-1298-4d96-b7f3-6ad6cace00e9"},"vehicle_type_id":"4","last_reported":1743505711,"current_range_meters":12000,"station_id":"","pricing_plan_id":"cebpf4jnsgd1na2vs0mg"},{"bike_id":"751cf7e1-9190-430c-a0c3-49d256190815","system_id":"levelo_inurba_marseille","lat":43.30888,"lon":5.36857,"is_reserved":false,"is_disabled":false,"rental_uris":{"android":"levelo://app?vid=751cf7e1-9190-430c-a0c3-49d256190815","ios":"levelo://app?vid=751cf7e1-9190-430c-a0c3-49d256190815"},"vehicle_type_id":"4","last_reported":1743505711,"current_range_meters":12000,"station_id":"ce4bgn92rcd13ifvqbvg","pricing_plan_id":"cebpf4jnsgd1na2vs0mg"},{"bike_id":"5050d2d9-3399-4ee2-8b40-35d8a6db2c15","system_id":"levelo_inurba_marseille","lat":43.31688,"lon":5.40476,"is_reserved":false,"is_disabled":false,"rental_uris":{"android":"levelo://app?vid=5050d2d9-3399-4ee2-8b40-35d8a6db2c15","ios":"levelo://app?vid=5050d2d9-3399-4ee2-8b40-35d8a6db2c15"},"vehicle_type_id":"4","last_reported":1743505711,"current_range_meters":12000,"station_id":"ce4bh012rcd13ifvqd00","pricing_plan_id":"cebpf4jnsgd1na2vs0mg"},{"bike_id":"27773214-4312-4127-aa54-e74cba3d6d07","system_id":"levelo_inurba_marseille","lat":43.27791,"lon":5.40728,"is_reserved":false,"is_disabled":false,"rental_uris":{"android":"levelo://app?vid=27773214-4312-4127-aa54-e74cba3d6d07","ios":"levelo://app?vid=27773214-4312-4127-aa54-e74cba3d6d07"},"vehicle_type_id":"4","last_reported":1743505711,"current_range_meters":12000,"station_id":"ce4bhnh2rcd13ifvqgtg","pricing_plan_id":"cebpf4jnsgd1na2vs0mg"},{"bike_id":"398ca055-084d-42d0-8ca9-ed591e77e956","system_id":"levelo_inurba_marseille","lat":43.23157,"lon":5.4371,"is_reserved":false,"is_disabled":false,"rental_uris":{"android":"levelo://app?vid=398ca055-084d-42d0-8ca9-ed591e77e956","ios":"levelo://app?vid=398ca055-084d-42d0-8ca9-ed591e77e956"},"vehicle_type_id":"4","last_reported":1743505711,"current_range_meters":12000,"station_id":"ce4bhmp2rcd13ifvqgog","pricing_plan_id":"cebpf4jnsgd1na2vs0mg"},{"bike_id":"f9556671-f8e9-4ef6-b997-21a30e85c7b2","system_id":"levelo_inurba_marseille","lat":43.23157,"lon":5.43731,"is_reserved":false,"is_disabled":false,"rental_uris":{"android":"levelo://app?vid=f9556671-f8e9-4ef6-b997-21a30e85c7b2","ios":"levelo://app?vid=f9556671-f8e9-4ef6-b997-21a30e85c7b2"},"vehicle_type_id":"4","last_reported":1743505711,"current_range_meters":12400,"station_id":"ce4bhmp2rcd13ifvqgog","pricing_plan_id":"cebpf4jnsgd1na2vs0mg"},{"bike_id":"7d24f7f3-5a91-46ae-971d-a7a715309919","system_id":"levelo_inurba_marseille","lat":43.23188,"lon":5.39994,"is_reserved":false,"is_disabled":false,"rental_uris":{"android":"levelo://app?vid=7d24f7f3-5a91-46ae-971d-a7a715309919","ios":"levelo://app?vid=7d24f7f3-5a91-46ae-971d-a7a715309919"},"vehicle_type_id":"4","last_reported":1743505711,"current_range_meters":12400,"station_id":"ce4bhn12rcd13ifvqgqg","pricing_plan_id":"cebpf4jnsgd1na2vs0mg"},{"bike_id":"b18d61be-1314-4787-bdc3-677619cdb9f9","system_id":"levelo_inurba_marseille","lat":43.29939,"lon":5.37038,"is_reserved":false,"is_disabled":false,"rental_uris":{"android":"levelo://app?vid=b18d61be-1314-4787-bdc3-677619cdb9f9","ios":"levelo://app?vid=b18d61be-1314-4787-bdc3-677619cdb9f9"},"vehicle_type_id":"4","last_reported":1743505711,"current_range_meters":12400,"station_id":"","pricing_plan_id":"cebpf4jnsgd1na2vs0mg"},{"bike_id":"65f9fdad-31a8-4fb3-87a1-c4fa64c86ebe","system_id":"levelo_inurba_marseille","lat":43.32493,"lon":5.36558,"is_reserved":false,"is_disabled":false,"rental_uris":{"android":"levelo://app?vid=65f9fdad-31a8-4fb3-87a1-c4fa64c86ebe","ios":"levelo://app?vid=65f9fdad-31a8-4fb3-87a1-c4fa64c86ebe"},"vehicle_type_id":"4","last_reported":1743505711,"current_range_meters":12800,"station_id":"ce4bhs12rcd13ifvqhvg","pricing_plan_id":"cebpf4jnsgd1na2vs0mg"},{"bike_id":"e0cf57cc-ac8a-437b-8c62-e6292c30f108","system_id":"levelo_inurba_marseille","lat":43.30948,"lon":5.39029,"is_reserved":false,"is_disabled":false,"rental_uris":{"android":"levelo://app?vid=e0cf57cc-ac8a-437b-8c62-e6292c30f108","ios":"levelo://app?vid=e0cf57cc-ac8a-437b-8c62-e6292c30f108"},"vehicle_type_id":"4","last_reported":1743505711,"current_range_meters":12800,"station_id":"ce4bgup2rcd13ifvqco0","pricing_plan_id":"cebpf4jnsgd1na2vs0mg"},{"bike_id":"4220d26d-272d-4b23-9cec-a79c1d919b49","system_id":"levelo_inurba_marseille","lat":43.30593,"lon":5.37112,"is_reserved":false,"is_disabled":false,"rental_uris":{"android":"levelo://app?vid=4220d26d-272d-4b23-9cec-a79c1d919b49","ios":"levelo://app?vid=4220d26d-272d-4b23-9cec-a79c1d919b49"},"vehicle_type_id":"4","last_reported":1743505711,"current_range_meters":12800,"station_id":"","pricing_plan_id":"cebpf4jnsgd1na2vs0mg"},{"bike_id":"637a7291-0b62-41ab-a1d1-aad7651093db","system_id":"levelo_inurba_marseille","lat":43.27843,"lon":5.4067,"is_reserved":false,"is_disabled":true,"rental_uris":{"android":"levelo://app?vid=637a7291-0b62-41ab-a1d1-aad7651093db","ios":"levelo://app?vid=637a7291-0b62-41ab-a1d1-aad7651093db"},"vehicle_type_id":"4","last_reported":1743505711,"current_range_meters":12800,"station_id":"ce4bhnh2rcd13ifvqgtg","pricing_plan_id":"cebpf4jnsgd1na2vs0mg"},{"bike_id":"86354ae6-2ad3-4c03-a340-c661e15634b2","system_id":"levelo_inurba_marseille","lat":43.30149,"lon":5.37403,"is_reserved":false,"is_disabled":false,"rental_uris":{"android":"levelo://app?vid=86354ae6-2ad3-4c03-a340-c661e15634b2","ios":"levelo://app?vid=86354ae6-2ad3-4c03-a340-c661e15634b2"},"vehicle_type_id":"4","last_reported":1743505711,"current_range_meters":13600,"station_id":"ce4bgs92rcd13ifvqcc0","pricing_plan_id":"cebpf4jnsgd1na2vs0mg"},{"bike_id":"eaf5e25d-c79f-4e7c-8425-5330b66980fd","system_id":"levelo_inurba_marseille","lat":43.28355,"lon":5.38106,"is_reserved":false,"is_disabled":false,"rental_uris":{"android":"levelo://app?vid=eaf5e25d-c79f-4e7c-8425-5330b66980fd","ios":"levelo://app?vid=eaf5e25d-c79f-4e7c-8425-5330b66980fd"},"vehicle_type_id":"4","last_reported":1743505711,"current_range_meters":13600,"station_id":"ce4bh412rcd13ifvqdr0","pricing_plan_id":"cebpf4jnsgd1na2vs0mg"},{"bike_id":"d8bbc8c7-a09c-4599-a8ce-03205d07ff36","system_id":"levelo_inurba_marseille","lat":43.30442,"lon":5.38887,"is_reserved":false,"is_disabled":false,"rental_uris":{"android":"levelo://app?vid=d8bbc8c7-a09c-4599-a8ce-03205d07ff36","ios":"levelo://app?vid=d8bbc8c7-a09c-4599-a8ce-03205d07ff36"},"vehicle_type_id":"4","last_reported":1743505711,"current_range_meters":13600,"station_id":"ce4bgk12rcd13ifvqbi0","pricing_plan_id":"cebpf4jnsgd1na2vs0mg"},{"bike_id":"20f5d5b6-da1b-4ad8-8de5-42887a69d068","system_id":"levelo_inurba_marseille","lat":43.29004,"lon":5.35607,"is_reserved":false,"is_disabled":false,"rental_uris":{"android":"levelo://app?vid=20f5d5b6-da1b-4ad8-8de5-42887a69d068","ios":"levelo://app?vid=20f5d5b6-da1b-4ad8-8de5-42887a69d068"},"vehicle_type_id":"4","last_reported":1743505711,"current_range_meters":13600,"station_id":"ce4bhb92rcd13ifvqen0","pricing_plan_id":"cebpf4jnsgd1na2vs0mg"},{"bike_id":"8be6dfa8-f6e1-49e7-8f0e-b327a5863493","system_id":"levelo_inurba_marseille","lat":43.27917,"lon":5.39575,"is_reserved":false,"is_disabled":false,"rental_uris":{"android":"levelo://app?vid=8be6dfa8-f6e1-49e7-8f0e-b327a5863493","ios":"levelo://app?vid=8be6dfa8-f6e1-49e7-8f0e-b327a5863493"},"vehicle_type_id":"4","last_reported":1743505711,"current_range_meters":13600,"station_id":"ce4bhf92rcd13ifvqf40","pricing_plan_id":"cebpf4jnsgd1na2vs0mg"},{"bike_id":"6e6a66e5-58ca-4db1-9695-b46ed5c28827","system_id":"levelo_inurba_marseille","lat":43.31838,"lon":5.36909,"is_reserved":false,"is_disabled":false,"rental_uris":{"android":"levelo://app?vid=6e6a66e5-58ca-4db1-9695-b46ed5c28827","ios":"levelo://app?vid=6e6a66e5-58ca-4db1-9695-b46ed5c28827"},"vehicle_type_id":"4","last_reported":1743505711,"current_range_meters":13600,"station_id":"","pricing_plan_id":"cebpf4jnsgd1na2vs0mg"},{"bike_id":"54169139-a694-4596-8949-4c448f024d17","system_id":"levelo_inurba_marseille","lat":43.24804,"lon":5.37454,"is_reserved":false,"is_disabled":false,"rental_uris":{"android":"levelo://app?vid=54169139-a694-4596-8949-4c448f024d17","ios":"levelo://app?vid=54169139-a694-4596-8949-4c448f024d17"},"vehicle_type_id":"4","last_reported":1743505711,"current_range_meters":13600,"station_id":"ce4bhgh2rcd13ifvqfb0","pricing_plan_id":"cebpf4jnsgd1na2vs0mg"},{"bike_id":"c3742909-8ac1-45e8-bbc0-0a14494abaa8","system_id":"levelo_inurba_marseille","lat":43.24639,"lon":5.38892,"is_reserved":false,"is_disabled":false,"rental_uris":{"android":"levelo://app?vid=c3742909-8ac1-45e8-bbc0-0a14494abaa8","ios":"levelo://app?vid=c3742909-8ac1-45e8-bbc0-0a14494abaa8"},"vehicle_type_id":"4","last_reported":1743505711,"current_range_meters":13600,"station_id":"ce4bhg12rcd13ifvqf60","pricing_plan_id":"cebpf4jnsgd1na2vs0mg"},{"bike_id":"45d52e62-f3be-405f-bd5f-a108e35f3019","system_id":"levelo_inurba_marseille","lat":43.29608,"lon":5.38084,"is_reserved":false,"is_disabled":false,"rental_uris":{"android":"levelo://app?vid=45d52e62-f3be-405f-bd5f-a108e35f3019","ios":"levelo://app?vid=45d52e62-f3be-405f-bd5f-a108e35f3019"},"vehicle_type_id":"4","last_reported":1743505711,"current_range_meters":13600,"station_id":"ce4bgl12rcd13ifvqbo0","pricing_plan_id":"cebpf4jnsgd1na2vs0mg"},{"bike_id":"2027f774-60ea-408c-a8db-7e4688d28896","system_id":"levelo_inurba_marseille","lat":43.30545,"lon":5.36694,"is_reserved":false,"is_disabled":false,"rental_uris":{"android":"levelo://app?vid=2027f774-60ea-408c-a8db-7e4688d28896","ios":"levelo://app?vid=2027f774-60ea-408c-a8db-7e4688d28896"},"vehicle_type_id":"4","last_reported":1743505711,"current_range_meters":13600,"station_id":"ce4bgrp2rcd13ifvqc9g","pricing_plan_id":"cebpf4jnsgd1na2vs0mg"},{"bike_id":"69b05946-4e54-4596-a75a-3391c859761b","system_id":"levelo_inurba_marseille","lat":43.23975,"lon":5.36629,"is_reserved":false,"is_disabled":false,"rental_uris":{"android":"levelo://app?vid=69b05946-4e54-4596-a75a-3391c859761b","ios":"levelo://app?vid=69b05946-4e54-4596-a75a-3391c859761b"},"vehicle_type_id":"4","last_reported":1743505711,"current_range_meters":13600,"station_id":"ce4bhi12rcd13ifvqfp0","pricing_plan_id":"cebpf4jnsgd1na2vs0mg"},{"bike_id":"6421c72f-ec72-40de-a058-36d3fcc87132","system_id":"levelo_inurba_marseille","lat":43.31249,"lon":5.36869,"is_reserved":false,"is_disabled":true,"rental_uris":{"android":"levelo://app?vid=6421c72f-ec72-40de-a058-36d3fcc87132","ios":"levelo://app?vid=6421c72f-ec72-40de-a058-36d3fcc87132"},"vehicle_type_id":"4","last_reported":1743505711,"current_range_meters":14000,"station_id":"ce4bgl92rcd13ifvqbq0","pricing_plan_id":"cebpf4jnsgd1na2vs0mg"},{"bike_id":"15b222ba-7758-4135-9ab2-7767423c6d21","system_id":"levelo_inurba_marseille","lat":43.29024,"lon":5.38628,"is_reserved":false,"is_disabled":true,"rental_uris":{"android":"levelo://app?vid=15b222ba-7758-4135-9ab2-7767423c6d21","ios":"levelo://app?vid=15b222ba-7758-4135-9ab2-7767423c6d21"},"vehicle_type_id":"4","last_reported":1743505711,"current_range_meters":14000,"station_id":"ce4bh4p2rcd13ifvqe0g","pricing_plan_id":"cebpf4jnsgd1na2vs0mg"},{"bike_id":"4474f66b-3eb6-4aea-af7b-d43fdaacf384","system_id":"levelo_inurba_marseille","lat":43.28258,"lon":5.40273,"is_reserved":false,"is_disabled":false,"rental_uris":{"android":"levelo://app?vid=4474f66b-3eb6-4aea-af7b-d43fdaacf384","ios":"levelo://app?vid=4474f66b-3eb6-4aea-af7b-d43fdaacf384"},"vehicle_type_id":"4","last_reported":1743505711,"current_range_meters":14000,"station_id":"","pricing_plan_id":"cebpf4jnsgd1na2vs0mg"},{"bike_id":"1860ca59-3a2b-4292-9a0a-1df56f1e064d","system_id":"levelo_inurba_marseille","lat":43.25509,"lon":5.37652,"is_reserved":false,"is_disabled":false,"rental_uris":{"android":"levelo://app?vid=1860ca59-3a2b-4292-9a0a-1df56f1e064d","ios":"levelo://app?vid=1860ca59-3a2b-4292-9a0a-1df56f1e064d"},"vehicle_type_id":"4","last_reported":1743505711,"current_range_meters":14000,"station_id":"ce4bhh12rcd13ifvqff0","pricing_plan_id":"cebpf4jnsgd1na2vs0mg"},{"bike_id":"36ce5e4a-7774-4d2b-bf6a-310ea287ea7b","system_id":"levelo_inurba_marseille","lat":43.33573,"lon":5.40987,"is_reserved":false,"is_disabled":false,"rental_uris":{"android":"levelo://app?vid=36ce5e4a-7774-4d2b-bf6a-310ea287ea7b","ios":"levelo://app?vid=36ce5e4a-7774-4d2b-bf6a-310ea287ea7b"},"vehicle_type_id":"4","last_reported":1743505711,"current_range_meters":14000,"station_id":"","pricing_plan_id":"cebpf4jnsgd1na2vs0mg"},{"bike_id":"88183055-e6a3-46a6-9213-efcd44d03d4c","system_id":"levelo_inurba_marseille","lat":43.30562,"lon":5.36682,"is_reserved":false,"is_disabled":false,"rental_uris":{"android":"levelo://app?vid=88183055-e6a3-46a6-9213-efcd44d03d4c","ios":"levelo://app?vid=88183055-e6a3-46a6-9213-efcd44d03d4c"},"vehicle_type_id":"4","last_reported":1743505711,"current_range_meters":14400,"station_id":"ce4bgrp2rcd13ifvqc9g","pricing_plan_id":"cebpf4jnsgd1na2vs0mg"},{"bike_id":"a9392c32-b8e3-41f9-ae3c-96f82eb8a90f","system_id":"levelo_inurba_marseille","lat":43.23059,"lon":5.35488,"is_reserved":false,"is_disabled":false,"rental_uris":{"android":"levelo://app?vid=a9392c32-b8e3-41f9-ae3c-96f82eb8a90f","ios":"levelo://app?vid=a9392c32-b8e3-41f9-ae3c-96f82eb8a90f"},"vehicle_type_id":"4","last_reported":1743505711,"current_range_meters":14400,"station_id":"cpo3342slgdg3j2ifvpg","pricing_plan_id":"cebpf4jnsgd1na2vs0mg"},{"bike_id":"b408d6c9-a46d-48a0-b1a7-990034ca7544","system_id":"levelo_inurba_marseille","lat":43.30135,"lon":5.39872,"is_reserved":false,"is_disabled":false,"rental_uris":{"android":"levelo://app?vid=b408d6c9-a46d-48a0-b1a7-990034ca7544","ios":"levelo://app?vid=b408d6c9-a46d-48a0-b1a7-990034ca7544"},"vehicle_type_id":"4","last_reported":1743505711,"current_range_meters":14400,"station_id":"ce4bh0h2rcd13ifvqd40","pricing_plan_id":"cebpf4jnsgd1na2vs0mg"},{"bike_id":"5e5bcbf5-3aa1-4af3-900b-c58345968d1e","system_id":"levelo_inurba_marseille","lat":43.32368,"lon":5.38886,"is_reserved":false,"is_disabled":false,"rental_uris":{"android":"levelo://app?vid=5e5bcbf5-3aa1-4af3-900b-c58345968d1e","ios":"levelo://app?vid=5e5bcbf5-3aa1-4af3-900b-c58345968d1e"},"vehicle_type_id":"4","last_reported":1743505711,"current_range_meters":14400,"station_id":"ce4bhqp2rcd13ifvqhog","pricing_plan_id":"cebpf4jnsgd1na2vs0mg"},{"bike_id":"0ea3c931-5a17-44b4-b2ef-c8b9e672acd3","system_id":"levelo_inurba_marseille","lat":43.23156,"lon":5.43711,"is_reserved":false,"is_disabled":false,"rental_uris":{"android":"levelo://app?vid=0ea3c931-5a17-44b4-b2ef-c8b9e672acd3","ios":"levelo://app?vid=0ea3c931-5a17-44b4-b2ef-c8b9e672acd3"},"vehicle_type_id":"4","last_reported":1743505711,"current_range_meters":14400,"station_id":"ce4bhmp2rcd13ifvqgog","pricing_plan_id":"cebpf4jnsgd1na2vs0mg"},{"bike_id":"834ad327-80c6-4765-957e-3b95070ecd66","system_id":"levelo_inurba_marseille","lat":43.260198,"lon":5.375551,"is_reserved":false,"is_disabled":false,"rental_uris":{"android":"levelo://app?vid=834ad327-80c6-4765-957e-3b95070ecd66","ios":"levelo://app?vid=834ad327-80c6-4765-957e-3b95070ecd66"},"vehicle_type_id":"4","last_reported":1743505711,"current_range_meters":14400,"station_id":"ce4bhnp2rcd13ifvqgvg","pricing_plan_id":"cebpf4jnsgd1na2vs0mg"},{"bike_id":"69cf9e1c-234f-4d3f-b85b-88c9c69978ef","system_id":"levelo_inurba_marseille","lat":43.27062,"lon":5.40259,"is_reserved":false,"is_disabled":false,"rental_uris":{"android":"levelo://app?vid=69cf9e1c-234f-4d3f-b85b-88c9c69978ef","ios":"levelo://app?vid=69cf9e1c-234f-4d3f-b85b-88c9c69978ef"},"vehicle_type_id":"4","last_reported":1743505711,"current_range_meters":14400,"station_id":"ce4bhk92rcd13ifvqgc0","pricing_plan_id":"cebpf4jnsgd1na2vs0mg"},{"bike_id":"4c564b34-6817-415a-8489-26db1ea03ff9","system_id":"levelo_inurba_marseille","lat":43.23104,"lon":5.43693,"is_reserved":false,"is_disabled":false,"rental_uris":{"android":"levelo://app?vid=4c564b34-6817-415a-8489-26db1ea03ff9","ios":"levelo://app?vid=4c564b34-6817-415a-8489-26db1ea03ff9"},"vehicle_type_id":"4","last_reported":1743505711,"current_range_meters":14400,"station_id":"","pricing_plan_id":"cebpf4jnsgd1na2vs0mg"},{"bike_id":"f616f89a-6b5f-47f2-be4a-c1252268f5f4","system_id":"levelo_inurba_marseille","lat":43.29442,"lon":5.3861,"is_reserved":false,"is_disabled":true,"rental_uris":{"android":"levelo://app?vid=f616f89a-6b5f-47f2-be4a-c1252268f5f4","ios":"levelo://app?vid=f616f89a-6b5f-47f2-be4a-c1252268f5f4"},"vehicle_type_id":"4","last_reported":1743505711,"current_range_meters":14800,"station_id":"ce4bh2h2rcd13ifvqdh0","pricing_plan_id":"cebpf4jnsgd1na2vs0mg"},{"bike_id":"bad8b686-d4b1-4fd1-a906-eeff21f737a2","system_id":"levelo_inurba_marseille","lat":43.241779,"lon":5.397277,"is_reserved":false,"is_disabled":false,"rental_uris":{"android":"levelo://app?vid=bad8b686-d4b1-4fd1-a906-eeff21f737a2","ios":"levelo://app?vid=bad8b686-d4b1-4fd1-a906-eeff21f737a2"},"vehicle_type_id":"4","last_reported":1743505711,"current_range_meters":14800,"station_id":"ce4bhn12rcd13ifvqgpg","pricing_plan_id":"cebpf4jnsgd1na2vs0mg"},{"bike_id":"61e4339d-337b-456a-abe7-59ce9b2fd506","system_id":"levelo_inurba_marseille","lat":43.29166,"lon":5.37158,"is_reserved":false,"is_disabled":false,"rental_uris":{"android":"levelo://app?vid=61e4339d-337b-456a-abe7-59ce9b2fd506","ios":"levelo://app?vid=61e4339d-337b-456a-abe7-59ce9b2fd506"},"vehicle_type_id":"4","last_reported":1743505711,"current_range_meters":14800,"station_id":"ce4bha92rcd13ifvqeh0","pricing_plan_id":"cebpf4jnsgd1na2vs0mg"},{"bike_id":"fe9ae514-3869-4edc-924e-2a5f3adfe498","system_id":"levelo_inurba_marseille","lat":43.25495,"lon":5.37648,"is_reserved":false,"is_disabled":false,"rental_uris":{"android":"levelo://app?vid=fe9ae514-3869-4edc-924e-2a5f3adfe498","ios":"levelo://app?vid=fe9ae514-3869-4edc-924e-2a5f3adfe498"},"vehicle_type_id":"4","last_reported":1743505711,"current_range_meters":14800,"station_id":"ce4bhh12rcd13ifvqff0","pricing_plan_id":"cebpf4jnsgd1na2vs0mg"},{"bike_id":"a8c7236e-4110-4ac3-9005-68faa21c188d","system_id":"levelo_inurba_marseille","lat":43.28357,"lon":5.38618,"is_reserved":false,"is_disabled":false,"rental_uris":{"android":"levelo://app?vid=a8c7236e-4110-4ac3-9005-68faa21c188d","ios":"levelo://app?vid=a8c7236e-4110-4ac3-9005-68faa21c188d"},"vehicle_type_id":"4","last_reported":1743505711,"current_range_meters":14800,"station_id":"ce4bh492rcd13ifvqdvg","pricing_plan_id":"cebpf4jnsgd1na2vs0mg"},{"bike_id":"c74f5e10-dc5c-425a-a8b6-e5da0602cb9e","system_id":"levelo_inurba_marseille","lat":43.32114,"lon":5.36761,"is_reserved":false,"is_disabled":false,"rental_uris":{"android":"levelo://app?vid=c74f5e10-dc5c-425a-a8b6-e5da0602cb9e","ios":"levelo://app?vid=c74f5e10-dc5c-425a-a8b6-e5da0602cb9e"},"vehicle_type_id":"4","last_reported":1743505711,"current_range_meters":14800,"station_id":"ce4bhrh2rcd13ifvqhug","pricing_plan_id":"cebpf4jnsgd1na2vs0mg"},{"bike_id":"5897f66e-f2ce-44e5-95a0-296ffd15da88","system_id":"levelo_inurba_marseille","lat":43.301894,"lon":5.395757,"is_reserved":false,"is_disabled":false,"rental_uris":{"android":"levelo://app?vid=5897f66e-f2ce-44e5-95a0-296ffd15da88","ios":"levelo://app?vid=5897f66e-f2ce-44e5-95a0-296ffd15da88"},"vehicle_type_id":"4","last_reported":1743505711,"current_range_meters":16800,"station_id":"chh1huq6cuj3fo74tm60","pricing_plan_id":"cebpf4jnsgd1na2vs0mg"},{"bike_id":"9662d1d0-c8f9-4e8a-9e6c-a0c1575bddc7","system_id":"levelo_inurba_marseille","lat":43.30546,"lon":5.36697,"is_reserved":false,"is_disabled":false,"rental_uris":{"android":"levelo://app?vid=9662d1d0-c8f9-4e8a-9e6c-a0c1575bddc7","ios":"levelo://app?vid=9662d1d0-c8f9-4e8a-9e6c-a0c1575bddc7"},"vehicle_type_id":"4","last_reported":1743505711,"current_range_meters":15200,"station_id":"ce4bgrp2rcd13ifvqc9g","pricing_plan_id":"cebpf4jnsgd1na2vs0mg"},{"bike_id":"0ad7f3f5-b90b-484d-be72-f6fecd18724c","system_id":"levelo_inurba_marseille","lat":43.29435,"lon":5.39756,"is_reserved":false,"is_disabled":false,"rental_uris":{"android":"levelo://app?vid=0ad7f3f5-b90b-484d-be72-f6fecd18724c","ios":"levelo://app?vid=0ad7f3f5-b90b-484d-be72-f6fecd18724c"},"vehicle_type_id":"4","last_reported":1743505711,"current_range_meters":15200,"station_id":"ce4bh3h2rcd13ifvqdo0","pricing_plan_id":"cebpf4jnsgd1na2vs0mg"},{"bike_id":"159b1a57-d33a-4c4e-9de5-425002d00e96","system_id":"levelo_inurba_marseille","lat":43.259,"lon":5.40876,"is_reserved":false,"is_disabled":false,"rental_uris":{"android":"levelo://app?vid=159b1a57-d33a-4c4e-9de5-425002d00e96","ios":"levelo://app?vid=159b1a57-d33a-4c4e-9de5-425002d00e96"},"vehicle_type_id":"4","last_reported":1743505711,"current_range_meters":15200,"station_id":"ce4bhm92rcd13ifvqglg","pricing_plan_id":"cebpf4jnsgd1na2vs0mg"},{"bike_id":"b168badc-9373-4e0d-8901-3875b264da0e","system_id":"levelo_inurba_marseille","lat":43.31168,"lon":5.38706,"is_reserved":false,"is_disabled":false,"rental_uris":{"android":"levelo://app?vid=b168badc-9373-4e0d-8901-3875b264da0e","ios":"levelo://app?vid=b168badc-9373-4e0d-8901-3875b264da0e"},"vehicle_type_id":"4","last_reported":1743505711,"current_range_meters":15200,"station_id":"ce4bgv12rcd13ifvqcp0","pricing_plan_id":"cebpf4jnsgd1na2vs0mg"},{"bike_id":"17011927-5eb5-4a38-a132-35a6858ea1fb","system_id":"levelo_inurba_marseille","lat":43.30301,"lon":5.39206,"is_reserved":false,"is_disabled":true,"rental_uris":{"android":"levelo://app?vid=17011927-5eb5-4a38-a132-35a6858ea1fb","ios":"levelo://app?vid=17011927-5eb5-4a38-a132-35a6858ea1fb"},"vehicle_type_id":"4","last_reported":1743505711,"current_range_meters":15200,"station_id":"ce4bgkh2rcd13ifvqbk0","pricing_plan_id":"cebpf4jnsgd1na2vs0mg"},{"bike_id":"b80ee275-2592-4659-b2e9-175feb839700","system_id":"levelo_inurba_marseille","lat":43.23206,"lon":5.35549,"is_reserved":false,"is_disabled":false,"rental_uris":{"android":"levelo://app?vid=b80ee275-2592-4659-b2e9-175feb839700","ios":"levelo://app?vid=b80ee275-2592-4659-b2e9-175feb839700"},"vehicle_type_id":"4","last_reported":1743505711,"current_range_meters":16000,"station_id":"ce4bhu92rcd13ifvqi70","pricing_plan_id":"cebpf4jnsgd1na2vs0mg"},{"bike_id":"d3adb7e0-2242-4b61-8203-46b98f3c93d1","system_id":"levelo_inurba_marseille","lat":43.22931,"lon":5.35372,"is_reserved":false,"is_disabled":false,"rental_uris":{"android":"levelo://app?vid=d3adb7e0-2242-4b61-8203-46b98f3c93d1","ios":"levelo://app?vid=d3adb7e0-2242-4b61-8203-46b98f3c93d1"},"vehicle_type_id":"4","last_reported":1743505711,"current_range_meters":16000,"station_id":"cpo3532slgdg3j2ikp40","pricing_plan_id":"cebpf4jnsgd1na2vs0mg"},{"bike_id":"df0999b0-e42a-462d-bc0f-bcd910561d02","system_id":"levelo_inurba_marseille","lat":43.2867,"lon":5.38659,"is_reserved":false,"is_disabled":false,"rental_uris":{"android":"levelo://app?vid=df0999b0-e42a-462d-bc0f-bcd910561d02","ios":"levelo://app?vid=df0999b0-e42a-462d-bc0f-bcd910561d02"},"vehicle_type_id":"4","last_reported":1743505711,"current_range_meters":16000,"station_id":"ce4bh492rcd13ifvqdug","pricing_plan_id":"cebpf4jnsgd1na2vs0mg"},{"bike_id":"33b8dd29-56e2-488c-9bb6-7f788906afe5","system_id":"levelo_inurba_marseille","lat":43.29856,"lon":5.36303,"is_reserved":false,"is_disabled":false,"rental_uris":{"android":"levelo://app?vid=33b8dd29-56e2-488c-9bb6-7f788906afe5","ios":"levelo://app?vid=33b8dd29-56e2-488c-9bb6-7f788906afe5"},"vehicle_type_id":"4","last_reported":1743505711,"current_range_meters":16000,"station_id":"ce4bgpp2rcd13ifvqc3g","pricing_plan_id":"cebpf4jnsgd1na2vs0mg"},{"bike_id":"dd3db03f-0f43-4986-9ec8-2a76818fb28c","system_id":"levelo_inurba_marseille","lat":43.23197,"lon":5.35544,"is_reserved":false,"is_disabled":false,"rental_uris":{"android":"levelo://app?vid=dd3db03f-0f43-4986-9ec8-2a76818fb28c","ios":"levelo://app?vid=dd3db03f-0f43-4986-9ec8-2a76818fb28c"},"vehicle_type_id":"4","last_reported":1743505711,"current_range_meters":16000,"station_id":"ce4bhu92rcd13ifvqi70","pricing_plan_id":"cebpf4jnsgd1na2vs0mg"},{"bike_id":"136f65e9-6d68-4bdf-bad4-a92eacc642be","system_id":"levelo_inurba_marseille","lat":43.30863,"lon":5.37784,"is_reserved":false,"is_disabled":false,"rental_uris":{"android":"levelo://app?vid=136f65e9-6d68-4bdf-bad4-a92eacc642be","ios":"levelo://app?vid=136f65e9-6d68-4bdf-bad4-a92eacc642be"},"vehicle_type_id":"4","last_reported":1743505711,"current_range_meters":16000,"station_id":"","pricing_plan_id":"cebpf4jnsgd1na2vs0mg"},{"bike_id":"d20bc298-c3c5-42bd-bba1-94634d8eb416","system_id":"levelo_inurba_marseille","lat":43.30136,"lon":5.39868,"is_reserved":false,"is_disabled":false,"rental_uris":{"android":"levelo://app?vid=d20bc298-c3c5-42bd-bba1-94634d8eb416","ios":"levelo://app?vid=d20bc298-c3c5-42bd-bba1-94634d8eb416"},"vehicle_type_id":"4","last_reported":1743505711,"current_range_meters":16000,"station_id":"ce4bh0h2rcd13ifvqd40","pricing_plan_id":"cebpf4jnsgd1na2vs0mg"},{"bike_id":"dd8eb8ef-4e76-4e50-a068-19aab2791b35","system_id":"levelo_inurba_marseille","lat":43.30527,"lon":5.36512,"is_reserved":false,"is_disabled":false,"rental_uris":{"android":"levelo://app?vid=dd8eb8ef-4e76-4e50-a068-19aab2791b35","ios":"levelo://app?vid=dd8eb8ef-4e76-4e50-a068-19aab2791b35"},"vehicle_type_id":"4","last_reported":1743505711,"current_range_meters":16400,"station_id":"","pricing_plan_id":"cebpf4jnsgd1na2vs0mg"},{"bike_id":"d3eb3645-1f53-4dae-a759-de22d6298970","system_id":"levelo_inurba_marseille","lat":43.26944,"lon":5.389,"is_reserved":false,"is_disabled":false,"rental_uris":{"android":"levelo://app?vid=d3eb3645-1f53-4dae-a759-de22d6298970","ios":"levelo://app?vid=d3eb3645-1f53-4dae-a759-de22d6298970"},"vehicle_type_id":"4","last_reported":1743505711,"current_range_meters":16400,"station_id":"ce4bhhh2rcd13ifvqfl0","pricing_plan_id":"cebpf4jnsgd1na2vs0mg"},{"bike_id":"a3059ef0-b8c6-41d2-b74d-02e9af9b71c5","system_id":"levelo_inurba_marseille","lat":43.24075,"lon":5.37758,"is_reserved":false,"is_disabled":false,"rental_uris":{"android":"levelo://app?vid=a3059ef0-b8c6-41d2-b74d-02e9af9b71c5","ios":"levelo://app?vid=a3059ef0-b8c6-41d2-b74d-02e9af9b71c5"},"vehicle_type_id":"4","last_reported":1743505711,"current_range_meters":16400,"station_id":"ce4bhnp2rcd13ifvqgvg","pricing_plan_id":"cebpf4jnsgd1na2vs0mg"},{"bike_id":"1abf9a9d-6d92-4d26-857a-6cff81e27e85","system_id":"levelo_inurba_marseille","lat":43.29558,"lon":5.42288,"is_reserved":false,"is_disabled":false,"rental_uris":{"android":"levelo://app?vid=1abf9a9d-6d92-4d26-857a-6cff81e27e85","ios":"levelo://app?vid=1abf9a9d-6d92-4d26-857a-6cff81e27e85"},"vehicle_type_id":"4","last_reported":1743505711,"current_range_meters":16400,"station_id":"ce4bhph2rcd13ifvqhdg","pricing_plan_id":"cebpf4jnsgd1na2vs0mg"},{"bike_id":"9c7a1ab9-daab-4306-97a4-291a15ea2e78","system_id":"levelo_inurba_marseille","lat":43.23967,"lon":5.36621,"is_reserved":false,"is_disabled":false,"rental_uris":{"android":"levelo://app?vid=9c7a1ab9-daab-4306-97a4-291a15ea2e78","ios":"levelo://app?vid=9c7a1ab9-daab-4306-97a4-291a15ea2e78"},"vehicle_type_id":"4","last_reported":1743505711,"current_range_meters":16400,"station_id":"ce4bhi12rcd13ifvqfp0","pricing_plan_id":"cebpf4jnsgd1na2vs0mg"},{"bike_id":"81e93408-d1b5-49b5-a6a2-5149cc857246","system_id":"levelo_inurba_marseille","lat":43.248877,"lon":5.37521,"is_reserved":false,"is_disabled":false,"rental_uris":{"android":"levelo://app?vid=81e93408-d1b5-49b5-a6a2-5149cc857246","ios":"levelo://app?vid=81e93408-d1b5-49b5-a6a2-5149cc857246"},"vehicle_type_id":"4","last_reported":1743505711,"current_range_meters":16400,"station_id":"ce4bhnp2rcd13ifvqgvg","pricing_plan_id":"cebpf4jnsgd1na2vs0mg"},{"bike_id":"75dae32f-059a-4b5b-a5e8-963c6eda2f66","system_id":"levelo_inurba_marseille","lat":43.27506,"lon":5.41088,"is_reserved":false,"is_disabled":false,"rental_uris":{"android":"levelo://app?vid=75dae32f-059a-4b5b-a5e8-963c6eda2f66","ios":"levelo://app?vid=75dae32f-059a-4b5b-a5e8-963c6eda2f66"},"vehicle_type_id":"4","last_reported":1743505711,"current_range_meters":16400,"station_id":"","pricing_plan_id":"cebpf4jnsgd1na2vs0mg"},{"bike_id":"71da8d53-2a4c-47bc-a174-8d4710aa1c90","system_id":"levelo_inurba_marseille","lat":43.30183,"lon":5.38064,"is_reserved":false,"is_disabled":false,"rental_uris":{"android":"levelo://app?vid=71da8d53-2a4c-47bc-a174-8d4710aa1c90","ios":"levelo://app?vid=71da8d53-2a4c-47bc-a174-8d4710aa1c90"},"vehicle_type_id":"4","last_reported":1743505711,"current_range_meters":16400,"station_id":"","pricing_plan_id":"cebpf4jnsgd1na2vs0mg"},{"bike_id":"475345c0-5fc9-4583-8b3c-e6b2970bcc53","system_id":"levelo_inurba_marseille","lat":43.29394,"lon":5.3787,"is_reserved":false,"is_disabled":false,"rental_uris":{"android":"levelo://app?vid=475345c0-5fc9-4583-8b3c-e6b2970bcc53","ios":"levelo://app?vid=475345c0-5fc9-4583-8b3c-e6b2970bcc53"},"vehicle_type_id":"4","last_reported":1743505711,"current_range_meters":16800,"station_id":"ce4bgjh2rcd13ifvqbf0","pricing_plan_id":"cebpf4jnsgd1na2vs0mg"},{"bike_id":"7be06644-e888-41f2-9c08-173a9a3965bc","system_id":"levelo_inurba_marseille","lat":43.23191,"lon":5.40005,"is_reserved":false,"is_disabled":false,"rental_uris":{"android":"levelo://app?vid=7be06644-e888-41f2-9c08-173a9a3965bc","ios":"levelo://app?vid=7be06644-e888-41f2-9c08-173a9a3965bc"},"vehicle_type_id":"4","last_reported":1743505711,"current_range_meters":16800,"station_id":"ce4bhn12rcd13ifvqgqg","pricing_plan_id":"cebpf4jnsgd1na2vs0mg"},{"bike_id":"f55695a6-b65f-4a30-99ab-94b2bfa63268","system_id":"levelo_inurba_marseille","lat":43.23202,"lon":5.3554,"is_reserved":false,"is_disabled":false,"rental_uris":{"android":"levelo://app?vid=f55695a6-b65f-4a30-99ab-94b2bfa63268","ios":"levelo://app?vid=f55695a6-b65f-4a30-99ab-94b2bfa63268"},"vehicle_type_id":"4","last_reported":1743505711,"current_range_meters":16800,"station_id":"ce4bhu92rcd13ifvqi70","pricing_plan_id":"cebpf4jnsgd1na2vs0mg"},{"bike_id":"20e37ee5-4144-46f6-ae82-ff86e3144909","system_id":"levelo_inurba_marseille","lat":43.30554,"lon":5.36678,"is_reserved":false,"is_disabled":false,"rental_uris":{"android":"levelo://app?vid=20e37ee5-4144-46f6-ae82-ff86e3144909","ios":"levelo://app?vid=20e37ee5-4144-46f6-ae82-ff86e3144909"},"vehicle_type_id":"4","last_reported":1743505711,"current_range_meters":16800,"station_id":"ce4bgrp2rcd13ifvqc9g","pricing_plan_id":"cebpf4jnsgd1na2vs0mg"},{"bike_id":"1ba2a7e0-6b41-4d40-803b-c13029200ae9","system_id":"levelo_inurba_marseille","lat":43.24075,"lon":5.37758,"is_reserved":false,"is_disabled":false,"rental_uris":{"android":"levelo://app?vid=1ba2a7e0-6b41-4d40-803b-c13029200ae9","ios":"levelo://app?vid=1ba2a7e0-6b41-4d40-803b-c13029200ae9"},"vehicle_type_id":"4","last_reported":1743505711,"current_range_meters":16800,"station_id":"ce4bhnp2rcd13ifvqgvg","pricing_plan_id":"cebpf4jnsgd1na2vs0mg"},{"bike_id":"1483eccc-604e-4069-b5d9-59cd1d186816","system_id":"levelo_inurba_marseille","lat":43.25116,"lon":5.4033,"is_reserved":false,"is_disabled":false,"rental_uris":{"android":"levelo://app?vid=1483eccc-604e-4069-b5d9-59cd1d186816","ios":"levelo://app?vid=1483eccc-604e-4069-b5d9-59cd1d186816"},"vehicle_type_id":"4","last_reported":1743505711,"current_range_meters":16800,"station_id":"ce4bhlh2rcd13ifvqgig","pricing_plan_id":"cebpf4jnsgd1na2vs0mg"},{"bike_id":"63f15d78-52b9-4fdb-b91d-1a12d0e39c0c","system_id":"levelo_inurba_marseille","lat":43.23176,"lon":5.43709,"is_reserved":false,"is_disabled":false,"rental_uris":{"android":"levelo://app?vid=63f15d78-52b9-4fdb-b91d-1a12d0e39c0c","ios":"levelo://app?vid=63f15d78-52b9-4fdb-b91d-1a12d0e39c0c"},"vehicle_type_id":"4","last_reported":1743505711,"current_range_meters":16800,"station_id":"ce4bhmp2rcd13ifvqgog","pricing_plan_id":"cebpf4jnsgd1na2vs0mg"},{"bike_id":"03d3c214-7c1b-4aa5-bd69-9c204b606006","system_id":"levelo_inurba_marseille","lat":43.28491,"lon":5.3841,"is_reserved":false,"is_disabled":false,"rental_uris":{"android":"levelo://app?vid=03d3c214-7c1b-4aa5-bd69-9c204b606006","ios":"levelo://app?vid=03d3c214-7c1b-4aa5-bd69-9c204b606006"},"vehicle_type_id":"4","last_reported":1743505711,"current_range_meters":16800,"station_id":"ce4bh512rcd13ifvqe3g","pricing_plan_id":"cebpf4jnsgd1na2vs0mg"},{"bike_id":"f243ee3c-9b98-451a-9f48-7ec3e30e2cbf","system_id":"levelo_inurba_marseille","lat":43.27908,"lon":5.39592,"is_reserved":false,"is_disabled":false,"rental_uris":{"android":"levelo://app?vid=f243ee3c-9b98-451a-9f48-7ec3e30e2cbf","ios":"levelo://app?vid=f243ee3c-9b98-451a-9f48-7ec3e30e2cbf"},"vehicle_type_id":"4","last_reported":1743505711,"current_range_meters":17200,"station_id":"ce4bhf92rcd13ifvqf40","pricing_plan_id":"cebpf4jnsgd1na2vs0mg"},{"bike_id":"c5324fb2-f9c1-4b37-ab0d-bc60b66aa6e9","system_id":"levelo_inurba_marseille","lat":43.29006,"lon":5.35612,"is_reserved":false,"is_disabled":false,"rental_uris":{"android":"levelo://app?vid=c5324fb2-f9c1-4b37-ab0d-bc60b66aa6e9","ios":"levelo://app?vid=c5324fb2-f9c1-4b37-ab0d-bc60b66aa6e9"},"vehicle_type_id":"4","last_reported":1743505711,"current_range_meters":17200,"station_id":"ce4bhb92rcd13ifvqen0","pricing_plan_id":"cebpf4jnsgd1na2vs0mg"},{"bike_id":"7b869cea-1d61-42d2-b04b-29df5bd7497f","system_id":"levelo_inurba_marseille","lat":43.32105,"lon":5.36779,"is_reserved":false,"is_disabled":false,"rental_uris":{"android":"levelo://app?vid=7b869cea-1d61-42d2-b04b-29df5bd7497f","ios":"levelo://app?vid=7b869cea-1d61-42d2-b04b-29df5bd7497f"},"vehicle_type_id":"4","last_reported":1743505711,"current_range_meters":17200,"station_id":"ce4bhrh2rcd13ifvqhug","pricing_plan_id":"cebpf4jnsgd1na2vs0mg"},{"bike_id":"d157a8ac-f1ea-480a-a1ee-9ac00962bb01","system_id":"levelo_inurba_marseille","lat":43.295494,"lon":5.423026,"is_reserved":false,"is_disabled":false,"rental_uris":{"android":"levelo://app?vid=d157a8ac-f1ea-480a-a1ee-9ac00962bb01","ios":"levelo://app?vid=d157a8ac-f1ea-480a-a1ee-9ac00962bb01"},"vehicle_type_id":"4","last_reported":1743505711,"current_range_meters":17200,"station_id":"ce4bhph2rcd13ifvqhdg","pricing_plan_id":"cebpf4jnsgd1na2vs0mg"},{"bike_id":"31f04408-1e99-445b-820e-14607a13eafc","system_id":"levelo_inurba_marseille","lat":43.31996,"lon":5.38135,"is_reserved":false,"is_disabled":false,"rental_uris":{"android":"levelo://app?vid=31f04408-1e99-445b-820e-14607a13eafc","ios":"levelo://app?vid=31f04408-1e99-445b-820e-14607a13eafc"},"vehicle_type_id":"4","last_reported":1743505711,"current_range_meters":17200,"station_id":"ce4bhr12rcd13ifvqhpg","pricing_plan_id":"cebpf4jnsgd1na2vs0mg"},{"bike_id":"8418c395-22f6-4231-89fa-5748ef3b2402","system_id":"levelo_inurba_marseille","lat":43.24074,"lon":5.3775,"is_reserved":false,"is_disabled":false,"rental_uris":{"android":"levelo://app?vid=8418c395-22f6-4231-89fa-5748ef3b2402","ios":"levelo://app?vid=8418c395-22f6-4231-89fa-5748ef3b2402"},"vehicle_type_id":"4","last_reported":1743505711,"current_range_meters":17200,"station_id":"ce4bhnp2rcd13ifvqgvg","pricing_plan_id":"cebpf4jnsgd1na2vs0mg"},{"bike_id":"2f271373-464a-4c05-805d-d6d1674d9c31","system_id":"levelo_inurba_marseille","lat":43.30326,"lon":5.40435,"is_reserved":false,"is_disabled":false,"rental_uris":{"android":"levelo://app?vid=2f271373-464a-4c05-805d-d6d1674d9c31","ios":"levelo://app?vid=2f271373-464a-4c05-805d-d6d1674d9c31"},"vehicle_type_id":"4","last_reported":1743505711,"current_range_meters":17200,"station_id":"ce4bh012rcd13ifvqd10","pricing_plan_id":"cebpf4jnsgd1na2vs0mg"},{"bike_id":"26dc95b4-f72c-4ae5-8d75-dd27438fff6b","system_id":"levelo_inurba_marseille","lat":43.30505,"lon":5.3653,"is_reserved":false,"is_disabled":false,"rental_uris":{"android":"levelo://app?vid=26dc95b4-f72c-4ae5-8d75-dd27438fff6b","ios":"levelo://app?vid=26dc95b4-f72c-4ae5-8d75-dd27438fff6b"},"vehicle_type_id":"4","last_reported":1743505711,"current_range_meters":17200,"station_id":"ce4bgs12rcd13ifvqcag","pricing_plan_id":"cebpf4jnsgd1na2vs0mg"},{"bike_id":"3eb82948-f003-4f17-8d20-1a8714e2fd0b","system_id":"levelo_inurba_marseille","lat":43.30952,"lon":5.39041,"is_reserved":false,"is_disabled":false,"rental_uris":{"android":"levelo://app?vid=3eb82948-f003-4f17-8d20-1a8714e2fd0b","ios":"levelo://app?vid=3eb82948-f003-4f17-8d20-1a8714e2fd0b"},"vehicle_type_id":"4","last_reported":1743505711,"current_range_meters":17600,"station_id":"ce4bgup2rcd13ifvqco0","pricing_plan_id":"cebpf4jnsgd1na2vs0mg"},{"bike_id":"ddfea17b-48de-411c-bdd3-e13e7fa6357d","system_id":"levelo_inurba_marseille","lat":43.308411,"lon":5.391864,"is_reserved":false,"is_disabled":false,"rental_uris":{"android":"levelo://app?vid=ddfea17b-48de-411c-bdd3-e13e7fa6357d","ios":"levelo://app?vid=ddfea17b-48de-411c-bdd3-e13e7fa6357d"},"vehicle_type_id":"4","last_reported":1743505711,"current_range_meters":17600,"station_id":"ce4bhb12rcd13ifvqem0","pricing_plan_id":"cebpf4jnsgd1na2vs0mg"},{"bike_id":"1a346cc6-dc71-4bf1-9b80-dea4b47b07ad","system_id":"levelo_inurba_marseille","lat":43.27665,"lon":5.3895,"is_reserved":false,"is_disabled":true,"rental_uris":{"android":"levelo://app?vid=1a346cc6-dc71-4bf1-9b80-dea4b47b07ad","ios":"levelo://app?vid=1a346cc6-dc71-4bf1-9b80-dea4b47b07ad"},"vehicle_type_id":"4","last_reported":1743505711,"current_range_meters":17600,"station_id":"ce4bhi12rcd13ifvqfo0","pricing_plan_id":"cebpf4jnsgd1na2vs0mg"},{"bike_id":"22dcb4cc-3999-4a45-96b1-8cfe87ac7091","system_id":"levelo_inurba_marseille","lat":43.24081,"lon":5.37761,"is_reserved":false,"is_disabled":false,"rental_uris":{"android":"levelo://app?vid=22dcb4cc-3999-4a45-96b1-8cfe87ac7091","ios":"levelo://app?vid=22dcb4cc-3999-4a45-96b1-8cfe87ac7091"},"vehicle_type_id":"4","last_reported":1743505711,"current_range_meters":17600,"station_id":"ce4bhnp2rcd13ifvqgvg","pricing_plan_id":"cebpf4jnsgd1na2vs0mg"},{"bike_id":"7d215298-80e9-40f7-a72a-24394633657b","system_id":"levelo_inurba_marseille","lat":43.31755,"lon":5.39014,"is_reserved":false,"is_disabled":false,"rental_uris":{"android":"levelo://app?vid=7d215298-80e9-40f7-a72a-24394633657b","ios":"levelo://app?vid=7d215298-80e9-40f7-a72a-24394633657b"},"vehicle_type_id":"4","last_reported":1743505711,"current_range_meters":17600,"station_id":"ce4bhqp2rcd13ifvqhng","pricing_plan_id":"cebpf4jnsgd1na2vs0mg"},{"bike_id":"5a05e4fe-a609-4ff6-a565-e4f5b9d0da3c","system_id":"levelo_inurba_marseille","lat":43.30152,"lon":5.38094,"is_reserved":false,"is_disabled":false,"rental_uris":{"android":"levelo://app?vid=5a05e4fe-a609-4ff6-a565-e4f5b9d0da3c","ios":"levelo://app?vid=5a05e4fe-a609-4ff6-a565-e4f5b9d0da3c"},"vehicle_type_id":"4","last_reported":1743505711,"current_range_meters":17600,"station_id":"ce4bgjp2rcd13ifvqbh0","pricing_plan_id":"cebpf4jnsgd1na2vs0mg"},{"bike_id":"e740a6c7-9234-4d31-a10c-eeb31ac9eda7","system_id":"levelo_inurba_marseille","lat":43.29265,"lon":5.36851,"is_reserved":false,"is_disabled":true,"rental_uris":{"android":"levelo://app?vid=e740a6c7-9234-4d31-a10c-eeb31ac9eda7","ios":"levelo://app?vid=e740a6c7-9234-4d31-a10c-eeb31ac9eda7"},"vehicle_type_id":"4","last_reported":1743505711,"current_range_meters":17600,"station_id":"ce4bhbp2rcd13ifvqesg","pricing_plan_id":"cebpf4jnsgd1na2vs0mg"},{"bike_id":"ceef572f-2352-4a9a-b1f6-f469b7a9ca55","system_id":"levelo_inurba_marseille","lat":43.30549,"lon":5.36669,"is_reserved":false,"is_disabled":false,"rental_uris":{"android":"levelo://app?vid=ceef572f-2352-4a9a-b1f6-f469b7a9ca55","ios":"levelo://app?vid=ceef572f-2352-4a9a-b1f6-f469b7a9ca55"},"vehicle_type_id":"4","last_reported":1743505711,"current_range_meters":17600,"station_id":"ce4bgrp2rcd13ifvqc9g","pricing_plan_id":"cebpf4jnsgd1na2vs0mg"},{"bike_id":"9e887a45-7e33-4a6b-b9be-3704f768ce04","system_id":"levelo_inurba_marseille","lat":43.26568,"lon":5.39006,"is_reserved":false,"is_disabled":false,"rental_uris":{"android":"levelo://app?vid=9e887a45-7e33-4a6b-b9be-3704f768ce04","ios":"levelo://app?vid=9e887a45-7e33-4a6b-b9be-3704f768ce04"},"vehicle_type_id":"4","last_reported":1743505711,"current_range_meters":17600,"station_id":"ce4bhe12rcd13ifvqf30","pricing_plan_id":"cebpf4jnsgd1na2vs0mg"},{"bike_id":"097770f9-71b7-4544-83f6-131195647ab6","system_id":"levelo_inurba_marseille","lat":43.27937,"lon":5.38698,"is_reserved":false,"is_disabled":true,"rental_uris":{"android":"levelo://app?vid=097770f9-71b7-4544-83f6-131195647ab6","ios":"levelo://app?vid=097770f9-71b7-4544-83f6-131195647ab6"},"vehicle_type_id":"4","last_reported":1743505711,"current_range_meters":18000,"station_id":"","pricing_plan_id":"cebpf4jnsgd1na2vs0mg"},{"bike_id":"3d131110-b9f0-43e6-b7b6-bfdba937d866","system_id":"levelo_inurba_marseille","lat":43.23147,"lon":5.43711,"is_reserved":false,"is_disabled":false,"rental_uris":{"android":"levelo://app?vid=3d131110-b9f0-43e6-b7b6-bfdba937d866","ios":"levelo://app?vid=3d131110-b9f0-43e6-b7b6-bfdba937d866"},"vehicle_type_id":"4","last_reported":1743505711,"current_range_meters":18000,"station_id":"ce4bhmp2rcd13ifvqgog","pricing_plan_id":"cebpf4jnsgd1na2vs0mg"},{"bike_id":"86580043-799c-4fe1-b421-a90d30306c97","system_id":"levelo_inurba_marseille","lat":43.31065,"lon":5.38349,"is_reserved":false,"is_disabled":false,"rental_uris":{"android":"levelo://app?vid=86580043-799c-4fe1-b421-a90d30306c97","ios":"levelo://app?vid=86580043-799c-4fe1-b421-a90d30306c97"},