{"last_updated":1720976962,"ttl":30,"version":"2.2","data":{"bikes":[{"bike_id":"196b1997-2387-49e5-a36e-adbb3368356d","system_id":"levelo_inurba_marseille","lat":43.312239,"lon":5.368562,"is_reserved":false,"is_disabled":false,"rental_uris":{"android":"levelo://app?vid=196b1997-2387-49e5-a36e-adbb3368356d","ios":"levelo://app?vid=196b1997-2387-49e5-a36e-adbb3368356d"},"vehicle_type_id":"4","last_reported":1720976962,"current_range_meters":24800,"station_id":"ce4bgl92rcd13ifvqbq0","pricing_plan_id":"cebpf4jnsgd1na2vs0mg"},{"bike_id":"e42a937e-5c19-4619-9e0e-30f074f44ad0","system_id":"levelo_inurba_marseille","lat":43.309076,"lon":5.368465,"is_reserved":false,"is_disabled":false,"rental_uris":{"android":"levelo://app?vid=e42a937e-5c19-4619-9e0e-30f074f44ad0","ios":"levelo://app?vid=e42a937e-5c19-4619-9e0e-30f074f44ad0"},"vehicle_type_id":"4","last_reported":1720976962,"current_range_meters":27600,"station_id":"ce4bgn92rcd13ifvqbvg","pricing_plan_id":"cebpf4jnsgd1na2vs0mg"},{"bike_id":"4e4b043e-f812-4e5a-86c7-f868a194d415","system_id":"levelo_inurba_marseille","lat":43.309069,"lon":5.368412,"is_reserved":false,"is_disabled":false,"rental_uris":{"android":"levelo://app?vid=4e4b043e-f812-4e5a-86c7-f868a194d415","ios":"levelo://app?vid=4e4b043e-f812-4e5a-86c7-f868a194d415"},"vehicle_type_id":"4","last_reported":1720976962,"current_range_meters":30000,"station_id":"","pricing_plan_id":"cebpf4jnsgd1na2vs0mg"},{"bike_id":"7cde1fb3-95ba-498e-8323-6867d8730ceb","system_id":"levelo_inurba_marseille","lat":43.31524,"lon":5.3725,"is_reserved":false,"is_disabled":false,"rental_uris":{"android":"levelo://app?vid=7cde1fb3-95ba-498e-8323-6867d8730ceb","ios":"levelo://app?vid=7cde1fb3-95ba-498e-8323-6867d8730ceb"},"vehicle_type_id":"4","last_reported":1720976962,"current_range_meters":6400,"station_id":"","pricing_plan_id":"cebpf4jnsgd1na2vs0mg"},{"bike_id":"c569701d-554a-4004-8a58-2b77ffcb81c8","system_id":"levelo_inurba_marseille","lat":43.31486,"lon":5.37307,"is_reserved":false,"is_disabled":false,"rental_uris":{"android":"levelo://app?vid=c569701d-554a-4004-8a58-2b77ffcb81c8","ios":"levelo://app?vid=c569701d-554a-4004-8a58-2b77ffcb81c8"},"vehicle_type_id":"4","last_reported":1720976962,"current_range_meters":29600,"station_id":"ce4bgt12rcd13ifvqcd0","pricing_plan_id":"cebpf4jnsgd1na2vs0mg"},{"bike_id":"3ec2f6d4-a6e4-4aa4-9407-2730438c4a0f","system_id":"levelo_inurba_marseille","lat":43.30887,"lon":5.37193,"is_reserved":false,"is_disabled":false,"rental_uris":{"android":"levelo://app?vid=3ec2f6d4-a6e4-4aa4-9407-2730438c4a0f","ios":"levelo://app?vid=3ec2f6d4-a6e4-4aa4-9407-2730438c4a0f"},"vehicle_type_id":"4","last_reported":1720976962,"current_range_meters":2000,"station_id":"","pricing_plan_id":"cebpf4jnsgd1na2vs0mg"},{"bike_id":"3bdfb30e-76c6-40ed-9e8c-400eaec51f24","system_id":"levelo_inurba_marseille","lat":43.30546,"lon":5.36695,"is_reserved":false,"is_disabled":false,"rental_uris":{"android":"levelo://app?vid=3bdfb30e-76c6-40ed-9e8c-400eaec51f24","ios":"levelo://app?vid=3bdfb30e-76c6-40ed-9e8c-400eaec51f24"},"vehicle_type_id":"4","last_reported":1720976962,"current_range_meters":0,"station_id":"ce4bgrp2rcd13ifvqc9g","pricing_plan_id":"cebpf4jnsgd1na2vs0mg"},{"bike_id":"3db45f87-ff33-4fc5-ab02-b842760d3444","system_id":"levelo_inurba_marseille","lat":43.305714,"lon":5.365633,"is_reserved":false,"is_disabled":false,"rental_uris":{"android":"levelo://app?vid=3db45f87-ff33-4fc5-ab02-b842760d3444","ios":"levelo://app?vid=3db45f87-ff33-4fc5-ab02-b842760d3444"},"vehicle_type_id":"4","last_reported":1720976962,"current_range_meters":16400,"station_id":"ce4bgs12rcd13ifvqcag","pricing_plan_id":"cebpf4jnsgd1na2vs0mg"},{"bike_id":"d5004a24-b127-4502-a319-19bef4219960","system_id":"levelo_inurba_marseille","lat":43.305989,"lon":5.37225,"is_reserved":false,"is_disabled":false,"rental_uris":{"android":"levelo://app?vid=d5004a24-b127-4502-a319-19bef4219960","ios":"levelo://app?vid=d5004a24-b127-4502-a319-19bef4219960"},"vehicle_type_id":"4","last_reported":1720976962,"current_range_meters":0,"station_id":"ce4bgqh2rcd13ifvqc4g","pricing_plan_id":"cebpf4jnsgd1na2vs0mg"},{"bike_id":"82794076-bc24-49d7-bcf6-4165ca155cee","system_id":"levelo_inurba_marseille","lat":43.31186,"lon":5.37757,"is_reserved":false,"is_disabled":false,"rental_uris":{"android":"levelo://app?vid=82794076-bc24-49d7-bcf6-4165ca155cee","ios":"levelo://app?vid=82794076-bc24-49d7-bcf6-4165ca155cee"},"vehicle_type_id":"4","last_reported":1720976962,"current_range_meters":22400,"station_id":"","pricing_plan_id":"cebpf4jnsgd1na2vs0mg"},{"bike_id":"e9ec88d5-d6c5-45b0-83c8-a175e6b270c2","system_id":"levelo_inurba_marseille","lat":43.30784,"lon":5.3765,"is_reserved":false,"is_disabled":false,"rental_uris":{"android":"levelo://app?vid=e9ec88d5-d6c5-45b0-83c8-a175e6b270c2","ios":"levelo://app?vid=e9ec88d5-d6c5-45b0-83c8-a175e6b270c2"},"vehicle_type_id":"4","last_reported":1720976962,"current_range_meters":0,"station_id":"","pricing_plan_id":"cebpf4jnsgd1na2vs0mg"},{"bike_id":"25476a18-e336-4328-9deb-9af882bdcfc0","system_id":"levelo_inurba_marseille","lat":43.30304,"lon":5.368987,"is_reserved":false,"is_disabled":false,"rental_uris":{"android":"levelo://app?vid=25476a18-e336-4328-9deb-9af882bdcfc0","ios":"levelo://app?vid=25476a18-e336-4328-9deb-9af882bdcfc0"},"vehicle_type_id":"4","last_reported":1720976962,"current_range_meters":400,"station_id":"ce4bgqh2rcd13ifvqc5g","pricing_plan_id":"cebpf4jnsgd1na2vs0mg"},{"bike_id":"2b4da476-2e26-40be-9aee-5dbf144bd864","system_id":"levelo_inurba_marseille","lat":43.31433,"lon":5.38167,"is_reserved":false,"is_disabled":false,"rental_uris":{"android":"levelo://app?vid=2b4da476-2e26-40be-9aee-5dbf144bd864","ios":"levelo://app?vid=2b4da476-2e26-40be-9aee-5dbf144bd864"},"vehicle_type_id":"4","last_reported":1720976962,"current_range_meters":10000,"station_id":"","pricing_plan_id":"cebpf4jnsgd1na2vs0mg"},{"bike_id":"45e1ba58-c084-45de-8509-c3a9c352616b","system_id":"levelo_inurba_marseille","lat":43.32291,"lon":5.37441,"is_reserved":false,"is_disabled":false,"rental_uris":{"android":"levelo://app?vid=45e1ba58-c084-45de-8509-c3a9c352616b","ios":"levelo://app?vid=45e1ba58-c084-45de-8509-c3a9c352616b"},"vehicle_type_id":"4","last_reported":1720976962,"current_range_meters":4800,"station_id":"","pricing_plan_id":"cebpf4jnsgd1na2vs0mg"},{"bike_id":"c2b57955-2010-427c-9cd9-2f8cde36f9c7","system_id":"levelo_inurba_marseille","lat":43.308,"lon":5.381513,"is_reserved":false,"is_disabled":false,"rental_uris":{"android":"levelo://app?vid=c2b57955-2010-427c-9cd9-2f8cde36f9c7","ios":"levelo://app?vid=c2b57955-2010-427c-9cd9-2f8cde36f9c7"},"vehicle_type_id":"4","last_reported":1720976962,"current_range_meters":0,"station_id":"ce4bgt12rcd13ifvqce0","pricing_plan_id":"cebpf4jnsgd1na2vs0mg"},{"bike_id":"d0a5141c-8895-42f5-8d14-e1ca417afeb5","system_id":"levelo_inurba_marseille","lat":43.30469,"lon":5.37896,"is_reserved":false,"is_disabled":false,"rental_uris":{"android":"levelo://app?vid=d0a5141c-8895-42f5-8d14-e1ca417afeb5","ios":"levelo://app?vid=d0a5141c-8895-42f5-8d14-e1ca417afeb5"},"vehicle_type_id":"4","last_reported":1720976962,"current_range_meters":0,"station_id":"ce4bgup2rcd13ifvqcn0","pricing_plan_id":"cebpf4jnsgd1na2vs0mg"},{"bike_id":"6e215cb1-285a-4868-ba02-2322250a771e","system_id":"levelo_inurba_marseille","lat":43.3046,"lon":5.37899,"is_reserved":false,"is_disabled":false,"rental_uris":{"android":"levelo://app?vid=6e215cb1-285a-4868-ba02-2322250a771e","ios":"levelo://app?vid=6e215cb1-285a-4868-ba02-2322250a771e"},"vehicle_type_id":"4","last_reported":1720976962,"current_range_meters":0,"station_id":"ce4bgup2rcd13ifvqcn0","pricing_plan_id":"cebpf4jnsgd1na2vs0mg"},{"bike_id":"7e73aa4c-ea94-4d4e-ba2d-81421c5f4cb3","system_id":"levelo_inurba_marseille","lat":43.32479,"lon":5.36567,"is_reserved":false,"is_disabled":false,"rental_uris":{"android":"levelo://app?vid=7e73aa4c-ea94-4d4e-ba2d-81421c5f4cb3","ios":"levelo://app?vid=7e73aa4c-ea94-4d4e-ba2d-81421c5f4cb3"},"vehicle_type_id":"4","last_reported":1720976962,"current_range_meters":18400,"station_id":"","pricing_plan_id":"cebpf4jnsgd1na2vs0mg"},{"bike_id":"7127fdf3-3b0c-4a6c-9985-a4938b0530b2","system_id":"levelo_inurba_marseille","lat":43.324771,"lon":5.36557,"is_reserved":false,"is_disabled":false,"rental_uris":{"android":"levelo://app?vid=7127fdf3-3b0c-4a6c-9985-a4938b0530b2","ios":"levelo://app?vid=7127fdf3-3b0c-4a6c-9985-a4938b0530b2"},"vehicle_type_id":"4","last_reported":1720976962,"current_range_meters":13200,"station_id":"ce4bhs12rcd13ifvqhvg","pricing_plan_id":"cebpf4jnsgd1na2vs0mg"},{"bike_id":"65c1a5b7-d664-4cb6-bfef-2a48f5ef827e","system_id":"levelo_inurba_marseille","lat":43.324771,"lon":5.36557,"is_reserved":false,"is_disabled":false,"rental_uris":{"android":"levelo://app?vid=65c1a5b7-d664-4cb6-bfef-2a48f5ef827e","ios":"levelo://app?vid=65c1a5b7-d664-4cb6-bfef-2a48f5ef827e"},"vehicle_type_id":"4","last_reported":1720976962,"current_range_meters":2000,"station_id":"ce4bhs12rcd13ifvqhvg","pricing_plan_id":"cebpf4jnsgd1na2vs0mg"},{"bike_id":"b6f42a4c-7278-4e38-baf1-330ef58e4ae3","system_id":"levelo_inurba_marseille","lat":43.32484,"lon":5.36568,"is_reserved":false,"is_disabled":false,"rental_uris":{"android":"levelo://app?vid=b6f42a4c-7278-4e38-baf1-330ef58e4ae3","ios":"levelo://app?vid=b6f42a4c-7278-4e38-baf1-330ef58e4ae3"},"vehicle_type_id":"4","last_reported":1720976962,"current_range_meters":0,"station_id":"ce4bhs12rcd13ifvqhvg","pricing_plan_id":"cebpf4jnsgd1na2vs0mg"},{"bike_id":"ee2768ad-ae38-4fef-9080-5ca893044115","system_id":"levelo_inurba_marseille","lat":43.310804,"lon":5.38359,"is_reserved":false,"is_disabled":false,"rental_uris":{"android":"levelo://app?vid=ee2768ad-ae38-4fef-9080-5ca893044115","ios":"levelo://app?vid=ee2768ad-ae38-4fef-9080-5ca893044115"},"vehicle_type_id":"4","last_reported":1720976962,"current_range_meters":1600,"station_id":"ce4bgv92rcd13ifvqcr0","pricing_plan_id":"cebpf4jnsgd1na2vs0mg"},{"bike_id":"5afd8307-6c8c-46a7-9f55-521ef848c601","system_id":"levelo_inurba_marseille","lat":43.302784,"lon":5.377158,"is_reserved":false,"is_disabled":false,"rental_uris":{"android":"levelo://app?vid=5afd8307-6c8c-46a7-9f55-521ef848c601","ios":"levelo://app?vid=5afd8307-6c8c-46a7-9f55-521ef848c601"},"vehicle_type_id":"4","last_reported":1720976962,"current_range_meters":2000,"station_id":"ce4bguh2rcd13ifvqcj0","pricing_plan_id":"cebpf4jnsgd1na2vs0mg"},{"bike_id":"dda3811c-3e32-4e51-ac1e-8f90a33e6dce","system_id":"levelo_inurba_marseille","lat":43.31374,"lon":5.38385,"is_reserved":false,"is_disabled":false,"rental_uris":{"android":"levelo://app?vid=dda3811c-3e32-4e51-ac1e-8f90a33e6dce","ios":"levelo://app?vid=dda3811c-3e32-4e51-ac1e-8f90a33e6dce"},"vehicle_type_id":"4","last_reported":1720976962,"current_range_meters":19200,"station_id":"","pricing_plan_id":"cebpf4jnsgd1na2vs0mg"},{"bike_id":"79dcfd96-4f05-44d6-a066-798992743286","system_id":"levelo_inurba_marseille","lat":43.30143,"lon":5.37413,"is_reserved":false,"is_disabled":false,"rental_uris":{"android":"levelo://app?vid=79dcfd96-4f05-44d6-a066-798992743286","ios":"levelo://app?vid=79dcfd96-4f05-44d6-a066-798992743286"},"vehicle_type_id":"4","last_reported":1720976962,"current_range_meters":25200,"station_id":"ce4bgs92rcd13ifvqcc0","pricing_plan_id":"cebpf4jnsgd1na2vs0mg"},{"bike_id":"a439390d-e71a-4f35-b799-e9f7453c14ea","system_id":"levelo_inurba_marseille","lat":43.302784,"lon":5.377158,"is_reserved":false,"is_disabled":false,"rental_uris":{"android":"levelo://app?vid=a439390d-e71a-4f35-b799-e9f7453c14ea","ios":"levelo://app?vid=a439390d-e71a-4f35-b799-e9f7453c14ea"},"vehicle_type_id":"4","last_reported":1720976962,"current_range_meters":0,"station_id":"ce4bguh2rcd13ifvqcj0","pricing_plan_id":"cebpf4jnsgd1na2vs0mg"},{"bike_id":"f421c68d-96af-4d4b-b3a4-8d2458482aa6","system_id":"levelo_inurba_marseille","lat":43.319935,"lon":5.381699,"is_reserved":false,"is_disabled":false,"rental_uris":{"android":"levelo://app?vid=f421c68d-96af-4d4b-b3a4-8d2458482aa6","ios":"levelo://app?vid=f421c68d-96af-4d4b-b3a4-8d2458482aa6"},"vehicle_type_id":"4","last_reported":1720976962,"current_range_meters":31200,"station_id":"ce4bhr12rcd13ifvqhpg","pricing_plan_id":"cebpf4jnsgd1na2vs0mg"},{"bike_id":"2aeccc31-f661-40ed-b417-348cdb7654b1","system_id":"levelo_inurba_marseille","lat":43.319935,"lon":5.381699,"is_reserved":false,"is_disabled":false,"rental_uris":{"android":"levelo://app?vid=2aeccc31-f661-40ed-b417-348cdb7654b1","ios":"levelo://app?vid=2aeccc31-f661-40ed-b417-348cdb7654b1"},"vehicle_type_id":"4","last_reported":1720976962,"current_range_meters":2800,"station_id":"ce4bhr12rcd13ifvqhpg","pricing_plan_id":"cebpf4jnsgd1na2vs0mg"},{"bike_id":"44ad626a-ac51-4f1d-8942-d11a28995142","system_id":"levelo_inurba_marseille","lat":43.313571,"lon":5.384829,"is_reserved":false,"is_disabled":false,"rental_uris":{"android":"levelo://app?vid=44ad626a-ac51-4f1d-8942-d11a28995142","ios":"levelo://app?vid=44ad626a-ac51-4f1d-8942-d11a28995142"},"vehicle_type_id":"4","last_reported":1720976962,"current_range_meters":1200,"station_id":"ce4bgt92rcd13ifvqcf0","pricing_plan_id":"cebpf4jnsgd1na2vs0mg"},{"bike_id":"2dde1a82-4601-4c33-bfeb-2d045fa059db","system_id":"levelo_inurba_marseille","lat":43.313571,"lon":5.384829,"is_reserved":false,"is_disabled":false,"rental_uris":{"android":"levelo://app?vid=2dde1a82-4601-4c33-bfeb-2d045fa059db","ios":"levelo://app?vid=2dde1a82-4601-4c33-bfeb-2d045fa059db"},"vehicle_type_id":"4","last_reported":1720976962,"current_range_meters":14400,"station_id":"ce4bgt92rcd13ifvqcf0","pricing_plan_id":"cebpf4jnsgd1na2vs0mg"},{"bike_id":"1e739d8f-42d2-4e45-a821-2ecf7ca2b8d2","system_id":"levelo_inurba_marseille","lat":43.313571,"lon":5.384829,"is_reserved":false,"is_disabled":false,"rental_uris":{"android":"levelo://app?vid=1e739d8f-42d2-4e45-a821-2ecf7ca2b8d2","ios":"levelo://app?vid=1e739d8f-42d2-4e45-a821-2ecf7ca2b8d2"},"vehicle_type_id":"4","last_reported":1720976962,"current_range_meters":20000,"station_id":"ce4bgt92rcd13ifvqcf0","pricing_plan_id":"cebpf4jnsgd1na2vs0mg"},{"bike_id":"e9ccc0ab-d219-4170-8b48-f3cc6d0866a4","system_id":"levelo_inurba_marseille","lat":43.313571,"lon":5.384829,"is_reserved":false,"is_disabled":false,"rental_uris":{"android":"levelo://app?vid=e9ccc0ab-d219-4170-8b48-f3cc6d0866a4","ios":"levelo://app?vid=e9ccc0ab-d219-4170-8b48-f3cc6d0866a4"},"vehicle_type_id":"4","last_reported":1720976962,"current_range_meters":1200,"station_id":"ce4bgt92rcd13ifvqcf0","pricing_plan_id":"cebpf4jnsgd1na2vs0mg"},{"bike_id":"d3a6ee41-5dac-47ef-9459-2b4a78faffaa","system_id":"levelo_inurba_marseille","lat":43.313571,"lon":5.384829,"is_reserved":false,"is_disabled":false,"rental_uris":{"android":"levelo://app?vid=d3a6ee41-5dac-47ef-9459-2b4a78faffaa","ios":"levelo://app?vid=d3a6ee41-5dac-47ef-9459-2b4a78faffaa"},"vehicle_type_id":"4","last_reported":1720976962,"current_range_meters":3200,"station_id":"ce4bgt92rcd13ifvqcf0","pricing_plan_id":"cebpf4jnsgd1na2vs0mg"},{"bike_id":"e3c2cadc-9aa2-4266-9c2f-370abafa7222","system_id":"levelo_inurba_marseille","lat":43.29986,"lon":5.37181,"is_reserved":false,"is_disabled":false,"rental_uris":{"android":"levelo://app?vid=e3c2cadc-9aa2-4266-9c2f-370abafa7222","ios":"levelo://app?vid=e3c2cadc-9aa2-4266-9c2f-370abafa7222"},"vehicle_type_id":"4","last_reported":1720976962,"current_range_meters":0,"station_id":"ce4bgr92rcd13ifvqc7g","pricing_plan_id":"cebpf4jnsgd1na2vs0mg"},{"bike_id":"627b2e18-2e63-4234-a321-5b2b78083d32","system_id":"levelo_inurba_marseille","lat":43.311722,"lon":5.387247,"is_reserved":false,"is_disabled":false,"rental_uris":{"android":"levelo://app?vid=627b2e18-2e63-4234-a321-5b2b78083d32","ios":"levelo://app?vid=627b2e18-2e63-4234-a321-5b2b78083d32"},"vehicle_type_id":"4","last_reported":1720976962,"current_range_meters":6000,"station_id":"ce4bgv12rcd13ifvqcp0","pricing_plan_id":"cebpf4jnsgd1na2vs0mg"},{"bike_id":"c2bc8ae1-f897-440b-9154-a0198223bf79","system_id":"levelo_inurba_marseille","lat":43.29787,"lon":5.37093,"is_reserved":false,"is_disabled":false,"rental_uris":{"android":"levelo://app?vid=c2bc8ae1-f897-440b-9154-a0198223bf79","ios":"levelo://app?vid=c2bc8ae1-f897-440b-9154-a0198223bf79"},"vehicle_type_id":"4","last_reported":1720976962,"current_range_meters":0,"station_id":"ce4bgop2rcd13ifvqc1g","pricing_plan_id":"cebpf4jnsgd1na2vs0mg"},{"bike_id":"a8f34c3d-065d-425e-bc87-932e8ff8a645","system_id":"levelo_inurba_marseille","lat":43.297774,"lon":5.370875,"is_reserved":false,"is_disabled":false,"rental_uris":{"android":"levelo://app?vid=a8f34c3d-065d-425e-bc87-932e8ff8a645","ios":"levelo://app?vid=a8f34c3d-065d-425e-bc87-932e8ff8a645"},"vehicle_type_id":"4","last_reported":1720976962,"current_range_meters":0,"station_id":"ce4bgop2rcd13ifvqc1g","pricing_plan_id":"cebpf4jnsgd1na2vs0mg"},{"bike_id":"729c2a8a-b899-4d67-ac44-060e04cca798","system_id":"levelo_inurba_marseille","lat":43.32291,"lon":5.38261,"is_reserved":false,"is_disabled":false,"rental_uris":{"android":"levelo://app?vid=729c2a8a-b899-4d67-ac44-060e04cca798","ios":"levelo://app?vid=729c2a8a-b899-4d67-ac44-060e04cca798"},"vehicle_type_id":"4","last_reported":1720976962,"current_range_meters":4800,"station_id":"ce4bhr12rcd13ifvqhqg","pricing_plan_id":"cebpf4jnsgd1na2vs0mg"},{"bike_id":"621a1240-dcf9-4073-bd49-41934f332358","system_id":"levelo_inurba_marseille","lat":43.32292,"lon":5.38264,"is_reserved":false,"is_disabled":false,"rental_uris":{"android":"levelo://app?vid=621a1240-dcf9-4073-bd49-41934f332358","ios":"levelo://app?vid=621a1240-dcf9-4073-bd49-41934f332358"},"vehicle_type_id":"4","last_reported":1720976962,"current_range_meters":20800,"station_id":"","pricing_plan_id":"cebpf4jnsgd1na2vs0mg"},{"bike_id":"94606d68-6c96-45d9-bcb6-dcfd4654eb75","system_id":"levelo_inurba_marseille","lat":43.322872,"lon":5.382756,"is_reserved":false,"is_disabled":false,"rental_uris":{"android":"levelo://app?vid=94606d68-6c96-45d9-bcb6-dcfd4654eb75","ios":"levelo://app?vid=94606d68-6c96-45d9-bcb6-dcfd4654eb75"},"vehicle_type_id":"4","last_reported":1720976962,"current_range_meters":24800,"station_id":"ce4bhr12rcd13ifvqhqg","pricing_plan_id":"cebpf4jnsgd1na2vs0mg"},{"bike_id":"6bb18172-a8aa-406a-9180-8a20614e578b","system_id":"levelo_inurba_marseille","lat":43.322872,"lon":5.382756,"is_reserved":false,"is_disabled":false,"rental_uris":{"android":"levelo://app?vid=6bb18172-a8aa-406a-9180-8a20614e578b","ios":"levelo://app?vid=6bb18172-a8aa-406a-9180-8a20614e578b"},"vehicle_type_id":"4","last_reported":1720976962,"current_range_meters":26800,"station_id":"ce4bhr12rcd13ifvqhqg","pricing_plan_id":"cebpf4jnsgd1na2vs0mg"},{"bike_id":"8602ab80-e982-4fc2-a111-d9fa6d9288ea","system_id":"levelo_inurba_marseille","lat":43.322872,"lon":5.382756,"is_reserved":false,"is_disabled":false,"rental_uris":{"android":"levelo://app?vid=8602ab80-e982-4fc2-a111-d9fa6d9288ea","ios":"levelo://app?vid=8602ab80-e982-4fc2-a111-d9fa6d9288ea"},"vehicle_type_id":"4","last_reported":1720976962,"current_range_meters":28400,"station_id":"ce4bhr12rcd13ifvqhqg","pricing_plan_id":"cebpf4jnsgd1na2vs0mg"},{"bike_id":"32a276b2-93b2-4b0f-8707-bab4128ae904","system_id":"levelo_inurba_marseille","lat":43.32294,"lon":5.38271,"is_reserved":false,"is_disabled":false,"rental_uris":{"android":"levelo://app?vid=32a276b2-93b2-4b0f-8707-bab4128ae904","ios":"levelo://app?vid=32a276b2-93b2-4b0f-8707-bab4128ae904"},"vehicle_type_id":"4","last_reported":1720976962,"current_range_meters":2400,"station_id":"ce4bhr12rcd13ifvqhqg","pricing_plan_id":"cebpf4jnsgd1na2vs0mg"},{"bike_id":"0f80cbdc-9e8f-4d83-8f7d-7ea9d18e67e7","system_id":"levelo_inurba_marseille","lat":43.32287,"lon":5.3828,"is_reserved":false,"is_disabled":false,"rental_uris":{"android":"levelo://app?vid=0f80cbdc-9e8f-4d83-8f7d-7ea9d18e67e7","ios":"levelo://app?vid=0f80cbdc-9e8f-4d83-8f7d-7ea9d18e67e7"},"vehicle_type_id":"4","last_reported":1720976962,"current_range_meters":0,"station_id":"ce4bhr12rcd13ifvqhqg","pricing_plan_id":"cebpf4jnsgd1na2vs0mg"},{"bike_id":"b057971a-8042-40e6-8fa6-d723893c487c","system_id":"levelo_inurba_marseille","lat":43.322872,"lon":5.382756,"is_reserved":false,"is_disabled":false,"rental_uris":{"android":"levelo://app?vid=b057971a-8042-40e6-8fa6-d723893c487c","ios":"levelo://app?vid=b057971a-8042-40e6-8fa6-d723893c487c"},"vehicle_type_id":"4","last_reported":1720976962,"current_range_meters":10000,"station_id":"ce4bhr12rcd13ifvqhqg","pricing_plan_id":"cebpf4jnsgd1na2vs0mg"},{"bike_id":"2600e06e-0370-48d0-8ab2-ceb0d09ac370","system_id":"levelo_inurba_marseille","lat":43.2968,"lon":5.37291,"is_reserved":false,"is_disabled":false,"rental_uris":{"android":"levelo://app?vid=2600e06e-0370-48d0-8ab2-ceb0d09ac370","ios":"levelo://app?vid=2600e06e-0370-48d0-8ab2-ceb0d09ac370"},"vehicle_type_id":"4","last_reported":1720976962,"current_range_meters":5600,"station_id":"ce4bgk12rcd13ifvqbj0","pricing_plan_id":"cebpf4jnsgd1na2vs0mg"},{"bike_id":"80b6cf12-31b4-4533-a802-f27bf53a1e78","system_id":"levelo_inurba_marseille","lat":43.2968,"lon":5.37291,"is_reserved":false,"is_disabled":false,"rental_uris":{"android":"levelo://app?vid=80b6cf12-31b4-4533-a802-f27bf53a1e78","ios":"levelo://app?vid=80b6cf12-31b4-4533-a802-f27bf53a1e78"},"vehicle_type_id":"4","last_reported":1720976962,"current_range_meters":0,"station_id":"ce4bgk12rcd13ifvqbj0","pricing_plan_id":"cebpf4jnsgd1na2vs0mg"},{"bike_id":"e8d91436-b4ba-4e50-b906-2f08920317e2","system_id":"levelo_inurba_marseille","lat":43.296935,"lon":5.376544,"is_reserved":false,"is_disabled":false,"rental_uris":{"android":"levelo://app?vid=e8d91436-b4ba-4e50-b906-2f08920317e2","ios":"levelo://app?vid=e8d91436-b4ba-4e50-b906-2f08920317e2"},"vehicle_type_id":"4","last_reported":1720976962,"current_range_meters":31600,"station_id":"ce4bgkh2rcd13ifvqbl0","pricing_plan_id":"cebpf4jnsgd1na2vs0mg"},{"bike_id":"62821c1a-d312-4132-a9b9-7dd1ce71a1a6","system_id":"levelo_inurba_marseille","lat":43.296921,"lon":5.376579,"is_reserved":false,"is_disabled":false,"rental_uris":{"android":"levelo://app?vid=62821c1a-d312-4132-a9b9-7dd1ce71a1a6","ios":"levelo://app?vid=62821c1a-d312-4132-a9b9-7dd1ce71a1a6"},"vehicle_type_id":"4","last_reported":1720976962,"current_range_meters":31600,"station_id":"ce4bgkh2rcd13ifvqbl0","pricing_plan_id":"cebpf4jnsgd1na2vs0mg"},{"bike_id":"f4c39955-2649-4002-8da2-b042cd47d6ed","system_id":"levelo_inurba_marseille","lat":43.309589,"lon":5.390258,"is_reserved":false,"is_disabled":false,"rental_uris":{"android":"levelo://app?vid=f4c39955-2649-4002-8da2-b042cd47d6ed","ios":"levelo://app?vid=f4c39955-2649-4002-8da2-b042cd47d6ed"},"vehicle_type_id":"4","last_reported":1720976962,"current_range_meters":0,"station_id":"ce4bgup2rcd13ifvqco0","pricing_plan_id":"cebpf4jnsgd1na2vs0mg"},{"bike_id":"2a90c664-8e17-4ef6-9ac9-e7decd31e806","system_id":"levelo_inurba_marseille","lat":43.309589,"lon":5.390258,"is_reserved":false,"is_disabled":false,"rental_uris":{"android":"levelo://app?vid=2a90c664-8e17-4ef6-9ac9-e7decd31e806","ios":"levelo://app?vid=2a90c664-8e17-4ef6-9ac9-e7decd31e806"},"vehicle_type_id":"4","last_reported":1720976962,"current_range_meters":29200,"station_id":"ce4bgup2rcd13ifvqco0","pricing_plan_id":"cebpf4jnsgd1na2vs0mg"},{"bike_id":"ba58602d-21b4-4c8b-b7df-b4bf2c326140","system_id":"levelo_inurba_marseille","lat":43.2958,"lon":5.37543,"is_reserved":false,"is_disabled":false,"rental_uris":{"android":"levelo://app?vid=ba58602d-21b4-4c8b-b7df-b4bf2c326140","ios":"levelo://app?vid=ba58602d-21b4-4c8b-b7df-b4bf2c326140"},"vehicle_type_id":"4","last_reported":1720976962,"current_range_meters":7600,"station_id":"","pricing_plan_id":"cebpf4jnsgd1na2vs0mg"},{"bike_id":"2270e8ae-adb2-4dac-a424-e0aa25daaaf4","system_id":"levelo_inurba_marseille","lat":43.2962,"lon":5.37723,"is_reserved":false,"is_disabled":false,"rental_uris":{"android":"levelo://app?vid=2270e8ae-adb2-4dac-a424-e0aa25daaaf4","ios":"levelo://app?vid=2270e8ae-adb2-4dac-a424-e0aa25daaaf4"},"vehicle_type_id":"4","last_reported":1720976962,"current_range_meters":26800,"station_id":"ce4bgi92rcd13ifvqb90","pricing_plan_id":"cebpf4jnsgd1na2vs0mg"},{"bike_id":"4c75d046-be9d-4b27-9822-d57a8cc51bf1","system_id":"levelo_inurba_marseille","lat":43.295279,"lon":5.375048,"is_reserved":false,"is_disabled":false,"rental_uris":{"android":"levelo://app?vid=4c75d046-be9d-4b27-9822-d57a8cc51bf1","ios":"levelo://app?vid=4c75d046-be9d-4b27-9822-d57a8cc51bf1"},"vehicle_type_id":"4","last_reported":1720976962,"current_range_meters":8800,"station_id":"ce4bgkp2rcd13ifvqbmg","pricing_plan_id":"cebpf4jnsgd1na2vs0mg"},{"bike_id":"c0b1449a-7145-42de-9f2e-8594ef3a3b44","system_id":"levelo_inurba_marseille","lat":43.29595,"lon":5.37716,"is_reserved":false,"is_disabled":false,"rental_uris":{"android":"levelo://app?vid=c0b1449a-7145-42de-9f2e-8594ef3a3b44","ios":"levelo://app?vid=c0b1449a-7145-42de-9f2e-8594ef3a3b44"},"vehicle_type_id":"4","last_reported":1720976962,"current_range_meters":31200,"station_id":"ce4bgi92rcd13ifvqb90","pricing_plan_id":"cebpf4jnsgd1na2vs0mg"},{"bike_id":"37ccd0fc-b7a0-4a05-a72b-6e55c49eed21","system_id":"levelo_inurba_marseille","lat":43.299707,"lon":5.384859,"is_reserved":false,"is_disabled":false,"rental_uris":{"android":"levelo://app?vid=37ccd0fc-b7a0-4a05-a72b-6e55c49eed21","ios":"levelo://app?vid=37ccd0fc-b7a0-4a05-a72b-6e55c49eed21"},"vehicle_type_id":"4","last_reported":1720976962,"current_range_meters":0,"station_id":"ce4bgj92rcd13ifvqbd0","pricing_plan_id":"cebpf4jnsgd1na2vs0mg"},{"bike_id":"27b270b7-f04b-42f7-9fab-4de3a3175de9","system_id":"levelo_inurba_marseille","lat":43.295279,"lon":5.375048,"is_reserved":false,"is_disabled":false,"rental_uris":{"android":"levelo://app?vid=27b270b7-f04b-42f7-9fab-4de3a3175de9","ios":"levelo://app?vid=27b270b7-f04b-42f7-9fab-4de3a3175de9"},"vehicle_type_id":"4","last_reported":1720976962,"current_range_meters":4000,"station_id":"ce4bgkp2rcd13ifvqbmg","pricing_plan_id":"cebpf4jnsgd1na2vs0mg"},{"bike_id":"889ba0f9-070d-40f1-b057-73821087c208","system_id":"levelo_inurba_marseille","lat":43.33036,"lon":5.37478,"is_reserved":false,"is_disabled":false,"rental_uris":{"android":"levelo://app?vid=889ba0f9-070d-40f1-b057-73821087c208","ios":"levelo://app?vid=889ba0f9-070d-40f1-b057-73821087c208"},"vehicle_type_id":"4","last_reported":1720976962,"current_range_meters":12800,"station_id":"","pricing_plan_id":"cebpf4jnsgd1na2vs0mg"},{"bike_id":"4220eaed-e4ae-4b3a-9555-a18c854ba609","system_id":"levelo_inurba_marseille","lat":43.299724,"lon":5.384848,"is_reserved":false,"is_disabled":false,"rental_uris":{"android":"levelo://app?vid=4220eaed-e4ae-4b3a-9555-a18c854ba609","ios":"levelo://app?vid=4220eaed-e4ae-4b3a-9555-a18c854ba609"},"vehicle_type_id":"4","last_reported":1720976962,"current_range_meters":0,"station_id":"ce4bgj92rcd13ifvqbd0","pricing_plan_id":"cebpf4jnsgd1na2vs0mg"},{"bike_id":"1c4ec360-82f9-4dd9-84fd-6b03d3cce5e7","system_id":"levelo_inurba_marseille","lat":43.2951,"lon":5.37522,"is_reserved":false,"is_disabled":false,"rental_uris":{"android":"levelo://app?vid=1c4ec360-82f9-4dd9-84fd-6b03d3cce5e7","ios":"levelo://app?vid=1c4ec360-82f9-4dd9-84fd-6b03d3cce5e7"},"vehicle_type_id":"4","last_reported":1720976962,"current_range_meters":4000,"station_id":"ce4bgkp2rcd13ifvqbmg","pricing_plan_id":"cebpf4jnsgd1na2vs0mg"},{"bike_id":"a51d0944-c33d-47c8-868f-1a7253e73770","system_id":"levelo_inurba_marseille","lat":43.29553,"lon":5.37723,"is_reserved":false,"is_disabled":false,"rental_uris":{"android":"levelo://app?vid=a51d0944-c33d-47c8-868f-1a7253e73770","ios":"levelo://app?vid=a51d0944-c33d-47c8-868f-1a7253e73770"},"vehicle_type_id":"4","last_reported":1720976962,"current_range_meters":14400,"station_id":"","pricing_plan_id":"cebpf4jnsgd1na2vs0mg"},{"bike_id":"405c7cae-430b-4608-89fe-4ab79e9a0192","system_id":"levelo_inurba_marseille","lat":43.301396,"lon":5.387812,"is_reserved":false,"is_disabled":false,"rental_uris":{"android":"levelo://app?vid=405c7cae-430b-4608-89fe-4ab79e9a0192","ios":"levelo://app?vid=405c7cae-430b-4608-89fe-4ab79e9a0192"},"vehicle_type_id":"4","last_reported":1720976962,"current_range_meters":0,"station_id":"ce4bghh2rcd13ifvqb60","pricing_plan_id":"cebpf4jnsgd1na2vs0mg"},{"bike_id":"8d1500e7-2932-45cd-9ba8-9774a301f4e6","system_id":"levelo_inurba_marseille","lat":43.301396,"lon":5.387812,"is_reserved":false,"is_disabled":false,"rental_uris":{"android":"levelo://app?vid=8d1500e7-2932-45cd-9ba8-9774a301f4e6","ios":"levelo://app?vid=8d1500e7-2932-45cd-9ba8-9774a301f4e6"},"vehicle_type_id":"4","last_reported":1720976962,"current_range_meters":0,"station_id":"ce4bghh2rcd13ifvqb60","pricing_plan_id":"cebpf4jnsgd1na2vs0mg"},{"bike_id":"a85b9530-e683-4938-9069-0aef1ecce18d","system_id":"levelo_inurba_marseille","lat":43.30129,"lon":5.38785,"is_reserved":false,"is_disabled":false,"rental_uris":{"android":"levelo://app?vid=a85b9530-e683-4938-9069-0aef1ecce18d","ios":"levelo://app?vid=a85b9530-e683-4938-9069-0aef1ecce18d"},"vehicle_type_id":"4","last_reported":1720976962,"current_range_meters":0,"station_id":"ce4bghh2rcd13ifvqb60","pricing_plan_id":"cebpf4jnsgd1na2vs0mg"},{"bike_id":"191305b7-b325-492f-9a92-4ffb5511feb2","system_id":"levelo_inurba_marseille","lat":43.32363,"lon":5.38873,"is_reserved":false,"is_disabled":false,"rental_uris":{"android":"levelo://app?vid=191305b7-b325-492f-9a92-4ffb5511feb2","ios":"levelo://app?vid=191305b7-b325-492f-9a92-4ffb5511feb2"},"vehicle_type_id":"4","last_reported":1720976962,"current_range_meters":13200,"station_id":"ce4bhqp2rcd13ifvqhog","pricing_plan_id":"cebpf4jnsgd1na2vs0mg"},{"bike_id":"6a71a23c-6448-463a-b8f4-0e4083b8ea3d","system_id":"levelo_inurba_marseille","lat":43.29405,"lon":5.37341,"is_reserved":false,"is_disabled":false,"rental_uris":{"android":"levelo://app?vid=6a71a23c-6448-463a-b8f4-0e4083b8ea3d","ios":"levelo://app?vid=6a71a23c-6448-463a-b8f4-0e4083b8ea3d"},"vehicle_type_id":"4","last_reported":1720976962,"current_range_meters":6800,"station_id":"","pricing_plan_id":"cebpf4jnsgd1na2vs0mg"},{"bike_id":"a1eccca9-fde8-4655-ad36-8679a25e5059","system_id":"levelo_inurba_marseille","lat":43.293259,"lon":5.371586,"is_reserved":false,"is_disabled":false,"rental_uris":{"android":"levelo://app?vid=a1eccca9-fde8-4655-ad36-8679a25e5059","ios":"levelo://app?vid=a1eccca9-fde8-4655-ad36-8679a25e5059"},"vehicle_type_id":"4","last_reported":1720976962,"current_range_meters":11600,"station_id":"ce4bgh92rcd13ifvqb40","pricing_plan_id":"cebpf4jnsgd1na2vs0mg"},{"bike_id":"0ff5210c-520b-4d55-8b78-c582c9c70b35","system_id":"levelo_inurba_marseille","lat":43.293009,"lon":5.374584,"is_reserved":false,"is_disabled":false,"rental_uris":{"android":"levelo://app?vid=0ff5210c-520b-4d55-8b78-c582c9c70b35","ios":"levelo://app?vid=0ff5210c-520b-4d55-8b78-c582c9c70b35"},"vehicle_type_id":"4","last_reported":1720976962,"current_range_meters":4400,"station_id":"ce4bgi12rcd13ifvqb70","pricing_plan_id":"cebpf4jnsgd1na2vs0mg"},{"bike_id":"f751173d-b358-414b-b8ed-1212241b919d","system_id":"levelo_inurba_marseille","lat":43.293009,"lon":5.374584,"is_reserved":false,"is_disabled":false,"rental_uris":{"android":"levelo://app?vid=f751173d-b358-414b-b8ed-1212241b919d","ios":"levelo://app?vid=f751173d-b358-414b-b8ed-1212241b919d"},"vehicle_type_id":"4","last_reported":1720976962,"current_range_meters":0,"station_id":"ce4bgi12rcd13ifvqb70","pricing_plan_id":"cebpf4jnsgd1na2vs0mg"},{"bike_id":"d393a249-4b46-4177-a302-daf31cbd5750","system_id":"levelo_inurba_marseille","lat":43.292311,"lon":5.360731,"is_reserved":false,"is_disabled":false,"rental_uris":{"android":"levelo://app?vid=d393a249-4b46-4177-a302-daf31cbd5750","ios":"levelo://app?vid=d393a249-4b46-4177-a302-daf31cbd5750"},"vehicle_type_id":"4","last_reported":1720976962,"current_range_meters":0,"station_id":"ce4bhbh2rcd13ifvqeqg","pricing_plan_id":"cebpf4jnsgd1na2vs0mg"},{"bike_id":"f528f663-224b-4be3-b152-cd3f31e6e79c","system_id":"levelo_inurba_marseille","lat":43.29227,"lon":5.36057,"is_reserved":false,"is_disabled":false,"rental_uris":{"android":"levelo://app?vid=f528f663-224b-4be3-b152-cd3f31e6e79c","ios":"levelo://app?vid=f528f663-224b-4be3-b152-cd3f31e6e79c"},"vehicle_type_id":"4","last_reported":1720976962,"current_range_meters":23200,"station_id":"ce4bhbh2rcd13ifvqeqg","pricing_plan_id":"cebpf4jnsgd1na2vs0mg"},{"bike_id":"4d4d194e-819a-473e-8f77-e819d0562316","system_id":"levelo_inurba_marseille","lat":43.292005,"lon":5.357875,"is_reserved":false,"is_disabled":false,"rental_uris":{"android":"levelo://app?vid=4d4d194e-819a-473e-8f77-e819d0562316","ios":"levelo://app?vid=4d4d194e-819a-473e-8f77-e819d0562316"},"vehicle_type_id":"4","last_reported":1720976962,"current_range_meters":4800,"station_id":"ce4bhb12rcd13ifvqel0","pricing_plan_id":"cebpf4jnsgd1na2vs0mg"},{"bike_id":"7d384eee-1623-49d5-93ae-1f2fcc08f298","system_id":"levelo_inurba_marseille","lat":43.291994,"lon":5.357886,"is_reserved":false,"is_disabled":false,"rental_uris":{"android":"levelo://app?vid=7d384eee-1623-49d5-93ae-1f2fcc08f298","ios":"levelo://app?vid=7d384eee-1623-49d5-93ae-1f2fcc08f298"},"vehicle_type_id":"4","last_reported":1720976962,"current_range_meters":2000,"station_id":"ce4bhb12rcd13ifvqel0","pricing_plan_id":"cebpf4jnsgd1na2vs0mg"},{"bike_id":"0c3792d6-1c9b-4dec-b01a-a51820de74f7","system_id":"levelo_inurba_marseille","lat":43.292005,"lon":5.357875,"is_reserved":false,"is_disabled":false,"rental_uris":{"android":"levelo://app?vid=0c3792d6-1c9b-4dec-b01a-a51820de74f7","ios":"levelo://app?vid=0c3792d6-1c9b-4dec-b01a-a51820de74f7"},"vehicle_type_id":"4","last_reported":1720976962,"current_range_meters":0,"station_id":"ce4bhb12rcd13ifvqel0","pricing_plan_id":"cebpf4jnsgd1na2vs0mg"},{"bike_id":"04017065-f1f1-4aed-ae7c-5e54ac5af81e","system_id":"levelo_inurba_marseille","lat":43.292005,"lon":5.357875,"is_reserved":false,"is_disabled":false,"rental_uris":{"android":"levelo://app?vid=04017065-f1f1-4aed-ae7c-5e54ac5af81e","ios":"levelo://app?vid=04017065-f1f1-4aed-ae7c-5e54ac5af81e"},"vehicle_type_id":"4","last_reported":1720976962,"current_range_meters":0,"station_id":"ce4bhb12rcd13ifvqel0","pricing_plan_id":"cebpf4jnsgd1na2vs0mg"},{"bike_id":"7fae5a7e-6db9-44e8-91f9-25e0312b8308","system_id":"levelo_inurba_marseille","lat":43.29197,"lon":5.35793,"is_reserved":false,"is_disabled":false,"rental_uris":{"android":"levelo://app?vid=7fae5a7e-6db9-44e8-91f9-25e0312b8308","ios":"levelo://app?vid=7fae5a7e-6db9-44e8-91f9-25e0312b8308"},"vehicle_type_id":"4","last_reported":1720976962,"current_range_meters":0,"station_id":"ce4bhb12rcd13ifvqel0","pricing_plan_id":"cebpf4jnsgd1na2vs0mg"},{"bike_id":"1a1727b5-9649-4a7f-8948-07166b28daac","system_id":"levelo_inurba_marseille","lat":43.292005,"lon":5.357875,"is_reserved":false,"is_disabled":false,"rental_uris":{"android":"levelo://app?vid=1a1727b5-9649-4a7f-8948-07166b28daac","ios":"levelo://app?vid=1a1727b5-9649-4a7f-8948-07166b28daac"},"vehicle_type_id":"4","last_reported":1720976962,"current_range_meters":12800,"station_id":"ce4bhb12rcd13ifvqel0","pricing_plan_id":"cebpf4jnsgd1na2vs0mg"},{"bike_id":"6b9a2643-6c56-4ecd-8931-f1a66848c832","system_id":"levelo_inurba_marseille","lat":43.29532,"lon":5.38536,"is_reserved":false,"is_disabled":false,"rental_uris":{"android":"levelo://app?vid=6b9a2643-6c56-4ecd-8931-f1a66848c832","ios":"levelo://app?vid=6b9a2643-6c56-4ecd-8931-f1a66848c832"},"vehicle_type_id":"4","last_reported":1720976962,"current_range_meters":1200,"station_id":"ce4bgih2rcd13ifvqba0","pricing_plan_id":"cebpf4jnsgd1na2vs0mg"},{"bike_id":"67047dfb-bf76-4eea-99b8-13c36a13db21","system_id":"levelo_inurba_marseille","lat":43.29535,"lon":5.38545,"is_reserved":false,"is_disabled":false,"rental_uris":{"android":"levelo://app?vid=67047dfb-bf76-4eea-99b8-13c36a13db21","ios":"levelo://app?vid=67047dfb-bf76-4eea-99b8-13c36a13db21"},"vehicle_type_id":"4","last_reported":1720976962,"current_range_meters":0,"station_id":"ce4bgih2rcd13ifvqba0","pricing_plan_id":"cebpf4jnsgd1na2vs0mg"},{"bike_id":"ec08646f-a5fb-4695-aef2-e76191af0a17","system_id":"levelo_inurba_marseille","lat":43.290779,"lon":5.371482,"is_reserved":false,"is_disabled":false,"rental_uris":{"android":"levelo://app?vid=ec08646f-a5fb-4695-aef2-e76191af0a17","ios":"levelo://app?vid=ec08646f-a5fb-4695-aef2-e76191af0a17"},"vehicle_type_id":"4","last_reported":1720976962,"current_range_meters":0,"station_id":"ce4bh5p2rcd13ifvqe4g","pricing_plan_id":"cebpf4jnsgd1na2vs0mg"},{"bike_id":"52da20da-ac03-4cbd-8362-8abc4d04df15","system_id":"levelo_inurba_marseille","lat":43.289184,"lon":5.366408,"is_reserved":false,"is_disabled":false,"rental_uris":{"android":"levelo://app?vid=52da20da-ac03-4cbd-8362-8abc4d04df15","ios":"levelo://app?vid=52da20da-ac03-4cbd-8362-8abc4d04df15"},"vehicle_type_id":"4","last_reported":1720976962,"current_range_meters":4800,"station_id":"ce4bhap2rcd13ifvqek0","pricing_plan_id":"cebpf4jnsgd1na2vs0mg"},{"bike_id":"5db3ceaa-c509-4d11-94ff-4ca61d13bdac","system_id":"levelo_inurba_marseille","lat":43.290779,"lon":5.371482,"is_reserved":false,"is_disabled":false,"rental_uris":{"android":"levelo://app?vid=5db3ceaa-c509-4d11-94ff-4ca61d13bdac","ios":"levelo://app?vid=5db3ceaa-c509-4d11-94ff-4ca61d13bdac"},"vehicle_type_id":"4","last_reported":1720976962,"current_range_meters":4400,"station_id":"ce4bh5p2rcd13ifvqe4g","pricing_plan_id":"cebpf4jnsgd1na2vs0mg"},{"bike_id":"7e28fd74-5a07-4c5c-8e39-ab92314f22a5","system_id":"levelo_inurba_marseille","lat":43.302118,"lon":5.394672,"is_reserved":false,"is_disabled":false,"rental_uris":{"android":"levelo://app?vid=7e28fd74-5a07-4c5c-8e39-ab92314f22a5","ios":"levelo://app?vid=7e28fd74-5a07-4c5c-8e39-ab92314f22a5"},"vehicle_type_id":"4","last_reported":1720976962,"current_range_meters":0,"station_id":"ce4bh0p2rcd13ifvqd70","pricing_plan_id":"cebpf4jnsgd1na2vs0mg"},{"bike_id":"618d2b15-b406-4c9d-b616-5ba5d6e117af","system_id":"levelo_inurba_marseille","lat":43.290624,"lon":5.359245,"is_reserved":false,"is_disabled":false,"rental_uris":{"android":"levelo://app?vid=618d2b15-b406-4c9d-b616-5ba5d6e117af","ios":"levelo://app?vid=618d2b15-b406-4c9d-b616-5ba5d6e117af"},"vehicle_type_id":"4","last_reported":1720976962,"current_range_meters":14400,"station_id":"ce4bha92rcd13ifvqeg0","pricing_plan_id":"cebpf4jnsgd1na2vs0mg"},{"bike_id":"849bfd35-a5cd-403e-a33c-bd3f8934d9ef","system_id":"levelo_inurba_marseille","lat":43.289184,"lon":5.366408,"is_reserved":false,"is_disabled":false,"rental_uris":{"android":"levelo://app?vid=849bfd35-a5cd-403e-a33c-bd3f8934d9ef","ios":"levelo://app?vid=849bfd35-a5cd-403e-a33c-bd3f8934d9ef"},"vehicle_type_id":"4","last_reported":1720976962,"current_range_meters":0,"station_id":"ce4bhap2rcd13ifvqek0","pricing_plan_id":"cebpf4jnsgd1na2vs0mg"},{"bike_id":"6e40e48f-271f-4f8c-92ca-2a4e7a914383","system_id":"levelo_inurba_marseille","lat":43.289184,"lon":5.366408,"is_reserved":false,"is_disabled":false,"rental_uris":{"android":"levelo://app?vid=6e40e48f-271f-4f8c-92ca-2a4e7a914383","ios":"levelo://app?vid=6e40e48f-271f-4f8c-92ca-2a4e7a914383"},"vehicle_type_id":"4","last_reported":1720976962,"current_range_meters":14800,"station_id":"ce4bhap2rcd13ifvqek0","pricing_plan_id":"cebpf4jnsgd1na2vs0mg"},{"bike_id":"ffaeb555-d5de-4ea8-a635-3b8e7485deff","system_id":"levelo_inurba_marseille","lat":43.28939,"lon":5.36627,"is_reserved":false,"is_disabled":false,"rental_uris":{"android":"levelo://app?vid=ffaeb555-d5de-4ea8-a635-3b8e7485deff","ios":"levelo://app?vid=ffaeb555-d5de-4ea8-a635-3b8e7485deff"},"vehicle_type_id":"4","last_reported":1720976962,"current_range_meters":0,"station_id":"ce4bhap2rcd13ifvqek0","pricing_plan_id":"cebpf4jnsgd1na2vs0mg"},{"bike_id":"73768afe-dd04-4ecc-83ef-aaf30944aa02","system_id":"levelo_inurba_marseille","lat":43.28936,"lon":5.36634,"is_reserved":false,"is_disabled":false,"rental_uris":{"android":"levelo://app?vid=73768afe-dd04-4ecc-83ef-aaf30944aa02","ios":"levelo://app?vid=73768afe-dd04-4ecc-83ef-aaf30944aa02"},"vehicle_type_id":"4","last_reported":1720976962,"current_range_meters":0,"station_id":"ce4bhap2rcd13ifvqek0","pricing_plan_id":"cebpf4jnsgd1na2vs0mg"},{"bike_id":"c35afadb-da02-41ea-ae4e-c1fb76201cc3","system_id":"levelo_inurba_marseille","lat":43.289184,"lon":5.366408,"is_reserved":false,"is_disabled":false,"rental_uris":{"android":"levelo://app?vid=c35afadb-da02-41ea-ae4e-c1fb76201cc3","ios":"levelo://app?vid=c35afadb-da02-41ea-ae4e-c1fb76201cc3"},"vehicle_type_id":"4","last_reported":1720976962,"current_range_meters":1200,"station_id":"ce4bhap2rcd13ifvqek0","pricing_plan_id":"cebpf4jnsgd1na2vs0mg"},{"bike_id":"97122ddc-6bed-46e6-ae72-4b6cc4ad7183","system_id":"levelo_inurba_marseille","lat":43.289443,"lon":5.36399,"is_reserved":false,"is_disabled":false,"rental_uris":{"android":"levelo://app?vid=97122ddc-6bed-46e6-ae72-4b6cc4ad7183","ios":"levelo://app?vid=97122ddc-6bed-46e6-ae72-4b6cc4ad7183"},"vehicle_type_id":"4","last_reported":1720976962,"current_range_meters":0,"station_id":"ce4bhc92rcd13ifvqetg","pricing_plan_id":"cebpf4jnsgd1na2vs0mg"},{"bike_id":"bca23157-bdf5-4734-86a6-7ea7da305b16","system_id":"levelo_inurba_marseille","lat":43.289184,"lon":5.366408,"is_reserved":false,"is_disabled":false,"rental_uris":{"android":"levelo://app?vid=bca23157-bdf5-4734-86a6-7ea7da305b16","ios":"levelo://app?vid=bca23157-bdf5-4734-86a6-7ea7da305b16"},"vehicle_type_id":"4","last_reported":1720976962,"current_range_meters":4400,"station_id":"ce4bhap2rcd13ifvqek0","pricing_plan_id":"cebpf4jnsgd1na2vs0mg"},{"bike_id":"a941645b-3113-414d-8c0c-a422e912671a","system_id":"levelo_inurba_marseille","lat":43.29269,"lon":5.38439,"is_reserved":false,"is_disabled":false,"rental_uris":{"android":"levelo://app?vid=a941645b-3113-414d-8c0c-a422e912671a","ios":"levelo://app?vid=a941645b-3113-414d-8c0c-a422e912671a"},"vehicle_type_id":"4","last_reported":1720976962,"current_range_meters":11200,"station_id":"ce4bh692rcd13ifvqea0","pricing_plan_id":"cebpf4jnsgd1na2vs0mg"},{"bike_id":"07346fbe-940a-4f72-8fdb-562c2792276f","system_id":"levelo_inurba_marseille","lat":43.29268,"lon":5.38441,"is_reserved":false,"is_disabled":false,"rental_uris":{"android":"levelo://app?vid=07346fbe-940a-4f72-8fdb-562c2792276f","ios":"levelo://app?vid=07346fbe-940a-4f72-8fdb-562c2792276f"},"vehicle_type_id":"4","last_reported":1720976962,"current_range_meters":0,"station_id":"ce4bh692rcd13ifvqea0","pricing_plan_id":"cebpf4jnsgd1na2vs0mg"},{"bike_id":"7e76e950-1f48-4ce8-b117-c8333b0d2d8f","system_id":"levelo_inurba_marseille","lat":43.2927,"lon":5.38448,"is_reserved":false,"is_disabled":false,"rental_uris":{"android":"levelo://app?vid=7e76e950-1f48-4ce8-b117-c8333b0d2d8f","ios":"levelo://app?vid=7e76e950-1f48-4ce8-b117-c8333b0d2d8f"},"vehicle_type_id":"4","last_reported":1720976962,"current_range_meters":0,"station_id":"ce4bh692rcd13ifvqea0","pricing_plan_id":"cebpf4jnsgd1na2vs0mg"},{"bike_id":"fc6997b9-0e3f-4c38-951b-9fc6bca4ea8b","system_id":"levelo_inurba_marseille","lat":43.29262,"lon":5.38443,"is_reserved":false,"is_disabled":false,"rental_uris":{"android":"levelo://app?vid=fc6997b9-0e3f-4c38-951b-9fc6bca4ea8b","ios":"levelo://app?vid=fc6997b9-0e3f-4c38-951b-9fc6bca4ea8b"},"vehicle_type_id":"4","last_reported":1720976962,"current_range_meters":5200,"station_id":"ce4bh692rcd13ifvqea0","pricing_plan_id":"cebpf4jnsgd1na2vs0mg"},{"bike_id":"db222fbd-43eb-4fe4-9fa6-c3d89d90b790","system_id":"levelo_inurba_marseille","lat":43.292644,"lon":5.384257,"is_reserved":false,"is_disabled":false,"rental_uris":{"android":"levelo://app?vid=db222fbd-43eb-4fe4-9fa6-c3d89d90b790","ios":"levelo://app?vid=db222fbd-43eb-4fe4-9fa6-c3d89d90b790"},"vehicle_type_id":"4","last_reported":1720976962,"current_range_meters":0,"station_id":"ce4bh692rcd13ifvqea0","pricing_plan_id":"cebpf4jnsgd1na2vs0mg"},{"bike_id":"69057a13-5c4b-4af0-8d35-3c1d630c9e85","system_id":"levelo_inurba_marseille","lat":43.30422,"lon":5.39754,"is_reserved":false,"is_disabled":false,"rental_uris":{"android":"levelo://app?vid=69057a13-5c4b-4af0-8d35-3c1d630c9e85","ios":"levelo://app?vid=69057a13-5c4b-4af0-8d35-3c1d630c9e85"},"vehicle_type_id":"4","last_reported":1720976962,"current_range_meters":0,"station_id":"ce4bh092rcd13ifvqd20","pricing_plan_id":"cebpf4jnsgd1na2vs0mg"},{"bike_id":"6894b7e1-6664-48eb-9205-7d50de0ce998","system_id":"levelo_inurba_marseille","lat":43.29258,"lon":5.38444,"is_reserved":false,"is_disabled":false,"rental_uris":{"android":"levelo://app?vid=6894b7e1-6664-48eb-9205-7d50de0ce998","ios":"levelo://app?vid=6894b7e1-6664-48eb-9205-7d50de0ce998"},"vehicle_type_id":"4","last_reported":1720976962,"current_range_meters":0,"station_id":"ce4bh692rcd13ifvqea0","pricing_plan_id":"cebpf4jnsgd1na2vs0mg"},{"bike_id":"408d2060-9a5b-4848-9256-5fca23b9b090","system_id":"levelo_inurba_marseille","lat":43.290104,"lon":5.356111,"is_reserved":false,"is_disabled":false,"rental_uris":{"android":"levelo://app?vid=408d2060-9a5b-4848-9256-5fca23b9b090","ios":"levelo://app?vid=408d2060-9a5b-4848-9256-5fca23b9b090"},"vehicle_type_id":"4","last_reported":1720976962,"current_range_meters":0,"station_id":"ce4bhb92rcd13ifvqen0","pricing_plan_id":"cebpf4jnsgd1na2vs0mg"},{"bike_id":"3e78ebe0-0744-4564-b5e5-29f0a27b6de7","system_id":"levelo_inurba_marseille","lat":43.290103,"lon":5.356114,"is_reserved":false,"is_disabled":false,"rental_uris":{"android":"levelo://app?vid=3e78ebe0-0744-4564-b5e5-29f0a27b6de7","ios":"levelo://app?vid=3e78ebe0-0744-4564-b5e5-29f0a27b6de7"},"vehicle_type_id":"4","last_reported":1720976962,"current_range_meters":0,"station_id":"ce4bhb92rcd13ifvqen0","pricing_plan_id":"cebpf4jnsgd1na2vs0mg"},{"bike_id":"8fe0f493-5387-484e-976f-e85e070cc061","system_id":"levelo_inurba_marseille","lat":43.29008,"lon":5.35605,"is_reserved":false,"is_disabled":false,"rental_uris":{"android":"levelo://app?vid=8fe0f493-5387-484e-976f-e85e070cc061","ios":"levelo://app?vid=8fe0f493-5387-484e-976f-e85e070cc061"},"vehicle_type_id":"4","last_reported":1720976962,"current_range_meters":0,"station_id":"ce4bhb92rcd13ifvqen0","pricing_plan_id":"cebpf4jnsgd1na2vs0mg"},{"bike_id":"5b70cc12-e5d0-425a-975b-40bc4cae07b0","system_id":"levelo_inurba_marseille","lat":43.29003,"lon":5.35619,"is_reserved":false,"is_disabled":false,"rental_uris":{"android":"levelo://app?vid=5b70cc12-e5d0-425a-975b-40bc4cae07b0","ios":"levelo://app?vid=5b70cc12-e5d0-425a-975b-40bc4cae07b0"},"vehicle_type_id":"4","last_reported":1720976962,"current_range_meters":0,"station_id":"ce4bhb92rcd13ifvqen0","pricing_plan_id":"cebpf4jnsgd1na2vs0mg"},{"bike_id":"e521fb2c-4e48-4d5c-89f0-8c2d25ae7485","system_id":"levelo_inurba_marseille","lat":43.29006,"lon":5.35606,"is_reserved":false,"is_disabled":false,"rental_uris":{"android":"levelo://app?vid=e521fb2c-4e48-4d5c-89f0-8c2d25ae7485","ios":"levelo://app?vid=e521fb2c-4e48-4d5c-89f0-8c2d25ae7485"},"vehicle_type_id":"4","last_reported":1720976962,"current_range_meters":400,"station_id":"ce4bhb92rcd13ifvqen0","pricing_plan_id":"cebpf4jnsgd1na2vs0mg"},{"bike_id":"daf7af25-af53-4327-975c-2273c58541ce","system_id":"levelo_inurba_marseille","lat":43.290103,"lon":5.356114,"is_reserved":false,"is_disabled":false,"rental_uris":{"android":"levelo://app?vid=daf7af25-af53-4327-975c-2273c58541ce","ios":"levelo://app?vid=daf7af25-af53-4327-975c-2273c58541ce"},"vehicle_type_id":"4","last_reported":1720976962,"current_range_meters":0,"station_id":"ce4bhb92rcd13ifvqen0","pricing_plan_id":"cebpf4jnsgd1na2vs0mg"},{"bike_id":"0008905a-b21f-4c88-97b3-a9e815483c69","system_id":"levelo_inurba_marseille","lat":43.29104,"lon":5.38116,"is_reserved":false,"is_disabled":false,"rental_uris":{"android":"levelo://app?vid=0008905a-b21f-4c88-97b3-a9e815483c69","ios":"levelo://app?vid=0008905a-b21f-4c88-97b3-a9e815483c69"},"vehicle_type_id":"4","last_reported":1720976962,"current_range_meters":800,"station_id":"ce4bh512rcd13ifvqe2g","pricing_plan_id":"cebpf4jnsgd1na2vs0mg"},{"bike_id":"30adfb01-66a4-4283-8071-8c15fde2f625","system_id":"levelo_inurba_marseille","lat":43.290103,"lon":5.356114,"is_reserved":false,"is_disabled":false,"rental_uris":{"android":"levelo://app?vid=30adfb01-66a4-4283-8071-8c15fde2f625","ios":"levelo://app?vid=30adfb01-66a4-4283-8071-8c15fde2f625"},"vehicle_type_id":"4","last_reported":1720976962,"current_range_meters":0,"station_id":"ce4bhb92rcd13ifvqen0","pricing_plan_id":"cebpf4jnsgd1na2vs0mg"},{"bike_id":"9e391700-6e77-4dd8-9bc0-b25fdf1c9e83","system_id":"levelo_inurba_marseille","lat":43.290995,"lon":5.381361,"is_reserved":false,"is_disabled":false,"rental_uris":{"android":"levelo://app?vid=9e391700-6e77-4dd8-9bc0-b25fdf1c9e83","ios":"levelo://app?vid=9e391700-6e77-4dd8-9bc0-b25fdf1c9e83"},"vehicle_type_id":"4","last_reported":1720976962,"current_range_meters":4800,"station_id":"ce4bh512rcd13ifvqe2g","pricing_plan_id":"cebpf4jnsgd1na2vs0mg"},{"bike_id":"666d7d6a-bc14-47f8-89af-54493a8ca08f","system_id":"levelo_inurba_marseille","lat":43.29096,"lon":5.38121,"is_reserved":false,"is_disabled":false,"rental_uris":{"android":"levelo://app?vid=666d7d6a-bc14-47f8-89af-54493a8ca08f","ios":"levelo://app?vid=666d7d6a-bc14-47f8-89af-54493a8ca08f"},"vehicle_type_id":"4","last_reported":1720976962,"current_range_meters":0,"station_id":"ce4bh512rcd13ifvqe2g","pricing_plan_id":"cebpf4jnsgd1na2vs0mg"},{"bike_id":"bebe8d5a-0fb1-4f5e-85f9-aeccece12a61","system_id":"levelo_inurba_marseille","lat":43.290937,"lon":5.381403,"is_reserved":false,"is_disabled":false,"rental_uris":{"android":"levelo://app?vid=bebe8d5a-0fb1-4f5e-85f9-aeccece12a61","ios":"levelo://app?vid=bebe8d5a-0fb1-4f5e-85f9-aeccece12a61"},"vehicle_type_id":"4","last_reported":1720976962,"current_range_meters":2000,"station_id":"ce4bh512rcd13ifvqe2g","pricing_plan_id":"cebpf4jnsgd1na2vs0mg"},{"bike_id":"c5fa78cf-56f6-4f6c-bb90-c5b277c8e474","system_id":"levelo_inurba_marseille","lat":43.290995,"lon":5.381361,"is_reserved":false,"is_disabled":false,"rental_uris":{"android":"levelo://app?vid=c5fa78cf-56f6-4f6c-bb90-c5b277c8e474","ios":"levelo://app?vid=c5fa78cf-56f6-4f6c-bb90-c5b277c8e474"},"vehicle_type_id":"4","last_reported":1720976962,"current_range_meters":7200,"station_id":"ce4bh512rcd13ifvqe2g","pricing_plan_id":"cebpf4jnsgd1na2vs0mg"},{"bike_id":"e9701fb0-5df9-46f9-9da0-37166e0b7b06","system_id":"levelo_inurba_marseille","lat":43.323187,"lon":5.396973,"is_reserved":false,"is_disabled":false,"rental_uris":{"android":"levelo://app?vid=e9701fb0-5df9-46f9-9da0-37166e0b7b06","ios":"levelo://app?vid=e9701fb0-5df9-46f9-9da0-37166e0b7b06"},"vehicle_type_id":"4","last_reported":1720976962,"current_range_meters":4800,"station_id":"","pricing_plan_id":"cebpf4jnsgd1na2vs0mg"},{"bike_id":"ce788f5d-bb37-4d24-b5a5-607cd2bfda91","system_id":"levelo_inurba_marseille","lat":43.2953,"lon":5.390305,"is_reserved":false,"is_disabled":false,"rental_uris":{"android":"levelo://app?vid=ce788f5d-bb37-4d24-b5a5-607cd2bfda91","ios":"levelo://app?vid=ce788f5d-bb37-4d24-b5a5-607cd2bfda91"},"vehicle_type_id":"4","last_reported":1720976962,"current_range_meters":0,"station_id":"ce4bh3p2rcd13ifvqdp0","pricing_plan_id":"cebpf4jnsgd1na2vs0mg"},{"bike_id":"ac1ac8ac-3d43-4b07-9106-b0ac01b4e88e","system_id":"levelo_inurba_marseille","lat":43.295169,"lon":5.390426,"is_reserved":false,"is_disabled":false,"rental_uris":{"android":"levelo://app?vid=ac1ac8ac-3d43-4b07-9106-b0ac01b4e88e","ios":"levelo://app?vid=ac1ac8ac-3d43-4b07-9106-b0ac01b4e88e"},"vehicle_type_id":"4","last_reported":1720976962,"current_range_meters":0,"station_id":"ce4bh3p2rcd13ifvqdp0","pricing_plan_id":"cebpf4jnsgd1na2vs0mg"},{"bike_id":"c59e1197-e3d1-4820-a2f6-95309b4cc996","system_id":"levelo_inurba_marseille","lat":43.29524,"lon":5.39032,"is_reserved":false,"is_disabled":false,"rental_uris":{"android":"levelo://app?vid=c59e1197-e3d1-4820-a2f6-95309b4cc996","ios":"levelo://app?vid=c59e1197-e3d1-4820-a2f6-95309b4cc996"},"vehicle_type_id":"4","last_reported":1720976962,"current_range_meters":2400,"station_id":"ce4bh3p2rcd13ifvqdp0","pricing_plan_id":"cebpf4jnsgd1na2vs0mg"},{"bike_id":"542940b3-ae80-4fed-ada3-8ed41eb63afe","system_id":"levelo_inurba_marseille","lat":43.28995,"lon":5.35483,"is_reserved":false,"is_disabled":false,"rental_uris":{"android":"levelo://app?vid=542940b3-ae80-4fed-ada3-8ed41eb63afe","ios":"levelo://app?vid=542940b3-ae80-4fed-ada3-8ed41eb63afe"},"vehicle_type_id":"4","last_reported":1720976962,"current_range_meters":9600,"station_id":"","pricing_plan_id":"cebpf4jnsgd1na2vs0mg"},{"bike_id":"819fc3d0-8ed8-4530-98b2-854d44115c5f","system_id":"levelo_inurba_marseille","lat":43.330442,"lon":5.389148,"is_reserved":false,"is_disabled":false,"rental_uris":{"android":"levelo://app?vid=819fc3d0-8ed8-4530-98b2-854d44115c5f","ios":"levelo://app?vid=819fc3d0-8ed8-4530-98b2-854d44115c5f"},"vehicle_type_id":"4","last_reported":1720976962,"current_range_meters":25200,"station_id":"ce4bhr92rcd13ifvqhrg","pricing_plan_id":"cebpf4jnsgd1na2vs0mg"},{"bike_id":"d82825bb-c337-4026-9639-8ebc2d22e21f","system_id":"levelo_inurba_marseille","lat":43.28971,"lon":5.37836,"is_reserved":false,"is_disabled":false,"rental_uris":{"android":"levelo://app?vid=d82825bb-c337-4026-9639-8ebc2d22e21f","ios":"levelo://app?vid=d82825bb-c337-4026-9639-8ebc2d22e21f"},"vehicle_type_id":"4","last_reported":1720976962,"current_range_meters":0,"station_id":"ce4bh9p2rcd13ifvqed0","pricing_plan_id":"cebpf4jnsgd1na2vs0mg"},{"bike_id":"a620950f-ba07-4140-801c-2ea52cdfd2ee","system_id":"levelo_inurba_marseille","lat":43.330442,"lon":5.389148,"is_reserved":false,"is_disabled":false,"rental_uris":{"android":"levelo://app?vid=a620950f-ba07-4140-801c-2ea52cdfd2ee","ios":"levelo://app?vid=a620950f-ba07-4140-801c-2ea52cdfd2ee"},"vehicle_type_id":"4","last_reported":1720976962,"current_range_meters":8000,"station_id":"ce4bhr92rcd13ifvqhrg","pricing_plan_id":"cebpf4jnsgd1na2vs0mg"},{"bike_id":"4e977fff-ad41-4542-afa2-97d0d9d7577b","system_id":"levelo_inurba_marseille","lat":43.3107,"lon":5.40081,"is_reserved":false,"is_disabled":false,"rental_uris":{"android":"levelo://app?vid=4e977fff-ad41-4542-afa2-97d0d9d7577b","ios":"levelo://app?vid=4e977fff-ad41-4542-afa2-97d0d9d7577b"},"vehicle_type_id":"4","last_reported":1720976962,"current_range_meters":20000,"station_id":"","pricing_plan_id":"cebpf4jnsgd1na2vs0mg"},{"bike_id":"7c6572d0-d77d-4884-8e7f-f4d02a6ab574","system_id":"levelo_inurba_marseille","lat":43.288585,"lon":5.358451,"is_reserved":false,"is_disabled":false,"rental_uris":{"android":"levelo://app?vid=7c6572d0-d77d-4884-8e7f-f4d02a6ab574","ios":"levelo://app?vid=7c6572d0-d77d-4884-8e7f-f4d02a6ab574"},"vehicle_type_id":"4","last_reported":1720976962,"current_range_meters":15200,"station_id":"ce4bhb12rcd13ifvqem0","pricing_plan_id":"cebpf4jnsgd1na2vs0mg"},{"bike_id":"264c6928-bb0e-4008-bddb-e0ab6d736b7f","system_id":"levelo_inurba_marseille","lat":43.312609,"lon":5.401662,"is_reserved":false,"is_disabled":false,"rental_uris":{"android":"levelo://app?vid=264c6928-bb0e-4008-bddb-e0ab6d736b7f","ios":"levelo://app?vid=264c6928-bb0e-4008-bddb-e0ab6d736b7f"},"vehicle_type_id":"4","last_reported":1720976962,"current_range_meters":1200,"station_id":"ce4bh092rcd13ifvqd30","pricing_plan_id":"cebpf4jnsgd1na2vs0mg"},{"bike_id":"6afeca56-0a87-42e1-b666-00d55187b129","system_id":"levelo_inurba_marseille","lat":43.31267,"lon":5.40166,"is_reserved":false,"is_disabled":false,"rental_uris":{"android":"levelo://app?vid=6afeca56-0a87-42e1-b666-00d55187b129","ios":"levelo://app?vid=6afeca56-0a87-42e1-b666-00d55187b129"},"vehicle_type_id":"4","last_reported":1720976962,"current_range_meters":0,"station_id":"ce4bh092rcd13ifvqd30","pricing_plan_id":"cebpf4jnsgd1na2vs0mg"},{"bike_id":"3eaf2915-684e-4c99-86df-32417b4d1eb3","system_id":"levelo_inurba_marseille","lat":43.309371,"lon":5.401449,"is_reserved":false,"is_disabled":false,"rental_uris":{"android":"levelo://app?vid=3eaf2915-684e-4c99-86df-32417b4d1eb3","ios":"levelo://app?vid=3eaf2915-684e-4c99-86df-32417b4d1eb3"},"vehicle_type_id":"4","last_reported":1720976962,"current_range_meters":25600,"station_id":"ce4bgvp2rcd13ifvqct0","pricing_plan_id":"cebpf4jnsgd1na2vs0mg"},{"bike_id":"7db14a83-5996-4107-aac5-8660c0fb36ae","system_id":"levelo_inurba_marseille","lat":43.337584,"lon":5.374721,"is_reserved":false,"is_disabled":false,"rental_uris":{"android":"levelo://app?vid=7db14a83-5996-4107-aac5-8660c0fb36ae","ios":"levelo://app?vid=7db14a83-5996-4107-aac5-8660c0fb36ae"},"vehicle_type_id":"4","last_reported":1720976962,"current_range_meters":17600,"station_id":"","pricing_plan_id":"cebpf4jnsgd1na2vs0mg"},{"bike_id":"e6537933-0eb1-41a8-b76a-584d0a7d4a3c","system_id":"levelo_inurba_marseille","lat":43.33766,"lon":5.37467,"is_reserved":false,"is_disabled":false,"rental_uris":{"android":"levelo://app?vid=e6537933-0eb1-41a8-b76a-584d0a7d4a3c","ios":"levelo://app?vid=e6537933-0eb1-41a8-b76a-584d0a7d4a3c"},"vehicle_type_id":"4","last_reported":1720976962,"current_range_meters":30000,"station_id":"","pricing_plan_id":"cebpf4jnsgd1na2vs0mg"},{"bike_id":"893b3f9e-8d19-4e89-b4e3-e6aa5e07ff06","system_id":"levelo_inurba_marseille","lat":43.33766,"lon":5.37471,"is_reserved":false,"is_disabled":false,"rental_uris":{"android":"levelo://app?vid=893b3f9e-8d19-4e89-b4e3-e6aa5e07ff06","ios":"levelo://app?vid=893b3f9e-8d19-4e89-b4e3-e6aa5e07ff06"},"vehicle_type_id":"4","last_reported":1720976962,"current_range_meters":26000,"station_id":"","pricing_plan_id":"cebpf4jnsgd1na2vs0mg"},{"bike_id":"ac9d66fe-9bf5-4789-93e4-8c7d750a082c","system_id":"levelo_inurba_marseille","lat":43.33766,"lon":5.37473,"is_reserved":false,"is_disabled":false,"rental_uris":{"android":"levelo://app?vid=ac9d66fe-9bf5-4789-93e4-8c7d750a082c","ios":"levelo://app?vid=ac9d66fe-9bf5-4789-93e4-8c7d750a082c"},"vehicle_type_id":"4","last_reported":1720976962,"current_range_meters":22800,"station_id":"","pricing_plan_id":"cebpf4jnsgd1na2vs0mg"},{"bike_id":"37772fd2-0f82-4f52-ad98-1e17b9e6b7e2","system_id":"levelo_inurba_marseille","lat":43.33767,"lon":5.374711,"is_reserved":false,"is_disabled":false,"rental_uris":{"android":"levelo://app?vid=37772fd2-0f82-4f52-ad98-1e17b9e6b7e2","ios":"levelo://app?vid=37772fd2-0f82-4f52-ad98-1e17b9e6b7e2"},"vehicle_type_id":"4","last_reported":1720976962,"current_range_meters":20000,"station_id":"","pricing_plan_id":"cebpf4jnsgd1na2vs0mg"},{"bike_id":"cf958edf-a973-4ef8-838e-9cc8f1679483","system_id":"levelo_inurba_marseille","lat":43.33766,"lon":5.37478,"is_reserved":false,"is_disabled":false,"rental_uris":{"android":"levelo://app?vid=cf958edf-a973-4ef8-838e-9cc8f1679483","ios":"levelo://app?vid=cf958edf-a973-4ef8-838e-9cc8f1679483"},"vehicle_type_id":"4","last_reported":1720976962,"current_range_meters":13200,"station_id":"","pricing_plan_id":"cebpf4jnsgd1na2vs0mg"},{"bike_id":"5cd2f239-467e-4111-8850-d9782eca2470","system_id":"levelo_inurba_marseille","lat":43.33767,"lon":5.37472,"is_reserved":false,"is_disabled":false,"rental_uris":{"android":"levelo://app?vid=5cd2f239-467e-4111-8850-d9782eca2470","ios":"levelo://app?vid=5cd2f239-467e-4111-8850-d9782eca2470"},"vehicle_type_id":"4","last_reported":1720976962,"current_range_meters":28800,"station_id":"","pricing_plan_id":"cebpf4jnsgd1na2vs0mg"},{"bike_id":"26f86cb7-ac0c-4cfd-84f1-3a9e9042360d","system_id":"levelo_inurba_marseille","lat":43.33767,"lon":5.37474,"is_reserved":false,"is_disabled":false,"rental_uris":{"android":"levelo://app?vid=26f86cb7-ac0c-4cfd-84f1-3a9e9042360d","ios":"levelo://app?vid=26f86cb7-ac0c-4cfd-84f1-3a9e9042360d"},"vehicle_type_id":"4","last_reported":1720976962,"current_range_meters":13600,"station_id":"","pricing_plan_id":"cebpf4jnsgd1na2vs0mg"},{"bike_id":"8f381f06-2b48-4b7f-9444-eca237a2fc44","system_id":"levelo_inurba_marseille","lat":43.291994,"lon":5.357886,"is_reserved":false,"is_disabled":false,"rental_uris":{"android":"levelo://app?vid=8f381f06-2b48-4b7f-9444-eca237a2fc44","ios":"levelo://app?vid=8f381f06-2b48-4b7f-9444-eca237a2fc44"},"vehicle_type_id":"4","last_reported":1720976962,"current_range_meters":24800,"station_id":"ce4bhb12rcd13ifvqel0","pricing_plan_id":"cebpf4jnsgd1na2vs0mg"},{"bike_id":"ecca751a-c24b-4d06-bee9-480915f9bb4a","system_id":"levelo_inurba_marseille","lat":43.337677,"lon":5.374704,"is_reserved":false,"is_disabled":false,"rental_uris":{"android":"levelo://app?vid=ecca751a-c24b-4d06-bee9-480915f9bb4a","ios":"levelo://app?vid=ecca751a-c24b-4d06-bee9-480915f9bb4a"},"vehicle_type_id":"4","last_reported":1720976962,"current_range_meters":0,"station_id":"","pricing_plan_id":"cebpf4jnsgd1na2vs0mg"},{"bike_id":"039a10e5-aed9-4f01-a151-04375f715c5b","system_id":"levelo_inurba_marseille","lat":43.33767,"lon":5.37478,"is_reserved":false,"is_disabled":false,"rental_uris":{"android":"levelo://app?vid=039a10e5-aed9-4f01-a151-04375f715c5b","ios":"levelo://app?vid=039a10e5-aed9-4f01-a151-04375f715c5b"},"vehicle_type_id":"4","last_reported":1720976962,"current_range_meters":24000,"station_id":"","pricing_plan_id":"cebpf4jnsgd1na2vs0mg"},{"bike_id":"cd48b539-8a8f-4ccd-a8aa-e74e2abaf1f5","system_id":"levelo_inurba_marseille","lat":43.33768,"lon":5.37475,"is_reserved":false,"is_disabled":false,"rental_uris":{"android":"levelo://app?vid=cd48b539-8a8f-4ccd-a8aa-e74e2abaf1f5","ios":"levelo://app?vid=cd48b539-8a8f-4ccd-a8aa-e74e2abaf1f5"},"vehicle_type_id":"4","last_reported":1720976962,"current_range_meters":24000,"station_id":"","pricing_plan_id":"cebpf4jnsgd1na2vs0mg"},{"bike_id":"6005b925-bbeb-43fb-9a4b-148f3086b364","system_id":"levelo_inurba_marseille","lat":43.33767,"lon":5.37481,"is_reserved":false,"is_disabled":false,"rental_uris":{"android":"levelo://app?vid=6005b925-bbeb-43fb-9a4b-148f3086b364","ios":"levelo://app?vid=6005b925-bbeb-43fb-9a4b-148f3086b364"},"vehicle_type_id":"4","last_reported":1720976962,"current_range_meters":1200,"station_id":"","pricing_plan_id":"cebpf4jnsgd1na2vs0mg"},{"bike_id":"9641f142-48bc-49b9-9b2a-634a9b288110","system_id":"levelo_inurba_marseille","lat":43.33768,"lon":5.37476,"is_reserved":false,"is_disabled":false,"rental_uris":{"android":"levelo://app?vid=9641f142-48bc-49b9-9b2a-634a9b288110","ios":"levelo://app?vid=9641f142-48bc-49b9-9b2a-634a9b288110"},"vehicle_type_id":"4","last_reported":1720976962,"current_range_meters":21200,"station_id":"","pricing_plan_id":"cebpf4jnsgd1na2vs0mg"},{"bike_id":"3179bda7-471f-44ce-b98b-4a607a4840e3","system_id":"levelo_inurba_marseille","lat":43.306412,"lon":5.401035,"is_reserved":false,"is_disabled":false,"rental_uris":{"android":"levelo://app?vid=3179bda7-471f-44ce-b98b-4a607a4840e3","ios":"levelo://app?vid=3179bda7-471f-44ce-b98b-4a607a4840e3"},"vehicle_type_id":"4","last_reported":1720976962,"current_range_meters":3600,"station_id":"ce4bh112rcd13ifvqda0","pricing_plan_id":"cebpf4jnsgd1na2vs0mg"},{"bike_id":"0dd06392-f63f-44b8-af4f-590dfd121b02","system_id":"levelo_inurba_marseille","lat":43.337696,"lon":5.374691,"is_reserved":false,"is_disabled":false,"rental_uris":{"android":"levelo://app?vid=0dd06392-f63f-44b8-af4f-590dfd121b02","ios":"levelo://app?vid=0dd06392-f63f-44b8-af4f-590dfd121b02"},"vehicle_type_id":"4","last_reported":1720976962,"current_range_meters":5200,"station_id":"","pricing_plan_id":"cebpf4jnsgd1na2vs0mg"},{"bike_id":"b490573b-32d3-4854-ab3f-e801cde5a636","system_id":"levelo_inurba_marseille","lat":43.337691,"lon":5.37473,"is_reserved":false,"is_disabled":false,"rental_uris":{"android":"levelo://app?vid=b490573b-32d3-4854-ab3f-e801cde5a636","ios":"levelo://app?vid=b490573b-32d3-4854-ab3f-e801cde5a636"},"vehicle_type_id":"4","last_reported":1720976962,"current_range_meters":14000,"station_id":"","pricing_plan_id":"cebpf4jnsgd1na2vs0mg"},{"bike_id":"e880369d-9e45-4e17-b710-89d03f821f41","system_id":"levelo_inurba_marseille","lat":43.3377,"lon":5.3747,"is_reserved":false,"is_disabled":false,"rental_uris":{"android":"levelo://app?vid=e880369d-9e45-4e17-b710-89d03f821f41","ios":"levelo://app?vid=e880369d-9e45-4e17-b710-89d03f821f41"},"vehicle_type_id":"4","last_reported":1720976962,"current_range_meters":4800,"station_id":"","pricing_plan_id":"cebpf4jnsgd1na2vs0mg"},{"bike_id":"c67a12ba-5c42-41ae-847c-0956c8b147e5","system_id":"levelo_inurba_marseille","lat":43.3377,"lon":5.37471,"is_reserved":false,"is_disabled":false,"rental_uris":{"android":"levelo://app?vid=c67a12ba-5c42-41ae-847c-0956c8b147e5","ios":"levelo://app?vid=c67a12ba-5c42-41ae-847c-0956c8b147e5"},"vehicle_type_id":"4","last_reported":1720976962,"current_range_meters":14800,"station_id":"","pricing_plan_id":"cebpf4jnsgd1na2vs0mg"},{"bike_id":"02f0d131-963f-495a-beaf-edc5a91d6439","system_id":"levelo_inurba_marseille","lat":43.33771,"lon":5.37465,"is_reserved":false,"is_disabled":false,"rental_uris":{"android":"levelo://app?vid=02f0d131-963f-495a-beaf-edc5a91d6439","ios":"levelo://app?vid=02f0d131-963f-495a-beaf-edc5a91d6439"},"vehicle_type_id":"4","last_reported":1720976962,"current_range_meters":24800,"station_id":"","pricing_plan_id":"cebpf4jnsgd1na2vs0mg"},{"bike_id":"db8d58e3-38a2-4c75-ae4a-e4abfcab3724","system_id":"levelo_inurba_marseille","lat":43.33772,"lon":5.37459,"is_reserved":false,"is_disabled":false,"rental_uris":{"android":"levelo://app?vid=db8d58e3-38a2-4c75-ae4a-e4abfcab3724","ios":"levelo://app?vid=db8d58e3-38a2-4c75-ae4a-e4abfcab3724"},"vehicle_type_id":"4","last_reported":1720976962,"current_range_meters":30400,"station_id":"","pricing_plan_id":"cebpf4jnsgd1na2vs0mg"},{"bike_id":"a005e922-b721-4196-b009-e1125dd6e3b2","system_id":"levelo_inurba_marseille","lat":43.33769,"lon":5.37479,"is_reserved":false,"is_disabled":false,"rental_uris":{"android":"levelo://app?vid=a005e922-b721-4196-b009-e1125dd6e3b2","ios":"levelo://app?vid=a005e922-b721-4196-b009-e1125dd6e3b2"},"vehicle_type_id":"4","last_reported":1720976962,"current_range_meters":28800,"station_id":"","pricing_plan_id":"cebpf4jnsgd1na2vs0mg"},{"bike_id":"bfbef46d-097c-4ecc-a4cf-db53c94b13b1","system_id":"levelo_inurba_marseille","lat":43.3377,"lon":5.37473,"is_reserved":false,"is_disabled":false,"rental_uris":{"android":"levelo://app?vid=bfbef46d-097c-4ecc-a4cf-db53c94b13b1","ios":"levelo://app?vid=bfbef46d-097c-4ecc-a4cf-db53c94b13b1"},"vehicle_type_id":"4","last_reported":1720976962,"current_range_meters":31200,"station_id":"","pricing_plan_id":"cebpf4jnsgd1na2vs0mg"},{"bike_id":"5aae94a6-c440-4789-857e-46a54718fede","system_id":"levelo_inurba_marseille","lat":43.3377,"lon":5.37474,"is_reserved":false,"is_disabled":false,"rental_uris":{"android":"levelo://app?vid=5aae94a6-c440-4789-857e-46a54718fede","ios":"levelo://app?vid=5aae94a6-c440-4789-857e-46a54718fede"},"vehicle_type_id":"4","last_reported":1720976962,"current_range_meters":28800,"station_id":"","pricing_plan_id":"cebpf4jnsgd1na2vs0mg"},{"bike_id":"51544219-3a97-477c-9642-d66a5be4ade3","system_id":"levelo_inurba_marseille","lat":43.3377,"lon":5.37477,"is_reserved":false,"is_disabled":false,"rental_uris":{"android":"levelo://app?vid=51544219-3a97-477c-9642-d66a5be4ade3","ios":"levelo://app?vid=51544219-3a97-477c-9642-d66a5be4ade3"},"vehicle_type_id":"4","last_reported":1720976962,"current_range_meters":16800,"station_id":"","pricing_plan_id":"cebpf4jnsgd1na2vs0mg"},{"bike_id":"d77e79b4-bbcc-4fb4-abd6-01e5d49b13f4","system_id":"levelo_inurba_marseille","lat":43.33771,"lon":5.37478,"is_reserved":false,"is_disabled":false,"rental_uris":{"android":"levelo://app?vid=d77e79b4-bbcc-4fb4-abd6-01e5d49b13f4","ios":"levelo://app?vid=d77e79b4-bbcc-4fb4-abd6-01e5d49b13f4"},"vehicle_type_id":"4","last_reported":1720976962,"current_range_meters":14400,"station_id":"","pricing_plan_id":"cebpf4jnsgd1na2vs0mg"},{"bike_id":"9e13c9a5-7387-424a-b4fb-1dc4dce029b5","system_id":"levelo_inurba_marseille","lat":43.33772,"lon":5.37473,"is_reserved":false,"is_disabled":false,"rental_uris":{"android":"levelo://app?vid=9e13c9a5-7387-424a-b4fb-1dc4dce029b5","ios":"levelo://app?vid=9e13c9a5-7387-424a-b4fb-1dc4dce029b5"},"vehicle_type_id":"4","last_reported":1720976962,"current_range_meters":24400,"station_id":"","pricing_plan_id":"cebpf4jnsgd1na2vs0mg"},{"bike_id":"38b57823-eda1-4e58-a521-74a065ade509","system_id":"levelo_inurba_marseille","lat":43.33773,"lon":5.37469,"is_reserved":false,"is_disabled":false,"rental_uris":{"android":"levelo://app?vid=38b57823-eda1-4e58-a521-74a065ade509","ios":"levelo://app?vid=38b57823-eda1-4e58-a521-74a065ade509"},"vehicle_type_id":"4","last_reported":1720976962,"current_range_meters":24000,"station_id":"","pricing_plan_id":"cebpf4jnsgd1na2vs0mg"},{"bike_id":"7fe8718f-2ce5-43ca-bf2f-4cadfbd7a814","system_id":"levelo_inurba_marseille","lat":43.33774,"lon":5.37464,"is_reserved":false,"is_disabled":false,"rental_uris":{"android":"levelo://app?vid=7fe8718f-2ce5-43ca-bf2f-4cadfbd7a814","ios":"levelo://app?vid=7fe8718f-2ce5-43ca-bf2f-4cadfbd7a814"},"vehicle_type_id":"4","last_reported":1720976962,"current_range_meters":16000,"station_id":"","pricing_plan_id":"cebpf4jnsgd1na2vs0mg"},{"bike_id":"39abbf07-2729-49b9-a62e-e135ca141c9b","system_id":"levelo_inurba_marseille","lat":43.33773,"lon":5.37471,"is_reserved":false,"is_disabled":false,"rental_uris":{"android":"levelo://app?vid=39abbf07-2729-49b9-a62e-e135ca141c9b","ios":"levelo://app?vid=39abbf07-2729-49b9-a62e-e135ca141c9b"},"vehicle_type_id":"4","last_reported":1720976962,"current_range_meters":20400,"station_id":"","pricing_plan_id":"cebpf4jnsgd1na2vs0mg"},{"bike_id":"80ff1c69-9419-4f4b-9d57-bf214620b8b3","system_id":"levelo_inurba_marseille","lat":43.33773,"lon":5.374716,"is_reserved":false,"is_disabled":false,"rental_uris":{"android":"levelo://app?vid=80ff1c69-9419-4f4b-9d57-bf214620b8b3","ios":"levelo://app?vid=80ff1c69-9419-4f4b-9d57-bf214620b8b3"},"vehicle_type_id":"4","last_reported":1720976962,"current_range_meters":4800,"station_id":"","pricing_plan_id":"cebpf4jnsgd1na2vs0mg"},{"bike_id":"a4701b34-a47a-4547-9be9-b5a6ebb6ef0f","system_id":"levelo_inurba_marseille","lat":43.33773,"lon":5.37477,"is_reserved":false,"is_disabled":false,"rental_uris":{"android":"levelo://app?vid=a4701b34-a47a-4547-9be9-b5a6ebb6ef0f","ios":"levelo://app?vid=a4701b34-a47a-4547-9be9-b5a6ebb6ef0f"},"vehicle_type_id":"4","last_reported":1720976962,"current_range_meters":17600,"station_id":"","pricing_plan_id":"cebpf4jnsgd1na2vs0mg"},{"bike_id":"c761b19e-877d-432b-bfa8-ed72a86a6759","system_id":"levelo_inurba_marseille","lat":43.33775,"lon":5.37466,"is_reserved":false,"is_disabled":false,"rental_uris":{"android":"levelo://app?vid=c761b19e-877d-432b-bfa8-ed72a86a6759","ios":"levelo://app?vid=c761b19e-877d-432b-bfa8-ed72a86a6759"},"vehicle_type_id":"4","last_reported":1720976962,"current_range_meters":0,"station_id":"","pricing_plan_id":"cebpf4jnsgd1na2vs0mg"},{"bike_id":"0496dc13-34e3-45c2-af9a-f6e2516b223a","system_id":"levelo_inurba_marseille","lat":43.33773,"lon":5.37479,"is_reserved":false,"is_disabled":false,"rental_uris":{"android":"levelo://app?vid=0496dc13-34e3-45c2-af9a-f6e2516b223a","ios":"levelo://app?vid=0496dc13-34e3-45c2-af9a-f6e2516b223a"},"vehicle_type_id":"4","last_reported":1720976962,"current_range_meters":29600,"station_id":"","pricing_plan_id":"cebpf4jnsgd1na2vs0mg"},{"bike_id":"2c101ebf-47bb-4075-9995-419fb34d5f57","system_id":"levelo_inurba_marseille","lat":43.33774,"lon":5.37473,"is_reserved":false,"is_disabled":false,"rental_uris":{"android":"levelo://app?vid=2c101ebf-47bb-4075-9995-419fb34d5f57","ios":"levelo://app?vid=2c101ebf-47bb-4075-9995-419fb34d5f57"},"vehicle_type_id":"4","last_reported":1720976962,"current_range_meters":28800,"station_id":"","pricing_plan_id":"cebpf4jnsgd1na2vs0mg"},{"bike_id":"573b9d78-4adb-4e9e-b480-d279544660f2","system_id":"levelo_inurba_marseille","lat":43.33774,"lon":5.37474,"is_reserved":false,"is_disabled":false,"rental_uris":{"android":"levelo://app?vid=573b9d78-4adb-4e9e-b480-d279544660f2","ios":"levelo://app?vid=573b9d78-4adb-4e9e-b480-d279544660f2"},"vehicle_type_id":"4","last_reported":1720976962,"current_range_meters":8000,"station_id":"","pricing_plan_id":"cebpf4jnsgd1na2vs0mg"},{"bike_id":"0c80325e-daf1-446d-8059-bffa294c7e3e","system_id":"levelo_inurba_marseille","lat":43.33776,"lon":5.37462,"is_reserved":false,"is_disabled":false,"rental_uris":{"android":"levelo://app?vid=0c80325e-daf1-446d-8059-bffa294c7e3e","ios":"levelo://app?vid=0c80325e-daf1-446d-8059-bffa294c7e3e"},"vehicle_type_id":"4","last_reported":1720976962,"current_range_meters":20800,"station_id":"","pricing_plan_id":"cebpf4jnsgd1na2vs0mg"},{"bike_id":"45416cd9-028f-41b0-ac5a-269637c45e42","system_id":"levelo_inurba_marseille","lat":43.33774,"lon":5.37475,"is_reserved":false,"is_disabled":false,"rental_uris":{"android":"levelo://app?vid=45416cd9-028f-41b0-ac5a-269637c45e42","ios":"levelo://app?vid=45416cd9-028f-41b0-ac5a-269637c45e42"},"vehicle_type_id":"4","last_reported":1720976962,"current_range_meters":9200,"station_id":"","pricing_plan_id":"cebpf4jnsgd1na2vs0mg"},{"bike_id":"e951615b-5573-4435-a7b6-8167ff6ade63","system_id":"levelo_inurba_marseille","lat":43.33774,"lon":5.37477,"is_reserved":false,"is_disabled":false,"rental_uris":{"android":"levelo://app?vid=e951615b-5573-4435-a7b6-8167ff6ade63","ios":"levelo://app?vid=e951615b-5573-4435-a7b6-8167ff6ade63"},"vehicle_type_id":"4","last_reported":1720976962,"current_range_meters":13600,"station_id":"","pricing_plan_id":"cebpf4jnsgd1na2vs0mg"},{"bike_id":"215d24e0-7b63-49a8-aed8-8b8c5a53b355","system_id":"levelo_inurba_marseille","lat":43.33774,"lon":5.37478,"is_reserved":false,"is_disabled":false,"rental_uris":{"android":"levelo://app?vid=215d24e0-7b63-49a8-aed8-8b8c5a53b355","ios":"levelo://app?vid=215d24e0-7b63-49a8-aed8-8b8c5a53b355"},"vehicle_type_id":"4","last_reported":1720976962,"current_range_meters":15600,"station_id":"","pricing_plan_id":"cebpf4jnsgd1na2vs0mg"},{"bike_id":"2fa411ed-3fa9-4268-b414-c8e45152bf4d","system_id":"levelo_inurba_marseille","lat":43.33775,"lon":5.37473,"is_reserved":false,"is_disabled":false,"rental_uris":{"android":"levelo://app?vid=2fa411ed-3fa9-4268-b414-c8e45152bf4d","ios":"levelo://app?vid=2fa411ed-3fa9-4268-b414-c8e45152bf4d"},"vehicle_type_id":"4","last_reported":1720976962,"current_range_meters":13600,"station_id":"","pricing_plan_id":"cebpf4jnsgd1na2vs0mg"},{"bike_id":"a5b64c84-5508-41ed-bc97-8b733f293107","system_id":"levelo_inurba_marseille","lat":43.33776,"lon":5.37471,"is_reserved":false,"is_disabled":false,"rental_uris":{"android":"levelo://app?vid=a5b64c84-5508-41ed-bc97-8b733f293107","ios":"levelo://app?vid=a5b64c84-5508-41ed-bc97-8b733f293107"},"vehicle_type_id":"4","last_reported":1720976962,"current_range_meters":24000,"station_id":"","pricing_plan_id":"cebpf4jnsgd1na2vs0mg"},{"bike_id":"60014351-6980-43c2-9516-117e9bc87905","system_id":"levelo_inurba_marseille","lat":43.33777,"lon":5.37474,"is_reserved":false,"is_disabled":false,"rental_uris":{"android":"levelo://app?vid=60014351-6980-43c2-9516-117e9bc87905","ios":"levelo://app?vid=60014351-6980-43c2-9516-117e9bc87905"},"vehicle_type_id":"4","last_reported":1720976962,"current_range_meters":15200,"station_id":"","pricing_plan_id":"cebpf4jnsgd1na2vs0mg"},{"bike_id":"0d58fd1b-f1d1-4fc6-a4e4-51a623e9a871","system_id":"levelo_inurba_marseille","lat":43.33778,"lon":5.37483,"is_reserved":false,"is_disabled":false,"rental_uris":{"android":"levelo://app?vid=0d58fd1b-f1d1-4fc6-a4e4-51a623e9a871","ios":"levelo://app?vid=0d58fd1b-f1d1-4fc6-a4e4-51a623e9a871"},"vehicle_type_id":"4","last_reported":1720976962,"current_range_meters":30800,"station_id":"","pricing_plan_id":"cebpf4jnsgd1na2vs0mg"},{"bike_id":"6a7292e3-cf5c-4be2-9f3e-b94f96bacb1e","system_id":"levelo_inurba_marseille","lat":43.30129,"lon":5.39855,"is_reserved":false,"is_disabled":false,"rental_uris":{"android":"levelo://app?vid=6a7292e3-cf5c-4be2-9f3e-b94f96bacb1e","ios":"levelo://app?vid=6a7292e3-cf5c-4be2-9f3e-b94f96bacb1e"},"vehicle_type_id":"4","last_reported":1720976962,"current_range_meters":0,"station_id":"ce4bh0h2rcd13ifvqd40","pricing_plan_id":"cebpf4jnsgd1na2vs0mg"},{"bike_id":"61d6ceb4-08de-4f6b-b999-7649f3a28bee","system_id":"levelo_inurba_marseille","lat":43.30138,"lon":5.39864,"is_reserved":false,"is_disabled":false,"rental_uris":{"android":"levelo://app?vid=61d6ceb4-08de-4f6b-b999-7649f3a28bee","ios":"levelo://app?vid=61d6ceb4-08de-4f6b-b999-7649f3a28bee"},"vehicle_type_id":"4","last_reported":1720976962,"current_range_meters":0,"station_id":"ce4bh0h2rcd13ifvqd40","pricing_plan_id":"cebpf4jnsgd1na2vs0mg"},{"bike_id":"779a0170-3ff2-4826-8e67-9f8af7e8e91d","system_id":"levelo_inurba_marseille","lat":43.286591,"lon":5.363346,"is_reserved":false,"is_disabled":false,"rental_uris":{"android":"levelo://app?vid=779a0170-3ff2-4826-8e67-9f8af7e8e91d","ios":"levelo://app?vid=779a0170-3ff2-4826-8e67-9f8af7e8e91d"},"vehicle_type_id":"4","last_reported":1720976962,"current_range_meters":12000,"station_id":"ce4bhah2rcd13ifvqej0","pricing_plan_id":"cebpf4jnsgd1na2vs0mg"},{"bike_id":"ad5e0726-5169-4d2b-9ba3-4d24ddcf6296","system_id":"levelo_inurba_marseille","lat":43.286961,"lon":5.373785,"is_reserved":false,"is_disabled":false,"rental_uris":{"android":"levelo://app?vid=ad5e0726-5169-4d2b-9ba3-4d24ddcf6296","ios":"levelo://app?vid=ad5e0726-5169-4d2b-9ba3-4d24ddcf6296"},"vehicle_type_id":"4","last_reported":1720976962,"current_range_meters":2400,"station_id":"ce4bh3p2rcd13ifvqdq0","pricing_plan_id":"cebpf4jnsgd1na2vs0mg"},{"bike_id":"fa3f2168-e2a3-4588-b0a2-43453234b39b","system_id":"levelo_inurba_marseille","lat":43.29025,"lon":5.38639,"is_reserved":false,"is_disabled":false,"rental_uris":{"android":"levelo://app?vid=fa3f2168-e2a3-4588-b0a2-43453234b39b","ios":"levelo://app?vid=fa3f2168-e2a3-4588-b0a2-43453234b39b"},"vehicle_type_id":"4","last_reported":1720976962,"current_range_meters":0,"station_id":"ce4bh4p2rcd13ifvqe0g","pricing_plan_id":"cebpf4jnsgd1na2vs0mg"},{"bike_id":"2e9b1412-5bb5-4252-946d-e2e3a6d98be5","system_id":"levelo_inurba_marseille","lat":43.286039,"lon":5.370679,"is_reserved":false,"is_disabled":false,"rental_uris":{"android":"levelo://app?vid=2e9b1412-5bb5-4252-946d-e2e3a6d98be5","ios":"levelo://app?vid=2e9b1412-5bb5-4252-946d-e2e3a6d98be5"},"vehicle_type_id":"4","last_reported":1720976962,"current_range_meters":18800,"station_id":"ce4bht12rcd13ifvqi60","pricing_plan_id":"cebpf4jnsgd1na2vs0mg"},{"bike_id":"43995347-4bb8-45a6-a8b6-6001d8822dc0","system_id":"levelo_inurba_marseille","lat":43.286039,"lon":5.370679,"is_reserved":false,"is_disabled":false,"rental_uris":{"android":"levelo://app?vid=43995347-4bb8-45a6-a8b6-6001d8822dc0","ios":"levelo://app?vid=43995347-4bb8-45a6-a8b6-6001d8822dc0"},"vehicle_type_id":"4","last_reported":1720976962,"current_range_meters":6000,"station_id":"ce4bht12rcd13ifvqi60","pricing_plan_id":"cebpf4jnsgd1na2vs0mg"},{"bike_id":"550e72b7-b184-4b65-aa6f-c3b039e0b1f1","system_id":"levelo_inurba_marseille","lat":43.286039,"lon":5.370679,"is_reserved":false,"is_disabled":false,"rental_uris":{"android":"levelo://app?vid=550e72b7-b184-4b65-aa6f-c3b039e0b1f1","ios":"levelo://app?vid=550e72b7-b184-4b65-aa6f-c3b039e0b1f1"},"vehicle_type_id":"4","last_reported":1720976962,"current_range_meters":0,"station_id":"ce4bht12rcd13ifvqi60","pricing_plan_id":"cebpf4jnsgd1na2vs0mg"},{"bike_id":"d754aefb-b8e9-4af2-bf56-71d90157013f","system_id":"levelo_inurba_marseille","lat":43.286039,"lon":5.370681,"is_reserved":false,"is_disabled":false,"rental_uris":{"android":"levelo://app?vid=d754aefb-b8e9-4af2-bf56-71d90157013f","ios":"levelo://app?vid=d754aefb-b8e9-4af2-bf56-71d90157013f"},"vehicle_type_id":"4","last_reported":1720976962,"current_range_meters":3200,"station_id":"ce4bht12rcd13ifvqi60","pricing_plan_id":"cebpf4jnsgd1na2vs0mg"},{"bike_id":"cba45539-58a4-404f-ace2-78a27820b63e","system_id":"levelo_inurba_marseille","lat":43.287155,"lon":5.379395,"is_reserved":false,"is_disabled":false,"rental_uris":{"android":"levelo://app?vid=cba45539-58a4-404f-ace2-78a27820b63e","ios":"levelo://app?vid=cba45539-58a4-404f-ace2-78a27820b63e"},"vehicle_type_id":"4","last_reported":1720976962,"current_range_meters":0,"station_id":"ce4bh9p2rcd13ifvqec0","pricing_plan_id":"cebpf4jnsgd1na2vs0mg"},{"bike_id":"1317b964-695b-4833-968e-f9280c3ec0d1","system_id":"levelo_inurba_marseille","lat":43.316828,"lon":5.404723,"is_reserved":false,"is_disabled":false,"rental_uris":{"android":"levelo://app?vid=1317b964-695b-4833-968e-f9280c3ec0d1","ios":"levelo://app?vid=1317b964-695b-4833-968e-f9280c3ec0d1"},"vehicle_type_id":"4","last_reported":1720976962,"current_range_meters":26000,"station_id":"ce4bh012rcd13ifvqd00","pricing_plan_id":"cebpf4jnsgd1na2vs0mg"},{"bike_id":"0cc9b98e-2a12-4784-80ab-e870c8bd423b","system_id":"levelo_inurba_marseille","lat":43.291994,"lon":5.392907,"is_reserved":false,"is_disabled":false,"rental_uris":{"android":"levelo://app?vid=0cc9b98e-2a12-4784-80ab-e870c8bd423b","ios":"levelo://app?vid=0cc9b98e-2a12-4784-80ab-e870c8bd423b"},"vehicle_type_id":"4","last_reported":1720976962,"current_range_meters":2000,"station_id":"ce4bh192rcd13ifvqdd0","pricing_plan_id":"cebpf4jnsgd1na2vs0mg"},{"bike_id":"f878153c-72b2-4597-a7ed-04cb8bdbd791","system_id":"levelo_inurba_marseille","lat":43.284534,"lon":5.358662,"is_reserved":false,"is_disabled":false,"rental_uris":{"android":"levelo://app?vid=f878153c-72b2-4597-a7ed-04cb8bdbd791","ios":"levelo://app?vid=f878153c-72b2-4597-a7ed-04cb8bdbd791"},"vehicle_type_id":"4","last_reported":1720976962,"current_range_meters":6800,"station_id":"ce4bhah2rcd13ifvqei0","pricing_plan_id":"cebpf4jnsgd1na2vs0mg"},{"bike_id":"eaaa4cc2-0cef-41c0-8cb5-fe7d669fef68","system_id":"levelo_inurba_marseille","lat":43.284538,"lon":5.358657,"is_reserved":false,"is_disabled":false,"rental_uris":{"android":"levelo://app?vid=eaaa4cc2-0cef-41c0-8cb5-fe7d669fef68","ios":"levelo://app?vid=eaaa4cc2-0cef-41c0-8cb5-fe7d669fef68"},"vehicle_type_id":"4","last_reported":1720976962,"current_range_meters":3600,"station_id":"ce4bhah2rcd13ifvqei0","pricing_plan_id":"cebpf4jnsgd1na2vs0mg"},{"bike_id":"39bf2867-5f47-4fd3-a573-8996ca8ec833","system_id":"levelo_inurba_marseille","lat":43.284534,"lon":5.358662,"is_reserved":false,"is_disabled":false,"rental_uris":{"android":"levelo://app?vid=39bf2867-5f47-4fd3-a573-8996ca8ec833","ios":"levelo://app?vid=39bf2867-5f47-4fd3-a573-8996ca8ec833"},"vehicle_type_id":"4","last_reported":1720976962,"current_range_meters":14800,"station_id":"ce4bhah2rcd13ifvqei0","pricing_plan_id":"cebpf4jnsgd1na2vs0mg"},{"bike_id":"6f0a3c7a-a0dd-4732-b0be-c2d2c6b11cb1","system_id":"levelo_inurba_marseille","lat":43.28456,"lon":5.35896,"is_reserved":false,"is_disabled":false,"rental_uris":{"android":"levelo://app?vid=6f0a3c7a-a0dd-4732-b0be-c2d2c6b11cb1","ios":"levelo://app?vid=6f0a3c7a-a0dd-4732-b0be-c2d2c6b11cb1"},"vehicle_type_id":"4","last_reported":1720976962,"current_range_meters":0,"station_id":"ce4bhah2rcd13ifvqei0","pricing_plan_id":"cebpf4jnsgd1na2vs0mg"},{"bike_id":"eb5e5c49-2f2f-4759-b011-07292d7e0d95","system_id":"levelo_inurba_marseille","lat":43.28623,"lon":5.35106,"is_reserved":false,"is_disabled":false,"rental_uris":{"android":"levelo://app?vid=eb5e5c49-2f2f-4759-b011-07292d7e0d95","ios":"levelo://app?vid=eb5e5c49-2f2f-4759-b011-07292d7e0d95"},"vehicle_type_id":"4","last_reported":1720976962,"current_range_meters":0,"station_id":"ce4bhch2rcd13ifvqeug","pricing_plan_id":"cebpf4jnsgd1na2vs0mg"},{"bike_id":"9f6b30e5-f91b-4350-a64a-a0b76be4bc5e","system_id":"levelo_inurba_marseille","lat":43.28619,"lon":5.35107,"is_reserved":false,"is_disabled":false,"rental_uris":{"android":"levelo://app?vid=9f6b30e5-f91b-4350-a64a-a0b76be4bc5e","ios":"levelo://app?vid=9f6b30e5-f91b-4350-a64a-a0b76be4bc5e"},"vehicle_type_id":"4","last_reported":1720976962,"current_range_meters":0,"station_id":"ce4bhch2rcd13ifvqeug","pricing_plan_id":"cebpf4jnsgd1na2vs0mg"},{"bike_id":"051536f5-a3b3-4040-9b4e-926eb2bd473f","system_id":"levelo_inurba_marseille","lat":43.2862,"lon":5.351,"is_reserved":false,"is_disabled":false,"rental_uris":{"android":"levelo://app?vid=051536f5-a3b3-4040-9b4e-926eb2bd473f","ios":"levelo://app?vid=051536f5-a3b3-4040-9b4e-926eb2bd473f"},"vehicle_type_id":"4","last_reported":1720976962,"current_range_meters":0,"station_id":"ce4bhch2rcd13ifvqeug","pricing_plan_id":"cebpf4jnsgd1na2vs0mg"},{"bike_id":"f9e1c8c8-04a9-4a49-85c2-497fa36e9952","system_id":"levelo_inurba_marseille","lat":43.285856,"lon":5.350771,"is_reserved":false,"is_disabled":false,"rental_uris":{"android":"levelo://app?vid=f9e1c8c8-04a9-4a49-85c2-497fa36e9952","ios":"levelo://app?vid=f9e1c8c8-04a9-4a49-85c2-497fa36e9952"},"vehicle_type_id":"4","last_reported":1720976962,"current_range_meters":0,"station_id":"ce4bhch2rcd13ifvqeug","pricing_plan_id":"cebpf4jnsgd1na2vs0mg"},{"bike_id":"bf831f3b-7d96-484a-a72e-7cc5a6afa9d8","system_id":"levelo_inurba_marseille","lat":43.28614,"lon":5.35103,"is_reserved":false,"is_disabled":false,"rental_uris":{"android":"levelo://app?vid=bf831f3b-7d96-484a-a72e-7cc5a6afa9d8","ios":"levelo://app?vid=bf831f3b-7d96-484a-a72e-7cc5a6afa9d8"},"vehicle_type_id":"4","last_reported":1720976962,"current_range_meters":0,"station_id":"ce4bhch2rcd13ifvqeug","pricing_plan_id":"cebpf4jnsgd1na2vs0mg"},{"bike_id":"c98ba8fa-2f38-49c2-bd24-ef9b2181efcf","system_id":"levelo_inurba_marseille","lat":43.285856,"lon":5.350771,"is_reserved":false,"is_disabled":false,"rental_uris":{"android":"levelo://app?vid=c98ba8fa-2f38-49c2-bd24-ef9b2181efcf","ios":"levelo://app?vid=c98ba8fa-2f38-49c2-bd24-ef9b2181efcf"},"vehicle_type_id":"4","last_reported":1720976962,"current_range_meters":0,"station_id":"ce4bhch2rcd13ifvqeug","pricing_plan_id":"cebpf4jnsgd1na2vs0mg"},{"bike_id":"ea5c89bf-d945-4cac-8e17-21ff9494da4a","system_id":"levelo_inurba_marseille","lat":43.285856,"lon":5.350771,"is_reserved":false,"is_disabled":false,"rental_uris":{"android":"levelo://app?vid=ea5c89bf-d945-4cac-8e17-21ff9494da4a","ios":"levelo://app?vid=ea5c89bf-d945-4cac-8e17-21ff9494da4a"},"vehicle_type_id":"4","last_reported":1720976962,"current_range_meters":0,"station_id":"ce4bhch2rcd13ifvqeug","pricing_plan_id":"cebpf4jnsgd1na2vs0mg"},{"bike_id":"75b5bc27-ec30-4165-8054-2eb7ccaa8008","system_id":"levelo_inurba_marseille","lat":43.28411,"lon":5.37511,"is_reserved":false,"is_disabled":false,"rental_uris":{"android":"levelo://app?vid=75b5bc27-ec30-4165-8054-2eb7ccaa8008","ios":"levelo://app?vid=75b5bc27-ec30-4165-8054-2eb7ccaa8008"},"vehicle_type_id":"4","last_reported":1720976962,"current_range_meters":0,"station_id":"ce4bh412rcd13ifvqds0","pricing_plan_id":"cebpf4jnsgd1na2vs0mg"},{"bike_id":"6730b02e-ca09-40f7-b853-7120a967d4d1","system_id":"levelo_inurba_marseille","lat":43.28677,"lon":5.38675,"is_reserved":false,"is_disabled":false,"rental_uris":{"android":"levelo://app?vid=6730b02e-ca09-40f7-b853-7120a967d4d1","ios":"levelo://app?vid=6730b02e-ca09-40f7-b853-7120a967d4d1"},"vehicle_type_id":"4","last_reported":1720976962,"current_range_meters":0,"station_id":"ce4bh492rcd13ifvqdug","pricing_plan_id":"cebpf4jnsgd1na2vs0mg"},{"bike_id":"ef08d979-9f7e-43ce-8c23-6d5029711b56","system_id":"levelo_inurba_marseille","lat":43.286595,"lon":5.386795,"is_reserved":false,"is_disabled":false,"rental_uris":{"android":"levelo://app?vid=ef08d979-9f7e-43ce-8c23-6d5029711b56","ios":"levelo://app?vid=ef08d979-9f7e-43ce-8c23-6d5029711b56"},"vehicle_type_id":"4","last_reported":1720976962,"current_range_meters":0,"station_id":"ce4bh492rcd13ifvqdug","pricing_plan_id":"cebpf4jnsgd1na2vs0mg"},{"bike_id":"0c8277e0-154e-4893-a213-53abe3ac51a0","system_id":"levelo_inurba_marseille","lat":43.286595,"lon":5.386795,"is_reserved":false,"is_disabled":false,"rental_uris":{"android":"levelo://app?vid=0c8277e0-154e-4893-a213-53abe3ac51a0","ios":"levelo://app?vid=0c8277e0-154e-4893-a213-53abe3ac51a0"},"vehicle_type_id":"4","last_reported":1720976962,"current_range_meters":0,"station_id":"ce4bh492rcd13ifvqdug","pricing_plan_id":"cebpf4jnsgd1na2vs0mg"},{"bike_id":"d2de1ba2-38d9-4343-857f-dc95132e60e1","system_id":"levelo_inurba_marseille","lat":43.33717,"lon":5.391857,"is_reserved":false,"is_disabled":false,"rental_uris":{"android":"levelo://app?vid=d2de1ba2-38d9-4343-857f-dc95132e60e1","ios":"levelo://app?vid=d2de1ba2-38d9-4343-857f-dc95132e60e1"},"vehicle_type_id":"4","last_reported":1720976962,"current_range_meters":5200,"station_id":"ce4bhr92rcd13ifvqhsg","pricing_plan_id":"cebpf4jnsgd1na2vs0mg"},{"bike_id":"9333b8c1-0385-4eed-8d6e-70036366fa3c","system_id":"levelo_inurba_marseille","lat":43.33717,"lon":5.391857,"is_reserved":false,"is_disabled":false,"rental_uris":{"android":"levelo://app?vid=9333b8c1-0385-4eed-8d6e-70036366fa3c","ios":"levelo://app?vid=9333b8c1-0385-4eed-8d6e-70036366fa3c"},"vehicle_type_id":"4","last_reported":1720976962,"current_range_meters":31200,"station_id":"ce4bhr92rcd13ifvqhsg","pricing_plan_id":"cebpf4jnsgd1na2vs0mg"},{"bike_id":"d8a53db4-479e-4511-bee3-cbcbb80ffb8a","system_id":"levelo_inurba_marseille","lat":43.33717,"lon":5.391857,"is_reserved":false,"is_disabled":false,"rental_uris":{"android":"levelo://app?vid=d8a53db4-479e-4511-bee3-cbcbb80ffb8a","ios":"levelo://app?vid=d8a53db4-479e-4511-bee3-cbcbb80ffb8a"},"vehicle_type_id":"4","last_reported":1720976962,"current_range_meters":30400,"station_id":"ce4bhr92rcd13ifvqhsg","pricing_plan_id":"cebpf4jnsgd1na2vs0mg"},{"bike_id":"ca370fc9-f07f-46ad-b105-ed3826d5870d","system_id":"levelo_inurba_marseille","lat":43.32342,"lon":5.40616,"is_reserved":false,"is_disabled":false,"rental_uris":{"android":"levelo://app?vid=ca370fc9-f07f-46ad-b105-ed3826d5870d","ios":"levelo://app?vid=ca370fc9-f07f-46ad-b105-ed3826d5870d"},"vehicle_type_id":"4","last_reported":1720976962,"current_range_meters":0,"station_id":"ce4bhq92rcd13ifvqhjg","pricing_plan_id":"cebpf4jnsgd1na2vs0mg"},{"bike_id":"3669a729-98c2-47c5-ba33-8fdbe8723a14","system_id":"levelo_inurba_marseille","lat":43.33717,"lon":5.391857,"is_reserved":false,"is_disabled":false,"rental_uris":{"android":"levelo://app?vid=3669a729-98c2-47c5-ba33-8fdbe8723a14","ios":"levelo://app?vid=3669a729-98c2-47c5-ba33-8fdbe8723a14"},"vehicle_type_id":"4","last_reported":1720976962,"current_range_meters":24800,"station_id":"ce4bhr92rcd13ifvqhsg","pricing_plan_id":"cebpf4jnsgd1na2vs0mg"},{"bike_id":"a14f830d-e880-4da5-8bc0-a9935b4cce2f","system_id":"levelo_inurba_marseille","lat":43.323464,"lon":5.406297,"is_reserved":false,"is_disabled":false,"rental_uris":{"android":"levelo://app?vid=a14f830d-e880-4da5-8bc0-a9935b4cce2f","ios":"levelo://app?vid=a14f830d-e880-4da5-8bc0-a9935b4cce2f"},"vehicle_type_id":"4","last_reported":1720976962,"current_range_meters":13200,"station_id":"ce4bhq92rcd13ifvqhjg","pricing_plan_id":"cebpf4jnsgd1na2vs0mg"},{"bike_id":"21e4ef63-0a9d-476f-b956-f659d25c40c2","system_id":"levelo_inurba_marseille","lat":43.33725,"lon":5.39192,"is_reserved":false,"is_disabled":false,"rental_uris":{"android":"levelo://app?vid=21e4ef63-0a9d-476f-b956-f659d25c40c2","ios":"levelo://app?vid=21e4ef63-0a9d-476f-b956-f659d25c40c2"},"vehicle_type_id":"4","last_reported":1720976962,"current_range_meters":800,"station_id":"ce4bhr92rcd13ifvqhsg","pricing_plan_id":"cebpf4jnsgd1na2vs0mg"},{"bike_id":"461c5ecb-46bf-4e4d-961b-415a2746ce7a","system_id":"levelo_inurba_marseille","lat":43.3235,"lon":5.4062,"is_reserved":false,"is_disabled":false,"rental_uris":{"android":"levelo://app?vid=461c5ecb-46bf-4e4d-961b-415a2746ce7a","ios":"levelo://app?vid=461c5ecb-46bf-4e4d-961b-415a2746ce7a"},"vehicle_type_id":"4","last_reported":1720976962,"current_range_meters":0,"station_id":"ce4bhq92rcd13ifvqhjg","pricing_plan_id":"cebpf4jnsgd1na2vs0mg"},{"bike_id":"2d940ee5-88e2-47e7-becf-8a2178e98459","system_id":"levelo_inurba_marseille","lat":43.337238,"lon":5.391996,"is_reserved":false,"is_disabled":false,"rental_uris":{"android":"levelo://app?vid=2d940ee5-88e2-47e7-becf-8a2178e98459","ios":"levelo://app?vid=2d940ee5-88e2-47e7-becf-8a2178e98459"},"vehicle_type_id":"4","last_reported":1720976962,"current_range_meters":16800,"station_id":"ce4bhr92rcd13ifvqhsg","pricing_plan_id":"cebpf4jnsgd1na2vs0mg"},{"bike_id":"af2cacab-c814-4319-baee-386bbb648339","system_id":"levelo_inurba_marseille","lat":43.284793,"lon":5.384113,"is_reserved":false,"is_disabled":false,"rental_uris":{"android":"levelo://app?vid=af2cacab-c814-4319-baee-386bbb648339","ios":"levelo://app?vid=af2cacab-c814-4319-baee-386bbb648339"},"vehicle_type_id":"4","last_reported":1720976962,"current_range_meters":0,"station_id":"ce4bh512rcd13ifvqe3g","pricing_plan_id":"cebpf4jnsgd1na2vs0mg"},{"bike_id":"1d535db4-c643-4572-a29d-037c298b392d","system_id":"levelo_inurba_marseille","lat":43.283498,"lon":5.380948,"is_reserved":false,"is_disabled":false,"rental_uris":{"android":"levelo://app?vid=1d535db4-c643-4572-a29d-037c298b392d","ios":"levelo://app?vid=1d535db4-c643-4572-a29d-037c298b392d"},"vehicle_type_id":"4","last_reported":1720976962,"current_range_meters":5600,"station_id":"ce4bh412rcd13ifvqdr0","pricing_plan_id":"cebpf4jnsgd1na2vs0mg"},{"bike_id":"cf12ba74-aa85-43ec-9b18-954a5f3d12f6","system_id":"levelo_inurba_marseille","lat":43.288408,"lon":5.393176,"is_reserved":false,"is_disabled":false,"rental_uris":{"android":"levelo://app?vid=cf12ba74-aa85-43ec-9b18-954a5f3d12f6","ios":"levelo://app?vid=cf12ba74-aa85-43ec-9b18-954a5f3d12f6"},"vehicle_type_id":"4","last_reported":1720976962,"current_range_meters":0,"station_id":"","pricing_plan_id":"cebpf4jnsgd1na2vs0mg"},{"bike_id":"a6bbc5e2-b748-4f46-a1b4-38dd60793f80","system_id":"levelo_inurba_marseille","lat":43.283494,"lon":5.380945,"is_reserved":false,"is_disabled":false,"rental_uris":{"android":"levelo://app?vid=a6bbc5e2-b748-4f46-a1b4-38dd60793f80","ios":"levelo://app?vid=a6bbc5e2-b748-4f46-a1b4-38dd60793f80"},"vehicle_type_id":"4","last_reported":1720976962,"current_range_meters":17600,"station_id":"ce4bh412rcd13ifvqdr0","pricing_plan_id":"cebpf4jnsgd1na2vs0mg"},{"bike_id":"95cae070-be2e-4dab-a480-92239297be99","system_id":"levelo_inurba_marseille","lat":43.28424,"lon":5.34988,"is_reserved":false,"is_disabled":false,"rental_uris":{"android":"levelo://app?vid=95cae070-be2e-4dab-a480-92239297be99","ios":"levelo://app?vid=95cae070-be2e-4dab-a480-92239297be99"},"vehicle_type_id":"4","last_reported":1720976962,"current_range_meters":0,"station_id":"ce4bhbh2rcd13ifvqepg","pricing_plan_id":"cebpf4jnsgd1na2vs0mg"},{"bike_id":"1362670b-cdf0-49df-923b-d7a04731a861","system_id":"levelo_inurba_marseille","lat":43.28423,"lon":5.34982,"is_reserved":false,"is_disabled":false,"rental_uris":{"android":"levelo://app?vid=1362670b-cdf0-49df-923b-d7a04731a861","ios":"levelo://app?vid=1362670b-cdf0-49df-923b-d7a04731a861"},"vehicle_type_id":"4","last_reported":1720976962,"current_range_meters":0,"station_id":"ce4bhbh2rcd13ifvqepg","pricing_plan_id":"cebpf4jnsgd1na2vs0mg"},{"bike_id":"38b724ae-2a4a-4095-98bc-55c29b9c9cac","system_id":"levelo_inurba_marseille","lat":43.28422,"lon":5.3498,"is_reserved":false,"is_disabled":false,"rental_uris":{"android":"levelo://app?vid=38b724ae-2a4a-4095-98bc-55c29b9c9cac","ios":"levelo://app?vid=38b724ae-2a4a-4095-98bc-55c29b9c9cac"},"vehicle_type_id":"4","last_reported":1720976962,"current_range_meters":0,"station_id":"ce4bhbh2rcd13ifvqepg","pricing_plan_id":"cebpf4jnsgd1na2vs0mg"},{"bike_id":"cce7bcc5-4077-4637-b583-0ac93c0b1117","system_id":"levelo_inurba_marseille","lat":43.28418,"lon":5.34981,"is_reserved":false,"is_disabled":false,"rental_uris":{"android":"levelo://app?vid=cce7bcc5-4077-4637-b583-0ac93c0b1117","ios":"levelo://app?vid=cce7bcc5-4077-4637-b583-0ac93c0b1117"},"vehicle_type_id":"4","last_reported":1720976962,"current_range_meters":0,"station_id":"ce4bhbh2rcd13ifvqepg","pricing_plan_id":"cebpf4jnsgd1na2vs0mg"},{"bike_id":"9c312f6a-47aa-47da-bab4-a83b984702ed","system_id":"levelo_inurba_marseille","lat":43.28415,"lon":5.34978,"is_reserved":false,"is_disabled":false,"rental_uris":{"android":"levelo://app?vid=9c312f6a-47aa-47da-bab4-a83b984702ed","ios":"levelo://app?vid=9c312f6a-47aa-47da-bab4-a83b984702ed"},"vehicle_type_id":"4","last_reported":1720976962,"current_range_meters":0,"station_id":"ce4bhbh2rcd13ifvqepg","pricing_plan_id":"cebpf4jnsgd1na2vs0mg"},{"bike_id":"52dd987c-cace-427b-b0af-518f56f31b79","system_id":"levelo_inurba_marseille","lat":43.28415,"lon":5.34977,"is_reserved":false,"is_disabled":false,"rental_uris":{"android":"levelo://app?vid=52dd987c-cace-427b-b0af-518f56f31b79","ios":"levelo://app?vid=52dd987c-cace-427b-b0af-518f56f31b79"},"vehicle_type_id":"4","last_reported":1720976962,"current_range_meters":0,"station_id":"ce4bhbh2rcd13ifvqepg","pricing_plan_id":"cebpf4jnsgd1na2vs0mg"},{"bike_id":"bf9dc351-cda9-48ad-98c1-214739826340","system_id":"levelo_inurba_marseille","lat":43.28936,"lon":5.39627,"is_reserved":false,"is_disabled":false,"rental_uris":{"android":"levelo://app?vid=bf9dc351-cda9-48ad-98c1-214739826340","ios":"levelo://app?vid=bf9dc351-cda9-48ad-98c1-214739826340"},"vehicle_type_id":"4","last_reported":1720976962,"current_range_meters":0,"station_id":"ce4bh3h2rcd13ifvqdn0","pricing_plan_id":"cebpf4jnsgd1na2vs0mg"},{"bike_id":"3331314b-75df-4c89-b704-ef8b2d63e652","system_id":"levelo_inurba_marseille","lat":43.29149,"lon":5.39971,"is_reserved":false,"is_disabled":false,"rental_uris":{"android":"levelo://app?vid=3331314b-75df-4c89-b704-ef8b2d63e652","ios":"levelo://app?vid=3331314b-75df-4c89-b704-ef8b2d63e652"},"vehicle_type_id":"4","last_reported":1720976962,"current_range_meters":0,"station_id":"","pricing_plan_id":"cebpf4jnsgd1na2vs0mg"},{"bike_id":"929a930b-2972-4162-9dd8-53190f3cd5de","system_id":"levelo_inurba_marseille","lat":43.28274,"lon":5.35071,"is_reserved":false,"is_disabled":false,"rental_uris":{"android":"levelo://app?vid=929a930b-2972-4162-9dd8-53190f3cd5de","ios":"levelo://app?vid=929a930b-2972-4162-9dd8-53190f3cd5de"},"vehicle_type_id":"4","last_reported":1720976962,"current_range_meters":0,"station_id":"ce4bhbp2rcd13ifvqerg","pricing_plan_id":"cebpf4jnsgd1na2vs0mg"},{"bike_id":"6c9508c6-6fe9-4923-bbe8-f78e363c9689","system_id":"levelo_inurba_marseille","lat":43.28271,"lon":5.35069,"is_reserved":false,"is_disabled":false,"rental_uris":{"android":"levelo://app?vid=6c9508c6-6fe9-4923-bbe8-f78e363c9689","ios":"levelo://app?vid=6c9508c6-6fe9-4923-bbe8-f78e363c9689"},"vehicle_type_id":"4","last_reported":1720976962,"current_range_meters":0,"station_id":"ce4bhbp2rcd13ifvqerg","pricing_plan_id":"cebpf4jnsgd1na2vs0mg"},{"bike_id":"fc87b12e-55c8-4c32-b6e5-3285e88eacec","system_id":"levelo_inurba_marseille","lat":43.282744,"lon":5.350533,"is_reserved":false,"is_disabled":false,"rental_uris":{"android":"levelo://app?vid=fc87b12e-55c8-4c32-b6e5-3285e88eacec","ios":"levelo://app?vid=fc87b12e-55c8-4c32-b6e5-3285e88eacec"},"vehicle_type_id":"4","last_reported":1720976962,"current_range_meters":0,"station_id":"ce4bhbp2rcd13ifvqerg","pricing_plan_id":"cebpf4jnsgd1na2vs0mg"},{"bike_id":"e946772f-a4f6-4d28-aad7-5654cd274bf9","system_id":"levelo_inurba_marseille","lat":43.282727,"lon":5.350547,"is_reserved":false,"is_disabled":false,"rental_uris":{"android":"levelo://app?vid=e946772f-a4f6-4d28-aad7-5654cd274bf9","ios":"levelo://app?vid=e946772f-a4f6-4d28-aad7-5654cd274bf9"},"vehicle_type_id":"4","last_reported":1720976962,"current_range_meters":0,"station_id":"ce4bhbp2rcd13ifvqerg","pricing_plan_id":"cebpf4jnsgd1na2vs0mg"},{"bike_id":"c1d79601-5623-47ec-b32d-e5c3e1925878","system_id":"levelo_inurba_marseille","lat":43.28272,"lon":5.35056,"is_reserved":false,"is_disabled":false,"rental_uris":{"android":"levelo://app?vid=c1d79601-5623-47ec-b32d-e5c3e1925878","ios":"levelo://app?vid=c1d79601-5623-47ec-b32d-e5c3e1925878"},"vehicle_type_id":"4","last_reported":1720976962,"current_range_meters":0,"station_id":"ce4bhbp2rcd13ifvqerg","pricing_plan_id":"cebpf4jnsgd1na2vs0mg"},{"bike_id":"2466a04b-fda2-42c8-a0e7-1800c5c97e6b","system_id":"levelo_inurba_marseille","lat":43.282683,"lon":5.35061,"is_reserved":false,"is_disabled":false,"rental_uris":{"android":"levelo://app?vid=2466a04b-fda2-42c8-a0e7-1800c5c97e6b","ios":"levelo://app?vid=2466a04b-fda2-42c8-a0e7-1800c5c97e6b"},"vehicle_type_id":"4","last_reported":1720976962,"current_range_meters":0,"station_id":"ce4bhbp2rcd13ifvqerg","pricing_plan_id":"cebpf4jnsgd1na2vs0mg"},{"bike_id":"f3bdb0a0-f3d2-4f43-9d5f-e645b9812e34","system_id":"levelo_inurba_marseille","lat":43.2827,"lon":5.35054,"is_reserved":false,"is_disabled":false,"rental_uris":{"android":"levelo://app?vid=f3bdb0a0-f3d2-4f43-9d5f-e645b9812e34","ios":"levelo://app?vid=f3bdb0a0-f3d2-4f43-9d5f-e645b9812e34"},