{"last_updated":1736792008,"ttl":60,"version":"2.2","data":{"bikes":[{"bike_id":"2f4e0253-da65-48c9-961b-7746ab2ffb8d","system_id":"levelo_inurba_marseille","lat":43.3247,"lon":5.36567,"is_reserved":false,"is_disabled":false,"rental_uris":{"android":"levelo://app?vid=2f4e0253-da65-48c9-961b-7746ab2ffb8d","ios":"levelo://app?vid=2f4e0253-da65-48c9-961b-7746ab2ffb8d"},"vehicle_type_id":"4","last_reported":1736792008,"current_range_meters":38800,"station_id":"ce4bhs12rcd13ifvqhvg","pricing_plan_id":"cebpf4jnsgd1na2vs0mg"},{"bike_id":"8b877a16-2c6f-4913-a8ea-b53aacb81218","system_id":"levelo_inurba_marseille","lat":43.280823,"lon":5.396597,"is_reserved":false,"is_disabled":true,"rental_uris":{"android":"levelo://app?vid=8b877a16-2c6f-4913-a8ea-b53aacb81218","ios":"levelo://app?vid=8b877a16-2c6f-4913-a8ea-b53aacb81218"},"vehicle_type_id":"4","last_reported":1736792008,"current_range_meters":1600,"station_id":"ce4bho12rcd13ifvqh2g","pricing_plan_id":"cebpf4jnsgd1na2vs0mg"},{"bike_id":"f8858586-ef30-44a5-b783-a9bff6e2b165","system_id":"levelo_inurba_marseille","lat":43.26569,"lon":5.39001,"is_reserved":false,"is_disabled":false,"rental_uris":{"android":"levelo://app?vid=f8858586-ef30-44a5-b783-a9bff6e2b165","ios":"levelo://app?vid=f8858586-ef30-44a5-b783-a9bff6e2b165"},"vehicle_type_id":"4","last_reported":1736792008,"current_range_meters":9600,"station_id":"ce4bhe12rcd13ifvqf30","pricing_plan_id":"cebpf4jnsgd1na2vs0mg"},{"bike_id":"a4fed38a-b4f4-4ca2-8c85-691d5a50b7ed","system_id":"levelo_inurba_marseille","lat":43.26506,"lon":5.39544,"is_reserved":false,"is_disabled":false,"rental_uris":{"android":"levelo://app?vid=a4fed38a-b4f4-4ca2-8c85-691d5a50b7ed","ios":"levelo://app?vid=a4fed38a-b4f4-4ca2-8c85-691d5a50b7ed"},"vehicle_type_id":"4","last_reported":1736792008,"current_range_meters":20800,"station_id":"ce4bhi12rcd13ifvqfq0","pricing_plan_id":"cebpf4jnsgd1na2vs0mg"},{"bike_id":"fedc2398-a12d-46d5-a620-a89f20af72a3","system_id":"levelo_inurba_marseille","lat":43.28157,"lon":5.42638,"is_reserved":false,"is_disabled":false,"rental_uris":{"android":"levelo://app?vid=fedc2398-a12d-46d5-a620-a89f20af72a3","ios":"levelo://app?vid=fedc2398-a12d-46d5-a620-a89f20af72a3"},"vehicle_type_id":"4","last_reported":1736792008,"current_range_meters":24000,"station_id":"ce4bhnh2rcd13ifvqgug","pricing_plan_id":"cebpf4jnsgd1na2vs0mg"},{"bike_id":"747142b0-c7e6-4195-b08a-4c4620b9f666","system_id":"levelo_inurba_marseille","lat":43.29714,"lon":5.36613,"is_reserved":false,"is_disabled":false,"rental_uris":{"android":"levelo://app?vid=747142b0-c7e6-4195-b08a-4c4620b9f666","ios":"levelo://app?vid=747142b0-c7e6-4195-b08a-4c4620b9f666"},"vehicle_type_id":"4","last_reported":1736792008,"current_range_meters":23200,"station_id":"ce4bgn12rcd13ifvqbt0","pricing_plan_id":"cebpf4jnsgd1na2vs0mg"},{"bike_id":"3953439b-f509-49e5-bb8d-9b9887e5086e","system_id":"levelo_inurba_marseille","lat":43.31066,"lon":5.38356,"is_reserved":false,"is_disabled":false,"rental_uris":{"android":"levelo://app?vid=3953439b-f509-49e5-bb8d-9b9887e5086e","ios":"levelo://app?vid=3953439b-f509-49e5-bb8d-9b9887e5086e"},"vehicle_type_id":"4","last_reported":1736792008,"current_range_meters":31200,"station_id":"ce4bgv92rcd13ifvqcr0","pricing_plan_id":"cebpf4jnsgd1na2vs0mg"},{"bike_id":"8ea81c6d-840a-443a-ae7f-753f63519e00","system_id":"levelo_inurba_marseille","lat":43.33721,"lon":5.39192,"is_reserved":false,"is_disabled":false,"rental_uris":{"android":"levelo://app?vid=8ea81c6d-840a-443a-ae7f-753f63519e00","ios":"levelo://app?vid=8ea81c6d-840a-443a-ae7f-753f63519e00"},"vehicle_type_id":"4","last_reported":1736792008,"current_range_meters":38000,"station_id":"ce4bhr92rcd13ifvqhsg","pricing_plan_id":"cebpf4jnsgd1na2vs0mg"},{"bike_id":"8df66f74-b7b1-4730-a851-ab6b59f101e6","system_id":"levelo_inurba_marseille","lat":43.28607,"lon":5.35112,"is_reserved":false,"is_disabled":false,"rental_uris":{"android":"levelo://app?vid=8df66f74-b7b1-4730-a851-ab6b59f101e6","ios":"levelo://app?vid=8df66f74-b7b1-4730-a851-ab6b59f101e6"},"vehicle_type_id":"4","last_reported":1736792008,"current_range_meters":32000,"station_id":"ce4bhch2rcd13ifvqeug","pricing_plan_id":"cebpf4jnsgd1na2vs0mg"},{"bike_id":"a6943742-818e-4008-acc6-cc0735fe9917","system_id":"levelo_inurba_marseille","lat":43.31481,"lon":5.38874,"is_reserved":false,"is_disabled":false,"rental_uris":{"android":"levelo://app?vid=a6943742-818e-4008-acc6-cc0735fe9917","ios":"levelo://app?vid=a6943742-818e-4008-acc6-cc0735fe9917"},"vehicle_type_id":"4","last_reported":1736792008,"current_range_meters":24800,"station_id":"","pricing_plan_id":"cebpf4jnsgd1na2vs0mg"},{"bike_id":"68fe42dd-b0cc-49bd-ac2b-e8ac0573498c","system_id":"levelo_inurba_marseille","lat":43.30886,"lon":5.3966,"is_reserved":false,"is_disabled":false,"rental_uris":{"android":"levelo://app?vid=68fe42dd-b0cc-49bd-ac2b-e8ac0573498c","ios":"levelo://app?vid=68fe42dd-b0cc-49bd-ac2b-e8ac0573498c"},"vehicle_type_id":"4","last_reported":1736792008,"current_range_meters":27200,"station_id":"ce4bh012rcd13ifvqcv0","pricing_plan_id":"cebpf4jnsgd1na2vs0mg"},{"bike_id":"5772835d-a152-4036-9945-3ef2be70f9fa","system_id":"levelo_inurba_marseille","lat":43.29045,"lon":5.35913,"is_reserved":false,"is_disabled":false,"rental_uris":{"android":"levelo://app?vid=5772835d-a152-4036-9945-3ef2be70f9fa","ios":"levelo://app?vid=5772835d-a152-4036-9945-3ef2be70f9fa"},"vehicle_type_id":"4","last_reported":1736792008,"current_range_meters":39200,"station_id":"ce4bha92rcd13ifvqeg0","pricing_plan_id":"cebpf4jnsgd1na2vs0mg"},{"bike_id":"5bb5758f-37be-496e-ac0a-3712e6b43125","system_id":"levelo_inurba_marseille","lat":43.26198,"lon":5.3792,"is_reserved":false,"is_disabled":false,"rental_uris":{"android":"levelo://app?vid=5bb5758f-37be-496e-ac0a-3712e6b43125","ios":"levelo://app?vid=5bb5758f-37be-496e-ac0a-3712e6b43125"},"vehicle_type_id":"4","last_reported":1736792008,"current_range_meters":39200,"station_id":"ce4bhjp2rcd13ifvqg90","pricing_plan_id":"cebpf4jnsgd1na2vs0mg"},{"bike_id":"fbdc1be9-0896-4827-9983-8a84e7013511","system_id":"levelo_inurba_marseille","lat":43.25215,"lon":5.3909,"is_reserved":false,"is_disabled":false,"rental_uris":{"android":"levelo://app?vid=fbdc1be9-0896-4827-9983-8a84e7013511","ios":"levelo://app?vid=fbdc1be9-0896-4827-9983-8a84e7013511"},"vehicle_type_id":"4","last_reported":1736792008,"current_range_meters":36400,"station_id":"","pricing_plan_id":"cebpf4jnsgd1na2vs0mg"},{"bike_id":"47895ff9-2feb-423e-9fb3-4b3b221f759f","system_id":"levelo_inurba_marseille","lat":43.26066,"lon":5.3939,"is_reserved":false,"is_disabled":false,"rental_uris":{"android":"levelo://app?vid=47895ff9-2feb-423e-9fb3-4b3b221f759f","ios":"levelo://app?vid=47895ff9-2feb-423e-9fb3-4b3b221f759f"},"vehicle_type_id":"4","last_reported":1736792008,"current_range_meters":24400,"station_id":"ce4bhh92rcd13ifvqfj0","pricing_plan_id":"cebpf4jnsgd1na2vs0mg"},{"bike_id":"9fcc88dd-34cd-4ae6-82cd-3f8a2d8bfba2","system_id":"levelo_inurba_marseille","lat":43.31367,"lon":5.38493,"is_reserved":false,"is_disabled":false,"rental_uris":{"android":"levelo://app?vid=9fcc88dd-34cd-4ae6-82cd-3f8a2d8bfba2","ios":"levelo://app?vid=9fcc88dd-34cd-4ae6-82cd-3f8a2d8bfba2"},"vehicle_type_id":"4","last_reported":1736792008,"current_range_meters":29600,"station_id":"ce4bgt92rcd13ifvqcf0","pricing_plan_id":"cebpf4jnsgd1na2vs0mg"},{"bike_id":"962cc5cc-fec7-46f8-84df-102fbfaf51f6","system_id":"levelo_inurba_marseille","lat":43.2593,"lon":5.40908,"is_reserved":false,"is_disabled":true,"rental_uris":{"android":"levelo://app?vid=962cc5cc-fec7-46f8-84df-102fbfaf51f6","ios":"levelo://app?vid=962cc5cc-fec7-46f8-84df-102fbfaf51f6"},"vehicle_type_id":"4","last_reported":1736792008,"current_range_meters":800,"station_id":"ce4bhm92rcd13ifvqglg","pricing_plan_id":"cebpf4jnsgd1na2vs0mg"},{"bike_id":"82a6ba22-4fb6-4762-a475-80b36233bd6a","system_id":"levelo_inurba_marseille","lat":43.29798,"lon":5.39355,"is_reserved":false,"is_disabled":false,"rental_uris":{"android":"levelo://app?vid=82a6ba22-4fb6-4762-a475-80b36233bd6a","ios":"levelo://app?vid=82a6ba22-4fb6-4762-a475-80b36233bd6a"},"vehicle_type_id":"4","last_reported":1736792008,"current_range_meters":33600,"station_id":"chh1huq6cuj3fo74tm60","pricing_plan_id":"cebpf4jnsgd1na2vs0mg"},{"bike_id":"34ab4a2c-1cfd-44bc-8a6f-9e19f16ad438","system_id":"levelo_inurba_marseille","lat":43.27993,"lon":5.40017,"is_reserved":false,"is_disabled":false,"rental_uris":{"android":"levelo://app?vid=34ab4a2c-1cfd-44bc-8a6f-9e19f16ad438","ios":"levelo://app?vid=34ab4a2c-1cfd-44bc-8a6f-9e19f16ad438"},"vehicle_type_id":"4","last_reported":1736792008,"current_range_meters":26800,"station_id":"ce4bho92rcd13ifvqh4g","pricing_plan_id":"cebpf4jnsgd1na2vs0mg"},{"bike_id":"7c58de71-9a4c-435f-98f8-3beb0230b431","system_id":"levelo_inurba_marseille","lat":43.28856,"lon":5.39301,"is_reserved":false,"is_disabled":false,"rental_uris":{"android":"levelo://app?vid=7c58de71-9a4c-435f-98f8-3beb0230b431","ios":"levelo://app?vid=7c58de71-9a4c-435f-98f8-3beb0230b431"},"vehicle_type_id":"4","last_reported":1736792008,"current_range_meters":4800,"station_id":"ce4bh2p2rcd13ifvqdi0","pricing_plan_id":"cebpf4jnsgd1na2vs0mg"},{"bike_id":"25201559-3be6-490e-b049-639df5366fcd","system_id":"levelo_inurba_marseille","lat":43.29971,"lon":5.38516,"is_reserved":false,"is_disabled":true,"rental_uris":{"android":"levelo://app?vid=25201559-3be6-490e-b049-639df5366fcd","ios":"levelo://app?vid=25201559-3be6-490e-b049-639df5366fcd"},"vehicle_type_id":"4","last_reported":1736792008,"current_range_meters":38800,"station_id":"ce4bgj92rcd13ifvqbd0","pricing_plan_id":"cebpf4jnsgd1na2vs0mg"},{"bike_id":"94440fca-9d66-4315-a057-b48311229f6d","system_id":"levelo_inurba_marseille","lat":43.336142,"lon":5.410241,"is_reserved":false,"is_disabled":true,"rental_uris":{"android":"levelo://app?vid=94440fca-9d66-4315-a057-b48311229f6d","ios":"levelo://app?vid=94440fca-9d66-4315-a057-b48311229f6d"},"vehicle_type_id":"4","last_reported":1736792008,"current_range_meters":37600,"station_id":"ce4bhqh2rcd13ifvqhmg","pricing_plan_id":"cebpf4jnsgd1na2vs0mg"},{"bike_id":"43a19695-e4f2-46f6-b6c0-b6dbf1231a1a","system_id":"levelo_inurba_marseille","lat":43.28708,"lon":5.37396,"is_reserved":false,"is_disabled":false,"rental_uris":{"android":"levelo://app?vid=43a19695-e4f2-46f6-b6c0-b6dbf1231a1a","ios":"levelo://app?vid=43a19695-e4f2-46f6-b6c0-b6dbf1231a1a"},"vehicle_type_id":"4","last_reported":1736792008,"current_range_meters":14800,"station_id":"ce4bh3p2rcd13ifvqdq0","pricing_plan_id":"cebpf4jnsgd1na2vs0mg"},{"bike_id":"6a8dc65c-8c47-4239-8815-8efa2acdc338","system_id":"levelo_inurba_marseille","lat":43.27994,"lon":5.41651,"is_reserved":false,"is_disabled":true,"rental_uris":{"android":"levelo://app?vid=6a8dc65c-8c47-4239-8815-8efa2acdc338","ios":"levelo://app?vid=6a8dc65c-8c47-4239-8815-8efa2acdc338"},"vehicle_type_id":"4","last_reported":1736792008,"current_range_meters":2800,"station_id":"ce4bho12rcd13ifvqh1g","pricing_plan_id":"cebpf4jnsgd1na2vs0mg"},{"bike_id":"61e1c5ff-c500-4fdb-bfc6-7ae02590a3dd","system_id":"levelo_inurba_marseille","lat":43.29595,"lon":5.38099,"is_reserved":false,"is_disabled":false,"rental_uris":{"android":"levelo://app?vid=61e1c5ff-c500-4fdb-bfc6-7ae02590a3dd","ios":"levelo://app?vid=61e1c5ff-c500-4fdb-bfc6-7ae02590a3dd"},"vehicle_type_id":"4","last_reported":1736792008,"current_range_meters":25600,"station_id":"ce4bgl12rcd13ifvqbo0","pricing_plan_id":"cebpf4jnsgd1na2vs0mg"},{"bike_id":"94d00723-79f7-443c-bc62-0c89ddbb1d1c","system_id":"levelo_inurba_marseille","lat":43.28184,"lon":5.42644,"is_reserved":false,"is_disabled":true,"rental_uris":{"android":"levelo://app?vid=94d00723-79f7-443c-bc62-0c89ddbb1d1c","ios":"levelo://app?vid=94d00723-79f7-443c-bc62-0c89ddbb1d1c"},"vehicle_type_id":"4","last_reported":1736792008,"current_range_meters":19600,"station_id":"ce4bhnh2rcd13ifvqgug","pricing_plan_id":"cebpf4jnsgd1na2vs0mg"},{"bike_id":"40668fc8-56d4-4047-8a2e-a85ac5004821","system_id":"levelo_inurba_marseille","lat":43.26786,"lon":5.39413,"is_reserved":false,"is_disabled":true,"rental_uris":{"android":"levelo://app?vid=40668fc8-56d4-4047-8a2e-a85ac5004821","ios":"levelo://app?vid=40668fc8-56d4-4047-8a2e-a85ac5004821"},"vehicle_type_id":"4","last_reported":1736792008,"current_range_meters":0,"station_id":"ce4bhh12rcd13ifvqfg0","pricing_plan_id":"cebpf4jnsgd1na2vs0mg"},{"bike_id":"936740fb-9b34-4884-80d6-b102868533e7","system_id":"levelo_inurba_marseille","lat":43.32495,"lon":5.36583,"is_reserved":false,"is_disabled":false,"rental_uris":{"android":"levelo://app?vid=936740fb-9b34-4884-80d6-b102868533e7","ios":"levelo://app?vid=936740fb-9b34-4884-80d6-b102868533e7"},"vehicle_type_id":"4","last_reported":1736792008,"current_range_meters":38000,"station_id":"ce4bhs12rcd13ifvqhvg","pricing_plan_id":"cebpf4jnsgd1na2vs0mg"},{"bike_id":"e35d110b-0ca6-4c99-b711-04ba364d3860","system_id":"levelo_inurba_marseille","lat":43.23201,"lon":5.35544,"is_reserved":false,"is_disabled":false,"rental_uris":{"android":"levelo://app?vid=e35d110b-0ca6-4c99-b711-04ba364d3860","ios":"levelo://app?vid=e35d110b-0ca6-4c99-b711-04ba364d3860"},"vehicle_type_id":"4","last_reported":1736792008,"current_range_meters":37600,"station_id":"ce4bhu92rcd13ifvqi70","pricing_plan_id":"cebpf4jnsgd1na2vs0mg"},{"bike_id":"3ae4dd3f-7302-4191-8788-32f51624cce8","system_id":"levelo_inurba_marseille","lat":43.26557,"lon":5.37291,"is_reserved":false,"is_disabled":false,"rental_uris":{"android":"levelo://app?vid=3ae4dd3f-7302-4191-8788-32f51624cce8","ios":"levelo://app?vid=3ae4dd3f-7302-4191-8788-32f51624cce8"},"vehicle_type_id":"4","last_reported":1736792008,"current_range_meters":3200,"station_id":"ce4bhnp2rcd13ifvqgvg","pricing_plan_id":"cebpf4jnsgd1na2vs0mg"},{"bike_id":"895346b7-c123-49a3-9bc3-0a7ae3487363","system_id":"levelo_inurba_marseille","lat":43.29875,"lon":5.36275,"is_reserved":false,"is_disabled":false,"rental_uris":{"android":"levelo://app?vid=895346b7-c123-49a3-9bc3-0a7ae3487363","ios":"levelo://app?vid=895346b7-c123-49a3-9bc3-0a7ae3487363"},"vehicle_type_id":"4","last_reported":1736792008,"current_range_meters":22800,"station_id":"ce4bgpp2rcd13ifvqc3g","pricing_plan_id":"cebpf4jnsgd1na2vs0mg"},{"bike_id":"d53294f1-4d41-4a87-89cf-24f7e536fd6a","system_id":"levelo_inurba_marseille","lat":43.30886,"lon":5.39647,"is_reserved":false,"is_disabled":false,"rental_uris":{"android":"levelo://app?vid=d53294f1-4d41-4a87-89cf-24f7e536fd6a","ios":"levelo://app?vid=d53294f1-4d41-4a87-89cf-24f7e536fd6a"},"vehicle_type_id":"4","last_reported":1736792008,"current_range_meters":6800,"station_id":"ce4bh012rcd13ifvqcv0","pricing_plan_id":"cebpf4jnsgd1na2vs0mg"},{"bike_id":"abf859c6-bb5c-4731-b321-259a0f770f82","system_id":"levelo_inurba_marseille","lat":43.23961,"lon":5.36633,"is_reserved":false,"is_disabled":false,"rental_uris":{"android":"levelo://app?vid=abf859c6-bb5c-4731-b321-259a0f770f82","ios":"levelo://app?vid=abf859c6-bb5c-4731-b321-259a0f770f82"},"vehicle_type_id":"4","last_reported":1736792008,"current_range_meters":18800,"station_id":"ce4bhi12rcd13ifvqfp0","pricing_plan_id":"cebpf4jnsgd1na2vs0mg"},{"bike_id":"04242d7d-6524-4840-9376-c0bce1fa64bb","system_id":"levelo_inurba_marseille","lat":43.25489,"lon":5.37683,"is_reserved":false,"is_disabled":false,"rental_uris":{"android":"levelo://app?vid=04242d7d-6524-4840-9376-c0bce1fa64bb","ios":"levelo://app?vid=04242d7d-6524-4840-9376-c0bce1fa64bb"},"vehicle_type_id":"4","last_reported":1736792008,"current_range_meters":16400,"station_id":"ce4bhh12rcd13ifvqff0","pricing_plan_id":"cebpf4jnsgd1na2vs0mg"},{"bike_id":"4ff57719-03f4-47bd-8538-0e0467c2c848","system_id":"levelo_inurba_marseille","lat":43.25866,"lon":5.39909,"is_reserved":false,"is_disabled":false,"rental_uris":{"android":"levelo://app?vid=4ff57719-03f4-47bd-8538-0e0467c2c848","ios":"levelo://app?vid=4ff57719-03f4-47bd-8538-0e0467c2c848"},"vehicle_type_id":"4","last_reported":1736792008,"current_range_meters":24400,"station_id":"ce4bhl92rcd13ifvqghg","pricing_plan_id":"cebpf4jnsgd1na2vs0mg"},{"bike_id":"dcd94128-f8d8-4b81-8683-4f320facb600","system_id":"levelo_inurba_marseille","lat":43.28954,"lon":5.38295,"is_reserved":false,"is_disabled":false,"rental_uris":{"android":"levelo://app?vid=dcd94128-f8d8-4b81-8683-4f320facb600","ios":"levelo://app?vid=dcd94128-f8d8-4b81-8683-4f320facb600"},"vehicle_type_id":"4","last_reported":1736792008,"current_range_meters":2800,"station_id":"ce4bh612rcd13ifvqe6g","pricing_plan_id":"cebpf4jnsgd1na2vs0mg"},{"bike_id":"c8f54efc-b299-4845-bae3-b344867fe328","system_id":"levelo_inurba_marseille","lat":43.30401,"lon":5.4128,"is_reserved":false,"is_disabled":false,"rental_uris":{"android":"levelo://app?vid=c8f54efc-b299-4845-bae3-b344867fe328","ios":"levelo://app?vid=c8f54efc-b299-4845-bae3-b344867fe328"},"vehicle_type_id":"4","last_reported":1736792008,"current_range_meters":8800,"station_id":"ce4bhop2rcd13ifvqh8g","pricing_plan_id":"cebpf4jnsgd1na2vs0mg"},{"bike_id":"c8e997c0-8580-4d0f-8d9f-0766596381e1","system_id":"levelo_inurba_marseille","lat":43.3401,"lon":5.37548,"is_reserved":false,"is_disabled":true,"rental_uris":{"android":"levelo://app?vid=c8e997c0-8580-4d0f-8d9f-0766596381e1","ios":"levelo://app?vid=c8e997c0-8580-4d0f-8d9f-0766596381e1"},"vehicle_type_id":"4","last_reported":1736792008,"current_range_meters":0,"station_id":"","pricing_plan_id":"cebpf4jnsgd1na2vs0mg"},{"bike_id":"c60791e5-c5b6-4b5f-a2b3-68e6dd491ea9","system_id":"levelo_inurba_marseille","lat":43.30495,"lon":5.37246,"is_reserved":false,"is_disabled":false,"rental_uris":{"android":"levelo://app?vid=c60791e5-c5b6-4b5f-a2b3-68e6dd491ea9","ios":"levelo://app?vid=c60791e5-c5b6-4b5f-a2b3-68e6dd491ea9"},"vehicle_type_id":"4","last_reported":1736792008,"current_range_meters":21600,"station_id":"","pricing_plan_id":"cebpf4jnsgd1na2vs0mg"},{"bike_id":"50ab075f-1d4d-4f4b-8c1d-f1c50b1ad071","system_id":"levelo_inurba_marseille","lat":43.27908,"lon":5.39582,"is_reserved":false,"is_disabled":false,"rental_uris":{"android":"levelo://app?vid=50ab075f-1d4d-4f4b-8c1d-f1c50b1ad071","ios":"levelo://app?vid=50ab075f-1d4d-4f4b-8c1d-f1c50b1ad071"},"vehicle_type_id":"4","last_reported":1736792008,"current_range_meters":29600,"station_id":"ce4bhf92rcd13ifvqf40","pricing_plan_id":"cebpf4jnsgd1na2vs0mg"},{"bike_id":"ba5df164-d25c-4a1c-8679-1bd1a1db0642","system_id":"levelo_inurba_marseille","lat":43.33722,"lon":5.39194,"is_reserved":false,"is_disabled":false,"rental_uris":{"android":"levelo://app?vid=ba5df164-d25c-4a1c-8679-1bd1a1db0642","ios":"levelo://app?vid=ba5df164-d25c-4a1c-8679-1bd1a1db0642"},"vehicle_type_id":"4","last_reported":1736792008,"current_range_meters":38400,"station_id":"ce4bhr92rcd13ifvqhsg","pricing_plan_id":"cebpf4jnsgd1na2vs0mg"},{"bike_id":"232cf4fb-b5fd-4746-bd39-76138153ee0f","system_id":"levelo_inurba_marseille","lat":43.3113,"lon":5.37786,"is_reserved":false,"is_disabled":false,"rental_uris":{"android":"levelo://app?vid=232cf4fb-b5fd-4746-bd39-76138153ee0f","ios":"levelo://app?vid=232cf4fb-b5fd-4746-bd39-76138153ee0f"},"vehicle_type_id":"4","last_reported":1736792008,"current_range_meters":34800,"station_id":"ce4bgt92rcd13ifvqcg0","pricing_plan_id":"cebpf4jnsgd1na2vs0mg"},{"bike_id":"0a0c0d3e-aac5-4346-9c6d-081b23451d86","system_id":"levelo_inurba_marseille","lat":43.30712,"lon":5.37335,"is_reserved":false,"is_disabled":false,"rental_uris":{"android":"levelo://app?vid=0a0c0d3e-aac5-4346-9c6d-081b23451d86","ios":"levelo://app?vid=0a0c0d3e-aac5-4346-9c6d-081b23451d86"},"vehicle_type_id":"4","last_reported":1736792008,"current_range_meters":28400,"station_id":"","pricing_plan_id":"cebpf4jnsgd1na2vs0mg"},{"bike_id":"710b6c98-9b60-4340-a895-ad455772fca2","system_id":"levelo_inurba_marseille","lat":43.29842,"lon":5.3627,"is_reserved":false,"is_disabled":false,"rental_uris":{"android":"levelo://app?vid=710b6c98-9b60-4340-a895-ad455772fca2","ios":"levelo://app?vid=710b6c98-9b60-4340-a895-ad455772fca2"},"vehicle_type_id":"4","last_reported":1736792008,"current_range_meters":27600,"station_id":"ce4bgpp2rcd13ifvqc3g","pricing_plan_id":"cebpf4jnsgd1na2vs0mg"},{"bike_id":"a3162289-c869-4e8a-944d-f0baa128cc74","system_id":"levelo_inurba_marseille","lat":43.23963,"lon":5.36637,"is_reserved":false,"is_disabled":false,"rental_uris":{"android":"levelo://app?vid=a3162289-c869-4e8a-944d-f0baa128cc74","ios":"levelo://app?vid=a3162289-c869-4e8a-944d-f0baa128cc74"},"vehicle_type_id":"4","last_reported":1736792008,"current_range_meters":38000,"station_id":"ce4bhi12rcd13ifvqfp0","pricing_plan_id":"cebpf4jnsgd1na2vs0mg"},{"bike_id":"7dd5dd5e-1d75-4c5b-b5b8-248a34302cca","system_id":"levelo_inurba_marseille","lat":43.304613,"lon":5.379016,"is_reserved":false,"is_disabled":true,"rental_uris":{"android":"levelo://app?vid=7dd5dd5e-1d75-4c5b-b5b8-248a34302cca","ios":"levelo://app?vid=7dd5dd5e-1d75-4c5b-b5b8-248a34302cca"},"vehicle_type_id":"4","last_reported":1736792008,"current_range_meters":25600,"station_id":"ce4bgup2rcd13ifvqcn0","pricing_plan_id":"cebpf4jnsgd1na2vs0mg"},{"bike_id":"d6c96704-294d-4d5c-bdc4-f101740b8958","system_id":"levelo_inurba_marseille","lat":43.26029,"lon":5.37547,"is_reserved":false,"is_disabled":false,"rental_uris":{"android":"levelo://app?vid=d6c96704-294d-4d5c-bdc4-f101740b8958","ios":"levelo://app?vid=d6c96704-294d-4d5c-bdc4-f101740b8958"},"vehicle_type_id":"4","last_reported":1736792008,"current_range_meters":38800,"station_id":"ce4bhgh2rcd13ifvqfa0","pricing_plan_id":"cebpf4jnsgd1na2vs0mg"},{"bike_id":"d85a1d9b-f035-4b2a-858c-2526acab5ed6","system_id":"levelo_inurba_marseille","lat":43.30148,"lon":5.37391,"is_reserved":false,"is_disabled":true,"rental_uris":{"android":"levelo://app?vid=d85a1d9b-f035-4b2a-858c-2526acab5ed6","ios":"levelo://app?vid=d85a1d9b-f035-4b2a-858c-2526acab5ed6"},"vehicle_type_id":"4","last_reported":1736792008,"current_range_meters":37600,"station_id":"ce4bgs92rcd13ifvqcc0","pricing_plan_id":"cebpf4jnsgd1na2vs0mg"},{"bike_id":"d68daa05-36ab-42c0-826d-99eeffb6e627","system_id":"levelo_inurba_marseille","lat":43.29056,"lon":5.3592,"is_reserved":false,"is_disabled":false,"rental_uris":{"android":"levelo://app?vid=d68daa05-36ab-42c0-826d-99eeffb6e627","ios":"levelo://app?vid=d68daa05-36ab-42c0-826d-99eeffb6e627"},"vehicle_type_id":"4","last_reported":1736792008,"current_range_meters":30400,"station_id":"ce4bha92rcd13ifvqeg0","pricing_plan_id":"cebpf4jnsgd1na2vs0mg"},{"bike_id":"34c7fb39-e228-45f7-b6ae-d00f75031267","system_id":"levelo_inurba_marseille","lat":43.3248,"lon":5.36545,"is_reserved":false,"is_disabled":false,"rental_uris":{"android":"levelo://app?vid=34c7fb39-e228-45f7-b6ae-d00f75031267","ios":"levelo://app?vid=34c7fb39-e228-45f7-b6ae-d00f75031267"},"vehicle_type_id":"4","last_reported":1736792008,"current_range_meters":31200,"station_id":"ce4bhs12rcd13ifvqhvg","pricing_plan_id":"cebpf4jnsgd1na2vs0mg"},{"bike_id":"6ba8d844-4be9-4966-b91c-0b5bcfe6a94b","system_id":"levelo_inurba_marseille","lat":43.29168,"lon":5.37148,"is_reserved":false,"is_disabled":true,"rental_uris":{"android":"levelo://app?vid=6ba8d844-4be9-4966-b91c-0b5bcfe6a94b","ios":"levelo://app?vid=6ba8d844-4be9-4966-b91c-0b5bcfe6a94b"},"vehicle_type_id":"4","last_reported":1736792008,"current_range_meters":38800,"station_id":"ce4bha92rcd13ifvqeh0","pricing_plan_id":"cebpf4jnsgd1na2vs0mg"},{"bike_id":"c3208560-b426-4015-bc56-f61fb940f22e","system_id":"levelo_inurba_marseille","lat":43.29699,"lon":5.36614,"is_reserved":false,"is_disabled":false,"rental_uris":{"android":"levelo://app?vid=c3208560-b426-4015-bc56-f61fb940f22e","ios":"levelo://app?vid=c3208560-b426-4015-bc56-f61fb940f22e"},"vehicle_type_id":"4","last_reported":1736792008,"current_range_meters":38400,"station_id":"ce4bgn12rcd13ifvqbt0","pricing_plan_id":"cebpf4jnsgd1na2vs0mg"},{"bike_id":"59d914a9-7941-4d0c-ad3f-66ae0befc663","system_id":"levelo_inurba_marseille","lat":43.28033,"lon":5.36953,"is_reserved":false,"is_disabled":false,"rental_uris":{"android":"levelo://app?vid=59d914a9-7941-4d0c-ad3f-66ae0befc663","ios":"levelo://app?vid=59d914a9-7941-4d0c-ad3f-66ae0befc663"},"vehicle_type_id":"4","last_reported":1736792008,"current_range_meters":10000,"station_id":"ce4bha12rcd13ifvqef0","pricing_plan_id":"cebpf4jnsgd1na2vs0mg"},{"bike_id":"d7687e08-57c7-45aa-8013-1220233e38c0","system_id":"levelo_inurba_marseille","lat":43.31764,"lon":5.39017,"is_reserved":false,"is_disabled":false,"rental_uris":{"android":"levelo://app?vid=d7687e08-57c7-45aa-8013-1220233e38c0","ios":"levelo://app?vid=d7687e08-57c7-45aa-8013-1220233e38c0"},"vehicle_type_id":"4","last_reported":1736792008,"current_range_meters":24800,"station_id":"ce4bhqp2rcd13ifvqhng","pricing_plan_id":"cebpf4jnsgd1na2vs0mg"},{"bike_id":"426ee80e-06b0-4d0f-86a5-ea8ad64aaa11","system_id":"levelo_inurba_marseille","lat":43.28917,"lon":5.43766,"is_reserved":false,"is_disabled":false,"rental_uris":{"android":"levelo://app?vid=426ee80e-06b0-4d0f-86a5-ea8ad64aaa11","ios":"levelo://app?vid=426ee80e-06b0-4d0f-86a5-ea8ad64aaa11"},"vehicle_type_id":"4","last_reported":1736792008,"current_range_meters":8400,"station_id":"","pricing_plan_id":"cebpf4jnsgd1na2vs0mg"},{"bike_id":"983a2b4c-2a53-4520-901e-e75ff2784d57","system_id":"levelo_inurba_marseille","lat":43.29853,"lon":5.36287,"is_reserved":false,"is_disabled":false,"rental_uris":{"android":"levelo://app?vid=983a2b4c-2a53-4520-901e-e75ff2784d57","ios":"levelo://app?vid=983a2b4c-2a53-4520-901e-e75ff2784d57"},"vehicle_type_id":"4","last_reported":1736792008,"current_range_meters":25200,"station_id":"ce4bgpp2rcd13ifvqc3g","pricing_plan_id":"cebpf4jnsgd1na2vs0mg"},{"bike_id":"3b1016df-23ab-4fcc-a6aa-007cf8faa2ff","system_id":"levelo_inurba_marseille","lat":43.32367,"lon":5.38884,"is_reserved":false,"is_disabled":false,"rental_uris":{"android":"levelo://app?vid=3b1016df-23ab-4fcc-a6aa-007cf8faa2ff","ios":"levelo://app?vid=3b1016df-23ab-4fcc-a6aa-007cf8faa2ff"},"vehicle_type_id":"4","last_reported":1736792008,"current_range_meters":16400,"station_id":"ce4bhqp2rcd13ifvqhog","pricing_plan_id":"cebpf4jnsgd1na2vs0mg"},{"bike_id":"9814023a-fbfd-430e-a624-071e90fc1982","system_id":"levelo_inurba_marseille","lat":43.27386,"lon":5.39387,"is_reserved":false,"is_disabled":false,"rental_uris":{"android":"levelo://app?vid=9814023a-fbfd-430e-a624-071e90fc1982","ios":"levelo://app?vid=9814023a-fbfd-430e-a624-071e90fc1982"},"vehicle_type_id":"4","last_reported":1736792008,"current_range_meters":26000,"station_id":"ce4bhdp2rcd13ifvqf20","pricing_plan_id":"cebpf4jnsgd1na2vs0mg"},{"bike_id":"969e27ab-5a9e-459e-9526-3b57e6f57682","system_id":"levelo_inurba_marseille","lat":43.22944,"lon":5.35367,"is_reserved":false,"is_disabled":false,"rental_uris":{"android":"levelo://app?vid=969e27ab-5a9e-459e-9526-3b57e6f57682","ios":"levelo://app?vid=969e27ab-5a9e-459e-9526-3b57e6f57682"},"vehicle_type_id":"4","last_reported":1736792008,"current_range_meters":38800,"station_id":"cpo3532slgdg3j2ikp40","pricing_plan_id":"cebpf4jnsgd1na2vs0mg"},{"bike_id":"f288bb75-8df4-4f4a-b0d0-d215a9447574","system_id":"levelo_inurba_marseille","lat":43.28947,"lon":5.36408,"is_reserved":false,"is_disabled":false,"rental_uris":{"android":"levelo://app?vid=f288bb75-8df4-4f4a-b0d0-d215a9447574","ios":"levelo://app?vid=f288bb75-8df4-4f4a-b0d0-d215a9447574"},"vehicle_type_id":"4","last_reported":1736792008,"current_range_meters":8400,"station_id":"ce4bhc92rcd13ifvqetg","pricing_plan_id":"cebpf4jnsgd1na2vs0mg"},{"bike_id":"e6150580-61d3-4a64-8f36-c72aec658bfe","system_id":"levelo_inurba_marseille","lat":43.28611,"lon":5.37055,"is_reserved":false,"is_disabled":false,"rental_uris":{"android":"levelo://app?vid=e6150580-61d3-4a64-8f36-c72aec658bfe","ios":"levelo://app?vid=e6150580-61d3-4a64-8f36-c72aec658bfe"},"vehicle_type_id":"4","last_reported":1736792008,"current_range_meters":38000,"station_id":"ce4bht12rcd13ifvqi60","pricing_plan_id":"cebpf4jnsgd1na2vs0mg"},{"bike_id":"fafa25b0-e75e-49ae-865e-60291b28c72d","system_id":"levelo_inurba_marseille","lat":43.28622,"lon":5.35079,"is_reserved":false,"is_disabled":false,"rental_uris":{"android":"levelo://app?vid=fafa25b0-e75e-49ae-865e-60291b28c72d","ios":"levelo://app?vid=fafa25b0-e75e-49ae-865e-60291b28c72d"},"vehicle_type_id":"4","last_reported":1736792008,"current_range_meters":25600,"station_id":"ce4bhch2rcd13ifvqeug","pricing_plan_id":"cebpf4jnsgd1na2vs0mg"},{"bike_id":"f4dbc556-58b0-4dfd-be99-18a51c032520","system_id":"levelo_inurba_marseille","lat":43.2417,"lon":5.39693,"is_reserved":false,"is_disabled":false,"rental_uris":{"android":"levelo://app?vid=f4dbc556-58b0-4dfd-be99-18a51c032520","ios":"levelo://app?vid=f4dbc556-58b0-4dfd-be99-18a51c032520"},"vehicle_type_id":"4","last_reported":1736792008,"current_range_meters":30000,"station_id":"ce4bhn12rcd13ifvqgpg","pricing_plan_id":"cebpf4jnsgd1na2vs0mg"},{"bike_id":"ec231b5c-b512-49b1-a6e6-15ebcae688bd","system_id":"levelo_inurba_marseille","lat":43.23188,"lon":5.35558,"is_reserved":false,"is_disabled":false,"rental_uris":{"android":"levelo://app?vid=ec231b5c-b512-49b1-a6e6-15ebcae688bd","ios":"levelo://app?vid=ec231b5c-b512-49b1-a6e6-15ebcae688bd"},"vehicle_type_id":"4","last_reported":1736792008,"current_range_meters":24000,"station_id":"ce4bhu92rcd13ifvqi70","pricing_plan_id":"cebpf4jnsgd1na2vs0mg"},{"bike_id":"0f5c88b7-f1f8-4fb6-b68a-28fa5fce21d7","system_id":"levelo_inurba_marseille","lat":43.31723,"lon":5.42395,"is_reserved":false,"is_disabled":false,"rental_uris":{"android":"levelo://app?vid=0f5c88b7-f1f8-4fb6-b68a-28fa5fce21d7","ios":"levelo://app?vid=0f5c88b7-f1f8-4fb6-b68a-28fa5fce21d7"},"vehicle_type_id":"4","last_reported":1736792008,"current_range_meters":20000,"station_id":"ce4bhp92rcd13ifvqhbg","pricing_plan_id":"cebpf4jnsgd1na2vs0mg"},{"bike_id":"fbbcd29e-74e4-46a4-9a9a-6e1cdafb2749","system_id":"levelo_inurba_marseille","lat":43.30785,"lon":5.37651,"is_reserved":false,"is_disabled":false,"rental_uris":{"android":"levelo://app?vid=fbbcd29e-74e4-46a4-9a9a-6e1cdafb2749","ios":"levelo://app?vid=fbbcd29e-74e4-46a4-9a9a-6e1cdafb2749"},"vehicle_type_id":"4","last_reported":1736792008,"current_range_meters":37600,"station_id":"ce4bgv92rcd13ifvqcq0","pricing_plan_id":"cebpf4jnsgd1na2vs0mg"},{"bike_id":"3ab3bbf7-8c70-4649-ad84-8954557a86b5","system_id":"levelo_inurba_marseille","lat":43.28001,"lon":5.40024,"is_reserved":false,"is_disabled":false,"rental_uris":{"android":"levelo://app?vid=3ab3bbf7-8c70-4649-ad84-8954557a86b5","ios":"levelo://app?vid=3ab3bbf7-8c70-4649-ad84-8954557a86b5"},"vehicle_type_id":"4","last_reported":1736792008,"current_range_meters":32000,"station_id":"ce4bho92rcd13ifvqh4g","pricing_plan_id":"cebpf4jnsgd1na2vs0mg"},{"bike_id":"f51f3616-6c33-4a5f-8b28-980818697bb0","system_id":"levelo_inurba_marseille","lat":43.23206,"lon":5.39965,"is_reserved":false,"is_disabled":false,"rental_uris":{"android":"levelo://app?vid=f51f3616-6c33-4a5f-8b28-980818697bb0","ios":"levelo://app?vid=f51f3616-6c33-4a5f-8b28-980818697bb0"},"vehicle_type_id":"4","last_reported":1736792008,"current_range_meters":36800,"station_id":"ce4bhn12rcd13ifvqgqg","pricing_plan_id":"cebpf4jnsgd1na2vs0mg"},{"bike_id":"de2660e4-7470-403c-9a0e-03115ee65930","system_id":"levelo_inurba_marseille","lat":43.30533,"lon":5.38424,"is_reserved":false,"is_disabled":false,"rental_uris":{"android":"levelo://app?vid=de2660e4-7470-403c-9a0e-03115ee65930","ios":"levelo://app?vid=de2660e4-7470-403c-9a0e-03115ee65930"},"vehicle_type_id":"4","last_reported":1736792008,"current_range_meters":32000,"station_id":"ce4bgg92rcd13ifvqb30","pricing_plan_id":"cebpf4jnsgd1na2vs0mg"},{"bike_id":"ade1ffd7-379f-44ee-93e1-8c261178e187","system_id":"levelo_inurba_marseille","lat":43.24801,"lon":5.37454,"is_reserved":false,"is_disabled":false,"rental_uris":{"android":"levelo://app?vid=ade1ffd7-379f-44ee-93e1-8c261178e187","ios":"levelo://app?vid=ade1ffd7-379f-44ee-93e1-8c261178e187"},"vehicle_type_id":"4","last_reported":1736792008,"current_range_meters":22800,"station_id":"ce4bhgh2rcd13ifvqfb0","pricing_plan_id":"cebpf4jnsgd1na2vs0mg"},{"bike_id":"b73ceb5c-a971-44bb-8cf9-fefbcf76caac","system_id":"levelo_inurba_marseille","lat":43.28575,"lon":5.39499,"is_reserved":false,"is_disabled":false,"rental_uris":{"android":"levelo://app?vid=b73ceb5c-a971-44bb-8cf9-fefbcf76caac","ios":"levelo://app?vid=b73ceb5c-a971-44bb-8cf9-fefbcf76caac"},"vehicle_type_id":"4","last_reported":1736792008,"current_range_meters":38800,"station_id":"ce4bh292rcd13ifvqdg0","pricing_plan_id":"cebpf4jnsgd1na2vs0mg"},{"bike_id":"9f90ab46-c373-4698-9418-c8ef5e2133b0","system_id":"levelo_inurba_marseille","lat":43.23185,"lon":5.35568,"is_reserved":false,"is_disabled":false,"rental_uris":{"android":"levelo://app?vid=9f90ab46-c373-4698-9418-c8ef5e2133b0","ios":"levelo://app?vid=9f90ab46-c373-4698-9418-c8ef5e2133b0"},"vehicle_type_id":"4","last_reported":1736792008,"current_range_meters":21600,"station_id":"ce4bhu92rcd13ifvqi70","pricing_plan_id":"cebpf4jnsgd1na2vs0mg"},{"bike_id":"7a869afa-fc4c-4b30-aea6-e0d8b156eb83","system_id":"levelo_inurba_marseille","lat":43.24686,"lon":5.38163,"is_reserved":false,"is_disabled":true,"rental_uris":{"android":"levelo://app?vid=7a869afa-fc4c-4b30-aea6-e0d8b156eb83","ios":"levelo://app?vid=7a869afa-fc4c-4b30-aea6-e0d8b156eb83"},"vehicle_type_id":"4","last_reported":1736792008,"current_range_meters":30800,"station_id":"ce4bhih2rcd13ifvqfr0","pricing_plan_id":"cebpf4jnsgd1na2vs0mg"},{"bike_id":"755e5c0a-8de7-4ee5-9d4e-5ec609711170","system_id":"levelo_inurba_marseille","lat":43.29608,"lon":5.38096,"is_reserved":false,"is_disabled":true,"rental_uris":{"android":"levelo://app?vid=755e5c0a-8de7-4ee5-9d4e-5ec609711170","ios":"levelo://app?vid=755e5c0a-8de7-4ee5-9d4e-5ec609711170"},"vehicle_type_id":"4","last_reported":1736792008,"current_range_meters":34800,"station_id":"ce4bgl12rcd13ifvqbo0","pricing_plan_id":"cebpf4jnsgd1na2vs0mg"},{"bike_id":"88a38876-6e4c-460b-8e1d-ad00991b7093","system_id":"levelo_inurba_marseille","lat":43.28718,"lon":5.37371,"is_reserved":false,"is_disabled":false,"rental_uris":{"android":"levelo://app?vid=88a38876-6e4c-460b-8e1d-ad00991b7093","ios":"levelo://app?vid=88a38876-6e4c-460b-8e1d-ad00991b7093"},"vehicle_type_id":"4","last_reported":1736792008,"current_range_meters":29600,"station_id":"ce4bh3p2rcd13ifvqdq0","pricing_plan_id":"cebpf4jnsgd1na2vs0mg"},{"bike_id":"11ba34ad-8618-419b-b510-3c527e1cf8c3","system_id":"levelo_inurba_marseille","lat":43.28411,"lon":5.37508,"is_reserved":false,"is_disabled":true,"rental_uris":{"android":"levelo://app?vid=11ba34ad-8618-419b-b510-3c527e1cf8c3","ios":"levelo://app?vid=11ba34ad-8618-419b-b510-3c527e1cf8c3"},"vehicle_type_id":"4","last_reported":1736792008,"current_range_meters":6400,"station_id":"ce4bh412rcd13ifvqds0","pricing_plan_id":"cebpf4jnsgd1na2vs0mg"},{"bike_id":"941fe04b-1a6d-4c0e-ae47-f67263c42d46","system_id":"levelo_inurba_marseille","lat":43.25087,"lon":5.39524,"is_reserved":false,"is_disabled":false,"rental_uris":{"android":"levelo://app?vid=941fe04b-1a6d-4c0e-ae47-f67263c42d46","ios":"levelo://app?vid=941fe04b-1a6d-4c0e-ae47-f67263c42d46"},"vehicle_type_id":"4","last_reported":1736792008,"current_range_meters":9600,"station_id":"ce4bhm12rcd13ifvqgkg","pricing_plan_id":"cebpf4jnsgd1na2vs0mg"},{"bike_id":"1e465e1a-18ee-4cae-b73f-e1bb761d1697","system_id":"levelo_inurba_marseille","lat":43.2872,"lon":5.37385,"is_reserved":false,"is_disabled":false,"rental_uris":{"android":"levelo://app?vid=1e465e1a-18ee-4cae-b73f-e1bb761d1697","ios":"levelo://app?vid=1e465e1a-18ee-4cae-b73f-e1bb761d1697"},"vehicle_type_id":"4","last_reported":1736792008,"current_range_meters":17600,"station_id":"ce4bh3p2rcd13ifvqdq0","pricing_plan_id":"cebpf4jnsgd1na2vs0mg"},{"bike_id":"ddb6fc04-2855-4930-8852-76b4803d8a8c","system_id":"levelo_inurba_marseille","lat":43.28724,"lon":5.36095,"is_reserved":false,"is_disabled":false,"rental_uris":{"android":"levelo://app?vid=ddb6fc04-2855-4930-8852-76b4803d8a8c","ios":"levelo://app?vid=ddb6fc04-2855-4930-8852-76b4803d8a8c"},"vehicle_type_id":"4","last_reported":1736792008,"current_range_meters":28400,"station_id":"cki0cbj6b192h4jlfktg","pricing_plan_id":"cebpf4jnsgd1na2vs0mg"},{"bike_id":"45910403-43fe-46b0-8271-3ee82162b96d","system_id":"levelo_inurba_marseille","lat":43.28469,"lon":5.35901,"is_reserved":false,"is_disabled":false,"rental_uris":{"android":"levelo://app?vid=45910403-43fe-46b0-8271-3ee82162b96d","ios":"levelo://app?vid=45910403-43fe-46b0-8271-3ee82162b96d"},"vehicle_type_id":"4","last_reported":1736792008,"current_range_meters":39200,"station_id":"ce4bhah2rcd13ifvqei0","pricing_plan_id":"cebpf4jnsgd1na2vs0mg"},{"bike_id":"b1ba4d42-c1cf-4f65-9509-0651f1efdb74","system_id":"levelo_inurba_marseille","lat":43.2984,"lon":5.36384,"is_reserved":false,"is_disabled":false,"rental_uris":{"android":"levelo://app?vid=b1ba4d42-c1cf-4f65-9509-0651f1efdb74","ios":"levelo://app?vid=b1ba4d42-c1cf-4f65-9509-0651f1efdb74"},"vehicle_type_id":"4","last_reported":1736792008,"current_range_meters":5600,"station_id":"","pricing_plan_id":"cebpf4jnsgd1na2vs0mg"},{"bike_id":"4a5ed286-f973-49f4-8c3c-0a244e43ea5c","system_id":"levelo_inurba_marseille","lat":43.28158,"lon":5.42654,"is_reserved":false,"is_disabled":false,"rental_uris":{"android":"levelo://app?vid=4a5ed286-f973-49f4-8c3c-0a244e43ea5c","ios":"levelo://app?vid=4a5ed286-f973-49f4-8c3c-0a244e43ea5c"},"vehicle_type_id":"4","last_reported":1736792008,"current_range_meters":25200,"station_id":"ce4bhnh2rcd13ifvqgug","pricing_plan_id":"cebpf4jnsgd1na2vs0mg"},{"bike_id":"3b74a056-c0cf-4f44-8772-22ed33115fcd","system_id":"levelo_inurba_marseille","lat":43.23194,"lon":5.39971,"is_reserved":false,"is_disabled":false,"rental_uris":{"android":"levelo://app?vid=3b74a056-c0cf-4f44-8772-22ed33115fcd","ios":"levelo://app?vid=3b74a056-c0cf-4f44-8772-22ed33115fcd"},"vehicle_type_id":"4","last_reported":1736792008,"current_range_meters":11200,"station_id":"ce4bhn12rcd13ifvqgqg","pricing_plan_id":"cebpf4jnsgd1na2vs0mg"},{"bike_id":"bd76cd2c-ef84-4480-b66d-ed1a113eec78","system_id":"levelo_inurba_marseille","lat":43.29846,"lon":5.36277,"is_reserved":false,"is_disabled":false,"rental_uris":{"android":"levelo://app?vid=bd76cd2c-ef84-4480-b66d-ed1a113eec78","ios":"levelo://app?vid=bd76cd2c-ef84-4480-b66d-ed1a113eec78"},"vehicle_type_id":"4","last_reported":1736792008,"current_range_meters":27200,"station_id":"ce4bgpp2rcd13ifvqc3g","pricing_plan_id":"cebpf4jnsgd1na2vs0mg"},{"bike_id":"3d617204-1d4c-440a-9621-81535c3b4d54","system_id":"levelo_inurba_marseille","lat":43.23957,"lon":5.36639,"is_reserved":false,"is_disabled":false,"rental_uris":{"android":"levelo://app?vid=3d617204-1d4c-440a-9621-81535c3b4d54","ios":"levelo://app?vid=3d617204-1d4c-440a-9621-81535c3b4d54"},"vehicle_type_id":"4","last_reported":1736792008,"current_range_meters":17600,"station_id":"ce4bhi12rcd13ifvqfp0","pricing_plan_id":"cebpf4jnsgd1na2vs0mg"},{"bike_id":"c02034ec-1feb-439b-86b1-a820669672a1","system_id":"levelo_inurba_marseille","lat":43.292,"lon":5.39326,"is_reserved":false,"is_disabled":false,"rental_uris":{"android":"levelo://app?vid=c02034ec-1feb-439b-86b1-a820669672a1","ios":"levelo://app?vid=c02034ec-1feb-439b-86b1-a820669672a1"},"vehicle_type_id":"4","last_reported":1736792008,"current_range_meters":14400,"station_id":"ce4bh192rcd13ifvqdd0","pricing_plan_id":"cebpf4jnsgd1na2vs0mg"},{"bike_id":"51bb6953-dea8-4e82-96bf-52696267905f","system_id":"levelo_inurba_marseille","lat":43.23065,"lon":5.35499,"is_reserved":false,"is_disabled":false,"rental_uris":{"android":"levelo://app?vid=51bb6953-dea8-4e82-96bf-52696267905f","ios":"levelo://app?vid=51bb6953-dea8-4e82-96bf-52696267905f"},"vehicle_type_id":"4","last_reported":1736792008,"current_range_meters":11600,"station_id":"cpo3342slgdg3j2ifvpg","pricing_plan_id":"cebpf4jnsgd1na2vs0mg"},{"bike_id":"b908192f-b431-42a1-a000-23b0fc2dc5f7","system_id":"levelo_inurba_marseille","lat":43.317426,"lon":5.424143,"is_reserved":false,"is_disabled":false,"rental_uris":{"android":"levelo://app?vid=b908192f-b431-42a1-a000-23b0fc2dc5f7","ios":"levelo://app?vid=b908192f-b431-42a1-a000-23b0fc2dc5f7"},"vehicle_type_id":"4","last_reported":1736792008,"current_range_meters":15200,"station_id":"ce4bhp92rcd13ifvqhbg","pricing_plan_id":"cebpf4jnsgd1na2vs0mg"},{"bike_id":"ba1fe761-33cd-4480-91c0-d6193a980470","system_id":"levelo_inurba_marseille","lat":43.28565,"lon":5.39488,"is_reserved":false,"is_disabled":false,"rental_uris":{"android":"levelo://app?vid=ba1fe761-33cd-4480-91c0-d6193a980470","ios":"levelo://app?vid=ba1fe761-33cd-4480-91c0-d6193a980470"},"vehicle_type_id":"4","last_reported":1736792008,"current_range_meters":9600,"station_id":"ce4bh292rcd13ifvqdg0","pricing_plan_id":"cebpf4jnsgd1na2vs0mg"},{"bike_id":"dc388f0e-5ba4-4401-b2b7-3e59da087469","system_id":"levelo_inurba_marseille","lat":43.28622,"lon":5.35095,"is_reserved":false,"is_disabled":false,"rental_uris":{"android":"levelo://app?vid=dc388f0e-5ba4-4401-b2b7-3e59da087469","ios":"levelo://app?vid=dc388f0e-5ba4-4401-b2b7-3e59da087469"},"vehicle_type_id":"4","last_reported":1736792008,"current_range_meters":10800,"station_id":"ce4bhch2rcd13ifvqeug","pricing_plan_id":"cebpf4jnsgd1na2vs0mg"},{"bike_id":"b94590f1-f942-48fb-86db-9fab873d7c2a","system_id":"levelo_inurba_marseille","lat":43.28461,"lon":5.35893,"is_reserved":false,"is_disabled":false,"rental_uris":{"android":"levelo://app?vid=b94590f1-f942-48fb-86db-9fab873d7c2a","ios":"levelo://app?vid=b94590f1-f942-48fb-86db-9fab873d7c2a"},"vehicle_type_id":"4","last_reported":1736792008,"current_range_meters":38800,"station_id":"ce4bhah2rcd13ifvqei0","pricing_plan_id":"cebpf4jnsgd1na2vs0mg"},{"bike_id":"ecf943a1-2dd7-496c-957b-297f734e2e01","system_id":"levelo_inurba_marseille","lat":43.31531,"lon":5.38037,"is_reserved":false,"is_disabled":false,"rental_uris":{"android":"levelo://app?vid=ecf943a1-2dd7-496c-957b-297f734e2e01","ios":"levelo://app?vid=ecf943a1-2dd7-496c-957b-297f734e2e01"},"vehicle_type_id":"4","last_reported":1736792008,"current_range_meters":25200,"station_id":"ce4bhsp2rcd13ifvqi50","pricing_plan_id":"cebpf4jnsgd1na2vs0mg"},{"bike_id":"c84c60ce-c7f6-42eb-bb3c-f11a697bd396","system_id":"levelo_inurba_marseille","lat":43.2997,"lon":5.38511,"is_reserved":false,"is_disabled":true,"rental_uris":{"android":"levelo://app?vid=c84c60ce-c7f6-42eb-bb3c-f11a697bd396","ios":"levelo://app?vid=c84c60ce-c7f6-42eb-bb3c-f11a697bd396"},"vehicle_type_id":"4","last_reported":1736792008,"current_range_meters":38000,"station_id":"ce4bgj92rcd13ifvqbd0","pricing_plan_id":"cebpf4jnsgd1na2vs0mg"},{"bike_id":"5b6f32ca-27c0-4ddf-ba56-69f237bfef76","system_id":"levelo_inurba_marseille","lat":43.28617,"lon":5.35092,"is_reserved":false,"is_disabled":false,"rental_uris":{"android":"levelo://app?vid=5b6f32ca-27c0-4ddf-ba56-69f237bfef76","ios":"levelo://app?vid=5b6f32ca-27c0-4ddf-ba56-69f237bfef76"},"vehicle_type_id":"4","last_reported":1736792008,"current_range_meters":34000,"station_id":"ce4bhch2rcd13ifvqeug","pricing_plan_id":"cebpf4jnsgd1na2vs0mg"},{"bike_id":"89312552-ff41-472c-8bec-f2a85511e4bd","system_id":"levelo_inurba_marseille","lat":43.29876,"lon":5.36296,"is_reserved":false,"is_disabled":false,"rental_uris":{"android":"levelo://app?vid=89312552-ff41-472c-8bec-f2a85511e4bd","ios":"levelo://app?vid=89312552-ff41-472c-8bec-f2a85511e4bd"},"vehicle_type_id":"4","last_reported":1736792008,"current_range_meters":38800,"station_id":"ce4bgpp2rcd13ifvqc3g","pricing_plan_id":"cebpf4jnsgd1na2vs0mg"},{"bike_id":"c4ddd4ba-233a-488e-a92f-d5d99c1b1cd2","system_id":"levelo_inurba_marseille","lat":43.25087,"lon":5.39517,"is_reserved":false,"is_disabled":true,"rental_uris":{"android":"levelo://app?vid=c4ddd4ba-233a-488e-a92f-d5d99c1b1cd2","ios":"levelo://app?vid=c4ddd4ba-233a-488e-a92f-d5d99c1b1cd2"},"vehicle_type_id":"4","last_reported":1736792008,"current_range_meters":1600,"station_id":"ce4bhm12rcd13ifvqgkg","pricing_plan_id":"cebpf4jnsgd1na2vs0mg"},{"bike_id":"60eb95fc-b90e-49ce-a432-7bfaaff8cec5","system_id":"levelo_inurba_marseille","lat":43.28469,"lon":5.35869,"is_reserved":false,"is_disabled":false,"rental_uris":{"android":"levelo://app?vid=60eb95fc-b90e-49ce-a432-7bfaaff8cec5","ios":"levelo://app?vid=60eb95fc-b90e-49ce-a432-7bfaaff8cec5"},"vehicle_type_id":"4","last_reported":1736792008,"current_range_meters":10000,"station_id":"ce4bhah2rcd13ifvqei0","pricing_plan_id":"cebpf4jnsgd1na2vs0mg"},{"bike_id":"56a37990-c381-414a-8c27-59f20eae88ce","system_id":"levelo_inurba_marseille","lat":43.25032,"lon":5.38917,"is_reserved":false,"is_disabled":false,"rental_uris":{"android":"levelo://app?vid=56a37990-c381-414a-8c27-59f20eae88ce","ios":"levelo://app?vid=56a37990-c381-414a-8c27-59f20eae88ce"},"vehicle_type_id":"4","last_reported":1736792008,"current_range_meters":8800,"station_id":"ce4bhgp2rcd13ifvqfd0","pricing_plan_id":"cebpf4jnsgd1na2vs0mg"},{"bike_id":"c1c51f67-6348-4482-a3d4-31704cefaf37","system_id":"levelo_inurba_marseille","lat":43.28616,"lon":5.35102,"is_reserved":false,"is_disabled":false,"rental_uris":{"android":"levelo://app?vid=c1c51f67-6348-4482-a3d4-31704cefaf37","ios":"levelo://app?vid=c1c51f67-6348-4482-a3d4-31704cefaf37"},"vehicle_type_id":"4","last_reported":1736792008,"current_range_meters":32400,"station_id":"ce4bhch2rcd13ifvqeug","pricing_plan_id":"cebpf4jnsgd1na2vs0mg"},{"bike_id":"71cd674b-ddf6-4a5e-9df1-db3037e6b0c4","system_id":"levelo_inurba_marseille","lat":43.30464,"lon":5.379,"is_reserved":false,"is_disabled":true,"rental_uris":{"android":"levelo://app?vid=71cd674b-ddf6-4a5e-9df1-db3037e6b0c4","ios":"levelo://app?vid=71cd674b-ddf6-4a5e-9df1-db3037e6b0c4"},"vehicle_type_id":"4","last_reported":1736792008,"current_range_meters":0,"station_id":"ce4bgup2rcd13ifvqcn0","pricing_plan_id":"cebpf4jnsgd1na2vs0mg"},{"bike_id":"a56bdef2-14b8-4e02-b3bc-538917283971","system_id":"levelo_inurba_marseille","lat":43.25089,"lon":5.39504,"is_reserved":false,"is_disabled":false,"rental_uris":{"android":"levelo://app?vid=a56bdef2-14b8-4e02-b3bc-538917283971","ios":"levelo://app?vid=a56bdef2-14b8-4e02-b3bc-538917283971"},"vehicle_type_id":"4","last_reported":1736792008,"current_range_meters":11200,"station_id":"ce4bhm12rcd13ifvqgkg","pricing_plan_id":"cebpf4jnsgd1na2vs0mg"},{"bike_id":"9b0d933b-e69c-42d6-8da5-72347c9df950","system_id":"levelo_inurba_marseille","lat":43.31324,"lon":5.39709,"is_reserved":false,"is_disabled":false,"rental_uris":{"android":"levelo://app?vid=9b0d933b-e69c-42d6-8da5-72347c9df950","ios":"levelo://app?vid=9b0d933b-e69c-42d6-8da5-72347c9df950"},"vehicle_type_id":"4","last_reported":1736792008,"current_range_meters":14800,"station_id":"ce4bgvp2rcd13ifvqcu0","pricing_plan_id":"cebpf4jnsgd1na2vs0mg"},{"bike_id":"315b51a2-7ea0-4300-9b20-5b0527089b0f","system_id":"levelo_inurba_marseille","lat":43.25588,"lon":5.38231,"is_reserved":false,"is_disabled":false,"rental_uris":{"android":"levelo://app?vid=315b51a2-7ea0-4300-9b20-5b0527089b0f","ios":"levelo://app?vid=315b51a2-7ea0-4300-9b20-5b0527089b0f"},"vehicle_type_id":"4","last_reported":1736792008,"current_range_meters":36800,"station_id":"ce4bhih2rcd13ifvqfs0","pricing_plan_id":"cebpf4jnsgd1na2vs0mg"},{"bike_id":"e9430f1b-8860-41e9-9b9f-1f3b253b57f9","system_id":"levelo_inurba_marseille","lat":43.2606,"lon":5.39396,"is_reserved":false,"is_disabled":false,"rental_uris":{"android":"levelo://app?vid=e9430f1b-8860-41e9-9b9f-1f3b253b57f9","ios":"levelo://app?vid=e9430f1b-8860-41e9-9b9f-1f3b253b57f9"},"vehicle_type_id":"4","last_reported":1736792008,"current_range_meters":38400,"station_id":"ce4bhh92rcd13ifvqfj0","pricing_plan_id":"cebpf4jnsgd1na2vs0mg"},{"bike_id":"11b5ef43-7a8b-43a6-8dc9-02e75f07b9e3","system_id":"levelo_inurba_marseille","lat":43.28713,"lon":5.37405,"is_reserved":false,"is_disabled":false,"rental_uris":{"android":"levelo://app?vid=11b5ef43-7a8b-43a6-8dc9-02e75f07b9e3","ios":"levelo://app?vid=11b5ef43-7a8b-43a6-8dc9-02e75f07b9e3"},"vehicle_type_id":"4","last_reported":1736792008,"current_range_meters":29600,"station_id":"ce4bh3p2rcd13ifvqdq0","pricing_plan_id":"cebpf4jnsgd1na2vs0mg"},{"bike_id":"a754abf4-87cb-4915-a97f-0b4d0e8971f5","system_id":"levelo_inurba_marseille","lat":43.28623,"lon":5.35101,"is_reserved":false,"is_disabled":false,"rental_uris":{"android":"levelo://app?vid=a754abf4-87cb-4915-a97f-0b4d0e8971f5","ios":"levelo://app?vid=a754abf4-87cb-4915-a97f-0b4d0e8971f5"},"vehicle_type_id":"4","last_reported":1736792008,"current_range_meters":32400,"station_id":"ce4bhch2rcd13ifvqeug","pricing_plan_id":"cebpf4jnsgd1na2vs0mg"},{"bike_id":"b51b8509-c21e-40ac-802b-edd56e55cdd0","system_id":"levelo_inurba_marseille","lat":43.30357,"lon":5.41892,"is_reserved":false,"is_disabled":true,"rental_uris":{"android":"levelo://app?vid=b51b8509-c21e-40ac-802b-edd56e55cdd0","ios":"levelo://app?vid=b51b8509-c21e-40ac-802b-edd56e55cdd0"},"vehicle_type_id":"4","last_reported":1736792008,"current_range_meters":23200,"station_id":"ce4bhop2rcd13ifvqh7g","pricing_plan_id":"cebpf4jnsgd1na2vs0mg"},{"bike_id":"512c7bd5-5643-4f7d-a8c3-5cceff4f5ebd","system_id":"levelo_inurba_marseille","lat":43.2736,"lon":5.36244,"is_reserved":false,"is_disabled":false,"rental_uris":{"android":"levelo://app?vid=512c7bd5-5643-4f7d-a8c3-5cceff4f5ebd","ios":"levelo://app?vid=512c7bd5-5643-4f7d-a8c3-5cceff4f5ebd"},"vehicle_type_id":"4","last_reported":1736792008,"current_range_meters":12400,"station_id":"ce4bhbh2rcd13ifvqeo0","pricing_plan_id":"cebpf4jnsgd1na2vs0mg"},{"bike_id":"5578a007-81a4-46d9-83dc-5f1c3a9f018c","system_id":"levelo_inurba_marseille","lat":43.29451,"lon":5.39745,"is_reserved":false,"is_disabled":false,"rental_uris":{"android":"levelo://app?vid=5578a007-81a4-46d9-83dc-5f1c3a9f018c","ios":"levelo://app?vid=5578a007-81a4-46d9-83dc-5f1c3a9f018c"},"vehicle_type_id":"4","last_reported":1736792008,"current_range_meters":36800,"station_id":"ce4bh3h2rcd13ifvqdo0","pricing_plan_id":"cebpf4jnsgd1na2vs0mg"},{"bike_id":"78fc2529-851e-44ea-9e17-e5a76c9197b1","system_id":"levelo_inurba_marseille","lat":43.297255,"lon":5.37651,"is_reserved":false,"is_disabled":true,"rental_uris":{"android":"levelo://app?vid=78fc2529-851e-44ea-9e17-e5a76c9197b1","ios":"levelo://app?vid=78fc2529-851e-44ea-9e17-e5a76c9197b1"},"vehicle_type_id":"4","last_reported":1736792008,"current_range_meters":37600,"station_id":"ce4bgkh2rcd13ifvqbl0","pricing_plan_id":"cebpf4jnsgd1na2vs0mg"},{"bike_id":"c4c46da9-fe59-4f08-9b00-9ba70717a6f2","system_id":"levelo_inurba_marseille","lat":43.32297,"lon":5.38274,"is_reserved":false,"is_disabled":false,"rental_uris":{"android":"levelo://app?vid=c4c46da9-fe59-4f08-9b00-9ba70717a6f2","ios":"levelo://app?vid=c4c46da9-fe59-4f08-9b00-9ba70717a6f2"},"vehicle_type_id":"4","last_reported":1736792008,"current_range_meters":38800,"station_id":"ce4bhr12rcd13ifvqhqg","pricing_plan_id":"cebpf4jnsgd1na2vs0mg"},{"bike_id":"7dd101fd-b924-4217-a15e-4e80f3467171","system_id":"levelo_inurba_marseille","lat":43.29199,"lon":5.35824,"is_reserved":false,"is_disabled":false,"rental_uris":{"android":"levelo://app?vid=7dd101fd-b924-4217-a15e-4e80f3467171","ios":"levelo://app?vid=7dd101fd-b924-4217-a15e-4e80f3467171"},"vehicle_type_id":"4","last_reported":1736792008,"current_range_meters":38800,"station_id":"ce4bhb12rcd13ifvqel0","pricing_plan_id":"cebpf4jnsgd1na2vs0mg"},{"bike_id":"444a67bc-c196-4f01-a409-95053f425e82","system_id":"levelo_inurba_marseille","lat":43.26495,"lon":5.39549,"is_reserved":false,"is_disabled":false,"rental_uris":{"android":"levelo://app?vid=444a67bc-c196-4f01-a409-95053f425e82","ios":"levelo://app?vid=444a67bc-c196-4f01-a409-95053f425e82"},"vehicle_type_id":"4","last_reported":1736792008,"current_range_meters":16800,"station_id":"ce4bhi12rcd13ifvqfq0","pricing_plan_id":"cebpf4jnsgd1na2vs0mg"},{"bike_id":"5a408383-d8bc-484b-8056-3b2b72db0c4e","system_id":"levelo_inurba_marseille","lat":43.29938,"lon":5.36544,"is_reserved":false,"is_disabled":false,"rental_uris":{"android":"levelo://app?vid=5a408383-d8bc-484b-8056-3b2b72db0c4e","ios":"levelo://app?vid=5a408383-d8bc-484b-8056-3b2b72db0c4e"},"vehicle_type_id":"4","last_reported":1736792008,"current_range_meters":19200,"station_id":"ce4bgm92rcd13ifvqbr0","pricing_plan_id":"cebpf4jnsgd1na2vs0mg"},{"bike_id":"7c53cd33-cb9c-4072-9762-fc9111f0e5c3","system_id":"levelo_inurba_marseille","lat":43.27806,"lon":5.40716,"is_reserved":false,"is_disabled":false,"rental_uris":{"android":"levelo://app?vid=7c53cd33-cb9c-4072-9762-fc9111f0e5c3","ios":"levelo://app?vid=7c53cd33-cb9c-4072-9762-fc9111f0e5c3"},"vehicle_type_id":"4","last_reported":1736792008,"current_range_meters":12400,"station_id":"ce4bhnh2rcd13ifvqgtg","pricing_plan_id":"cebpf4jnsgd1na2vs0mg"},{"bike_id":"ea51f736-54b3-43c5-8b95-a6c3d5ff0ef4","system_id":"levelo_inurba_marseille","lat":43.25823,"lon":5.39435,"is_reserved":false,"is_disabled":false,"rental_uris":{"android":"levelo://app?vid=ea51f736-54b3-43c5-8b95-a6c3d5ff0ef4","ios":"levelo://app?vid=ea51f736-54b3-43c5-8b95-a6c3d5ff0ef4"},"vehicle_type_id":"4","last_reported":1736792008,"current_range_meters":38800,"station_id":"ce4bhip2rcd13ifvqft0","pricing_plan_id":"cebpf4jnsgd1na2vs0mg"},{"bike_id":"81894d57-6961-4ca9-8a73-3302ecbe940c","system_id":"levelo_inurba_marseille","lat":43.24803,"lon":5.37472,"is_reserved":false,"is_disabled":false,"rental_uris":{"android":"levelo://app?vid=81894d57-6961-4ca9-8a73-3302ecbe940c","ios":"levelo://app?vid=81894d57-6961-4ca9-8a73-3302ecbe940c"},"vehicle_type_id":"4","last_reported":1736792008,"current_range_meters":8800,"station_id":"ce4bhgh2rcd13ifvqfb0","pricing_plan_id":"cebpf4jnsgd1na2vs0mg"},{"bike_id":"93b3d1ed-fed3-49f3-b2c1-819abbaf9768","system_id":"levelo_inurba_marseille","lat":43.29014,"lon":5.35615,"is_reserved":false,"is_disabled":false,"rental_uris":{"android":"levelo://app?vid=93b3d1ed-fed3-49f3-b2c1-819abbaf9768","ios":"levelo://app?vid=93b3d1ed-fed3-49f3-b2c1-819abbaf9768"},"vehicle_type_id":"4","last_reported":1736792008,"current_range_meters":8400,"station_id":"ce4bhb92rcd13ifvqen0","pricing_plan_id":"cebpf4jnsgd1na2vs0mg"},{"bike_id":"2e97710c-38d7-4cf4-aadf-33f66f41c611","system_id":"levelo_inurba_marseille","lat":43.28962,"lon":5.36435,"is_reserved":false,"is_disabled":false,"rental_uris":{"android":"levelo://app?vid=2e97710c-38d7-4cf4-aadf-33f66f41c611","ios":"levelo://app?vid=2e97710c-38d7-4cf4-aadf-33f66f41c611"},"vehicle_type_id":"4","last_reported":1736792008,"current_range_meters":33200,"station_id":"","pricing_plan_id":"cebpf4jnsgd1na2vs0mg"},{"bike_id":"45324790-abcf-4a91-8b9e-6b7c17eae013","system_id":"levelo_inurba_marseille","lat":43.27373,"lon":5.36238,"is_reserved":false,"is_disabled":false,"rental_uris":{"android":"levelo://app?vid=45324790-abcf-4a91-8b9e-6b7c17eae013","ios":"levelo://app?vid=45324790-abcf-4a91-8b9e-6b7c17eae013"},"vehicle_type_id":"4","last_reported":1736792008,"current_range_meters":8400,"station_id":"ce4bhbh2rcd13ifvqeo0","pricing_plan_id":"cebpf4jnsgd1na2vs0mg"},{"bike_id":"458e751a-905c-4f8b-b3d3-ab8ec822e070","system_id":"levelo_inurba_marseille","lat":43.31536,"lon":5.38934,"is_reserved":false,"is_disabled":false,"rental_uris":{"android":"levelo://app?vid=458e751a-905c-4f8b-b3d3-ab8ec822e070","ios":"levelo://app?vid=458e751a-905c-4f8b-b3d3-ab8ec822e070"},"vehicle_type_id":"4","last_reported":1736792008,"current_range_meters":21600,"station_id":"","pricing_plan_id":"cebpf4jnsgd1na2vs0mg"},{"bike_id":"c128ad66-534c-47cc-930f-e9342bbb43bb","system_id":"levelo_inurba_marseille","lat":43.23963,"lon":5.36632,"is_reserved":false,"is_disabled":false,"rental_uris":{"android":"levelo://app?vid=c128ad66-534c-47cc-930f-e9342bbb43bb","ios":"levelo://app?vid=c128ad66-534c-47cc-930f-e9342bbb43bb"},"vehicle_type_id":"4","last_reported":1736792008,"current_range_meters":12800,"station_id":"ce4bhi12rcd13ifvqfp0","pricing_plan_id":"cebpf4jnsgd1na2vs0mg"},{"bike_id":"47f63191-6673-4167-8a58-1a164b7d4b7e","system_id":"levelo_inurba_marseille","lat":43.2407,"lon":5.37758,"is_reserved":false,"is_disabled":false,"rental_uris":{"android":"levelo://app?vid=47f63191-6673-4167-8a58-1a164b7d4b7e","ios":"levelo://app?vid=47f63191-6673-4167-8a58-1a164b7d4b7e"},"vehicle_type_id":"4","last_reported":1736792008,"current_range_meters":26800,"station_id":"ce4bhnp2rcd13ifvqgvg","pricing_plan_id":"cebpf4jnsgd1na2vs0mg"},{"bike_id":"f1688138-2a67-4ecf-8de6-bb1093eb8771","system_id":"levelo_inurba_marseille","lat":43.25855,"lon":5.39899,"is_reserved":false,"is_disabled":false,"rental_uris":{"android":"levelo://app?vid=f1688138-2a67-4ecf-8de6-bb1093eb8771","ios":"levelo://app?vid=f1688138-2a67-4ecf-8de6-bb1093eb8771"},"vehicle_type_id":"4","last_reported":1736792008,"current_range_meters":22000,"station_id":"ce4bhl92rcd13ifvqghg","pricing_plan_id":"cebpf4jnsgd1na2vs0mg"},{"bike_id":"f79500fa-8208-4800-aa4c-2895d1446ae2","system_id":"levelo_inurba_marseille","lat":43.29881,"lon":5.389,"is_reserved":false,"is_disabled":false,"rental_uris":{"android":"levelo://app?vid=f79500fa-8208-4800-aa4c-2895d1446ae2","ios":"levelo://app?vid=f79500fa-8208-4800-aa4c-2895d1446ae2"},"vehicle_type_id":"4","last_reported":1736792008,"current_range_meters":6000,"station_id":"ce4bh392rcd13ifvqdl0","pricing_plan_id":"cebpf4jnsgd1na2vs0mg"},{"bike_id":"4f89442f-390f-4ae7-9a32-32a18b8c05ad","system_id":"levelo_inurba_marseille","lat":43.28458,"lon":5.35891,"is_reserved":false,"is_disabled":true,"rental_uris":{"android":"levelo://app?vid=4f89442f-390f-4ae7-9a32-32a18b8c05ad","ios":"levelo://app?vid=4f89442f-390f-4ae7-9a32-32a18b8c05ad"},"vehicle_type_id":"4","last_reported":1736792008,"current_range_meters":800,"station_id":"ce4bhah2rcd13ifvqei0","pricing_plan_id":"cebpf4jnsgd1na2vs0mg"},{"bike_id":"fed252d4-8a96-4918-8909-8c985d1de4fb","system_id":"levelo_inurba_marseille","lat":43.32487,"lon":5.3658,"is_reserved":false,"is_disabled":false,"rental_uris":{"android":"levelo://app?vid=fed252d4-8a96-4918-8909-8c985d1de4fb","ios":"levelo://app?vid=fed252d4-8a96-4918-8909-8c985d1de4fb"},"vehicle_type_id":"4","last_reported":1736792008,"current_range_meters":23200,"station_id":"ce4bhs12rcd13ifvqhvg","pricing_plan_id":"cebpf4jnsgd1na2vs0mg"},{"bike_id":"1ff4d6af-d168-4206-80a1-8f85ab0c0a00","system_id":"levelo_inurba_marseille","lat":43.2587,"lon":5.39917,"is_reserved":false,"is_disabled":false,"rental_uris":{"android":"levelo://app?vid=1ff4d6af-d168-4206-80a1-8f85ab0c0a00","ios":"levelo://app?vid=1ff4d6af-d168-4206-80a1-8f85ab0c0a00"},"vehicle_type_id":"4","last_reported":1736792008,"current_range_meters":38800,"station_id":"ce4bhl92rcd13ifvqghg","pricing_plan_id":"cebpf4jnsgd1na2vs0mg"},{"bike_id":"02f9c855-9b7c-4c4d-a998-251e38d370bb","system_id":"levelo_inurba_marseille","lat":43.31014,"lon":5.379266,"is_reserved":false,"is_disabled":false,"rental_uris":{"android":"levelo://app?vid=02f9c855-9b7c-4c4d-a998-251e38d370bb","ios":"levelo://app?vid=02f9c855-9b7c-4c4d-a998-251e38d370bb"},"vehicle_type_id":"4","last_reported":1736792008,"current_range_meters":30000,"station_id":"","pricing_plan_id":"cebpf4jnsgd1na2vs0mg"},{"bike_id":"d97ad6b4-c689-48bf-a0b5-0a64e623e699","system_id":"levelo_inurba_marseille","lat":43.28154,"lon":5.42636,"is_reserved":false,"is_disabled":false,"rental_uris":{"android":"levelo://app?vid=d97ad6b4-c689-48bf-a0b5-0a64e623e699","ios":"levelo://app?vid=d97ad6b4-c689-48bf-a0b5-0a64e623e699"},"vehicle_type_id":"4","last_reported":1736792008,"current_range_meters":24000,"station_id":"ce4bhnh2rcd13ifvqgug","pricing_plan_id":"cebpf4jnsgd1na2vs0mg"},{"bike_id":"4f33525b-ad77-45f3-a5ca-48f52317317a","system_id":"levelo_inurba_marseille","lat":43.284014,"lon":5.384429,"is_reserved":false,"is_disabled":true,"rental_uris":{"android":"levelo://app?vid=4f33525b-ad77-45f3-a5ca-48f52317317a","ios":"levelo://app?vid=4f33525b-ad77-45f3-a5ca-48f52317317a"},"vehicle_type_id":"4","last_reported":1736792008,"current_range_meters":1200,"station_id":"ce4bh512rcd13ifvqe3g","pricing_plan_id":"cebpf4jnsgd1na2vs0mg"},{"bike_id":"94a60579-bf9e-4cba-9a96-de41a0fa579f","system_id":"levelo_inurba_marseille","lat":43.26566,"lon":5.372815,"is_reserved":false,"is_disabled":false,"rental_uris":{"android":"levelo://app?vid=94a60579-bf9e-4cba-9a96-de41a0fa579f","ios":"levelo://app?vid=94a60579-bf9e-4cba-9a96-de41a0fa579f"},"vehicle_type_id":"4","last_reported":1736792008,"current_range_meters":31200,"station_id":"ce4bhg12rcd13ifvqf70","pricing_plan_id":"cebpf4jnsgd1na2vs0mg"},{"bike_id":"77c125dd-0570-435e-ae36-92a459b4cd7d","system_id":"levelo_inurba_marseille","lat":43.258267,"lon":5.394277,"is_reserved":false,"is_disabled":false,"rental_uris":{"android":"levelo://app?vid=77c125dd-0570-435e-ae36-92a459b4cd7d","ios":"levelo://app?vid=77c125dd-0570-435e-ae36-92a459b4cd7d"},"vehicle_type_id":"4","last_reported":1736792008,"current_range_meters":9200,"station_id":"ce4bhip2rcd13ifvqft0","pricing_plan_id":"cebpf4jnsgd1na2vs0mg"},{"bike_id":"f8714d5c-fce1-421b-9968-ced04469e373","system_id":"levelo_inurba_marseille","lat":43.26059,"lon":5.39395,"is_reserved":false,"is_disabled":false,"rental_uris":{"android":"levelo://app?vid=f8714d5c-fce1-421b-9968-ced04469e373","ios":"levelo://app?vid=f8714d5c-fce1-421b-9968-ced04469e373"},"vehicle_type_id":"4","last_reported":1736792008,"current_range_meters":27600,"station_id":"ce4bhh92rcd13ifvqfj0","pricing_plan_id":"cebpf4jnsgd1na2vs0mg"},{"bike_id":"b9d3689c-1acc-4a0f-85d3-8bc9de85ddfd","system_id":"levelo_inurba_marseille","lat":43.28365,"lon":5.38633,"is_reserved":false,"is_disabled":false,"rental_uris":{"android":"levelo://app?vid=b9d3689c-1acc-4a0f-85d3-8bc9de85ddfd","ios":"levelo://app?vid=b9d3689c-1acc-4a0f-85d3-8bc9de85ddfd"},"vehicle_type_id":"4","last_reported":1736792008,"current_range_meters":10800,"station_id":"ce4bh492rcd13ifvqdvg","pricing_plan_id":"cebpf4jnsgd1na2vs0mg"},{"bike_id":"476f41db-3d59-43ab-93e3-66f344a533de","system_id":"levelo_inurba_marseille","lat":43.29199,"lon":5.35807,"is_reserved":false,"is_disabled":false,"rental_uris":{"android":"levelo://app?vid=476f41db-3d59-43ab-93e3-66f344a533de","ios":"levelo://app?vid=476f41db-3d59-43ab-93e3-66f344a533de"},"vehicle_type_id":"4","last_reported":1736792008,"current_range_meters":39200,"station_id":"ce4bhb12rcd13ifvqel0","pricing_plan_id":"cebpf4jnsgd1na2vs0mg"},{"bike_id":"acb789d3-c42d-465c-982b-20d6256e9026","system_id":"levelo_inurba_marseille","lat":43.24393,"lon":5.3706,"is_reserved":false,"is_disabled":false,"rental_uris":{"android":"levelo://app?vid=acb789d3-c42d-465c-982b-20d6256e9026","ios":"levelo://app?vid=acb789d3-c42d-465c-982b-20d6256e9026"},"vehicle_type_id":"4","last_reported":1736792008,"current_range_meters":5600,"station_id":"ce4bhhh2rcd13ifvqfk0","pricing_plan_id":"cebpf4jnsgd1na2vs0mg"},{"bike_id":"295bd26f-64bb-4f9a-b1ce-9227768f18ec","system_id":"levelo_inurba_marseille","lat":43.29173,"lon":5.37147,"is_reserved":false,"is_disabled":true,"rental_uris":{"android":"levelo://app?vid=295bd26f-64bb-4f9a-b1ce-9227768f18ec","ios":"levelo://app?vid=295bd26f-64bb-4f9a-b1ce-9227768f18ec"},"vehicle_type_id":"4","last_reported":1736792008,"current_range_meters":28400,"station_id":"ce4bha92rcd13ifvqeh0","pricing_plan_id":"cebpf4jnsgd1na2vs0mg"},{"bike_id":"1bff2bac-4883-4019-adbe-2dc598af8aad","system_id":"levelo_inurba_marseille","lat":43.27428,"lon":5.39412,"is_reserved":false,"is_disabled":false,"rental_uris":{"android":"levelo://app?vid=1bff2bac-4883-4019-adbe-2dc598af8aad","ios":"levelo://app?vid=1bff2bac-4883-4019-adbe-2dc598af8aad"},"vehicle_type_id":"4","last_reported":1736792008,"current_range_meters":20000,"station_id":"ce4bhdp2rcd13ifvqf20","pricing_plan_id":"cebpf4jnsgd1na2vs0mg"},{"bike_id":"ae29e0de-7b5a-45d6-ace3-313c5e88010a","system_id":"levelo_inurba_marseille","lat":43.28026,"lon":5.41675,"is_reserved":false,"is_disabled":false,"rental_uris":{"android":"levelo://app?vid=ae29e0de-7b5a-45d6-ace3-313c5e88010a","ios":"levelo://app?vid=ae29e0de-7b5a-45d6-ace3-313c5e88010a"},"vehicle_type_id":"4","last_reported":1736792008,"current_range_meters":38800,"station_id":"ce4bho12rcd13ifvqh1g","pricing_plan_id":"cebpf4jnsgd1na2vs0mg"},{"bike_id":"6c8f1a4a-6d49-4354-8fa4-7312da1e1397","system_id":"levelo_inurba_marseille","lat":43.2861,"lon":5.35101,"is_reserved":false,"is_disabled":false,"rental_uris":{"android":"levelo://app?vid=6c8f1a4a-6d49-4354-8fa4-7312da1e1397","ios":"levelo://app?vid=6c8f1a4a-6d49-4354-8fa4-7312da1e1397"},"vehicle_type_id":"4","last_reported":1736792008,"current_range_meters":37600,"station_id":"ce4bhch2rcd13ifvqeug","pricing_plan_id":"cebpf4jnsgd1na2vs0mg"},{"bike_id":"572f0254-11cf-4ef2-b3f9-66737ed8298a","system_id":"levelo_inurba_marseille","lat":43.28421,"lon":5.34987,"is_reserved":false,"is_disabled":true,"rental_uris":{"android":"levelo://app?vid=572f0254-11cf-4ef2-b3f9-66737ed8298a","ios":"levelo://app?vid=572f0254-11cf-4ef2-b3f9-66737ed8298a"},"vehicle_type_id":"4","last_reported":1736792008,"current_range_meters":0,"station_id":"ce4bhbh2rcd13ifvqepg","pricing_plan_id":"cebpf4jnsgd1na2vs0mg"},{"bike_id":"0fc9e93c-3b6a-466d-bd86-4edc3b114e27","system_id":"levelo_inurba_marseille","lat":43.29269,"lon":5.38435,"is_reserved":false,"is_disabled":false,"rental_uris":{"android":"levelo://app?vid=0fc9e93c-3b6a-466d-bd86-4edc3b114e27","ios":"levelo://app?vid=0fc9e93c-3b6a-466d-bd86-4edc3b114e27"},"vehicle_type_id":"4","last_reported":1736792008,"current_range_meters":13600,"station_id":"ce4bh692rcd13ifvqea0","pricing_plan_id":"cebpf4jnsgd1na2vs0mg"},{"bike_id":"60c48e84-151f-4edd-83cd-789ff87c7f63","system_id":"levelo_inurba_marseille","lat":43.28697,"lon":5.37393,"is_reserved":false,"is_disabled":true,"rental_uris":{"android":"levelo://app?vid=60c48e84-151f-4edd-83cd-789ff87c7f63","ios":"levelo://app?vid=60c48e84-151f-4edd-83cd-789ff87c7f63"},"vehicle_type_id":"4","last_reported":1736792008,"current_range_meters":36800,"station_id":"ce4bh3p2rcd13ifvqdq0","pricing_plan_id":"cebpf4jnsgd1na2vs0mg"},{"bike_id":"b8014fe9-3b0e-4643-96c5-b77e26dd3881","system_id":"levelo_inurba_marseille","lat":43.27824,"lon":5.40724,"is_reserved":false,"is_disabled":false,"rental_uris":{"android":"levelo://app?vid=b8014fe9-3b0e-4643-96c5-b77e26dd3881","ios":"levelo://app?vid=b8014fe9-3b0e-4643-96c5-b77e26dd3881"},"vehicle_type_id":"4","last_reported":1736792008,"current_range_meters":9200,"station_id":"ce4bhnh2rcd13ifvqgtg","pricing_plan_id":"cebpf4jnsgd1na2vs0mg"},{"bike_id":"4bf1ca14-c008-4015-8983-0ff649a4af32","system_id":"levelo_inurba_marseille","lat":43.29584,"lon":5.37518,"is_reserved":false,"is_disabled":true,"rental_uris":{"android":"levelo://app?vid=4bf1ca14-c008-4015-8983-0ff649a4af32","ios":"levelo://app?vid=4bf1ca14-c008-4015-8983-0ff649a4af32"},"vehicle_type_id":"4","last_reported":1736792008,"current_range_meters":6400,"station_id":"ce4bgh92rcd13ifvqb50","pricing_plan_id":"cebpf4jnsgd1na2vs0mg"},{"bike_id":"d1dc4ad9-186b-444e-9d19-7e7fc8f9a273","system_id":"levelo_inurba_marseille","lat":43.25587,"lon":5.38225,"is_reserved":false,"is_disabled":false,"rental_uris":{"android":"levelo://app?vid=d1dc4ad9-186b-444e-9d19-7e7fc8f9a273","ios":"levelo://app?vid=d1dc4ad9-186b-444e-9d19-7e7fc8f9a273"},"vehicle_type_id":"4","last_reported":1736792008,"current_range_meters":38800,"station_id":"ce4bhih2rcd13ifvqfs0","pricing_plan_id":"cebpf4jnsgd1na2vs0mg"},{"bike_id":"6fcb3384-c9bc-4ab3-9c0b-f62a500684d1","system_id":"levelo_inurba_marseille","lat":43.29518,"lon":5.39038,"is_reserved":false,"is_disabled":true,"rental_uris":{"android":"levelo://app?vid=6fcb3384-c9bc-4ab3-9c0b-f62a500684d1","ios":"levelo://app?vid=6fcb3384-c9bc-4ab3-9c0b-f62a500684d1"},"vehicle_type_id":"4","last_reported":1736792008,"current_range_meters":28400,"station_id":"ce4bh3p2rcd13ifvqdp0","pricing_plan_id":"cebpf4jnsgd1na2vs0mg"},{"bike_id":"de05f028-7450-4792-8d5b-e268410faa9d","system_id":"levelo_inurba_marseille","lat":43.32105,"lon":5.36786,"is_reserved":false,"is_disabled":false,"rental_uris":{"android":"levelo://app?vid=de05f028-7450-4792-8d5b-e268410faa9d","ios":"levelo://app?vid=de05f028-7450-4792-8d5b-e268410faa9d"},"vehicle_type_id":"4","last_reported":1736792008,"current_range_meters":32000,"station_id":"ce4bhrh2rcd13ifvqhug","pricing_plan_id":"cebpf4jnsgd1na2vs0mg"},{"bike_id":"40ca92e2-89d4-42e2-bbb6-f9f0c7df0ac9","system_id":"levelo_inurba_marseille","lat":43.23198,"lon":5.39985,"is_reserved":false,"is_disabled":false,"rental_uris":{"android":"levelo://app?vid=40ca92e2-89d4-42e2-bbb6-f9f0c7df0ac9","ios":"levelo://app?vid=40ca92e2-89d4-42e2-bbb6-f9f0c7df0ac9"},"vehicle_type_id":"4","last_reported":1736792008,"current_range_meters":11200,"station_id":"ce4bhn12rcd13ifvqgqg","pricing_plan_id":"cebpf4jnsgd1na2vs0mg"},{"bike_id":"4218abb1-97a1-4e69-a779-b2859c95cf9a","system_id":"levelo_inurba_marseille","lat":43.23957,"lon":5.36623,"is_reserved":false,"is_disabled":false,"rental_uris":{"android":"levelo://app?vid=4218abb1-97a1-4e69-a779-b2859c95cf9a","ios":"levelo://app?vid=4218abb1-97a1-4e69-a779-b2859c95cf9a"},"vehicle_type_id":"4","last_reported":1736792008,"current_range_meters":18000,"station_id":"ce4bhi12rcd13ifvqfp0","pricing_plan_id":"cebpf4jnsgd1na2vs0mg"},{"bike_id":"7da73b08-06e3-43ca-8e0f-9447fe50ccbf","system_id":"levelo_inurba_marseille","lat":43.27492,"lon":5.4246,"is_reserved":false,"is_disabled":true,"rental_uris":{"android":"levelo://app?vid=7da73b08-06e3-43ca-8e0f-9447fe50ccbf","ios":"levelo://app?vid=7da73b08-06e3-43ca-8e0f-9447fe50ccbf"},"vehicle_type_id":"4","last_reported":1736792008,"current_range_meters":0,"station_id":"ce4bhn92rcd13ifvqgrg","pricing_plan_id":"cebpf4jnsgd1na2vs0mg"},{"bike_id":"f2af2ca6-447c-496c-ad3d-731c1377ca61","system_id":"levelo_inurba_marseille","lat":43.30086,"lon":5.37287,"is_reserved":false,"is_disabled":false,"rental_uris":{"android":"levelo://app?vid=f2af2ca6-447c-496c-ad3d-731c1377ca61","ios":"levelo://app?vid=f2af2ca6-447c-496c-ad3d-731c1377ca61"},"vehicle_type_id":"4","last_reported":1736792008,"current_range_meters":15200,"station_id":"","pricing_plan_id":"cebpf4jnsgd1na2vs0mg"},{"bike_id":"85cfe1c0-40e0-4f59-b74d-562bdcdf0cee","system_id":"levelo_inurba_marseille","lat":43.28566,"lon":5.395,"is_reserved":false,"is_disabled":false,"rental_uris":{"android":"levelo://app?vid=85cfe1c0-40e0-4f59-b74d-562bdcdf0cee","ios":"levelo://app?vid=85cfe1c0-40e0-4f59-b74d-562bdcdf0cee"},"vehicle_type_id":"4","last_reported":1736792008,"current_range_meters":39200,"station_id":"ce4bh292rcd13ifvqdg0","pricing_plan_id":"cebpf4jnsgd1na2vs0mg"},{"bike_id":"923cb395-45d4-4d53-bdd9-a34c0143ee2c","system_id":"levelo_inurba_marseille","lat":43.32291,"lon":5.38279,"is_reserved":false,"is_disabled":false,"rental_uris":{"android":"levelo://app?vid=923cb395-45d4-4d53-bdd9-a34c0143ee2c","ios":"levelo://app?vid=923cb395-45d4-4d53-bdd9-a34c0143ee2c"},"vehicle_type_id":"4","last_reported":1736792008,"current_range_meters":27600,"station_id":"ce4bhr12rcd13ifvqhqg","pricing_plan_id":"cebpf4jnsgd1na2vs0mg"},{"bike_id":"4702389e-6abe-4c8d-a8dd-2f727bc003cc","system_id":"levelo_inurba_marseille","lat":43.29045,"lon":5.35906,"is_reserved":false,"is_disabled":false,"rental_uris":{"android":"levelo://app?vid=4702389e-6abe-4c8d-a8dd-2f727bc003cc","ios":"levelo://app?vid=4702389e-6abe-4c8d-a8dd-2f727bc003cc"},"vehicle_type_id":"4","last_reported":1736792008,"current_range_meters":33600,"station_id":"ce4bha92rcd13ifvqeg0","pricing_plan_id":"cebpf4jnsgd1na2vs0mg"},{"bike_id":"34d1187a-0d2f-42da-8bcd-6376169d385a","system_id":"levelo_inurba_marseille","lat":43.25915,"lon":5.40873,"is_reserved":false,"is_disabled":true,"rental_uris":{"android":"levelo://app?vid=34d1187a-0d2f-42da-8bcd-6376169d385a","ios":"levelo://app?vid=34d1187a-0d2f-42da-8bcd-6376169d385a"},"vehicle_type_id":"4","last_reported":1736792008,"current_range_meters":1600,"station_id":"ce4bhm92rcd13ifvqglg","pricing_plan_id":"cebpf4jnsgd1na2vs0mg"},{"bike_id":"3ecb2430-8ab0-4d3d-ad6f-fbbaf17f1bcd","system_id":"levelo_inurba_marseille","lat":43.26569,"lon":5.39006,"is_reserved":false,"is_disabled":false,"rental_uris":{"android":"levelo://app?vid=3ecb2430-8ab0-4d3d-ad6f-fbbaf17f1bcd","ios":"levelo://app?vid=3ecb2430-8ab0-4d3d-ad6f-fbbaf17f1bcd"},"vehicle_type_id":"4","last_reported":1736792008,"current_range_meters":14000,"station_id":"ce4bhe12rcd13ifvqf30","pricing_plan_id":"cebpf4jnsgd1na2vs0mg"},{"bike_id":"b704bf42-2bc7-4506-b669-8ca7a3330fef","system_id":"levelo_inurba_marseille","lat":43.28166,"lon":5.4264,"is_reserved":false,"is_disabled":true,"rental_uris":{"android":"levelo://app?vid=b704bf42-2bc7-4506-b669-8ca7a3330fef","ios":"levelo://app?vid=b704bf42-2bc7-4506-b669-8ca7a3330fef"},"vehicle_type_id":"4","last_reported":1736792008,"current_range_meters":24400,"station_id":"ce4bhnh2rcd13ifvqgug","pricing_plan_id":"cebpf4jnsgd1na2vs0mg"},{"bike_id":"b32b26cf-0472-4384-a98c-bd6bf8c7595a","system_id":"levelo_inurba_marseille","lat":43.2679,"lon":5.39413,"is_reserved":false,"is_disabled":false,"rental_uris":{"android":"levelo://app?vid=b32b26cf-0472-4384-a98c-bd6bf8c7595a","ios":"levelo://app?vid=b32b26cf-0472-4384-a98c-bd6bf8c7595a"},"vehicle_type_id":"4","last_reported":1736792008,"current_range_meters":36400,"station_id":"ce4bhh12rcd13ifvqfg0","pricing_plan_id":"cebpf4jnsgd1na2vs0mg"},{"bike_id":"efdf6e72-46a9-4201-b253-5e7a8c8a3bbf","system_id":"levelo_inurba_marseille","lat":43.27179,"lon":5.40988,"is_reserved":false,"is_disabled":false,"rental_uris":{"android":"levelo://app?vid=efdf6e72-46a9-4201-b253-5e7a8c8a3bbf","ios":"levelo://app?vid=efdf6e72-46a9-4201-b253-5e7a8c8a3bbf"},"vehicle_type_id":"4","last_reported":1736792008,"current_range_meters":35600,"station_id":"ce4bhl12rcd13ifvqgf0","pricing_plan_id":"cebpf4jnsgd1na2vs0mg"},{"bike_id":"1ebe4a0c-a043-4939-914a-9f9fe611c5cb","system_id":"levelo_inurba_marseille","lat":43.29171,"lon":5.37166,"is_reserved":false,"is_disabled":false,"rental_uris":{"android":"levelo://app?vid=1ebe4a0c-a043-4939-914a-9f9fe611c5cb","ios":"levelo://app?vid=1ebe4a0c-a043-4939-914a-9f9fe611c5cb"},"vehicle_type_id":"4","last_reported":1736792008,"current_range_meters":7200,"station_id":"ce4bha92rcd13ifvqeh0","pricing_plan_id":"cebpf4jnsgd1na2vs0mg"},{"bike_id":"f62a7ed4-7c80-4ed8-9568-a4dea62069d1","system_id":"levelo_inurba_marseille","lat":43.28107,"lon":5.39673,"is_reserved":false,"is_disabled":false,"rental_uris":{"android":"levelo://app?vid=f62a7ed4-7c80-4ed8-9568-a4dea62069d1","ios":"levelo://app?vid=f62a7ed4-7c80-4ed8-9568-a4dea62069d1"},"vehicle_type_id":"4","last_reported":1736792008,"current_range_meters":28000,"station_id":"ce4bho12rcd13ifvqh2g","pricing_plan_id":"cebpf4jnsgd1na2vs0mg"},{"bike_id":"211df616-2f40-4f82-884e-87a581decd24","system_id":"levelo_inurba_marseille","lat":43.30137,"lon":5.38782,"is_reserved":false,"is_disabled":false,"rental_uris":{"android":"levelo://app?vid=211df616-2f40-4f82-884e-87a581decd24","ios":"levelo://app?vid=211df616-2f40-4f82-884e-87a581decd24"},"vehicle_type_id":"4","last_reported":1736792008,"current_range_meters":22400,"station_id":"ce4bghh2rcd13ifvqb60","pricing_plan_id":"cebpf4jnsgd1na2vs0mg"},{"bike_id":"08c58b0c-378d-4e34-9aef-7f8ed4f9ae02","system_id":"levelo_inurba_marseille","lat":43.27625,"lon":5.36107,"is_reserved":false,"is_disabled":false,"rental_uris":{"android":"levelo://app?vid=08c58b0c-378d-4e34-9aef-7f8ed4f9ae02","ios":"levelo://app?vid=08c58b0c-378d-4e34-9aef-7f8ed4f9ae02"},"vehicle_type_id":"4","last_reported":1736792008,"current_range_meters":28800,"station_id":"ce4bgj92rcd13ifvqbe0","pricing_plan_id":"cebpf4jnsgd1na2vs0mg"},{"bike_id":"2ac5d086-ba2c-4c68-8515-9cd6aee6e212","system_id":"levelo_inurba_marseille","lat":43.31305,"lon":5.39716,"is_reserved":false,"is_disabled":false,"rental_uris":{"android":"levelo://app?vid=2ac5d086-ba2c-4c68-8515-9cd6aee6e212","ios":"levelo://app?vid=2ac5d086-ba2c-4c68-8515-9cd6aee6e212"},"vehicle_type_id":"4","last_reported":1736792008,"current_range_meters":9600,"station_id":"ce4bgvp2rcd13ifvqcu0","pricing_plan_id":"cebpf4jnsgd1na2vs0mg"},{"bike_id":"b560f55a-95c8-41f5-8bf0-866c9d6c5d56","system_id":"levelo_inurba_marseille","lat":43.27942,"lon":5.41044,"is_reserved":false,"is_disabled":false,"rental_uris":{"android":"levelo://app?vid=b560f55a-95c8-41f5-8bf0-866c9d6c5d56","ios":"levelo://app?vid=b560f55a-95c8-41f5-8bf0-866c9d6c5d56"},"vehicle_type_id":"4","last_reported":1736792008,"current_range_meters":14000,"station_id":"ce4bhnp2rcd13ifvqh0g","pricing_plan_id":"cebpf4jnsgd1na2vs0mg"},{"bike_id":"31240ca4-9f64-4406-9c52-14b4354e548c","system_id":"levelo_inurba_marseille","lat":43.28622,"lon":5.35082,"is_reserved":false,"is_disabled":false,"rental_uris":{"android":"levelo://app?vid=31240ca4-9f64-4406-9c52-14b4354e548c","ios":"levelo://app?vid=31240ca4-9f64-4406-9c52-14b4354e548c"},"vehicle_type_id":"4","last_reported":1736792008,"current_range_meters":32400,"station_id":"ce4bhch2rcd13ifvqeug","pricing_plan_id":"cebpf4jnsgd1na2vs0mg"},{"bike_id":"78d46703-14b4-40d4-8828-ff8095d8a2a4","system_id":"levelo_inurba_marseille","lat":43.29515,"lon":5.39406,"is_reserved":false,"is_disabled":false,"rental_uris":{"android":"levelo://app?vid=78d46703-14b4-40d4-8828-ff8095d8a2a4","ios":"levelo://app?vid=78d46703-14b4-40d4-8828-ff8095d8a2a4"},"vehicle_type_id":"4","last_reported":1736792008,"current_range_meters":30800,"station_id":"ce4bh292rcd13ifvqdf0","pricing_plan_id":"cebpf4jnsgd1na2vs0mg"},{"bike_id":"8cba5328-787f-4a59-a6b6-c442b5aaca46","system_id":"levelo_inurba_marseille","lat":43.26446,"lon":5.39638,"is_reserved":false,"is_disabled":false,"rental_uris":{"android":"levelo://app?vid=8cba5328-787f-4a59-a6b6-c442b5aaca46","ios":"levelo://app?vid=8cba5328-787f-4a59-a6b6-c442b5aaca46"},"vehicle_type_id":"4","last_reported":1736792008,"current_range_meters":38800,"station_id":"ce4bhi12rcd13ifvqfq0","pricing_plan_id":"cebpf4jnsgd1na2vs0mg"},{"bike_id":"df0b6114-99b8-427c-912a-a9577034450a","system_id":"levelo_inurba_marseille","lat":43.29797,"lon":5.39337,"is_reserved":false,"is_disabled":false,"rental_uris":{"android":"levelo://app?vid=df0b6114-99b8-427c-912a-a9577034450a","ios":"levelo://app?vid=df0b6114-99b8-427c-912a-a9577034450a"},"vehicle_type_id":"4","last_reported":1736792008,"current_range_meters":10000,"station_id":"chh1huq6cuj3fo74tm60","pricing_plan_id":"cebpf4jnsgd1na2vs0mg"},{"bike_id":"b4455fcf-7427-42ff-a824-b77090d9ccce","system_id":"levelo_inurba_marseille","lat":43.25587,"lon":5.3822,"is_reserved":false,"is_disabled":false,"rental_uris":{"android":"levelo://app?vid=b4455fcf-7427-42ff-a824-b77090d9ccce","ios":"levelo://app?vid=b4455fcf-7427-42ff-a824-b77090d9ccce"},"vehicle_type_id":"4","last_reported":1736792008,"current_range_meters":24400,"station_id":"ce4bhih2rcd13ifvqfs0","pricing_plan_id":"cebpf4jnsgd1na2vs0mg"},{"bike_id":"3fdd54c6-dde5-48d3-8c64-b83d3aa754c6","system_id":"levelo_inurba_marseille","lat":43.29968,"lon":5.38495,"is_reserved":false,"is_disabled":false,"rental_uris":{"android":"levelo://app?vid=3fdd54c6-dde5-48d3-8c64-b83d3aa754c6","ios":"levelo://app?vid=3fdd54c6-dde5-48d3-8c64-b83d3aa754c6"},"vehicle_type_id":"4","last_reported":1736792008,"current_range_meters":25200,"station_id":"ce4bgj92rcd13ifvqbd0","pricing_plan_id":"cebpf4jnsgd1na2vs0mg"},{"bike_id":"739b9309-56f3-4b21-b61d-ade9ae6cc990","system_id":"levelo_inurba_marseille","lat":43.29269,"lon":5.4011,"is_reserved":false,"is_disabled":true,"rental_uris":{"android":"levelo://app?vid=739b9309-56f3-4b21-b61d-ade9ae6cc990","ios":"levelo://app?vid=739b9309-56f3-4b21-b61d-ade9ae6cc990"},"vehicle_type_id":"4","last_reported":1736792008,"current_range_meters":38000,"station_id":"ce4bh312rcd13ifvqdk0","pricing_plan_id":"cebpf4jnsgd1na2vs0mg"},{"bike_id":"f7e8f7f7-721b-47a0-aeb2-457ccd531561","system_id":"levelo_inurba_marseille","lat":43.32366,"lon":5.38884,"is_reserved":false,"is_disabled":false,"rental_uris":{"android":"levelo://app?vid=f7e8f7f7-721b-47a0-aeb2-457ccd531561","ios":"levelo://app?vid=f7e8f7f7-721b-47a0-aeb2-457ccd531561"},"vehicle_type_id":"4","last_reported":1736792008,"current_range_meters":30400,"station_id":"ce4bhqp2rcd13ifvqhog","pricing_plan_id":"cebpf4jnsgd1na2vs0mg"},{"bike_id":"3c3c287f-e835-4040-bdb7-259026d8f5b9","system_id":"levelo_inurba_marseille","lat":43.2903,"lon":5.38127,"is_reserved":false,"is_disabled":true,"rental_uris":{"android":"levelo://app?vid=3c3c287f-e835-4040-bdb7-259026d8f5b9","ios":"levelo://app?vid=3c3c287f-e835-4040-bdb7-259026d8f5b9"},"vehicle_type_id":"4","last_reported":1736792008,"current_range_meters":0,"station_id":"ce4bh4p2rcd13ifvqe1g","pricing_plan_id":"cebpf4jnsgd1na2vs0mg"},{"bike_id":"8a80ca95-439f-46c3-adca-e2e5a559166e","system_id":"levelo_inurba_marseille","lat":43.30884,"lon":5.39662,"is_reserved":false,"is_disabled":false,"rental_uris":{"android":"levelo://app?vid=8a80ca95-439f-46c3-adca-e2e5a559166e","ios":"levelo://app?vid=8a80ca95-439f-46c3-adca-e2e5a559166e"},"vehicle_type_id":"4","last_reported":1736792008,"current_range_meters":16800,"station_id":"ce4bh012rcd13ifvqcv0","pricing_plan_id":"cebpf4jnsgd1na2vs0mg"},{"bike_id":"142221d6-a17e-4ecb-b305-8dcb1ce1ec02","system_id":"levelo_inurba_marseille","lat":43.33026,"lon":5.39038,"is_reserved":false,"is_disabled":false,"rental_uris":{"android":"levelo://app?vid=142221d6-a17e-4ecb-b305-8dcb1ce1ec02","ios":"levelo://app?vid=142221d6-a17e-4ecb-b305-8dcb1ce1ec02"},"vehicle_type_id":"4","last_reported":1736792008,"current_range_meters":9600,"station_id":"ce4bhr92rcd13ifvqhrg","pricing_plan_id":"cebpf4jnsgd1na2vs0mg"},{"bike_id":"9f490960-07dc-47e0-a08b-9e14360727a2","system_id":"levelo_inurba_marseille","lat":43.29527,"lon":5.39047,"is_reserved":false,"is_disabled":true,"rental_uris":{"android":"levelo://app?vid=9f490960-07dc-47e0-a08b-9e14360727a2","ios":"levelo://app?vid=9f490960-07dc-47e0-a08b-9e14360727a2"},"vehicle_type_id":"4","last_reported":1736792008,"current_range_meters":0,"station_id":"ce4bh3p2rcd13ifvqdp0","pricing_plan_id":"cebpf4jnsgd1na2vs0mg"},{"bike_id":"f8e22307-a1e3-42d9-85c8-12a8587fea9b","system_id":"levelo_inurba_marseille","lat":43.31309,"lon":5.39709,"is_reserved":false,"is_disabled":false,"rental_uris":{"android":"levelo://app?vid=f8e22307-a1e3-42d9-85c8-12a8587fea9b","ios":"levelo://app?vid=f8e22307-a1e3-42d9-85c8-12a8587fea9b"},"vehicle_type_id":"4","last_reported":1736792008,"current_range_meters":38400,"station_id":"ce4bgvp2rcd13ifvqcu0","pricing_plan_id":"cebpf4jnsgd1na2vs0mg"},{"bike_id":"41922604-c7b8-4e93-9da5-3903771d7233","system_id":"levelo_inurba_marseille","lat":43.24815,"lon":5.37456,"is_reserved":false,"is_disabled":false,"rental_uris":{"android":"levelo://app?vid=41922604-c7b8-4e93-9da5-3903771d7233","ios":"levelo://app?vid=41922604-c7b8-4e93-9da5-3903771d7233"},"vehicle_type_id":"4","last_reported":1736792008,"current_range_meters":26000,"station_id":"ce4bhgh2rcd13ifvqfb0","pricing_plan_id":"cebpf4jnsgd1na2vs0mg"},{"bike_id":"0e39039a-5963-4f83-b742-0ff7bc329597","system_id":"levelo_inurba_marseille","lat":43.26935,"lon":5.40236,"is_reserved":false,"is_disabled":false,"rental_uris":{"android":"levelo://app?vid=0e39039a-5963-4f83-b742-0ff7bc329597","ios":"levelo://app?vid=0e39039a-5963-4f83-b742-0ff7bc329597"},"vehicle_type_id":"4","last_reported":1736792008,"current_range_meters":14400,"station_id":"cjm6bp8fraef2m0cb0m0","pricing_plan_id":"cebpf4jnsgd1na2vs0mg"},{"bike_id":"b3989067-f48e-48e8-9f72-9d04db4132b9","system_id":"levelo_inurba_marseille","lat":43.30812,"lon":5.38152,"is_reserved":false,"is_disabled":true,"rental_uris":{"android":"levelo://app?vid=b3989067-f48e-48e8-9f72-9d04db4132b9","ios":"levelo://app?vid=b3989067-f48e-48e8-9f72-9d04db4132b9"},"vehicle_type_id":"4","last_reported":1736792008,"current_range_meters":31200,"station_id":"ce4bgt12rcd13ifvqce0","pricing_plan_id":"cebpf4jnsgd1na2vs0mg"},{"bike_id":"b37b24c9-80d3-4c05-b418-111427b4bbad","system_id":"levelo_inurba_marseille","lat":43.29849,"lon":5.36289,"is_reserved":false,"is_disabled":false,"rental_uris":{"android":"levelo://app?vid=b37b24c9-80d3-4c05-b418-111427b4bbad","ios":"levelo://app?vid=b37b24c9-80d3-4c05-b418-111427b4bbad"},"vehicle_type_id":"4","last_reported":1736792008,"current_range_meters":34800,"station_id":"ce4bgpp2rcd13ifvqc3g","pricing_plan_id":"cebpf4jnsgd1na2vs0mg"},{"bike_id":"3f7c276a-baa1-4929-bb02-2de22a2e4d49","system_id":"levelo_inurba_marseille","lat":43.28155,"lon":5.4265,"is_reserved":false,"is_disabled":true,"rental_uris":{"android":"levelo://app?vid=3f7c276a-baa1-4929-bb02-2de22a2e4d49","ios":"levelo://app?vid=3f7c276a-baa1-4929-bb02-2de22a2e4d49"},"vehicle_type_id":"4","last_reported":1736792008,"current_range_meters":1600,"station_id":"ce4bhnh2rcd13ifvqgug","pricing_plan_id":"cebpf4jnsgd1na2vs0mg"},{"bike_id":"de849d82-468f-4c9f-a8d3-e7ba994c7879","system_id":"levelo_inurba_marseille","lat":43.29858,"lon":5.36333,"is_reserved":false,"is_disabled":false,"rental_uris":{"android":"levelo://app?vid=de849d82-468f-4c9f-a8d3-e7ba994c7879","ios":"levelo://app?vid=de849d82-468f-4c9f-a8d3-e7ba994c7879"},"vehicle_type_id":"4","last_reported":1736792008,"current_range_meters":16400,"station_id":"ce4bgpp2rcd13ifvqc3g","pricing_plan_id":"cebpf4jnsgd1na2vs0mg"},{"bike_id":"6e4f728f-3b4d-4668-b57a-72588765c74a","system_id":"levelo_inurba_marseille","lat":43.29039,"lon":5.35901,"is_reserved":false,"is_disabled":false,"rental_uris":{"android":"levelo://app?vid=6e4f728f-3b4d-4668-b57a-72588765c74a","ios":"levelo://app?vid=6e4f728f-3b4d-4668-b57a-72588765c74a"},"vehicle_type_id":"4","last_reported":1736792008,"current_range_meters":6000,"station_id":"ce4bha92rcd13ifvqeg0","pricing_plan_id":"cebpf4jnsgd1na2vs0mg"},{"bike_id":"84e32719-193c-45a2-9246-6d9701a9e495","system_id":"levelo_inurba_marseille","lat":43.298367,"lon":5.363083,"is_reserved":false,"is_disabled":false,"rental_uris":{"android":"levelo://app?vid=84e32719-193c-45a2-9246-6d9701a9e495","ios":"levelo://app?vid=84e32719-193c-45a2-9246-6d9701a9e495"},"vehicle_type_id":"4","last_reported":1736792008,"current_range_meters":34000,"station_id":"ce4bgpp2rcd13ifvqc3g","pricing_plan_id":"cebpf4jnsgd1na2vs0mg"},{"bike_id":"8c7af2f1-12e8-47a0-a6ab-f2eea557c83c","system_id":"levelo_inurba_marseille","lat":43.25073,"lon":5.39512,"is_reserved":false,"is_disabled":false,"rental_uris":{"android":"levelo://app?vid=8c7af2f1-12e8-47a0-a6ab-f2eea557c83c","ios":"levelo://app?vid=8c7af2f1-12e8-47a0-a6ab-f2eea557c83c"},"vehicle_type_id":"4","last_reported":1736792008,"current_range_meters":20800,"station_id":"ce4bhm12rcd13ifvqgkg","pricing_plan_id":"cebpf4jnsgd1na2vs0mg"},{"bike_id":"317217f4-252a-4ff2-8a17-cbcec96dc79e","system_id":"levelo_inurba_marseille","lat":43.24064,"lon":5.37724,"is_reserved":false,"is_disabled":true,"rental_uris":{"android":"levelo://app?vid=317217f4-252a-4ff2-8a17-cbcec96dc79e","ios":"levelo://app?vid=317217f4-252a-4ff2-8a17-cbcec96dc79e"},"vehicle_type_id":"4","last_reported":1736792008,"current_range_meters":36000,"station_id":"ce4bhnp2rcd13ifvqgvg","pricing_plan_id":"cebpf4jnsgd1na2vs0mg"},{"bike_id":"85603f95-286b-4848-8682-ec6ae6094237","system_id":"levelo_inurba_marseille","lat":43.27066,"lon":5.40257,"is_reserved":false,"is_disabled":true,"rental_uris":{"android":"levelo://app?vid=85603f95-286b-4848-8682-ec6ae6094237","ios":"levelo://app?vid=85603f95-286b-4848-8682-ec6ae6094237"},"vehicle_type_id":"4","last_reported":1736792008,"current_range_meters":2800,"station_id":"ce4bhk92rcd13ifvqgc0","pricing_plan_id":"cebpf4jnsgd1na2vs0mg"},{"bike_id":"55178c83-e8c1-42d0-85eb-2ae9bbbd47cf","system_id":"levelo_inurba_marseille","lat":43.23203,"lon":5.35545,"is_reserved":false,"is_disabled":false,"rental_uris":{"android":"levelo://app?vid=55178c83-e8c1-42d0-85eb-2ae9bbbd47cf","ios":"levelo://app?vid=55178c83-e8c1-42d0-85eb-2ae9bbbd47cf"},"vehicle_type_id":"4","last_reported":1736792008,"current_range_meters":37600,"station_id":"ce4bhu92rcd13ifvqi70","pricing_plan_id":"cebpf4jnsgd1na2vs0mg"},{"bike_id":"99113558-81bc-4174-895b-14bf1a5d62a1","system_id":"levelo_inurba_marseille","lat":43.265705,"lon":5.373241,"is_reserved":false,"is_disabled":false,"rental_uris":{"android":"levelo://app?vid=99113558-81bc-4174-895b-14bf1a5d62a1","ios":"levelo://app?vid=99113558-81bc-4174-895b-14bf1a5d62a1"},"vehicle_type_id":"4","last_reported":1736792008,"current_range_meters":35200,"station_id":"ce4bhg12rcd13ifvqf70","pricing_plan_id":"cebpf4jnsgd1na2vs0mg"},{"bike_id":"69c47c65-964f-40bd-929d-41de97277039","system_id":"levelo_inurba_marseille","lat":43.33592,"lon":5.40967,"is_reserved":false,"is_disabled":true,"rental_uris":{"android":"levelo://app?vid=69c47c65-964f-40bd-929d-41de97277039","ios":"levelo://app?vid=69c47c65-964f-40bd-929d-41de97277039"},"vehicle_type_id":"4","last_reported":1736792008,"current_range_meters":3600,"station_id":"","pricing_plan_id":"cebpf4jnsgd1na2vs0mg"},{"bike_id":"34fbdfbb-3fce-4a0e-b0ab-cce98eace863","system_id":"levelo_inurba_marseille","lat":43.2606,"lon":5.39404,"is_reserved":false,"is_disabled":false,"rental_uris":{"android":"levelo://app?vid=34fbdfbb-3fce-4a0e-b0ab-cce98eace863","ios":"levelo://app?vid=34fbdfbb-3fce-4a0e-b0ab-cce98eace863"},"vehicle_type_id":"4","last_reported":1736792008,"current_range_meters":30800,"station_id":"ce4bhh92rcd13ifvqfj0","pricing_plan_id":"cebpf4jnsgd1na2vs0mg"},{"bike_id":"57dd6b17-3ed9-4f38-8106-aa49979719de","system_id":"levelo_inurba_marseille","lat":43.29881,"lon":5.39731,"is_reserved":false,"is_disabled":false,"rental_uris":{"android":"levelo://app?vid=57dd6b17-3ed9-4f38-8106-aa49979719de","ios":"levelo://app?vid=57dd6b17-3ed9-4f38-8106-aa49979719de"},"vehicle_type_id":"4","last_reported":1736792008,"current_range_meters":24000,"station_id":"ce4bh0h2rcd13ifvqd50","pricing_plan_id":"cebpf4jnsgd1na2vs0mg"},{"bike_id":"bdf5677d-4782-4005-960e-45521e40a2e8","system_id":"levelo_inurba_marseille","lat":43.30598,"lon":5.37233,"is_reserved":false,"is_disabled":false,"rental_uris":{"android":"levelo://app?vid=bdf5677d-4782-4005-960e-45521e40a2e8","ios":"levelo://app?vid=bdf5677d-4782-4005-960e-45521e40a2e8"},"vehicle_type_id":"4","last_reported":1736792008,"current_range_meters":23200,"station_id":"","pricing_plan_id":"cebpf4jnsgd1na2vs0mg"},{"bike_id":"ed1f243f-d898-4d38-9939-17a56cf4c1f7","system_id":"levelo_inurba_marseille","lat":43.28949,"lon":5.364,"is_reserved":false,"is_disabled":false,"rental_uris":{"android":"levelo://app?vid=ed1f243f-d898-4d38-9939-17a56cf4c1f7","ios":"levelo://app?vid=ed1f243f-d898-4d38-9939-17a56cf4c1f7"},"vehicle_type_id":"4","last_reported":1736792008,"current_range_meters":38800,"station_id":"ce4bhc92rcd13ifvqetg","pricing_plan_id":"cebpf4jnsgd1na2vs0mg"},{"bike_id":"b2ace0f3-7982-4d8e-92fc-b400e742c978","system_id":"levelo_inurba_marseille","lat":43.3054,"lon":5.38431,"is_reserved":false,"is_disabled":true,"rental_uris":{"android":"levelo://app?vid=b2ace0f3-7982-4d8e-92fc-b400e742c978","ios":"levelo://app?vid=b2ace0f3-7982-4d8e-92fc-b400e742c978"},"vehicle_type_id":"4","last_reported":1736792008,"current_range_meters":33200,"station_id":"ce4bgg92rcd13ifvqb30","pricing_plan_id":"cebpf4jnsgd1na2vs0mg"},{"bike_id":"903b34b3-c4c8-4b0d-819f-f416ab773cdc","system_id":"levelo_inurba_marseille","lat":43.28462,"lon":5.3589,"is_reserved":false,"is_disabled":false,"rental_uris":{"android":"levelo://app?vid=903b34b3-c4c8-4b0d-819f-f416ab773cdc","ios":"levelo://app?vid=903b34b3-c4c8-4b0d-819f-f416ab773cdc"},"vehicle_type_id":"4","last_reported":1736792008,"current_range_meters":30400,"station_id":"ce4bhah2rcd13ifvqei0","pricing_plan_id":"cebpf4jnsgd1na2vs0mg"},{"bike_id":"2ad863f2-d589-4019-9b83-ae87d5126173","system_id":"levelo_inurba_marseille","lat":43.26054,"lon":5.39396,"is_reserved":false,"is_disabled":false,"rental_uris":{"android":"levelo://app?vid=2ad863f2-d589-4019-9b83-ae87d5126173","ios":"levelo://app?vid=2ad863f2-d589-4019-9b83-ae87d5126173"},"vehicle_type_id":"4","last_reported":1736792008,"current_range_meters":22400,"station_id":"ce4bhh92rcd13ifvqfj0","pricing_plan_id":"cebpf4jnsgd1na2vs0mg"},{"bike_id":"86714293-41cd-4f34-8080-26c0aec83c6d","system_id":"levelo_inurba_marseille","lat":43.27906,"lon":5.38013,"is_reserved":false,"is_disabled":false,"rental_uris":{"android":"levelo://app?vid=86714293-41cd-4f34-8080-26c0aec83c6d","ios":"levelo://app?vid=86714293-41cd-4f34-8080-26c0aec83c6d"},"vehicle_type_id":"4","last_reported":1736792008,"current_range_meters":18000,"station_id":"ce4bhf92rcd13ifvqf50","pricing_plan_id":"cebpf4jnsgd1na2vs0mg"},{"bike_id":"aa217473-fbc6-467e-996c-eafd090351ec","system_id":"levelo_inurba_marseille","lat":43.27941,"lon":5.41045,"is_reserved":false,"is_disabled":false,"rental_uris":{"android":"levelo://app?vid=aa217473-fbc6-467e-996c-eafd090351ec","ios":"levelo://app?vid=aa217473-fbc6-467e-996c-eafd090351ec"},"vehicle_type_id":"4","last_reported":1736792008,"current_range_meters":38800,"station_id":"ce4bhnp2rcd13ifvqh0g","pricing_plan_id":"cebpf4jnsgd1na2vs0mg"},{"bike_id":"d803eeab-2762-4c1e-aa0d-48d32e1e9828","system_id":"levelo_inurba_marseille","lat":43.2885,"lon":5.39334,"is_reserved":false,"is_disabled":false,"rental_uris":{"android":"levelo://app?vid=d803eeab-2762-4c1e-aa0d-48d32e1e9828","ios":"levelo://app?vid=d803eeab-2762-4c1e-aa0d-48d32e1e9828"},"vehicle_type_id":"4","last_reported":1736792008,"current_range_meters":28800,"station_id":"ce4bh2p2rcd13ifvqdi0","pricing_plan_id":"cebpf4jnsgd1na2vs0mg"},{"bike_id":"1a1bbce5-7b4d-4365-9610-075b8edac38a","system_id":"levelo_inurba_marseille","lat":43.27629,"lon":5.36112,"is_reserved":false,"is_disabled":false,"rental_uris":{"android":"levelo://app?vid=1a1bbce5-7b4d-4365-9610-075b8edac38a","ios":"levelo://app?vid=1a1bbce5-7b4d-4365-9610-075b8edac38a"},"vehicle_type_id":"4","last_reported":1736792008,"current_range_meters":38800,"station_id":"ce4bgj92rcd13ifvqbe0","pricing_plan_id":"cebpf4jnsgd1na2vs0mg"},{"bike_id":"5522c383-c71c-4d4a-8e2c-ba33b2518353","system_id":"levelo_inurba_marseille","lat":43.2804,"lon":5.36946,"is_reserved":false,"is_disabled":false,"rental_uris":{"android":"levelo://app?vid=5522c383-c71c-4d4a-8e2c-ba33b2518353","ios":"levelo://app?vid=5522c383-c71c-4d4a-8e2c-ba33b2518353"},"vehicle_type_id":"4","last_reported":1736792008,"current_range_meters":36000,"station_id":"ce4bha12rcd13ifvqef0","pricing_plan_id":"cebpf4jnsgd1na2vs0mg"},{"bike_id":"6eaeb5dd-894e-4e25-808d-a4e574cf683c","system_id":"levelo_inurba_marseille","lat":43.25584,"lon":5.3823,"is_reserved":false,"is_disabled":false,"rental_uris":{"android":"levelo://app?vid=6eaeb5dd-894e-4e25-808d-a4e574cf683c","ios":"levelo://app?vid=6eaeb5dd-894e-4e25-808d-a4e574cf683c"},"vehicle_type_id":"4","last_reported":1736792008,"current_range_meters":9600,"station_id":"ce4bhih2rcd13ifvqfs0","pricing_plan_id":"cebpf4jnsgd1na2vs0mg"},{"bike_id":"b7a9a420-00a3-4d99-a8aa-4068befb8c88","system_id":"levelo_inurba_marseille","lat":43.33778,"lon":5.37436,"is_reserved":false,"is_disabled":false,"rental_uris":{"android":"levelo://app?vid=b7a9a420-00a3-4d99-a8aa-4068befb8c88","ios":"levelo://app?vid=b7a9a420-00a3-4d99-a8aa-4068befb8c88"},"vehicle_type_id":"4","last_reported":1736792008,"current_range_meters":32400,"station_id":"","pricing_plan_id":"cebpf4jnsgd1na2vs0mg"},{"bike_id":"f52deac8-9b4f-4c51-83ee-a0d2a2c3526f","system_id":"levelo_inurba_marseille","lat":43.28845,"lon":5.39338,"is_reserved":false,"is_disabled":false,"rental_uris":{"android":"levelo://app?vid=f52deac8-9b4f-4c51-83ee-a0d2a2c3526f","ios":"levelo://app?vid=f52deac8-9b4f-4c51-83ee-a0d2a2c3526f"},"vehicle_type_id":"4","last_reported":1736792008,"current_range_meters":20800,"station_id":"ce4bh2p2rcd13ifvqdi0","pricing_plan_id":"cebpf4jnsgd1na2vs0mg"},{"bike_id":"bb96e73a-fba5-4b28-b356-366b44725583","system_id":"levelo_inurba_marseille","lat":43.28458,"lon":5.35886,"is_reserved":false,"is_disabled":false,"rental_uris":{"android":"levelo://app?vid=bb96e73a-fba5-4b28-b356-366b44725583","ios":"levelo://app?vid=bb96e73a-fba5-4b28-b356-366b44725583"},"vehicle_type_id":"4","last_reported":1736792008,"current_range_meters":18800,"station_id":"ce4bhah2rcd13ifvqei0","pricing_plan_id":"cebpf4jnsgd1na2vs0mg"},{"bike_id":"352fab47-dece-45fa-8cc5-859ba15449cc","system_id":"levelo_inurba_marseille","lat":43.25577,"lon":5.3823,"is_reserved":false,"is_disabled":false,"rental_uris":{"android":"levelo://app?vid=352fab47-dece-45fa-8cc5-859ba15449cc","ios":"levelo://app?vid=352fab47-dece-45fa-8cc5-859ba15449cc"},"vehicle_type_id":"4","last_reported":1736792008,"current_range_meters":23200,"station_id":"ce4bhih2rcd13ifvqfs0","pricing_plan_id":"cebpf4jnsgd1na2vs0mg"},{"bike_id":"58c9204b-aa94-484d-a387-e1e61be2fbaa","system_id":"levelo_inurba_marseille","lat":43.30354,"lon":5.41879,"is_reserved":false,"is_disabled":false,"rental_uris":{"android":"levelo://app?vid=58c9204b-aa94-484d-a387-e1e61be2fbaa","ios":"levelo://app?vid=58c9204b-aa94-484d-a387-e1e61be2fbaa"},"vehicle_type_id":"4","last_reported":1736792008,"current_range_meters":29600,"station_id":"ce4bhop2rcd13ifvqh7g","pricing_plan_id":"cebpf4jnsgd1na2vs0mg"},{"bike_id":"93453819-fa38-495f-b119-63502f8dfb6e","system_id":"levelo_inurba_marseille","lat":43.32354,"lon":5.36753,"is_reserved":false,"is_disabled":false,"rental_uris":{"android":"levelo://app?vid=93453819-fa38-495f-b119-63502f8dfb6e","ios":"levelo://app?vid=93453819-fa38-495f-b119-63502f8dfb6e"},"vehicle_type_id":"4","last_reported":1736792008,"current_range_meters":38800,"station_id":"ce4bhsh2rcd13ifvqi2g","pricing_plan_id":"cebpf4jnsgd1na2vs0mg"},{"bike_id":"192aaa7a-9cdd-45f2-803c-a31a4fff3a53","system_id":"levelo_inurba_marseille","lat":43.28433,"lon":5.39189,"is_reserved":false,"is_disabled":false,"rental_uris":{"android":"levelo://app?vid=192aaa7a-9cdd-45f2-803c-a31a4fff3a53","ios":"levelo://app?vid=192aaa7a-9cdd-45f2-803c-a31a4fff3a53"},"vehicle_type_id":"4","last_reported":1736792008,"current_range_meters":32800,"station_id":"ce4bhoh2rcd13ifvqh5g","pricing_plan_id":"cebpf4jnsgd1na2vs0mg"},{"bike_id":"b31c05a9-6487-4217-80a6-25821a78c060","system_id":"levelo_inurba_marseille","lat":43.23191,"lon":5.35558,"is_reserved":false,"is_disabled":false,"rental_uris":{"android":"levelo://app?vid=b31c05a9-6487-4217-80a6-25821a78c060","ios":"levelo://app?vid=b31c05a9-6487-4217-80a6-25821a78c060"},"vehicle_type_id":"4","last_reported":1736792008,"current_range_meters":33600,"station_id":"ce4bhu92rcd13ifvqi70","pricing_plan_id":"cebpf4jnsgd1na2vs0mg"},{"bike_id":"12b38652-2c32-412b-8bfb-32e93cc5467d","system_id":"levelo_inurba_marseille","lat":43.30436,"lon":5.38892,"is_reserved":false,"is_disabled":false,"rental_uris":{"android":"levelo://app?vid=12b38652-2c32-412b-8bfb-32e93cc5467d","ios":"levelo://app?vid=12b38652-2c32-412b-8bfb-32e93cc5467d"},"vehicle_type_id":"4","last_reported":1736792008,"current_range_meters":16400,"station_id":"ce4bgk12rcd13ifvqbi0","pricing_plan_id":"cebpf4jnsgd1na2vs0mg"},{"bike_id":"4a4d296c-e71a-4d73-8515-0b49a9079d8d","system_id":"levelo_inurba_marseille","lat":43.23182,"lon":5.39978,"is_reserved":false,"is_disabled":false,"rental_uris":{"android":"levelo://app?vid=4a4d296c-e71a-4d73-8515-0b49a9079d8d","ios":"levelo://app?vid=4a4d296c-e71a-4d73-8515-0b49a9079d8d"},"vehicle_type_id":"4","last_reported":1736792008,"current_range_meters":32800,"station_id":"ce4bhn12rcd13ifvqgqg","pricing_plan_id":"cebpf4jnsgd1na2vs0mg"},{"bike_id":"f92eccaa-b498-4971-8e79-c49742bfb4e0","system_id":"levelo_inurba_marseille","lat":43.26199,"lon":5.37929,"is_reserved":false,"is_disabled":false,"rental_uris":{"android":"levelo://app?vid=f92eccaa-b498-4971-8e79-c49742bfb4e0","ios":"levelo://app?vid=f92eccaa-b498-4971-8e79-c49742bfb4e0"},"vehicle_type_id":"4","last_reported":1736792008,"current_range_meters":38800,"station_id":"ce4bhjp2rcd13ifvqg90","pricing_plan_id":"cebpf4jnsgd1na2vs0mg"},{"bike_id":"e6b34210-7978-4137-b534-a3b03a983e63","system_id":"levelo_inurba_marseille","lat":43.29536,"lon":5.3752,"is_reserved":false,"is_disabled":true,"rental_uris":{"android":"levelo://app?vid=e6b34210-7978-4137-b534-a3b03a983e63","ios":"levelo://app?vid=e6b34210-7978-4137-b534-a3b03a983e63"},"vehicle_type_id":"4","last_reported":1736792008,"current_range_meters":35200,"station_id":"ce4bgkp2rcd13ifvqbmg","pricing_plan_id":"cebpf4jnsgd1na2vs0mg"},