{"last_updated":1702307269,"ttl":30,"version":"2.2","data":{"bikes":[{"bike_id":"5d03147e-7d4c-481d-a24c-ae39ca328453","system_id":"levelo_inurba_marseille","lat":43.31341,"lon":5.367098,"is_reserved":false,"is_disabled":false,"rental_uris":{"android":"levelo://app?vid=5d03147e-7d4c-481d-a24c-ae39ca328453","ios":"levelo://app?vid=5d03147e-7d4c-481d-a24c-ae39ca328453"},"vehicle_type_id":"4","last_reported":1702307269,"current_range_meters":28400,"station_id":"ce4bgr92rcd13ifvqc6g","pricing_plan_id":"free"},{"bike_id":"fb5396cd-9819-4c4c-9c29-31a2ef65c667","system_id":"levelo_inurba_marseille","lat":43.312239,"lon":5.368562,"is_reserved":false,"is_disabled":false,"rental_uris":{"android":"levelo://app?vid=fb5396cd-9819-4c4c-9c29-31a2ef65c667","ios":"levelo://app?vid=fb5396cd-9819-4c4c-9c29-31a2ef65c667"},"vehicle_type_id":"4","last_reported":1702307269,"current_range_meters":25200,"station_id":"ce4bgl92rcd13ifvqbq0","pricing_plan_id":"free"},{"bike_id":"8d17a1b8-5a08-4d93-a5da-63c565bae929","system_id":"levelo_inurba_marseille","lat":43.314811,"lon":5.373103,"is_reserved":false,"is_disabled":false,"rental_uris":{"android":"levelo://app?vid=8d17a1b8-5a08-4d93-a5da-63c565bae929","ios":"levelo://app?vid=8d17a1b8-5a08-4d93-a5da-63c565bae929"},"vehicle_type_id":"4","last_reported":1702307269,"current_range_meters":25600,"station_id":"ce4bgt12rcd13ifvqcd0","pricing_plan_id":"free"},{"bike_id":"00bb4702-3dc2-40ab-9c73-bb031afeaed4","system_id":"levelo_inurba_marseille","lat":43.314811,"lon":5.373103,"is_reserved":false,"is_disabled":false,"rental_uris":{"android":"levelo://app?vid=00bb4702-3dc2-40ab-9c73-bb031afeaed4","ios":"levelo://app?vid=00bb4702-3dc2-40ab-9c73-bb031afeaed4"},"vehicle_type_id":"4","last_reported":1702307269,"current_range_meters":27200,"station_id":"ce4bgt12rcd13ifvqcd0","pricing_plan_id":"free"},{"bike_id":"e02cfafe-bd1f-4ce5-bfad-44a325c75889","system_id":"levelo_inurba_marseille","lat":43.314811,"lon":5.373103,"is_reserved":false,"is_disabled":false,"rental_uris":{"android":"levelo://app?vid=e02cfafe-bd1f-4ce5-bfad-44a325c75889","ios":"levelo://app?vid=e02cfafe-bd1f-4ce5-bfad-44a325c75889"},"vehicle_type_id":"4","last_reported":1702307269,"current_range_meters":26800,"station_id":"ce4bgt12rcd13ifvqcd0","pricing_plan_id":"free"},{"bike_id":"5ee83564-24d9-4dda-8e4a-6e093a4ce644","system_id":"levelo_inurba_marseille","lat":43.305368,"lon":5.367343,"is_reserved":false,"is_disabled":false,"rental_uris":{"android":"levelo://app?vid=5ee83564-24d9-4dda-8e4a-6e093a4ce644","ios":"levelo://app?vid=5ee83564-24d9-4dda-8e4a-6e093a4ce644"},"vehicle_type_id":"4","last_reported":1702307269,"current_range_meters":20400,"station_id":"ce4bgrp2rcd13ifvqc9g","pricing_plan_id":"free"},{"bike_id":"78c1b810-00c8-4e03-83e8-ba3483679924","system_id":"levelo_inurba_marseille","lat":43.311131,"lon":5.377651,"is_reserved":false,"is_disabled":false,"rental_uris":{"android":"levelo://app?vid=78c1b810-00c8-4e03-83e8-ba3483679924","ios":"levelo://app?vid=78c1b810-00c8-4e03-83e8-ba3483679924"},"vehicle_type_id":"4","last_reported":1702307269,"current_range_meters":8400,"station_id":"ce4bgt92rcd13ifvqcg0","pricing_plan_id":"free"},{"bike_id":"e9627390-7690-4fa6-86d0-ff8597dd3cc8","system_id":"levelo_inurba_marseille","lat":43.3153,"lon":5.38039,"is_reserved":false,"is_disabled":false,"rental_uris":{"android":"levelo://app?vid=e9627390-7690-4fa6-86d0-ff8597dd3cc8","ios":"levelo://app?vid=e9627390-7690-4fa6-86d0-ff8597dd3cc8"},"vehicle_type_id":"4","last_reported":1702307269,"current_range_meters":22400,"station_id":"ce4bhsp2rcd13ifvqi50","pricing_plan_id":"free"},{"bike_id":"0df358b2-a461-4a59-b299-6fd3eadddf20","system_id":"levelo_inurba_marseille","lat":43.31026,"lon":5.38152,"is_reserved":false,"is_disabled":false,"rental_uris":{"android":"levelo://app?vid=0df358b2-a461-4a59-b299-6fd3eadddf20","ios":"levelo://app?vid=0df358b2-a461-4a59-b299-6fd3eadddf20"},"vehicle_type_id":"4","last_reported":1702307269,"current_range_meters":22000,"station_id":"","pricing_plan_id":"free"},{"bike_id":"1703462a-2520-4e5b-afcb-f43c5ea2e7fc","system_id":"levelo_inurba_marseille","lat":43.301939,"lon":5.366286,"is_reserved":false,"is_disabled":false,"rental_uris":{"android":"levelo://app?vid=1703462a-2520-4e5b-afcb-f43c5ea2e7fc","ios":"levelo://app?vid=1703462a-2520-4e5b-afcb-f43c5ea2e7fc"},"vehicle_type_id":"4","last_reported":1702307269,"current_range_meters":14000,"station_id":"ce4bgrh2rcd13ifvqc8g","pricing_plan_id":"free"},{"bike_id":"6c92c8ee-485c-4f21-bec6-7b65a3840744","system_id":"levelo_inurba_marseille","lat":43.308012,"lon":5.381511,"is_reserved":false,"is_disabled":false,"rental_uris":{"android":"levelo://app?vid=6c92c8ee-485c-4f21-bec6-7b65a3840744","ios":"levelo://app?vid=6c92c8ee-485c-4f21-bec6-7b65a3840744"},"vehicle_type_id":"4","last_reported":1702307269,"current_range_meters":0,"station_id":"ce4bgt12rcd13ifvqce0","pricing_plan_id":"free"},{"bike_id":"3ae3ba52-2a41-490a-91fd-44782841c016","system_id":"levelo_inurba_marseille","lat":43.304606,"lon":5.379026,"is_reserved":false,"is_disabled":false,"rental_uris":{"android":"levelo://app?vid=3ae3ba52-2a41-490a-91fd-44782841c016","ios":"levelo://app?vid=3ae3ba52-2a41-490a-91fd-44782841c016"},"vehicle_type_id":"4","last_reported":1702307269,"current_range_meters":7600,"station_id":"ce4bgup2rcd13ifvqcn0","pricing_plan_id":"free"},{"bike_id":"2f17cf31-e336-4c35-b078-20182f414532","system_id":"levelo_inurba_marseille","lat":43.301429,"lon":5.37413,"is_reserved":false,"is_disabled":false,"rental_uris":{"android":"levelo://app?vid=2f17cf31-e336-4c35-b078-20182f414532","ios":"levelo://app?vid=2f17cf31-e336-4c35-b078-20182f414532"},"vehicle_type_id":"4","last_reported":1702307269,"current_range_meters":10000,"station_id":"ce4bgs92rcd13ifvqcc0","pricing_plan_id":"free"},{"bike_id":"d507dc20-f3f0-485a-b520-e5ecd0effbe5","system_id":"levelo_inurba_marseille","lat":43.31997,"lon":5.38151,"is_reserved":false,"is_disabled":false,"rental_uris":{"android":"levelo://app?vid=d507dc20-f3f0-485a-b520-e5ecd0effbe5","ios":"levelo://app?vid=d507dc20-f3f0-485a-b520-e5ecd0effbe5"},"vehicle_type_id":"4","last_reported":1702307269,"current_range_meters":18400,"station_id":"ce4bhr12rcd13ifvqhpg","pricing_plan_id":"free"},{"bike_id":"2b7f7a37-391a-4eb2-b1a1-ddc45a522eff","system_id":"levelo_inurba_marseille","lat":43.32001,"lon":5.38152,"is_reserved":false,"is_disabled":false,"rental_uris":{"android":"levelo://app?vid=2b7f7a37-391a-4eb2-b1a1-ddc45a522eff","ios":"levelo://app?vid=2b7f7a37-391a-4eb2-b1a1-ddc45a522eff"},"vehicle_type_id":"4","last_reported":1702307269,"current_range_meters":26800,"station_id":"ce4bhr12rcd13ifvqhpg","pricing_plan_id":"free"},{"bike_id":"f5dc87db-1627-40f9-8d4d-6dfa629a504a","system_id":"levelo_inurba_marseille","lat":43.31356,"lon":5.38493,"is_reserved":false,"is_disabled":false,"rental_uris":{"android":"levelo://app?vid=f5dc87db-1627-40f9-8d4d-6dfa629a504a","ios":"levelo://app?vid=f5dc87db-1627-40f9-8d4d-6dfa629a504a"},"vehicle_type_id":"4","last_reported":1702307269,"current_range_meters":16000,"station_id":"ce4bgt92rcd13ifvqcf0","pricing_plan_id":"free"},{"bike_id":"a77e5133-3881-483c-9e46-d5fa945c7790","system_id":"levelo_inurba_marseille","lat":43.305364,"lon":5.384119,"is_reserved":false,"is_disabled":false,"rental_uris":{"android":"levelo://app?vid=a77e5133-3881-483c-9e46-d5fa945c7790","ios":"levelo://app?vid=a77e5133-3881-483c-9e46-d5fa945c7790"},"vehicle_type_id":"4","last_reported":1702307269,"current_range_meters":29600,"station_id":"ce4bgg92rcd13ifvqb30","pricing_plan_id":"free"},{"bike_id":"6a390d62-1b81-4621-9a60-3bf073b1d7e1","system_id":"levelo_inurba_marseille","lat":43.298433,"lon":5.362774,"is_reserved":false,"is_disabled":false,"rental_uris":{"android":"levelo://app?vid=6a390d62-1b81-4621-9a60-3bf073b1d7e1","ios":"levelo://app?vid=6a390d62-1b81-4621-9a60-3bf073b1d7e1"},"vehicle_type_id":"4","last_reported":1702307269,"current_range_meters":2000,"station_id":"ce4bgpp2rcd13ifvqc3g","pricing_plan_id":"free"},{"bike_id":"d54a2143-a82b-4748-ab1e-c149880605c0","system_id":"levelo_inurba_marseille","lat":43.311722,"lon":5.387247,"is_reserved":false,"is_disabled":false,"rental_uris":{"android":"levelo://app?vid=d54a2143-a82b-4748-ab1e-c149880605c0","ios":"levelo://app?vid=d54a2143-a82b-4748-ab1e-c149880605c0"},"vehicle_type_id":"4","last_reported":1702307269,"current_range_meters":26800,"station_id":"ce4bgv12rcd13ifvqcp0","pricing_plan_id":"free"},{"bike_id":"26ae7f69-3c84-486d-a85f-24a0bc0f33a5","system_id":"levelo_inurba_marseille","lat":43.29834,"lon":5.36268,"is_reserved":false,"is_disabled":false,"rental_uris":{"android":"levelo://app?vid=26ae7f69-3c84-486d-a85f-24a0bc0f33a5","ios":"levelo://app?vid=26ae7f69-3c84-486d-a85f-24a0bc0f33a5"},"vehicle_type_id":"4","last_reported":1702307269,"current_range_meters":14400,"station_id":"ce4bgpp2rcd13ifvqc3g","pricing_plan_id":"free"},{"bike_id":"c9040e46-e66d-43c9-ba77-af96ee009958","system_id":"levelo_inurba_marseille","lat":43.311722,"lon":5.387247,"is_reserved":false,"is_disabled":false,"rental_uris":{"android":"levelo://app?vid=c9040e46-e66d-43c9-ba77-af96ee009958","ios":"levelo://app?vid=c9040e46-e66d-43c9-ba77-af96ee009958"},"vehicle_type_id":"4","last_reported":1702307269,"current_range_meters":11600,"station_id":"ce4bgv12rcd13ifvqcp0","pricing_plan_id":"free"},{"bike_id":"fccae7ba-c2e2-47a9-9b8f-d5fbe03bb8c4","system_id":"levelo_inurba_marseille","lat":43.297774,"lon":5.370875,"is_reserved":false,"is_disabled":false,"rental_uris":{"android":"levelo://app?vid=fccae7ba-c2e2-47a9-9b8f-d5fbe03bb8c4","ios":"levelo://app?vid=fccae7ba-c2e2-47a9-9b8f-d5fbe03bb8c4"},"vehicle_type_id":"4","last_reported":1702307269,"current_range_meters":22800,"station_id":"ce4bgop2rcd13ifvqc1g","pricing_plan_id":"free"},{"bike_id":"17f2e187-e945-495a-9aa2-927770bf1f39","system_id":"levelo_inurba_marseille","lat":43.297774,"lon":5.370875,"is_reserved":false,"is_disabled":false,"rental_uris":{"android":"levelo://app?vid=17f2e187-e945-495a-9aa2-927770bf1f39","ios":"levelo://app?vid=17f2e187-e945-495a-9aa2-927770bf1f39"},"vehicle_type_id":"4","last_reported":1702307269,"current_range_meters":28400,"station_id":"ce4bgop2rcd13ifvqc1g","pricing_plan_id":"free"},{"bike_id":"09661d30-026d-4f34-bf22-f6bfc115aa0b","system_id":"levelo_inurba_marseille","lat":43.328371,"lon":5.366909,"is_reserved":false,"is_disabled":false,"rental_uris":{"android":"levelo://app?vid=09661d30-026d-4f34-bf22-f6bfc115aa0b","ios":"levelo://app?vid=09661d30-026d-4f34-bf22-f6bfc115aa0b"},"vehicle_type_id":"4","last_reported":1702307269,"current_range_meters":14000,"station_id":"ce4bhs92rcd13ifvqi0g","pricing_plan_id":"free"},{"bike_id":"52d8b7ba-7505-413c-b898-efb75f14c13c","system_id":"levelo_inurba_marseille","lat":43.328371,"lon":5.366909,"is_reserved":false,"is_disabled":false,"rental_uris":{"android":"levelo://app?vid=52d8b7ba-7505-413c-b898-efb75f14c13c","ios":"levelo://app?vid=52d8b7ba-7505-413c-b898-efb75f14c13c"},"vehicle_type_id":"4","last_reported":1702307269,"current_range_meters":17200,"station_id":"ce4bhs92rcd13ifvqi0g","pricing_plan_id":"free"},{"bike_id":"e445088b-ea85-4a39-915c-fe076c5e8f64","system_id":"levelo_inurba_marseille","lat":43.328302,"lon":5.366754,"is_reserved":false,"is_disabled":false,"rental_uris":{"android":"levelo://app?vid=e445088b-ea85-4a39-915c-fe076c5e8f64","ios":"levelo://app?vid=e445088b-ea85-4a39-915c-fe076c5e8f64"},"vehicle_type_id":"4","last_reported":1702307269,"current_range_meters":0,"station_id":"ce4bhs92rcd13ifvqi0g","pricing_plan_id":"free"},{"bike_id":"9b0409c8-952e-43cd-8929-2c98668b8e00","system_id":"levelo_inurba_marseille","lat":43.32833,"lon":5.36676,"is_reserved":false,"is_disabled":false,"rental_uris":{"android":"levelo://app?vid=9b0409c8-952e-43cd-8929-2c98668b8e00","ios":"levelo://app?vid=9b0409c8-952e-43cd-8929-2c98668b8e00"},"vehicle_type_id":"4","last_reported":1702307269,"current_range_meters":14000,"station_id":"ce4bhs92rcd13ifvqi0g","pricing_plan_id":"free"},{"bike_id":"a5589e38-f15a-46fe-9b37-27cf16ba9de2","system_id":"levelo_inurba_marseille","lat":43.328333,"lon":5.366703,"is_reserved":false,"is_disabled":false,"rental_uris":{"android":"levelo://app?vid=a5589e38-f15a-46fe-9b37-27cf16ba9de2","ios":"levelo://app?vid=a5589e38-f15a-46fe-9b37-27cf16ba9de2"},"vehicle_type_id":"4","last_reported":1702307269,"current_range_meters":19200,"station_id":"ce4bhs92rcd13ifvqi0g","pricing_plan_id":"free"},{"bike_id":"61a9d821-211d-4cd3-b66f-6a9b3fadd2d2","system_id":"levelo_inurba_marseille","lat":43.328371,"lon":5.366909,"is_reserved":false,"is_disabled":false,"rental_uris":{"android":"levelo://app?vid=61a9d821-211d-4cd3-b66f-6a9b3fadd2d2","ios":"levelo://app?vid=61a9d821-211d-4cd3-b66f-6a9b3fadd2d2"},"vehicle_type_id":"4","last_reported":1702307269,"current_range_meters":22800,"station_id":"ce4bhs92rcd13ifvqi0g","pricing_plan_id":"free"},{"bike_id":"14261d45-0b76-4a80-aafb-7721fdbab8f4","system_id":"levelo_inurba_marseille","lat":43.297163,"lon":5.365866,"is_reserved":false,"is_disabled":false,"rental_uris":{"android":"levelo://app?vid=14261d45-0b76-4a80-aafb-7721fdbab8f4","ios":"levelo://app?vid=14261d45-0b76-4a80-aafb-7721fdbab8f4"},"vehicle_type_id":"4","last_reported":1702307269,"current_range_meters":20800,"station_id":"ce4bgn12rcd13ifvqbt0","pricing_plan_id":"free"},{"bike_id":"c99eae06-795d-48ea-ae7e-fdf23aea7707","system_id":"levelo_inurba_marseille","lat":43.296935,"lon":5.376544,"is_reserved":false,"is_disabled":false,"rental_uris":{"android":"levelo://app?vid=c99eae06-795d-48ea-ae7e-fdf23aea7707","ios":"levelo://app?vid=c99eae06-795d-48ea-ae7e-fdf23aea7707"},"vehicle_type_id":"4","last_reported":1702307269,"current_range_meters":22000,"station_id":"ce4bgkh2rcd13ifvqbl0","pricing_plan_id":"free"},{"bike_id":"f0ecdaab-62f5-4ccb-bb65-88afaf317df8","system_id":"levelo_inurba_marseille","lat":43.317557,"lon":5.390173,"is_reserved":false,"is_disabled":false,"rental_uris":{"android":"levelo://app?vid=f0ecdaab-62f5-4ccb-bb65-88afaf317df8","ios":"levelo://app?vid=f0ecdaab-62f5-4ccb-bb65-88afaf317df8"},"vehicle_type_id":"4","last_reported":1702307269,"current_range_meters":29200,"station_id":"ce4bhqp2rcd13ifvqhng","pricing_plan_id":"free"},{"bike_id":"c71a1815-d525-4d62-842b-08a9c156195b","system_id":"levelo_inurba_marseille","lat":43.317557,"lon":5.390173,"is_reserved":false,"is_disabled":false,"rental_uris":{"android":"levelo://app?vid=c71a1815-d525-4d62-842b-08a9c156195b","ios":"levelo://app?vid=c71a1815-d525-4d62-842b-08a9c156195b"},"vehicle_type_id":"4","last_reported":1702307269,"current_range_meters":16800,"station_id":"ce4bhqp2rcd13ifvqhng","pricing_plan_id":"free"},{"bike_id":"545a3c27-1bcd-49b2-8217-140bd126225a","system_id":"levelo_inurba_marseille","lat":43.317557,"lon":5.390173,"is_reserved":false,"is_disabled":false,"rental_uris":{"android":"levelo://app?vid=545a3c27-1bcd-49b2-8217-140bd126225a","ios":"levelo://app?vid=545a3c27-1bcd-49b2-8217-140bd126225a"},"vehicle_type_id":"4","last_reported":1702307269,"current_range_meters":30800,"station_id":"ce4bhqp2rcd13ifvqhng","pricing_plan_id":"free"},{"bike_id":"ce72843a-d388-4e7d-9ece-1bc4cb03f904","system_id":"levelo_inurba_marseille","lat":43.296263,"lon":5.377094,"is_reserved":false,"is_disabled":false,"rental_uris":{"android":"levelo://app?vid=ce72843a-d388-4e7d-9ece-1bc4cb03f904","ios":"levelo://app?vid=ce72843a-d388-4e7d-9ece-1bc4cb03f904"},"vehicle_type_id":"4","last_reported":1702307269,"current_range_meters":20000,"station_id":"ce4bgi92rcd13ifvqb90","pricing_plan_id":"free"},{"bike_id":"77a6c46d-d898-4e4f-8846-efa91689c7f0","system_id":"levelo_inurba_marseille","lat":43.295508,"lon":5.379301,"is_reserved":false,"is_disabled":false,"rental_uris":{"android":"levelo://app?vid=77a6c46d-d898-4e4f-8846-efa91689c7f0","ios":"levelo://app?vid=77a6c46d-d898-4e4f-8846-efa91689c7f0"},"vehicle_type_id":"4","last_reported":1702307269,"current_range_meters":0,"station_id":"","pricing_plan_id":"free"},{"bike_id":"7ab543e8-41d2-4f10-a292-a0f6ed17e942","system_id":"levelo_inurba_marseille","lat":43.29601,"lon":5.381084,"is_reserved":false,"is_disabled":false,"rental_uris":{"android":"levelo://app?vid=7ab543e8-41d2-4f10-a292-a0f6ed17e942","ios":"levelo://app?vid=7ab543e8-41d2-4f10-a292-a0f6ed17e942"},"vehicle_type_id":"4","last_reported":1702307269,"current_range_meters":8400,"station_id":"ce4bgl12rcd13ifvqbo0","pricing_plan_id":"free"},{"bike_id":"46f2cb71-19c7-403a-ba22-b277cd4cce42","system_id":"levelo_inurba_marseille","lat":43.293009,"lon":5.374584,"is_reserved":false,"is_disabled":false,"rental_uris":{"android":"levelo://app?vid=46f2cb71-19c7-403a-ba22-b277cd4cce42","ios":"levelo://app?vid=46f2cb71-19c7-403a-ba22-b277cd4cce42"},"vehicle_type_id":"4","last_reported":1702307269,"current_range_meters":12000,"station_id":"ce4bgi12rcd13ifvqb70","pricing_plan_id":"free"},{"bike_id":"9e620577-0d07-4626-95b5-d903c325e74d","system_id":"levelo_inurba_marseille","lat":43.293009,"lon":5.374584,"is_reserved":false,"is_disabled":false,"rental_uris":{"android":"levelo://app?vid=9e620577-0d07-4626-95b5-d903c325e74d","ios":"levelo://app?vid=9e620577-0d07-4626-95b5-d903c325e74d"},"vehicle_type_id":"4","last_reported":1702307269,"current_range_meters":3600,"station_id":"ce4bgi12rcd13ifvqb70","pricing_plan_id":"free"},{"bike_id":"c477e66f-5e03-43f5-813d-ab37d296ee6b","system_id":"levelo_inurba_marseille","lat":43.292311,"lon":5.360731,"is_reserved":false,"is_disabled":false,"rental_uris":{"android":"levelo://app?vid=c477e66f-5e03-43f5-813d-ab37d296ee6b","ios":"levelo://app?vid=c477e66f-5e03-43f5-813d-ab37d296ee6b"},"vehicle_type_id":"4","last_reported":1702307269,"current_range_meters":22400,"station_id":"ce4bhbh2rcd13ifvqeqg","pricing_plan_id":"free"},{"bike_id":"5f187986-2d7b-46dc-a44d-cae8bca5b2ea","system_id":"levelo_inurba_marseille","lat":43.300852,"lon":5.390859,"is_reserved":false,"is_disabled":false,"rental_uris":{"android":"levelo://app?vid=5f187986-2d7b-46dc-a44d-cae8bca5b2ea","ios":"levelo://app?vid=5f187986-2d7b-46dc-a44d-cae8bca5b2ea"},"vehicle_type_id":"4","last_reported":1702307269,"current_range_meters":10800,"station_id":"ce4bh192rcd13ifvqdb0","pricing_plan_id":"free"},{"bike_id":"31f0218b-b34b-4972-94f9-440ede4eff75","system_id":"levelo_inurba_marseille","lat":43.313291,"lon":5.396838,"is_reserved":false,"is_disabled":false,"rental_uris":{"android":"levelo://app?vid=31f0218b-b34b-4972-94f9-440ede4eff75","ios":"levelo://app?vid=31f0218b-b34b-4972-94f9-440ede4eff75"},"vehicle_type_id":"4","last_reported":1702307269,"current_range_meters":11200,"station_id":"ce4bgvp2rcd13ifvqcu0","pricing_plan_id":"free"},{"bike_id":"d6a8a4d8-a33b-4ddc-8745-0d71519ee859","system_id":"levelo_inurba_marseille","lat":43.313291,"lon":5.396838,"is_reserved":false,"is_disabled":false,"rental_uris":{"android":"levelo://app?vid=d6a8a4d8-a33b-4ddc-8745-0d71519ee859","ios":"levelo://app?vid=d6a8a4d8-a33b-4ddc-8745-0d71519ee859"},"vehicle_type_id":"4","last_reported":1702307269,"current_range_meters":31200,"station_id":"ce4bgvp2rcd13ifvqcu0","pricing_plan_id":"free"},{"bike_id":"722cd5fa-82c4-4999-a087-d7c77417ddb5","system_id":"levelo_inurba_marseille","lat":43.313291,"lon":5.396838,"is_reserved":false,"is_disabled":false,"rental_uris":{"android":"levelo://app?vid=722cd5fa-82c4-4999-a087-d7c77417ddb5","ios":"levelo://app?vid=722cd5fa-82c4-4999-a087-d7c77417ddb5"},"vehicle_type_id":"4","last_reported":1702307269,"current_range_meters":22400,"station_id":"ce4bgvp2rcd13ifvqcu0","pricing_plan_id":"free"},{"bike_id":"8dfd45a0-a638-4d71-aa61-0c7981ad80e9","system_id":"levelo_inurba_marseille","lat":43.313291,"lon":5.396838,"is_reserved":false,"is_disabled":false,"rental_uris":{"android":"levelo://app?vid=8dfd45a0-a638-4d71-aa61-0c7981ad80e9","ios":"levelo://app?vid=8dfd45a0-a638-4d71-aa61-0c7981ad80e9"},"vehicle_type_id":"4","last_reported":1702307269,"current_range_meters":22000,"station_id":"ce4bgvp2rcd13ifvqcu0","pricing_plan_id":"free"},{"bike_id":"a0dc6a96-91d5-4d77-81c4-c67dfe6bc91d","system_id":"levelo_inurba_marseille","lat":43.29529,"lon":5.385581,"is_reserved":false,"is_disabled":false,"rental_uris":{"android":"levelo://app?vid=a0dc6a96-91d5-4d77-81c4-c67dfe6bc91d","ios":"levelo://app?vid=a0dc6a96-91d5-4d77-81c4-c67dfe6bc91d"},"vehicle_type_id":"4","last_reported":1702307269,"current_range_meters":28000,"station_id":"ce4bgih2rcd13ifvqba0","pricing_plan_id":"free"},{"bike_id":"4eeb0d0e-494a-4450-8dfc-46a224db9492","system_id":"levelo_inurba_marseille","lat":43.294162,"lon":5.386292,"is_reserved":false,"is_disabled":false,"rental_uris":{"android":"levelo://app?vid=4eeb0d0e-494a-4450-8dfc-46a224db9492","ios":"levelo://app?vid=4eeb0d0e-494a-4450-8dfc-46a224db9492"},"vehicle_type_id":"4","last_reported":1702307269,"current_range_meters":13600,"station_id":"ce4bh2h2rcd13ifvqdh0","pricing_plan_id":"free"},{"bike_id":"60cc76a8-6281-46ae-b2d1-f32bcd3b221f","system_id":"levelo_inurba_marseille","lat":43.294153,"lon":5.386305,"is_reserved":false,"is_disabled":false,"rental_uris":{"android":"levelo://app?vid=60cc76a8-6281-46ae-b2d1-f32bcd3b221f","ios":"levelo://app?vid=60cc76a8-6281-46ae-b2d1-f32bcd3b221f"},"vehicle_type_id":"4","last_reported":1702307269,"current_range_meters":4400,"station_id":"ce4bh2h2rcd13ifvqdh0","pricing_plan_id":"free"},{"bike_id":"abe1ff1b-7008-4a1d-b3e0-f21c2b2b33a5","system_id":"levelo_inurba_marseille","lat":43.289184,"lon":5.366408,"is_reserved":false,"is_disabled":false,"rental_uris":{"android":"levelo://app?vid=abe1ff1b-7008-4a1d-b3e0-f21c2b2b33a5","ios":"levelo://app?vid=abe1ff1b-7008-4a1d-b3e0-f21c2b2b33a5"},"vehicle_type_id":"4","last_reported":1702307269,"current_range_meters":13600,"station_id":"ce4bhap2rcd13ifvqek0","pricing_plan_id":"free"},{"bike_id":"0847a80c-5786-4363-be38-0f22003688ed","system_id":"levelo_inurba_marseille","lat":43.2894,"lon":5.36408,"is_reserved":false,"is_disabled":false,"rental_uris":{"android":"levelo://app?vid=0847a80c-5786-4363-be38-0f22003688ed","ios":"levelo://app?vid=0847a80c-5786-4363-be38-0f22003688ed"},"vehicle_type_id":"4","last_reported":1702307269,"current_range_meters":20000,"station_id":"ce4bhc92rcd13ifvqetg","pricing_plan_id":"free"},{"bike_id":"46f1ae88-a6c0-492e-8b92-1f9cbe42caaa","system_id":"levelo_inurba_marseille","lat":43.290103,"lon":5.356114,"is_reserved":false,"is_disabled":false,"rental_uris":{"android":"levelo://app?vid=46f1ae88-a6c0-492e-8b92-1f9cbe42caaa","ios":"levelo://app?vid=46f1ae88-a6c0-492e-8b92-1f9cbe42caaa"},"vehicle_type_id":"4","last_reported":1702307269,"current_range_meters":20400,"station_id":"ce4bhb92rcd13ifvqen0","pricing_plan_id":"free"},{"bike_id":"b9d62bda-3b72-45a1-acd1-b73b3e3948de","system_id":"levelo_inurba_marseille","lat":43.290094,"lon":5.381264,"is_reserved":false,"is_disabled":false,"rental_uris":{"android":"levelo://app?vid=b9d62bda-3b72-45a1-acd1-b73b3e3948de","ios":"levelo://app?vid=b9d62bda-3b72-45a1-acd1-b73b3e3948de"},"vehicle_type_id":"4","last_reported":1702307269,"current_range_meters":22400,"station_id":"ce4bh4p2rcd13ifvqe1g","pricing_plan_id":"free"},{"bike_id":"1ffa6cab-2192-4490-9617-61044011c6b1","system_id":"levelo_inurba_marseille","lat":43.3375,"lon":5.37453,"is_reserved":false,"is_disabled":false,"rental_uris":{"android":"levelo://app?vid=1ffa6cab-2192-4490-9617-61044011c6b1","ios":"levelo://app?vid=1ffa6cab-2192-4490-9617-61044011c6b1"},"vehicle_type_id":"4","last_reported":1702307269,"current_range_meters":20800,"station_id":"","pricing_plan_id":"free"},{"bike_id":"a8faa467-7308-442b-b3e4-4455156007a4","system_id":"levelo_inurba_marseille","lat":43.30642,"lon":5.401031,"is_reserved":false,"is_disabled":false,"rental_uris":{"android":"levelo://app?vid=a8faa467-7308-442b-b3e4-4455156007a4","ios":"levelo://app?vid=a8faa467-7308-442b-b3e4-4455156007a4"},"vehicle_type_id":"4","last_reported":1702307269,"current_range_meters":25200,"station_id":"ce4bh112rcd13ifvqda0","pricing_plan_id":"free"},{"bike_id":"357c0342-4746-4875-8863-f1f19ff2fa1a","system_id":"levelo_inurba_marseille","lat":43.33768,"lon":5.37466,"is_reserved":false,"is_disabled":false,"rental_uris":{"android":"levelo://app?vid=357c0342-4746-4875-8863-f1f19ff2fa1a","ios":"levelo://app?vid=357c0342-4746-4875-8863-f1f19ff2fa1a"},"vehicle_type_id":"4","last_reported":1702307269,"current_range_meters":28400,"station_id":"","pricing_plan_id":"free"},{"bike_id":"b8ca48ca-7a69-49f0-98e9-fe1dcceb6e32","system_id":"levelo_inurba_marseille","lat":43.301117,"lon":5.398795,"is_reserved":false,"is_disabled":false,"rental_uris":{"android":"levelo://app?vid=b8ca48ca-7a69-49f0-98e9-fe1dcceb6e32","ios":"levelo://app?vid=b8ca48ca-7a69-49f0-98e9-fe1dcceb6e32"},"vehicle_type_id":"4","last_reported":1702307269,"current_range_meters":2000,"station_id":"ce4bh0h2rcd13ifvqd40","pricing_plan_id":"free"},{"bike_id":"efd087f9-c9f7-4cb3-ad98-6e6cb35f20d2","system_id":"levelo_inurba_marseille","lat":43.306412,"lon":5.401035,"is_reserved":false,"is_disabled":false,"rental_uris":{"android":"levelo://app?vid=efd087f9-c9f7-4cb3-ad98-6e6cb35f20d2","ios":"levelo://app?vid=efd087f9-c9f7-4cb3-ad98-6e6cb35f20d2"},"vehicle_type_id":"4","last_reported":1702307269,"current_range_meters":17200,"station_id":"ce4bh112rcd13ifvqda0","pricing_plan_id":"free"},{"bike_id":"329c02f9-5a38-44bb-899c-97e0d1e94ec5","system_id":"levelo_inurba_marseille","lat":43.301117,"lon":5.398795,"is_reserved":false,"is_disabled":false,"rental_uris":{"android":"levelo://app?vid=329c02f9-5a38-44bb-899c-97e0d1e94ec5","ios":"levelo://app?vid=329c02f9-5a38-44bb-899c-97e0d1e94ec5"},"vehicle_type_id":"4","last_reported":1702307269,"current_range_meters":28400,"station_id":"ce4bh0h2rcd13ifvqd40","pricing_plan_id":"free"},{"bike_id":"db090986-f6b2-4187-8f4f-82ce5bbae5dc","system_id":"levelo_inurba_marseille","lat":43.301117,"lon":5.398795,"is_reserved":false,"is_disabled":false,"rental_uris":{"android":"levelo://app?vid=db090986-f6b2-4187-8f4f-82ce5bbae5dc","ios":"levelo://app?vid=db090986-f6b2-4187-8f4f-82ce5bbae5dc"},"vehicle_type_id":"4","last_reported":1702307269,"current_range_meters":12000,"station_id":"ce4bh0h2rcd13ifvqd40","pricing_plan_id":"free"},{"bike_id":"3f9429ce-0e2f-4adf-9908-c8a7985761c7","system_id":"levelo_inurba_marseille","lat":43.28727,"lon":5.36078,"is_reserved":false,"is_disabled":false,"rental_uris":{"android":"levelo://app?vid=3f9429ce-0e2f-4adf-9908-c8a7985761c7","ios":"levelo://app?vid=3f9429ce-0e2f-4adf-9908-c8a7985761c7"},"vehicle_type_id":"4","last_reported":1702307269,"current_range_meters":4800,"station_id":"cki0cbj6b192h4jlfktg","pricing_plan_id":"free"},{"bike_id":"b329e36a-730b-4742-bd80-1e703395f74e","system_id":"levelo_inurba_marseille","lat":43.28727,"lon":5.36078,"is_reserved":false,"is_disabled":false,"rental_uris":{"android":"levelo://app?vid=b329e36a-730b-4742-bd80-1e703395f74e","ios":"levelo://app?vid=b329e36a-730b-4742-bd80-1e703395f74e"},"vehicle_type_id":"4","last_reported":1702307269,"current_range_meters":16800,"station_id":"cki0cbj6b192h4jlfktg","pricing_plan_id":"free"},{"bike_id":"5bc4fae9-952f-47ec-9999-411c1dd75c71","system_id":"levelo_inurba_marseille","lat":43.301117,"lon":5.398795,"is_reserved":false,"is_disabled":false,"rental_uris":{"android":"levelo://app?vid=5bc4fae9-952f-47ec-9999-411c1dd75c71","ios":"levelo://app?vid=5bc4fae9-952f-47ec-9999-411c1dd75c71"},"vehicle_type_id":"4","last_reported":1702307269,"current_range_meters":0,"station_id":"ce4bh0h2rcd13ifvqd40","pricing_plan_id":"free"},{"bike_id":"95bb34ef-6056-45e9-b620-2210074bbaf7","system_id":"levelo_inurba_marseille","lat":43.28727,"lon":5.36078,"is_reserved":false,"is_disabled":false,"rental_uris":{"android":"levelo://app?vid=95bb34ef-6056-45e9-b620-2210074bbaf7","ios":"levelo://app?vid=95bb34ef-6056-45e9-b620-2210074bbaf7"},"vehicle_type_id":"4","last_reported":1702307269,"current_range_meters":21600,"station_id":"cki0cbj6b192h4jlfktg","pricing_plan_id":"free"},{"bike_id":"e40fdc9d-c4ec-46b4-acda-2e2c33416678","system_id":"levelo_inurba_marseille","lat":43.286591,"lon":5.363346,"is_reserved":false,"is_disabled":false,"rental_uris":{"android":"levelo://app?vid=e40fdc9d-c4ec-46b4-acda-2e2c33416678","ios":"levelo://app?vid=e40fdc9d-c4ec-46b4-acda-2e2c33416678"},"vehicle_type_id":"4","last_reported":1702307269,"current_range_meters":25600,"station_id":"ce4bhah2rcd13ifvqej0","pricing_plan_id":"free"},{"bike_id":"fa26653d-138e-4785-a63a-d5c6aecbccf8","system_id":"levelo_inurba_marseille","lat":43.292569,"lon":5.409107,"is_reserved":false,"is_disabled":false,"rental_uris":{"android":"levelo://app?vid=fa26653d-138e-4785-a63a-d5c6aecbccf8","ios":"levelo://app?vid=fa26653d-138e-4785-a63a-d5c6aecbccf8"},"vehicle_type_id":"4","last_reported":1702307269,"current_range_meters":17600,"station_id":"ce4bh192rcd13ifvqdc0","pricing_plan_id":"free"},{"bike_id":"75c159b9-136d-46cd-92c9-0a581a26b9cb","system_id":"levelo_inurba_marseille","lat":43.286961,"lon":5.373785,"is_reserved":false,"is_disabled":false,"rental_uris":{"android":"levelo://app?vid=75c159b9-136d-46cd-92c9-0a581a26b9cb","ios":"levelo://app?vid=75c159b9-136d-46cd-92c9-0a581a26b9cb"},"vehicle_type_id":"4","last_reported":1702307269,"current_range_meters":28400,"station_id":"ce4bh3p2rcd13ifvqdq0","pricing_plan_id":"free"},{"bike_id":"bb29a559-06d3-4720-8bca-1294a00fd8a9","system_id":"levelo_inurba_marseille","lat":43.290336,"lon":5.386425,"is_reserved":false,"is_disabled":false,"rental_uris":{"android":"levelo://app?vid=bb29a559-06d3-4720-8bca-1294a00fd8a9","ios":"levelo://app?vid=bb29a559-06d3-4720-8bca-1294a00fd8a9"},"vehicle_type_id":"4","last_reported":1702307269,"current_range_meters":7600,"station_id":"ce4bh4p2rcd13ifvqe0g","pricing_plan_id":"free"},{"bike_id":"cf34a1e8-b11c-4e90-90fb-12ae54525705","system_id":"levelo_inurba_marseille","lat":43.295194,"lon":5.39397,"is_reserved":false,"is_disabled":false,"rental_uris":{"android":"levelo://app?vid=cf34a1e8-b11c-4e90-90fb-12ae54525705","ios":"levelo://app?vid=cf34a1e8-b11c-4e90-90fb-12ae54525705"},"vehicle_type_id":"4","last_reported":1702307269,"current_range_meters":0,"station_id":"ce4bh292rcd13ifvqdf0","pricing_plan_id":"free"},{"bike_id":"14a47596-011d-4ff6-a766-1d1d333cb61a","system_id":"levelo_inurba_marseille","lat":43.3025,"lon":5.40065,"is_reserved":false,"is_disabled":false,"rental_uris":{"android":"levelo://app?vid=14a47596-011d-4ff6-a766-1d1d333cb61a","ios":"levelo://app?vid=14a47596-011d-4ff6-a766-1d1d333cb61a"},"vehicle_type_id":"4","last_reported":1702307269,"current_range_meters":2400,"station_id":"ce4bgvh2rcd13ifvqcs0","pricing_plan_id":"free"},{"bike_id":"899c395a-6053-4915-b8dd-a129cc9225b8","system_id":"levelo_inurba_marseille","lat":43.30252,"lon":5.40074,"is_reserved":false,"is_disabled":false,"rental_uris":{"android":"levelo://app?vid=899c395a-6053-4915-b8dd-a129cc9225b8","ios":"levelo://app?vid=899c395a-6053-4915-b8dd-a129cc9225b8"},"vehicle_type_id":"4","last_reported":1702307269,"current_range_meters":0,"station_id":"ce4bgvh2rcd13ifvqcs0","pricing_plan_id":"free"},{"bike_id":"6cbcc99b-e865-400d-956b-03ad4a542d92","system_id":"levelo_inurba_marseille","lat":43.302759,"lon":5.400793,"is_reserved":false,"is_disabled":false,"rental_uris":{"android":"levelo://app?vid=6cbcc99b-e865-400d-956b-03ad4a542d92","ios":"levelo://app?vid=6cbcc99b-e865-400d-956b-03ad4a542d92"},"vehicle_type_id":"4","last_reported":1702307269,"current_range_meters":12000,"station_id":"ce4bgvh2rcd13ifvqcs0","pricing_plan_id":"free"},{"bike_id":"53dadfcf-be20-43aa-8b95-804d8cf63e34","system_id":"levelo_inurba_marseille","lat":43.30251,"lon":5.40081,"is_reserved":false,"is_disabled":false,"rental_uris":{"android":"levelo://app?vid=53dadfcf-be20-43aa-8b95-804d8cf63e34","ios":"levelo://app?vid=53dadfcf-be20-43aa-8b95-804d8cf63e34"},"vehicle_type_id":"4","last_reported":1702307269,"current_range_meters":26400,"station_id":"ce4bgvh2rcd13ifvqcs0","pricing_plan_id":"free"},{"bike_id":"491e0a09-9707-48b2-9e11-9a076fafa2b0","system_id":"levelo_inurba_marseille","lat":43.302597,"lon":5.400875,"is_reserved":false,"is_disabled":false,"rental_uris":{"android":"levelo://app?vid=491e0a09-9707-48b2-9e11-9a076fafa2b0","ios":"levelo://app?vid=491e0a09-9707-48b2-9e11-9a076fafa2b0"},"vehicle_type_id":"4","last_reported":1702307269,"current_range_meters":28800,"station_id":"ce4bgvh2rcd13ifvqcs0","pricing_plan_id":"free"},{"bike_id":"e782ecad-650d-4026-a441-777d942dc040","system_id":"levelo_inurba_marseille","lat":43.287185,"lon":5.379373,"is_reserved":false,"is_disabled":false,"rental_uris":{"android":"levelo://app?vid=e782ecad-650d-4026-a441-777d942dc040","ios":"levelo://app?vid=e782ecad-650d-4026-a441-777d942dc040"},"vehicle_type_id":"4","last_reported":1702307269,"current_range_meters":0,"station_id":"ce4bh9p2rcd13ifvqec0","pricing_plan_id":"free"},{"bike_id":"3112f80f-3827-4b15-8c61-f9e7869ed0c9","system_id":"levelo_inurba_marseille","lat":43.287185,"lon":5.379373,"is_reserved":false,"is_disabled":false,"rental_uris":{"android":"levelo://app?vid=3112f80f-3827-4b15-8c61-f9e7869ed0c9","ios":"levelo://app?vid=3112f80f-3827-4b15-8c61-f9e7869ed0c9"},"vehicle_type_id":"4","last_reported":1702307269,"current_range_meters":17600,"station_id":"ce4bh9p2rcd13ifvqec0","pricing_plan_id":"free"},{"bike_id":"e67d7d91-bad6-4be5-8ef1-f37848f70079","system_id":"levelo_inurba_marseille","lat":43.287185,"lon":5.379373,"is_reserved":false,"is_disabled":false,"rental_uris":{"android":"levelo://app?vid=e67d7d91-bad6-4be5-8ef1-f37848f70079","ios":"levelo://app?vid=e67d7d91-bad6-4be5-8ef1-f37848f70079"},"vehicle_type_id":"4","last_reported":1702307269,"current_range_meters":3200,"station_id":"ce4bh9p2rcd13ifvqec0","pricing_plan_id":"free"},{"bike_id":"dbb6b25c-ef8f-4a93-bdd4-1f60f1415690","system_id":"levelo_inurba_marseille","lat":43.291994,"lon":5.392907,"is_reserved":false,"is_disabled":false,"rental_uris":{"android":"levelo://app?vid=dbb6b25c-ef8f-4a93-bdd4-1f60f1415690","ios":"levelo://app?vid=dbb6b25c-ef8f-4a93-bdd4-1f60f1415690"},"vehicle_type_id":"4","last_reported":1702307269,"current_range_meters":29200,"station_id":"ce4bh192rcd13ifvqdd0","pricing_plan_id":"free"},{"bike_id":"d12b7cea-6708-493f-81fd-6dc9b568cdfb","system_id":"levelo_inurba_marseille","lat":43.29197,"lon":5.393316,"is_reserved":false,"is_disabled":false,"rental_uris":{"android":"levelo://app?vid=d12b7cea-6708-493f-81fd-6dc9b568cdfb","ios":"levelo://app?vid=d12b7cea-6708-493f-81fd-6dc9b568cdfb"},"vehicle_type_id":"4","last_reported":1702307269,"current_range_meters":16800,"station_id":"","pricing_plan_id":"free"},{"bike_id":"c826f926-7525-434c-bde6-a6390df3acc1","system_id":"levelo_inurba_marseille","lat":43.291994,"lon":5.392907,"is_reserved":false,"is_disabled":false,"rental_uris":{"android":"levelo://app?vid=c826f926-7525-434c-bde6-a6390df3acc1","ios":"levelo://app?vid=c826f926-7525-434c-bde6-a6390df3acc1"},"vehicle_type_id":"4","last_reported":1702307269,"current_range_meters":23600,"station_id":"ce4bh192rcd13ifvqdd0","pricing_plan_id":"free"},{"bike_id":"4ded4e96-28d1-4abf-95d1-c4ef06a1e21f","system_id":"levelo_inurba_marseille","lat":43.284538,"lon":5.358657,"is_reserved":false,"is_disabled":false,"rental_uris":{"android":"levelo://app?vid=4ded4e96-28d1-4abf-95d1-c4ef06a1e21f","ios":"levelo://app?vid=4ded4e96-28d1-4abf-95d1-c4ef06a1e21f"},"vehicle_type_id":"4","last_reported":1702307269,"current_range_meters":2800,"station_id":"ce4bhah2rcd13ifvqei0","pricing_plan_id":"free"},{"bike_id":"c9a7a01c-f29c-4745-b7c8-2a93f4185236","system_id":"levelo_inurba_marseille","lat":43.295713,"lon":5.399639,"is_reserved":false,"is_disabled":false,"rental_uris":{"android":"levelo://app?vid=c9a7a01c-f29c-4745-b7c8-2a93f4185236","ios":"levelo://app?vid=c9a7a01c-f29c-4745-b7c8-2a93f4185236"},"vehicle_type_id":"4","last_reported":1702307269,"current_range_meters":26800,"station_id":"ce4bh312rcd13ifvqdj0","pricing_plan_id":"free"},{"bike_id":"5c87f774-0d59-4e1c-8b7c-837d1976a1bd","system_id":"levelo_inurba_marseille","lat":43.28618,"lon":5.35112,"is_reserved":false,"is_disabled":false,"rental_uris":{"android":"levelo://app?vid=5c87f774-0d59-4e1c-8b7c-837d1976a1bd","ios":"levelo://app?vid=5c87f774-0d59-4e1c-8b7c-837d1976a1bd"},"vehicle_type_id":"4","last_reported":1702307269,"current_range_meters":29200,"station_id":"ce4bhch2rcd13ifvqeug","pricing_plan_id":"free"},{"bike_id":"1b5a78af-52cb-4f20-9c8d-ad8dbecf4e2b","system_id":"levelo_inurba_marseille","lat":43.285856,"lon":5.350771,"is_reserved":false,"is_disabled":false,"rental_uris":{"android":"levelo://app?vid=1b5a78af-52cb-4f20-9c8d-ad8dbecf4e2b","ios":"levelo://app?vid=1b5a78af-52cb-4f20-9c8d-ad8dbecf4e2b"},"vehicle_type_id":"4","last_reported":1702307269,"current_range_meters":30000,"station_id":"ce4bhch2rcd13ifvqeug","pricing_plan_id":"free"},{"bike_id":"9a41748a-8785-4931-bc07-a518ed11f479","system_id":"levelo_inurba_marseille","lat":43.28614,"lon":5.35112,"is_reserved":false,"is_disabled":false,"rental_uris":{"android":"levelo://app?vid=9a41748a-8785-4931-bc07-a518ed11f479","ios":"levelo://app?vid=9a41748a-8785-4931-bc07-a518ed11f479"},"vehicle_type_id":"4","last_reported":1702307269,"current_range_meters":0,"station_id":"ce4bhch2rcd13ifvqeug","pricing_plan_id":"free"},{"bike_id":"e629beb0-701b-491b-9d61-79a9f178b75d","system_id":"levelo_inurba_marseille","lat":43.28617,"lon":5.35102,"is_reserved":false,"is_disabled":false,"rental_uris":{"android":"levelo://app?vid=e629beb0-701b-491b-9d61-79a9f178b75d","ios":"levelo://app?vid=e629beb0-701b-491b-9d61-79a9f178b75d"},"vehicle_type_id":"4","last_reported":1702307269,"current_range_meters":26800,"station_id":"ce4bhch2rcd13ifvqeug","pricing_plan_id":"free"},{"bike_id":"4557d9a9-86f4-457f-8926-2b56edb9a6fc","system_id":"levelo_inurba_marseille","lat":43.28613,"lon":5.35113,"is_reserved":false,"is_disabled":false,"rental_uris":{"android":"levelo://app?vid=4557d9a9-86f4-457f-8926-2b56edb9a6fc","ios":"levelo://app?vid=4557d9a9-86f4-457f-8926-2b56edb9a6fc"},"vehicle_type_id":"4","last_reported":1702307269,"current_range_meters":30000,"station_id":"ce4bhch2rcd13ifvqeug","pricing_plan_id":"free"},{"bike_id":"c904dca1-552c-48fe-b116-095c499943b4","system_id":"levelo_inurba_marseille","lat":43.28616,"lon":5.35103,"is_reserved":false,"is_disabled":false,"rental_uris":{"android":"levelo://app?vid=c904dca1-552c-48fe-b116-095c499943b4","ios":"levelo://app?vid=c904dca1-552c-48fe-b116-095c499943b4"},"vehicle_type_id":"4","last_reported":1702307269,"current_range_meters":31200,"station_id":"ce4bhch2rcd13ifvqeug","pricing_plan_id":"free"},{"bike_id":"e4fb3bd5-7c60-44bf-9c8a-64acd5b6ff07","system_id":"levelo_inurba_marseille","lat":43.28611,"lon":5.35111,"is_reserved":false,"is_disabled":false,"rental_uris":{"android":"levelo://app?vid=e4fb3bd5-7c60-44bf-9c8a-64acd5b6ff07","ios":"levelo://app?vid=e4fb3bd5-7c60-44bf-9c8a-64acd5b6ff07"},"vehicle_type_id":"4","last_reported":1702307269,"current_range_meters":18400,"station_id":"ce4bhch2rcd13ifvqeug","pricing_plan_id":"free"},{"bike_id":"b1660c9e-55fb-49d8-9deb-25ce7bc2d924","system_id":"levelo_inurba_marseille","lat":43.285848,"lon":5.350787,"is_reserved":false,"is_disabled":false,"rental_uris":{"android":"levelo://app?vid=b1660c9e-55fb-49d8-9deb-25ce7bc2d924","ios":"levelo://app?vid=b1660c9e-55fb-49d8-9deb-25ce7bc2d924"},"vehicle_type_id":"4","last_reported":1702307269,"current_range_meters":29600,"station_id":"ce4bhch2rcd13ifvqeug","pricing_plan_id":"free"},{"bike_id":"83a514d1-846b-4e56-a3b0-c29c69c866da","system_id":"levelo_inurba_marseille","lat":43.2861,"lon":5.3511,"is_reserved":false,"is_disabled":false,"rental_uris":{"android":"levelo://app?vid=83a514d1-846b-4e56-a3b0-c29c69c866da","ios":"levelo://app?vid=83a514d1-846b-4e56-a3b0-c29c69c866da"},"vehicle_type_id":"4","last_reported":1702307269,"current_range_meters":31200,"station_id":"ce4bhch2rcd13ifvqeug","pricing_plan_id":"free"},{"bike_id":"e288e8d6-084a-42c8-8e05-7baeefd938f8","system_id":"levelo_inurba_marseille","lat":43.28611,"lon":5.35106,"is_reserved":false,"is_disabled":false,"rental_uris":{"android":"levelo://app?vid=e288e8d6-084a-42c8-8e05-7baeefd938f8","ios":"levelo://app?vid=e288e8d6-084a-42c8-8e05-7baeefd938f8"},"vehicle_type_id":"4","last_reported":1702307269,"current_range_meters":26800,"station_id":"ce4bhch2rcd13ifvqeug","pricing_plan_id":"free"},{"bike_id":"30d32410-23f2-4a27-8803-14a0d29695b5","system_id":"levelo_inurba_marseille","lat":43.28609,"lon":5.35111,"is_reserved":false,"is_disabled":false,"rental_uris":{"android":"levelo://app?vid=30d32410-23f2-4a27-8803-14a0d29695b5","ios":"levelo://app?vid=30d32410-23f2-4a27-8803-14a0d29695b5"},"vehicle_type_id":"4","last_reported":1702307269,"current_range_meters":26400,"station_id":"ce4bhch2rcd13ifvqeug","pricing_plan_id":"free"},{"bike_id":"16b57306-2693-4055-a188-68b3db34c84e","system_id":"levelo_inurba_marseille","lat":43.28611,"lon":5.35104,"is_reserved":false,"is_disabled":false,"rental_uris":{"android":"levelo://app?vid=16b57306-2693-4055-a188-68b3db34c84e","ios":"levelo://app?vid=16b57306-2693-4055-a188-68b3db34c84e"},"vehicle_type_id":"4","last_reported":1702307269,"current_range_meters":25600,"station_id":"ce4bhch2rcd13ifvqeug","pricing_plan_id":"free"},{"bike_id":"a56f8ee9-caa3-4216-aaf0-b2f89b7086cf","system_id":"levelo_inurba_marseille","lat":43.241782,"lon":5.397261,"is_reserved":false,"is_disabled":false,"rental_uris":{"android":"levelo://app?vid=a56f8ee9-caa3-4216-aaf0-b2f89b7086cf","ios":"levelo://app?vid=a56f8ee9-caa3-4216-aaf0-b2f89b7086cf"},"vehicle_type_id":"4","last_reported":1702307269,"current_range_meters":2800,"station_id":"ce4bhn12rcd13ifvqgpg","pricing_plan_id":"free"},{"bike_id":"06ed564a-2595-45a1-8ed6-542595bc050a","system_id":"levelo_inurba_marseille","lat":43.29281,"lon":5.40119,"is_reserved":false,"is_disabled":false,"rental_uris":{"android":"levelo://app?vid=06ed564a-2595-45a1-8ed6-542595bc050a","ios":"levelo://app?vid=06ed564a-2595-45a1-8ed6-542595bc050a"},"vehicle_type_id":"4","last_reported":1702307269,"current_range_meters":0,"station_id":"ce4bh312rcd13ifvqdk0","pricing_plan_id":"free"},{"bike_id":"81b3b322-bb8a-4a86-9743-4f2f7396ef34","system_id":"levelo_inurba_marseille","lat":43.292724,"lon":5.401131,"is_reserved":false,"is_disabled":false,"rental_uris":{"android":"levelo://app?vid=81b3b322-bb8a-4a86-9743-4f2f7396ef34","ios":"levelo://app?vid=81b3b322-bb8a-4a86-9743-4f2f7396ef34"},"vehicle_type_id":"4","last_reported":1702307269,"current_range_meters":13600,"station_id":"ce4bh312rcd13ifvqdk0","pricing_plan_id":"free"},{"bike_id":"a3b7849c-6118-4f9e-9848-4a3bc4b5bdef","system_id":"levelo_inurba_marseille","lat":43.292724,"lon":5.401131,"is_reserved":false,"is_disabled":false,"rental_uris":{"android":"levelo://app?vid=a3b7849c-6118-4f9e-9848-4a3bc4b5bdef","ios":"levelo://app?vid=a3b7849c-6118-4f9e-9848-4a3bc4b5bdef"},"vehicle_type_id":"4","last_reported":1702307269,"current_range_meters":22000,"station_id":"ce4bh312rcd13ifvqdk0","pricing_plan_id":"free"},{"bike_id":"0ce33954-ce89-412a-bf3d-feee5bef5652","system_id":"levelo_inurba_marseille","lat":43.283502,"lon":5.386471,"is_reserved":false,"is_disabled":false,"rental_uris":{"android":"levelo://app?vid=0ce33954-ce89-412a-bf3d-feee5bef5652","ios":"levelo://app?vid=0ce33954-ce89-412a-bf3d-feee5bef5652"},"vehicle_type_id":"4","last_reported":1702307269,"current_range_meters":9600,"station_id":"ce4bh492rcd13ifvqdvg","pricing_plan_id":"free"},{"bike_id":"663c3e4e-f274-468b-b75b-ad15680cf596","system_id":"levelo_inurba_marseille","lat":43.282754,"lon":5.350519,"is_reserved":false,"is_disabled":false,"rental_uris":{"android":"levelo://app?vid=663c3e4e-f274-468b-b75b-ad15680cf596","ios":"levelo://app?vid=663c3e4e-f274-468b-b75b-ad15680cf596"},"vehicle_type_id":"4","last_reported":1702307269,"current_range_meters":18400,"station_id":"ce4bhbp2rcd13ifvqerg","pricing_plan_id":"free"},{"bike_id":"5e44d3b6-ef0b-489f-a222-bb09671ec2ea","system_id":"levelo_inurba_marseille","lat":43.296263,"lon":5.40601,"is_reserved":false,"is_disabled":false,"rental_uris":{"android":"levelo://app?vid=5e44d3b6-ef0b-489f-a222-bb09671ec2ea","ios":"levelo://app?vid=5e44d3b6-ef0b-489f-a222-bb09671ec2ea"},"vehicle_type_id":"4","last_reported":1702307269,"current_range_meters":17200,"station_id":"ce4bh0h2rcd13ifvqd60","pricing_plan_id":"free"},{"bike_id":"230215e8-0eac-4b35-8a6c-164a67edc025","system_id":"levelo_inurba_marseille","lat":43.284462,"lon":5.392121,"is_reserved":false,"is_disabled":false,"rental_uris":{"android":"levelo://app?vid=230215e8-0eac-4b35-8a6c-164a67edc025","ios":"levelo://app?vid=230215e8-0eac-4b35-8a6c-164a67edc025"},"vehicle_type_id":"4","last_reported":1702307269,"current_range_meters":11200,"station_id":"ce4bhoh2rcd13ifvqh5g","pricing_plan_id":"free"},{"bike_id":"3c490c9e-d580-4128-b68e-7dbc229a67fa","system_id":"levelo_inurba_marseille","lat":43.27931,"lon":5.38726,"is_reserved":false,"is_disabled":false,"rental_uris":{"android":"levelo://app?vid=3c490c9e-d580-4128-b68e-7dbc229a67fa","ios":"levelo://app?vid=3c490c9e-d580-4128-b68e-7dbc229a67fa"},"vehicle_type_id":"4","last_reported":1702307269,"current_range_meters":30000,"station_id":"","pricing_plan_id":"free"},{"bike_id":"1133066e-9aa8-49cd-9f7b-9694dc1769db","system_id":"levelo_inurba_marseille","lat":43.278401,"lon":5.392152,"is_reserved":false,"is_disabled":false,"rental_uris":{"android":"levelo://app?vid=1133066e-9aa8-49cd-9f7b-9694dc1769db","ios":"levelo://app?vid=1133066e-9aa8-49cd-9f7b-9694dc1769db"},"vehicle_type_id":"4","last_reported":1702307269,"current_range_meters":2800,"station_id":"ce4bhjp2rcd13ifvqga0","pricing_plan_id":"free"},{"bike_id":"e707a040-f9ba-4554-b314-b0b3097945a7","system_id":"levelo_inurba_marseille","lat":43.273613,"lon":5.362705,"is_reserved":false,"is_disabled":false,"rental_uris":{"android":"levelo://app?vid=e707a040-f9ba-4554-b314-b0b3097945a7","ios":"levelo://app?vid=e707a040-f9ba-4554-b314-b0b3097945a7"},"vehicle_type_id":"4","last_reported":1702307269,"current_range_meters":4000,"station_id":"ce4bhbh2rcd13ifvqeo0","pricing_plan_id":"free"},{"bike_id":"31ca9a01-69bf-4f3e-ae6e-3b274f6b854d","system_id":"levelo_inurba_marseille","lat":43.273613,"lon":5.362705,"is_reserved":false,"is_disabled":false,"rental_uris":{"android":"levelo://app?vid=31ca9a01-69bf-4f3e-ae6e-3b274f6b854d","ios":"levelo://app?vid=31ca9a01-69bf-4f3e-ae6e-3b274f6b854d"},"vehicle_type_id":"4","last_reported":1702307269,"current_range_meters":21600,"station_id":"ce4bhbh2rcd13ifvqeo0","pricing_plan_id":"free"},{"bike_id":"7042339d-f227-4885-b77a-35f872b1101b","system_id":"levelo_inurba_marseille","lat":43.276771,"lon":5.388799,"is_reserved":false,"is_disabled":false,"rental_uris":{"android":"levelo://app?vid=7042339d-f227-4885-b77a-35f872b1101b","ios":"levelo://app?vid=7042339d-f227-4885-b77a-35f872b1101b"},"vehicle_type_id":"4","last_reported":1702307269,"current_range_meters":22000,"station_id":"ce4bhi12rcd13ifvqfo0","pricing_plan_id":"free"},{"bike_id":"105072d3-81bc-41cb-b6c7-cd50bb20cc23","system_id":"levelo_inurba_marseille","lat":43.31723,"lon":5.42405,"is_reserved":false,"is_disabled":false,"rental_uris":{"android":"levelo://app?vid=105072d3-81bc-41cb-b6c7-cd50bb20cc23","ios":"levelo://app?vid=105072d3-81bc-41cb-b6c7-cd50bb20cc23"},"vehicle_type_id":"4","last_reported":1702307269,"current_range_meters":9200,"station_id":"ce4bhp92rcd13ifvqhbg","pricing_plan_id":"free"},{"bike_id":"b67dc672-aa13-4bf4-88e3-9fa9fe5c92fb","system_id":"levelo_inurba_marseille","lat":43.30412,"lon":5.42538,"is_reserved":false,"is_disabled":false,"rental_uris":{"android":"levelo://app?vid=b67dc672-aa13-4bf4-88e3-9fa9fe5c92fb","ios":"levelo://app?vid=b67dc672-aa13-4bf4-88e3-9fa9fe5c92fb"},"vehicle_type_id":"4","last_reported":1702307269,"current_range_meters":26400,"station_id":"ce4bhoh2rcd13ifvqh6g","pricing_plan_id":"free"},{"bike_id":"e0ebb585-6f3e-4958-bfdd-7dc5682c90dc","system_id":"levelo_inurba_marseille","lat":43.295511,"lon":5.422926,"is_reserved":false,"is_disabled":false,"rental_uris":{"android":"levelo://app?vid=e0ebb585-6f3e-4958-bfdd-7dc5682c90dc","ios":"levelo://app?vid=e0ebb585-6f3e-4958-bfdd-7dc5682c90dc"},"vehicle_type_id":"4","last_reported":1702307269,"current_range_meters":22000,"station_id":"ce4bhph2rcd13ifvqhdg","pricing_plan_id":"free"},{"bike_id":"d7f15194-0f5e-4f16-b6d9-6876401b92c7","system_id":"levelo_inurba_marseille","lat":43.295511,"lon":5.422926,"is_reserved":false,"is_disabled":false,"rental_uris":{"android":"levelo://app?vid=d7f15194-0f5e-4f16-b6d9-6876401b92c7","ios":"levelo://app?vid=d7f15194-0f5e-4f16-b6d9-6876401b92c7"},"vehicle_type_id":"4","last_reported":1702307269,"current_range_meters":30800,"station_id":"ce4bhph2rcd13ifvqhdg","pricing_plan_id":"free"},{"bike_id":"0c93cc38-fff3-43c2-a4b0-feef4b1aa6a7","system_id":"levelo_inurba_marseille","lat":43.272116,"lon":5.391747,"is_reserved":false,"is_disabled":false,"rental_uris":{"android":"levelo://app?vid=0c93cc38-fff3-43c2-a4b0-feef4b1aa6a7","ios":"levelo://app?vid=0c93cc38-fff3-43c2-a4b0-feef4b1aa6a7"},"vehicle_type_id":"4","last_reported":1702307269,"current_range_meters":27200,"station_id":"ce4bhhp2rcd13ifvqfm0","pricing_plan_id":"free"},{"bike_id":"114ed9a0-f405-4e5a-8abc-a36515ad57b3","system_id":"levelo_inurba_marseille","lat":43.27214,"lon":5.39234,"is_reserved":false,"is_disabled":false,"rental_uris":{"android":"levelo://app?vid=114ed9a0-f405-4e5a-8abc-a36515ad57b3","ios":"levelo://app?vid=114ed9a0-f405-4e5a-8abc-a36515ad57b3"},"vehicle_type_id":"4","last_reported":1702307269,"current_range_meters":23600,"station_id":"ce4bhhp2rcd13ifvqfm0","pricing_plan_id":"free"},{"bike_id":"16a551f1-5eac-4fe1-ac9e-f46cd64a02b2","system_id":"levelo_inurba_marseille","lat":43.279261,"lon":5.410849,"is_reserved":false,"is_disabled":false,"rental_uris":{"android":"levelo://app?vid=16a551f1-5eac-4fe1-ac9e-f46cd64a02b2","ios":"levelo://app?vid=16a551f1-5eac-4fe1-ac9e-f46cd64a02b2"},"vehicle_type_id":"4","last_reported":1702307269,"current_range_meters":22000,"station_id":"","pricing_plan_id":"free"},{"bike_id":"b5281d52-ac65-49be-ab9c-05ea5a55ea21","system_id":"levelo_inurba_marseille","lat":43.26681,"lon":5.382694,"is_reserved":false,"is_disabled":false,"rental_uris":{"android":"levelo://app?vid=b5281d52-ac65-49be-ab9c-05ea5a55ea21","ios":"levelo://app?vid=b5281d52-ac65-49be-ab9c-05ea5a55ea21"},"vehicle_type_id":"4","last_reported":1702307269,"current_range_meters":17200,"station_id":"ce4bhg92rcd13ifvqf90","pricing_plan_id":"free"},{"bike_id":"3034260f-6ff7-46fb-9d96-095eadf20611","system_id":"levelo_inurba_marseille","lat":43.265714,"lon":5.372891,"is_reserved":false,"is_disabled":false,"rental_uris":{"android":"levelo://app?vid=3034260f-6ff7-46fb-9d96-095eadf20611","ios":"levelo://app?vid=3034260f-6ff7-46fb-9d96-095eadf20611"},"vehicle_type_id":"4","last_reported":1702307269,"current_range_meters":26000,"station_id":"ce4bhg12rcd13ifvqf70","pricing_plan_id":"free"},{"bike_id":"322296bc-4f72-4913-8162-629d7d89b8cf","system_id":"levelo_inurba_marseille","lat":43.265714,"lon":5.372891,"is_reserved":false,"is_disabled":false,"rental_uris":{"android":"levelo://app?vid=322296bc-4f72-4913-8162-629d7d89b8cf","ios":"levelo://app?vid=322296bc-4f72-4913-8162-629d7d89b8cf"},"vehicle_type_id":"4","last_reported":1702307269,"current_range_meters":1200,"station_id":"ce4bhg12rcd13ifvqf70","pricing_plan_id":"free"},{"bike_id":"a9aa6399-c040-4a0a-badb-44e2ca83a066","system_id":"levelo_inurba_marseille","lat":43.265714,"lon":5.372891,"is_reserved":false,"is_disabled":false,"rental_uris":{"android":"levelo://app?vid=a9aa6399-c040-4a0a-badb-44e2ca83a066","ios":"levelo://app?vid=a9aa6399-c040-4a0a-badb-44e2ca83a066"},"vehicle_type_id":"4","last_reported":1702307269,"current_range_meters":17200,"station_id":"ce4bhg12rcd13ifvqf70","pricing_plan_id":"free"},{"bike_id":"918f586b-7f0b-42e9-8442-a99b01b507b4","system_id":"levelo_inurba_marseille","lat":43.267966,"lon":5.393976,"is_reserved":false,"is_disabled":false,"rental_uris":{"android":"levelo://app?vid=918f586b-7f0b-42e9-8442-a99b01b507b4","ios":"levelo://app?vid=918f586b-7f0b-42e9-8442-a99b01b507b4"},"vehicle_type_id":"4","last_reported":1702307269,"current_range_meters":21600,"station_id":"ce4bhh12rcd13ifvqfg0","pricing_plan_id":"free"},{"bike_id":"5eb071ac-e5cb-47bc-814c-b1a4073b4e65","system_id":"levelo_inurba_marseille","lat":43.269997,"lon":5.40041,"is_reserved":false,"is_disabled":false,"rental_uris":{"android":"levelo://app?vid=5eb071ac-e5cb-47bc-814c-b1a4073b4e65","ios":"levelo://app?vid=5eb071ac-e5cb-47bc-814c-b1a4073b4e65"},"vehicle_type_id":"4","last_reported":1702307269,"current_range_meters":21200,"station_id":"","pricing_plan_id":"free"},{"bike_id":"080052aa-adae-4e68-9795-aab3bbf99ab2","system_id":"levelo_inurba_marseille","lat":43.26324,"lon":5.37682,"is_reserved":false,"is_disabled":false,"rental_uris":{"android":"levelo://app?vid=080052aa-adae-4e68-9795-aab3bbf99ab2","ios":"levelo://app?vid=080052aa-adae-4e68-9795-aab3bbf99ab2"},"vehicle_type_id":"4","last_reported":1702307269,"current_range_meters":14000,"station_id":"","pricing_plan_id":"free"},{"bike_id":"4fc97cd2-f51b-4b17-81f8-01f244c2fa0f","system_id":"levelo_inurba_marseille","lat":43.271368,"lon":5.40928,"is_reserved":false,"is_disabled":false,"rental_uris":{"android":"levelo://app?vid=4fc97cd2-f51b-4b17-81f8-01f244c2fa0f","ios":"levelo://app?vid=4fc97cd2-f51b-4b17-81f8-01f244c2fa0f"},"vehicle_type_id":"4","last_reported":1702307269,"current_range_meters":0,"station_id":"ce4bhl12rcd13ifvqgf0","pricing_plan_id":"free"},{"bike_id":"7574056f-2d11-4fab-901d-a72ba7d9ee86","system_id":"levelo_inurba_marseille","lat":43.26202,"lon":5.379299,"is_reserved":false,"is_disabled":false,"rental_uris":{"android":"levelo://app?vid=7574056f-2d11-4fab-901d-a72ba7d9ee86","ios":"levelo://app?vid=7574056f-2d11-4fab-901d-a72ba7d9ee86"},"vehicle_type_id":"4","last_reported":1702307269,"current_range_meters":30400,"station_id":"ce4bhjp2rcd13ifvqg90","pricing_plan_id":"free"},{"bike_id":"8291fe34-d6e7-4334-9480-c5f49977b353","system_id":"levelo_inurba_marseille","lat":43.271388,"lon":5.409269,"is_reserved":false,"is_disabled":false,"rental_uris":{"android":"levelo://app?vid=8291fe34-d6e7-4334-9480-c5f49977b353","ios":"levelo://app?vid=8291fe34-d6e7-4334-9480-c5f49977b353"},"vehicle_type_id":"4","last_reported":1702307269,"current_range_meters":12000,"station_id":"ce4bhl12rcd13ifvqgf0","pricing_plan_id":"free"},{"bike_id":"782cbed8-9ac9-41c0-b7d2-c9e45a9fba70","system_id":"levelo_inurba_marseille","lat":43.271368,"lon":5.40928,"is_reserved":false,"is_disabled":false,"rental_uris":{"android":"levelo://app?vid=782cbed8-9ac9-41c0-b7d2-c9e45a9fba70","ios":"levelo://app?vid=782cbed8-9ac9-41c0-b7d2-c9e45a9fba70"},"vehicle_type_id":"4","last_reported":1702307269,"current_range_meters":6400,"station_id":"ce4bhl12rcd13ifvqgf0","pricing_plan_id":"free"},{"bike_id":"4e6e4a4d-e00f-4453-991c-edd03f91627b","system_id":"levelo_inurba_marseille","lat":43.27703,"lon":5.41985,"is_reserved":false,"is_disabled":false,"rental_uris":{"android":"levelo://app?vid=4e6e4a4d-e00f-4453-991c-edd03f91627b","ios":"levelo://app?vid=4e6e4a4d-e00f-4453-991c-edd03f91627b"},"vehicle_type_id":"4","last_reported":1702307269,"current_range_meters":0,"station_id":"","pricing_plan_id":"free"},{"bike_id":"7ef0e874-4d14-4db6-97d3-23537a85b219","system_id":"levelo_inurba_marseille","lat":43.298768,"lon":5.43643,"is_reserved":false,"is_disabled":false,"rental_uris":{"android":"levelo://app?vid=7ef0e874-4d14-4db6-97d3-23537a85b219","ios":"levelo://app?vid=7ef0e874-4d14-4db6-97d3-23537a85b219"},"vehicle_type_id":"4","last_reported":1702307269,"current_range_meters":27600,"station_id":"ce4bhpp2rcd13ifvqhfg","pricing_plan_id":"free"},{"bike_id":"958b505a-b8bd-4f40-9f08-d4f875f828f5","system_id":"levelo_inurba_marseille","lat":43.281548,"lon":5.42643,"is_reserved":false,"is_disabled":false,"rental_uris":{"android":"levelo://app?vid=958b505a-b8bd-4f40-9f08-d4f875f828f5","ios":"levelo://app?vid=958b505a-b8bd-4f40-9f08-d4f875f828f5"},"vehicle_type_id":"4","last_reported":1702307269,"current_range_meters":6000,"station_id":"ce4bhnh2rcd13ifvqgug","pricing_plan_id":"free"},{"bike_id":"562fd73c-d8bf-41ba-b2f2-92df04b19b66","system_id":"levelo_inurba_marseille","lat":43.281548,"lon":5.42643,"is_reserved":false,"is_disabled":false,"rental_uris":{"android":"levelo://app?vid=562fd73c-d8bf-41ba-b2f2-92df04b19b66","ios":"levelo://app?vid=562fd73c-d8bf-41ba-b2f2-92df04b19b66"},"vehicle_type_id":"4","last_reported":1702307269,"current_range_meters":28000,"station_id":"ce4bhnh2rcd13ifvqgug","pricing_plan_id":"free"},{"bike_id":"77910899-6cbb-4a70-97da-159a80f66392","system_id":"levelo_inurba_marseille","lat":43.281548,"lon":5.42643,"is_reserved":false,"is_disabled":false,"rental_uris":{"android":"levelo://app?vid=77910899-6cbb-4a70-97da-159a80f66392","ios":"levelo://app?vid=77910899-6cbb-4a70-97da-159a80f66392"},"vehicle_type_id":"4","last_reported":1702307269,"current_range_meters":29200,"station_id":"ce4bhnh2rcd13ifvqgug","pricing_plan_id":"free"},{"bike_id":"54f0941a-aa60-4b1e-83e6-b334a0099f9c","system_id":"levelo_inurba_marseille","lat":43.281548,"lon":5.42643,"is_reserved":false,"is_disabled":false,"rental_uris":{"android":"levelo://app?vid=54f0941a-aa60-4b1e-83e6-b334a0099f9c","ios":"levelo://app?vid=54f0941a-aa60-4b1e-83e6-b334a0099f9c"},"vehicle_type_id":"4","last_reported":1702307269,"current_range_meters":24000,"station_id":"ce4bhnh2rcd13ifvqgug","pricing_plan_id":"free"},{"bike_id":"ef06c3a7-9972-45d6-89e9-06696ed5c77b","system_id":"levelo_inurba_marseille","lat":43.25574,"lon":5.38235,"is_reserved":false,"is_disabled":false,"rental_uris":{"android":"levelo://app?vid=ef06c3a7-9972-45d6-89e9-06696ed5c77b","ios":"levelo://app?vid=ef06c3a7-9972-45d6-89e9-06696ed5c77b"},"vehicle_type_id":"4","last_reported":1702307269,"current_range_meters":20800,"station_id":"ce4bhih2rcd13ifvqfs0","pricing_plan_id":"free"},{"bike_id":"ad39a2ef-46e8-4bcd-87a3-a00b911df9e2","system_id":"levelo_inurba_marseille","lat":43.258658,"lon":5.398935,"is_reserved":false,"is_disabled":false,"rental_uris":{"android":"levelo://app?vid=ad39a2ef-46e8-4bcd-87a3-a00b911df9e2","ios":"levelo://app?vid=ad39a2ef-46e8-4bcd-87a3-a00b911df9e2"},"vehicle_type_id":"4","last_reported":1702307269,"current_range_meters":22400,"station_id":"ce4bhl92rcd13ifvqghg","pricing_plan_id":"free"},{"bike_id":"facccc74-7b63-467a-99ef-4bfcd8bf5065","system_id":"levelo_inurba_marseille","lat":43.258658,"lon":5.398935,"is_reserved":false,"is_disabled":false,"rental_uris":{"android":"levelo://app?vid=facccc74-7b63-467a-99ef-4bfcd8bf5065","ios":"levelo://app?vid=facccc74-7b63-467a-99ef-4bfcd8bf5065"},"vehicle_type_id":"4","last_reported":1702307269,"current_range_meters":4400,"station_id":"ce4bhl92rcd13ifvqghg","pricing_plan_id":"free"},{"bike_id":"540f145f-bf7b-410c-aacd-6ac24706c988","system_id":"levelo_inurba_marseille","lat":43.25857,"lon":5.39905,"is_reserved":false,"is_disabled":false,"rental_uris":{"android":"levelo://app?vid=540f145f-bf7b-410c-aacd-6ac24706c988","ios":"levelo://app?vid=540f145f-bf7b-410c-aacd-6ac24706c988"},"vehicle_type_id":"4","last_reported":1702307269,"current_range_meters":16000,"station_id":"ce4bhl92rcd13ifvqghg","pricing_plan_id":"free"},{"bike_id":"df4675f4-6700-4d91-9271-d13e57de4a3a","system_id":"levelo_inurba_marseille","lat":43.257079,"lon":5.411051,"is_reserved":false,"is_disabled":false,"rental_uris":{"android":"levelo://app?vid=df4675f4-6700-4d91-9271-d13e57de4a3a","ios":"levelo://app?vid=df4675f4-6700-4d91-9271-d13e57de4a3a"},"vehicle_type_id":"4","last_reported":1702307269,"current_range_meters":19200,"station_id":"ce4bhkp2rcd13ifvqgd0","pricing_plan_id":"free"},{"bike_id":"ad1fa67a-d5eb-470a-8144-ab1566be70e6","system_id":"levelo_inurba_marseille","lat":43.257079,"lon":5.411051,"is_reserved":false,"is_disabled":false,"rental_uris":{"android":"levelo://app?vid=ad1fa67a-d5eb-470a-8144-ab1566be70e6","ios":"levelo://app?vid=ad1fa67a-d5eb-470a-8144-ab1566be70e6"},"vehicle_type_id":"4","last_reported":1702307269,"current_range_meters":28400,"station_id":"ce4bhkp2rcd13ifvqgd0","pricing_plan_id":"free"},{"bike_id":"31f60d11-db05-4678-a7c4-332de867600d","system_id":"levelo_inurba_marseille","lat":43.250023,"lon":5.38919,"is_reserved":false,"is_disabled":false,"rental_uris":{"android":"levelo://app?vid=31f60d11-db05-4678-a7c4-332de867600d","ios":"levelo://app?vid=31f60d11-db05-4678-a7c4-332de867600d"},"vehicle_type_id":"4","last_reported":1702307269,"current_range_meters":22000,"station_id":"ce4bhgp2rcd13ifvqfd0","pricing_plan_id":"free"},{"bike_id":"50f4445a-d2d4-4098-a5ef-0b47fa2cd772","system_id":"levelo_inurba_marseille","lat":43.2479,"lon":5.374457,"is_reserved":false,"is_disabled":false,"rental_uris":{"android":"levelo://app?vid=50f4445a-d2d4-4098-a5ef-0b47fa2cd772","ios":"levelo://app?vid=50f4445a-d2d4-4098-a5ef-0b47fa2cd772"},"vehicle_type_id":"4","last_reported":1702307269,"current_range_meters":11200,"station_id":"ce4bhgh2rcd13ifvqfb0","pricing_plan_id":"free"},{"bike_id":"698d9588-4f2e-4ea1-8af6-ab11f1d2fa5f","system_id":"levelo_inurba_marseille","lat":43.2479,"lon":5.374457,"is_reserved":false,"is_disabled":false,"rental_uris":{"android":"levelo://app?vid=698d9588-4f2e-4ea1-8af6-ab11f1d2fa5f","ios":"levelo://app?vid=698d9588-4f2e-4ea1-8af6-ab11f1d2fa5f"},"vehicle_type_id":"4","last_reported":1702307269,"current_range_meters":28400,"station_id":"ce4bhgh2rcd13ifvqfb0","pricing_plan_id":"free"},{"bike_id":"4216516d-61e5-4939-a4cf-be4ff1a55af5","system_id":"levelo_inurba_marseille","lat":43.250966,"lon":5.395186,"is_reserved":false,"is_disabled":false,"rental_uris":{"android":"levelo://app?vid=4216516d-61e5-4939-a4cf-be4ff1a55af5","ios":"levelo://app?vid=4216516d-61e5-4939-a4cf-be4ff1a55af5"},"vehicle_type_id":"4","last_reported":1702307269,"current_range_meters":22400,"station_id":"ce4bhm12rcd13ifvqgkg","pricing_plan_id":"free"},{"bike_id":"b0a09c0b-435a-46aa-b462-3817547c5c42","system_id":"levelo_inurba_marseille","lat":43.24693,"lon":5.382096,"is_reserved":false,"is_disabled":false,"rental_uris":{"android":"levelo://app?vid=b0a09c0b-435a-46aa-b462-3817547c5c42","ios":"levelo://app?vid=b0a09c0b-435a-46aa-b462-3817547c5c42"},"vehicle_type_id":"4","last_reported":1702307269,"current_range_meters":2400,"station_id":"ce4bhih2rcd13ifvqfr0","pricing_plan_id":"free"},{"bike_id":"b5c65b00-3d02-4866-b92b-047b51167356","system_id":"levelo_inurba_marseille","lat":43.243884,"lon":5.370737,"is_reserved":false,"is_disabled":false,"rental_uris":{"android":"levelo://app?vid=b5c65b00-3d02-4866-b92b-047b51167356","ios":"levelo://app?vid=b5c65b00-3d02-4866-b92b-047b51167356"},"vehicle_type_id":"4","last_reported":1702307269,"current_range_meters":13600,"station_id":"ce4bhhh2rcd13ifvqfk0","pricing_plan_id":"free"},{"bike_id":"73b8ecb1-a5f6-4f72-837d-a119a96ebf97","system_id":"levelo_inurba_marseille","lat":43.245581,"lon":5.395069,"is_reserved":false,"is_disabled":false,"rental_uris":{"android":"levelo://app?vid=73b8ecb1-a5f6-4f72-837d-a119a96ebf97","ios":"levelo://app?vid=73b8ecb1-a5f6-4f72-837d-a119a96ebf97"},"vehicle_type_id":"4","last_reported":1702307269,"current_range_meters":5200,"station_id":"ce4bhlp2rcd13ifvqgjg","pricing_plan_id":"free"},{"bike_id":"5c95425b-07d4-4ead-bb24-25a8966762b8","system_id":"levelo_inurba_marseille","lat":43.24074,"lon":5.3776,"is_reserved":false,"is_disabled":false,"rental_uris":{"android":"levelo://app?vid=5c95425b-07d4-4ead-bb24-25a8966762b8","ios":"levelo://app?vid=5c95425b-07d4-4ead-bb24-25a8966762b8"},"vehicle_type_id":"4","last_reported":1702307269,"current_range_meters":0,"station_id":"ce4bhnp2rcd13ifvqgvg","pricing_plan_id":"free"},{"bike_id":"7b930df3-2721-411c-aacc-914d2c26c9d0","system_id":"levelo_inurba_marseille","lat":43.239588,"lon":5.366238,"is_reserved":false,"is_disabled":false,"rental_uris":{"android":"levelo://app?vid=7b930df3-2721-411c-aacc-914d2c26c9d0","ios":"levelo://app?vid=7b930df3-2721-411c-aacc-914d2c26c9d0"},"vehicle_type_id":"4","last_reported":1702307269,"current_range_meters":31200,"station_id":"ce4bhi12rcd13ifvqfp0","pricing_plan_id":"free"}]}}