{"last_updated":1702134359,"ttl":30,"version":"2.2","data":{"bikes":[{"bike_id":"8213fb51-6ca0-4f12-9e9a-b9f26db97a3d","system_id":"levelo_inurba_marseille","lat":43.315,"lon":5.37305,"is_reserved":false,"is_disabled":false,"rental_uris":{"android":"levelo://app?vid=8213fb51-6ca0-4f12-9e9a-b9f26db97a3d","ios":"levelo://app?vid=8213fb51-6ca0-4f12-9e9a-b9f26db97a3d"},"vehicle_type_id":"4","last_reported":1702134359,"current_range_meters":26000,"station_id":"ce4bgt12rcd13ifvqcd0","pricing_plan_id":"free"},{"bike_id":"1539bfa4-4cee-4059-91ca-1d0e273faff2","system_id":"levelo_inurba_marseille","lat":43.305706,"lon":5.365654,"is_reserved":false,"is_disabled":false,"rental_uris":{"android":"levelo://app?vid=1539bfa4-4cee-4059-91ca-1d0e273faff2","ios":"levelo://app?vid=1539bfa4-4cee-4059-91ca-1d0e273faff2"},"vehicle_type_id":"4","last_reported":1702134359,"current_range_meters":31200,"station_id":"ce4bgs12rcd13ifvqcag","pricing_plan_id":"free"},{"bike_id":"7fed4b1f-f463-4bd1-b97b-ecf7e26a5893","system_id":"levelo_inurba_marseille","lat":43.305989,"lon":5.37225,"is_reserved":false,"is_disabled":false,"rental_uris":{"android":"levelo://app?vid=7fed4b1f-f463-4bd1-b97b-ecf7e26a5893","ios":"levelo://app?vid=7fed4b1f-f463-4bd1-b97b-ecf7e26a5893"},"vehicle_type_id":"4","last_reported":1702134359,"current_range_meters":14800,"station_id":"ce4bgqh2rcd13ifvqc4g","pricing_plan_id":"free"},{"bike_id":"acd4d3c3-6171-4b02-992d-291f624d2a52","system_id":"levelo_inurba_marseille","lat":43.305989,"lon":5.37225,"is_reserved":false,"is_disabled":false,"rental_uris":{"android":"levelo://app?vid=acd4d3c3-6171-4b02-992d-291f624d2a52","ios":"levelo://app?vid=acd4d3c3-6171-4b02-992d-291f624d2a52"},"vehicle_type_id":"4","last_reported":1702134359,"current_range_meters":24800,"station_id":"ce4bgqh2rcd13ifvqc4g","pricing_plan_id":"free"},{"bike_id":"a89b7723-9188-489b-ba2d-d8d3fec81e09","system_id":"levelo_inurba_marseille","lat":43.31114,"lon":5.37781,"is_reserved":false,"is_disabled":false,"rental_uris":{"android":"levelo://app?vid=a89b7723-9188-489b-ba2d-d8d3fec81e09","ios":"levelo://app?vid=a89b7723-9188-489b-ba2d-d8d3fec81e09"},"vehicle_type_id":"4","last_reported":1702134359,"current_range_meters":23600,"station_id":"ce4bgt92rcd13ifvqcg0","pricing_plan_id":"free"},{"bike_id":"8f8ca50b-9290-4ad5-9ab3-955dfdf6edee","system_id":"levelo_inurba_marseille","lat":43.307945,"lon":5.376487,"is_reserved":false,"is_disabled":false,"rental_uris":{"android":"levelo://app?vid=8f8ca50b-9290-4ad5-9ab3-955dfdf6edee","ios":"levelo://app?vid=8f8ca50b-9290-4ad5-9ab3-955dfdf6edee"},"vehicle_type_id":"4","last_reported":1702134359,"current_range_meters":21600,"station_id":"ce4bgv92rcd13ifvqcq0","pricing_plan_id":"free"},{"bike_id":"1bc8d926-7b5e-4c28-a5cb-1dae685b2a71","system_id":"levelo_inurba_marseille","lat":43.303046,"lon":5.368981,"is_reserved":false,"is_disabled":false,"rental_uris":{"android":"levelo://app?vid=1bc8d926-7b5e-4c28-a5cb-1dae685b2a71","ios":"levelo://app?vid=1bc8d926-7b5e-4c28-a5cb-1dae685b2a71"},"vehicle_type_id":"4","last_reported":1702134359,"current_range_meters":22400,"station_id":"ce4bgqh2rcd13ifvqc5g","pricing_plan_id":"free"},{"bike_id":"b2d84310-51d4-4b5d-bc3a-577e332aaed4","system_id":"levelo_inurba_marseille","lat":43.303046,"lon":5.368981,"is_reserved":false,"is_disabled":false,"rental_uris":{"android":"levelo://app?vid=b2d84310-51d4-4b5d-bc3a-577e332aaed4","ios":"levelo://app?vid=b2d84310-51d4-4b5d-bc3a-577e332aaed4"},"vehicle_type_id":"4","last_reported":1702134359,"current_range_meters":16000,"station_id":"ce4bgqh2rcd13ifvqc5g","pricing_plan_id":"free"},{"bike_id":"29ac2abf-61a8-4cfa-9fe9-bd0f905f255e","system_id":"levelo_inurba_marseille","lat":43.30806,"lon":5.38148,"is_reserved":false,"is_disabled":false,"rental_uris":{"android":"levelo://app?vid=29ac2abf-61a8-4cfa-9fe9-bd0f905f255e","ios":"levelo://app?vid=29ac2abf-61a8-4cfa-9fe9-bd0f905f255e"},"vehicle_type_id":"4","last_reported":1702134359,"current_range_meters":11200,"station_id":"ce4bgt12rcd13ifvqce0","pricing_plan_id":"free"},{"bike_id":"38c2c9f1-5b2b-4ecc-b4ca-9656c0218954","system_id":"levelo_inurba_marseille","lat":43.31993,"lon":5.38161,"is_reserved":false,"is_disabled":false,"rental_uris":{"android":"levelo://app?vid=38c2c9f1-5b2b-4ecc-b4ca-9656c0218954","ios":"levelo://app?vid=38c2c9f1-5b2b-4ecc-b4ca-9656c0218954"},"vehicle_type_id":"4","last_reported":1702134359,"current_range_meters":18400,"station_id":"ce4bhr12rcd13ifvqhpg","pricing_plan_id":"free"},{"bike_id":"bc5fbb97-360a-4591-ac4b-df0879d1eab4","system_id":"levelo_inurba_marseille","lat":43.31356,"lon":5.38493,"is_reserved":false,"is_disabled":false,"rental_uris":{"android":"levelo://app?vid=bc5fbb97-360a-4591-ac4b-df0879d1eab4","ios":"levelo://app?vid=bc5fbb97-360a-4591-ac4b-df0879d1eab4"},"vehicle_type_id":"4","last_reported":1702134359,"current_range_meters":23600,"station_id":"ce4bgt92rcd13ifvqcf0","pricing_plan_id":"free"},{"bike_id":"463052bc-f69b-4650-8c9f-ea9a3217a129","system_id":"levelo_inurba_marseille","lat":43.3005,"lon":5.374348,"is_reserved":false,"is_disabled":false,"rental_uris":{"android":"levelo://app?vid=463052bc-f69b-4650-8c9f-ea9a3217a129","ios":"levelo://app?vid=463052bc-f69b-4650-8c9f-ea9a3217a129"},"vehicle_type_id":"4","last_reported":1702134359,"current_range_meters":19600,"station_id":"","pricing_plan_id":"free"},{"bike_id":"72fd2377-397f-47c5-b740-cd54274abf84","system_id":"levelo_inurba_marseille","lat":43.299724,"lon":5.371829,"is_reserved":false,"is_disabled":false,"rental_uris":{"android":"levelo://app?vid=72fd2377-397f-47c5-b740-cd54274abf84","ios":"levelo://app?vid=72fd2377-397f-47c5-b740-cd54274abf84"},"vehicle_type_id":"4","last_reported":1702134359,"current_range_meters":15600,"station_id":"ce4bgr92rcd13ifvqc7g","pricing_plan_id":"free"},{"bike_id":"c437cb66-f3b2-4f67-9d0b-6dbc3d01bb88","system_id":"levelo_inurba_marseille","lat":43.299724,"lon":5.371829,"is_reserved":false,"is_disabled":false,"rental_uris":{"android":"levelo://app?vid=c437cb66-f3b2-4f67-9d0b-6dbc3d01bb88","ios":"levelo://app?vid=c437cb66-f3b2-4f67-9d0b-6dbc3d01bb88"},"vehicle_type_id":"4","last_reported":1702134359,"current_range_meters":18000,"station_id":"ce4bgr92rcd13ifvqc7g","pricing_plan_id":"free"},{"bike_id":"38fcecf5-e0e5-4a0b-a9a5-0797045a9c27","system_id":"levelo_inurba_marseille","lat":43.2997,"lon":5.371785,"is_reserved":false,"is_disabled":false,"rental_uris":{"android":"levelo://app?vid=38fcecf5-e0e5-4a0b-a9a5-0797045a9c27","ios":"levelo://app?vid=38fcecf5-e0e5-4a0b-a9a5-0797045a9c27"},"vehicle_type_id":"4","last_reported":1702134359,"current_range_meters":13600,"station_id":"ce4bgr92rcd13ifvqc7g","pricing_plan_id":"free"},{"bike_id":"19cc74b4-e5be-44f4-ba63-7da6a73d6014","system_id":"levelo_inurba_marseille","lat":43.29967,"lon":5.37182,"is_reserved":false,"is_disabled":false,"rental_uris":{"android":"levelo://app?vid=19cc74b4-e5be-44f4-ba63-7da6a73d6014","ios":"levelo://app?vid=19cc74b4-e5be-44f4-ba63-7da6a73d6014"},"vehicle_type_id":"4","last_reported":1702134359,"current_range_meters":31200,"station_id":"ce4bgr92rcd13ifvqc7g","pricing_plan_id":"free"},{"bike_id":"f0ace676-01f6-4165-90f5-72899600b9a8","system_id":"levelo_inurba_marseille","lat":43.29974,"lon":5.374177,"is_reserved":false,"is_disabled":false,"rental_uris":{"android":"levelo://app?vid=f0ace676-01f6-4165-90f5-72899600b9a8","ios":"levelo://app?vid=f0ace676-01f6-4165-90f5-72899600b9a8"},"vehicle_type_id":"4","last_reported":1702134359,"current_range_meters":20400,"station_id":"","pricing_plan_id":"free"},{"bike_id":"41ffbfb5-7793-4fe1-ba98-ff9a3728de94","system_id":"levelo_inurba_marseille","lat":43.29977,"lon":5.37434,"is_reserved":false,"is_disabled":false,"rental_uris":{"android":"levelo://app?vid=41ffbfb5-7793-4fe1-ba98-ff9a3728de94","ios":"levelo://app?vid=41ffbfb5-7793-4fe1-ba98-ff9a3728de94"},"vehicle_type_id":"4","last_reported":1702134359,"current_range_meters":16800,"station_id":"","pricing_plan_id":"free"},{"bike_id":"531f04d1-6b3d-4bf8-b842-ce239aa4ae5f","system_id":"levelo_inurba_marseille","lat":43.299243,"lon":5.374807,"is_reserved":false,"is_disabled":false,"rental_uris":{"android":"levelo://app?vid=531f04d1-6b3d-4bf8-b842-ce239aa4ae5f","ios":"levelo://app?vid=531f04d1-6b3d-4bf8-b842-ce239aa4ae5f"},"vehicle_type_id":"4","last_reported":1702134359,"current_range_meters":6800,"station_id":"ce4bgjh2rcd13ifvqbg0","pricing_plan_id":"free"},{"bike_id":"38f1223e-a214-4eb0-9b54-a70de861d11b","system_id":"levelo_inurba_marseille","lat":43.32289,"lon":5.38264,"is_reserved":false,"is_disabled":false,"rental_uris":{"android":"levelo://app?vid=38f1223e-a214-4eb0-9b54-a70de861d11b","ios":"levelo://app?vid=38f1223e-a214-4eb0-9b54-a70de861d11b"},"vehicle_type_id":"4","last_reported":1702134359,"current_range_meters":22400,"station_id":"ce4bhr12rcd13ifvqhqg","pricing_plan_id":"free"},{"bike_id":"6ac675f1-e0be-498c-ad2f-b742a949d4b0","system_id":"levelo_inurba_marseille","lat":43.298218,"lon":5.374416,"is_reserved":false,"is_disabled":false,"rental_uris":{"android":"levelo://app?vid=6ac675f1-e0be-498c-ad2f-b742a949d4b0","ios":"levelo://app?vid=6ac675f1-e0be-498c-ad2f-b742a949d4b0"},"vehicle_type_id":"4","last_reported":1702134359,"current_range_meters":2000,"station_id":"","pricing_plan_id":"free"},{"bike_id":"5ed66215-e812-4934-8bd8-05fa06e2778c","system_id":"levelo_inurba_marseille","lat":43.32828,"lon":5.36681,"is_reserved":false,"is_disabled":false,"rental_uris":{"android":"levelo://app?vid=5ed66215-e812-4934-8bd8-05fa06e2778c","ios":"levelo://app?vid=5ed66215-e812-4934-8bd8-05fa06e2778c"},"vehicle_type_id":"4","last_reported":1702134359,"current_range_meters":28400,"station_id":"ce4bhs92rcd13ifvqi0g","pricing_plan_id":"free"},{"bike_id":"92dc65d6-6823-4de3-93d4-056f738f090c","system_id":"levelo_inurba_marseille","lat":43.316538,"lon":5.38954,"is_reserved":false,"is_disabled":false,"rental_uris":{"android":"levelo://app?vid=92dc65d6-6823-4de3-93d4-056f738f090c","ios":"levelo://app?vid=92dc65d6-6823-4de3-93d4-056f738f090c"},"vehicle_type_id":"4","last_reported":1702134359,"current_range_meters":0,"station_id":"","pricing_plan_id":"free"},{"bike_id":"7090af61-ae25-455d-b39d-ba67c427df4f","system_id":"levelo_inurba_marseille","lat":43.296131,"lon":5.370791,"is_reserved":false,"is_disabled":false,"rental_uris":{"android":"levelo://app?vid=7090af61-ae25-455d-b39d-ba67c427df4f","ios":"levelo://app?vid=7090af61-ae25-455d-b39d-ba67c427df4f"},"vehicle_type_id":"4","last_reported":1702134359,"current_range_meters":4000,"station_id":"ce4bgnh2rcd13ifvqc0g","pricing_plan_id":"free"},{"bike_id":"ea2d4f7c-c131-4f14-a7bc-f5c2879d4424","system_id":"levelo_inurba_marseille","lat":43.29639,"lon":5.37276,"is_reserved":false,"is_disabled":false,"rental_uris":{"android":"levelo://app?vid=ea2d4f7c-c131-4f14-a7bc-f5c2879d4424","ios":"levelo://app?vid=ea2d4f7c-c131-4f14-a7bc-f5c2879d4424"},"vehicle_type_id":"4","last_reported":1702134359,"current_range_meters":0,"station_id":"ce4bgk12rcd13ifvqbj0","pricing_plan_id":"free"},{"bike_id":"1370881e-b637-472a-91be-075df050bbcf","system_id":"levelo_inurba_marseille","lat":43.296131,"lon":5.370791,"is_reserved":false,"is_disabled":false,"rental_uris":{"android":"levelo://app?vid=1370881e-b637-472a-91be-075df050bbcf","ios":"levelo://app?vid=1370881e-b637-472a-91be-075df050bbcf"},"vehicle_type_id":"4","last_reported":1702134359,"current_range_meters":20800,"station_id":"ce4bgnh2rcd13ifvqc0g","pricing_plan_id":"free"},{"bike_id":"a1677db0-59ea-459c-a58f-48fef61cb0d9","system_id":"levelo_inurba_marseille","lat":43.309589,"lon":5.390258,"is_reserved":false,"is_disabled":false,"rental_uris":{"android":"levelo://app?vid=a1677db0-59ea-459c-a58f-48fef61cb0d9","ios":"levelo://app?vid=a1677db0-59ea-459c-a58f-48fef61cb0d9"},"vehicle_type_id":"4","last_reported":1702134359,"current_range_meters":25600,"station_id":"ce4bgup2rcd13ifvqco0","pricing_plan_id":"free"},{"bike_id":"e1b4c256-0cd9-472a-8d13-ab4c125a5778","system_id":"levelo_inurba_marseille","lat":43.309589,"lon":5.390258,"is_reserved":false,"is_disabled":false,"rental_uris":{"android":"levelo://app?vid=e1b4c256-0cd9-472a-8d13-ab4c125a5778","ios":"levelo://app?vid=e1b4c256-0cd9-472a-8d13-ab4c125a5778"},"vehicle_type_id":"4","last_reported":1702134359,"current_range_meters":12000,"station_id":"ce4bgup2rcd13ifvqco0","pricing_plan_id":"free"},{"bike_id":"97836a0f-2b1e-4c96-aef2-e504bf7280f3","system_id":"levelo_inurba_marseille","lat":43.295748,"lon":5.37522,"is_reserved":false,"is_disabled":false,"rental_uris":{"android":"levelo://app?vid=97836a0f-2b1e-4c96-aef2-e504bf7280f3","ios":"levelo://app?vid=97836a0f-2b1e-4c96-aef2-e504bf7280f3"},"vehicle_type_id":"4","last_reported":1702134359,"current_range_meters":18400,"station_id":"ce4bgh92rcd13ifvqb50","pricing_plan_id":"free"},{"bike_id":"b5d8aa92-f500-4532-9dcd-bf10fb27a4d5","system_id":"levelo_inurba_marseille","lat":43.295748,"lon":5.37522,"is_reserved":false,"is_disabled":false,"rental_uris":{"android":"levelo://app?vid=b5d8aa92-f500-4532-9dcd-bf10fb27a4d5","ios":"levelo://app?vid=b5d8aa92-f500-4532-9dcd-bf10fb27a4d5"},"vehicle_type_id":"4","last_reported":1702134359,"current_range_meters":6400,"station_id":"ce4bgh92rcd13ifvqb50","pricing_plan_id":"free"},{"bike_id":"147996b2-87c5-414b-9558-9ec7f16fc938","system_id":"levelo_inurba_marseille","lat":43.29573,"lon":5.37513,"is_reserved":false,"is_disabled":false,"rental_uris":{"android":"levelo://app?vid=147996b2-87c5-414b-9558-9ec7f16fc938","ios":"levelo://app?vid=147996b2-87c5-414b-9558-9ec7f16fc938"},"vehicle_type_id":"4","last_reported":1702134359,"current_range_meters":0,"station_id":"ce4bgh92rcd13ifvqb50","pricing_plan_id":"free"},{"bike_id":"308519fa-72cc-4b4e-8f1e-7a3e8ef75ab4","system_id":"levelo_inurba_marseille","lat":43.296263,"lon":5.377094,"is_reserved":false,"is_disabled":false,"rental_uris":{"android":"levelo://app?vid=308519fa-72cc-4b4e-8f1e-7a3e8ef75ab4","ios":"levelo://app?vid=308519fa-72cc-4b4e-8f1e-7a3e8ef75ab4"},"vehicle_type_id":"4","last_reported":1702134359,"current_range_meters":800,"station_id":"ce4bgi92rcd13ifvqb90","pricing_plan_id":"free"},{"bike_id":"a5666bc0-f9cd-4294-a668-fa1a988188f1","system_id":"levelo_inurba_marseille","lat":43.296263,"lon":5.377094,"is_reserved":false,"is_disabled":false,"rental_uris":{"android":"levelo://app?vid=a5666bc0-f9cd-4294-a668-fa1a988188f1","ios":"levelo://app?vid=a5666bc0-f9cd-4294-a668-fa1a988188f1"},"vehicle_type_id":"4","last_reported":1702134359,"current_range_meters":800,"station_id":"ce4bgi92rcd13ifvqb90","pricing_plan_id":"free"},{"bike_id":"159f8156-81a1-4eb6-a3c0-57d017679def","system_id":"levelo_inurba_marseille","lat":43.309589,"lon":5.390258,"is_reserved":false,"is_disabled":false,"rental_uris":{"android":"levelo://app?vid=159f8156-81a1-4eb6-a3c0-57d017679def","ios":"levelo://app?vid=159f8156-81a1-4eb6-a3c0-57d017679def"},"vehicle_type_id":"4","last_reported":1702134359,"current_range_meters":22800,"station_id":"ce4bgup2rcd13ifvqco0","pricing_plan_id":"free"},{"bike_id":"a1fc7545-e819-47e5-a30f-ac306533e140","system_id":"levelo_inurba_marseille","lat":43.29573,"lon":5.367355,"is_reserved":false,"is_disabled":false,"rental_uris":{"android":"levelo://app?vid=a1fc7545-e819-47e5-a30f-ac306533e140","ios":"levelo://app?vid=a1fc7545-e819-47e5-a30f-ac306533e140"},"vehicle_type_id":"4","last_reported":1702134359,"current_range_meters":0,"station_id":"ce4bgph2rcd13ifvqc2g","pricing_plan_id":"free"},{"bike_id":"5fbb1aeb-b2d8-41a6-b2bf-b74d685084bb","system_id":"levelo_inurba_marseille","lat":43.292749,"lon":5.368402,"is_reserved":false,"is_disabled":false,"rental_uris":{"android":"levelo://app?vid=5fbb1aeb-b2d8-41a6-b2bf-b74d685084bb","ios":"levelo://app?vid=5fbb1aeb-b2d8-41a6-b2bf-b74d685084bb"},"vehicle_type_id":"4","last_reported":1702134359,"current_range_meters":7600,"station_id":"ce4bhbp2rcd13ifvqesg","pricing_plan_id":"free"},{"bike_id":"62617b67-3608-4275-af52-5baea3403c74","system_id":"levelo_inurba_marseille","lat":43.292749,"lon":5.368402,"is_reserved":false,"is_disabled":false,"rental_uris":{"android":"levelo://app?vid=62617b67-3608-4275-af52-5baea3403c74","ios":"levelo://app?vid=62617b67-3608-4275-af52-5baea3403c74"},"vehicle_type_id":"4","last_reported":1702134359,"current_range_meters":7200,"station_id":"ce4bhbp2rcd13ifvqesg","pricing_plan_id":"free"},{"bike_id":"45f38ae0-3406-41b4-94ec-c62c9545775a","system_id":"levelo_inurba_marseille","lat":43.29275,"lon":5.36842,"is_reserved":false,"is_disabled":false,"rental_uris":{"android":"levelo://app?vid=45f38ae0-3406-41b4-94ec-c62c9545775a","ios":"levelo://app?vid=45f38ae0-3406-41b4-94ec-c62c9545775a"},"vehicle_type_id":"4","last_reported":1702134359,"current_range_meters":20400,"station_id":"ce4bhbp2rcd13ifvqesg","pricing_plan_id":"free"},{"bike_id":"64b3b0c9-5361-4488-aa67-757d6bb48b69","system_id":"levelo_inurba_marseille","lat":43.292311,"lon":5.360731,"is_reserved":false,"is_disabled":false,"rental_uris":{"android":"levelo://app?vid=64b3b0c9-5361-4488-aa67-757d6bb48b69","ios":"levelo://app?vid=64b3b0c9-5361-4488-aa67-757d6bb48b69"},"vehicle_type_id":"4","last_reported":1702134359,"current_range_meters":26800,"station_id":"ce4bhbh2rcd13ifvqeqg","pricing_plan_id":"free"},{"bike_id":"ffe8e861-9583-46be-9da3-462d5c1037ee","system_id":"levelo_inurba_marseille","lat":43.29251,"lon":5.37629,"is_reserved":false,"is_disabled":false,"rental_uris":{"android":"levelo://app?vid=ffe8e861-9583-46be-9da3-462d5c1037ee","ios":"levelo://app?vid=ffe8e861-9583-46be-9da3-462d5c1037ee"},"vehicle_type_id":"4","last_reported":1702134359,"current_range_meters":11200,"station_id":"ce4bgi12rcd13ifvqb80","pricing_plan_id":"free"},{"bike_id":"d3423084-58e3-449d-bd9d-1bcb0e268dca","system_id":"levelo_inurba_marseille","lat":43.291633,"lon":5.373413,"is_reserved":false,"is_disabled":false,"rental_uris":{"android":"levelo://app?vid=d3423084-58e3-449d-bd9d-1bcb0e268dca","ios":"levelo://app?vid=d3423084-58e3-449d-bd9d-1bcb0e268dca"},"vehicle_type_id":"4","last_reported":1702134359,"current_range_meters":0,"station_id":"","pricing_plan_id":"free"},{"bike_id":"dfbd3411-9b58-438f-b740-8bbc50d70b2c","system_id":"levelo_inurba_marseille","lat":43.29187,"lon":5.35797,"is_reserved":false,"is_disabled":false,"rental_uris":{"android":"levelo://app?vid=dfbd3411-9b58-438f-b740-8bbc50d70b2c","ios":"levelo://app?vid=dfbd3411-9b58-438f-b740-8bbc50d70b2c"},"vehicle_type_id":"4","last_reported":1702134359,"current_range_meters":16400,"station_id":"ce4bhb12rcd13ifvqel0","pricing_plan_id":"free"},{"bike_id":"19743186-bb41-42fd-8ac4-16b16935cadf","system_id":"levelo_inurba_marseille","lat":43.29529,"lon":5.385581,"is_reserved":false,"is_disabled":false,"rental_uris":{"android":"levelo://app?vid=19743186-bb41-42fd-8ac4-16b16935cadf","ios":"levelo://app?vid=19743186-bb41-42fd-8ac4-16b16935cadf"},"vehicle_type_id":"4","last_reported":1702134359,"current_range_meters":22800,"station_id":"ce4bgih2rcd13ifvqba0","pricing_plan_id":"free"},{"bike_id":"783f484a-ab40-4caf-ad89-ed14d89a896e","system_id":"levelo_inurba_marseille","lat":43.290624,"lon":5.359245,"is_reserved":false,"is_disabled":false,"rental_uris":{"android":"levelo://app?vid=783f484a-ab40-4caf-ad89-ed14d89a896e","ios":"levelo://app?vid=783f484a-ab40-4caf-ad89-ed14d89a896e"},"vehicle_type_id":"4","last_reported":1702134359,"current_range_meters":12800,"station_id":"ce4bha92rcd13ifvqeg0","pricing_plan_id":"free"},{"bike_id":"d2f197a9-fbfe-4367-a9c2-049f6f7509d5","system_id":"levelo_inurba_marseille","lat":43.294153,"lon":5.386305,"is_reserved":false,"is_disabled":false,"rental_uris":{"android":"levelo://app?vid=d2f197a9-fbfe-4367-a9c2-049f6f7509d5","ios":"levelo://app?vid=d2f197a9-fbfe-4367-a9c2-049f6f7509d5"},"vehicle_type_id":"4","last_reported":1702134359,"current_range_meters":20000,"station_id":"ce4bh2h2rcd13ifvqdh0","pricing_plan_id":"free"},{"bike_id":"1c906c1d-f0ab-47f9-81b0-f87796f0356f","system_id":"levelo_inurba_marseille","lat":43.294162,"lon":5.386292,"is_reserved":false,"is_disabled":false,"rental_uris":{"android":"levelo://app?vid=1c906c1d-f0ab-47f9-81b0-f87796f0356f","ios":"levelo://app?vid=1c906c1d-f0ab-47f9-81b0-f87796f0356f"},"vehicle_type_id":"4","last_reported":1702134359,"current_range_meters":29600,"station_id":"ce4bh2h2rcd13ifvqdh0","pricing_plan_id":"free"},{"bike_id":"89573802-fe94-434b-990f-ba40ac60bf75","system_id":"levelo_inurba_marseille","lat":43.289184,"lon":5.366408,"is_reserved":false,"is_disabled":false,"rental_uris":{"android":"levelo://app?vid=89573802-fe94-434b-990f-ba40ac60bf75","ios":"levelo://app?vid=89573802-fe94-434b-990f-ba40ac60bf75"},"vehicle_type_id":"4","last_reported":1702134359,"current_range_meters":30400,"station_id":"ce4bhap2rcd13ifvqek0","pricing_plan_id":"free"},{"bike_id":"a02a1b20-1fb1-4951-988a-77389649024d","system_id":"levelo_inurba_marseille","lat":43.289259,"lon":5.366364,"is_reserved":false,"is_disabled":false,"rental_uris":{"android":"levelo://app?vid=a02a1b20-1fb1-4951-988a-77389649024d","ios":"levelo://app?vid=a02a1b20-1fb1-4951-988a-77389649024d"},"vehicle_type_id":"4","last_reported":1702134359,"current_range_meters":11600,"station_id":"","pricing_plan_id":"free"},{"bike_id":"300726c2-817c-43a7-a25f-cb310d662430","system_id":"levelo_inurba_marseille","lat":43.304274,"lon":5.397513,"is_reserved":false,"is_disabled":false,"rental_uris":{"android":"levelo://app?vid=300726c2-817c-43a7-a25f-cb310d662430","ios":"levelo://app?vid=300726c2-817c-43a7-a25f-cb310d662430"},"vehicle_type_id":"4","last_reported":1702134359,"current_range_meters":21600,"station_id":"ce4bh092rcd13ifvqd20","pricing_plan_id":"free"},{"bike_id":"12e375af-7a45-430d-9e72-65c36faf78ae","system_id":"levelo_inurba_marseille","lat":43.290104,"lon":5.356111,"is_reserved":false,"is_disabled":false,"rental_uris":{"android":"levelo://app?vid=12e375af-7a45-430d-9e72-65c36faf78ae","ios":"levelo://app?vid=12e375af-7a45-430d-9e72-65c36faf78ae"},"vehicle_type_id":"4","last_reported":1702134359,"current_range_meters":0,"station_id":"ce4bhb92rcd13ifvqen0","pricing_plan_id":"free"},{"bike_id":"f6e53faf-2ee5-41d0-8c49-801d03a142b0","system_id":"levelo_inurba_marseille","lat":43.289741,"lon":5.378306,"is_reserved":false,"is_disabled":false,"rental_uris":{"android":"levelo://app?vid=f6e53faf-2ee5-41d0-8c49-801d03a142b0","ios":"levelo://app?vid=f6e53faf-2ee5-41d0-8c49-801d03a142b0"},"vehicle_type_id":"4","last_reported":1702134359,"current_range_meters":8000,"station_id":"ce4bh9p2rcd13ifvqed0","pricing_plan_id":"free"},{"bike_id":"04445949-01da-4a14-9972-2ce17f7a1d41","system_id":"levelo_inurba_marseille","lat":43.33775,"lon":5.37432,"is_reserved":false,"is_disabled":false,"rental_uris":{"android":"levelo://app?vid=04445949-01da-4a14-9972-2ce17f7a1d41","ios":"levelo://app?vid=04445949-01da-4a14-9972-2ce17f7a1d41"},"vehicle_type_id":"4","last_reported":1702134359,"current_range_meters":26400,"station_id":"","pricing_plan_id":"free"},{"bike_id":"7d9492bd-ca7e-45d8-8736-bacb797f9129","system_id":"levelo_inurba_marseille","lat":43.306412,"lon":5.401035,"is_reserved":false,"is_disabled":false,"rental_uris":{"android":"levelo://app?vid=7d9492bd-ca7e-45d8-8736-bacb797f9129","ios":"levelo://app?vid=7d9492bd-ca7e-45d8-8736-bacb797f9129"},"vehicle_type_id":"4","last_reported":1702134359,"current_range_meters":5200,"station_id":"ce4bh112rcd13ifvqda0","pricing_plan_id":"free"},{"bike_id":"2b71e27a-d058-489d-8c1f-ab27ed9aa8c8","system_id":"levelo_inurba_marseille","lat":43.28727,"lon":5.36078,"is_reserved":false,"is_disabled":false,"rental_uris":{"android":"levelo://app?vid=2b71e27a-d058-489d-8c1f-ab27ed9aa8c8","ios":"levelo://app?vid=2b71e27a-d058-489d-8c1f-ab27ed9aa8c8"},"vehicle_type_id":"4","last_reported":1702134359,"current_range_meters":6800,"station_id":"cki0cbj6b192h4jlfktg","pricing_plan_id":"free"},{"bike_id":"49e4946f-d6ab-4d44-bfd1-19dba1dc7b21","system_id":"levelo_inurba_marseille","lat":43.298681,"lon":5.397225,"is_reserved":false,"is_disabled":false,"rental_uris":{"android":"levelo://app?vid=49e4946f-d6ab-4d44-bfd1-19dba1dc7b21","ios":"levelo://app?vid=49e4946f-d6ab-4d44-bfd1-19dba1dc7b21"},"vehicle_type_id":"4","last_reported":1702134359,"current_range_meters":21600,"station_id":"ce4bh0h2rcd13ifvqd50","pricing_plan_id":"free"},{"bike_id":"de691e4d-8614-42d1-bcff-2596d79e2a2e","system_id":"levelo_inurba_marseille","lat":43.290336,"lon":5.386425,"is_reserved":false,"is_disabled":false,"rental_uris":{"android":"levelo://app?vid=de691e4d-8614-42d1-bcff-2596d79e2a2e","ios":"levelo://app?vid=de691e4d-8614-42d1-bcff-2596d79e2a2e"},"vehicle_type_id":"4","last_reported":1702134359,"current_range_meters":400,"station_id":"ce4bh4p2rcd13ifvqe0g","pricing_plan_id":"free"},{"bike_id":"11827d9c-dab2-4e6e-a8a5-19328753934f","system_id":"levelo_inurba_marseille","lat":43.286039,"lon":5.370681,"is_reserved":false,"is_disabled":false,"rental_uris":{"android":"levelo://app?vid=11827d9c-dab2-4e6e-a8a5-19328753934f","ios":"levelo://app?vid=11827d9c-dab2-4e6e-a8a5-19328753934f"},"vehicle_type_id":"4","last_reported":1702134359,"current_range_meters":16400,"station_id":"ce4bht12rcd13ifvqi60","pricing_plan_id":"free"},{"bike_id":"c67e36dd-e83c-41c4-bce6-57b26530bb01","system_id":"levelo_inurba_marseille","lat":43.286039,"lon":5.370679,"is_reserved":false,"is_disabled":false,"rental_uris":{"android":"levelo://app?vid=c67e36dd-e83c-41c4-bce6-57b26530bb01","ios":"levelo://app?vid=c67e36dd-e83c-41c4-bce6-57b26530bb01"},"vehicle_type_id":"4","last_reported":1702134359,"current_range_meters":5200,"station_id":"ce4bht12rcd13ifvqi60","pricing_plan_id":"free"},{"bike_id":"49658399-508d-489c-8ecf-17152ba09692","system_id":"levelo_inurba_marseille","lat":43.286039,"lon":5.370679,"is_reserved":false,"is_disabled":false,"rental_uris":{"android":"levelo://app?vid=49658399-508d-489c-8ecf-17152ba09692","ios":"levelo://app?vid=49658399-508d-489c-8ecf-17152ba09692"},"vehicle_type_id":"4","last_reported":1702134359,"current_range_meters":30000,"station_id":"ce4bht12rcd13ifvqi60","pricing_plan_id":"free"},{"bike_id":"d4f1b3ed-9743-4075-9eec-5ea73c57dfa1","system_id":"levelo_inurba_marseille","lat":43.316828,"lon":5.404723,"is_reserved":false,"is_disabled":false,"rental_uris":{"android":"levelo://app?vid=d4f1b3ed-9743-4075-9eec-5ea73c57dfa1","ios":"levelo://app?vid=d4f1b3ed-9743-4075-9eec-5ea73c57dfa1"},"vehicle_type_id":"4","last_reported":1702134359,"current_range_meters":0,"station_id":"ce4bh012rcd13ifvqd00","pricing_plan_id":"free"},{"bike_id":"b1cf208d-96d5-4034-b32d-1d8648606694","system_id":"levelo_inurba_marseille","lat":43.291994,"lon":5.392907,"is_reserved":false,"is_disabled":false,"rental_uris":{"android":"levelo://app?vid=b1cf208d-96d5-4034-b32d-1d8648606694","ios":"levelo://app?vid=b1cf208d-96d5-4034-b32d-1d8648606694"},"vehicle_type_id":"4","last_reported":1702134359,"current_range_meters":28400,"station_id":"ce4bh192rcd13ifvqdd0","pricing_plan_id":"free"},{"bike_id":"94099249-0ba8-4239-9308-6b77fe0cbc14","system_id":"levelo_inurba_marseille","lat":43.284538,"lon":5.358657,"is_reserved":false,"is_disabled":false,"rental_uris":{"android":"levelo://app?vid=94099249-0ba8-4239-9308-6b77fe0cbc14","ios":"levelo://app?vid=94099249-0ba8-4239-9308-6b77fe0cbc14"},"vehicle_type_id":"4","last_reported":1702134359,"current_range_meters":28000,"station_id":"ce4bhah2rcd13ifvqei0","pricing_plan_id":"free"},{"bike_id":"ce1c8088-d5c0-40c9-9a58-ff1c00f1865d","system_id":"levelo_inurba_marseille","lat":43.28457,"lon":5.35891,"is_reserved":false,"is_disabled":false,"rental_uris":{"android":"levelo://app?vid=ce1c8088-d5c0-40c9-9a58-ff1c00f1865d","ios":"levelo://app?vid=ce1c8088-d5c0-40c9-9a58-ff1c00f1865d"},"vehicle_type_id":"4","last_reported":1702134359,"current_range_meters":0,"station_id":"ce4bhah2rcd13ifvqei0","pricing_plan_id":"free"},{"bike_id":"b3deb9d8-ef66-4c0d-98a2-263daf394b9f","system_id":"levelo_inurba_marseille","lat":43.295713,"lon":5.399639,"is_reserved":false,"is_disabled":false,"rental_uris":{"android":"levelo://app?vid=b3deb9d8-ef66-4c0d-98a2-263daf394b9f","ios":"levelo://app?vid=b3deb9d8-ef66-4c0d-98a2-263daf394b9f"},"vehicle_type_id":"4","last_reported":1702134359,"current_range_meters":23200,"station_id":"ce4bh312rcd13ifvqdj0","pricing_plan_id":"free"},{"bike_id":"91159634-7ccb-4e33-8c52-ab85d5c58e3e","system_id":"levelo_inurba_marseille","lat":43.33724,"lon":5.39191,"is_reserved":false,"is_disabled":false,"rental_uris":{"android":"levelo://app?vid=91159634-7ccb-4e33-8c52-ab85d5c58e3e","ios":"levelo://app?vid=91159634-7ccb-4e33-8c52-ab85d5c58e3e"},"vehicle_type_id":"4","last_reported":1702134359,"current_range_meters":21600,"station_id":"ce4bhr92rcd13ifvqhsg","pricing_plan_id":"free"},{"bike_id":"00b636d5-ea6a-4a01-9e78-08053ab9b7fc","system_id":"levelo_inurba_marseille","lat":43.323464,"lon":5.406297,"is_reserved":false,"is_disabled":false,"rental_uris":{"android":"levelo://app?vid=00b636d5-ea6a-4a01-9e78-08053ab9b7fc","ios":"levelo://app?vid=00b636d5-ea6a-4a01-9e78-08053ab9b7fc"},"vehicle_type_id":"4","last_reported":1702134359,"current_range_meters":8000,"station_id":"ce4bhq92rcd13ifvqhjg","pricing_plan_id":"free"},{"bike_id":"efe9d2cc-d0eb-4e85-b313-6bf62b4d4d4c","system_id":"levelo_inurba_marseille","lat":43.33725,"lon":5.39195,"is_reserved":false,"is_disabled":false,"rental_uris":{"android":"levelo://app?vid=efe9d2cc-d0eb-4e85-b313-6bf62b4d4d4c","ios":"levelo://app?vid=efe9d2cc-d0eb-4e85-b313-6bf62b4d4d4c"},"vehicle_type_id":"4","last_reported":1702134359,"current_range_meters":0,"station_id":"ce4bhr92rcd13ifvqhsg","pricing_plan_id":"free"},{"bike_id":"d2cc54f8-b3e1-4bdf-a7c1-3f90027ac659","system_id":"levelo_inurba_marseille","lat":43.283498,"lon":5.380948,"is_reserved":false,"is_disabled":false,"rental_uris":{"android":"levelo://app?vid=d2cc54f8-b3e1-4bdf-a7c1-3f90027ac659","ios":"levelo://app?vid=d2cc54f8-b3e1-4bdf-a7c1-3f90027ac659"},"vehicle_type_id":"4","last_reported":1702134359,"current_range_meters":20800,"station_id":"ce4bh412rcd13ifvqdr0","pricing_plan_id":"free"},{"bike_id":"04a28714-e558-40a1-874a-9e323a661b10","system_id":"levelo_inurba_marseille","lat":43.283498,"lon":5.380948,"is_reserved":false,"is_disabled":false,"rental_uris":{"android":"levelo://app?vid=04a28714-e558-40a1-874a-9e323a661b10","ios":"levelo://app?vid=04a28714-e558-40a1-874a-9e323a661b10"},"vehicle_type_id":"4","last_reported":1702134359,"current_range_meters":19200,"station_id":"ce4bh412rcd13ifvqdr0","pricing_plan_id":"free"},{"bike_id":"c520f11f-28b2-48fc-961d-4862d6a3212d","system_id":"levelo_inurba_marseille","lat":43.282754,"lon":5.350519,"is_reserved":false,"is_disabled":false,"rental_uris":{"android":"levelo://app?vid=c520f11f-28b2-48fc-961d-4862d6a3212d","ios":"levelo://app?vid=c520f11f-28b2-48fc-961d-4862d6a3212d"},"vehicle_type_id":"4","last_reported":1702134359,"current_range_meters":2400,"station_id":"ce4bhbp2rcd13ifvqerg","pricing_plan_id":"free"},{"bike_id":"f49a151c-bb02-4610-92d0-f1c616fd8227","system_id":"levelo_inurba_marseille","lat":43.282726,"lon":5.350574,"is_reserved":false,"is_disabled":false,"rental_uris":{"android":"levelo://app?vid=f49a151c-bb02-4610-92d0-f1c616fd8227","ios":"levelo://app?vid=f49a151c-bb02-4610-92d0-f1c616fd8227"},"vehicle_type_id":"4","last_reported":1702134359,"current_range_meters":4400,"station_id":"","pricing_plan_id":"free"},{"bike_id":"7dc68396-bf4e-4bd8-9a33-abb6eb8cc026","system_id":"levelo_inurba_marseille","lat":43.28269,"lon":5.35066,"is_reserved":false,"is_disabled":false,"rental_uris":{"android":"levelo://app?vid=7dc68396-bf4e-4bd8-9a33-abb6eb8cc026","ios":"levelo://app?vid=7dc68396-bf4e-4bd8-9a33-abb6eb8cc026"},"vehicle_type_id":"4","last_reported":1702134359,"current_range_meters":0,"station_id":"ce4bhbp2rcd13ifvqerg","pricing_plan_id":"free"},{"bike_id":"0cf5e634-92cd-4666-a755-3ed4209b2c8f","system_id":"levelo_inurba_marseille","lat":43.280349,"lon":5.369437,"is_reserved":false,"is_disabled":false,"rental_uris":{"android":"levelo://app?vid=0cf5e634-92cd-4666-a755-3ed4209b2c8f","ios":"levelo://app?vid=0cf5e634-92cd-4666-a755-3ed4209b2c8f"},"vehicle_type_id":"4","last_reported":1702134359,"current_range_meters":16400,"station_id":"","pricing_plan_id":"free"},{"bike_id":"453cbe3c-4dd3-4adb-88e9-7504ad5f4375","system_id":"levelo_inurba_marseille","lat":43.281044,"lon":5.378308,"is_reserved":false,"is_disabled":false,"rental_uris":{"android":"levelo://app?vid=453cbe3c-4dd3-4adb-88e9-7504ad5f4375","ios":"levelo://app?vid=453cbe3c-4dd3-4adb-88e9-7504ad5f4375"},"vehicle_type_id":"4","last_reported":1702134359,"current_range_meters":16800,"station_id":"ce4bha12rcd13ifvqee0","pricing_plan_id":"free"},{"bike_id":"1cd40ea5-1d49-4340-9cb1-104f1cd23bb7","system_id":"levelo_inurba_marseille","lat":43.284462,"lon":5.392121,"is_reserved":false,"is_disabled":false,"rental_uris":{"android":"levelo://app?vid=1cd40ea5-1d49-4340-9cb1-104f1cd23bb7","ios":"levelo://app?vid=1cd40ea5-1d49-4340-9cb1-104f1cd23bb7"},"vehicle_type_id":"4","last_reported":1702134359,"current_range_meters":10800,"station_id":"ce4bhoh2rcd13ifvqh5g","pricing_plan_id":"free"},{"bike_id":"7963e1a9-0a40-4730-a065-6cabc9fdea57","system_id":"levelo_inurba_marseille","lat":43.304188,"lon":5.412904,"is_reserved":false,"is_disabled":false,"rental_uris":{"android":"levelo://app?vid=7963e1a9-0a40-4730-a065-6cabc9fdea57","ios":"levelo://app?vid=7963e1a9-0a40-4730-a065-6cabc9fdea57"},"vehicle_type_id":"4","last_reported":1702134359,"current_range_meters":28800,"station_id":"ce4bhop2rcd13ifvqh8g","pricing_plan_id":"free"},{"bike_id":"32db2e4f-b305-40a5-9e0f-e2dbc3922ce9","system_id":"levelo_inurba_marseille","lat":43.287154,"lon":5.399979,"is_reserved":false,"is_disabled":false,"rental_uris":{"android":"levelo://app?vid=32db2e4f-b305-40a5-9e0f-e2dbc3922ce9","ios":"levelo://app?vid=32db2e4f-b305-40a5-9e0f-e2dbc3922ce9"},"vehicle_type_id":"4","last_reported":1702134359,"current_range_meters":20400,"station_id":"ce4bho92rcd13ifvqh3g","pricing_plan_id":"free"},{"bike_id":"92082b13-6552-4f67-b322-df67c1a25e72","system_id":"levelo_inurba_marseille","lat":43.299579,"lon":5.413255,"is_reserved":false,"is_disabled":false,"rental_uris":{"android":"levelo://app?vid=92082b13-6552-4f67-b322-df67c1a25e72","ios":"levelo://app?vid=92082b13-6552-4f67-b322-df67c1a25e72"},"vehicle_type_id":"4","last_reported":1702134359,"current_range_meters":26000,"station_id":"ce4bhp12rcd13ifvqh9g","pricing_plan_id":"free"},{"bike_id":"d0d8966d-9ca9-454d-a50b-732808682ecb","system_id":"levelo_inurba_marseille","lat":43.320045,"lon":5.415048,"is_reserved":false,"is_disabled":false,"rental_uris":{"android":"levelo://app?vid=d0d8966d-9ca9-454d-a50b-732808682ecb","ios":"levelo://app?vid=d0d8966d-9ca9-454d-a50b-732808682ecb"},"vehicle_type_id":"4","last_reported":1702134359,"current_range_meters":12800,"station_id":"ce4bhq92rcd13ifvqhkg","pricing_plan_id":"free"},{"bike_id":"42e7414e-f8ab-46d0-ac1e-77002569b24e","system_id":"levelo_inurba_marseille","lat":43.32046,"lon":5.41554,"is_reserved":false,"is_disabled":false,"rental_uris":{"android":"levelo://app?vid=42e7414e-f8ab-46d0-ac1e-77002569b24e","ios":"levelo://app?vid=42e7414e-f8ab-46d0-ac1e-77002569b24e"},"vehicle_type_id":"4","last_reported":1702134359,"current_range_meters":6400,"station_id":"ce4bhq92rcd13ifvqhkg","pricing_plan_id":"free"},{"bike_id":"dfa590ab-5f53-4aa2-a0b8-f348112f5b84","system_id":"levelo_inurba_marseille","lat":43.292571,"lon":5.409107,"is_reserved":false,"is_disabled":false,"rental_uris":{"android":"levelo://app?vid=dfa590ab-5f53-4aa2-a0b8-f348112f5b84","ios":"levelo://app?vid=dfa590ab-5f53-4aa2-a0b8-f348112f5b84"},"vehicle_type_id":"4","last_reported":1702134359,"current_range_meters":20000,"station_id":"ce4bh192rcd13ifvqdc0","pricing_plan_id":"free"},{"bike_id":"1e39760c-a9da-4fab-b243-2565f3099bb5","system_id":"levelo_inurba_marseille","lat":43.27614,"lon":5.36114,"is_reserved":false,"is_disabled":false,"rental_uris":{"android":"levelo://app?vid=1e39760c-a9da-4fab-b243-2565f3099bb5","ios":"levelo://app?vid=1e39760c-a9da-4fab-b243-2565f3099bb5"},"vehicle_type_id":"4","last_reported":1702134359,"current_range_meters":0,"station_id":"ce4bgj92rcd13ifvqbe0","pricing_plan_id":"free"},{"bike_id":"c36ae27f-e0f3-456e-ba05-65e3af21b179","system_id":"levelo_inurba_marseille","lat":43.33612,"lon":5.410321,"is_reserved":false,"is_disabled":false,"rental_uris":{"android":"levelo://app?vid=c36ae27f-e0f3-456e-ba05-65e3af21b179","ios":"levelo://app?vid=c36ae27f-e0f3-456e-ba05-65e3af21b179"},"vehicle_type_id":"4","last_reported":1702134359,"current_range_meters":2000,"station_id":"ce4bhqh2rcd13ifvqhmg","pricing_plan_id":"free"},{"bike_id":"31102c13-b896-4190-9c3e-e89c73582034","system_id":"levelo_inurba_marseille","lat":43.278401,"lon":5.392152,"is_reserved":false,"is_disabled":false,"rental_uris":{"android":"levelo://app?vid=31102c13-b896-4190-9c3e-e89c73582034","ios":"levelo://app?vid=31102c13-b896-4190-9c3e-e89c73582034"},"vehicle_type_id":"4","last_reported":1702134359,"current_range_meters":4800,"station_id":"ce4bhjp2rcd13ifvqga0","pricing_plan_id":"free"},{"bike_id":"d7415dad-edcd-4545-984b-116965ef03d0","system_id":"levelo_inurba_marseille","lat":43.273613,"lon":5.362705,"is_reserved":false,"is_disabled":false,"rental_uris":{"android":"levelo://app?vid=d7415dad-edcd-4545-984b-116965ef03d0","ios":"levelo://app?vid=d7415dad-edcd-4545-984b-116965ef03d0"},"vehicle_type_id":"4","last_reported":1702134359,"current_range_meters":400,"station_id":"ce4bhbh2rcd13ifvqeo0","pricing_plan_id":"free"},{"bike_id":"5ad125dc-a4bc-429a-97df-582bf36f5db5","system_id":"levelo_inurba_marseille","lat":43.276769,"lon":5.388787,"is_reserved":false,"is_disabled":false,"rental_uris":{"android":"levelo://app?vid=5ad125dc-a4bc-429a-97df-582bf36f5db5","ios":"levelo://app?vid=5ad125dc-a4bc-429a-97df-582bf36f5db5"},"vehicle_type_id":"4","last_reported":1702134359,"current_range_meters":8800,"station_id":"ce4bhi12rcd13ifvqfo0","pricing_plan_id":"free"},{"bike_id":"b32ce51f-7f78-43aa-bf73-ac58e4bdc27a","system_id":"levelo_inurba_marseille","lat":43.31724,"lon":5.42396,"is_reserved":false,"is_disabled":false,"rental_uris":{"android":"levelo://app?vid=b32ce51f-7f78-43aa-bf73-ac58e4bdc27a","ios":"levelo://app?vid=b32ce51f-7f78-43aa-bf73-ac58e4bdc27a"},"vehicle_type_id":"4","last_reported":1702134359,"current_range_meters":22800,"station_id":"ce4bhp92rcd13ifvqhbg","pricing_plan_id":"free"},{"bike_id":"88e59060-d458-48a8-8abe-8a1913097d92","system_id":"levelo_inurba_marseille","lat":43.31716,"lon":5.42402,"is_reserved":false,"is_disabled":false,"rental_uris":{"android":"levelo://app?vid=88e59060-d458-48a8-8abe-8a1913097d92","ios":"levelo://app?vid=88e59060-d458-48a8-8abe-8a1913097d92"},"vehicle_type_id":"4","last_reported":1702134359,"current_range_meters":24800,"station_id":"ce4bhp92rcd13ifvqhbg","pricing_plan_id":"free"},{"bike_id":"fc4bcc5b-5f4e-42a1-8cca-78d5c651475f","system_id":"levelo_inurba_marseille","lat":43.317121,"lon":5.423936,"is_reserved":false,"is_disabled":false,"rental_uris":{"android":"levelo://app?vid=fc4bcc5b-5f4e-42a1-8cca-78d5c651475f","ios":"levelo://app?vid=fc4bcc5b-5f4e-42a1-8cca-78d5c651475f"},"vehicle_type_id":"4","last_reported":1702134359,"current_range_meters":28400,"station_id":"ce4bhp92rcd13ifvqhbg","pricing_plan_id":"free"},{"bike_id":"80038031-3601-4c51-b66a-c6c9131d41d1","system_id":"levelo_inurba_marseille","lat":43.310785,"lon":5.424305,"is_reserved":false,"is_disabled":false,"rental_uris":{"android":"levelo://app?vid=80038031-3601-4c51-b66a-c6c9131d41d1","ios":"levelo://app?vid=80038031-3601-4c51-b66a-c6c9131d41d1"},"vehicle_type_id":"4","last_reported":1702134359,"current_range_meters":30400,"station_id":"ce4bhp92rcd13ifvqhag","pricing_plan_id":"free"},{"bike_id":"e6ff414d-6f05-44d2-b7c6-4a89a6fc64e2","system_id":"levelo_inurba_marseille","lat":43.31079,"lon":5.42429,"is_reserved":false,"is_disabled":false,"rental_uris":{"android":"levelo://app?vid=e6ff414d-6f05-44d2-b7c6-4a89a6fc64e2","ios":"levelo://app?vid=e6ff414d-6f05-44d2-b7c6-4a89a6fc64e2"},"vehicle_type_id":"4","last_reported":1702134359,"current_range_meters":5200,"station_id":"ce4bhp92rcd13ifvqhag","pricing_plan_id":"free"},{"bike_id":"fce8ef5a-0f61-4cfb-b8bb-9e1b28bf23ad","system_id":"levelo_inurba_marseille","lat":43.317121,"lon":5.423936,"is_reserved":false,"is_disabled":false,"rental_uris":{"android":"levelo://app?vid=fce8ef5a-0f61-4cfb-b8bb-9e1b28bf23ad","ios":"levelo://app?vid=fce8ef5a-0f61-4cfb-b8bb-9e1b28bf23ad"},"vehicle_type_id":"4","last_reported":1702134359,"current_range_meters":28800,"station_id":"ce4bhp92rcd13ifvqhbg","pricing_plan_id":"free"},{"bike_id":"e7bd1e73-4f86-473d-905c-a7b0f3d6ad8a","system_id":"levelo_inurba_marseille","lat":43.31723,"lon":5.42405,"is_reserved":false,"is_disabled":false,"rental_uris":{"android":"levelo://app?vid=e7bd1e73-4f86-473d-905c-a7b0f3d6ad8a","ios":"levelo://app?vid=e7bd1e73-4f86-473d-905c-a7b0f3d6ad8a"},"vehicle_type_id":"4","last_reported":1702134359,"current_range_meters":16800,"station_id":"ce4bhp92rcd13ifvqhbg","pricing_plan_id":"free"},{"bike_id":"48e3df08-57dc-434d-a06c-f6f751cd351f","system_id":"levelo_inurba_marseille","lat":43.310785,"lon":5.424305,"is_reserved":false,"is_disabled":false,"rental_uris":{"android":"levelo://app?vid=48e3df08-57dc-434d-a06c-f6f751cd351f","ios":"levelo://app?vid=48e3df08-57dc-434d-a06c-f6f751cd351f"},"vehicle_type_id":"4","last_reported":1702134359,"current_range_meters":19600,"station_id":"ce4bhp92rcd13ifvqhag","pricing_plan_id":"free"},{"bike_id":"02791883-a925-42a0-9dd3-b7193f6a574b","system_id":"levelo_inurba_marseille","lat":43.31704,"lon":5.42421,"is_reserved":false,"is_disabled":false,"rental_uris":{"android":"levelo://app?vid=02791883-a925-42a0-9dd3-b7193f6a574b","ios":"levelo://app?vid=02791883-a925-42a0-9dd3-b7193f6a574b"},"vehicle_type_id":"4","last_reported":1702134359,"current_range_meters":30400,"station_id":"ce4bhp92rcd13ifvqhbg","pricing_plan_id":"free"},{"bike_id":"63133364-316e-458e-b234-bbd4926c63fc","system_id":"levelo_inurba_marseille","lat":43.27583,"lon":5.39474,"is_reserved":false,"is_disabled":false,"rental_uris":{"android":"levelo://app?vid=63133364-316e-458e-b234-bbd4926c63fc","ios":"levelo://app?vid=63133364-316e-458e-b234-bbd4926c63fc"},"vehicle_type_id":"4","last_reported":1702134359,"current_range_meters":7600,"station_id":"","pricing_plan_id":"free"},{"bike_id":"3e3ed603-de7e-478a-9309-3093a7142021","system_id":"levelo_inurba_marseille","lat":43.273125,"lon":5.390731,"is_reserved":false,"is_disabled":false,"rental_uris":{"android":"levelo://app?vid=3e3ed603-de7e-478a-9309-3093a7142021","ios":"levelo://app?vid=3e3ed603-de7e-478a-9309-3093a7142021"},"vehicle_type_id":"4","last_reported":1702134359,"current_range_meters":400,"station_id":"ce4bhgp2rcd13ifvqfe0","pricing_plan_id":"free"},{"bike_id":"15a6dba8-a72f-42ca-96a6-e596259bb0e0","system_id":"levelo_inurba_marseille","lat":43.273125,"lon":5.390731,"is_reserved":false,"is_disabled":false,"rental_uris":{"android":"levelo://app?vid=15a6dba8-a72f-42ca-96a6-e596259bb0e0","ios":"levelo://app?vid=15a6dba8-a72f-42ca-96a6-e596259bb0e0"},"vehicle_type_id":"4","last_reported":1702134359,"current_range_meters":15600,"station_id":"ce4bhgp2rcd13ifvqfe0","pricing_plan_id":"free"},{"bike_id":"44574cd2-c892-43f9-8a3d-fe5302531250","system_id":"levelo_inurba_marseille","lat":43.27417,"lon":5.39411,"is_reserved":false,"is_disabled":false,"rental_uris":{"android":"levelo://app?vid=44574cd2-c892-43f9-8a3d-fe5302531250","ios":"levelo://app?vid=44574cd2-c892-43f9-8a3d-fe5302531250"},"vehicle_type_id":"4","last_reported":1702134359,"current_range_meters":6400,"station_id":"ce4bhdp2rcd13ifvqf20","pricing_plan_id":"free"},{"bike_id":"b81ba75a-e387-4087-a32a-750a7002e552","system_id":"levelo_inurba_marseille","lat":43.30413,"lon":5.42542,"is_reserved":false,"is_disabled":false,"rental_uris":{"android":"levelo://app?vid=b81ba75a-e387-4087-a32a-750a7002e552","ios":"levelo://app?vid=b81ba75a-e387-4087-a32a-750a7002e552"},"vehicle_type_id":"4","last_reported":1702134359,"current_range_meters":20400,"station_id":"ce4bhoh2rcd13ifvqh6g","pricing_plan_id":"free"},{"bike_id":"350dd4e5-cc9e-4183-8e6a-7241f01c6528","system_id":"levelo_inurba_marseille","lat":43.304096,"lon":5.425385,"is_reserved":false,"is_disabled":false,"rental_uris":{"android":"levelo://app?vid=350dd4e5-cc9e-4183-8e6a-7241f01c6528","ios":"levelo://app?vid=350dd4e5-cc9e-4183-8e6a-7241f01c6528"},"vehicle_type_id":"4","last_reported":1702134359,"current_range_meters":30000,"station_id":"ce4bhoh2rcd13ifvqh6g","pricing_plan_id":"free"},{"bike_id":"fc6794cf-495d-453d-b822-fc2923d07b21","system_id":"levelo_inurba_marseille","lat":43.30413,"lon":5.42544,"is_reserved":false,"is_disabled":false,"rental_uris":{"android":"levelo://app?vid=fc6794cf-495d-453d-b822-fc2923d07b21","ios":"levelo://app?vid=fc6794cf-495d-453d-b822-fc2923d07b21"},"vehicle_type_id":"4","last_reported":1702134359,"current_range_meters":31200,"station_id":"ce4bhoh2rcd13ifvqh6g","pricing_plan_id":"free"},{"bike_id":"4f9e48a0-eacd-4e63-bd3c-330b19e5c041","system_id":"levelo_inurba_marseille","lat":43.295511,"lon":5.422926,"is_reserved":false,"is_disabled":false,"rental_uris":{"android":"levelo://app?vid=4f9e48a0-eacd-4e63-bd3c-330b19e5c041","ios":"levelo://app?vid=4f9e48a0-eacd-4e63-bd3c-330b19e5c041"},"vehicle_type_id":"4","last_reported":1702134359,"current_range_meters":31200,"station_id":"ce4bhph2rcd13ifvqhdg","pricing_plan_id":"free"},{"bike_id":"8f021145-48f8-459b-aef0-f8921e18b0a0","system_id":"levelo_inurba_marseille","lat":43.27214,"lon":5.3925,"is_reserved":false,"is_disabled":false,"rental_uris":{"android":"levelo://app?vid=8f021145-48f8-459b-aef0-f8921e18b0a0","ios":"levelo://app?vid=8f021145-48f8-459b-aef0-f8921e18b0a0"},"vehicle_type_id":"4","last_reported":1702134359,"current_range_meters":1200,"station_id":"","pricing_plan_id":"free"},{"bike_id":"6bd374ee-2b2d-464f-b8f5-16e572bff2cd","system_id":"levelo_inurba_marseille","lat":43.278128,"lon":5.407195,"is_reserved":false,"is_disabled":false,"rental_uris":{"android":"levelo://app?vid=6bd374ee-2b2d-464f-b8f5-16e572bff2cd","ios":"levelo://app?vid=6bd374ee-2b2d-464f-b8f5-16e572bff2cd"},"vehicle_type_id":"4","last_reported":1702134359,"current_range_meters":7200,"station_id":"ce4bhnh2rcd13ifvqgtg","pricing_plan_id":"free"},{"bike_id":"796eb8e1-8854-4c4a-b8a4-4ce07b6cc25e","system_id":"levelo_inurba_marseille","lat":43.269467,"lon":5.386439,"is_reserved":false,"is_disabled":false,"rental_uris":{"android":"levelo://app?vid=796eb8e1-8854-4c4a-b8a4-4ce07b6cc25e","ios":"levelo://app?vid=796eb8e1-8854-4c4a-b8a4-4ce07b6cc25e"},"vehicle_type_id":"4","last_reported":1702134359,"current_range_meters":9600,"station_id":"ce4bhh92rcd13ifvqfh0","pricing_plan_id":"free"},{"bike_id":"b92b5360-b821-4da6-ae2c-a0ccfef7873e","system_id":"levelo_inurba_marseille","lat":43.269597,"lon":5.392997,"is_reserved":false,"is_disabled":false,"rental_uris":{"android":"levelo://app?vid=b92b5360-b821-4da6-ae2c-a0ccfef7873e","ios":"levelo://app?vid=b92b5360-b821-4da6-ae2c-a0ccfef7873e"},"vehicle_type_id":"4","last_reported":1702134359,"current_range_meters":12800,"station_id":"","pricing_plan_id":"free"},{"bike_id":"a229572a-0968-4ba0-92d5-8f00a2c34f88","system_id":"levelo_inurba_marseille","lat":43.26681,"lon":5.382694,"is_reserved":false,"is_disabled":false,"rental_uris":{"android":"levelo://app?vid=a229572a-0968-4ba0-92d5-8f00a2c34f88","ios":"levelo://app?vid=a229572a-0968-4ba0-92d5-8f00a2c34f88"},"vehicle_type_id":"4","last_reported":1702134359,"current_range_meters":16800,"station_id":"ce4bhg92rcd13ifvqf90","pricing_plan_id":"free"},{"bike_id":"4ee03235-2549-4e33-9c09-ec6c219d4e74","system_id":"levelo_inurba_marseille","lat":43.26894,"lon":5.393008,"is_reserved":false,"is_disabled":false,"rental_uris":{"android":"levelo://app?vid=4ee03235-2549-4e33-9c09-ec6c219d4e74","ios":"levelo://app?vid=4ee03235-2549-4e33-9c09-ec6c219d4e74"},"vehicle_type_id":"4","last_reported":1702134359,"current_range_meters":14000,"station_id":"","pricing_plan_id":"free"},{"bike_id":"9cc6f3fa-5456-4ac9-a0e7-3a96b2305652","system_id":"levelo_inurba_marseille","lat":43.27998,"lon":5.41661,"is_reserved":false,"is_disabled":false,"rental_uris":{"android":"levelo://app?vid=9cc6f3fa-5456-4ac9-a0e7-3a96b2305652","ios":"levelo://app?vid=9cc6f3fa-5456-4ac9-a0e7-3a96b2305652"},"vehicle_type_id":"4","last_reported":1702134359,"current_range_meters":29600,"station_id":"ce4bho12rcd13ifvqh1g","pricing_plan_id":"free"},{"bike_id":"19cc942f-ece9-40d3-8083-cccfba7fe5b1","system_id":"levelo_inurba_marseille","lat":43.279881,"lon":5.416579,"is_reserved":false,"is_disabled":false,"rental_uris":{"android":"levelo://app?vid=19cc942f-ece9-40d3-8083-cccfba7fe5b1","ios":"levelo://app?vid=19cc942f-ece9-40d3-8083-cccfba7fe5b1"},"vehicle_type_id":"4","last_reported":1702134359,"current_range_meters":2800,"station_id":"ce4bho12rcd13ifvqh1g","pricing_plan_id":"free"},{"bike_id":"0e90743a-e35f-4f9a-a4e1-956222e7ce58","system_id":"levelo_inurba_marseille","lat":43.265714,"lon":5.372891,"is_reserved":false,"is_disabled":false,"rental_uris":{"android":"levelo://app?vid=0e90743a-e35f-4f9a-a4e1-956222e7ce58","ios":"levelo://app?vid=0e90743a-e35f-4f9a-a4e1-956222e7ce58"},"vehicle_type_id":"4","last_reported":1702134359,"current_range_meters":6400,"station_id":"ce4bhg12rcd13ifvqf70","pricing_plan_id":"free"},{"bike_id":"10bd98e0-d0a2-4a25-a407-cc97034aa68c","system_id":"levelo_inurba_marseille","lat":43.317123,"lon":5.437043,"is_reserved":false,"is_disabled":false,"rental_uris":{"android":"levelo://app?vid=10bd98e0-d0a2-4a25-a407-cc97034aa68c","ios":"levelo://app?vid=10bd98e0-d0a2-4a25-a407-cc97034aa68c"},"vehicle_type_id":"4","last_reported":1702134359,"current_range_meters":30800,"station_id":"ce4bhp92rcd13ifvqhcg","pricing_plan_id":"free"},{"bike_id":"644d4821-bbb4-4599-853c-a62186b9155b","system_id":"levelo_inurba_marseille","lat":43.317104,"lon":5.436818,"is_reserved":false,"is_disabled":false,"rental_uris":{"android":"levelo://app?vid=644d4821-bbb4-4599-853c-a62186b9155b","ios":"levelo://app?vid=644d4821-bbb4-4599-853c-a62186b9155b"},"vehicle_type_id":"4","last_reported":1702134359,"current_range_meters":30000,"station_id":"ce4bhp92rcd13ifvqhcg","pricing_plan_id":"free"},{"bike_id":"6202724c-290a-4452-b16b-ff76a62085a3","system_id":"levelo_inurba_marseille","lat":43.31713,"lon":5.4371,"is_reserved":false,"is_disabled":false,"rental_uris":{"android":"levelo://app?vid=6202724c-290a-4452-b16b-ff76a62085a3","ios":"levelo://app?vid=6202724c-290a-4452-b16b-ff76a62085a3"},"vehicle_type_id":"4","last_reported":1702134359,"current_range_meters":31200,"station_id":"ce4bhp92rcd13ifvqhcg","pricing_plan_id":"free"},{"bike_id":"c4fd7c39-88eb-4b62-b4cc-922202e2b3b4","system_id":"levelo_inurba_marseille","lat":43.267959,"lon":5.402685,"is_reserved":false,"is_disabled":false,"rental_uris":{"android":"levelo://app?vid=c4fd7c39-88eb-4b62-b4cc-922202e2b3b4","ios":"levelo://app?vid=c4fd7c39-88eb-4b62-b4cc-922202e2b3b4"},"vehicle_type_id":"4","last_reported":1702134359,"current_range_meters":4000,"station_id":"ce501612rcd8frsf0b60","pricing_plan_id":"free"},{"bike_id":"f48996eb-6260-4d94-89bc-c2cb738c65bc","system_id":"levelo_inurba_marseille","lat":43.281548,"lon":5.42643,"is_reserved":false,"is_disabled":false,"rental_uris":{"android":"levelo://app?vid=f48996eb-6260-4d94-89bc-c2cb738c65bc","ios":"levelo://app?vid=f48996eb-6260-4d94-89bc-c2cb738c65bc"},"vehicle_type_id":"4","last_reported":1702134359,"current_range_meters":26400,"station_id":"ce4bhnh2rcd13ifvqgug","pricing_plan_id":"free"},{"bike_id":"5215ad78-0811-4492-88ee-04afc35bf3a5","system_id":"levelo_inurba_marseille","lat":43.298768,"lon":5.43643,"is_reserved":false,"is_disabled":false,"rental_uris":{"android":"levelo://app?vid=5215ad78-0811-4492-88ee-04afc35bf3a5","ios":"levelo://app?vid=5215ad78-0811-4492-88ee-04afc35bf3a5"},"vehicle_type_id":"4","last_reported":1702134359,"current_range_meters":31600,"station_id":"ce4bhpp2rcd13ifvqhfg","pricing_plan_id":"free"},{"bike_id":"c4a32d8b-8a0b-4189-aa9f-2983a413dfe8","system_id":"levelo_inurba_marseille","lat":43.299,"lon":5.43662,"is_reserved":false,"is_disabled":false,"rental_uris":{"android":"levelo://app?vid=c4a32d8b-8a0b-4189-aa9f-2983a413dfe8","ios":"levelo://app?vid=c4a32d8b-8a0b-4189-aa9f-2983a413dfe8"},"vehicle_type_id":"4","last_reported":1702134359,"current_range_meters":30400,"station_id":"ce4bhpp2rcd13ifvqhfg","pricing_plan_id":"free"},{"bike_id":"4f68f183-a711-4386-a731-e8ea8e2f115e","system_id":"levelo_inurba_marseille","lat":43.298768,"lon":5.43643,"is_reserved":false,"is_disabled":false,"rental_uris":{"android":"levelo://app?vid=4f68f183-a711-4386-a731-e8ea8e2f115e","ios":"levelo://app?vid=4f68f183-a711-4386-a731-e8ea8e2f115e"},"vehicle_type_id":"4","last_reported":1702134359,"current_range_meters":25600,"station_id":"ce4bhpp2rcd13ifvqhfg","pricing_plan_id":"free"},{"bike_id":"83e2018e-7127-4415-8bbf-2e347a9c6750","system_id":"levelo_inurba_marseille","lat":43.298953,"lon":5.436635,"is_reserved":false,"is_disabled":false,"rental_uris":{"android":"levelo://app?vid=83e2018e-7127-4415-8bbf-2e347a9c6750","ios":"levelo://app?vid=83e2018e-7127-4415-8bbf-2e347a9c6750"},"vehicle_type_id":"4","last_reported":1702134359,"current_range_meters":29600,"station_id":"ce4bhpp2rcd13ifvqhfg","pricing_plan_id":"free"},{"bike_id":"70c52fa1-91be-4fbd-9217-7a0c668f9310","system_id":"levelo_inurba_marseille","lat":43.29899,"lon":5.43665,"is_reserved":false,"is_disabled":false,"rental_uris":{"android":"levelo://app?vid=70c52fa1-91be-4fbd-9217-7a0c668f9310","ios":"levelo://app?vid=70c52fa1-91be-4fbd-9217-7a0c668f9310"},"vehicle_type_id":"4","last_reported":1702134359,"current_range_meters":25200,"station_id":"ce4bhpp2rcd13ifvqhfg","pricing_plan_id":"free"},{"bike_id":"ca4db8a8-5b98-4b78-bc3d-514f38028a3d","system_id":"levelo_inurba_marseille","lat":43.298768,"lon":5.43643,"is_reserved":false,"is_disabled":false,"rental_uris":{"android":"levelo://app?vid=ca4db8a8-5b98-4b78-bc3d-514f38028a3d","ios":"levelo://app?vid=ca4db8a8-5b98-4b78-bc3d-514f38028a3d"},"vehicle_type_id":"4","last_reported":1702134359,"current_range_meters":31600,"station_id":"ce4bhpp2rcd13ifvqhfg","pricing_plan_id":"free"},{"bike_id":"b27a5160-98c3-41e0-9737-02dfdb4dc6ef","system_id":"levelo_inurba_marseille","lat":43.298768,"lon":5.43643,"is_reserved":false,"is_disabled":false,"rental_uris":{"android":"levelo://app?vid=b27a5160-98c3-41e0-9737-02dfdb4dc6ef","ios":"levelo://app?vid=b27a5160-98c3-41e0-9737-02dfdb4dc6ef"},"vehicle_type_id":"4","last_reported":1702134359,"current_range_meters":27600,"station_id":"ce4bhpp2rcd13ifvqhfg","pricing_plan_id":"free"},{"bike_id":"6b17b896-99f2-456b-929e-df3811eeb274","system_id":"levelo_inurba_marseille","lat":43.298768,"lon":5.43643,"is_reserved":false,"is_disabled":false,"rental_uris":{"android":"levelo://app?vid=6b17b896-99f2-456b-929e-df3811eeb274","ios":"levelo://app?vid=6b17b896-99f2-456b-929e-df3811eeb274"},"vehicle_type_id":"4","last_reported":1702134359,"current_range_meters":28400,"station_id":"ce4bhpp2rcd13ifvqhfg","pricing_plan_id":"free"},{"bike_id":"2d70b9fc-8d42-4ce5-98c1-cdfca249cc2c","system_id":"levelo_inurba_marseille","lat":43.2815,"lon":5.4264,"is_reserved":false,"is_disabled":false,"rental_uris":{"android":"levelo://app?vid=2d70b9fc-8d42-4ce5-98c1-cdfca249cc2c","ios":"levelo://app?vid=2d70b9fc-8d42-4ce5-98c1-cdfca249cc2c"},"vehicle_type_id":"4","last_reported":1702134359,"current_range_meters":27600,"station_id":"ce4bhnh2rcd13ifvqgug","pricing_plan_id":"free"},{"bike_id":"5af37e83-2588-4723-b0ed-92b813e938a4","system_id":"levelo_inurba_marseille","lat":43.281548,"lon":5.42643,"is_reserved":false,"is_disabled":false,"rental_uris":{"android":"levelo://app?vid=5af37e83-2588-4723-b0ed-92b813e938a4","ios":"levelo://app?vid=5af37e83-2588-4723-b0ed-92b813e938a4"},"vehicle_type_id":"4","last_reported":1702134359,"current_range_meters":26000,"station_id":"ce4bhnh2rcd13ifvqgug","pricing_plan_id":"free"},{"bike_id":"f56607a5-8c0d-4214-a86e-b954d1fd309d","system_id":"levelo_inurba_marseille","lat":43.28153,"lon":5.42646,"is_reserved":false,"is_disabled":false,"rental_uris":{"android":"levelo://app?vid=f56607a5-8c0d-4214-a86e-b954d1fd309d","ios":"levelo://app?vid=f56607a5-8c0d-4214-a86e-b954d1fd309d"},"vehicle_type_id":"4","last_reported":1702134359,"current_range_meters":0,"station_id":"ce4bhnh2rcd13ifvqgug","pricing_plan_id":"free"},{"bike_id":"1320f19c-b9ac-43d6-bd76-793b2fad30c7","system_id":"levelo_inurba_marseille","lat":43.281548,"lon":5.42643,"is_reserved":false,"is_disabled":false,"rental_uris":{"android":"levelo://app?vid=1320f19c-b9ac-43d6-bd76-793b2fad30c7","ios":"levelo://app?vid=1320f19c-b9ac-43d6-bd76-793b2fad30c7"},"vehicle_type_id":"4","last_reported":1702134359,"current_range_meters":30400,"station_id":"ce4bhnh2rcd13ifvqgug","pricing_plan_id":"free"},{"bike_id":"6aa92329-8ea2-4377-9156-1cc2922c8412","system_id":"levelo_inurba_marseille","lat":43.2607,"lon":5.393983,"is_reserved":false,"is_disabled":false,"rental_uris":{"android":"levelo://app?vid=6aa92329-8ea2-4377-9156-1cc2922c8412","ios":"levelo://app?vid=6aa92329-8ea2-4377-9156-1cc2922c8412"},"vehicle_type_id":"4","last_reported":1702134359,"current_range_meters":8800,"station_id":"ce4bhh92rcd13ifvqfj0","pricing_plan_id":"free"},{"bike_id":"c729edd5-5231-437f-a50e-56fb2c821a1b","system_id":"levelo_inurba_marseille","lat":43.274875,"lon":5.424499,"is_reserved":false,"is_disabled":false,"rental_uris":{"android":"levelo://app?vid=c729edd5-5231-437f-a50e-56fb2c821a1b","ios":"levelo://app?vid=c729edd5-5231-437f-a50e-56fb2c821a1b"},"vehicle_type_id":"4","last_reported":1702134359,"current_range_meters":21200,"station_id":"","pricing_plan_id":"free"},{"bike_id":"e9a23148-ea63-448e-8189-1ee0e20e4523","system_id":"levelo_inurba_marseille","lat":43.274244,"lon":5.424006,"is_reserved":false,"is_disabled":false,"rental_uris":{"android":"levelo://app?vid=e9a23148-ea63-448e-8189-1ee0e20e4523","ios":"levelo://app?vid=e9a23148-ea63-448e-8189-1ee0e20e4523"},"vehicle_type_id":"4","last_reported":1702134359,"current_range_meters":4800,"station_id":"","pricing_plan_id":"free"},{"bike_id":"737cf7f8-a94a-4fa9-bd02-401819929320","system_id":"levelo_inurba_marseille","lat":43.270721,"lon":5.422764,"is_reserved":false,"is_disabled":false,"rental_uris":{"android":"levelo://app?vid=737cf7f8-a94a-4fa9-bd02-401819929320","ios":"levelo://app?vid=737cf7f8-a94a-4fa9-bd02-401819929320"},"vehicle_type_id":"4","last_reported":1702134359,"current_range_meters":6400,"station_id":"ce4bhk92rcd13ifvqgb0","pricing_plan_id":"free"},{"bike_id":"73ce7740-9ac1-48af-8235-0e0a46300bb6","system_id":"levelo_inurba_marseille","lat":43.270721,"lon":5.422764,"is_reserved":false,"is_disabled":false,"rental_uris":{"android":"levelo://app?vid=73ce7740-9ac1-48af-8235-0e0a46300bb6","ios":"levelo://app?vid=73ce7740-9ac1-48af-8235-0e0a46300bb6"},"vehicle_type_id":"4","last_reported":1702134359,"current_range_meters":26000,"station_id":"ce4bhk92rcd13ifvqgb0","pricing_plan_id":"free"},{"bike_id":"2365b20a-ac0b-4f9e-b151-ef4bdf9a013e","system_id":"levelo_inurba_marseille","lat":43.258658,"lon":5.398935,"is_reserved":false,"is_disabled":false,"rental_uris":{"android":"levelo://app?vid=2365b20a-ac0b-4f9e-b151-ef4bdf9a013e","ios":"levelo://app?vid=2365b20a-ac0b-4f9e-b151-ef4bdf9a013e"},"vehicle_type_id":"4","last_reported":1702134359,"current_range_meters":27600,"station_id":"ce4bhl92rcd13ifvqghg","pricing_plan_id":"free"},{"bike_id":"6a8bc17f-1bbc-4cda-af93-b226c6ac7460","system_id":"levelo_inurba_marseille","lat":43.259013,"lon":5.409301,"is_reserved":false,"is_disabled":false,"rental_uris":{"android":"levelo://app?vid=6a8bc17f-1bbc-4cda-af93-b226c6ac7460","ios":"levelo://app?vid=6a8bc17f-1bbc-4cda-af93-b226c6ac7460"},"vehicle_type_id":"4","last_reported":1702134359,"current_range_meters":24000,"station_id":"ce4bhm92rcd13ifvqglg","pricing_plan_id":"free"},{"bike_id":"458f4b82-cb21-478b-aa18-56c69ef73bed","system_id":"levelo_inurba_marseille","lat":43.259331,"lon":5.409126,"is_reserved":false,"is_disabled":false,"rental_uris":{"android":"levelo://app?vid=458f4b82-cb21-478b-aa18-56c69ef73bed","ios":"levelo://app?vid=458f4b82-cb21-478b-aa18-56c69ef73bed"},"vehicle_type_id":"4","last_reported":1702134359,"current_range_meters":16400,"station_id":"","pricing_plan_id":"free"},{"bike_id":"f08d203e-5538-4308-a034-c427ab815977","system_id":"levelo_inurba_marseille","lat":43.257079,"lon":5.411051,"is_reserved":false,"is_disabled":false,"rental_uris":{"android":"levelo://app?vid=f08d203e-5538-4308-a034-c427ab815977","ios":"levelo://app?vid=f08d203e-5538-4308-a034-c427ab815977"},"vehicle_type_id":"4","last_reported":1702134359,"current_range_meters":28400,"station_id":"ce4bhkp2rcd13ifvqgd0","pricing_plan_id":"free"},{"bike_id":"0edc6226-76f0-4f98-866c-ebcab844f99c","system_id":"levelo_inurba_marseille","lat":43.250023,"lon":5.38919,"is_reserved":false,"is_disabled":false,"rental_uris":{"android":"levelo://app?vid=0edc6226-76f0-4f98-866c-ebcab844f99c","ios":"levelo://app?vid=0edc6226-76f0-4f98-866c-ebcab844f99c"},"vehicle_type_id":"4","last_reported":1702134359,"current_range_meters":3600,"station_id":"ce4bhgp2rcd13ifvqfd0","pricing_plan_id":"free"},{"bike_id":"d441660b-d4b8-445a-a92c-09c13a8c53fd","system_id":"levelo_inurba_marseille","lat":43.24693,"lon":5.382096,"is_reserved":false,"is_disabled":false,"rental_uris":{"android":"levelo://app?vid=d441660b-d4b8-445a-a92c-09c13a8c53fd","ios":"levelo://app?vid=d441660b-d4b8-445a-a92c-09c13a8c53fd"},"vehicle_type_id":"4","last_reported":1702134359,"current_range_meters":20400,"station_id":"ce4bhih2rcd13ifvqfr0","pricing_plan_id":"free"},{"bike_id":"58d815f1-2083-45ee-b442-50bc106e18fa","system_id":"levelo_inurba_marseille","lat":43.240623,"lon":5.377642,"is_reserved":false,"is_disabled":false,"rental_uris":{"android":"levelo://app?vid=58d815f1-2083-45ee-b442-50bc106e18fa","ios":"levelo://app?vid=58d815f1-2083-45ee-b442-50bc106e18fa"},"vehicle_type_id":"4","last_reported":1702134359,"current_range_meters":400,"station_id":"ce4bhnp2rcd13ifvqgvg","pricing_plan_id":"free"},{"bike_id":"965b104f-1616-4ea6-adfb-733efe3d248c","system_id":"levelo_inurba_marseille","lat":43.240623,"lon":5.377642,"is_reserved":false,"is_disabled":false,"rental_uris":{"android":"levelo://app?vid=965b104f-1616-4ea6-adfb-733efe3d248c","ios":"levelo://app?vid=965b104f-1616-4ea6-adfb-733efe3d248c"},"vehicle_type_id":"4","last_reported":1702134359,"current_range_meters":29600,"station_id":"ce4bhnp2rcd13ifvqgvg","pricing_plan_id":"free"},{"bike_id":"7e5340d3-2d3d-427b-b1f3-3fa92009086b","system_id":"levelo_inurba_marseille","lat":43.231919,"lon":5.355532,"is_reserved":false,"is_disabled":false,"rental_uris":{"android":"levelo://app?vid=7e5340d3-2d3d-427b-b1f3-3fa92009086b","ios":"levelo://app?vid=7e5340d3-2d3d-427b-b1f3-3fa92009086b"},"vehicle_type_id":"4","last_reported":1702134359,"current_range_meters":24000,"station_id":"ce4bhu92rcd13ifvqi70","pricing_plan_id":"free"},{"bike_id":"529449ae-9bd0-4a42-b2ad-b913b1c62c25","system_id":"levelo_inurba_marseille","lat":43.23195,"lon":5.3555,"is_reserved":false,"is_disabled":false,"rental_uris":{"android":"levelo://app?vid=529449ae-9bd0-4a42-b2ad-b913b1c62c25","ios":"levelo://app?vid=529449ae-9bd0-4a42-b2ad-b913b1c62c25"},"vehicle_type_id":"4","last_reported":1702134359,"current_range_meters":14000,"station_id":"ce4bhu92rcd13ifvqi70","pricing_plan_id":"free"},{"bike_id":"89cd9aa6-a9fc-4969-971b-541849c33b33","system_id":"levelo_inurba_marseille","lat":43.231923,"lon":5.355545,"is_reserved":false,"is_disabled":false,"rental_uris":{"android":"levelo://app?vid=89cd9aa6-a9fc-4969-971b-541849c33b33","ios":"levelo://app?vid=89cd9aa6-a9fc-4969-971b-541849c33b33"},"vehicle_type_id":"4","last_reported":1702134359,"current_range_meters":15600,"station_id":"ce4bhu92rcd13ifvqi70","pricing_plan_id":"free"},{"bike_id":"bc30196d-481a-46dc-a914-cfd942fdc26d","system_id":"levelo_inurba_marseille","lat":43.231919,"lon":5.355532,"is_reserved":false,"is_disabled":false,"rental_uris":{"android":"levelo://app?vid=bc30196d-481a-46dc-a914-cfd942fdc26d","ios":"levelo://app?vid=bc30196d-481a-46dc-a914-cfd942fdc26d"},"vehicle_type_id":"4","last_reported":1702134359,"current_range_meters":12000,"station_id":"ce4bhu92rcd13ifvqi70","pricing_plan_id":"free"},{"bike_id":"d688d1de-99db-4179-8f44-98396df69166","system_id":"levelo_inurba_marseille","lat":43.231923,"lon":5.355545,"is_reserved":false,"is_disabled":false,"rental_uris":{"android":"levelo://app?vid=d688d1de-99db-4179-8f44-98396df69166","ios":"levelo://app?vid=d688d1de-99db-4179-8f44-98396df69166"},"vehicle_type_id":"4","last_reported":1702134359,"current_range_meters":19200,"station_id":"ce4bhu92rcd13ifvqi70","pricing_plan_id":"free"},{"bike_id":"31cbfc4f-2255-4703-9974-915d9fe18526","system_id":"levelo_inurba_marseille","lat":43.231919,"lon":5.355532,"is_reserved":false,"is_disabled":false,"rental_uris":{"android":"levelo://app?vid=31cbfc4f-2255-4703-9974-915d9fe18526","ios":"levelo://app?vid=31cbfc4f-2255-4703-9974-915d9fe18526"},"vehicle_type_id":"4","last_reported":1702134359,"current_range_meters":12400,"station_id":"ce4bhu92rcd13ifvqi70","pricing_plan_id":"free"},{"bike_id":"213e257d-882b-47d8-908b-4cb65412d074","system_id":"levelo_inurba_marseille","lat":43.231919,"lon":5.355532,"is_reserved":false,"is_disabled":false,"rental_uris":{"android":"levelo://app?vid=213e257d-882b-47d8-908b-4cb65412d074","ios":"levelo://app?vid=213e257d-882b-47d8-908b-4cb65412d074"},"vehicle_type_id":"4","last_reported":1702134359,"current_range_meters":16400,"station_id":"ce4bhu92rcd13ifvqi70","pricing_plan_id":"free"},{"bike_id":"596289c6-4fc4-406a-8ff5-68ff47522864","system_id":"levelo_inurba_marseille","lat":43.231919,"lon":5.355532,"is_reserved":false,"is_disabled":false,"rental_uris":{"android":"levelo://app?vid=596289c6-4fc4-406a-8ff5-68ff47522864","ios":"levelo://app?vid=596289c6-4fc4-406a-8ff5-68ff47522864"},"vehicle_type_id":"4","last_reported":1702134359,"current_range_meters":4000,"station_id":"ce4bhu92rcd13ifvqi70","pricing_plan_id":"free"},{"bike_id":"82161704-d2ba-4ae2-9baf-c0f02651c2f5","system_id":"levelo_inurba_marseille","lat":43.231919,"lon":5.355532,"is_reserved":false,"is_disabled":false,"rental_uris":{"android":"levelo://app?vid=82161704-d2ba-4ae2-9baf-c0f02651c2f5","ios":"levelo://app?vid=82161704-d2ba-4ae2-9baf-c0f02651c2f5"},"vehicle_type_id":"4","last_reported":1702134359,"current_range_meters":0,"station_id":"ce4bhu92rcd13ifvqi70","pricing_plan_id":"free"},{"bike_id":"db837267-81e3-439e-98cb-2684c730942d","system_id":"levelo_inurba_marseille","lat":43.23192,"lon":5.35546,"is_reserved":false,"is_disabled":false,"rental_uris":{"android":"levelo://app?vid=db837267-81e3-439e-98cb-2684c730942d","ios":"levelo://app?vid=db837267-81e3-439e-98cb-2684c730942d"},"vehicle_type_id":"4","last_reported":1702134359,"current_range_meters":20400,"station_id":"ce4bhu92rcd13ifvqi70","pricing_plan_id":"free"},{"bike_id":"e2a9694a-4e0c-4ac1-9545-06aa318d77c1","system_id":"levelo_inurba_marseille","lat":43.23189,"lon":5.3999,"is_reserved":false,"is_disabled":false,"rental_uris":{"android":"levelo://app?vid=e2a9694a-4e0c-4ac1-9545-06aa318d77c1","ios":"levelo://app?vid=e2a9694a-4e0c-4ac1-9545-06aa318d77c1"},"vehicle_type_id":"4","last_reported":1702134359,"current_range_meters":18400,"station_id":"ce4bhn12rcd13ifvqgqg","pricing_plan_id":"free"},{"bike_id":"459e6250-c8ef-46c8-93d1-2e2e31d30f61","system_id":"levelo_inurba_marseille","lat":43.231794,"lon":5.400052,"is_reserved":false,"is_disabled":false,"rental_uris":{"android":"levelo://app?vid=459e6250-c8ef-46c8-93d1-2e2e31d30f61","ios":"levelo://app?vid=459e6250-c8ef-46c8-93d1-2e2e31d30f61"},"vehicle_type_id":"4","last_reported":1702134359,"current_range_meters":14400,"station_id":"ce4bhn12rcd13ifvqgqg","pricing_plan_id":"free"},{"bike_id":"1cc9be8d-ab22-46e5-bd35-4e34df5b62df","system_id":"levelo_inurba_marseille","lat":43.231562,"lon":5.436933,"is_reserved":false,"is_disabled":false,"rental_uris":{"android":"levelo://app?vid=1cc9be8d-ab22-46e5-bd35-4e34df5b62df","ios":"levelo://app?vid=1cc9be8d-ab22-46e5-bd35-4e34df5b62df"},"vehicle_type_id":"4","last_reported":1702134359,"current_range_meters":7600,"station_id":"ce4bhmp2rcd13ifvqgog","pricing_plan_id":"free"}]}}