{"last_updated":1768317298,"ttl":60,"version":"2.2","data":{"bikes":[{"bike_id":"69342e77-62b4-45c5-824a-99dfe6dbdb16","system_id":"levelo_inurba_marseille","lat":43.24663,"lon":5.38155,"is_reserved":false,"is_disabled":false,"rental_uris":{"android":"levelo://app?vid=69342e77-62b4-45c5-824a-99dfe6dbdb16","ios":"levelo://app?vid=69342e77-62b4-45c5-824a-99dfe6dbdb16"},"vehicle_type_id":"4","last_reported":1768317299,"current_range_meters":2800,"station_id":"ce4bhih2rcd13ifvqfr0","pricing_plan_id":"cebpf4jnsgd1na2vs0mg"},{"bike_id":"96462d47-dc64-4971-90e4-83af07a8e49e","system_id":"levelo_inurba_marseille","lat":43.32349,"lon":5.36743,"is_reserved":false,"is_disabled":false,"rental_uris":{"android":"levelo://app?vid=96462d47-dc64-4971-90e4-83af07a8e49e","ios":"levelo://app?vid=96462d47-dc64-4971-90e4-83af07a8e49e"},"vehicle_type_id":"4","last_reported":1768317299,"current_range_meters":2800,"station_id":"ce4bhsh2rcd13ifvqi2g","pricing_plan_id":"cebpf4jnsgd1na2vs0mg"},{"bike_id":"4a9a8bbd-4470-490e-8e18-96977410a2a3","system_id":"levelo_inurba_marseille","lat":43.27058,"lon":5.40266,"is_reserved":false,"is_disabled":false,"rental_uris":{"android":"levelo://app?vid=4a9a8bbd-4470-490e-8e18-96977410a2a3","ios":"levelo://app?vid=4a9a8bbd-4470-490e-8e18-96977410a2a3"},"vehicle_type_id":"4","last_reported":1768317299,"current_range_meters":2800,"station_id":"","pricing_plan_id":"cebpf4jnsgd1na2vs0mg"},{"bike_id":"14b20107-66a1-4745-af0e-d8c158627c67","system_id":"levelo_inurba_marseille","lat":43.24083,"lon":5.37747,"is_reserved":false,"is_disabled":false,"rental_uris":{"android":"levelo://app?vid=14b20107-66a1-4745-af0e-d8c158627c67","ios":"levelo://app?vid=14b20107-66a1-4745-af0e-d8c158627c67"},"vehicle_type_id":"4","last_reported":1768317299,"current_range_meters":2800,"station_id":"ce4bhnp2rcd13ifvqgvg","pricing_plan_id":"cebpf4jnsgd1na2vs0mg"},{"bike_id":"430aaff1-4290-4e1a-857a-c426965bd6e9","system_id":"levelo_inurba_marseille","lat":43.279997,"lon":5.40007,"is_reserved":false,"is_disabled":false,"rental_uris":{"android":"levelo://app?vid=430aaff1-4290-4e1a-857a-c426965bd6e9","ios":"levelo://app?vid=430aaff1-4290-4e1a-857a-c426965bd6e9"},"vehicle_type_id":"4","last_reported":1768317299,"current_range_meters":2800,"station_id":"ce4bho92rcd13ifvqh4g","pricing_plan_id":"cebpf4jnsgd1na2vs0mg"},{"bike_id":"35b4a5c9-8d7b-40c7-9a47-c843e5dff29d","system_id":"levelo_inurba_marseille","lat":43.31056,"lon":5.37161,"is_reserved":false,"is_disabled":false,"rental_uris":{"android":"levelo://app?vid=35b4a5c9-8d7b-40c7-9a47-c843e5dff29d","ios":"levelo://app?vid=35b4a5c9-8d7b-40c7-9a47-c843e5dff29d"},"vehicle_type_id":"4","last_reported":1768317299,"current_range_meters":2800,"station_id":"st_d4kl2rp97mjs73e7tdfg","pricing_plan_id":"cebpf4jnsgd1na2vs0mg"},{"bike_id":"3e6e857e-44a4-43cb-b7bd-1bdbecc8bb0c","system_id":"levelo_inurba_marseille","lat":43.3017,"lon":5.37114,"is_reserved":false,"is_disabled":false,"rental_uris":{"android":"levelo://app?vid=3e6e857e-44a4-43cb-b7bd-1bdbecc8bb0c","ios":"levelo://app?vid=3e6e857e-44a4-43cb-b7bd-1bdbecc8bb0c"},"vehicle_type_id":"4","last_reported":1768317299,"current_range_meters":3200,"station_id":"","pricing_plan_id":"cebpf4jnsgd1na2vs0mg"},{"bike_id":"8c7c9205-f6b0-41ca-9e68-58ed9eb10a0e","system_id":"levelo_inurba_marseille","lat":43.24477,"lon":5.42536,"is_reserved":false,"is_disabled":false,"rental_uris":{"android":"levelo://app?vid=8c7c9205-f6b0-41ca-9e68-58ed9eb10a0e","ios":"levelo://app?vid=8c7c9205-f6b0-41ca-9e68-58ed9eb10a0e"},"vehicle_type_id":"4","last_reported":1768317299,"current_range_meters":3200,"station_id":"st_d4a3vfp97mjs738cd8kg","pricing_plan_id":"cebpf4jnsgd1na2vs0mg"},{"bike_id":"23f90f90-4766-44cf-a3ad-ecda2307978a","system_id":"levelo_inurba_marseille","lat":43.26057,"lon":5.39382,"is_reserved":false,"is_disabled":false,"rental_uris":{"android":"levelo://app?vid=23f90f90-4766-44cf-a3ad-ecda2307978a","ios":"levelo://app?vid=23f90f90-4766-44cf-a3ad-ecda2307978a"},"vehicle_type_id":"4","last_reported":1768317299,"current_range_meters":3200,"station_id":"ce4bhh92rcd13ifvqfj0","pricing_plan_id":"cebpf4jnsgd1na2vs0mg"},{"bike_id":"017368ae-a8ef-4ad6-bc9a-d16935d6312f","system_id":"levelo_inurba_marseille","lat":43.23536,"lon":5.35943,"is_reserved":false,"is_disabled":false,"rental_uris":{"android":"levelo://app?vid=017368ae-a8ef-4ad6-bc9a-d16935d6312f","ios":"levelo://app?vid=017368ae-a8ef-4ad6-bc9a-d16935d6312f"},"vehicle_type_id":"4","last_reported":1768317299,"current_range_meters":3200,"station_id":"","pricing_plan_id":"cebpf4jnsgd1na2vs0mg"},{"bike_id":"16c0a840-73e1-4ae0-9a77-5a3261744e51","system_id":"levelo_inurba_marseille","lat":43.26931,"lon":5.40255,"is_reserved":false,"is_disabled":false,"rental_uris":{"android":"levelo://app?vid=16c0a840-73e1-4ae0-9a77-5a3261744e51","ios":"levelo://app?vid=16c0a840-73e1-4ae0-9a77-5a3261744e51"},"vehicle_type_id":"4","last_reported":1768317299,"current_range_meters":3200,"station_id":"cjm6bp8fraef2m0cb0m0","pricing_plan_id":"cebpf4jnsgd1na2vs0mg"},{"bike_id":"64d5976f-8dcc-4221-b8a1-159649fd0eb6","system_id":"levelo_inurba_marseille","lat":43.23969,"lon":5.36617,"is_reserved":false,"is_disabled":false,"rental_uris":{"android":"levelo://app?vid=64d5976f-8dcc-4221-b8a1-159649fd0eb6","ios":"levelo://app?vid=64d5976f-8dcc-4221-b8a1-159649fd0eb6"},"vehicle_type_id":"4","last_reported":1768317299,"current_range_meters":3200,"station_id":"ce4bhi12rcd13ifvqfp0","pricing_plan_id":"cebpf4jnsgd1na2vs0mg"},{"bike_id":"3f735909-eb9f-4c22-bbc7-ad90bf59e12f","system_id":"levelo_inurba_marseille","lat":43.30139,"lon":5.38775,"is_reserved":false,"is_disabled":false,"rental_uris":{"android":"levelo://app?vid=3f735909-eb9f-4c22-bbc7-ad90bf59e12f","ios":"levelo://app?vid=3f735909-eb9f-4c22-bbc7-ad90bf59e12f"},"vehicle_type_id":"4","last_reported":1768317299,"current_range_meters":3200,"station_id":"ce4bghh2rcd13ifvqb60","pricing_plan_id":"cebpf4jnsgd1na2vs0mg"},{"bike_id":"e15b4a32-9ba3-49f9-8369-3810bfb33c65","system_id":"levelo_inurba_marseille","lat":43.29001,"lon":5.35607,"is_reserved":false,"is_disabled":false,"rental_uris":{"android":"levelo://app?vid=e15b4a32-9ba3-49f9-8369-3810bfb33c65","ios":"levelo://app?vid=e15b4a32-9ba3-49f9-8369-3810bfb33c65"},"vehicle_type_id":"4","last_reported":1768317299,"current_range_meters":3200,"station_id":"ce4bhb92rcd13ifvqen0","pricing_plan_id":"cebpf4jnsgd1na2vs0mg"},{"bike_id":"fb9f796c-fb12-45e2-b876-3e3a9fa6352d","system_id":"levelo_inurba_marseille","lat":43.27995,"lon":5.41669,"is_reserved":false,"is_disabled":false,"rental_uris":{"android":"levelo://app?vid=fb9f796c-fb12-45e2-b876-3e3a9fa6352d","ios":"levelo://app?vid=fb9f796c-fb12-45e2-b876-3e3a9fa6352d"},"vehicle_type_id":"4","last_reported":1768317299,"current_range_meters":3200,"station_id":"ce4bho12rcd13ifvqh1g","pricing_plan_id":"cebpf4jnsgd1na2vs0mg"},{"bike_id":"1548135f-d020-40e8-bf39-61202aa93c76","system_id":"levelo_inurba_marseille","lat":43.29523,"lon":5.38535,"is_reserved":false,"is_disabled":false,"rental_uris":{"android":"levelo://app?vid=1548135f-d020-40e8-bf39-61202aa93c76","ios":"levelo://app?vid=1548135f-d020-40e8-bf39-61202aa93c76"},"vehicle_type_id":"4","last_reported":1768317299,"current_range_meters":3200,"station_id":"ce4bgih2rcd13ifvqba0","pricing_plan_id":"cebpf4jnsgd1na2vs0mg"},{"bike_id":"e64de5c8-c429-4d9e-853a-793e735e5e70","system_id":"levelo_inurba_marseille","lat":43.29962,"lon":5.41307,"is_reserved":false,"is_disabled":false,"rental_uris":{"android":"levelo://app?vid=e64de5c8-c429-4d9e-853a-793e735e5e70","ios":"levelo://app?vid=e64de5c8-c429-4d9e-853a-793e735e5e70"},"vehicle_type_id":"4","last_reported":1768317299,"current_range_meters":3600,"station_id":"ce4bhp12rcd13ifvqh9g","pricing_plan_id":"cebpf4jnsgd1na2vs0mg"},{"bike_id":"232ad3be-6df5-405a-a3b4-07ee6a984dfb","system_id":"levelo_inurba_marseille","lat":43.32912,"lon":5.38922,"is_reserved":false,"is_disabled":false,"rental_uris":{"android":"levelo://app?vid=232ad3be-6df5-405a-a3b4-07ee6a984dfb","ios":"levelo://app?vid=232ad3be-6df5-405a-a3b4-07ee6a984dfb"},"vehicle_type_id":"4","last_reported":1768317299,"current_range_meters":3600,"station_id":"","pricing_plan_id":"cebpf4jnsgd1na2vs0mg"},{"bike_id":"4470ee29-c1d9-4cd5-b86f-e144152a5653","system_id":"levelo_inurba_marseille","lat":43.2821,"lon":5.40373,"is_reserved":false,"is_disabled":false,"rental_uris":{"android":"levelo://app?vid=4470ee29-c1d9-4cd5-b86f-e144152a5653","ios":"levelo://app?vid=4470ee29-c1d9-4cd5-b86f-e144152a5653"},"vehicle_type_id":"4","last_reported":1768317299,"current_range_meters":3600,"station_id":"","pricing_plan_id":"cebpf4jnsgd1na2vs0mg"},{"bike_id":"6ce1c604-b919-4a8e-84bb-492441d8bc97","system_id":"levelo_inurba_marseille","lat":43.29516,"lon":5.3904,"is_reserved":false,"is_disabled":false,"rental_uris":{"android":"levelo://app?vid=6ce1c604-b919-4a8e-84bb-492441d8bc97","ios":"levelo://app?vid=6ce1c604-b919-4a8e-84bb-492441d8bc97"},"vehicle_type_id":"4","last_reported":1768317299,"current_range_meters":3600,"station_id":"ce4bh3p2rcd13ifvqdp0","pricing_plan_id":"cebpf4jnsgd1na2vs0mg"},{"bike_id":"3ae0c06d-a2ab-49c7-b39f-1a85ce1aa14c","system_id":"levelo_inurba_marseille","lat":43.28853,"lon":5.42524,"is_reserved":false,"is_disabled":false,"rental_uris":{"android":"levelo://app?vid=3ae0c06d-a2ab-49c7-b39f-1a85ce1aa14c","ios":"levelo://app?vid=3ae0c06d-a2ab-49c7-b39f-1a85ce1aa14c"},"vehicle_type_id":"4","last_reported":1768317299,"current_range_meters":3600,"station_id":"st_d3b462108ojc7389ooeg","pricing_plan_id":"cebpf4jnsgd1na2vs0mg"},{"bike_id":"19cf4836-8dc0-4d4b-a30b-cc7133de4342","system_id":"levelo_inurba_marseille","lat":43.26048,"lon":5.39398,"is_reserved":false,"is_disabled":false,"rental_uris":{"android":"levelo://app?vid=19cf4836-8dc0-4d4b-a30b-cc7133de4342","ios":"levelo://app?vid=19cf4836-8dc0-4d4b-a30b-cc7133de4342"},"vehicle_type_id":"4","last_reported":1768317299,"current_range_meters":3600,"station_id":"ce4bhh92rcd13ifvqfj0","pricing_plan_id":"cebpf4jnsgd1na2vs0mg"},{"bike_id":"952ac753-0b2d-4eac-a986-0b52c2b0b206","system_id":"levelo_inurba_marseille","lat":43.318682,"lon":5.39986,"is_reserved":false,"is_disabled":false,"rental_uris":{"android":"levelo://app?vid=952ac753-0b2d-4eac-a986-0b52c2b0b206","ios":"levelo://app?vid=952ac753-0b2d-4eac-a986-0b52c2b0b206"},"vehicle_type_id":"4","last_reported":1768317299,"current_range_meters":3600,"station_id":"ce4bgih2rcd13ifvqba0","pricing_plan_id":"cebpf4jnsgd1na2vs0mg"},{"bike_id":"54a665b1-efb8-4a74-a5c5-3658aaf489a2","system_id":"levelo_inurba_marseille","lat":43.284783,"lon":5.48416,"is_reserved":false,"is_disabled":false,"rental_uris":{"android":"levelo://app?vid=54a665b1-efb8-4a74-a5c5-3658aaf489a2","ios":"levelo://app?vid=54a665b1-efb8-4a74-a5c5-3658aaf489a2"},"vehicle_type_id":"4","last_reported":1768317299,"current_range_meters":3600,"station_id":"ce4bho92rcd13ifvqh4g","pricing_plan_id":"cebpf4jnsgd1na2vs0mg"},{"bike_id":"e63df9e0-af8f-4554-a6e1-61250e5af1c1","system_id":"levelo_inurba_marseille","lat":43.23198,"lon":5.39996,"is_reserved":false,"is_disabled":false,"rental_uris":{"android":"levelo://app?vid=e63df9e0-af8f-4554-a6e1-61250e5af1c1","ios":"levelo://app?vid=e63df9e0-af8f-4554-a6e1-61250e5af1c1"},"vehicle_type_id":"4","last_reported":1768317299,"current_range_meters":3600,"station_id":"ce4bhn12rcd13ifvqgqg","pricing_plan_id":"cebpf4jnsgd1na2vs0mg"},{"bike_id":"ab90bc63-6269-4067-995e-23baa0f14cab","system_id":"levelo_inurba_marseille","lat":43.2693,"lon":5.3891,"is_reserved":false,"is_disabled":false,"rental_uris":{"android":"levelo://app?vid=ab90bc63-6269-4067-995e-23baa0f14cab","ios":"levelo://app?vid=ab90bc63-6269-4067-995e-23baa0f14cab"},"vehicle_type_id":"4","last_reported":1768317299,"current_range_meters":3600,"station_id":"ce4bhhh2rcd13ifvqfl0","pricing_plan_id":"cebpf4jnsgd1na2vs0mg"},{"bike_id":"4ccf5df6-38fa-46c4-ae58-5671706983df","system_id":"levelo_inurba_marseille","lat":43.32345,"lon":5.36745,"is_reserved":false,"is_disabled":false,"rental_uris":{"android":"levelo://app?vid=4ccf5df6-38fa-46c4-ae58-5671706983df","ios":"levelo://app?vid=4ccf5df6-38fa-46c4-ae58-5671706983df"},"vehicle_type_id":"4","last_reported":1768317299,"current_range_meters":4000,"station_id":"ce4bhsh2rcd13ifvqi2g","pricing_plan_id":"cebpf4jnsgd1na2vs0mg"},{"bike_id":"d5bf3822-caa6-4b4f-906f-27b56cfded39","system_id":"levelo_inurba_marseille","lat":43.30552,"lon":5.36533,"is_reserved":false,"is_disabled":false,"rental_uris":{"android":"levelo://app?vid=d5bf3822-caa6-4b4f-906f-27b56cfded39","ios":"levelo://app?vid=d5bf3822-caa6-4b4f-906f-27b56cfded39"},"vehicle_type_id":"4","last_reported":1768317299,"current_range_meters":4000,"station_id":"ce4bgs12rcd13ifvqcag","pricing_plan_id":"cebpf4jnsgd1na2vs0mg"},{"bike_id":"57011a74-0c32-42bc-9899-fdfd84c9d05c","system_id":"levelo_inurba_marseille","lat":43.248131,"lon":5.374561,"is_reserved":false,"is_disabled":false,"rental_uris":{"android":"levelo://app?vid=57011a74-0c32-42bc-9899-fdfd84c9d05c","ios":"levelo://app?vid=57011a74-0c32-42bc-9899-fdfd84c9d05c"},"vehicle_type_id":"4","last_reported":1768317299,"current_range_meters":4000,"station_id":"ce4bhgh2rcd13ifvqfb0","pricing_plan_id":"cebpf4jnsgd1na2vs0mg"},{"bike_id":"84daa672-7c6b-4b19-8751-cae0d8f3d012","system_id":"levelo_inurba_marseille","lat":43.289735,"lon":5.378349,"is_reserved":false,"is_disabled":false,"rental_uris":{"android":"levelo://app?vid=84daa672-7c6b-4b19-8751-cae0d8f3d012","ios":"levelo://app?vid=84daa672-7c6b-4b19-8751-cae0d8f3d012"},"vehicle_type_id":"4","last_reported":1768317299,"current_range_meters":4000,"station_id":"ce4bh9p2rcd13ifvqed0","pricing_plan_id":"cebpf4jnsgd1na2vs0mg"},{"bike_id":"82b87168-267f-432c-a609-70f7b40ac901","system_id":"levelo_inurba_marseille","lat":43.27945,"lon":5.41031,"is_reserved":false,"is_disabled":false,"rental_uris":{"android":"levelo://app?vid=82b87168-267f-432c-a609-70f7b40ac901","ios":"levelo://app?vid=82b87168-267f-432c-a609-70f7b40ac901"},"vehicle_type_id":"4","last_reported":1768317299,"current_range_meters":4000,"station_id":"","pricing_plan_id":"cebpf4jnsgd1na2vs0mg"},{"bike_id":"2dad8955-6910-4131-8def-de70399b7eb8","system_id":"levelo_inurba_marseille","lat":43.29956,"lon":5.37352,"is_reserved":false,"is_disabled":false,"rental_uris":{"android":"levelo://app?vid=2dad8955-6910-4131-8def-de70399b7eb8","ios":"levelo://app?vid=2dad8955-6910-4131-8def-de70399b7eb8"},"vehicle_type_id":"4","last_reported":1768317299,"current_range_meters":4000,"station_id":"","pricing_plan_id":"cebpf4jnsgd1na2vs0mg"},{"bike_id":"24fc37fd-357c-4a91-9e14-c0484892cf8d","system_id":"levelo_inurba_marseille","lat":43.29858,"lon":5.4091,"is_reserved":false,"is_disabled":false,"rental_uris":{"android":"levelo://app?vid=24fc37fd-357c-4a91-9e14-c0484892cf8d","ios":"levelo://app?vid=24fc37fd-357c-4a91-9e14-c0484892cf8d"},"vehicle_type_id":"4","last_reported":1768317299,"current_range_meters":4000,"station_id":"","pricing_plan_id":"cebpf4jnsgd1na2vs0mg"},{"bike_id":"a95f51b4-f0ea-4753-9f15-e2c2ed48d66b","system_id":"levelo_inurba_marseille","lat":43.28552,"lon":5.44078,"is_reserved":false,"is_disabled":false,"rental_uris":{"android":"levelo://app?vid=a95f51b4-f0ea-4753-9f15-e2c2ed48d66b","ios":"levelo://app?vid=a95f51b4-f0ea-4753-9f15-e2c2ed48d66b"},"vehicle_type_id":"4","last_reported":1768317299,"current_range_meters":4000,"station_id":"st_d3j3df2ikq2c7380ej80","pricing_plan_id":"cebpf4jnsgd1na2vs0mg"},{"bike_id":"15623902-d695-4261-8774-571b16861263","system_id":"levelo_inurba_marseille","lat":43.30142,"lon":5.38092,"is_reserved":false,"is_disabled":false,"rental_uris":{"android":"levelo://app?vid=15623902-d695-4261-8774-571b16861263","ios":"levelo://app?vid=15623902-d695-4261-8774-571b16861263"},"vehicle_type_id":"4","last_reported":1768317299,"current_range_meters":4000,"station_id":"ce4bgjp2rcd13ifvqbh0","pricing_plan_id":"cebpf4jnsgd1na2vs0mg"},{"bike_id":"8a669674-ed91-4f5f-b611-d4a9f2abae3d","system_id":"levelo_inurba_marseille","lat":43.262,"lon":5.37452,"is_reserved":false,"is_disabled":false,"rental_uris":{"android":"levelo://app?vid=8a669674-ed91-4f5f-b611-d4a9f2abae3d","ios":"levelo://app?vid=8a669674-ed91-4f5f-b611-d4a9f2abae3d"},"vehicle_type_id":"4","last_reported":1768317299,"current_range_meters":4000,"station_id":"ce4bhgp2rcd13ifvqfc0","pricing_plan_id":"cebpf4jnsgd1na2vs0mg"},{"bike_id":"3230873c-fc31-45b7-9508-aee7786321e1","system_id":"levelo_inurba_marseille","lat":43.326877,"lon":5.395611,"is_reserved":false,"is_disabled":false,"rental_uris":{"android":"levelo://app?vid=3230873c-fc31-45b7-9508-aee7786321e1","ios":"levelo://app?vid=3230873c-fc31-45b7-9508-aee7786321e1"},"vehicle_type_id":"4","last_reported":1768317299,"current_range_meters":4000,"station_id":"","pricing_plan_id":"cebpf4jnsgd1na2vs0mg"},{"bike_id":"78b5fcef-eb69-4bb9-b995-d031358bd549","system_id":"levelo_inurba_marseille","lat":43.31518,"lon":5.41401,"is_reserved":false,"is_disabled":false,"rental_uris":{"android":"levelo://app?vid=78b5fcef-eb69-4bb9-b995-d031358bd549","ios":"levelo://app?vid=78b5fcef-eb69-4bb9-b995-d031358bd549"},"vehicle_type_id":"4","last_reported":1768317299,"current_range_meters":4000,"station_id":"","pricing_plan_id":"cebpf4jnsgd1na2vs0mg"},{"bike_id":"93420a80-8e35-472b-9a22-41b99ae8b801","system_id":"levelo_inurba_marseille","lat":43.2417,"lon":5.36399,"is_reserved":false,"is_disabled":false,"rental_uris":{"android":"levelo://app?vid=93420a80-8e35-472b-9a22-41b99ae8b801","ios":"levelo://app?vid=93420a80-8e35-472b-9a22-41b99ae8b801"},"vehicle_type_id":"4","last_reported":1768317299,"current_range_meters":4400,"station_id":"cpo36qri1sfpv3e86is0","pricing_plan_id":"cebpf4jnsgd1na2vs0mg"},{"bike_id":"0ca727f1-22a9-4d29-b4b0-403b274e760f","system_id":"levelo_inurba_marseille","lat":43.2954,"lon":5.3854,"is_reserved":false,"is_disabled":false,"rental_uris":{"android":"levelo://app?vid=0ca727f1-22a9-4d29-b4b0-403b274e760f","ios":"levelo://app?vid=0ca727f1-22a9-4d29-b4b0-403b274e760f"},"vehicle_type_id":"4","last_reported":1768317299,"current_range_meters":4400,"station_id":"ce4bgih2rcd13ifvqba0","pricing_plan_id":"cebpf4jnsgd1na2vs0mg"},{"bike_id":"90374415-cbc3-4952-a2cb-bda17d2a3e8f","system_id":"levelo_inurba_marseille","lat":43.31329,"lon":5.38424,"is_reserved":false,"is_disabled":false,"rental_uris":{"android":"levelo://app?vid=90374415-cbc3-4952-a2cb-bda17d2a3e8f","ios":"levelo://app?vid=90374415-cbc3-4952-a2cb-bda17d2a3e8f"},"vehicle_type_id":"4","last_reported":1768317299,"current_range_meters":4400,"station_id":"","pricing_plan_id":"cebpf4jnsgd1na2vs0mg"},{"bike_id":"533cb83c-e8dd-42bc-9375-30430a43b393","system_id":"levelo_inurba_marseille","lat":43.25513,"lon":5.376549,"is_reserved":false,"is_disabled":false,"rental_uris":{"android":"levelo://app?vid=533cb83c-e8dd-42bc-9375-30430a43b393","ios":"levelo://app?vid=533cb83c-e8dd-42bc-9375-30430a43b393"},"vehicle_type_id":"4","last_reported":1768317299,"current_range_meters":4400,"station_id":"ce4bhh12rcd13ifvqff0","pricing_plan_id":"cebpf4jnsgd1na2vs0mg"},{"bike_id":"b3365a79-4e93-4ced-801f-9c3754c77da0","system_id":"levelo_inurba_marseille","lat":43.243881,"lon":5.370741,"is_reserved":false,"is_disabled":false,"rental_uris":{"android":"levelo://app?vid=b3365a79-4e93-4ced-801f-9c3754c77da0","ios":"levelo://app?vid=b3365a79-4e93-4ced-801f-9c3754c77da0"},"vehicle_type_id":"4","last_reported":1768317299,"current_range_meters":4400,"station_id":"ce4bhhh2rcd13ifvqfk0","pricing_plan_id":"cebpf4jnsgd1na2vs0mg"},{"bike_id":"93beefeb-bae2-44e6-b1e7-4e0bc7c2456a","system_id":"levelo_inurba_marseille","lat":43.27638,"lon":5.36149,"is_reserved":false,"is_disabled":false,"rental_uris":{"android":"levelo://app?vid=93beefeb-bae2-44e6-b1e7-4e0bc7c2456a","ios":"levelo://app?vid=93beefeb-bae2-44e6-b1e7-4e0bc7c2456a"},"vehicle_type_id":"4","last_reported":1768317299,"current_range_meters":4400,"station_id":"ce4bgj92rcd13ifvqbe0","pricing_plan_id":"cebpf4jnsgd1na2vs0mg"},{"bike_id":"75652f76-bff8-43fa-80e4-141e220eee41","system_id":"levelo_inurba_marseille","lat":43.28417,"lon":5.34993,"is_reserved":false,"is_disabled":false,"rental_uris":{"android":"levelo://app?vid=75652f76-bff8-43fa-80e4-141e220eee41","ios":"levelo://app?vid=75652f76-bff8-43fa-80e4-141e220eee41"},"vehicle_type_id":"4","last_reported":1768317299,"current_range_meters":4400,"station_id":"ce4bhbh2rcd13ifvqepg","pricing_plan_id":"cebpf4jnsgd1na2vs0mg"},{"bike_id":"5cd0348c-c053-42c0-b52c-0fd30637dd40","system_id":"levelo_inurba_marseille","lat":43.29898,"lon":5.37797,"is_reserved":false,"is_disabled":false,"rental_uris":{"android":"levelo://app?vid=5cd0348c-c053-42c0-b52c-0fd30637dd40","ios":"levelo://app?vid=5cd0348c-c053-42c0-b52c-0fd30637dd40"},"vehicle_type_id":"4","last_reported":1768317299,"current_range_meters":4400,"station_id":"","pricing_plan_id":"cebpf4jnsgd1na2vs0mg"},{"bike_id":"01945cdd-0088-40c1-b968-9fbb65d75a3a","system_id":"levelo_inurba_marseille","lat":43.32127,"lon":5.36775,"is_reserved":false,"is_disabled":false,"rental_uris":{"android":"levelo://app?vid=01945cdd-0088-40c1-b968-9fbb65d75a3a","ios":"levelo://app?vid=01945cdd-0088-40c1-b968-9fbb65d75a3a"},"vehicle_type_id":"4","last_reported":1768317299,"current_range_meters":4400,"station_id":"ce4bhrh2rcd13ifvqhug","pricing_plan_id":"cebpf4jnsgd1na2vs0mg"},{"bike_id":"053203c3-b50f-44b4-9df5-2a6af082b9e9","system_id":"levelo_inurba_marseille","lat":43.24643,"lon":5.431531,"is_reserved":false,"is_disabled":false,"rental_uris":{"android":"levelo://app?vid=053203c3-b50f-44b4-9df5-2a6af082b9e9","ios":"levelo://app?vid=053203c3-b50f-44b4-9df5-2a6af082b9e9"},"vehicle_type_id":"4","last_reported":1768317299,"current_range_meters":4400,"station_id":"st_d2m6c4gdas8pm72e190g","pricing_plan_id":"cebpf4jnsgd1na2vs0mg"},{"bike_id":"46152bd7-5aa6-477a-9fcc-6a3940f95a27","system_id":"levelo_inurba_marseille","lat":43.26238,"lon":5.40434,"is_reserved":false,"is_disabled":false,"rental_uris":{"android":"levelo://app?vid=46152bd7-5aa6-477a-9fcc-6a3940f95a27","ios":"levelo://app?vid=46152bd7-5aa6-477a-9fcc-6a3940f95a27"},"vehicle_type_id":"4","last_reported":1768317299,"current_range_meters":4400,"station_id":"ce4bhmh2rcd13ifvqgmg","pricing_plan_id":"cebpf4jnsgd1na2vs0mg"},{"bike_id":"01a7ee90-aa38-4595-9821-dc1953f186ec","system_id":"levelo_inurba_marseille","lat":43.31069,"lon":5.38345,"is_reserved":false,"is_disabled":false,"rental_uris":{"android":"levelo://app?vid=01a7ee90-aa38-4595-9821-dc1953f186ec","ios":"levelo://app?vid=01a7ee90-aa38-4595-9821-dc1953f186ec"},"vehicle_type_id":"4","last_reported":1768317299,"current_range_meters":4400,"station_id":"ce4bgv92rcd13ifvqcr0","pricing_plan_id":"cebpf4jnsgd1na2vs0mg"},{"bike_id":"e550fc9a-3d68-4b17-9669-6894900f7416","system_id":"levelo_inurba_marseille","lat":43.30641,"lon":5.40512,"is_reserved":false,"is_disabled":false,"rental_uris":{"android":"levelo://app?vid=e550fc9a-3d68-4b17-9669-6894900f7416","ios":"levelo://app?vid=e550fc9a-3d68-4b17-9669-6894900f7416"},"vehicle_type_id":"4","last_reported":1768317299,"current_range_meters":4400,"station_id":"ce4bh112rcd13ifvqda0","pricing_plan_id":"cebpf4jnsgd1na2vs0mg"},{"bike_id":"1a23bd73-e326-4762-a7a7-c8e38a59bb0d","system_id":"levelo_inurba_marseille","lat":43.273754,"lon":5.3626,"is_reserved":false,"is_disabled":false,"rental_uris":{"android":"levelo://app?vid=1a23bd73-e326-4762-a7a7-c8e38a59bb0d","ios":"levelo://app?vid=1a23bd73-e326-4762-a7a7-c8e38a59bb0d"},"vehicle_type_id":"4","last_reported":1768317299,"current_range_meters":4400,"station_id":"","pricing_plan_id":"cebpf4jnsgd1na2vs0mg"},{"bike_id":"d8e4f0af-1bc9-4eee-a301-87097ca543ee","system_id":"levelo_inurba_marseille","lat":43.29169,"lon":5.37149,"is_reserved":false,"is_disabled":false,"rental_uris":{"android":"levelo://app?vid=d8e4f0af-1bc9-4eee-a301-87097ca543ee","ios":"levelo://app?vid=d8e4f0af-1bc9-4eee-a301-87097ca543ee"},"vehicle_type_id":"4","last_reported":1768317299,"current_range_meters":4400,"station_id":"ce4bha92rcd13ifvqeh0","pricing_plan_id":"cebpf4jnsgd1na2vs0mg"},{"bike_id":"348a7616-c475-4feb-93b6-e7e3eba9b2e9","system_id":"levelo_inurba_marseille","lat":43.24995,"lon":5.38946,"is_reserved":false,"is_disabled":false,"rental_uris":{"android":"levelo://app?vid=348a7616-c475-4feb-93b6-e7e3eba9b2e9","ios":"levelo://app?vid=348a7616-c475-4feb-93b6-e7e3eba9b2e9"},"vehicle_type_id":"4","last_reported":1768317299,"current_range_meters":4800,"station_id":"ce4bhgp2rcd13ifvqfd0","pricing_plan_id":"cebpf4jnsgd1na2vs0mg"},{"bike_id":"eae60b8d-db4a-4fd1-8c21-4e433e17839f","system_id":"levelo_inurba_marseille","lat":43.26059,"lon":5.39385,"is_reserved":false,"is_disabled":false,"rental_uris":{"android":"levelo://app?vid=eae60b8d-db4a-4fd1-8c21-4e433e17839f","ios":"levelo://app?vid=eae60b8d-db4a-4fd1-8c21-4e433e17839f"},"vehicle_type_id":"4","last_reported":1768317299,"current_range_meters":4800,"station_id":"ce4bhh92rcd13ifvqfj0","pricing_plan_id":"cebpf4jnsgd1na2vs0mg"},{"bike_id":"829b4dfc-f5b2-4ad0-a42d-896237842994","system_id":"levelo_inurba_marseille","lat":43.28476,"lon":5.48396,"is_reserved":false,"is_disabled":false,"rental_uris":{"android":"levelo://app?vid=829b4dfc-f5b2-4ad0-a42d-896237842994","ios":"levelo://app?vid=829b4dfc-f5b2-4ad0-a42d-896237842994"},"vehicle_type_id":"4","last_reported":1768317299,"current_range_meters":4800,"station_id":"","pricing_plan_id":"cebpf4jnsgd1na2vs0mg"},{"bike_id":"50d6cb25-e8c5-49dd-88b4-e56e19cdc111","system_id":"levelo_inurba_marseille","lat":43.29021,"lon":5.37042,"is_reserved":false,"is_disabled":false,"rental_uris":{"android":"levelo://app?vid=50d6cb25-e8c5-49dd-88b4-e56e19cdc111","ios":"levelo://app?vid=50d6cb25-e8c5-49dd-88b4-e56e19cdc111"},"vehicle_type_id":"4","last_reported":1768317299,"current_range_meters":4800,"station_id":"","pricing_plan_id":"cebpf4jnsgd1na2vs0mg"},{"bike_id":"63dff58c-6e7e-499f-9989-d6d2549f6481","system_id":"levelo_inurba_marseille","lat":43.266896,"lon":5.382786,"is_reserved":false,"is_disabled":false,"rental_uris":{"android":"levelo://app?vid=63dff58c-6e7e-499f-9989-d6d2549f6481","ios":"levelo://app?vid=63dff58c-6e7e-499f-9989-d6d2549f6481"},"vehicle_type_id":"4","last_reported":1768317299,"current_range_meters":4800,"station_id":"ce4bhg92rcd13ifvqf90","pricing_plan_id":"cebpf4jnsgd1na2vs0mg"},{"bike_id":"d926f6df-bb6d-4c22-9c30-1d92a2769c5e","system_id":"levelo_inurba_marseille","lat":43.22926,"lon":5.35361,"is_reserved":false,"is_disabled":false,"rental_uris":{"android":"levelo://app?vid=d926f6df-bb6d-4c22-9c30-1d92a2769c5e","ios":"levelo://app?vid=d926f6df-bb6d-4c22-9c30-1d92a2769c5e"},"vehicle_type_id":"4","last_reported":1768317299,"current_range_meters":4800,"station_id":"cpo3532slgdg3j2ikp40","pricing_plan_id":"cebpf4jnsgd1na2vs0mg"},{"bike_id":"77648d21-2eba-4733-a182-ee140dc2d61a","system_id":"levelo_inurba_marseille","lat":43.2319,"lon":5.35533,"is_reserved":false,"is_disabled":false,"rental_uris":{"android":"levelo://app?vid=77648d21-2eba-4733-a182-ee140dc2d61a","ios":"levelo://app?vid=77648d21-2eba-4733-a182-ee140dc2d61a"},"vehicle_type_id":"4","last_reported":1768317299,"current_range_meters":4800,"station_id":"ce4bhu92rcd13ifvqi70","pricing_plan_id":"cebpf4jnsgd1na2vs0mg"},{"bike_id":"a1b7b2fb-b65a-4c41-8ba1-24c0b6b32d24","system_id":"levelo_inurba_marseille","lat":43.2467,"lon":5.38131,"is_reserved":false,"is_disabled":false,"rental_uris":{"android":"levelo://app?vid=a1b7b2fb-b65a-4c41-8ba1-24c0b6b32d24","ios":"levelo://app?vid=a1b7b2fb-b65a-4c41-8ba1-24c0b6b32d24"},"vehicle_type_id":"4","last_reported":1768317299,"current_range_meters":4800,"station_id":"ce4bhih2rcd13ifvqfr0","pricing_plan_id":"cebpf4jnsgd1na2vs0mg"},{"bike_id":"8cead7b4-d9f3-4545-8e07-dfbf0cdaa8bf","system_id":"levelo_inurba_marseille","lat":43.280831,"lon":5.368858,"is_reserved":false,"is_disabled":false,"rental_uris":{"android":"levelo://app?vid=8cead7b4-d9f3-4545-8e07-dfbf0cdaa8bf","ios":"levelo://app?vid=8cead7b4-d9f3-4545-8e07-dfbf0cdaa8bf"},"vehicle_type_id":"4","last_reported":1768317299,"current_range_meters":4800,"station_id":"ce4bha12rcd13ifvqef0","pricing_plan_id":"cebpf4jnsgd1na2vs0mg"},{"bike_id":"29fbaac6-5874-4eab-b4c8-3ec2a69d1469","system_id":"levelo_inurba_marseille","lat":43.31315,"lon":5.36718,"is_reserved":false,"is_disabled":false,"rental_uris":{"android":"levelo://app?vid=29fbaac6-5874-4eab-b4c8-3ec2a69d1469","ios":"levelo://app?vid=29fbaac6-5874-4eab-b4c8-3ec2a69d1469"},"vehicle_type_id":"4","last_reported":1768317299,"current_range_meters":5600,"station_id":"ce4bgr92rcd13ifvqc6g","pricing_plan_id":"cebpf4jnsgd1na2vs0mg"},{"bike_id":"5ad52785-0823-41c2-87b5-2779a76f0e53","system_id":"levelo_inurba_marseille","lat":43.24606,"lon":5.38349,"is_reserved":false,"is_disabled":false,"rental_uris":{"android":"levelo://app?vid=5ad52785-0823-41c2-87b5-2779a76f0e53","ios":"levelo://app?vid=5ad52785-0823-41c2-87b5-2779a76f0e53"},"vehicle_type_id":"4","last_reported":1768317299,"current_range_meters":5600,"station_id":"","pricing_plan_id":"cebpf4jnsgd1na2vs0mg"},{"bike_id":"d4e489c1-ea10-4490-a956-06bf3103b0f2","system_id":"levelo_inurba_marseille","lat":43.29252,"lon":5.36855,"is_reserved":false,"is_disabled":false,"rental_uris":{"android":"levelo://app?vid=d4e489c1-ea10-4490-a956-06bf3103b0f2","ios":"levelo://app?vid=d4e489c1-ea10-4490-a956-06bf3103b0f2"},"vehicle_type_id":"4","last_reported":1768317299,"current_range_meters":5600,"station_id":"ce4bhbp2rcd13ifvqesg","pricing_plan_id":"cebpf4jnsgd1na2vs0mg"},{"bike_id":"f34ce2e5-33b6-4187-bd26-bd7acd5eae89","system_id":"levelo_inurba_marseille","lat":43.26545,"lon":5.3729,"is_reserved":false,"is_disabled":false,"rental_uris":{"android":"levelo://app?vid=f34ce2e5-33b6-4187-bd26-bd7acd5eae89","ios":"levelo://app?vid=f34ce2e5-33b6-4187-bd26-bd7acd5eae89"},"vehicle_type_id":"4","last_reported":1768317299,"current_range_meters":5600,"station_id":"ce4bhg12rcd13ifvqf70","pricing_plan_id":"cebpf4jnsgd1na2vs0mg"},{"bike_id":"0e8bf274-4e41-43de-a66e-ca34f84c602e","system_id":"levelo_inurba_marseille","lat":43.23963,"lon":5.36623,"is_reserved":false,"is_disabled":false,"rental_uris":{"android":"levelo://app?vid=0e8bf274-4e41-43de-a66e-ca34f84c602e","ios":"levelo://app?vid=0e8bf274-4e41-43de-a66e-ca34f84c602e"},"vehicle_type_id":"4","last_reported":1768317299,"current_range_meters":5600,"station_id":"ce4bhi12rcd13ifvqfp0","pricing_plan_id":"cebpf4jnsgd1na2vs0mg"},{"bike_id":"d8cbeae4-24d8-488e-8327-21d938c70611","system_id":"levelo_inurba_marseille","lat":43.26698,"lon":5.38251,"is_reserved":false,"is_disabled":false,"rental_uris":{"android":"levelo://app?vid=d8cbeae4-24d8-488e-8327-21d938c70611","ios":"levelo://app?vid=d8cbeae4-24d8-488e-8327-21d938c70611"},"vehicle_type_id":"4","last_reported":1768317299,"current_range_meters":5600,"station_id":"ce4bhg92rcd13ifvqf90","pricing_plan_id":"cebpf4jnsgd1na2vs0mg"},{"bike_id":"c99e908e-7a32-4d1f-800f-603e38b74fa5","system_id":"levelo_inurba_marseille","lat":43.241593,"lon":5.364043,"is_reserved":false,"is_disabled":false,"rental_uris":{"android":"levelo://app?vid=c99e908e-7a32-4d1f-800f-603e38b74fa5","ios":"levelo://app?vid=c99e908e-7a32-4d1f-800f-603e38b74fa5"},"vehicle_type_id":"4","last_reported":1768317299,"current_range_meters":5600,"station_id":"cpo36qri1sfpv3e86is0","pricing_plan_id":"cebpf4jnsgd1na2vs0mg"},{"bike_id":"5b8302cb-d6a5-4483-b477-0ec5d1c212e3","system_id":"levelo_inurba_marseille","lat":43.25578,"lon":5.38237,"is_reserved":false,"is_disabled":false,"rental_uris":{"android":"levelo://app?vid=5b8302cb-d6a5-4483-b477-0ec5d1c212e3","ios":"levelo://app?vid=5b8302cb-d6a5-4483-b477-0ec5d1c212e3"},"vehicle_type_id":"4","last_reported":1768317299,"current_range_meters":5600,"station_id":"ce4bhih2rcd13ifvqfs0","pricing_plan_id":"cebpf4jnsgd1na2vs0mg"},{"bike_id":"16896211-ae0f-42c9-986d-e536bc0a46ac","system_id":"levelo_inurba_marseille","lat":43.31353,"lon":5.36715,"is_reserved":false,"is_disabled":false,"rental_uris":{"android":"levelo://app?vid=16896211-ae0f-42c9-986d-e536bc0a46ac","ios":"levelo://app?vid=16896211-ae0f-42c9-986d-e536bc0a46ac"},"vehicle_type_id":"4","last_reported":1768317299,"current_range_meters":5600,"station_id":"ce4bgr92rcd13ifvqc6g","pricing_plan_id":"cebpf4jnsgd1na2vs0mg"},{"bike_id":"6f340d65-8a96-4245-a37f-c84a4e9a1d07","system_id":"levelo_inurba_marseille","lat":43.32356,"lon":5.36731,"is_reserved":false,"is_disabled":false,"rental_uris":{"android":"levelo://app?vid=6f340d65-8a96-4245-a37f-c84a4e9a1d07","ios":"levelo://app?vid=6f340d65-8a96-4245-a37f-c84a4e9a1d07"},"vehicle_type_id":"4","last_reported":1768317299,"current_range_meters":5600,"station_id":"ce4bhsh2rcd13ifvqi2g","pricing_plan_id":"cebpf4jnsgd1na2vs0mg"},{"bike_id":"d4f3bd37-a943-479b-98c1-66fc15a01b59","system_id":"levelo_inurba_marseille","lat":43.323531,"lon":5.367388,"is_reserved":false,"is_disabled":false,"rental_uris":{"android":"levelo://app?vid=d4f3bd37-a943-479b-98c1-66fc15a01b59","ios":"levelo://app?vid=d4f3bd37-a943-479b-98c1-66fc15a01b59"},"vehicle_type_id":"4","last_reported":1768317299,"current_range_meters":5600,"station_id":"ce4bhsh2rcd13ifvqi2g","pricing_plan_id":"cebpf4jnsgd1na2vs0mg"},{"bike_id":"066c6ede-2e00-4b82-b8c4-c24bdc063f22","system_id":"levelo_inurba_marseille","lat":43.23842,"lon":5.36647,"is_reserved":false,"is_disabled":false,"rental_uris":{"android":"levelo://app?vid=066c6ede-2e00-4b82-b8c4-c24bdc063f22","ios":"levelo://app?vid=066c6ede-2e00-4b82-b8c4-c24bdc063f22"},"vehicle_type_id":"4","last_reported":1768317299,"current_range_meters":5600,"station_id":"","pricing_plan_id":"cebpf4jnsgd1na2vs0mg"},{"bike_id":"eb0da802-5252-4da8-818e-33f6b4345d78","system_id":"levelo_inurba_marseille","lat":43.239665,"lon":5.366309,"is_reserved":false,"is_disabled":false,"rental_uris":{"android":"levelo://app?vid=eb0da802-5252-4da8-818e-33f6b4345d78","ios":"levelo://app?vid=eb0da802-5252-4da8-818e-33f6b4345d78"},"vehicle_type_id":"4","last_reported":1768317299,"current_range_meters":5600,"station_id":"ce4bhi12rcd13ifvqfp0","pricing_plan_id":"cebpf4jnsgd1na2vs0mg"},{"bike_id":"79b7d26a-b25b-4eba-9216-03c39302c739","system_id":"levelo_inurba_marseille","lat":43.26921,"lon":5.4025,"is_reserved":false,"is_disabled":false,"rental_uris":{"android":"levelo://app?vid=79b7d26a-b25b-4eba-9216-03c39302c739","ios":"levelo://app?vid=79b7d26a-b25b-4eba-9216-03c39302c739"},"vehicle_type_id":"4","last_reported":1768317299,"current_range_meters":5600,"station_id":"cjm6bp8fraef2m0cb0m0","pricing_plan_id":"cebpf4jnsgd1na2vs0mg"},{"bike_id":"cd122465-4bd8-4111-a501-746f52ad2f74","system_id":"levelo_inurba_marseille","lat":43.255053,"lon":5.37652,"is_reserved":false,"is_disabled":false,"rental_uris":{"android":"levelo://app?vid=cd122465-4bd8-4111-a501-746f52ad2f74","ios":"levelo://app?vid=cd122465-4bd8-4111-a501-746f52ad2f74"},"vehicle_type_id":"4","last_reported":1768317299,"current_range_meters":5600,"station_id":"ce4bhh12rcd13ifvqff0","pricing_plan_id":"cebpf4jnsgd1na2vs0mg"},{"bike_id":"3c91a548-2cc3-4705-ab80-5230129be485","system_id":"levelo_inurba_marseille","lat":43.29831,"lon":5.37655,"is_reserved":false,"is_disabled":false,"rental_uris":{"android":"levelo://app?vid=3c91a548-2cc3-4705-ab80-5230129be485","ios":"levelo://app?vid=3c91a548-2cc3-4705-ab80-5230129be485"},"vehicle_type_id":"4","last_reported":1768317299,"current_range_meters":5600,"station_id":"","pricing_plan_id":"cebpf4jnsgd1na2vs0mg"},{"bike_id":"9e3f8b43-110a-4683-808c-c8bd643c9f41","system_id":"levelo_inurba_marseille","lat":43.2417,"lon":5.36396,"is_reserved":false,"is_disabled":false,"rental_uris":{"android":"levelo://app?vid=9e3f8b43-110a-4683-808c-c8bd643c9f41","ios":"levelo://app?vid=9e3f8b43-110a-4683-808c-c8bd643c9f41"},"vehicle_type_id":"4","last_reported":1768317299,"current_range_meters":5600,"station_id":"cpo36qri1sfpv3e86is0","pricing_plan_id":"cebpf4jnsgd1na2vs0mg"},{"bike_id":"8d7ea287-bfaf-4565-8014-210398802734","system_id":"levelo_inurba_marseille","lat":43.28265,"lon":5.35057,"is_reserved":false,"is_disabled":false,"rental_uris":{"android":"levelo://app?vid=8d7ea287-bfaf-4565-8014-210398802734","ios":"levelo://app?vid=8d7ea287-bfaf-4565-8014-210398802734"},"vehicle_type_id":"4","last_reported":1768317299,"current_range_meters":5600,"station_id":"ce4bhbp2rcd13ifvqerg","pricing_plan_id":"cebpf4jnsgd1na2vs0mg"},{"bike_id":"affed72c-cd8c-45cc-a144-46145cf4b5be","system_id":"levelo_inurba_marseille","lat":43.22568,"lon":5.41621,"is_reserved":false,"is_disabled":false,"rental_uris":{"android":"levelo://app?vid=affed72c-cd8c-45cc-a144-46145cf4b5be","ios":"levelo://app?vid=affed72c-cd8c-45cc-a144-46145cf4b5be"},"vehicle_type_id":"4","last_reported":1768317299,"current_range_meters":5600,"station_id":"st_d2o4gvlbi1j2169b742g","pricing_plan_id":"cebpf4jnsgd1na2vs0mg"},{"bike_id":"df875345-2b08-4286-955c-fe7e78a5220a","system_id":"levelo_inurba_marseille","lat":43.28941,"lon":5.36401,"is_reserved":false,"is_disabled":false,"rental_uris":{"android":"levelo://app?vid=df875345-2b08-4286-955c-fe7e78a5220a","ios":"levelo://app?vid=df875345-2b08-4286-955c-fe7e78a5220a"},"vehicle_type_id":"4","last_reported":1768317299,"current_range_meters":6000,"station_id":"ce4bhc92rcd13ifvqetg","pricing_plan_id":"cebpf4jnsgd1na2vs0mg"},{"bike_id":"b09db989-569d-44fc-8a9c-f9e1db81e003","system_id":"levelo_inurba_marseille","lat":43.29284,"lon":5.374476,"is_reserved":false,"is_disabled":false,"rental_uris":{"android":"levelo://app?vid=b09db989-569d-44fc-8a9c-f9e1db81e003","ios":"levelo://app?vid=b09db989-569d-44fc-8a9c-f9e1db81e003"},"vehicle_type_id":"4","last_reported":1768317299,"current_range_meters":6000,"station_id":"ce4bgi12rcd13ifvqb70","pricing_plan_id":"cebpf4jnsgd1na2vs0mg"},{"bike_id":"ba7654d7-92e8-4e9b-a5b9-8f820e72ab5d","system_id":"levelo_inurba_marseille","lat":43.32365,"lon":5.36746,"is_reserved":false,"is_disabled":false,"rental_uris":{"android":"levelo://app?vid=ba7654d7-92e8-4e9b-a5b9-8f820e72ab5d","ios":"levelo://app?vid=ba7654d7-92e8-4e9b-a5b9-8f820e72ab5d"},"vehicle_type_id":"4","last_reported":1768317299,"current_range_meters":6000,"station_id":"ce4bhsh2rcd13ifvqi2g","pricing_plan_id":"cebpf4jnsgd1na2vs0mg"},{"bike_id":"c18fd780-36f4-48ee-9c83-496dd97785f7","system_id":"levelo_inurba_marseille","lat":43.24073,"lon":5.37749,"is_reserved":false,"is_disabled":false,"rental_uris":{"android":"levelo://app?vid=c18fd780-36f4-48ee-9c83-496dd97785f7","ios":"levelo://app?vid=c18fd780-36f4-48ee-9c83-496dd97785f7"},"vehicle_type_id":"4","last_reported":1768317299,"current_range_meters":6000,"station_id":"ce4bhnp2rcd13ifvqgvg","pricing_plan_id":"cebpf4jnsgd1na2vs0mg"},{"bike_id":"60b0960f-f7e6-4515-b24f-94f89e288267","system_id":"levelo_inurba_marseille","lat":43.27557,"lon":5.38426,"is_reserved":false,"is_disabled":false,"rental_uris":{"android":"levelo://app?vid=60b0960f-f7e6-4515-b24f-94f89e288267","ios":"levelo://app?vid=60b0960f-f7e6-4515-b24f-94f89e288267"},"vehicle_type_id":"4","last_reported":1768317299,"current_range_meters":6000,"station_id":"ce4bhh92rcd13ifvqfi0","pricing_plan_id":"cebpf4jnsgd1na2vs0mg"},{"bike_id":"dd82bb59-7829-4c53-a4f7-95c2c13f9278","system_id":"levelo_inurba_marseille","lat":43.29908,"lon":5.37472,"is_reserved":false,"is_disabled":false,"rental_uris":{"android":"levelo://app?vid=dd82bb59-7829-4c53-a4f7-95c2c13f9278","ios":"levelo://app?vid=dd82bb59-7829-4c53-a4f7-95c2c13f9278"},"vehicle_type_id":"4","last_reported":1768317299,"current_range_meters":6000,"station_id":"ce4bgjh2rcd13ifvqbg0","pricing_plan_id":"cebpf4jnsgd1na2vs0mg"},{"bike_id":"fb221a40-bde2-46d1-95ba-618fffd0a7ea","system_id":"levelo_inurba_marseille","lat":43.28857,"lon":5.39308,"is_reserved":false,"is_disabled":false,"rental_uris":{"android":"levelo://app?vid=fb221a40-bde2-46d1-95ba-618fffd0a7ea","ios":"levelo://app?vid=fb221a40-bde2-46d1-95ba-618fffd0a7ea"},"vehicle_type_id":"4","last_reported":1768317299,"current_range_meters":6000,"station_id":"ce4bh2p2rcd13ifvqdi0","pricing_plan_id":"cebpf4jnsgd1na2vs0mg"},{"bike_id":"5af3242c-9133-4734-9374-77f1f4f62acf","system_id":"levelo_inurba_marseille","lat":43.24154,"lon":5.36443,"is_reserved":false,"is_disabled":false,"rental_uris":{"android":"levelo://app?vid=5af3242c-9133-4734-9374-77f1f4f62acf","ios":"levelo://app?vid=5af3242c-9133-4734-9374-77f1f4f62acf"},"vehicle_type_id":"4","last_reported":1768317299,"current_range_meters":6000,"station_id":"cpo36qri1sfpv3e86is0","pricing_plan_id":"cebpf4jnsgd1na2vs0mg"},{"bike_id":"5e1be1d2-ab7c-4aa5-81a0-02a80c420cd4","system_id":"levelo_inurba_marseille","lat":43.25759,"lon":5.394315,"is_reserved":false,"is_disabled":false,"rental_uris":{"android":"levelo://app?vid=5e1be1d2-ab7c-4aa5-81a0-02a80c420cd4","ios":"levelo://app?vid=5e1be1d2-ab7c-4aa5-81a0-02a80c420cd4"},"vehicle_type_id":"4","last_reported":1768317299,"current_range_meters":6000,"station_id":"ce4bhip2rcd13ifvqft0","pricing_plan_id":"cebpf4jnsgd1na2vs0mg"},{"bike_id":"796073de-267e-4d0a-bdcf-9730fe26073e","system_id":"levelo_inurba_marseille","lat":43.31291,"lon":5.36733,"is_reserved":false,"is_disabled":false,"rental_uris":{"android":"levelo://app?vid=796073de-267e-4d0a-bdcf-9730fe26073e","ios":"levelo://app?vid=796073de-267e-4d0a-bdcf-9730fe26073e"},"vehicle_type_id":"4","last_reported":1768317299,"current_range_meters":6000,"station_id":"","pricing_plan_id":"cebpf4jnsgd1na2vs0mg"},{"bike_id":"e204e395-472f-48eb-84b1-e1991d4dba24","system_id":"levelo_inurba_marseille","lat":43.244683,"lon":5.425323,"is_reserved":false,"is_disabled":false,"rental_uris":{"android":"levelo://app?vid=e204e395-472f-48eb-84b1-e1991d4dba24","ios":"levelo://app?vid=e204e395-472f-48eb-84b1-e1991d4dba24"},"vehicle_type_id":"4","last_reported":1768317299,"current_range_meters":6000,"station_id":"st_d4a3vfp97mjs738cd8kg","pricing_plan_id":"cebpf4jnsgd1na2vs0mg"},{"bike_id":"45eb2387-a0c2-48ad-925b-0251d018d148","system_id":"levelo_inurba_marseille","lat":43.24671,"lon":5.38132,"is_reserved":false,"is_disabled":false,"rental_uris":{"android":"levelo://app?vid=45eb2387-a0c2-48ad-925b-0251d018d148","ios":"levelo://app?vid=45eb2387-a0c2-48ad-925b-0251d018d148"},"vehicle_type_id":"4","last_reported":1768317299,"current_range_meters":6000,"station_id":"ce4bhih2rcd13ifvqfr0","pricing_plan_id":"cebpf4jnsgd1na2vs0mg"},{"bike_id":"5ac41b9e-d0a6-434a-8805-be4855ded638","system_id":"levelo_inurba_marseille","lat":43.29789,"lon":5.38113,"is_reserved":false,"is_disabled":false,"rental_uris":{"android":"levelo://app?vid=5ac41b9e-d0a6-434a-8805-be4855ded638","ios":"levelo://app?vid=5ac41b9e-d0a6-434a-8805-be4855ded638"},"vehicle_type_id":"4","last_reported":1768317299,"current_range_meters":6000,"station_id":"ce4bgip2rcd13ifvqbb0","pricing_plan_id":"cebpf4jnsgd1na2vs0mg"},{"bike_id":"a56313fe-28fc-4513-a928-6deaae5792bc","system_id":"levelo_inurba_marseille","lat":43.29723,"lon":5.37687,"is_reserved":false,"is_disabled":false,"rental_uris":{"android":"levelo://app?vid=a56313fe-28fc-4513-a928-6deaae5792bc","ios":"levelo://app?vid=a56313fe-28fc-4513-a928-6deaae5792bc"},"vehicle_type_id":"4","last_reported":1768317299,"current_range_meters":6000,"station_id":"ce4bgkh2rcd13ifvqbl0","pricing_plan_id":"cebpf4jnsgd1na2vs0mg"},{"bike_id":"b86c73d7-bcd2-4739-bd21-3c614abea18c","system_id":"levelo_inurba_marseille","lat":43.29807,"lon":5.38095,"is_reserved":false,"is_disabled":false,"rental_uris":{"android":"levelo://app?vid=b86c73d7-bcd2-4739-bd21-3c614abea18c","ios":"levelo://app?vid=b86c73d7-bcd2-4739-bd21-3c614abea18c"},"vehicle_type_id":"4","last_reported":1768317299,"current_range_meters":6000,"station_id":"ce4bgip2rcd13ifvqbb0","pricing_plan_id":"cebpf4jnsgd1na2vs0mg"},{"bike_id":"dd19e9c1-5960-4ffe-b7cb-e6afcd8da926","system_id":"levelo_inurba_marseille","lat":43.30148,"lon":5.37411,"is_reserved":false,"is_disabled":false,"rental_uris":{"android":"levelo://app?vid=dd19e9c1-5960-4ffe-b7cb-e6afcd8da926","ios":"levelo://app?vid=dd19e9c1-5960-4ffe-b7cb-e6afcd8da926"},"vehicle_type_id":"4","last_reported":1768317299,"current_range_meters":6000,"station_id":"ce4bgs92rcd13ifvqcc0","pricing_plan_id":"cebpf4jnsgd1na2vs0mg"},{"bike_id":"f35ea47e-775e-489a-a3c1-75c6eb9ff5af","system_id":"levelo_inurba_marseille","lat":43.24806,"lon":5.37453,"is_reserved":false,"is_disabled":false,"rental_uris":{"android":"levelo://app?vid=f35ea47e-775e-489a-a3c1-75c6eb9ff5af","ios":"levelo://app?vid=f35ea47e-775e-489a-a3c1-75c6eb9ff5af"},"vehicle_type_id":"4","last_reported":1768317299,"current_range_meters":6000,"station_id":"ce4bhgh2rcd13ifvqfb0","pricing_plan_id":"cebpf4jnsgd1na2vs0mg"},{"bike_id":"4c171aec-60f9-4710-8657-317b51a39b9e","system_id":"levelo_inurba_marseille","lat":43.32344,"lon":5.36729,"is_reserved":false,"is_disabled":false,"rental_uris":{"android":"levelo://app?vid=4c171aec-60f9-4710-8657-317b51a39b9e","ios":"levelo://app?vid=4c171aec-60f9-4710-8657-317b51a39b9e"},"vehicle_type_id":"4","last_reported":1768317299,"current_range_meters":6000,"station_id":"ce4bhsh2rcd13ifvqi2g","pricing_plan_id":"cebpf4jnsgd1na2vs0mg"},{"bike_id":"173e874a-bef3-47f8-8f65-3e423bb125d3","system_id":"levelo_inurba_marseille","lat":43.25911,"lon":5.40881,"is_reserved":false,"is_disabled":false,"rental_uris":{"android":"levelo://app?vid=173e874a-bef3-47f8-8f65-3e423bb125d3","ios":"levelo://app?vid=173e874a-bef3-47f8-8f65-3e423bb125d3"},"vehicle_type_id":"4","last_reported":1768317299,"current_range_meters":6400,"station_id":"ce4bhm92rcd13ifvqglg","pricing_plan_id":"cebpf4jnsgd1na2vs0mg"},{"bike_id":"91dbe188-56c8-4fce-a414-d6e43ed9eb6b","system_id":"levelo_inurba_marseille","lat":43.26694,"lon":5.39943,"is_reserved":false,"is_disabled":false,"rental_uris":{"android":"levelo://app?vid=91dbe188-56c8-4fce-a414-d6e43ed9eb6b","ios":"levelo://app?vid=91dbe188-56c8-4fce-a414-d6e43ed9eb6b"},"vehicle_type_id":"4","last_reported":1768317299,"current_range_meters":6400,"station_id":"","pricing_plan_id":"cebpf4jnsgd1na2vs0mg"},{"bike_id":"957cb636-bc48-4b50-840f-bd4f72ba1cbd","system_id":"levelo_inurba_marseille","lat":43.30533,"lon":5.36535,"is_reserved":false,"is_disabled":false,"rental_uris":{"android":"levelo://app?vid=957cb636-bc48-4b50-840f-bd4f72ba1cbd","ios":"levelo://app?vid=957cb636-bc48-4b50-840f-bd4f72ba1cbd"},"vehicle_type_id":"4","last_reported":1768317299,"current_range_meters":6400,"station_id":"ce4bgs12rcd13ifvqcag","pricing_plan_id":"cebpf4jnsgd1na2vs0mg"},{"bike_id":"479d04b3-091e-4637-ab2f-f901b6f36a36","system_id":"levelo_inurba_marseille","lat":43.24169,"lon":5.36412,"is_reserved":false,"is_disabled":false,"rental_uris":{"android":"levelo://app?vid=479d04b3-091e-4637-ab2f-f901b6f36a36","ios":"levelo://app?vid=479d04b3-091e-4637-ab2f-f901b6f36a36"},"vehicle_type_id":"4","last_reported":1768317299,"current_range_meters":6400,"station_id":"cpo36qri1sfpv3e86is0","pricing_plan_id":"cebpf4jnsgd1na2vs0mg"},{"bike_id":"abcd74ad-91b3-4bfb-baff-2442ed322096","system_id":"levelo_inurba_marseille","lat":43.315151,"lon":5.380328,"is_reserved":false,"is_disabled":false,"rental_uris":{"android":"levelo://app?vid=abcd74ad-91b3-4bfb-baff-2442ed322096","ios":"levelo://app?vid=abcd74ad-91b3-4bfb-baff-2442ed322096"},"vehicle_type_id":"4","last_reported":1768317299,"current_range_meters":6400,"station_id":"ce4bghh2rcd13ifvqb60","pricing_plan_id":"cebpf4jnsgd1na2vs0mg"},{"bike_id":"97210b92-1c2b-4923-adaa-a09fbd7cdbf3","system_id":"levelo_inurba_marseille","lat":43.28067,"lon":5.40741,"is_reserved":false,"is_disabled":false,"rental_uris":{"android":"levelo://app?vid=97210b92-1c2b-4923-adaa-a09fbd7cdbf3","ios":"levelo://app?vid=97210b92-1c2b-4923-adaa-a09fbd7cdbf3"},"vehicle_type_id":"4","last_reported":1768317299,"current_range_meters":6400,"station_id":"","pricing_plan_id":"cebpf4jnsgd1na2vs0mg"},{"bike_id":"f5d19579-dfd3-4245-9a3c-40f0995461f4","system_id":"levelo_inurba_marseille","lat":43.32354,"lon":5.36738,"is_reserved":false,"is_disabled":false,"rental_uris":{"android":"levelo://app?vid=f5d19579-dfd3-4245-9a3c-40f0995461f4","ios":"levelo://app?vid=f5d19579-dfd3-4245-9a3c-40f0995461f4"},"vehicle_type_id":"4","last_reported":1768317299,"current_range_meters":6400,"station_id":"ce4bhsh2rcd13ifvqi2g","pricing_plan_id":"cebpf4jnsgd1na2vs0mg"},{"bike_id":"fe494ec5-1707-4075-a207-f74162cc93ea","system_id":"levelo_inurba_marseille","lat":43.25337,"lon":5.42166,"is_reserved":false,"is_disabled":false,"rental_uris":{"android":"levelo://app?vid=fe494ec5-1707-4075-a207-f74162cc93ea","ios":"levelo://app?vid=fe494ec5-1707-4075-a207-f74162cc93ea"},"vehicle_type_id":"4","last_reported":1768317299,"current_range_meters":6400,"station_id":"st_d2m65c5bi1j21697t3ng","pricing_plan_id":"cebpf4jnsgd1na2vs0mg"},{"bike_id":"f7edb647-926c-4dfc-a318-e14c8ce272fc","system_id":"levelo_inurba_marseille","lat":43.30562,"lon":5.36529,"is_reserved":false,"is_disabled":false,"rental_uris":{"android":"levelo://app?vid=f7edb647-926c-4dfc-a318-e14c8ce272fc","ios":"levelo://app?vid=f7edb647-926c-4dfc-a318-e14c8ce272fc"},"vehicle_type_id":"4","last_reported":1768317299,"current_range_meters":6400,"station_id":"ce4bgs12rcd13ifvqcag","pricing_plan_id":"cebpf4jnsgd1na2vs0mg"},{"bike_id":"435db267-3d15-44f5-8420-37d50b585844","system_id":"levelo_inurba_marseille","lat":43.29698,"lon":5.37285,"is_reserved":false,"is_disabled":false,"rental_uris":{"android":"levelo://app?vid=435db267-3d15-44f5-8420-37d50b585844","ios":"levelo://app?vid=435db267-3d15-44f5-8420-37d50b585844"},"vehicle_type_id":"4","last_reported":1768317299,"current_range_meters":6400,"station_id":"ce4bgk12rcd13ifvqbj0","pricing_plan_id":"cebpf4jnsgd1na2vs0mg"},{"bike_id":"b0591438-4f8b-458b-95d3-396e832bb098","system_id":"levelo_inurba_marseille","lat":43.2255,"lon":5.41627,"is_reserved":false,"is_disabled":false,"rental_uris":{"android":"levelo://app?vid=b0591438-4f8b-458b-95d3-396e832bb098","ios":"levelo://app?vid=b0591438-4f8b-458b-95d3-396e832bb098"},"vehicle_type_id":"4","last_reported":1768317299,"current_range_meters":6400,"station_id":"st_d2o4gvlbi1j2169b742g","pricing_plan_id":"cebpf4jnsgd1na2vs0mg"},{"bike_id":"4c68eacc-2d63-41f4-bcd0-18cc9a25ae57","system_id":"levelo_inurba_marseille","lat":43.241691,"lon":5.363976,"is_reserved":false,"is_disabled":false,"rental_uris":{"android":"levelo://app?vid=4c68eacc-2d63-41f4-bcd0-18cc9a25ae57","ios":"levelo://app?vid=4c68eacc-2d63-41f4-bcd0-18cc9a25ae57"},"vehicle_type_id":"4","last_reported":1768317299,"current_range_meters":6400,"station_id":"cpo36qri1sfpv3e86is0","pricing_plan_id":"cebpf4jnsgd1na2vs0mg"},{"bike_id":"a2d976b2-4930-45bf-896b-10cb61922490","system_id":"levelo_inurba_marseille","lat":43.23187,"lon":5.35565,"is_reserved":false,"is_disabled":false,"rental_uris":{"android":"levelo://app?vid=a2d976b2-4930-45bf-896b-10cb61922490","ios":"levelo://app?vid=a2d976b2-4930-45bf-896b-10cb61922490"},"vehicle_type_id":"4","last_reported":1768317299,"current_range_meters":6400,"station_id":"ce4bhu92rcd13ifvqi70","pricing_plan_id":"cebpf4jnsgd1na2vs0mg"},{"bike_id":"9d34d7ef-34a4-4f23-96b5-b0ffcf64619b","system_id":"levelo_inurba_marseille","lat":43.26686,"lon":5.38272,"is_reserved":false,"is_disabled":false,"rental_uris":{"android":"levelo://app?vid=9d34d7ef-34a4-4f23-96b5-b0ffcf64619b","ios":"levelo://app?vid=9d34d7ef-34a4-4f23-96b5-b0ffcf64619b"},"vehicle_type_id":"4","last_reported":1768317299,"current_range_meters":6800,"station_id":"ce4bhg92rcd13ifvqf90","pricing_plan_id":"cebpf4jnsgd1na2vs0mg"},{"bike_id":"e81eb905-09b1-4753-bb4f-8434dc51b91d","system_id":"levelo_inurba_marseille","lat":43.26933,"lon":5.40261,"is_reserved":false,"is_disabled":false,"rental_uris":{"android":"levelo://app?vid=e81eb905-09b1-4753-bb4f-8434dc51b91d","ios":"levelo://app?vid=e81eb905-09b1-4753-bb4f-8434dc51b91d"},"vehicle_type_id":"4","last_reported":1768317299,"current_range_meters":6800,"station_id":"cjm6bp8fraef2m0cb0m0","pricing_plan_id":"cebpf4jnsgd1na2vs0mg"},{"bike_id":"22208846-fe9e-42ed-b3a4-e72578df85cf","system_id":"levelo_inurba_marseille","lat":43.26558,"lon":5.37286,"is_reserved":false,"is_disabled":false,"rental_uris":{"android":"levelo://app?vid=22208846-fe9e-42ed-b3a4-e72578df85cf","ios":"levelo://app?vid=22208846-fe9e-42ed-b3a4-e72578df85cf"},"vehicle_type_id":"4","last_reported":1768317299,"current_range_meters":6800,"station_id":"ce4bhg12rcd13ifvqf70","pricing_plan_id":"cebpf4jnsgd1na2vs0mg"},{"bike_id":"34809879-5c78-46b9-8640-8f0f333de3ff","system_id":"levelo_inurba_marseille","lat":43.23183,"lon":5.39991,"is_reserved":false,"is_disabled":false,"rental_uris":{"android":"levelo://app?vid=34809879-5c78-46b9-8640-8f0f333de3ff","ios":"levelo://app?vid=34809879-5c78-46b9-8640-8f0f333de3ff"},"vehicle_type_id":"4","last_reported":1768317299,"current_range_meters":6800,"station_id":"ce4bhn12rcd13ifvqgqg","pricing_plan_id":"cebpf4jnsgd1na2vs0mg"},{"bike_id":"a7e9da85-2825-4326-8185-1fdd5fa85314","system_id":"levelo_inurba_marseille","lat":43.32444,"lon":5.36527,"is_reserved":false,"is_disabled":false,"rental_uris":{"android":"levelo://app?vid=a7e9da85-2825-4326-8185-1fdd5fa85314","ios":"levelo://app?vid=a7e9da85-2825-4326-8185-1fdd5fa85314"},"vehicle_type_id":"4","last_reported":1768317299,"current_range_meters":6800,"station_id":"ce4bhs12rcd13ifvqhvg","pricing_plan_id":"cebpf4jnsgd1na2vs0mg"},{"bike_id":"5c5e9bb7-bb73-4db6-a458-5ba3293a46da","system_id":"levelo_inurba_marseille","lat":43.31358,"lon":5.36731,"is_reserved":false,"is_disabled":false,"rental_uris":{"android":"levelo://app?vid=5c5e9bb7-bb73-4db6-a458-5ba3293a46da","ios":"levelo://app?vid=5c5e9bb7-bb73-4db6-a458-5ba3293a46da"},"vehicle_type_id":"4","last_reported":1768317299,"current_range_meters":6800,"station_id":"ce4bgr92rcd13ifvqc6g","pricing_plan_id":"cebpf4jnsgd1na2vs0mg"},{"bike_id":"4027d1cb-ad1c-45a8-bf1d-57fe43f8c304","system_id":"levelo_inurba_marseille","lat":43.28979,"lon":5.39055,"is_reserved":false,"is_disabled":false,"rental_uris":{"android":"levelo://app?vid=4027d1cb-ad1c-45a8-bf1d-57fe43f8c304","ios":"levelo://app?vid=4027d1cb-ad1c-45a8-bf1d-57fe43f8c304"},"vehicle_type_id":"4","last_reported":1768317299,"current_range_meters":6800,"station_id":"","pricing_plan_id":"cebpf4jnsgd1na2vs0mg"},{"bike_id":"69987fb0-9d36-4b3a-8334-fc5121bd0232","system_id":"levelo_inurba_marseille","lat":43.24395,"lon":5.37065,"is_reserved":false,"is_disabled":false,"rental_uris":{"android":"levelo://app?vid=69987fb0-9d36-4b3a-8334-fc5121bd0232","ios":"levelo://app?vid=69987fb0-9d36-4b3a-8334-fc5121bd0232"},"vehicle_type_id":"4","last_reported":1768317299,"current_range_meters":6800,"station_id":"ce4bhhh2rcd13ifvqfk0","pricing_plan_id":"cebpf4jnsgd1na2vs0mg"},{"bike_id":"d97e0ede-3940-40ea-9e91-339dcd403227","system_id":"levelo_inurba_marseille","lat":43.25722,"lon":5.4111,"is_reserved":false,"is_disabled":false,"rental_uris":{"android":"levelo://app?vid=d97e0ede-3940-40ea-9e91-339dcd403227","ios":"levelo://app?vid=d97e0ede-3940-40ea-9e91-339dcd403227"},"vehicle_type_id":"4","last_reported":1768317299,"current_range_meters":6800,"station_id":"ce4bhkp2rcd13ifvqgd0","pricing_plan_id":"cebpf4jnsgd1na2vs0mg"},{"bike_id":"262f6409-1576-4af7-9308-61cdd658e244","system_id":"levelo_inurba_marseille","lat":43.2976,"lon":5.42774,"is_reserved":false,"is_disabled":false,"rental_uris":{"android":"levelo://app?vid=262f6409-1576-4af7-9308-61cdd658e244","ios":"levelo://app?vid=262f6409-1576-4af7-9308-61cdd658e244"},"vehicle_type_id":"4","last_reported":1768317299,"current_range_meters":6800,"station_id":"st_d3md5207bmas73dh9klg","pricing_plan_id":"cebpf4jnsgd1na2vs0mg"},{"bike_id":"bee2231a-aedd-4f8a-ae11-883f123d575e","system_id":"levelo_inurba_marseille","lat":43.31221,"lon":5.38168,"is_reserved":false,"is_disabled":false,"rental_uris":{"android":"levelo://app?vid=bee2231a-aedd-4f8a-ae11-883f123d575e","ios":"levelo://app?vid=bee2231a-aedd-4f8a-ae11-883f123d575e"},"vehicle_type_id":"4","last_reported":1768317299,"current_range_meters":6800,"station_id":"","pricing_plan_id":"cebpf4jnsgd1na2vs0mg"},{"bike_id":"a8ecfe7d-195f-47f3-8f55-54974257ce75","system_id":"levelo_inurba_marseille","lat":43.26567,"lon":5.40324,"is_reserved":false,"is_disabled":false,"rental_uris":{"android":"levelo://app?vid=a8ecfe7d-195f-47f3-8f55-54974257ce75","ios":"levelo://app?vid=a8ecfe7d-195f-47f3-8f55-54974257ce75"},"vehicle_type_id":"4","last_reported":1768317299,"current_range_meters":7200,"station_id":"ce4bhmp2rcd13ifvqgng","pricing_plan_id":"cebpf4jnsgd1na2vs0mg"},{"bike_id":"dc941693-f968-4335-a586-0547afadf857","system_id":"levelo_inurba_marseille","lat":43.25506,"lon":5.3765,"is_reserved":false,"is_disabled":false,"rental_uris":{"android":"levelo://app?vid=dc941693-f968-4335-a586-0547afadf857","ios":"levelo://app?vid=dc941693-f968-4335-a586-0547afadf857"},"vehicle_type_id":"4","last_reported":1768317299,"current_range_meters":7200,"station_id":"ce4bhh12rcd13ifvqff0","pricing_plan_id":"cebpf4jnsgd1na2vs0mg"},{"bike_id":"1fc2f7a4-cdad-4403-91cb-aa55d54c7769","system_id":"levelo_inurba_marseille","lat":43.31485,"lon":5.37311,"is_reserved":false,"is_disabled":false,"rental_uris":{"android":"levelo://app?vid=1fc2f7a4-cdad-4403-91cb-aa55d54c7769","ios":"levelo://app?vid=1fc2f7a4-cdad-4403-91cb-aa55d54c7769"},"vehicle_type_id":"4","last_reported":1768317299,"current_range_meters":7200,"station_id":"ce4bgt12rcd13ifvqcd0","pricing_plan_id":"cebpf4jnsgd1na2vs0mg"},{"bike_id":"d8b52035-9107-4203-ba3b-8ab85229defc","system_id":"levelo_inurba_marseille","lat":43.25885,"lon":5.39923,"is_reserved":false,"is_disabled":true,"rental_uris":{"android":"levelo://app?vid=d8b52035-9107-4203-ba3b-8ab85229defc","ios":"levelo://app?vid=d8b52035-9107-4203-ba3b-8ab85229defc"},"vehicle_type_id":"4","last_reported":1768317299,"current_range_meters":7200,"station_id":"ce4bhl92rcd13ifvqghg","pricing_plan_id":"cebpf4jnsgd1na2vs0mg"},{"bike_id":"278e4a8b-7a29-40ff-9b74-5aa7e88774ac","system_id":"levelo_inurba_marseille","lat":43.244695,"lon":5.425419,"is_reserved":false,"is_disabled":false,"rental_uris":{"android":"levelo://app?vid=278e4a8b-7a29-40ff-9b74-5aa7e88774ac","ios":"levelo://app?vid=278e4a8b-7a29-40ff-9b74-5aa7e88774ac"},"vehicle_type_id":"4","last_reported":1768317299,"current_range_meters":7200,"station_id":"st_d4a3vfp97mjs738cd8kg","pricing_plan_id":"cebpf4jnsgd1na2vs0mg"},{"bike_id":"ffcf206e-2a6e-4fc2-8998-7e22064b3e4e","system_id":"levelo_inurba_marseille","lat":43.295294,"lon":5.385488,"is_reserved":false,"is_disabled":false,"rental_uris":{"android":"levelo://app?vid=ffcf206e-2a6e-4fc2-8998-7e22064b3e4e","ios":"levelo://app?vid=ffcf206e-2a6e-4fc2-8998-7e22064b3e4e"},"vehicle_type_id":"4","last_reported":1768317299,"current_range_meters":7200,"station_id":"ce4bgih2rcd13ifvqba0","pricing_plan_id":"cebpf4jnsgd1na2vs0mg"},{"bike_id":"35361d4e-38f0-417d-a5fe-17895b791255","system_id":"levelo_inurba_marseille","lat":43.28004,"lon":5.40005,"is_reserved":false,"is_disabled":false,"rental_uris":{"android":"levelo://app?vid=35361d4e-38f0-417d-a5fe-17895b791255","ios":"levelo://app?vid=35361d4e-38f0-417d-a5fe-17895b791255"},"vehicle_type_id":"4","last_reported":1768317299,"current_range_meters":7200,"station_id":"ce4bho92rcd13ifvqh4g","pricing_plan_id":"cebpf4jnsgd1na2vs0mg"},{"bike_id":"cafe9508-7db5-496a-a0cd-bcd349231be5","system_id":"levelo_inurba_marseille","lat":43.25512,"lon":5.37658,"is_reserved":false,"is_disabled":false,"rental_uris":{"android":"levelo://app?vid=cafe9508-7db5-496a-a0cd-bcd349231be5","ios":"levelo://app?vid=cafe9508-7db5-496a-a0cd-bcd349231be5"},"vehicle_type_id":"4","last_reported":1768317299,"current_range_meters":7200,"station_id":"ce4bhh12rcd13ifvqff0","pricing_plan_id":"cebpf4jnsgd1na2vs0mg"},{"bike_id":"bc5cd93f-d585-49c3-9607-60b0a01cd8da","system_id":"levelo_inurba_marseille","lat":43.31359,"lon":5.36648,"is_reserved":false,"is_disabled":false,"rental_uris":{"android":"levelo://app?vid=bc5cd93f-d585-49c3-9607-60b0a01cd8da","ios":"levelo://app?vid=bc5cd93f-d585-49c3-9607-60b0a01cd8da"},"vehicle_type_id":"4","last_reported":1768317299,"current_range_meters":7200,"station_id":"ce4bgr92rcd13ifvqc6g","pricing_plan_id":"cebpf4jnsgd1na2vs0mg"},{"bike_id":"f5353b18-e643-49cf-ae84-ebccc1479298","system_id":"levelo_inurba_marseille","lat":43.29783,"lon":5.37102,"is_reserved":false,"is_disabled":false,"rental_uris":{"android":"levelo://app?vid=f5353b18-e643-49cf-ae84-ebccc1479298","ios":"levelo://app?vid=f5353b18-e643-49cf-ae84-ebccc1479298"},"vehicle_type_id":"4","last_reported":1768317299,"current_range_meters":7200,"station_id":"ce4bgop2rcd13ifvqc1g","pricing_plan_id":"cebpf4jnsgd1na2vs0mg"},{"bike_id":"b945bd28-a3b4-4961-a0bf-743fe57cc1a5","system_id":"levelo_inurba_marseille","lat":43.29893,"lon":5.43651,"is_reserved":false,"is_disabled":false,"rental_uris":{"android":"levelo://app?vid=b945bd28-a3b4-4961-a0bf-743fe57cc1a5","ios":"levelo://app?vid=b945bd28-a3b4-4961-a0bf-743fe57cc1a5"},"vehicle_type_id":"4","last_reported":1768317299,"current_range_meters":7200,"station_id":"ce4bhpp2rcd13ifvqhfg","pricing_plan_id":"cebpf4jnsgd1na2vs0mg"},{"bike_id":"b41f9551-ae47-4da7-a60d-f3352e00b4ad","system_id":"levelo_inurba_marseille","lat":43.28475,"lon":5.48383,"is_reserved":false,"is_disabled":false,"rental_uris":{"android":"levelo://app?vid=b41f9551-ae47-4da7-a60d-f3352e00b4ad","ios":"levelo://app?vid=b41f9551-ae47-4da7-a60d-f3352e00b4ad"},"vehicle_type_id":"4","last_reported":1768317299,"current_range_meters":7200,"station_id":"","pricing_plan_id":"cebpf4jnsgd1na2vs0mg"},{"bike_id":"656f7124-70b2-47ea-af21-9a7fe3a05e60","system_id":"levelo_inurba_marseille","lat":43.29014,"lon":5.35605,"is_reserved":false,"is_disabled":false,"rental_uris":{"android":"levelo://app?vid=656f7124-70b2-47ea-af21-9a7fe3a05e60","ios":"levelo://app?vid=656f7124-70b2-47ea-af21-9a7fe3a05e60"},"vehicle_type_id":"4","last_reported":1768317299,"current_range_meters":7200,"station_id":"ce4bhb92rcd13ifvqen0","pricing_plan_id":"cebpf4jnsgd1na2vs0mg"},{"bike_id":"19acb0d9-5641-4610-b2b2-7ba868c5f563","system_id":"levelo_inurba_marseille","lat":43.23964,"lon":5.36615,"is_reserved":false,"is_disabled":false,"rental_uris":{"android":"levelo://app?vid=19acb0d9-5641-4610-b2b2-7ba868c5f563","ios":"levelo://app?vid=19acb0d9-5641-4610-b2b2-7ba868c5f563"},"vehicle_type_id":"4","last_reported":1768317299,"current_range_meters":7200,"station_id":"ce4bhi12rcd13ifvqfp0","pricing_plan_id":"cebpf4jnsgd1na2vs0mg"},{"bike_id":"a6264499-99d7-4bff-a8d4-07bf735aaf88","system_id":"levelo_inurba_marseille","lat":43.27911,"lon":5.39585,"is_reserved":false,"is_disabled":false,"rental_uris":{"android":"levelo://app?vid=a6264499-99d7-4bff-a8d4-07bf735aaf88","ios":"levelo://app?vid=a6264499-99d7-4bff-a8d4-07bf735aaf88"},"vehicle_type_id":"4","last_reported":1768317299,"current_range_meters":7200,"station_id":"ce4bhf92rcd13ifvqf40","pricing_plan_id":"cebpf4jnsgd1na2vs0mg"},{"bike_id":"37f478a4-02ba-45f2-a4d6-fdcdc6b39bc8","system_id":"levelo_inurba_marseille","lat":43.288263,"lon":5.426354,"is_reserved":false,"is_disabled":false,"rental_uris":{"android":"levelo://app?vid=37f478a4-02ba-45f2-a4d6-fdcdc6b39bc8","ios":"levelo://app?vid=37f478a4-02ba-45f2-a4d6-fdcdc6b39bc8"},"vehicle_type_id":"4","last_reported":1768317299,"current_range_meters":7200,"station_id":"","pricing_plan_id":"cebpf4jnsgd1na2vs0mg"},{"bike_id":"39becb68-37d2-4fe5-af83-65d5813b987b","system_id":"levelo_inurba_marseille","lat":43.325245,"lon":5.368773,"is_reserved":false,"is_disabled":false,"rental_uris":{"android":"levelo://app?vid=39becb68-37d2-4fe5-af83-65d5813b987b","ios":"levelo://app?vid=39becb68-37d2-4fe5-af83-65d5813b987b"},"vehicle_type_id":"4","last_reported":1768317299,"current_range_meters":7200,"station_id":"","pricing_plan_id":"cebpf4jnsgd1na2vs0mg"},{"bike_id":"d12a5c37-df8a-440d-b99b-49d121d9a484","system_id":"levelo_inurba_marseille","lat":43.22932,"lon":5.35384,"is_reserved":false,"is_disabled":false,"rental_uris":{"android":"levelo://app?vid=d12a5c37-df8a-440d-b99b-49d121d9a484","ios":"levelo://app?vid=d12a5c37-df8a-440d-b99b-49d121d9a484"},"vehicle_type_id":"4","last_reported":1768317299,"current_range_meters":7200,"station_id":"cpo3532slgdg3j2ikp40","pricing_plan_id":"cebpf4jnsgd1na2vs0mg"},{"bike_id":"b4ce2c96-b133-4801-953d-fc43d5d84528","system_id":"levelo_inurba_marseille","lat":43.26183,"lon":5.37476,"is_reserved":false,"is_disabled":false,"rental_uris":{"android":"levelo://app?vid=b4ce2c96-b133-4801-953d-fc43d5d84528","ios":"levelo://app?vid=b4ce2c96-b133-4801-953d-fc43d5d84528"},"vehicle_type_id":"4","last_reported":1768317299,"current_range_meters":7200,"station_id":"ce4bhgp2rcd13ifvqfc0","pricing_plan_id":"cebpf4jnsgd1na2vs0mg"},{"bike_id":"de8bce9e-23c3-4d31-90cc-ef6dcb9fccf3","system_id":"levelo_inurba_marseille","lat":43.30118,"lon":5.43121,"is_reserved":false,"is_disabled":false,"rental_uris":{"android":"levelo://app?vid=de8bce9e-23c3-4d31-90cc-ef6dcb9fccf3","ios":"levelo://app?vid=de8bce9e-23c3-4d31-90cc-ef6dcb9fccf3"},"vehicle_type_id":"4","last_reported":1768317299,"current_range_meters":7200,"station_id":"st_d3js3co5814s73ftftug","pricing_plan_id":"cebpf4jnsgd1na2vs0mg"},{"bike_id":"614a562d-2005-4cf7-9f04-119c8ed3d172","system_id":"levelo_inurba_marseille","lat":43.29314,"lon":5.37258,"is_reserved":false,"is_disabled":false,"rental_uris":{"android":"levelo://app?vid=614a562d-2005-4cf7-9f04-119c8ed3d172","ios":"levelo://app?vid=614a562d-2005-4cf7-9f04-119c8ed3d172"},"vehicle_type_id":"4","last_reported":1768317299,"current_range_meters":8000,"station_id":"","pricing_plan_id":"cebpf4jnsgd1na2vs0mg"},{"bike_id":"0c4529d2-9a4f-4a24-adad-ec9494efd665","system_id":"levelo_inurba_marseille","lat":43.29761,"lon":5.42779,"is_reserved":false,"is_disabled":false,"rental_uris":{"android":"levelo://app?vid=0c4529d2-9a4f-4a24-adad-ec9494efd665","ios":"levelo://app?vid=0c4529d2-9a4f-4a24-adad-ec9494efd665"},"vehicle_type_id":"4","last_reported":1768317299,"current_range_meters":8000,"station_id":"st_d3md5207bmas73dh9klg","pricing_plan_id":"cebpf4jnsgd1na2vs0mg"},{"bike_id":"d8b7a56d-0319-4556-9ba7-cd78d8eac0e9","system_id":"levelo_inurba_marseille","lat":43.24392,"lon":5.37057,"is_reserved":false,"is_disabled":false,"rental_uris":{"android":"levelo://app?vid=d8b7a56d-0319-4556-9ba7-cd78d8eac0e9","ios":"levelo://app?vid=d8b7a56d-0319-4556-9ba7-cd78d8eac0e9"},"vehicle_type_id":"4","last_reported":1768317299,"current_range_meters":8000,"station_id":"ce4bhhh2rcd13ifvqfk0","pricing_plan_id":"cebpf4jnsgd1na2vs0mg"},{"bike_id":"a9ceab4f-7363-474c-a0e0-4e83cf033539","system_id":"levelo_inurba_marseille","lat":43.28919,"lon":5.36613,"is_reserved":false,"is_disabled":false,"rental_uris":{"android":"levelo://app?vid=a9ceab4f-7363-474c-a0e0-4e83cf033539","ios":"levelo://app?vid=a9ceab4f-7363-474c-a0e0-4e83cf033539"},"vehicle_type_id":"4","last_reported":1768317299,"current_range_meters":8000,"station_id":"ce4bhap2rcd13ifvqek0","pricing_plan_id":"cebpf4jnsgd1na2vs0mg"},{"bike_id":"7aebede3-29e7-422e-9949-e6406848b636","system_id":"levelo_inurba_marseille","lat":43.25114,"lon":5.40317,"is_reserved":false,"is_disabled":false,"rental_uris":{"android":"levelo://app?vid=7aebede3-29e7-422e-9949-e6406848b636","ios":"levelo://app?vid=7aebede3-29e7-422e-9949-e6406848b636"},"vehicle_type_id":"4","last_reported":1768317299,"current_range_meters":8000,"station_id":"ce4bhlh2rcd13ifvqgig","pricing_plan_id":"cebpf4jnsgd1na2vs0mg"},{"bike_id":"23059b02-0e8e-4e35-a50a-745f2b4eb103","system_id":"levelo_inurba_marseille","lat":43.2955,"lon":5.42295,"is_reserved":false,"is_disabled":false,"rental_uris":{"android":"levelo://app?vid=23059b02-0e8e-4e35-a50a-745f2b4eb103","ios":"levelo://app?vid=23059b02-0e8e-4e35-a50a-745f2b4eb103"},"vehicle_type_id":"4","last_reported":1768317299,"current_range_meters":8000,"station_id":"","pricing_plan_id":"cebpf4jnsgd1na2vs0mg"},{"bike_id":"ea9769ab-39d8-4325-b701-f75eef547046","system_id":"levelo_inurba_marseille","lat":43.22539,"lon":5.34823,"is_reserved":false,"is_disabled":false,"rental_uris":{"android":"levelo://app?vid=ea9769ab-39d8-4325-b701-f75eef547046","ios":"levelo://app?vid=ea9769ab-39d8-4325-b701-f75eef547046"},"vehicle_type_id":"4","last_reported":1768317299,"current_range_meters":8000,"station_id":"st_cvj5dfep6f1abm77gieg","pricing_plan_id":"cebpf4jnsgd1na2vs0mg"},{"bike_id":"8a689e49-1449-46e9-9d9f-6cee66305474","system_id":"levelo_inurba_marseille","lat":43.29267,"lon":5.4091,"is_reserved":false,"is_disabled":true,"rental_uris":{"android":"levelo://app?vid=8a689e49-1449-46e9-9d9f-6cee66305474","ios":"levelo://app?vid=8a689e49-1449-46e9-9d9f-6cee66305474"},"vehicle_type_id":"4","last_reported":1768317299,"current_range_meters":8000,"station_id":"ce4bh192rcd13ifvqdc0","pricing_plan_id":"cebpf4jnsgd1na2vs0mg"},{"bike_id":"a7cfbd20-f164-49e6-9f87-847432bce4ed","system_id":"levelo_inurba_marseille","lat":43.30149,"lon":5.37434,"is_reserved":false,"is_disabled":false,"rental_uris":{"android":"levelo://app?vid=a7cfbd20-f164-49e6-9f87-847432bce4ed","ios":"levelo://app?vid=a7cfbd20-f164-49e6-9f87-847432bce4ed"},"vehicle_type_id":"4","last_reported":1768317299,"current_range_meters":8000,"station_id":"ce4bgs92rcd13ifvqcc0","pricing_plan_id":"cebpf4jnsgd1na2vs0mg"},{"bike_id":"f4e4b3c5-0d7e-4b71-942a-f14749e3eadc","system_id":"levelo_inurba_marseille","lat":43.293792,"lon":5.378672,"is_reserved":false,"is_disabled":false,"rental_uris":{"android":"levelo://app?vid=f4e4b3c5-0d7e-4b71-942a-f14749e3eadc","ios":"levelo://app?vid=f4e4b3c5-0d7e-4b71-942a-f14749e3eadc"},"vehicle_type_id":"4","last_reported":1768317299,"current_range_meters":8000,"station_id":"ce4bgjh2rcd13ifvqbf0","pricing_plan_id":"cebpf4jnsgd1na2vs0mg"},{"bike_id":"30412a0b-cffe-4f56-8a0e-b4217663d4e7","system_id":"levelo_inurba_marseille","lat":43.305293,"lon":5.384182,"is_reserved":false,"is_disabled":false,"rental_uris":{"android":"levelo://app?vid=30412a0b-cffe-4f56-8a0e-b4217663d4e7","ios":"levelo://app?vid=30412a0b-cffe-4f56-8a0e-b4217663d4e7"},"vehicle_type_id":"4","last_reported":1768317299,"current_range_meters":8000,"station_id":"ce4bgg92rcd13ifvqb30","pricing_plan_id":"cebpf4jnsgd1na2vs0mg"},{"bike_id":"0aa92035-0412-441a-8fce-becc2ed533ed","system_id":"levelo_inurba_marseille","lat":43.27949,"lon":5.41032,"is_reserved":false,"is_disabled":false,"rental_uris":{"android":"levelo://app?vid=0aa92035-0412-441a-8fce-becc2ed533ed","ios":"levelo://app?vid=0aa92035-0412-441a-8fce-becc2ed533ed"},"vehicle_type_id":"4","last_reported":1768317299,"current_range_meters":8000,"station_id":"ce4bhnp2rcd13ifvqh0g","pricing_plan_id":"cebpf4jnsgd1na2vs0mg"},{"bike_id":"7565d9e4-5737-444e-a6cb-70b726a9685a","system_id":"levelo_inurba_marseille","lat":43.243874,"lon":5.370688,"is_reserved":false,"is_disabled":false,"rental_uris":{"android":"levelo://app?vid=7565d9e4-5737-444e-a6cb-70b726a9685a","ios":"levelo://app?vid=7565d9e4-5737-444e-a6cb-70b726a9685a"},"vehicle_type_id":"4","last_reported":1768317299,"current_range_meters":8000,"station_id":"ce4bhhh2rcd13ifvqfk0","pricing_plan_id":"cebpf4jnsgd1na2vs0mg"},{"bike_id":"af87aeaa-0410-4399-8f6b-db7f080703c4","system_id":"levelo_inurba_marseille","lat":43.29802,"lon":5.38102,"is_reserved":false,"is_disabled":false,"rental_uris":{"android":"levelo://app?vid=af87aeaa-0410-4399-8f6b-db7f080703c4","ios":"levelo://app?vid=af87aeaa-0410-4399-8f6b-db7f080703c4"},"vehicle_type_id":"4","last_reported":1768317299,"current_range_meters":8000,"station_id":"ce4bgip2rcd13ifvqbb0","pricing_plan_id":"cebpf4jnsgd1na2vs0mg"},{"bike_id":"18d2c8c2-2161-4f2d-b7be-9a2ae4edef8c","system_id":"levelo_inurba_marseille","lat":43.31768,"lon":5.39017,"is_reserved":false,"is_disabled":false,"rental_uris":{"android":"levelo://app?vid=18d2c8c2-2161-4f2d-b7be-9a2ae4edef8c","ios":"levelo://app?vid=18d2c8c2-2161-4f2d-b7be-9a2ae4edef8c"},"vehicle_type_id":"4","last_reported":1768317299,"current_range_meters":8000,"station_id":"ce4bhqp2rcd13ifvqhng","pricing_plan_id":"cebpf4jnsgd1na2vs0mg"},{"bike_id":"99eb6c51-7f0f-4137-8b85-23f4caea2333","system_id":"levelo_inurba_marseille","lat":43.29897,"lon":5.39663,"is_reserved":false,"is_disabled":false,"rental_uris":{"android":"levelo://app?vid=99eb6c51-7f0f-4137-8b85-23f4caea2333","ios":"levelo://app?vid=99eb6c51-7f0f-4137-8b85-23f4caea2333"},"vehicle_type_id":"4","last_reported":1768317299,"current_range_meters":8000,"station_id":"","pricing_plan_id":"cebpf4jnsgd1na2vs0mg"},{"bike_id":"3655a9f7-901b-4885-8038-e7046951f14d","system_id":"levelo_inurba_marseille","lat":43.2976,"lon":5.42779,"is_reserved":false,"is_disabled":false,"rental_uris":{"android":"levelo://app?vid=3655a9f7-901b-4885-8038-e7046951f14d","ios":"levelo://app?vid=3655a9f7-901b-4885-8038-e7046951f14d"},"vehicle_type_id":"4","last_reported":1768317299,"current_range_meters":8000,"station_id":"st_d3md5207bmas73dh9klg","pricing_plan_id":"cebpf4jnsgd1na2vs0mg"},{"bike_id":"bd775e48-d828-4e0d-b34e-875893c0bb86","system_id":"levelo_inurba_marseille","lat":43.25931,"lon":5.40898,"is_reserved":false,"is_disabled":false,"rental_uris":{"android":"levelo://app?vid=bd775e48-d828-4e0d-b34e-875893c0bb86","ios":"levelo://app?vid=bd775e48-d828-4e0d-b34e-875893c0bb86"},"vehicle_type_id":"4","last_reported":1768317299,"current_range_meters":8000,"station_id":"ce4bhm92rcd13ifvqglg","pricing_plan_id":"cebpf4jnsgd1na2vs0mg"},{"bike_id":"18e7aed4-7cab-4e5f-b147-5c98f8a1e192","system_id":"levelo_inurba_marseille","lat":43.32365,"lon":5.36788,"is_reserved":false,"is_disabled":false,"rental_uris":{"android":"levelo://app?vid=18e7aed4-7cab-4e5f-b147-5c98f8a1e192","ios":"levelo://app?vid=18e7aed4-7cab-4e5f-b147-5c98f8a1e192"},"vehicle_type_id":"4","last_reported":1768317299,"current_range_meters":8400,"station_id":"ce4bhsh2rcd13ifvqi2g","pricing_plan_id":"cebpf4jnsgd1na2vs0mg"},{"bike_id":"5737ab1c-0eee-4f1e-9ebd-718d451e6778","system_id":"levelo_inurba_marseille","lat":43.2827,"lon":5.35063,"is_reserved":false,"is_disabled":false,"rental_uris":{"android":"levelo://app?vid=5737ab1c-0eee-4f1e-9ebd-718d451e6778","ios":"levelo://app?vid=5737ab1c-0eee-4f1e-9ebd-718d451e6778"},"vehicle_type_id":"4","last_reported":1768317299,"current_range_meters":8400,"station_id":"ce4bhbp2rcd13ifvqerg","pricing_plan_id":"cebpf4jnsgd1na2vs0mg"},{"bike_id":"73d7c112-34e9-4e68-a91d-76c99113ff26","system_id":"levelo_inurba_marseille","lat":43.28675,"lon":5.38684,"is_reserved":false,"is_disabled":false,"rental_uris":{"android":"levelo://app?vid=73d7c112-34e9-4e68-a91d-76c99113ff26","ios":"levelo://app?vid=73d7c112-34e9-4e68-a91d-76c99113ff26"},"vehicle_type_id":"4","last_reported":1768317299,"current_range_meters":8400,"station_id":"ce4bh492rcd13ifvqdug","pricing_plan_id":"cebpf4jnsgd1na2vs0mg"},{"bike_id":"7aaa5463-7c58-4e08-89ff-e62dd5259471","system_id":"levelo_inurba_marseille","lat":43.24812,"lon":5.37462,"is_reserved":false,"is_disabled":false,"rental_uris":{"android":"levelo://app?vid=7aaa5463-7c58-4e08-89ff-e62dd5259471","ios":"levelo://app?vid=7aaa5463-7c58-4e08-89ff-e62dd5259471"},"vehicle_type_id":"4","last_reported":1768317299,"current_range_meters":8400,"station_id":"ce4bhgh2rcd13ifvqfb0","pricing_plan_id":"cebpf4jnsgd1na2vs0mg"},{"bike_id":"5432ac27-1d82-41d7-a7a8-9c5fbf4f6793","system_id":"levelo_inurba_marseille","lat":43.23812,"lon":5.36636,"is_reserved":false,"is_disabled":false,"rental_uris":{"android":"levelo://app?vid=5432ac27-1d82-41d7-a7a8-9c5fbf4f6793","ios":"levelo://app?vid=5432ac27-1d82-41d7-a7a8-9c5fbf4f6793"},"vehicle_type_id":"4","last_reported":1768317299,"current_range_meters":8400,"station_id":"st_d3nk18o9ro0c73en2l3g","pricing_plan_id":"cebpf4jnsgd1na2vs0mg"},{"bike_id":"03ff8d42-84cb-40f4-a4fb-d8fa574268df","system_id":"levelo_inurba_marseille","lat":43.26802,"lon":5.40264,"is_reserved":false,"is_disabled":false,"rental_uris":{"android":"levelo://app?vid=03ff8d42-84cb-40f4-a4fb-d8fa574268df","ios":"levelo://app?vid=03ff8d42-84cb-40f4-a4fb-d8fa574268df"},"vehicle_type_id":"4","last_reported":1768317299,"current_range_meters":8400,"station_id":"ce501612rcd8frsf0b60","pricing_plan_id":"cebpf4jnsgd1na2vs0mg"},{"bike_id":"0b0bd9e8-0e91-4cd7-8087-c13549508128","system_id":"levelo_inurba_marseille","lat":43.28532,"lon":5.44087,"is_reserved":false,"is_disabled":false,"rental_uris":{"android":"levelo://app?vid=0b0bd9e8-0e91-4cd7-8087-c13549508128","ios":"levelo://app?vid=0b0bd9e8-0e91-4cd7-8087-c13549508128"},"vehicle_type_id":"4","last_reported":1768317299,"current_range_meters":8400,"station_id":"st_d3j3df2ikq2c7380ej80","pricing_plan_id":"cebpf4jnsgd1na2vs0mg"},{"bike_id":"2fd0ce20-64bf-4d2c-b779-69239fb2fb62","system_id":"levelo_inurba_marseille","lat":43.29044,"lon":5.39945,"is_reserved":false,"is_disabled":false,"rental_uris":{"android":"levelo://app?vid=2fd0ce20-64bf-4d2c-b779-69239fb2fb62","ios":"levelo://app?vid=2fd0ce20-64bf-4d2c-b779-69239fb2fb62"},"vehicle_type_id":"4","last_reported":1768317299,"current_range_meters":8400,"station_id":"ce4bh392rcd13ifvqdm0","pricing_plan_id":"cebpf4jnsgd1na2vs0mg"},{"bike_id":"956f2f43-0da9-4646-be7d-418ca296dc4d","system_id":"levelo_inurba_marseille","lat":43.29767,"lon":5.42779,"is_reserved":false,"is_disabled":false,"rental_uris":{"android":"levelo://app?vid=956f2f43-0da9-4646-be7d-418ca296dc4d","ios":"levelo://app?vid=956f2f43-0da9-4646-be7d-418ca296dc4d"},"vehicle_type_id":"4","last_reported":1768317299,"current_range_meters":8400,"station_id":"st_d3md5207bmas73dh9klg","pricing_plan_id":"cebpf4jnsgd1na2vs0mg"},{"bike_id":"5d21c596-50a9-4a98-8678-377ed372531b","system_id":"levelo_inurba_marseille","lat":43.23791,"lon":5.36627,"is_reserved":false,"is_disabled":false,"rental_uris":{"android":"levelo://app?vid=5d21c596-50a9-4a98-8678-377ed372531b","ios":"levelo://app?vid=5d21c596-50a9-4a98-8678-377ed372531b"},"vehicle_type_id":"4","last_reported":1768317299,"current_range_meters":8400,"station_id":"st_d3nk18o9ro0c73en2l3g","pricing_plan_id":"cebpf4jnsgd1na2vs0mg"},{"bike_id":"a31c8f9e-9708-4ea2-9e5d-05e3441bc85f","system_id":"levelo_inurba_marseille","lat":43.28485,"lon":5.48391,"is_reserved":false,"is_disabled":false,"rental_uris":{"android":"levelo://app?vid=a31c8f9e-9708-4ea2-9e5d-05e3441bc85f","ios":"levelo://app?vid=a31c8f9e-9708-4ea2-9e5d-05e3441bc85f"},"vehicle_type_id":"4","last_reported":1768317299,"current_range_meters":8400,"station_id":"","pricing_plan_id":"cebpf4jnsgd1na2vs0mg"},{"bike_id":"dce34ae9-6b54-4567-9cc3-a453de46352f","system_id":"levelo_inurba_marseille","lat":43.2378,"lon":5.36637,"is_reserved":false,"is_disabled":false,"rental_uris":{"android":"levelo://app?vid=dce34ae9-6b54-4567-9cc3-a453de46352f","ios":"levelo://app?vid=dce34ae9-6b54-4567-9cc3-a453de46352f"},"vehicle_type_id":"4","last_reported":1768317299,"current_range_meters":8400,"station_id":"st_d3nk18o9ro0c73en2l3g","pricing_plan_id":"cebpf4jnsgd1na2vs0mg"},{"bike_id":"ec6556c0-8771-44be-b1ce-12b0d62b8bfb","system_id":"levelo_inurba_marseille","lat":43.32913,"lon":5.39137,"is_reserved":false,"is_disabled":false,"rental_uris":{"android":"levelo://app?vid=ec6556c0-8771-44be-b1ce-12b0d62b8bfb","ios":"levelo://app?vid=ec6556c0-8771-44be-b1ce-12b0d62b8bfb"},"vehicle_type_id":"4","last_reported":1768317299,"current_range_meters":8400,"station_id":"","pricing_plan_id":"cebpf4jnsgd1na2vs0mg"},{"bike_id":"b523c110-d25e-4af1-b7ea-2ae80dfe757b","system_id":"levelo_inurba_marseille","lat":43.23787,"lon":5.36628,"is_reserved":false,"is_disabled":false,"rental_uris":{"android":"levelo://app?vid=b523c110-d25e-4af1-b7ea-2ae80dfe757b","ios":"levelo://app?vid=b523c110-d25e-4af1-b7ea-2ae80dfe757b"},"vehicle_type_id":"4","last_reported":1768317299,"current_range_meters":8800,"station_id":"st_d3nk18o9ro0c73en2l3g","pricing_plan_id":"cebpf4jnsgd1na2vs0mg"},{"bike_id":"1e849bfd-5e56-4f1c-9246-70bc2c7a7bbf","system_id":"levelo_inurba_marseille","lat":43.26553,"lon":5.37289,"is_reserved":false,"is_disabled":false,"rental_uris":{"android":"levelo://app?vid=1e849bfd-5e56-4f1c-9246-70bc2c7a7bbf","ios":"levelo://app?vid=1e849bfd-5e56-4f1c-9246-70bc2c7a7bbf"},"vehicle_type_id":"4","last_reported":1768317299,"current_range_meters":8800,"station_id":"ce4bhg12rcd13ifvqf70","pricing_plan_id":"cebpf4jnsgd1na2vs0mg"},{"bike_id":"4da4b9b5-8e34-4a21-a7eb-76e6a1792527","system_id":"levelo_inurba_marseille","lat":43.28244,"lon":5.43047,"is_reserved":false,"is_disabled":false,"rental_uris":{"android":"levelo://app?vid=4da4b9b5-8e34-4a21-a7eb-76e6a1792527","ios":"levelo://app?vid=4da4b9b5-8e34-4a21-a7eb-76e6a1792527"},"vehicle_type_id":"4","last_reported":1768317299,"current_range_meters":8800,"station_id":"","pricing_plan_id":"cebpf4jnsgd1na2vs0mg"},{"bike_id":"9600ee7f-c134-429a-9b6a-b4eda8311a3e","system_id":"levelo_inurba_marseille","lat":43.24683,"lon":5.38167,"is_reserved":false,"is_disabled":true,"rental_uris":{"android":"levelo://app?vid=9600ee7f-c134-429a-9b6a-b4eda8311a3e","ios":"levelo://app?vid=9600ee7f-c134-429a-9b6a-b4eda8311a3e"},"vehicle_type_id":"4","last_reported":1768317299,"current_range_meters":8800,"station_id":"ce4bhih2rcd13ifvqfr0","pricing_plan_id":"cebpf4jnsgd1na2vs0mg"},{"bike_id":"c015e744-518d-4bbf-b671-6f0f7753dacc","system_id":"levelo_inurba_marseille","lat":43.31173,"lon":5.38714,"is_reserved":false,"is_disabled":false,"rental_uris":{"android":"levelo://app?vid=c015e744-518d-4bbf-b671-6f0f7753dacc","ios":"levelo://app?vid=c015e744-518d-4bbf-b671-6f0f7753dacc"},"vehicle_type_id":"4","last_reported":1768317299,"current_range_meters":8800,"station_id":"ce4bgv12rcd13ifvqcp0","pricing_plan_id":"cebpf4jnsgd1na2vs0mg"},{"bike_id":"92cdc27f-4766-48a4-a329-ea7a52a05a32","system_id":"levelo_inurba_marseille","lat":43.26947,"lon":5.4025,"is_reserved":false,"is_disabled":false,"rental_uris":{"android":"levelo://app?vid=92cdc27f-4766-48a4-a329-ea7a52a05a32","ios":"levelo://app?vid=92cdc27f-4766-48a4-a329-ea7a52a05a32"},"vehicle_type_id":"4","last_reported":1768317299,"current_range_meters":8800,"station_id":"cjm6bp8fraef2m0cb0m0","pricing_plan_id":"cebpf4jnsgd1na2vs0mg"},{"bike_id":"a6e9fc9a-b156-4d26-bea5-773ac0e34cdc","system_id":"levelo_inurba_marseille","lat":43.32492,"lon":5.38306,"is_reserved":false,"is_disabled":false,"rental_uris":{"android":"levelo://app?vid=a6e9fc9a-b156-4d26-bea5-773ac0e34cdc","ios":"levelo://app?vid=a6e9fc9a-b156-4d26-bea5-773ac0e34cdc"},"vehicle_type_id":"4","last_reported":1768317299,"current_range_meters":8800,"station_id":"st_d4asgbiv49dc73anf9m0","pricing_plan_id":"cebpf4jnsgd1na2vs0mg"},{"bike_id":"e4ceba95-9874-4924-9fa5-96771066b0ef","system_id":"levelo_inurba_marseille","lat":43.23962,"lon":5.36627,"is_reserved":false,"is_disabled":false,"rental_uris":{"android":"levelo://app?vid=e4ceba95-9874-4924-9fa5-96771066b0ef","ios":"levelo://app?vid=e4ceba95-9874-4924-9fa5-96771066b0ef"},"vehicle_type_id":"4","last_reported":1768317299,"current_range_meters":8800,"station_id":"ce4bhi12rcd13ifvqfp0","pricing_plan_id":"cebpf4jnsgd1na2vs0mg"},{"bike_id":"7cb71b2a-cdcb-4df1-8b45-14f0946816db","system_id":"levelo_inurba_marseille","lat":43.29523,"lon":5.38539,"is_reserved":false,"is_disabled":false,"rental_uris":{"android":"levelo://app?vid=7cb71b2a-cdcb-4df1-8b45-14f0946816db","ios":"levelo://app?vid=7cb71b2a-cdcb-4df1-8b45-14f0946816db"},"vehicle_type_id":"4","last_reported":1768317299,"current_range_meters":8800,"station_id":"ce4bgih2rcd13ifvqba0","pricing_plan_id":"cebpf4jnsgd1na2vs0mg"},{"bike_id":"584bf338-c091-4477-a85b-6b92e3996aac","system_id":"levelo_inurba_marseille","lat":43.23156,"lon":5.43711,"is_reserved":false,"is_disabled":false,"rental_uris":{"android":"levelo://app?vid=584bf338-c091-4477-a85b-6b92e3996aac","ios":"levelo://app?vid=584bf338-c091-4477-a85b-6b92e3996aac"},"vehicle_type_id":"4","last_reported":1768317299,"current_range_meters":8800,"station_id":"ce4bhmp2rcd13ifvqgog","pricing_plan_id":"cebpf4jnsgd1na2vs0mg"},{"bike_id":"dd54e566-1691-4f50-976d-5ad056add160","system_id":"levelo_inurba_marseille","lat":43.25116,"lon":5.40319,"is_reserved":false,"is_disabled":false,"rental_uris":{"android":"levelo://app?vid=dd54e566-1691-4f50-976d-5ad056add160","ios":"levelo://app?vid=dd54e566-1691-4f50-976d-5ad056add160"},"vehicle_type_id":"4","last_reported":1768317299,"current_range_meters":8800,"station_id":"ce4bhlh2rcd13ifvqgig","pricing_plan_id":"cebpf4jnsgd1na2vs0mg"},{"bike_id":"c85aecc3-09df-4150-9851-746cfd493df7","system_id":"levelo_inurba_marseille","lat":43.29265,"lon":5.36849,"is_reserved":false,"is_disabled":false,"rental_uris":{"android":"levelo://app?vid=c85aecc3-09df-4150-9851-746cfd493df7","ios":"levelo://app?vid=c85aecc3-09df-4150-9851-746cfd493df7"},"vehicle_type_id":"4","last_reported":1768317299,"current_range_meters":8800,"station_id":"ce4bhbp2rcd13ifvqesg","pricing_plan_id":"cebpf4jnsgd1na2vs0mg"},{"bike_id":"64889c23-94ff-4049-a5ad-1c968b54c6f4","system_id":"levelo_inurba_marseille","lat":43.33161,"lon":5.37685,"is_reserved":false,"is_disabled":false,"rental_uris":{"android":"levelo://app?vid=64889c23-94ff-4049-a5ad-1c968b54c6f4","ios":"levelo://app?vid=64889c23-94ff-4049-a5ad-1c968b54c6f4"},"vehicle_type_id":"4","last_reported":1768317299,"current_range_meters":8800,"station_id":"st_d46cu089ee8s73dldbu0","pricing_plan_id":"cebpf4jnsgd1na2vs0mg"},{"bike_id":"6f82e636-1cf8-4d17-966b-f1fdd1089a3d","system_id":"levelo_inurba_marseille","lat":43.30282,"lon":5.37271,"is_reserved":false,"is_disabled":false,"rental_uris":{"android":"levelo://app?vid=6f82e636-1cf8-4d17-966b-f1fdd1089a3d","ios":"levelo://app?vid=6f82e636-1cf8-4d17-966b-f1fdd1089a3d"},"vehicle_type_id":"4","last_reported":1768317299,"current_range_meters":8800,"station_id":"","pricing_plan_id":"cebpf4jnsgd1na2vs0mg"},{"bike_id":"8fd77de1-bbd8-443e-a3e7-92a6e5f56e38","system_id":"levelo_inurba_marseille","lat":43.29194,"lon":5.39317,"is_reserved":false,"is_disabled":false,"rental_uris":{"android":"levelo://app?vid=8fd77de1-bbd8-443e-a3e7-92a6e5f56e38","ios":"levelo://app?vid=8fd77de1-bbd8-443e-a3e7-92a6e5f56e38"},"vehicle_type_id":"4","last_reported":1768317299,"current_range_meters":8800,"station_id":"ce4bh192rcd13ifvqdd0","pricing_plan_id":"cebpf4jnsgd1na2vs0mg"},{"bike_id":"bf5123e9-c545-4468-a8a6-3bfb3f5d66f0","system_id":"levelo_inurba_marseille","lat":43.29966,"lon":5.38495,"is_reserved":false,"is_disabled":false,"rental_uris":{"android":"levelo://app?vid=bf5123e9-c545-4468-a8a6-3bfb3f5d66f0","ios":"levelo://app?vid=bf5123e9-c545-4468-a8a6-3bfb3f5d66f0"},"vehicle_type_id":"4","last_reported":1768317299,"current_range_meters":8800,"station_id":"ce4bgj92rcd13ifvqbd0","pricing_plan_id":"cebpf4jnsgd1na2vs0mg"},{"bike_id":"7183e2f8-35e1-482a-afc9-aa8b5e24a362","system_id":"levelo_inurba_marseille","lat":43.2592,"lon":5.40863,"is_reserved":false,"is_disabled":false,"rental_uris":{"android":"levelo://app?vid=7183e2f8-35e1-482a-afc9-aa8b5e24a362","ios":"levelo://app?vid=7183e2f8-35e1-482a-afc9-aa8b5e24a362"},"vehicle_type_id":"4","last_reported":1768317299,"current_range_meters":8800,"station_id":"","pricing_plan_id":"cebpf4jnsgd1na2vs0mg"},{"bike_id":"5f3f7816-15b2-42e6-8301-73c7c01ce517","system_id":"levelo_inurba_marseille","lat":43.28415,"lon":5.37509,"is_reserved":false,"is_disabled":false,"rental_uris":{"android":"levelo://app?vid=5f3f7816-15b2-42e6-8301-73c7c01ce517","ios":"levelo://app?vid=5f3f7816-15b2-42e6-8301-73c7c01ce517"},"vehicle_type_id":"4","last_reported":1768317299,"current_range_meters":8800,"station_id":"ce4bh412rcd13ifvqds0","pricing_plan_id":"cebpf4jnsgd1na2vs0mg"},{"bike_id":"43738401-0000-4ed6-a69e-b6ebffac4bdb","system_id":"levelo_inurba_marseille","lat":43.25119,"lon":5.40325,"is_reserved":false,"is_disabled":false,"rental_uris":{"android":"levelo://app?vid=43738401-0000-4ed6-a69e-b6ebffac4bdb","ios":"levelo://app?vid=43738401-0000-4ed6-a69e-b6ebffac4bdb"},"vehicle_type_id":"4","last_reported":1768317299,"current_range_meters":9200,"station_id":"ce4bhlh2rcd13ifvqgig","pricing_plan_id":"cebpf4jnsgd1na2vs0mg"},{"bike_id":"cff36d3a-a2a6-4fcb-ac92-f47e8ea4afef","system_id":"levelo_inurba_marseille","lat":43.28863,"lon":5.42519,"is_reserved":false,"is_disabled":false,"rental_uris":{"android":"levelo://app?vid=cff36d3a-a2a6-4fcb-ac92-f47e8ea4afef","ios":"levelo://app?vid=cff36d3a-a2a6-4fcb-ac92-f47e8ea4afef"},"vehicle_type_id":"4","last_reported":1768317299,"current_range_meters":9200,"station_id":"st_d3b462108ojc7389ooeg","pricing_plan_id":"cebpf4jnsgd1na2vs0mg"},{"bike_id":"1bf9cf6d-e072-4431-a82d-5627096c1643","system_id":"levelo_inurba_marseille","lat":43.29578,"lon":5.36781,"is_reserved":false,"is_disabled":false,"rental_uris":{"android":"levelo://app?vid=1bf9cf6d-e072-4431-a82d-5627096c1643","ios":"levelo://app?vid=1bf9cf6d-e072-4431-a82d-5627096c1643"},"vehicle_type_id":"4","last_reported":1768317299,"current_range_meters":9200,"station_id":"ce4bgph2rcd13ifvqc2g","pricing_plan_id":"cebpf4jnsgd1na2vs0mg"},{"bike_id":"8f354a2e-596f-4b04-aa4c-4dfa00082dc6","system_id":"levelo_inurba_marseille","lat":43.298038,"lon":5.381129,"is_reserved":false,"is_disabled":false,"rental_uris":{"android":"levelo://app?vid=8f354a2e-596f-4b04-aa4c-4dfa00082dc6","ios":"levelo://app?vid=8f354a2e-596f-4b04-aa4c-4dfa00082dc6"},"vehicle_type_id":"4","last_reported":1768317299,"current_range_meters":9200,"station_id":"ce4bgip2rcd13ifvqbb0","pricing_plan_id":"cebpf4jnsgd1na2vs0mg"},{"bike_id":"42f813e2-c72c-4951-98a8-675483c993dd","system_id":"levelo_inurba_marseille","lat":43.26208,"lon":5.37438,"is_reserved":false,"is_disabled":false,"rental_uris":{"android":"levelo://app?vid=42f813e2-c72c-4951-98a8-675483c993dd","ios":"levelo://app?vid=42f813e2-c72c-4951-98a8-675483c993dd"},"vehicle_type_id":"4","last_reported":1768317299,"current_range_meters":9200,"station_id":"ce4bhgp2rcd13ifvqfc0","pricing_plan_id":"cebpf4jnsgd1na2vs0mg"},{"bike_id":"5d753472-8af1-40a8-b93c-6901afeb049e","system_id":"levelo_inurba_marseille","lat":43.23746,"lon":5.3664,"is_reserved":false,"is_disabled":false,"rental_uris":{"android":"levelo://app?vid=5d753472-8af1-40a8-b93c-6901afeb049e","ios":"levelo://app?vid=5d753472-8af1-40a8-b93c-6901afeb049e"},"vehicle_type_id":"4","last_reported":1768317299,"current_range_meters":9200,"station_id":"st_d3nk18o9ro0c73en2l3g","pricing_plan_id":"cebpf4jnsgd1na2vs0mg"},{"bike_id":"53e022ad-e5c5-4539-8c53-cc2b0aa06d27","system_id":"levelo_inurba_marseille","lat":43.28327,"lon":5.38846,"is_reserved":false,"is_disabled":true,"rental_uris":{"android":"levelo://app?vid=53e022ad-e5c5-4539-8c53-cc2b0aa06d27","ios":"levelo://app?vid=53e022ad-e5c5-4539-8c53-cc2b0aa06d27"},"vehicle_type_id":"4","last_reported":1768317299,"current_range_meters":9200,"station_id":"ce4bh492rcd13ifvqdvg","pricing_plan_id":"cebpf4jnsgd1na2vs0mg"},{"bike_id":"bdda0a7b-f16e-41b7-a6b9-668715c927dd","system_id":"levelo_inurba_marseille","lat":43.30307,"lon":5.36902,"is_reserved":false,"is_disabled":false,"rental_uris":{"android":"levelo://app?vid=bdda0a7b-f16e-41b7-a6b9-668715c927dd","ios":"levelo://app?vid=bdda0a7b-f16e-41b7-a6b9-668715c927dd"},"vehicle_type_id":"4","last_reported":1768317299,"current_range_meters":9200,"station_id":"ce4bhb12rcd13ifvqel0","pricing_plan_id":"cebpf4jnsgd1na2vs0mg"},{"bike_id":"dfb5e404-c2f9-4183-a759-3be4e360d9fb","system_id":"levelo_inurba_marseille","lat":43.245348,"lon":5.395334,"is_reserved":false,"is_disabled":false,"rental_uris":{"android":"levelo://app?vid=dfb5e404-c2f9-4183-a759-3be4e360d9fb","ios":"levelo://app?vid=dfb5e404-c2f9-4183-a759-3be4e360d9fb"},"vehicle_type_id":"4","last_reported":1768317299,"current_range_meters":9200,"station_id":"ce4bhlp2rcd13ifvqgjg","pricing_plan_id":"cebpf4jnsgd1na2vs0mg"},{"bike_id":"01875f3f-f64f-42e6-9f4f-737e01e2ba3d","system_id":"levelo_inurba_marseille","lat":43.320242,"lon":5.415502,"is_reserved":false,"is_disabled":false,"rental_uris":{"android":"levelo://app?vid=01875f3f-f64f-42e6-9f4f-737e01e2ba3d","ios":"levelo://app?vid=01875f3f-f64f-42e6-9f4f-737e01e2ba3d"},"vehicle_type_id":"4","last_reported":1768317299,"current_range_meters":9200,"station_id":"ce4bhq92rcd13ifvqhkg","pricing_plan_id":"cebpf4jnsgd1na2vs0mg"},{"bike_id":"de4fdcf9-092b-41a0-8dfa-c29b327d00ab","system_id":"levelo_inurba_marseille","lat":43.31215,"lon":5.36866,"is_reserved":false,"is_disabled":false,"rental_uris":{"android":"levelo://app?vid=de4fdcf9-092b-41a0-8dfa-c29b327d00ab","ios":"levelo://app?vid=de4fdcf9-092b-41a0-8dfa-c29b327d00ab"},"vehicle_type_id":"4","last_reported":1768317299,"current_range_meters":9600,"station_id":"ce4bgl92rcd13ifvqbq0","pricing_plan_id":"cebpf4jnsgd1na2vs0mg"},{"bike_id":"d0c37a0b-bf37-4e9c-8fb5-c4af8ce3efc7","system_id":"levelo_inurba_marseille","lat":43.24054,"lon":5.3768,"is_reserved":false,"is_disabled":false,"rental_uris":{"android":"levelo://app?vid=d0c37a0b-bf37-4e9c-8fb5-c4af8ce3efc7","ios":"levelo://app?vid=d0c37a0b-bf37-4e9c-8fb5-c4af8ce3efc7"},"vehicle_type_id":"4","last_reported":1768317299,"current_range_meters":9600,"station_id":"ce4bhnp2rcd13ifvqgvg","pricing_plan_id":"cebpf4jnsgd1na2vs0mg"},{"bike_id":"dccf6443-2690-4508-8f9a-a0435732725f","system_id":"levelo_inurba_marseille","lat":43.25485,"lon":5.37656,"is_reserved":false,"is_disabled":false,"rental_uris":{"android":"levelo://app?vid=dccf6443-2690-4508-8f9a-a0435732725f","ios":"levelo://app?vid=dccf6443-2690-4508-8f9a-a0435732725f"},"vehicle_type_id":"4","last_reported":1768317299,"current_range_meters":9600,"station_id":"ce4bhh12rcd13ifvqff0","pricing_plan_id":"cebpf4jnsgd1na2vs0mg"},{"bike_id":"d3adc42d-0576-4954-8492-720260568653","system_id":"levelo_inurba_marseille","lat":43.246371,"lon":5.389014,"is_reserved":false,"is_disabled":false,"rental_uris":{"android":"levelo://app?vid=d3adc42d-0576-4954-8492-720260568653","ios":"levelo://app?vid=d3adc42d-0576-4954-8492-720260568653"},"vehicle_type_id":"4","last_reported":1768317299,"current_range_meters":9600,"station_id":"ce4bhg12rcd13ifvqf60","pricing_plan_id":"cebpf4jnsgd1na2vs0mg"},{"bike_id":"edae41ff-efa7-45e8-b9af-a8202fc573da","system_id":"levelo_inurba_marseille","lat":43.249925,"lon":5.389349,"is_reserved":false,"is_disabled":false,"rental_uris":{"android":"levelo://app?vid=edae41ff-efa7-45e8-b9af-a8202fc573da","ios":"levelo://app?vid=edae41ff-efa7-45e8-b9af-a8202fc573da"},"vehicle_type_id":"4","last_reported":1768317299,"current_range_meters":9600,"station_id":"ce4bhgp2rcd13ifvqfd0","pricing_plan_id":"cebpf4jnsgd1na2vs0mg"},{"bike_id":"b8ae4c01-e72b-4034-bc15-6e52863a5e49","system_id":"levelo_inurba_marseille","lat":43.337444,"lon":5.374475,"is_reserved":false,"is_disabled":false,"rental_uris":{"android":"levelo://app?vid=b8ae4c01-e72b-4034-bc15-6e52863a5e49","ios":"levelo://app?vid=b8ae4c01-e72b-4034-bc15-6e52863a5e49"},"vehicle_type_id":"4","last_reported":1768317299,"current_range_meters":9600,"station_id":"","pricing_plan_id":"cebpf4jnsgd1na2vs0mg"},{"bike_id":"ccbcce0d-1ee9-4cfe-8ca2-a06ad272f6e1","system_id":"levelo_inurba_marseille","lat":43.30326,"lon":5.40423,"is_reserved":false,"is_disabled":false,"rental_uris":{"android":"levelo://app?vid=ccbcce0d-1ee9-4cfe-8ca2-a06ad272f6e1","ios":"levelo://app?vid=ccbcce0d-1ee9-4cfe-8ca2-a06ad272f6e1"},"vehicle_type_id":"4","last_reported":1768317299,"current_range_meters":9600,"station_id":"ce4bh012rcd13ifvqd10","pricing_plan_id":"cebpf4jnsgd1na2vs0mg"},{"bike_id":"ef59b7eb-986f-4cc5-b8af-692320241aef","system_id":"levelo_inurba_marseille","lat":43.25825,"lon":5.39441,"is_reserved":false,"is_disabled":false,"rental_uris":{"android":"levelo://app?vid=ef59b7eb-986f-4cc5-b8af-692320241aef","ios":"levelo://app?vid=ef59b7eb-986f-4cc5-b8af-692320241aef"},"vehicle_type_id":"4","last_reported":1768317299,"current_range_meters":9600,"station_id":"ce4bhip2rcd13ifvqft0","pricing_plan_id":"cebpf4jnsgd1na2vs0mg"},{"bike_id":"f46e8896-f60b-49f2-b8ac-80520c0162b1","system_id":"levelo_inurba_marseille","lat":43.29031,"lon":5.3738,"is_reserved":false,"is_disabled":false,"rental_uris":{"android":"levelo://app?vid=f46e8896-f60b-49f2-b8ac-80520c0162b1","ios":"levelo://app?vid=f46e8896-f60b-49f2-b8ac-80520c0162b1"},"vehicle_type_id":"4","last_reported":1768317299,"current_range_meters":9600,"station_id":"","pricing_plan_id":"cebpf4jnsgd1na2vs0mg"},{"bike_id":"7e09f6aa-6a01-490d-a5d4-56de9c0277ad","system_id":"levelo_inurba_marseille","lat":43.28537,"lon":5.441,"is_reserved":false,"is_disabled":false,"rental_uris":{"android":"levelo://app?vid=7e09f6aa-6a01-490d-a5d4-56de9c0277ad","ios":"levelo://app?vid=7e09f6aa-6a01-490d-a5d4-56de9c0277ad"},"vehicle_type_id":"4","last_reported":1768317299,"current_range_meters":10000,"station_id":"st_d3j3df2ikq2c7380ej80","pricing_plan_id":"cebpf4jnsgd1na2vs0mg"},{"bike_id":"27ea8170-0361-438d-b591-2ebcd05d2dfe","system_id":"levelo_inurba_marseille","lat":43.28431,"lon":5.35005,"is_reserved":false,"is_disabled":false,"rental_uris":{"android":"levelo://app?vid=27ea8170-0361-438d-b591-2ebcd05d2dfe","ios":"levelo://app?vid=27ea8170-0361-438d-b591-2ebcd05d2dfe"},"vehicle_type_id":"4","last_reported":1768317299,"current_range_meters":10000,"station_id":"ce4bhbh2rcd13ifvqepg","pricing_plan_id":"cebpf4jnsgd1na2vs0mg"},{"bike_id":"724de8c9-2883-4455-a458-126b64737fa0","system_id":"levelo_inurba_marseille","lat":43.28531,"lon":5.44105,"is_reserved":false,"is_disabled":false,"rental_uris":{"android":"levelo://app?vid=724de8c9-2883-4455-a458-126b64737fa0","ios":"levelo://app?vid=724de8c9-2883-4455-a458-126b64737fa0"},"vehicle_type_id":"4","last_reported":1768317299,"current_range_meters":10000,"station_id":"st_d3j3df2ikq2c7380ej80","pricing_plan_id":"cebpf4jnsgd1na2vs0mg"},{"bike_id":"65911626-1c61-4f37-a33b-f9cb4cd0f7ea","system_id":"levelo_inurba_marseille","lat":43.27978,"lon":5.41632,"is_reserved":false,"is_disabled":false,"rental_uris":{"android":"levelo://app?vid=65911626-1c61-4f37-a33b-f9cb4cd0f7ea","ios":"levelo://app?vid=65911626-1c61-4f37-a33b-f9cb4cd0f7ea"},"vehicle_type_id":"4","last_reported":1768317299,"current_range_meters":10000,"station_id":"ce4bho12rcd13ifvqh1g","pricing_plan_id":"cebpf4jnsgd1na2vs0mg"},{"bike_id":"f3843eb9-6c66-4e9b-a1ba-8f6713a7018e","system_id":"levelo_inurba_marseille","lat":43.237837,"lon":5.366341,"is_reserved":false,"is_disabled":false,"rental_uris":{"android":"levelo://app?vid=f3843eb9-6c66-4e9b-a1ba-8f6713a7018e","ios":"levelo://app?vid=f3843eb9-6c66-4e9b-a1ba-8f6713a7018e"},"vehicle_type_id":"4","last_reported":1768317299,"current_range_meters":10000,"station_id":"st_d3nk18o9ro0c73en2l3g","pricing_plan_id":"cebpf4jnsgd1na2vs0mg"},{"bike_id":"54a5227f-b40b-4cb7-9b02-b20a06d21f47","system_id":"levelo_inurba_marseille","lat":43.30593,"lon":5.36479,"is_reserved":false,"is_disabled":false,"rental_uris":{"android":"levelo://app?vid=54a5227f-b40b-4cb7-9b02-b20a06d21f47","ios":"levelo://app?vid=54a5227f-b40b-4cb7-9b02-b20a06d21f47"},"vehicle_type_id":"4","last_reported":1768317299,"current_range_meters":10000,"station_id":"ce4bgs12rcd13ifvqcag","pricing_plan_id":"cebpf4jnsgd1na2vs0mg"},{"bike_id":"023b021f-b7a1-4cdd-8807-9092d492c18a","system_id":"levelo_inurba_marseille","lat":43.26946,"lon":5.38642,"is_reserved":false,"is_disabled":false,"rental_uris":{"android":"levelo://app?vid=023b021f-b7a1-4cdd-8807-9092d492c18a","ios":"levelo://app?vid=023b021f-b7a1-4cdd-8807-9092d492c18a"},"vehicle_type_id":"4","last_reported":1768317299,"current_range_meters":10000,"station_id":"ce4bhh92rcd13ifvqfh0","pricing_plan_id":"cebpf4jnsgd1na2vs0mg"},{"bike_id":"eafa126d-0f57-4cee-ab0c-812b0d93d833","system_id":"levelo_inurba_marseille","lat":43.31334,"lon":5.36739,"is_reserved":false,"is_disabled":false,"rental_uris":{"android":"levelo://app?vid=eafa126d-0f57-4cee-ab0c-812b0d93d833","ios":"levelo://app?vid=eafa126d-0f57-4cee-ab0c-812b0d93d833"},"vehicle_type_id":"4","last_reported":1768317299,"current_range_meters":10000,"station_id":"ce4bgr92rcd13ifvqc6g","pricing_plan_id":"cebpf4jnsgd1na2vs0mg"},{"bike_id":"bbb74105-3be2-48fe-95ba-d328ecd4aedb","system_id":"levelo_inurba_marseille","lat":43.24647,"lon":5.38888,"is_reserved":false,"is_disabled":false,"rental_uris":{"android":"levelo://app?vid=bbb74105-3be2-48fe-95ba-d328ecd4aedb","ios":"levelo://app?vid=bbb74105-3be2-48fe-95ba-d328ecd4aedb"},"vehicle_type_id":"4","last_reported":1768317299,"current_range_meters":10000,"station_id":"ce4bhg12rcd13ifvqf60","pricing_plan_id":"cebpf4jnsgd1na2vs0mg"},