{"last_updated":1708369552,"ttl":30,"version":"2.2","data":{"bikes":[{"bike_id":"563fdafc-1c9b-4327-a270-f0b9357a72bd","system_id":"levelo_inurba_marseille","lat":43.312239,"lon":5.368562,"is_reserved":false,"is_disabled":false,"rental_uris":{"android":"levelo://app?vid=563fdafc-1c9b-4327-a270-f0b9357a72bd","ios":"levelo://app?vid=563fdafc-1c9b-4327-a270-f0b9357a72bd"},"vehicle_type_id":"4","last_reported":1708369552,"current_range_meters":0,"station_id":"ce4bgl92rcd13ifvqbq0","pricing_plan_id":"cebpf4jnsgd1na2vs0mg"},{"bike_id":"aa3cff77-c2d3-4cd8-855f-87601ad11dda","system_id":"levelo_inurba_marseille","lat":43.312239,"lon":5.368562,"is_reserved":false,"is_disabled":false,"rental_uris":{"android":"levelo://app?vid=aa3cff77-c2d3-4cd8-855f-87601ad11dda","ios":"levelo://app?vid=aa3cff77-c2d3-4cd8-855f-87601ad11dda"},"vehicle_type_id":"4","last_reported":1708369552,"current_range_meters":8400,"station_id":"ce4bgl92rcd13ifvqbq0","pricing_plan_id":"cebpf4jnsgd1na2vs0mg"},{"bike_id":"c8f4694f-39f5-4e17-8c3f-2e8bc92a51a2","system_id":"levelo_inurba_marseille","lat":43.31352,"lon":5.36937,"is_reserved":false,"is_disabled":false,"rental_uris":{"android":"levelo://app?vid=c8f4694f-39f5-4e17-8c3f-2e8bc92a51a2","ios":"levelo://app?vid=c8f4694f-39f5-4e17-8c3f-2e8bc92a51a2"},"vehicle_type_id":"4","last_reported":1708369552,"current_range_meters":0,"station_id":"","pricing_plan_id":"cebpf4jnsgd1na2vs0mg"},{"bike_id":"8dc61665-5dd5-43fd-bf11-1c4198856e79","system_id":"levelo_inurba_marseille","lat":43.314811,"lon":5.373103,"is_reserved":false,"is_disabled":false,"rental_uris":{"android":"levelo://app?vid=8dc61665-5dd5-43fd-bf11-1c4198856e79","ios":"levelo://app?vid=8dc61665-5dd5-43fd-bf11-1c4198856e79"},"vehicle_type_id":"4","last_reported":1708369552,"current_range_meters":23600,"station_id":"ce4bgt12rcd13ifvqcd0","pricing_plan_id":"cebpf4jnsgd1na2vs0mg"},{"bike_id":"432b721a-331e-46d1-ab59-236982e3b228","system_id":"levelo_inurba_marseille","lat":43.314811,"lon":5.373104,"is_reserved":false,"is_disabled":false,"rental_uris":{"android":"levelo://app?vid=432b721a-331e-46d1-ab59-236982e3b228","ios":"levelo://app?vid=432b721a-331e-46d1-ab59-236982e3b228"},"vehicle_type_id":"4","last_reported":1708369552,"current_range_meters":9200,"station_id":"ce4bgt12rcd13ifvqcd0","pricing_plan_id":"cebpf4jnsgd1na2vs0mg"},{"bike_id":"a37fa85a-401d-42f7-85cd-cdaabfb8f62e","system_id":"levelo_inurba_marseille","lat":43.309034,"lon":5.371783,"is_reserved":false,"is_disabled":false,"rental_uris":{"android":"levelo://app?vid=a37fa85a-401d-42f7-85cd-cdaabfb8f62e","ios":"levelo://app?vid=a37fa85a-401d-42f7-85cd-cdaabfb8f62e"},"vehicle_type_id":"4","last_reported":1708369552,"current_range_meters":1200,"station_id":"ce4bguh2rcd13ifvqckg","pricing_plan_id":"cebpf4jnsgd1na2vs0mg"},{"bike_id":"bf091c85-2172-4181-8bbc-909aa29c2024","system_id":"levelo_inurba_marseille","lat":43.305368,"lon":5.367343,"is_reserved":false,"is_disabled":false,"rental_uris":{"android":"levelo://app?vid=bf091c85-2172-4181-8bbc-909aa29c2024","ios":"levelo://app?vid=bf091c85-2172-4181-8bbc-909aa29c2024"},"vehicle_type_id":"4","last_reported":1708369552,"current_range_meters":14000,"station_id":"ce4bgrp2rcd13ifvqc9g","pricing_plan_id":"cebpf4jnsgd1na2vs0mg"},{"bike_id":"d9857670-5216-4d07-9c0e-4a3cc826a771","system_id":"levelo_inurba_marseille","lat":43.305368,"lon":5.367343,"is_reserved":false,"is_disabled":false,"rental_uris":{"android":"levelo://app?vid=d9857670-5216-4d07-9c0e-4a3cc826a771","ios":"levelo://app?vid=d9857670-5216-4d07-9c0e-4a3cc826a771"},"vehicle_type_id":"4","last_reported":1708369552,"current_range_meters":0,"station_id":"ce4bgrp2rcd13ifvqc9g","pricing_plan_id":"cebpf4jnsgd1na2vs0mg"},{"bike_id":"b7388452-43cf-4c70-8df6-797be1d24fac","system_id":"levelo_inurba_marseille","lat":43.311176,"lon":5.377748,"is_reserved":false,"is_disabled":false,"rental_uris":{"android":"levelo://app?vid=b7388452-43cf-4c70-8df6-797be1d24fac","ios":"levelo://app?vid=b7388452-43cf-4c70-8df6-797be1d24fac"},"vehicle_type_id":"4","last_reported":1708369552,"current_range_meters":28000,"station_id":"ce4bgt92rcd13ifvqcg0","pricing_plan_id":"cebpf4jnsgd1na2vs0mg"},{"bike_id":"0208c589-fc9b-440f-b68b-5a3589ae3f3f","system_id":"levelo_inurba_marseille","lat":43.311131,"lon":5.377651,"is_reserved":false,"is_disabled":false,"rental_uris":{"android":"levelo://app?vid=0208c589-fc9b-440f-b68b-5a3589ae3f3f","ios":"levelo://app?vid=0208c589-fc9b-440f-b68b-5a3589ae3f3f"},"vehicle_type_id":"4","last_reported":1708369552,"current_range_meters":0,"station_id":"ce4bgt92rcd13ifvqcg0","pricing_plan_id":"cebpf4jnsgd1na2vs0mg"},{"bike_id":"72abd43c-56db-4605-b8c4-157ab0f63cb5","system_id":"levelo_inurba_marseille","lat":43.311131,"lon":5.377651,"is_reserved":false,"is_disabled":false,"rental_uris":{"android":"levelo://app?vid=72abd43c-56db-4605-b8c4-157ab0f63cb5","ios":"levelo://app?vid=72abd43c-56db-4605-b8c4-157ab0f63cb5"},"vehicle_type_id":"4","last_reported":1708369552,"current_range_meters":17600,"station_id":"ce4bgt92rcd13ifvqcg0","pricing_plan_id":"cebpf4jnsgd1na2vs0mg"},{"bike_id":"e0c5de87-e106-4edf-aff2-07cf566329ed","system_id":"levelo_inurba_marseille","lat":43.307945,"lon":5.376487,"is_reserved":false,"is_disabled":false,"rental_uris":{"android":"levelo://app?vid=e0c5de87-e106-4edf-aff2-07cf566329ed","ios":"levelo://app?vid=e0c5de87-e106-4edf-aff2-07cf566329ed"},"vehicle_type_id":"4","last_reported":1708369552,"current_range_meters":18000,"station_id":"ce4bgv92rcd13ifvqcq0","pricing_plan_id":"cebpf4jnsgd1na2vs0mg"},{"bike_id":"77c6e6d2-9c76-4b22-8e9a-837061c2dd1d","system_id":"levelo_inurba_marseille","lat":43.307945,"lon":5.376487,"is_reserved":false,"is_disabled":false,"rental_uris":{"android":"levelo://app?vid=77c6e6d2-9c76-4b22-8e9a-837061c2dd1d","ios":"levelo://app?vid=77c6e6d2-9c76-4b22-8e9a-837061c2dd1d"},"vehicle_type_id":"4","last_reported":1708369552,"current_range_meters":23200,"station_id":"ce4bgv92rcd13ifvqcq0","pricing_plan_id":"cebpf4jnsgd1na2vs0mg"},{"bike_id":"e93332c8-71cb-4a70-a2cb-8dae89f30527","system_id":"levelo_inurba_marseille","lat":43.317075,"lon":5.377367,"is_reserved":false,"is_disabled":false,"rental_uris":{"android":"levelo://app?vid=e93332c8-71cb-4a70-a2cb-8dae89f30527","ios":"levelo://app?vid=e93332c8-71cb-4a70-a2cb-8dae89f30527"},"vehicle_type_id":"4","last_reported":1708369552,"current_range_meters":22400,"station_id":"ce4bgth2rcd13ifvqch0","pricing_plan_id":"cebpf4jnsgd1na2vs0mg"},{"bike_id":"0db7532c-e021-4035-a720-b03be0255deb","system_id":"levelo_inurba_marseille","lat":43.317075,"lon":5.377367,"is_reserved":false,"is_disabled":false,"rental_uris":{"android":"levelo://app?vid=0db7532c-e021-4035-a720-b03be0255deb","ios":"levelo://app?vid=0db7532c-e021-4035-a720-b03be0255deb"},"vehicle_type_id":"4","last_reported":1708369552,"current_range_meters":12800,"station_id":"ce4bgth2rcd13ifvqch0","pricing_plan_id":"cebpf4jnsgd1na2vs0mg"},{"bike_id":"ec6897b8-4570-47ab-8304-5ee71ff4da72","system_id":"levelo_inurba_marseille","lat":43.317112,"lon":5.377467,"is_reserved":false,"is_disabled":false,"rental_uris":{"android":"levelo://app?vid=ec6897b8-4570-47ab-8304-5ee71ff4da72","ios":"levelo://app?vid=ec6897b8-4570-47ab-8304-5ee71ff4da72"},"vehicle_type_id":"4","last_reported":1708369552,"current_range_meters":8400,"station_id":"ce4bgth2rcd13ifvqch0","pricing_plan_id":"cebpf4jnsgd1na2vs0mg"},{"bike_id":"b62392d6-d343-42ec-b734-bd1166ca87ee","system_id":"levelo_inurba_marseille","lat":43.30304,"lon":5.368987,"is_reserved":false,"is_disabled":false,"rental_uris":{"android":"levelo://app?vid=b62392d6-d343-42ec-b734-bd1166ca87ee","ios":"levelo://app?vid=b62392d6-d343-42ec-b734-bd1166ca87ee"},"vehicle_type_id":"4","last_reported":1708369552,"current_range_meters":10800,"station_id":"ce4bgqh2rcd13ifvqc5g","pricing_plan_id":"cebpf4jnsgd1na2vs0mg"},{"bike_id":"14623ca0-3e69-483e-9a41-7be7b88db399","system_id":"levelo_inurba_marseille","lat":43.315293,"lon":5.380349,"is_reserved":false,"is_disabled":false,"rental_uris":{"android":"levelo://app?vid=14623ca0-3e69-483e-9a41-7be7b88db399","ios":"levelo://app?vid=14623ca0-3e69-483e-9a41-7be7b88db399"},"vehicle_type_id":"4","last_reported":1708369552,"current_range_meters":27200,"station_id":"ce4bhsp2rcd13ifvqi50","pricing_plan_id":"cebpf4jnsgd1na2vs0mg"},{"bike_id":"ba7abea4-7e24-46bb-9b73-93d8ca3e3719","system_id":"levelo_inurba_marseille","lat":43.315293,"lon":5.380349,"is_reserved":false,"is_disabled":false,"rental_uris":{"android":"levelo://app?vid=ba7abea4-7e24-46bb-9b73-93d8ca3e3719","ios":"levelo://app?vid=ba7abea4-7e24-46bb-9b73-93d8ca3e3719"},"vehicle_type_id":"4","last_reported":1708369552,"current_range_meters":30400,"station_id":"ce4bhsp2rcd13ifvqi50","pricing_plan_id":"cebpf4jnsgd1na2vs0mg"},{"bike_id":"851bb78f-5bb9-4747-b47e-fbb6a43efdfb","system_id":"levelo_inurba_marseille","lat":43.315293,"lon":5.380349,"is_reserved":false,"is_disabled":false,"rental_uris":{"android":"levelo://app?vid=851bb78f-5bb9-4747-b47e-fbb6a43efdfb","ios":"levelo://app?vid=851bb78f-5bb9-4747-b47e-fbb6a43efdfb"},"vehicle_type_id":"4","last_reported":1708369552,"current_range_meters":24400,"station_id":"ce4bhsp2rcd13ifvqi50","pricing_plan_id":"cebpf4jnsgd1na2vs0mg"},{"bike_id":"5079e4c1-e402-4852-bde7-374822f7da49","system_id":"levelo_inurba_marseille","lat":43.301939,"lon":5.366286,"is_reserved":false,"is_disabled":false,"rental_uris":{"android":"levelo://app?vid=5079e4c1-e402-4852-bde7-374822f7da49","ios":"levelo://app?vid=5079e4c1-e402-4852-bde7-374822f7da49"},"vehicle_type_id":"4","last_reported":1708369552,"current_range_meters":3600,"station_id":"ce4bgrh2rcd13ifvqc8g","pricing_plan_id":"cebpf4jnsgd1na2vs0mg"},{"bike_id":"e12ed501-9652-4f7a-a388-41f4b9d1b426","system_id":"levelo_inurba_marseille","lat":43.301939,"lon":5.366286,"is_reserved":false,"is_disabled":false,"rental_uris":{"android":"levelo://app?vid=e12ed501-9652-4f7a-a388-41f4b9d1b426","ios":"levelo://app?vid=e12ed501-9652-4f7a-a388-41f4b9d1b426"},"vehicle_type_id":"4","last_reported":1708369552,"current_range_meters":0,"station_id":"ce4bgrh2rcd13ifvqc8g","pricing_plan_id":"cebpf4jnsgd1na2vs0mg"},{"bike_id":"4224a517-5e11-4255-8ab5-c6f3333c1b24","system_id":"levelo_inurba_marseille","lat":43.308012,"lon":5.381511,"is_reserved":false,"is_disabled":false,"rental_uris":{"android":"levelo://app?vid=4224a517-5e11-4255-8ab5-c6f3333c1b24","ios":"levelo://app?vid=4224a517-5e11-4255-8ab5-c6f3333c1b24"},"vehicle_type_id":"4","last_reported":1708369552,"current_range_meters":2800,"station_id":"ce4bgt12rcd13ifvqce0","pricing_plan_id":"cebpf4jnsgd1na2vs0mg"},{"bike_id":"2c6c36c9-7e02-4a23-ad99-472b535677b4","system_id":"levelo_inurba_marseille","lat":43.324771,"lon":5.36557,"is_reserved":false,"is_disabled":false,"rental_uris":{"android":"levelo://app?vid=2c6c36c9-7e02-4a23-ad99-472b535677b4","ios":"levelo://app?vid=2c6c36c9-7e02-4a23-ad99-472b535677b4"},"vehicle_type_id":"4","last_reported":1708369552,"current_range_meters":8400,"station_id":"ce4bhs12rcd13ifvqhvg","pricing_plan_id":"cebpf4jnsgd1na2vs0mg"},{"bike_id":"ab60f61e-1754-4bab-9316-cbca6ab0249d","system_id":"levelo_inurba_marseille","lat":43.324763,"lon":5.365713,"is_reserved":false,"is_disabled":false,"rental_uris":{"android":"levelo://app?vid=ab60f61e-1754-4bab-9316-cbca6ab0249d","ios":"levelo://app?vid=ab60f61e-1754-4bab-9316-cbca6ab0249d"},"vehicle_type_id":"4","last_reported":1708369552,"current_range_meters":15600,"station_id":"ce4bhs12rcd13ifvqhvg","pricing_plan_id":"cebpf4jnsgd1na2vs0mg"},{"bike_id":"13ed5772-d318-40c2-a1ab-114038408622","system_id":"levelo_inurba_marseille","lat":43.324771,"lon":5.36557,"is_reserved":false,"is_disabled":false,"rental_uris":{"android":"levelo://app?vid=13ed5772-d318-40c2-a1ab-114038408622","ios":"levelo://app?vid=13ed5772-d318-40c2-a1ab-114038408622"},"vehicle_type_id":"4","last_reported":1708369552,"current_range_meters":30000,"station_id":"ce4bhs12rcd13ifvqhvg","pricing_plan_id":"cebpf4jnsgd1na2vs0mg"},{"bike_id":"7c66a11a-bea8-4a2a-98be-7794b214389b","system_id":"levelo_inurba_marseille","lat":43.324771,"lon":5.36557,"is_reserved":false,"is_disabled":false,"rental_uris":{"android":"levelo://app?vid=7c66a11a-bea8-4a2a-98be-7794b214389b","ios":"levelo://app?vid=7c66a11a-bea8-4a2a-98be-7794b214389b"},"vehicle_type_id":"4","last_reported":1708369552,"current_range_meters":0,"station_id":"ce4bhs12rcd13ifvqhvg","pricing_plan_id":"cebpf4jnsgd1na2vs0mg"},{"bike_id":"4cd60cd3-101b-4a05-9703-76840434a255","system_id":"levelo_inurba_marseille","lat":43.324771,"lon":5.36557,"is_reserved":false,"is_disabled":false,"rental_uris":{"android":"levelo://app?vid=4cd60cd3-101b-4a05-9703-76840434a255","ios":"levelo://app?vid=4cd60cd3-101b-4a05-9703-76840434a255"},"vehicle_type_id":"4","last_reported":1708369552,"current_range_meters":28800,"station_id":"ce4bhs12rcd13ifvqhvg","pricing_plan_id":"cebpf4jnsgd1na2vs0mg"},{"bike_id":"12b36bd4-2176-4c7e-b0b3-fc74f7095c6a","system_id":"levelo_inurba_marseille","lat":43.32481,"lon":5.36565,"is_reserved":false,"is_disabled":false,"rental_uris":{"android":"levelo://app?vid=12b36bd4-2176-4c7e-b0b3-fc74f7095c6a","ios":"levelo://app?vid=12b36bd4-2176-4c7e-b0b3-fc74f7095c6a"},"vehicle_type_id":"4","last_reported":1708369552,"current_range_meters":0,"station_id":"ce4bhs12rcd13ifvqhvg","pricing_plan_id":"cebpf4jnsgd1na2vs0mg"},{"bike_id":"a1411f93-559d-4c55-b53d-718f28f579af","system_id":"levelo_inurba_marseille","lat":43.324821,"lon":5.365619,"is_reserved":false,"is_disabled":false,"rental_uris":{"android":"levelo://app?vid=a1411f93-559d-4c55-b53d-718f28f579af","ios":"levelo://app?vid=a1411f93-559d-4c55-b53d-718f28f579af"},"vehicle_type_id":"4","last_reported":1708369552,"current_range_meters":2800,"station_id":"ce4bhs12rcd13ifvqhvg","pricing_plan_id":"cebpf4jnsgd1na2vs0mg"},{"bike_id":"787b97fd-3045-418a-93db-948f0d624107","system_id":"levelo_inurba_marseille","lat":43.324833,"lon":5.365538,"is_reserved":false,"is_disabled":false,"rental_uris":{"android":"levelo://app?vid=787b97fd-3045-418a-93db-948f0d624107","ios":"levelo://app?vid=787b97fd-3045-418a-93db-948f0d624107"},"vehicle_type_id":"4","last_reported":1708369552,"current_range_meters":21600,"station_id":"ce4bhs12rcd13ifvqhvg","pricing_plan_id":"cebpf4jnsgd1na2vs0mg"},{"bike_id":"5f3727da-be6d-4245-8b7a-5c108328736b","system_id":"levelo_inurba_marseille","lat":43.324771,"lon":5.36557,"is_reserved":false,"is_disabled":false,"rental_uris":{"android":"levelo://app?vid=5f3727da-be6d-4245-8b7a-5c108328736b","ios":"levelo://app?vid=5f3727da-be6d-4245-8b7a-5c108328736b"},"vehicle_type_id":"4","last_reported":1708369552,"current_range_meters":4400,"station_id":"ce4bhs12rcd13ifvqhvg","pricing_plan_id":"cebpf4jnsgd1na2vs0mg"},{"bike_id":"1327346d-fa91-4e44-9fa6-579f1319f02b","system_id":"levelo_inurba_marseille","lat":43.308012,"lon":5.381511,"is_reserved":false,"is_disabled":false,"rental_uris":{"android":"levelo://app?vid=1327346d-fa91-4e44-9fa6-579f1319f02b","ios":"levelo://app?vid=1327346d-fa91-4e44-9fa6-579f1319f02b"},"vehicle_type_id":"4","last_reported":1708369552,"current_range_meters":22400,"station_id":"ce4bgt12rcd13ifvqce0","pricing_plan_id":"cebpf4jnsgd1na2vs0mg"},{"bike_id":"a8859442-2990-4d4b-af61-72232f79801d","system_id":"levelo_inurba_marseille","lat":43.310804,"lon":5.38359,"is_reserved":false,"is_disabled":false,"rental_uris":{"android":"levelo://app?vid=a8859442-2990-4d4b-af61-72232f79801d","ios":"levelo://app?vid=a8859442-2990-4d4b-af61-72232f79801d"},"vehicle_type_id":"4","last_reported":1708369552,"current_range_meters":800,"station_id":"ce4bgv92rcd13ifvqcr0","pricing_plan_id":"cebpf4jnsgd1na2vs0mg"},{"bike_id":"ce870373-b4eb-43e8-a28d-b6968172dfaa","system_id":"levelo_inurba_marseille","lat":43.310804,"lon":5.38359,"is_reserved":false,"is_disabled":false,"rental_uris":{"android":"levelo://app?vid=ce870373-b4eb-43e8-a28d-b6968172dfaa","ios":"levelo://app?vid=ce870373-b4eb-43e8-a28d-b6968172dfaa"},"vehicle_type_id":"4","last_reported":1708369552,"current_range_meters":27600,"station_id":"ce4bgv92rcd13ifvqcr0","pricing_plan_id":"cebpf4jnsgd1na2vs0mg"},{"bike_id":"cf1cd8f0-c2a1-40d1-9591-47da4ec7872d","system_id":"levelo_inurba_marseille","lat":43.30277,"lon":5.37695,"is_reserved":false,"is_disabled":false,"rental_uris":{"android":"levelo://app?vid=cf1cd8f0-c2a1-40d1-9591-47da4ec7872d","ios":"levelo://app?vid=cf1cd8f0-c2a1-40d1-9591-47da4ec7872d"},"vehicle_type_id":"4","last_reported":1708369552,"current_range_meters":0,"station_id":"ce4bguh2rcd13ifvqcj0","pricing_plan_id":"cebpf4jnsgd1na2vs0mg"},{"bike_id":"2d97ba72-a2b6-4623-9a8a-535f28fc5ec3","system_id":"levelo_inurba_marseille","lat":43.319935,"lon":5.381699,"is_reserved":false,"is_disabled":false,"rental_uris":{"android":"levelo://app?vid=2d97ba72-a2b6-4623-9a8a-535f28fc5ec3","ios":"levelo://app?vid=2d97ba72-a2b6-4623-9a8a-535f28fc5ec3"},"vehicle_type_id":"4","last_reported":1708369552,"current_range_meters":10000,"station_id":"ce4bhr12rcd13ifvqhpg","pricing_plan_id":"cebpf4jnsgd1na2vs0mg"},{"bike_id":"e8dfff5e-1bb7-477f-8452-42e99fa71ec3","system_id":"levelo_inurba_marseille","lat":43.319935,"lon":5.381699,"is_reserved":false,"is_disabled":false,"rental_uris":{"android":"levelo://app?vid=e8dfff5e-1bb7-477f-8452-42e99fa71ec3","ios":"levelo://app?vid=e8dfff5e-1bb7-477f-8452-42e99fa71ec3"},"vehicle_type_id":"4","last_reported":1708369552,"current_range_meters":19200,"station_id":"ce4bhr12rcd13ifvqhpg","pricing_plan_id":"cebpf4jnsgd1na2vs0mg"},{"bike_id":"326adc9f-1ebd-49f3-9949-adab05bdfb8f","system_id":"levelo_inurba_marseille","lat":43.319935,"lon":5.381699,"is_reserved":false,"is_disabled":false,"rental_uris":{"android":"levelo://app?vid=326adc9f-1ebd-49f3-9949-adab05bdfb8f","ios":"levelo://app?vid=326adc9f-1ebd-49f3-9949-adab05bdfb8f"},"vehicle_type_id":"4","last_reported":1708369552,"current_range_meters":22800,"station_id":"ce4bhr12rcd13ifvqhpg","pricing_plan_id":"cebpf4jnsgd1na2vs0mg"},{"bike_id":"5a5cce38-72f9-4aed-9741-4be0e45bb81c","system_id":"levelo_inurba_marseille","lat":43.313571,"lon":5.384829,"is_reserved":false,"is_disabled":false,"rental_uris":{"android":"levelo://app?vid=5a5cce38-72f9-4aed-9741-4be0e45bb81c","ios":"levelo://app?vid=5a5cce38-72f9-4aed-9741-4be0e45bb81c"},"vehicle_type_id":"4","last_reported":1708369552,"current_range_meters":28000,"station_id":"ce4bgt92rcd13ifvqcf0","pricing_plan_id":"cebpf4jnsgd1na2vs0mg"},{"bike_id":"99943ae4-8621-44e7-84c0-fdeb437ceb35","system_id":"levelo_inurba_marseille","lat":43.313571,"lon":5.384829,"is_reserved":false,"is_disabled":false,"rental_uris":{"android":"levelo://app?vid=99943ae4-8621-44e7-84c0-fdeb437ceb35","ios":"levelo://app?vid=99943ae4-8621-44e7-84c0-fdeb437ceb35"},"vehicle_type_id":"4","last_reported":1708369552,"current_range_meters":2800,"station_id":"ce4bgt92rcd13ifvqcf0","pricing_plan_id":"cebpf4jnsgd1na2vs0mg"},{"bike_id":"1905feff-740f-4acf-b945-649dbf3c5c7b","system_id":"levelo_inurba_marseille","lat":43.313571,"lon":5.384829,"is_reserved":false,"is_disabled":false,"rental_uris":{"android":"levelo://app?vid=1905feff-740f-4acf-b945-649dbf3c5c7b","ios":"levelo://app?vid=1905feff-740f-4acf-b945-649dbf3c5c7b"},"vehicle_type_id":"4","last_reported":1708369552,"current_range_meters":10800,"station_id":"ce4bgt92rcd13ifvqcf0","pricing_plan_id":"cebpf4jnsgd1na2vs0mg"},{"bike_id":"04bf62c4-6547-4405-9474-bb0760741159","system_id":"levelo_inurba_marseille","lat":43.313562,"lon":5.384991,"is_reserved":false,"is_disabled":false,"rental_uris":{"android":"levelo://app?vid=04bf62c4-6547-4405-9474-bb0760741159","ios":"levelo://app?vid=04bf62c4-6547-4405-9474-bb0760741159"},"vehicle_type_id":"4","last_reported":1708369552,"current_range_meters":0,"station_id":"ce4bgt92rcd13ifvqcf0","pricing_plan_id":"cebpf4jnsgd1na2vs0mg"},{"bike_id":"33b5e4d6-61ae-4008-b91d-e5f9c5dce45f","system_id":"levelo_inurba_marseille","lat":43.313571,"lon":5.384829,"is_reserved":false,"is_disabled":false,"rental_uris":{"android":"levelo://app?vid=33b5e4d6-61ae-4008-b91d-e5f9c5dce45f","ios":"levelo://app?vid=33b5e4d6-61ae-4008-b91d-e5f9c5dce45f"},"vehicle_type_id":"4","last_reported":1708369552,"current_range_meters":28000,"station_id":"ce4bgt92rcd13ifvqcf0","pricing_plan_id":"cebpf4jnsgd1na2vs0mg"},{"bike_id":"7dc94315-b741-4abe-8a2b-c3a531ed40e2","system_id":"levelo_inurba_marseille","lat":43.313571,"lon":5.384829,"is_reserved":false,"is_disabled":false,"rental_uris":{"android":"levelo://app?vid=7dc94315-b741-4abe-8a2b-c3a531ed40e2","ios":"levelo://app?vid=7dc94315-b741-4abe-8a2b-c3a531ed40e2"},"vehicle_type_id":"4","last_reported":1708369552,"current_range_meters":8800,"station_id":"ce4bgt92rcd13ifvqcf0","pricing_plan_id":"cebpf4jnsgd1na2vs0mg"},{"bike_id":"63838351-a6a1-494f-80d2-d6c73201e40e","system_id":"levelo_inurba_marseille","lat":43.31359,"lon":5.38502,"is_reserved":false,"is_disabled":false,"rental_uris":{"android":"levelo://app?vid=63838351-a6a1-494f-80d2-d6c73201e40e","ios":"levelo://app?vid=63838351-a6a1-494f-80d2-d6c73201e40e"},"vehicle_type_id":"4","last_reported":1708369552,"current_range_meters":30000,"station_id":"ce4bgt92rcd13ifvqcf0","pricing_plan_id":"cebpf4jnsgd1na2vs0mg"},{"bike_id":"0256e02c-9bd1-4bc2-8316-e151c18c4971","system_id":"levelo_inurba_marseille","lat":43.313564,"lon":5.38505,"is_reserved":false,"is_disabled":false,"rental_uris":{"android":"levelo://app?vid=0256e02c-9bd1-4bc2-8316-e151c18c4971","ios":"levelo://app?vid=0256e02c-9bd1-4bc2-8316-e151c18c4971"},"vehicle_type_id":"4","last_reported":1708369552,"current_range_meters":23600,"station_id":"ce4bgt92rcd13ifvqcf0","pricing_plan_id":"cebpf4jnsgd1na2vs0mg"},{"bike_id":"cfca795c-3397-4828-8ff4-e8807935a37c","system_id":"levelo_inurba_marseille","lat":43.29984,"lon":5.371947,"is_reserved":false,"is_disabled":false,"rental_uris":{"android":"levelo://app?vid=cfca795c-3397-4828-8ff4-e8807935a37c","ios":"levelo://app?vid=cfca795c-3397-4828-8ff4-e8807935a37c"},"vehicle_type_id":"4","last_reported":1708369552,"current_range_meters":0,"station_id":"ce4bgr92rcd13ifvqc7g","pricing_plan_id":"cebpf4jnsgd1na2vs0mg"},{"bike_id":"2ac8b931-8b9c-441d-98c4-a622cfaab0e1","system_id":"levelo_inurba_marseille","lat":43.299222,"lon":5.365554,"is_reserved":false,"is_disabled":false,"rental_uris":{"android":"levelo://app?vid=2ac8b931-8b9c-441d-98c4-a622cfaab0e1","ios":"levelo://app?vid=2ac8b931-8b9c-441d-98c4-a622cfaab0e1"},"vehicle_type_id":"4","last_reported":1708369552,"current_range_meters":0,"station_id":"ce4bgm92rcd13ifvqbr0","pricing_plan_id":"cebpf4jnsgd1na2vs0mg"},{"bike_id":"2d0662fe-6b7f-4248-a458-b1113778a9ba","system_id":"levelo_inurba_marseille","lat":43.299724,"lon":5.371829,"is_reserved":false,"is_disabled":false,"rental_uris":{"android":"levelo://app?vid=2d0662fe-6b7f-4248-a458-b1113778a9ba","ios":"levelo://app?vid=2d0662fe-6b7f-4248-a458-b1113778a9ba"},"vehicle_type_id":"4","last_reported":1708369552,"current_range_meters":13200,"station_id":"ce4bgr92rcd13ifvqc7g","pricing_plan_id":"cebpf4jnsgd1na2vs0mg"},{"bike_id":"1984c2dc-a1e8-4788-9687-89c4aa96a24c","system_id":"levelo_inurba_marseille","lat":43.29851,"lon":5.36284,"is_reserved":false,"is_disabled":false,"rental_uris":{"android":"levelo://app?vid=1984c2dc-a1e8-4788-9687-89c4aa96a24c","ios":"levelo://app?vid=1984c2dc-a1e8-4788-9687-89c4aa96a24c"},"vehicle_type_id":"4","last_reported":1708369552,"current_range_meters":6400,"station_id":"ce4bgpp2rcd13ifvqc3g","pricing_plan_id":"cebpf4jnsgd1na2vs0mg"},{"bike_id":"13870e53-d38d-4604-8458-6b2fc0dc61d3","system_id":"levelo_inurba_marseille","lat":43.29846,"lon":5.36284,"is_reserved":false,"is_disabled":false,"rental_uris":{"android":"levelo://app?vid=13870e53-d38d-4604-8458-6b2fc0dc61d3","ios":"levelo://app?vid=13870e53-d38d-4604-8458-6b2fc0dc61d3"},"vehicle_type_id":"4","last_reported":1708369552,"current_range_meters":26000,"station_id":"ce4bgpp2rcd13ifvqc3g","pricing_plan_id":"cebpf4jnsgd1na2vs0mg"},{"bike_id":"1017ac82-ba79-44f3-8ff4-9b3d1c909905","system_id":"levelo_inurba_marseille","lat":43.305364,"lon":5.384119,"is_reserved":false,"is_disabled":false,"rental_uris":{"android":"levelo://app?vid=1017ac82-ba79-44f3-8ff4-9b3d1c909905","ios":"levelo://app?vid=1017ac82-ba79-44f3-8ff4-9b3d1c909905"},"vehicle_type_id":"4","last_reported":1708369552,"current_range_meters":29600,"station_id":"ce4bgg92rcd13ifvqb30","pricing_plan_id":"cebpf4jnsgd1na2vs0mg"},{"bike_id":"45420969-1c8d-4260-8627-4207e0cbb67d","system_id":"levelo_inurba_marseille","lat":43.299243,"lon":5.37481,"is_reserved":false,"is_disabled":false,"rental_uris":{"android":"levelo://app?vid=45420969-1c8d-4260-8627-4207e0cbb67d","ios":"levelo://app?vid=45420969-1c8d-4260-8627-4207e0cbb67d"},"vehicle_type_id":"4","last_reported":1708369552,"current_range_meters":9600,"station_id":"ce4bgjh2rcd13ifvqbg0","pricing_plan_id":"cebpf4jnsgd1na2vs0mg"},{"bike_id":"ebf6c4f0-bd2a-48e2-9229-3ce660774bc4","system_id":"levelo_inurba_marseille","lat":43.298433,"lon":5.362774,"is_reserved":false,"is_disabled":false,"rental_uris":{"android":"levelo://app?vid=ebf6c4f0-bd2a-48e2-9229-3ce660774bc4","ios":"levelo://app?vid=ebf6c4f0-bd2a-48e2-9229-3ce660774bc4"},"vehicle_type_id":"4","last_reported":1708369552,"current_range_meters":24800,"station_id":"ce4bgpp2rcd13ifvqc3g","pricing_plan_id":"cebpf4jnsgd1na2vs0mg"},{"bike_id":"881ed0d4-3051-4972-a914-dfd5422e8bcd","system_id":"levelo_inurba_marseille","lat":43.298433,"lon":5.362774,"is_reserved":false,"is_disabled":false,"rental_uris":{"android":"levelo://app?vid=881ed0d4-3051-4972-a914-dfd5422e8bcd","ios":"levelo://app?vid=881ed0d4-3051-4972-a914-dfd5422e8bcd"},"vehicle_type_id":"4","last_reported":1708369552,"current_range_meters":22800,"station_id":"ce4bgpp2rcd13ifvqc3g","pricing_plan_id":"cebpf4jnsgd1na2vs0mg"},{"bike_id":"c95097af-f56e-4374-b8d4-46ea44cebe25","system_id":"levelo_inurba_marseille","lat":43.298433,"lon":5.362774,"is_reserved":false,"is_disabled":false,"rental_uris":{"android":"levelo://app?vid=c95097af-f56e-4374-b8d4-46ea44cebe25","ios":"levelo://app?vid=c95097af-f56e-4374-b8d4-46ea44cebe25"},"vehicle_type_id":"4","last_reported":1708369552,"current_range_meters":31600,"station_id":"ce4bgpp2rcd13ifvqc3g","pricing_plan_id":"cebpf4jnsgd1na2vs0mg"},{"bike_id":"a1a91ece-21f6-414a-b3f7-434ae1c5df15","system_id":"levelo_inurba_marseille","lat":43.298433,"lon":5.362774,"is_reserved":false,"is_disabled":false,"rental_uris":{"android":"levelo://app?vid=a1a91ece-21f6-414a-b3f7-434ae1c5df15","ios":"levelo://app?vid=a1a91ece-21f6-414a-b3f7-434ae1c5df15"},"vehicle_type_id":"4","last_reported":1708369552,"current_range_meters":10000,"station_id":"ce4bgpp2rcd13ifvqc3g","pricing_plan_id":"cebpf4jnsgd1na2vs0mg"},{"bike_id":"4c45f99c-e431-4bf4-b5d9-74c5149901b6","system_id":"levelo_inurba_marseille","lat":43.298433,"lon":5.362774,"is_reserved":false,"is_disabled":false,"rental_uris":{"android":"levelo://app?vid=4c45f99c-e431-4bf4-b5d9-74c5149901b6","ios":"levelo://app?vid=4c45f99c-e431-4bf4-b5d9-74c5149901b6"},"vehicle_type_id":"4","last_reported":1708369552,"current_range_meters":26400,"station_id":"ce4bgpp2rcd13ifvqc3g","pricing_plan_id":"cebpf4jnsgd1na2vs0mg"},{"bike_id":"3bcf2503-34e5-4850-8c55-b0df6d5a2c60","system_id":"levelo_inurba_marseille","lat":43.298433,"lon":5.362774,"is_reserved":false,"is_disabled":false,"rental_uris":{"android":"levelo://app?vid=3bcf2503-34e5-4850-8c55-b0df6d5a2c60","ios":"levelo://app?vid=3bcf2503-34e5-4850-8c55-b0df6d5a2c60"},"vehicle_type_id":"4","last_reported":1708369552,"current_range_meters":24800,"station_id":"ce4bgpp2rcd13ifvqc3g","pricing_plan_id":"cebpf4jnsgd1na2vs0mg"},{"bike_id":"934e3875-1f37-46e4-93d5-15164e1247d7","system_id":"levelo_inurba_marseille","lat":43.298433,"lon":5.362774,"is_reserved":false,"is_disabled":false,"rental_uris":{"android":"levelo://app?vid=934e3875-1f37-46e4-93d5-15164e1247d7","ios":"levelo://app?vid=934e3875-1f37-46e4-93d5-15164e1247d7"},"vehicle_type_id":"4","last_reported":1708369552,"current_range_meters":18400,"station_id":"ce4bgpp2rcd13ifvqc3g","pricing_plan_id":"cebpf4jnsgd1na2vs0mg"},{"bike_id":"961533b1-6d6d-4809-a8ff-e8da351d8bd5","system_id":"levelo_inurba_marseille","lat":43.298433,"lon":5.362774,"is_reserved":false,"is_disabled":false,"rental_uris":{"android":"levelo://app?vid=961533b1-6d6d-4809-a8ff-e8da351d8bd5","ios":"levelo://app?vid=961533b1-6d6d-4809-a8ff-e8da351d8bd5"},"vehicle_type_id":"4","last_reported":1708369552,"current_range_meters":2800,"station_id":"ce4bgpp2rcd13ifvqc3g","pricing_plan_id":"cebpf4jnsgd1na2vs0mg"},{"bike_id":"ef5c7914-8e3f-45f1-9827-e955746d5cb8","system_id":"levelo_inurba_marseille","lat":43.29804,"lon":5.36506,"is_reserved":false,"is_disabled":false,"rental_uris":{"android":"levelo://app?vid=ef5c7914-8e3f-45f1-9827-e955746d5cb8","ios":"levelo://app?vid=ef5c7914-8e3f-45f1-9827-e955746d5cb8"},"vehicle_type_id":"4","last_reported":1708369552,"current_range_meters":13600,"station_id":"","pricing_plan_id":"cebpf4jnsgd1na2vs0mg"},{"bike_id":"fce4e9eb-f1db-4840-9573-54454ce3f1d6","system_id":"levelo_inurba_marseille","lat":43.322872,"lon":5.382756,"is_reserved":false,"is_disabled":false,"rental_uris":{"android":"levelo://app?vid=fce4e9eb-f1db-4840-9573-54454ce3f1d6","ios":"levelo://app?vid=fce4e9eb-f1db-4840-9573-54454ce3f1d6"},"vehicle_type_id":"4","last_reported":1708369552,"current_range_meters":25600,"station_id":"ce4bhr12rcd13ifvqhqg","pricing_plan_id":"cebpf4jnsgd1na2vs0mg"},{"bike_id":"91ab4edd-d149-4ede-888b-4d27f7f91f34","system_id":"levelo_inurba_marseille","lat":43.322872,"lon":5.382756,"is_reserved":false,"is_disabled":false,"rental_uris":{"android":"levelo://app?vid=91ab4edd-d149-4ede-888b-4d27f7f91f34","ios":"levelo://app?vid=91ab4edd-d149-4ede-888b-4d27f7f91f34"},"vehicle_type_id":"4","last_reported":1708369552,"current_range_meters":5600,"station_id":"ce4bhr12rcd13ifvqhqg","pricing_plan_id":"cebpf4jnsgd1na2vs0mg"},{"bike_id":"d026edbc-abfe-4769-8eb1-e1acc923139d","system_id":"levelo_inurba_marseille","lat":43.322872,"lon":5.382756,"is_reserved":false,"is_disabled":false,"rental_uris":{"android":"levelo://app?vid=d026edbc-abfe-4769-8eb1-e1acc923139d","ios":"levelo://app?vid=d026edbc-abfe-4769-8eb1-e1acc923139d"},"vehicle_type_id":"4","last_reported":1708369552,"current_range_meters":25600,"station_id":"ce4bhr12rcd13ifvqhqg","pricing_plan_id":"cebpf4jnsgd1na2vs0mg"},{"bike_id":"9edfbbac-3647-4389-a484-42c4a248ae6c","system_id":"levelo_inurba_marseille","lat":43.322872,"lon":5.382756,"is_reserved":false,"is_disabled":false,"rental_uris":{"android":"levelo://app?vid=9edfbbac-3647-4389-a484-42c4a248ae6c","ios":"levelo://app?vid=9edfbbac-3647-4389-a484-42c4a248ae6c"},"vehicle_type_id":"4","last_reported":1708369552,"current_range_meters":18800,"station_id":"ce4bhr12rcd13ifvqhqg","pricing_plan_id":"cebpf4jnsgd1na2vs0mg"},{"bike_id":"4edcbdf9-e123-4522-b609-affc32d2a810","system_id":"levelo_inurba_marseille","lat":43.297163,"lon":5.365866,"is_reserved":false,"is_disabled":false,"rental_uris":{"android":"levelo://app?vid=4edcbdf9-e123-4522-b609-affc32d2a810","ios":"levelo://app?vid=4edcbdf9-e123-4522-b609-affc32d2a810"},"vehicle_type_id":"4","last_reported":1708369552,"current_range_meters":2800,"station_id":"ce4bgn12rcd13ifvqbt0","pricing_plan_id":"cebpf4jnsgd1na2vs0mg"},{"bike_id":"3a8c36c9-ea4b-4157-a311-c4f6b39c64a8","system_id":"levelo_inurba_marseille","lat":43.297163,"lon":5.365866,"is_reserved":false,"is_disabled":false,"rental_uris":{"android":"levelo://app?vid=3a8c36c9-ea4b-4157-a311-c4f6b39c64a8","ios":"levelo://app?vid=3a8c36c9-ea4b-4157-a311-c4f6b39c64a8"},"vehicle_type_id":"4","last_reported":1708369552,"current_range_meters":14400,"station_id":"ce4bgn12rcd13ifvqbt0","pricing_plan_id":"cebpf4jnsgd1na2vs0mg"},{"bike_id":"728932a6-93e2-4eec-b622-17da60a8ea81","system_id":"levelo_inurba_marseille","lat":43.297163,"lon":5.365866,"is_reserved":false,"is_disabled":false,"rental_uris":{"android":"levelo://app?vid=728932a6-93e2-4eec-b622-17da60a8ea81","ios":"levelo://app?vid=728932a6-93e2-4eec-b622-17da60a8ea81"},"vehicle_type_id":"4","last_reported":1708369552,"current_range_meters":6400,"station_id":"ce4bgn12rcd13ifvqbt0","pricing_plan_id":"cebpf4jnsgd1na2vs0mg"},{"bike_id":"add7985a-15aa-4ecf-aefb-9183c2c5c61d","system_id":"levelo_inurba_marseille","lat":43.299687,"lon":5.379413,"is_reserved":false,"is_disabled":false,"rental_uris":{"android":"levelo://app?vid=add7985a-15aa-4ecf-aefb-9183c2c5c61d","ios":"levelo://app?vid=add7985a-15aa-4ecf-aefb-9183c2c5c61d"},"vehicle_type_id":"4","last_reported":1708369552,"current_range_meters":12000,"station_id":"","pricing_plan_id":"cebpf4jnsgd1na2vs0mg"},{"bike_id":"f02a0f6f-66a6-462e-9e55-3dfdd8fe01d9","system_id":"levelo_inurba_marseille","lat":43.32906,"lon":5.36716,"is_reserved":false,"is_disabled":false,"rental_uris":{"android":"levelo://app?vid=f02a0f6f-66a6-462e-9e55-3dfdd8fe01d9","ios":"levelo://app?vid=f02a0f6f-66a6-462e-9e55-3dfdd8fe01d9"},"vehicle_type_id":"4","last_reported":1708369552,"current_range_meters":2000,"station_id":"","pricing_plan_id":"cebpf4jnsgd1na2vs0mg"},{"bike_id":"85f2648e-47b8-43af-8fc1-b9b4242abb10","system_id":"levelo_inurba_marseille","lat":43.296733,"lon":5.37285,"is_reserved":false,"is_disabled":false,"rental_uris":{"android":"levelo://app?vid=85f2648e-47b8-43af-8fc1-b9b4242abb10","ios":"levelo://app?vid=85f2648e-47b8-43af-8fc1-b9b4242abb10"},"vehicle_type_id":"4","last_reported":1708369552,"current_range_meters":22400,"station_id":"ce4bgk12rcd13ifvqbj0","pricing_plan_id":"cebpf4jnsgd1na2vs0mg"},{"bike_id":"6288b525-46ae-45a4-99da-97dc9e3fa0e1","system_id":"levelo_inurba_marseille","lat":43.29596,"lon":5.367922,"is_reserved":false,"is_disabled":false,"rental_uris":{"android":"levelo://app?vid=6288b525-46ae-45a4-99da-97dc9e3fa0e1","ios":"levelo://app?vid=6288b525-46ae-45a4-99da-97dc9e3fa0e1"},"vehicle_type_id":"4","last_reported":1708369552,"current_range_meters":25200,"station_id":"","pricing_plan_id":"cebpf4jnsgd1na2vs0mg"},{"bike_id":"cae78cfa-d8dc-43ec-a833-ebfe70a9c319","system_id":"levelo_inurba_marseille","lat":43.2993,"lon":5.38142,"is_reserved":false,"is_disabled":false,"rental_uris":{"android":"levelo://app?vid=cae78cfa-d8dc-43ec-a833-ebfe70a9c319","ios":"levelo://app?vid=cae78cfa-d8dc-43ec-a833-ebfe70a9c319"},"vehicle_type_id":"4","last_reported":1708369552,"current_range_meters":30800,"station_id":"ce4bgj12rcd13ifvqbc0","pricing_plan_id":"cebpf4jnsgd1na2vs0mg"},{"bike_id":"4a105110-1d19-4baa-9da9-5acfeefde88e","system_id":"levelo_inurba_marseille","lat":43.296921,"lon":5.376579,"is_reserved":false,"is_disabled":false,"rental_uris":{"android":"levelo://app?vid=4a105110-1d19-4baa-9da9-5acfeefde88e","ios":"levelo://app?vid=4a105110-1d19-4baa-9da9-5acfeefde88e"},"vehicle_type_id":"4","last_reported":1708369552,"current_range_meters":28000,"station_id":"ce4bgkh2rcd13ifvqbl0","pricing_plan_id":"cebpf4jnsgd1na2vs0mg"},{"bike_id":"cf9e05db-7e56-419b-934a-0b368b2e3710","system_id":"levelo_inurba_marseille","lat":43.299028,"lon":5.381509,"is_reserved":false,"is_disabled":false,"rental_uris":{"android":"levelo://app?vid=cf9e05db-7e56-419b-934a-0b368b2e3710","ios":"levelo://app?vid=cf9e05db-7e56-419b-934a-0b368b2e3710"},"vehicle_type_id":"4","last_reported":1708369552,"current_range_meters":16000,"station_id":"ce4bgj12rcd13ifvqbc0","pricing_plan_id":"cebpf4jnsgd1na2vs0mg"},{"bike_id":"9006dcf1-17d3-4031-81c2-9e818b61b918","system_id":"levelo_inurba_marseille","lat":43.317557,"lon":5.390173,"is_reserved":false,"is_disabled":false,"rental_uris":{"android":"levelo://app?vid=9006dcf1-17d3-4031-81c2-9e818b61b918","ios":"levelo://app?vid=9006dcf1-17d3-4031-81c2-9e818b61b918"},"vehicle_type_id":"4","last_reported":1708369552,"current_range_meters":22400,"station_id":"ce4bhqp2rcd13ifvqhng","pricing_plan_id":"cebpf4jnsgd1na2vs0mg"},{"bike_id":"593cf2ab-c5ff-4991-b13d-d0f7c3f2f64e","system_id":"levelo_inurba_marseille","lat":43.298037,"lon":5.381066,"is_reserved":false,"is_disabled":false,"rental_uris":{"android":"levelo://app?vid=593cf2ab-c5ff-4991-b13d-d0f7c3f2f64e","ios":"levelo://app?vid=593cf2ab-c5ff-4991-b13d-d0f7c3f2f64e"},"vehicle_type_id":"4","last_reported":1708369552,"current_range_meters":6800,"station_id":"ce4bgip2rcd13ifvqbb0","pricing_plan_id":"cebpf4jnsgd1na2vs0mg"},{"bike_id":"01d234d0-e8e0-45f8-b8bb-c81cf3e028da","system_id":"levelo_inurba_marseille","lat":43.317557,"lon":5.390173,"is_reserved":false,"is_disabled":false,"rental_uris":{"android":"levelo://app?vid=01d234d0-e8e0-45f8-b8bb-c81cf3e028da","ios":"levelo://app?vid=01d234d0-e8e0-45f8-b8bb-c81cf3e028da"},"vehicle_type_id":"4","last_reported":1708369552,"current_range_meters":31200,"station_id":"ce4bhqp2rcd13ifvqhng","pricing_plan_id":"cebpf4jnsgd1na2vs0mg"},{"bike_id":"e3d6a117-f1c2-4286-b6fc-026747e43e8e","system_id":"levelo_inurba_marseille","lat":43.317557,"lon":5.390173,"is_reserved":false,"is_disabled":false,"rental_uris":{"android":"levelo://app?vid=e3d6a117-f1c2-4286-b6fc-026747e43e8e","ios":"levelo://app?vid=e3d6a117-f1c2-4286-b6fc-026747e43e8e"},"vehicle_type_id":"4","last_reported":1708369552,"current_range_meters":18000,"station_id":"ce4bhqp2rcd13ifvqhng","pricing_plan_id":"cebpf4jnsgd1na2vs0mg"},{"bike_id":"a058b8c9-ce73-4233-9ec0-7d21bd3e485a","system_id":"levelo_inurba_marseille","lat":43.317557,"lon":5.390173,"is_reserved":false,"is_disabled":false,"rental_uris":{"android":"levelo://app?vid=a058b8c9-ce73-4233-9ec0-7d21bd3e485a","ios":"levelo://app?vid=a058b8c9-ce73-4233-9ec0-7d21bd3e485a"},"vehicle_type_id":"4","last_reported":1708369552,"current_range_meters":11600,"station_id":"ce4bhqp2rcd13ifvqhng","pricing_plan_id":"cebpf4jnsgd1na2vs0mg"},{"bike_id":"100abef7-d402-49cb-bf2d-c6da49e625ae","system_id":"levelo_inurba_marseille","lat":43.31758,"lon":5.39021,"is_reserved":false,"is_disabled":false,"rental_uris":{"android":"levelo://app?vid=100abef7-d402-49cb-bf2d-c6da49e625ae","ios":"levelo://app?vid=100abef7-d402-49cb-bf2d-c6da49e625ae"},"vehicle_type_id":"4","last_reported":1708369552,"current_range_meters":4800,"station_id":"ce4bhqp2rcd13ifvqhng","pricing_plan_id":"cebpf4jnsgd1na2vs0mg"},{"bike_id":"f2666d97-f098-4e8d-948b-6ca5cf2b5347","system_id":"levelo_inurba_marseille","lat":43.317557,"lon":5.390173,"is_reserved":false,"is_disabled":false,"rental_uris":{"android":"levelo://app?vid=f2666d97-f098-4e8d-948b-6ca5cf2b5347","ios":"levelo://app?vid=f2666d97-f098-4e8d-948b-6ca5cf2b5347"},"vehicle_type_id":"4","last_reported":1708369552,"current_range_meters":10800,"station_id":"ce4bhqp2rcd13ifvqhng","pricing_plan_id":"cebpf4jnsgd1na2vs0mg"},{"bike_id":"d94c2ba9-88f2-450d-960b-a5fb40d85458","system_id":"levelo_inurba_marseille","lat":43.298037,"lon":5.381066,"is_reserved":false,"is_disabled":false,"rental_uris":{"android":"levelo://app?vid=d94c2ba9-88f2-450d-960b-a5fb40d85458","ios":"levelo://app?vid=d94c2ba9-88f2-450d-960b-a5fb40d85458"},"vehicle_type_id":"4","last_reported":1708369552,"current_range_meters":13200,"station_id":"ce4bgip2rcd13ifvqbb0","pricing_plan_id":"cebpf4jnsgd1na2vs0mg"},{"bike_id":"ec2ba016-2307-4f83-881b-7cf68b3f22db","system_id":"levelo_inurba_marseille","lat":43.304274,"lon":5.388873,"is_reserved":false,"is_disabled":false,"rental_uris":{"android":"levelo://app?vid=ec2ba016-2307-4f83-881b-7cf68b3f22db","ios":"levelo://app?vid=ec2ba016-2307-4f83-881b-7cf68b3f22db"},"vehicle_type_id":"4","last_reported":1708369552,"current_range_meters":9200,"station_id":"ce4bgk12rcd13ifvqbi0","pricing_plan_id":"cebpf4jnsgd1na2vs0mg"},{"bike_id":"0ab81f25-06d4-4512-8619-8b2ffd69c6f3","system_id":"levelo_inurba_marseille","lat":43.295748,"lon":5.37522,"is_reserved":false,"is_disabled":false,"rental_uris":{"android":"levelo://app?vid=0ab81f25-06d4-4512-8619-8b2ffd69c6f3","ios":"levelo://app?vid=0ab81f25-06d4-4512-8619-8b2ffd69c6f3"},"vehicle_type_id":"4","last_reported":1708369552,"current_range_meters":2400,"station_id":"ce4bgh92rcd13ifvqb50","pricing_plan_id":"cebpf4jnsgd1na2vs0mg"},{"bike_id":"9ba4caf9-b04f-43f9-8e94-677aa0df3aec","system_id":"levelo_inurba_marseille","lat":43.296263,"lon":5.377094,"is_reserved":false,"is_disabled":false,"rental_uris":{"android":"levelo://app?vid=9ba4caf9-b04f-43f9-8e94-677aa0df3aec","ios":"levelo://app?vid=9ba4caf9-b04f-43f9-8e94-677aa0df3aec"},"vehicle_type_id":"4","last_reported":1708369552,"current_range_meters":24000,"station_id":"ce4bgi92rcd13ifvqb90","pricing_plan_id":"cebpf4jnsgd1na2vs0mg"},{"bike_id":"070e0d4d-81b9-4c51-afa9-932e172193b2","system_id":"levelo_inurba_marseille","lat":43.304274,"lon":5.388873,"is_reserved":false,"is_disabled":false,"rental_uris":{"android":"levelo://app?vid=070e0d4d-81b9-4c51-afa9-932e172193b2","ios":"levelo://app?vid=070e0d4d-81b9-4c51-afa9-932e172193b2"},"vehicle_type_id":"4","last_reported":1708369552,"current_range_meters":2800,"station_id":"ce4bgk12rcd13ifvqbi0","pricing_plan_id":"cebpf4jnsgd1na2vs0mg"},{"bike_id":"4e4a4174-76b2-42e3-8aa8-8842fc0b84f8","system_id":"levelo_inurba_marseille","lat":43.304278,"lon":5.388868,"is_reserved":false,"is_disabled":false,"rental_uris":{"android":"levelo://app?vid=4e4a4174-76b2-42e3-8aa8-8842fc0b84f8","ios":"levelo://app?vid=4e4a4174-76b2-42e3-8aa8-8842fc0b84f8"},"vehicle_type_id":"4","last_reported":1708369552,"current_range_meters":21200,"station_id":"ce4bgk12rcd13ifvqbi0","pricing_plan_id":"cebpf4jnsgd1na2vs0mg"},{"bike_id":"ecb87f08-652e-4da2-8b63-9feb38bb665a","system_id":"levelo_inurba_marseille","lat":43.304274,"lon":5.388873,"is_reserved":false,"is_disabled":false,"rental_uris":{"android":"levelo://app?vid=ecb87f08-652e-4da2-8b63-9feb38bb665a","ios":"levelo://app?vid=ecb87f08-652e-4da2-8b63-9feb38bb665a"},"vehicle_type_id":"4","last_reported":1708369552,"current_range_meters":13600,"station_id":"ce4bgk12rcd13ifvqbi0","pricing_plan_id":"cebpf4jnsgd1na2vs0mg"},{"bike_id":"e47bb1e9-bcc6-476a-80de-f6dbf635e710","system_id":"levelo_inurba_marseille","lat":43.296263,"lon":5.377094,"is_reserved":false,"is_disabled":false,"rental_uris":{"android":"levelo://app?vid=e47bb1e9-bcc6-476a-80de-f6dbf635e710","ios":"levelo://app?vid=e47bb1e9-bcc6-476a-80de-f6dbf635e710"},"vehicle_type_id":"4","last_reported":1708369552,"current_range_meters":14800,"station_id":"ce4bgi92rcd13ifvqb90","pricing_plan_id":"cebpf4jnsgd1na2vs0mg"},{"bike_id":"b8ec8921-91ac-40ae-baa1-fa4cbe0685df","system_id":"levelo_inurba_marseille","lat":43.295748,"lon":5.37522,"is_reserved":false,"is_disabled":false,"rental_uris":{"android":"levelo://app?vid=b8ec8921-91ac-40ae-baa1-fa4cbe0685df","ios":"levelo://app?vid=b8ec8921-91ac-40ae-baa1-fa4cbe0685df"},"vehicle_type_id":"4","last_reported":1708369552,"current_range_meters":0,"station_id":"ce4bgh92rcd13ifvqb50","pricing_plan_id":"cebpf4jnsgd1na2vs0mg"},{"bike_id":"44f876b3-dea2-4961-b8dd-45d9d4b4ba7d","system_id":"levelo_inurba_marseille","lat":43.299707,"lon":5.384859,"is_reserved":false,"is_disabled":false,"rental_uris":{"android":"levelo://app?vid=44f876b3-dea2-4961-b8dd-45d9d4b4ba7d","ios":"levelo://app?vid=44f876b3-dea2-4961-b8dd-45d9d4b4ba7d"},"vehicle_type_id":"4","last_reported":1708369552,"current_range_meters":6000,"station_id":"ce4bgj92rcd13ifvqbd0","pricing_plan_id":"cebpf4jnsgd1na2vs0mg"},{"bike_id":"bef56603-4c98-4cf6-a193-4775f220aef7","system_id":"levelo_inurba_marseille","lat":43.299717,"lon":5.384845,"is_reserved":false,"is_disabled":false,"rental_uris":{"android":"levelo://app?vid=bef56603-4c98-4cf6-a193-4775f220aef7","ios":"levelo://app?vid=bef56603-4c98-4cf6-a193-4775f220aef7"},"vehicle_type_id":"4","last_reported":1708369552,"current_range_meters":29200,"station_id":"ce4bgj92rcd13ifvqbd0","pricing_plan_id":"cebpf4jnsgd1na2vs0mg"},{"bike_id":"1ebf7e10-404e-4223-83df-dfcb8866e9f3","system_id":"levelo_inurba_marseille","lat":43.299717,"lon":5.384845,"is_reserved":false,"is_disabled":false,"rental_uris":{"android":"levelo://app?vid=1ebf7e10-404e-4223-83df-dfcb8866e9f3","ios":"levelo://app?vid=1ebf7e10-404e-4223-83df-dfcb8866e9f3"},"vehicle_type_id":"4","last_reported":1708369552,"current_range_meters":3600,"station_id":"ce4bgj92rcd13ifvqbd0","pricing_plan_id":"cebpf4jnsgd1na2vs0mg"},{"bike_id":"534ae475-8657-4f55-967a-7223843e21db","system_id":"levelo_inurba_marseille","lat":43.299707,"lon":5.384859,"is_reserved":false,"is_disabled":false,"rental_uris":{"android":"levelo://app?vid=534ae475-8657-4f55-967a-7223843e21db","ios":"levelo://app?vid=534ae475-8657-4f55-967a-7223843e21db"},"vehicle_type_id":"4","last_reported":1708369552,"current_range_meters":17200,"station_id":"ce4bgj92rcd13ifvqbd0","pricing_plan_id":"cebpf4jnsgd1na2vs0mg"},{"bike_id":"9a639c97-dd72-4cb1-b825-4a59444b5383","system_id":"levelo_inurba_marseille","lat":43.298433,"lon":5.362774,"is_reserved":false,"is_disabled":false,"rental_uris":{"android":"levelo://app?vid=9a639c97-dd72-4cb1-b825-4a59444b5383","ios":"levelo://app?vid=9a639c97-dd72-4cb1-b825-4a59444b5383"},"vehicle_type_id":"4","last_reported":1708369552,"current_range_meters":4400,"station_id":"ce4bgpp2rcd13ifvqc3g","pricing_plan_id":"cebpf4jnsgd1na2vs0mg"},{"bike_id":"338fcedb-ee57-480c-9e10-e6f2c75cee61","system_id":"levelo_inurba_marseille","lat":43.32367,"lon":5.388836,"is_reserved":false,"is_disabled":false,"rental_uris":{"android":"levelo://app?vid=338fcedb-ee57-480c-9e10-e6f2c75cee61","ios":"levelo://app?vid=338fcedb-ee57-480c-9e10-e6f2c75cee61"},"vehicle_type_id":"4","last_reported":1708369552,"current_range_meters":12400,"station_id":"ce4bhqp2rcd13ifvqhog","pricing_plan_id":"cebpf4jnsgd1na2vs0mg"},{"bike_id":"394cbb56-9b06-4da0-8990-0c121bd25dc1","system_id":"levelo_inurba_marseille","lat":43.32367,"lon":5.388836,"is_reserved":false,"is_disabled":false,"rental_uris":{"android":"levelo://app?vid=394cbb56-9b06-4da0-8990-0c121bd25dc1","ios":"levelo://app?vid=394cbb56-9b06-4da0-8990-0c121bd25dc1"},"vehicle_type_id":"4","last_reported":1708369552,"current_range_meters":6800,"station_id":"ce4bhqp2rcd13ifvqhog","pricing_plan_id":"cebpf4jnsgd1na2vs0mg"},{"bike_id":"14b2adbd-de5e-493a-919f-cb01d90fdaa2","system_id":"levelo_inurba_marseille","lat":43.32368,"lon":5.38887,"is_reserved":false,"is_disabled":false,"rental_uris":{"android":"levelo://app?vid=14b2adbd-de5e-493a-919f-cb01d90fdaa2","ios":"levelo://app?vid=14b2adbd-de5e-493a-919f-cb01d90fdaa2"},"vehicle_type_id":"4","last_reported":1708369552,"current_range_meters":12400,"station_id":"ce4bhqp2rcd13ifvqhog","pricing_plan_id":"cebpf4jnsgd1na2vs0mg"},{"bike_id":"0d5ad65d-8c73-41a2-9b74-ad2b8c3f24d6","system_id":"levelo_inurba_marseille","lat":43.293249,"lon":5.371578,"is_reserved":false,"is_disabled":false,"rental_uris":{"android":"levelo://app?vid=0d5ad65d-8c73-41a2-9b74-ad2b8c3f24d6","ios":"levelo://app?vid=0d5ad65d-8c73-41a2-9b74-ad2b8c3f24d6"},"vehicle_type_id":"4","last_reported":1708369552,"current_range_meters":11200,"station_id":"ce4bgh92rcd13ifvqb40","pricing_plan_id":"cebpf4jnsgd1na2vs0mg"},{"bike_id":"738165c3-c7a3-41fc-b8e2-4f3ca962e8e2","system_id":"levelo_inurba_marseille","lat":43.293249,"lon":5.371578,"is_reserved":false,"is_disabled":false,"rental_uris":{"android":"levelo://app?vid=738165c3-c7a3-41fc-b8e2-4f3ca962e8e2","ios":"levelo://app?vid=738165c3-c7a3-41fc-b8e2-4f3ca962e8e2"},"vehicle_type_id":"4","last_reported":1708369552,"current_range_meters":26000,"station_id":"ce4bgh92rcd13ifvqb40","pricing_plan_id":"cebpf4jnsgd1na2vs0mg"},{"bike_id":"4a5e9377-aa00-49a2-8815-7a5a6d5c02ad","system_id":"levelo_inurba_marseille","lat":43.293249,"lon":5.371578,"is_reserved":false,"is_disabled":false,"rental_uris":{"android":"levelo://app?vid=4a5e9377-aa00-49a2-8815-7a5a6d5c02ad","ios":"levelo://app?vid=4a5e9377-aa00-49a2-8815-7a5a6d5c02ad"},"vehicle_type_id":"4","last_reported":1708369552,"current_range_meters":20400,"station_id":"ce4bgh92rcd13ifvqb40","pricing_plan_id":"cebpf4jnsgd1na2vs0mg"},{"bike_id":"eafd243c-44da-4d34-8da5-1a7c3cba0781","system_id":"levelo_inurba_marseille","lat":43.293259,"lon":5.371586,"is_reserved":false,"is_disabled":false,"rental_uris":{"android":"levelo://app?vid=eafd243c-44da-4d34-8da5-1a7c3cba0781","ios":"levelo://app?vid=eafd243c-44da-4d34-8da5-1a7c3cba0781"},"vehicle_type_id":"4","last_reported":1708369552,"current_range_meters":12000,"station_id":"ce4bgh92rcd13ifvqb40","pricing_plan_id":"cebpf4jnsgd1na2vs0mg"},{"bike_id":"5700f29d-ec6c-45a4-9d25-f0d3d7fbe099","system_id":"levelo_inurba_marseille","lat":43.293259,"lon":5.371586,"is_reserved":false,"is_disabled":false,"rental_uris":{"android":"levelo://app?vid=5700f29d-ec6c-45a4-9d25-f0d3d7fbe099","ios":"levelo://app?vid=5700f29d-ec6c-45a4-9d25-f0d3d7fbe099"},"vehicle_type_id":"4","last_reported":1708369552,"current_range_meters":23600,"station_id":"ce4bgh92rcd13ifvqb40","pricing_plan_id":"cebpf4jnsgd1na2vs0mg"},{"bike_id":"39874c9c-e271-4588-a67e-047443b8a6bf","system_id":"levelo_inurba_marseille","lat":43.292749,"lon":5.368402,"is_reserved":false,"is_disabled":false,"rental_uris":{"android":"levelo://app?vid=39874c9c-e271-4588-a67e-047443b8a6bf","ios":"levelo://app?vid=39874c9c-e271-4588-a67e-047443b8a6bf"},"vehicle_type_id":"4","last_reported":1708369552,"current_range_meters":12400,"station_id":"ce4bhbp2rcd13ifvqesg","pricing_plan_id":"cebpf4jnsgd1na2vs0mg"},{"bike_id":"0197f4f1-94fc-4d7c-9b15-83120f3e1d85","system_id":"levelo_inurba_marseille","lat":43.29305,"lon":5.37177,"is_reserved":false,"is_disabled":false,"rental_uris":{"android":"levelo://app?vid=0197f4f1-94fc-4d7c-9b15-83120f3e1d85","ios":"levelo://app?vid=0197f4f1-94fc-4d7c-9b15-83120f3e1d85"},"vehicle_type_id":"4","last_reported":1708369552,"current_range_meters":12000,"station_id":"ce4bgh92rcd13ifvqb40","pricing_plan_id":"cebpf4jnsgd1na2vs0mg"},{"bike_id":"cd28783c-f1fd-4672-8a78-31d8cb8326e7","system_id":"levelo_inurba_marseille","lat":43.292749,"lon":5.368402,"is_reserved":false,"is_disabled":false,"rental_uris":{"android":"levelo://app?vid=cd28783c-f1fd-4672-8a78-31d8cb8326e7","ios":"levelo://app?vid=cd28783c-f1fd-4672-8a78-31d8cb8326e7"},"vehicle_type_id":"4","last_reported":1708369552,"current_range_meters":16800,"station_id":"ce4bhbp2rcd13ifvqesg","pricing_plan_id":"cebpf4jnsgd1na2vs0mg"},{"bike_id":"c3373d1a-4d1b-4832-8ea5-fa7116b8fdba","system_id":"levelo_inurba_marseille","lat":43.293249,"lon":5.371578,"is_reserved":false,"is_disabled":false,"rental_uris":{"android":"levelo://app?vid=c3373d1a-4d1b-4832-8ea5-fa7116b8fdba","ios":"levelo://app?vid=c3373d1a-4d1b-4832-8ea5-fa7116b8fdba"},"vehicle_type_id":"4","last_reported":1708369552,"current_range_meters":21600,"station_id":"ce4bgh92rcd13ifvqb40","pricing_plan_id":"cebpf4jnsgd1na2vs0mg"},{"bike_id":"05473435-ad65-4900-8f56-1f03d887f9de","system_id":"levelo_inurba_marseille","lat":43.292749,"lon":5.368402,"is_reserved":false,"is_disabled":false,"rental_uris":{"android":"levelo://app?vid=05473435-ad65-4900-8f56-1f03d887f9de","ios":"levelo://app?vid=05473435-ad65-4900-8f56-1f03d887f9de"},"vehicle_type_id":"4","last_reported":1708369552,"current_range_meters":15200,"station_id":"ce4bhbp2rcd13ifvqesg","pricing_plan_id":"cebpf4jnsgd1na2vs0mg"},{"bike_id":"abe7d0a2-2080-4dab-84e2-41db18473abb","system_id":"levelo_inurba_marseille","lat":43.292749,"lon":5.368402,"is_reserved":false,"is_disabled":false,"rental_uris":{"android":"levelo://app?vid=abe7d0a2-2080-4dab-84e2-41db18473abb","ios":"levelo://app?vid=abe7d0a2-2080-4dab-84e2-41db18473abb"},"vehicle_type_id":"4","last_reported":1708369552,"current_range_meters":4800,"station_id":"ce4bhbp2rcd13ifvqesg","pricing_plan_id":"cebpf4jnsgd1na2vs0mg"},{"bike_id":"cecd75e9-92d1-41df-9a74-5a6e34876066","system_id":"levelo_inurba_marseille","lat":43.292749,"lon":5.368402,"is_reserved":false,"is_disabled":false,"rental_uris":{"android":"levelo://app?vid=cecd75e9-92d1-41df-9a74-5a6e34876066","ios":"levelo://app?vid=cecd75e9-92d1-41df-9a74-5a6e34876066"},"vehicle_type_id":"4","last_reported":1708369552,"current_range_meters":26400,"station_id":"ce4bhbp2rcd13ifvqesg","pricing_plan_id":"cebpf4jnsgd1na2vs0mg"},{"bike_id":"65d46780-9af6-4746-8021-d5e4f59b3de8","system_id":"levelo_inurba_marseille","lat":43.292749,"lon":5.368402,"is_reserved":false,"is_disabled":false,"rental_uris":{"android":"levelo://app?vid=65d46780-9af6-4746-8021-d5e4f59b3de8","ios":"levelo://app?vid=65d46780-9af6-4746-8021-d5e4f59b3de8"},"vehicle_type_id":"4","last_reported":1708369552,"current_range_meters":10000,"station_id":"ce4bhbp2rcd13ifvqesg","pricing_plan_id":"cebpf4jnsgd1na2vs0mg"},{"bike_id":"2cefa430-0071-4b80-9a72-3bbc0b92fb78","system_id":"levelo_inurba_marseille","lat":43.292749,"lon":5.368402,"is_reserved":false,"is_disabled":false,"rental_uris":{"android":"levelo://app?vid=2cefa430-0071-4b80-9a72-3bbc0b92fb78","ios":"levelo://app?vid=2cefa430-0071-4b80-9a72-3bbc0b92fb78"},"vehicle_type_id":"4","last_reported":1708369552,"current_range_meters":0,"station_id":"ce4bhbp2rcd13ifvqesg","pricing_plan_id":"cebpf4jnsgd1na2vs0mg"},{"bike_id":"d222d378-79c3-486c-9627-971005c410cf","system_id":"levelo_inurba_marseille","lat":43.292749,"lon":5.368402,"is_reserved":false,"is_disabled":false,"rental_uris":{"android":"levelo://app?vid=d222d378-79c3-486c-9627-971005c410cf","ios":"levelo://app?vid=d222d378-79c3-486c-9627-971005c410cf"},"vehicle_type_id":"4","last_reported":1708369552,"current_range_meters":8000,"station_id":"ce4bhbp2rcd13ifvqesg","pricing_plan_id":"cebpf4jnsgd1na2vs0mg"},{"bike_id":"b9bb1226-e8e6-448d-97a4-edd293c4266d","system_id":"levelo_inurba_marseille","lat":43.292749,"lon":5.368402,"is_reserved":false,"is_disabled":false,"rental_uris":{"android":"levelo://app?vid=b9bb1226-e8e6-448d-97a4-edd293c4266d","ios":"levelo://app?vid=b9bb1226-e8e6-448d-97a4-edd293c4266d"},"vehicle_type_id":"4","last_reported":1708369552,"current_range_meters":17200,"station_id":"ce4bhbp2rcd13ifvqesg","pricing_plan_id":"cebpf4jnsgd1na2vs0mg"},{"bike_id":"a356a71d-8723-493e-8dd7-0d2f4f5a935a","system_id":"levelo_inurba_marseille","lat":43.31274,"lon":5.39468,"is_reserved":false,"is_disabled":false,"rental_uris":{"android":"levelo://app?vid=a356a71d-8723-493e-8dd7-0d2f4f5a935a","ios":"levelo://app?vid=a356a71d-8723-493e-8dd7-0d2f4f5a935a"},"vehicle_type_id":"4","last_reported":1708369552,"current_range_meters":15600,"station_id":"","pricing_plan_id":"cebpf4jnsgd1na2vs0mg"},{"bike_id":"6a661f13-d055-40be-89f2-cf698fb426fc","system_id":"levelo_inurba_marseille","lat":43.302992,"lon":5.392136,"is_reserved":false,"is_disabled":false,"rental_uris":{"android":"levelo://app?vid=6a661f13-d055-40be-89f2-cf698fb426fc","ios":"levelo://app?vid=6a661f13-d055-40be-89f2-cf698fb426fc"},"vehicle_type_id":"4","last_reported":1708369552,"current_range_meters":2800,"station_id":"ce4bgkh2rcd13ifvqbk0","pricing_plan_id":"cebpf4jnsgd1na2vs0mg"},{"bike_id":"feec793c-f106-46a5-ab76-903f2829ee93","system_id":"levelo_inurba_marseille","lat":43.303002,"lon":5.392142,"is_reserved":false,"is_disabled":false,"rental_uris":{"android":"levelo://app?vid=feec793c-f106-46a5-ab76-903f2829ee93","ios":"levelo://app?vid=feec793c-f106-46a5-ab76-903f2829ee93"},"vehicle_type_id":"4","last_reported":1708369552,"current_range_meters":13600,"station_id":"ce4bgkh2rcd13ifvqbk0","pricing_plan_id":"cebpf4jnsgd1na2vs0mg"},{"bike_id":"baff40bd-7557-4b8d-a605-f013c6cf90df","system_id":"levelo_inurba_marseille","lat":43.302992,"lon":5.392136,"is_reserved":false,"is_disabled":false,"rental_uris":{"android":"levelo://app?vid=baff40bd-7557-4b8d-a605-f013c6cf90df","ios":"levelo://app?vid=baff40bd-7557-4b8d-a605-f013c6cf90df"},"vehicle_type_id":"4","last_reported":1708369552,"current_range_meters":11600,"station_id":"ce4bgkh2rcd13ifvqbk0","pricing_plan_id":"cebpf4jnsgd1na2vs0mg"},{"bike_id":"6bf44859-f99c-4224-89be-0a480416bea9","system_id":"levelo_inurba_marseille","lat":43.302992,"lon":5.392136,"is_reserved":false,"is_disabled":false,"rental_uris":{"android":"levelo://app?vid=6bf44859-f99c-4224-89be-0a480416bea9","ios":"levelo://app?vid=6bf44859-f99c-4224-89be-0a480416bea9"},"vehicle_type_id":"4","last_reported":1708369552,"current_range_meters":24400,"station_id":"ce4bgkh2rcd13ifvqbk0","pricing_plan_id":"cebpf4jnsgd1na2vs0mg"},{"bike_id":"31e50d26-7e9b-4bdc-886c-6fe65b9c6f68","system_id":"levelo_inurba_marseille","lat":43.292311,"lon":5.360731,"is_reserved":false,"is_disabled":false,"rental_uris":{"android":"levelo://app?vid=31e50d26-7e9b-4bdc-886c-6fe65b9c6f68","ios":"levelo://app?vid=31e50d26-7e9b-4bdc-886c-6fe65b9c6f68"},"vehicle_type_id":"4","last_reported":1708369552,"current_range_meters":400,"station_id":"ce4bhbh2rcd13ifvqeqg","pricing_plan_id":"cebpf4jnsgd1na2vs0mg"},{"bike_id":"41ad962e-360c-478f-80e7-beb50152db3d","system_id":"levelo_inurba_marseille","lat":43.292311,"lon":5.360731,"is_reserved":false,"is_disabled":false,"rental_uris":{"android":"levelo://app?vid=41ad962e-360c-478f-80e7-beb50152db3d","ios":"levelo://app?vid=41ad962e-360c-478f-80e7-beb50152db3d"},"vehicle_type_id":"4","last_reported":1708369552,"current_range_meters":27600,"station_id":"ce4bhbh2rcd13ifvqeqg","pricing_plan_id":"cebpf4jnsgd1na2vs0mg"},{"bike_id":"f7a81959-4415-435d-a520-d41cd22ed438","system_id":"levelo_inurba_marseille","lat":43.292311,"lon":5.360731,"is_reserved":false,"is_disabled":false,"rental_uris":{"android":"levelo://app?vid=f7a81959-4415-435d-a520-d41cd22ed438","ios":"levelo://app?vid=f7a81959-4415-435d-a520-d41cd22ed438"},"vehicle_type_id":"4","last_reported":1708369552,"current_range_meters":22400,"station_id":"ce4bhbh2rcd13ifvqeqg","pricing_plan_id":"cebpf4jnsgd1na2vs0mg"},{"bike_id":"7f4d1554-7035-4dbb-a3b5-6508097fdee8","system_id":"levelo_inurba_marseille","lat":43.292311,"lon":5.360731,"is_reserved":false,"is_disabled":false,"rental_uris":{"android":"levelo://app?vid=7f4d1554-7035-4dbb-a3b5-6508097fdee8","ios":"levelo://app?vid=7f4d1554-7035-4dbb-a3b5-6508097fdee8"},"vehicle_type_id":"4","last_reported":1708369552,"current_range_meters":10800,"station_id":"ce4bhbh2rcd13ifvqeqg","pricing_plan_id":"cebpf4jnsgd1na2vs0mg"},{"bike_id":"38e678fc-a604-4448-95f0-758be9a976a8","system_id":"levelo_inurba_marseille","lat":43.292311,"lon":5.360731,"is_reserved":false,"is_disabled":false,"rental_uris":{"android":"levelo://app?vid=38e678fc-a604-4448-95f0-758be9a976a8","ios":"levelo://app?vid=38e678fc-a604-4448-95f0-758be9a976a8"},"vehicle_type_id":"4","last_reported":1708369552,"current_range_meters":10800,"station_id":"ce4bhbh2rcd13ifvqeqg","pricing_plan_id":"cebpf4jnsgd1na2vs0mg"},{"bike_id":"4b27d897-22ea-4e3c-b737-f75584568374","system_id":"levelo_inurba_marseille","lat":43.292311,"lon":5.360731,"is_reserved":false,"is_disabled":false,"rental_uris":{"android":"levelo://app?vid=4b27d897-22ea-4e3c-b737-f75584568374","ios":"levelo://app?vid=4b27d897-22ea-4e3c-b737-f75584568374"},"vehicle_type_id":"4","last_reported":1708369552,"current_range_meters":24800,"station_id":"ce4bhbh2rcd13ifvqeqg","pricing_plan_id":"cebpf4jnsgd1na2vs0mg"},{"bike_id":"8ac9a789-ac66-4bfc-937c-cf8bf287d8d7","system_id":"levelo_inurba_marseille","lat":43.292311,"lon":5.360731,"is_reserved":false,"is_disabled":false,"rental_uris":{"android":"levelo://app?vid=8ac9a789-ac66-4bfc-937c-cf8bf287d8d7","ios":"levelo://app?vid=8ac9a789-ac66-4bfc-937c-cf8bf287d8d7"},"vehicle_type_id":"4","last_reported":1708369552,"current_range_meters":24000,"station_id":"ce4bhbh2rcd13ifvqeqg","pricing_plan_id":"cebpf4jnsgd1na2vs0mg"},{"bike_id":"86ec6f0c-3bd6-4fd5-9085-23171a09d9e5","system_id":"levelo_inurba_marseille","lat":43.292311,"lon":5.360731,"is_reserved":false,"is_disabled":false,"rental_uris":{"android":"levelo://app?vid=86ec6f0c-3bd6-4fd5-9085-23171a09d9e5","ios":"levelo://app?vid=86ec6f0c-3bd6-4fd5-9085-23171a09d9e5"},"vehicle_type_id":"4","last_reported":1708369552,"current_range_meters":16800,"station_id":"ce4bhbh2rcd13ifvqeqg","pricing_plan_id":"cebpf4jnsgd1na2vs0mg"},{"bike_id":"b0bc2962-60bd-485d-a9bb-7db5b00c1dbf","system_id":"levelo_inurba_marseille","lat":43.30085,"lon":5.390856,"is_reserved":false,"is_disabled":false,"rental_uris":{"android":"levelo://app?vid=b0bc2962-60bd-485d-a9bb-7db5b00c1dbf","ios":"levelo://app?vid=b0bc2962-60bd-485d-a9bb-7db5b00c1dbf"},"vehicle_type_id":"4","last_reported":1708369552,"current_range_meters":6800,"station_id":"ce4bh192rcd13ifvqdb0","pricing_plan_id":"cebpf4jnsgd1na2vs0mg"},{"bike_id":"cc857249-6c42-4bd3-bc10-a94584a4fe78","system_id":"levelo_inurba_marseille","lat":43.30085,"lon":5.390856,"is_reserved":false,"is_disabled":false,"rental_uris":{"android":"levelo://app?vid=cc857249-6c42-4bd3-bc10-a94584a4fe78","ios":"levelo://app?vid=cc857249-6c42-4bd3-bc10-a94584a4fe78"},"vehicle_type_id":"4","last_reported":1708369552,"current_range_meters":27200,"station_id":"ce4bh192rcd13ifvqdb0","pricing_plan_id":"cebpf4jnsgd1na2vs0mg"},{"bike_id":"a8e5c5a6-4950-415d-ac72-f4ce8cacd3a0","system_id":"levelo_inurba_marseille","lat":43.300852,"lon":5.390859,"is_reserved":false,"is_disabled":false,"rental_uris":{"android":"levelo://app?vid=a8e5c5a6-4950-415d-ac72-f4ce8cacd3a0","ios":"levelo://app?vid=a8e5c5a6-4950-415d-ac72-f4ce8cacd3a0"},"vehicle_type_id":"4","last_reported":1708369552,"current_range_meters":9600,"station_id":"ce4bh192rcd13ifvqdb0","pricing_plan_id":"cebpf4jnsgd1na2vs0mg"},{"bike_id":"0c11dde7-9001-400d-9357-1bc988a3611c","system_id":"levelo_inurba_marseille","lat":43.300911,"lon":5.3908,"is_reserved":false,"is_disabled":false,"rental_uris":{"android":"levelo://app?vid=0c11dde7-9001-400d-9357-1bc988a3611c","ios":"levelo://app?vid=0c11dde7-9001-400d-9357-1bc988a3611c"},"vehicle_type_id":"4","last_reported":1708369552,"current_range_meters":18400,"station_id":"ce4bh192rcd13ifvqdb0","pricing_plan_id":"cebpf4jnsgd1na2vs0mg"},{"bike_id":"6a874ee3-1bee-4588-9433-d9ab2af9fc37","system_id":"levelo_inurba_marseille","lat":43.30085,"lon":5.390856,"is_reserved":false,"is_disabled":false,"rental_uris":{"android":"levelo://app?vid=6a874ee3-1bee-4588-9433-d9ab2af9fc37","ios":"levelo://app?vid=6a874ee3-1bee-4588-9433-d9ab2af9fc37"},"vehicle_type_id":"4","last_reported":1708369552,"current_range_meters":6000,"station_id":"ce4bh192rcd13ifvqdb0","pricing_plan_id":"cebpf4jnsgd1na2vs0mg"},{"bike_id":"ee2323db-b18a-4104-943d-633166f1819f","system_id":"levelo_inurba_marseille","lat":43.300852,"lon":5.390859,"is_reserved":false,"is_disabled":false,"rental_uris":{"android":"levelo://app?vid=ee2323db-b18a-4104-943d-633166f1819f","ios":"levelo://app?vid=ee2323db-b18a-4104-943d-633166f1819f"},"vehicle_type_id":"4","last_reported":1708369552,"current_range_meters":19600,"station_id":"ce4bh192rcd13ifvqdb0","pricing_plan_id":"cebpf4jnsgd1na2vs0mg"},{"bike_id":"bc7dd6d8-5622-4b45-b827-8ed3f73babd7","system_id":"levelo_inurba_marseille","lat":43.292157,"lon":5.360387,"is_reserved":false,"is_disabled":false,"rental_uris":{"android":"levelo://app?vid=bc7dd6d8-5622-4b45-b827-8ed3f73babd7","ios":"levelo://app?vid=bc7dd6d8-5622-4b45-b827-8ed3f73babd7"},"vehicle_type_id":"4","last_reported":1708369552,"current_range_meters":0,"station_id":"ce4bhbh2rcd13ifvqeqg","pricing_plan_id":"cebpf4jnsgd1na2vs0mg"},{"bike_id":"e17fc1d5-9bfc-4608-98d2-b427aa085b63","system_id":"levelo_inurba_marseille","lat":43.292311,"lon":5.360731,"is_reserved":false,"is_disabled":false,"rental_uris":{"android":"levelo://app?vid=e17fc1d5-9bfc-4608-98d2-b427aa085b63","ios":"levelo://app?vid=e17fc1d5-9bfc-4608-98d2-b427aa085b63"},"vehicle_type_id":"4","last_reported":1708369552,"current_range_meters":6400,"station_id":"ce4bhbh2rcd13ifvqeqg","pricing_plan_id":"cebpf4jnsgd1na2vs0mg"},{"bike_id":"2ff98eb7-d90c-47dd-a14b-2a87a95fe49f","system_id":"levelo_inurba_marseille","lat":43.298764,"lon":5.388973,"is_reserved":false,"is_disabled":false,"rental_uris":{"android":"levelo://app?vid=2ff98eb7-d90c-47dd-a14b-2a87a95fe49f","ios":"levelo://app?vid=2ff98eb7-d90c-47dd-a14b-2a87a95fe49f"},"vehicle_type_id":"4","last_reported":1708369552,"current_range_meters":15600,"station_id":"ce4bh392rcd13ifvqdl0","pricing_plan_id":"cebpf4jnsgd1na2vs0mg"},{"bike_id":"a5d49166-62fe-41bd-8bee-6062b26689ee","system_id":"levelo_inurba_marseille","lat":43.298764,"lon":5.388973,"is_reserved":false,"is_disabled":false,"rental_uris":{"android":"levelo://app?vid=a5d49166-62fe-41bd-8bee-6062b26689ee","ios":"levelo://app?vid=a5d49166-62fe-41bd-8bee-6062b26689ee"},"vehicle_type_id":"4","last_reported":1708369552,"current_range_meters":18800,"station_id":"ce4bh392rcd13ifvqdl0","pricing_plan_id":"cebpf4jnsgd1na2vs0mg"},{"bike_id":"3672ef6c-69dd-4adc-b75d-2274fee2816f","system_id":"levelo_inurba_marseille","lat":43.292571,"lon":5.3762,"is_reserved":false,"is_disabled":false,"rental_uris":{"android":"levelo://app?vid=3672ef6c-69dd-4adc-b75d-2274fee2816f","ios":"levelo://app?vid=3672ef6c-69dd-4adc-b75d-2274fee2816f"},"vehicle_type_id":"4","last_reported":1708369552,"current_range_meters":16400,"station_id":"","pricing_plan_id":"cebpf4jnsgd1na2vs0mg"},{"bike_id":"25ea9b6a-6d0a-48a6-8746-a175b1260ca5","system_id":"levelo_inurba_marseille","lat":43.293009,"lon":5.374584,"is_reserved":false,"is_disabled":false,"rental_uris":{"android":"levelo://app?vid=25ea9b6a-6d0a-48a6-8746-a175b1260ca5","ios":"levelo://app?vid=25ea9b6a-6d0a-48a6-8746-a175b1260ca5"},"vehicle_type_id":"4","last_reported":1708369552,"current_range_meters":26800,"station_id":"ce4bgi12rcd13ifvqb70","pricing_plan_id":"cebpf4jnsgd1na2vs0mg"},{"bike_id":"022ad871-0efc-4ba3-b813-6250f276730c","system_id":"levelo_inurba_marseille","lat":43.291994,"lon":5.357886,"is_reserved":false,"is_disabled":false,"rental_uris":{"android":"levelo://app?vid=022ad871-0efc-4ba3-b813-6250f276730c","ios":"levelo://app?vid=022ad871-0efc-4ba3-b813-6250f276730c"},"vehicle_type_id":"4","last_reported":1708369552,"current_range_meters":17200,"station_id":"ce4bhb12rcd13ifvqel0","pricing_plan_id":"cebpf4jnsgd1na2vs0mg"},{"bike_id":"b8a24971-25ad-4674-ae1a-8fdff4dab901","system_id":"levelo_inurba_marseille","lat":43.291994,"lon":5.357886,"is_reserved":false,"is_disabled":false,"rental_uris":{"android":"levelo://app?vid=b8a24971-25ad-4674-ae1a-8fdff4dab901","ios":"levelo://app?vid=b8a24971-25ad-4674-ae1a-8fdff4dab901"},"vehicle_type_id":"4","last_reported":1708369552,"current_range_meters":2400,"station_id":"ce4bhb12rcd13ifvqel0","pricing_plan_id":"cebpf4jnsgd1na2vs0mg"},{"bike_id":"6c4f712b-8037-4932-99eb-53873955d2e5","system_id":"levelo_inurba_marseille","lat":43.291994,"lon":5.357886,"is_reserved":false,"is_disabled":false,"rental_uris":{"android":"levelo://app?vid=6c4f712b-8037-4932-99eb-53873955d2e5","ios":"levelo://app?vid=6c4f712b-8037-4932-99eb-53873955d2e5"},"vehicle_type_id":"4","last_reported":1708369552,"current_range_meters":2800,"station_id":"ce4bhb12rcd13ifvqel0","pricing_plan_id":"cebpf4jnsgd1na2vs0mg"},{"bike_id":"5045cbe0-c968-4e65-bf2c-fd47c1b38fb9","system_id":"levelo_inurba_marseille","lat":43.31328,"lon":5.39689,"is_reserved":false,"is_disabled":false,"rental_uris":{"android":"levelo://app?vid=5045cbe0-c968-4e65-bf2c-fd47c1b38fb9","ios":"levelo://app?vid=5045cbe0-c968-4e65-bf2c-fd47c1b38fb9"},"vehicle_type_id":"4","last_reported":1708369552,"current_range_meters":4800,"station_id":"ce4bgvp2rcd13ifvqcu0","pricing_plan_id":"cebpf4jnsgd1na2vs0mg"},{"bike_id":"f56ab3ba-0120-4e74-8550-905d7dc0e3d1","system_id":"levelo_inurba_marseille","lat":43.309038,"lon":5.396546,"is_reserved":false,"is_disabled":false,"rental_uris":{"android":"levelo://app?vid=f56ab3ba-0120-4e74-8550-905d7dc0e3d1","ios":"levelo://app?vid=f56ab3ba-0120-4e74-8550-905d7dc0e3d1"},"vehicle_type_id":"4","last_reported":1708369552,"current_range_meters":8000,"station_id":"ce4bh012rcd13ifvqcv0","pricing_plan_id":"cebpf4jnsgd1na2vs0mg"},{"bike_id":"f5712f20-3902-4b2c-96ae-087211c8adcf","system_id":"levelo_inurba_marseille","lat":43.291994,"lon":5.357886,"is_reserved":false,"is_disabled":false,"rental_uris":{"android":"levelo://app?vid=f5712f20-3902-4b2c-96ae-087211c8adcf","ios":"levelo://app?vid=f5712f20-3902-4b2c-96ae-087211c8adcf"},"vehicle_type_id":"4","last_reported":1708369552,"current_range_meters":29200,"station_id":"ce4bhb12rcd13ifvqel0","pricing_plan_id":"cebpf4jnsgd1na2vs0mg"},{"bike_id":"acb42a84-7486-4757-8066-ce3dfa6a0738","system_id":"levelo_inurba_marseille","lat":43.313291,"lon":5.396838,"is_reserved":false,"is_disabled":false,"rental_uris":{"android":"levelo://app?vid=acb42a84-7486-4757-8066-ce3dfa6a0738","ios":"levelo://app?vid=acb42a84-7486-4757-8066-ce3dfa6a0738"},"vehicle_type_id":"4","last_reported":1708369552,"current_range_meters":24800,"station_id":"ce4bgvp2rcd13ifvqcu0","pricing_plan_id":"cebpf4jnsgd1na2vs0mg"},{"bike_id":"3cd5ba5c-ab88-4937-935c-89f0e00fff91","system_id":"levelo_inurba_marseille","lat":43.313291,"lon":5.396838,"is_reserved":false,"is_disabled":false,"rental_uris":{"android":"levelo://app?vid=3cd5ba5c-ab88-4937-935c-89f0e00fff91","ios":"levelo://app?vid=3cd5ba5c-ab88-4937-935c-89f0e00fff91"},"vehicle_type_id":"4","last_reported":1708369552,"current_range_meters":0,"station_id":"ce4bgvp2rcd13ifvqcu0","pricing_plan_id":"cebpf4jnsgd1na2vs0mg"},{"bike_id":"df49b6d1-086a-49e7-abf7-8b2877a4ebc3","system_id":"levelo_inurba_marseille","lat":43.31319,"lon":5.39698,"is_reserved":false,"is_disabled":false,"rental_uris":{"android":"levelo://app?vid=df49b6d1-086a-49e7-abf7-8b2877a4ebc3","ios":"levelo://app?vid=df49b6d1-086a-49e7-abf7-8b2877a4ebc3"},"vehicle_type_id":"4","last_reported":1708369552,"current_range_meters":20000,"station_id":"ce4bgvp2rcd13ifvqcu0","pricing_plan_id":"cebpf4jnsgd1na2vs0mg"},{"bike_id":"c35b1c73-8760-4c1e-af98-17ca5ba0cbcb","system_id":"levelo_inurba_marseille","lat":43.309038,"lon":5.396546,"is_reserved":false,"is_disabled":false,"rental_uris":{"android":"levelo://app?vid=c35b1c73-8760-4c1e-af98-17ca5ba0cbcb","ios":"levelo://app?vid=c35b1c73-8760-4c1e-af98-17ca5ba0cbcb"},"vehicle_type_id":"4","last_reported":1708369552,"current_range_meters":20800,"station_id":"ce4bh012rcd13ifvqcv0","pricing_plan_id":"cebpf4jnsgd1na2vs0mg"},{"bike_id":"4760f9b1-198f-4f50-ad70-2cad0de1d54a","system_id":"levelo_inurba_marseille","lat":43.309038,"lon":5.396546,"is_reserved":false,"is_disabled":false,"rental_uris":{"android":"levelo://app?vid=4760f9b1-198f-4f50-ad70-2cad0de1d54a","ios":"levelo://app?vid=4760f9b1-198f-4f50-ad70-2cad0de1d54a"},"vehicle_type_id":"4","last_reported":1708369552,"current_range_meters":27200,"station_id":"ce4bh012rcd13ifvqcv0","pricing_plan_id":"cebpf4jnsgd1na2vs0mg"},{"bike_id":"aac08445-40cf-4197-880d-7f0184a0c926","system_id":"levelo_inurba_marseille","lat":43.31318,"lon":5.39711,"is_reserved":false,"is_disabled":false,"rental_uris":{"android":"levelo://app?vid=aac08445-40cf-4197-880d-7f0184a0c926","ios":"levelo://app?vid=aac08445-40cf-4197-880d-7f0184a0c926"},"vehicle_type_id":"4","last_reported":1708369552,"current_range_meters":2800,"station_id":"ce4bgvp2rcd13ifvqcu0","pricing_plan_id":"cebpf4jnsgd1na2vs0mg"},{"bike_id":"c3150b2d-fbc6-4e66-85cb-f6e93c1fe9ac","system_id":"levelo_inurba_marseille","lat":43.287184,"lon":5.37937,"is_reserved":false,"is_disabled":false,"rental_uris":{"android":"levelo://app?vid=c3150b2d-fbc6-4e66-85cb-f6e93c1fe9ac","ios":"levelo://app?vid=c3150b2d-fbc6-4e66-85cb-f6e93c1fe9ac"},"vehicle_type_id":"4","last_reported":1708369552,"current_range_meters":6800,"station_id":"ce4bh9p2rcd13ifvqec0","pricing_plan_id":"cebpf4jnsgd1na2vs0mg"},{"bike_id":"1686ab05-aa19-4e00-b956-b0cc285826a1","system_id":"levelo_inurba_marseille","lat":43.29529,"lon":5.385581,"is_reserved":false,"is_disabled":false,"rental_uris":{"android":"levelo://app?vid=1686ab05-aa19-4e00-b956-b0cc285826a1","ios":"levelo://app?vid=1686ab05-aa19-4e00-b956-b0cc285826a1"},"vehicle_type_id":"4","last_reported":1708369552,"current_range_meters":11600,"station_id":"ce4bgih2rcd13ifvqba0","pricing_plan_id":"cebpf4jnsgd1na2vs0mg"},{"bike_id":"eee79b2c-5070-4c96-a845-b23f630a0c5e","system_id":"levelo_inurba_marseille","lat":43.290779,"lon":5.371482,"is_reserved":false,"is_disabled":false,"rental_uris":{"android":"levelo://app?vid=eee79b2c-5070-4c96-a845-b23f630a0c5e","ios":"levelo://app?vid=eee79b2c-5070-4c96-a845-b23f630a0c5e"},"vehicle_type_id":"4","last_reported":1708369552,"current_range_meters":25200,"station_id":"ce4bh5p2rcd13ifvqe4g","pricing_plan_id":"cebpf4jnsgd1na2vs0mg"},{"bike_id":"b00d167b-77cd-4643-808a-537dad96e675","system_id":"levelo_inurba_marseille","lat":43.290779,"lon":5.371482,"is_reserved":false,"is_disabled":false,"rental_uris":{"android":"levelo://app?vid=b00d167b-77cd-4643-808a-537dad96e675","ios":"levelo://app?vid=b00d167b-77cd-4643-808a-537dad96e675"},"vehicle_type_id":"4","last_reported":1708369552,"current_range_meters":20800,"station_id":"ce4bh5p2rcd13ifvqe4g","pricing_plan_id":"cebpf4jnsgd1na2vs0mg"},{"bike_id":"9d656cd5-f452-40d3-b700-7cad2d1c897d","system_id":"levelo_inurba_marseille","lat":43.309038,"lon":5.396546,"is_reserved":false,"is_disabled":false,"rental_uris":{"android":"levelo://app?vid=9d656cd5-f452-40d3-b700-7cad2d1c897d","ios":"levelo://app?vid=9d656cd5-f452-40d3-b700-7cad2d1c897d"},"vehicle_type_id":"4","last_reported":1708369552,"current_range_meters":0,"station_id":"ce4bh012rcd13ifvqcv0","pricing_plan_id":"cebpf4jnsgd1na2vs0mg"},{"bike_id":"25c075e9-01f9-47cb-a9cd-c4709c91e32c","system_id":"levelo_inurba_marseille","lat":43.290779,"lon":5.371482,"is_reserved":false,"is_disabled":false,"rental_uris":{"android":"levelo://app?vid=25c075e9-01f9-47cb-a9cd-c4709c91e32c","ios":"levelo://app?vid=25c075e9-01f9-47cb-a9cd-c4709c91e32c"},"vehicle_type_id":"4","last_reported":1708369552,"current_range_meters":9600,"station_id":"ce4bh5p2rcd13ifvqe4g","pricing_plan_id":"cebpf4jnsgd1na2vs0mg"},{"bike_id":"9ae9bb05-3613-45c5-af42-6793a884baae","system_id":"levelo_inurba_marseille","lat":43.302008,"lon":5.394694,"is_reserved":false,"is_disabled":false,"rental_uris":{"android":"levelo://app?vid=9ae9bb05-3613-45c5-af42-6793a884baae","ios":"levelo://app?vid=9ae9bb05-3613-45c5-af42-6793a884baae"},"vehicle_type_id":"4","last_reported":1708369552,"current_range_meters":18000,"station_id":"ce4bh0p2rcd13ifvqd70","pricing_plan_id":"cebpf4jnsgd1na2vs0mg"},{"bike_id":"cdb26583-b868-464b-be59-823b2f44b92d","system_id":"levelo_inurba_marseille","lat":43.302008,"lon":5.394694,"is_reserved":false,"is_disabled":false,"rental_uris":{"android":"levelo://app?vid=cdb26583-b868-464b-be59-823b2f44b92d","ios":"levelo://app?vid=cdb26583-b868-464b-be59-823b2f44b92d"},"vehicle_type_id":"4","last_reported":1708369552,"current_range_meters":21600,"station_id":"ce4bh0p2rcd13ifvqd70","pricing_plan_id":"cebpf4jnsgd1na2vs0mg"},{"bike_id":"63b06769-8eb7-4189-b14e-c2f88656b7b0","system_id":"levelo_inurba_marseille","lat":43.302008,"lon":5.394694,"is_reserved":false,"is_disabled":false,"rental_uris":{"android":"levelo://app?vid=63b06769-8eb7-4189-b14e-c2f88656b7b0","ios":"levelo://app?vid=63b06769-8eb7-4189-b14e-c2f88656b7b0"},"vehicle_type_id":"4","last_reported":1708369552,"current_range_meters":29200,"station_id":"ce4bh0p2rcd13ifvqd70","pricing_plan_id":"cebpf4jnsgd1na2vs0mg"},{"bike_id":"7697bb1e-769d-4764-a226-6aa9762b9a89","system_id":"levelo_inurba_marseille","lat":43.302008,"lon":5.394694,"is_reserved":false,"is_disabled":false,"rental_uris":{"android":"levelo://app?vid=7697bb1e-769d-4764-a226-6aa9762b9a89","ios":"levelo://app?vid=7697bb1e-769d-4764-a226-6aa9762b9a89"},"vehicle_type_id":"4","last_reported":1708369552,"current_range_meters":6400,"station_id":"ce4bh0p2rcd13ifvqd70","pricing_plan_id":"cebpf4jnsgd1na2vs0mg"},{"bike_id":"a7c6ac1b-ebbf-400c-973b-c0dd82a9922e","system_id":"levelo_inurba_marseille","lat":43.302008,"lon":5.394694,"is_reserved":false,"is_disabled":false,"rental_uris":{"android":"levelo://app?vid=a7c6ac1b-ebbf-400c-973b-c0dd82a9922e","ios":"levelo://app?vid=a7c6ac1b-ebbf-400c-973b-c0dd82a9922e"},"vehicle_type_id":"4","last_reported":1708369552,"current_range_meters":5200,"station_id":"ce4bh0p2rcd13ifvqd70","pricing_plan_id":"cebpf4jnsgd1na2vs0mg"},{"bike_id":"1a5925eb-b513-44e9-bdb4-da13b640e4e0","system_id":"levelo_inurba_marseille","lat":43.30212,"lon":5.39478,"is_reserved":false,"is_disabled":false,"rental_uris":{"android":"levelo://app?vid=1a5925eb-b513-44e9-bdb4-da13b640e4e0","ios":"levelo://app?vid=1a5925eb-b513-44e9-bdb4-da13b640e4e0"},"vehicle_type_id":"4","last_reported":1708369552,"current_range_meters":17200,"station_id":"ce4bh0p2rcd13ifvqd70","pricing_plan_id":"cebpf4jnsgd1na2vs0mg"},{"bike_id":"a9f22d26-1906-4235-8b62-e4eb27ed8a85","system_id":"levelo_inurba_marseille","lat":43.302008,"lon":5.394694,"is_reserved":false,"is_disabled":false,"rental_uris":{"android":"levelo://app?vid=a9f22d26-1906-4235-8b62-e4eb27ed8a85","ios":"levelo://app?vid=a9f22d26-1906-4235-8b62-e4eb27ed8a85"},"vehicle_type_id":"4","last_reported":1708369552,"current_range_meters":22800,"station_id":"ce4bh0p2rcd13ifvqd70","pricing_plan_id":"cebpf4jnsgd1na2vs0mg"},{"bike_id":"113b5df0-06f8-432e-9644-6329de3156dc","system_id":"levelo_inurba_marseille","lat":43.302008,"lon":5.394694,"is_reserved":false,"is_disabled":false,"rental_uris":{"android":"levelo://app?vid=113b5df0-06f8-432e-9644-6329de3156dc","ios":"levelo://app?vid=113b5df0-06f8-432e-9644-6329de3156dc"},"vehicle_type_id":"4","last_reported":1708369552,"current_range_meters":15600,"station_id":"ce4bh0p2rcd13ifvqd70","pricing_plan_id":"cebpf4jnsgd1na2vs0mg"},{"bike_id":"c662e9d1-5a66-4b42-822d-fcc8221d0a4e","system_id":"levelo_inurba_marseille","lat":43.290631,"lon":5.359244,"is_reserved":false,"is_disabled":false,"rental_uris":{"android":"levelo://app?vid=c662e9d1-5a66-4b42-822d-fcc8221d0a4e","ios":"levelo://app?vid=c662e9d1-5a66-4b42-822d-fcc8221d0a4e"},"vehicle_type_id":"4","last_reported":1708369552,"current_range_meters":12000,"station_id":"ce4bha92rcd13ifvqeg0","pricing_plan_id":"cebpf4jnsgd1na2vs0mg"},{"bike_id":"3b763e75-f756-4507-a004-8c4f1908ccc9","system_id":"levelo_inurba_marseille","lat":43.290624,"lon":5.359245,"is_reserved":false,"is_disabled":false,"rental_uris":{"android":"levelo://app?vid=3b763e75-f756-4507-a004-8c4f1908ccc9","ios":"levelo://app?vid=3b763e75-f756-4507-a004-8c4f1908ccc9"},"vehicle_type_id":"4","last_reported":1708369552,"current_range_meters":18400,"station_id":"ce4bha92rcd13ifvqeg0","pricing_plan_id":"cebpf4jnsgd1na2vs0mg"},{"bike_id":"f3621e31-2802-4d00-9575-e569e4cadbd9","system_id":"levelo_inurba_marseille","lat":43.290624,"lon":5.359245,"is_reserved":false,"is_disabled":false,"rental_uris":{"android":"levelo://app?vid=f3621e31-2802-4d00-9575-e569e4cadbd9","ios":"levelo://app?vid=f3621e31-2802-4d00-9575-e569e4cadbd9"},"vehicle_type_id":"4","last_reported":1708369552,"current_range_meters":30800,"station_id":"ce4bha92rcd13ifvqeg0","pricing_plan_id":"cebpf4jnsgd1na2vs0mg"},{"bike_id":"037458bc-bc19-4003-9bed-e8db714bfb75","system_id":"levelo_inurba_marseille","lat":43.294153,"lon":5.386305,"is_reserved":false,"is_disabled":false,"rental_uris":{"android":"levelo://app?vid=037458bc-bc19-4003-9bed-e8db714bfb75","ios":"levelo://app?vid=037458bc-bc19-4003-9bed-e8db714bfb75"},"vehicle_type_id":"4","last_reported":1708369552,"current_range_meters":18000,"station_id":"ce4bh2h2rcd13ifvqdh0","pricing_plan_id":"cebpf4jnsgd1na2vs0mg"},{"bike_id":"4401f28e-a935-4462-8266-9979b22a62c7","system_id":"levelo_inurba_marseille","lat":43.294153,"lon":5.386305,"is_reserved":false,"is_disabled":false,"rental_uris":{"android":"levelo://app?vid=4401f28e-a935-4462-8266-9979b22a62c7","ios":"levelo://app?vid=4401f28e-a935-4462-8266-9979b22a62c7"},"vehicle_type_id":"4","last_reported":1708369552,"current_range_meters":15200,"station_id":"ce4bh2h2rcd13ifvqdh0","pricing_plan_id":"cebpf4jnsgd1na2vs0mg"},{"bike_id":"877bf60e-08f0-45ff-b6e5-a17261cf9a2d","system_id":"levelo_inurba_marseille","lat":43.29422,"lon":5.38624,"is_reserved":false,"is_disabled":false,"rental_uris":{"android":"levelo://app?vid=877bf60e-08f0-45ff-b6e5-a17261cf9a2d","ios":"levelo://app?vid=877bf60e-08f0-45ff-b6e5-a17261cf9a2d"},"vehicle_type_id":"4","last_reported":1708369552,"current_range_meters":18800,"station_id":"ce4bh2h2rcd13ifvqdh0","pricing_plan_id":"cebpf4jnsgd1na2vs0mg"},{"bike_id":"4a3f62fa-d70f-403e-a9d1-bc5e66de800e","system_id":"levelo_inurba_marseille","lat":43.2942,"lon":5.38621,"is_reserved":false,"is_disabled":false,"rental_uris":{"android":"levelo://app?vid=4a3f62fa-d70f-403e-a9d1-bc5e66de800e","ios":"levelo://app?vid=4a3f62fa-d70f-403e-a9d1-bc5e66de800e"},"vehicle_type_id":"4","last_reported":1708369552,"current_range_meters":0,"station_id":"ce4bh2h2rcd13ifvqdh0","pricing_plan_id":"cebpf4jnsgd1na2vs0mg"},{"bike_id":"04240faa-e51d-47be-b19a-4aca3e7a19e8","system_id":"levelo_inurba_marseille","lat":43.29422,"lon":5.38629,"is_reserved":false,"is_disabled":false,"rental_uris":{"android":"levelo://app?vid=04240faa-e51d-47be-b19a-4aca3e7a19e8","ios":"levelo://app?vid=04240faa-e51d-47be-b19a-4aca3e7a19e8"},"vehicle_type_id":"4","last_reported":1708369552,"current_range_meters":0,"station_id":"ce4bh2h2rcd13ifvqdh0","pricing_plan_id":"cebpf4jnsgd1na2vs0mg"},{"bike_id":"704b0cbb-4f72-494b-9f65-1a87da17aebb","system_id":"levelo_inurba_marseille","lat":43.294153,"lon":5.386305,"is_reserved":false,"is_disabled":false,"rental_uris":{"android":"levelo://app?vid=704b0cbb-4f72-494b-9f65-1a87da17aebb","ios":"levelo://app?vid=704b0cbb-4f72-494b-9f65-1a87da17aebb"},"vehicle_type_id":"4","last_reported":1708369552,"current_range_meters":18800,"station_id":"ce4bh2h2rcd13ifvqdh0","pricing_plan_id":"cebpf4jnsgd1na2vs0mg"},{"bike_id":"f21b13a1-3fd9-460a-8d56-795c7ff241c7","system_id":"levelo_inurba_marseille","lat":43.294153,"lon":5.386305,"is_reserved":false,"is_disabled":false,"rental_uris":{"android":"levelo://app?vid=f21b13a1-3fd9-460a-8d56-795c7ff241c7","ios":"levelo://app?vid=f21b13a1-3fd9-460a-8d56-795c7ff241c7"},"vehicle_type_id":"4","last_reported":1708369552,"current_range_meters":0,"station_id":"ce4bh2h2rcd13ifvqdh0","pricing_plan_id":"cebpf4jnsgd1na2vs0mg"},{"bike_id":"a6546b50-d234-4f6a-aa1e-f89413b59276","system_id":"levelo_inurba_marseille","lat":43.289468,"lon":5.363719,"is_reserved":false,"is_disabled":false,"rental_uris":{"android":"levelo://app?vid=a6546b50-d234-4f6a-aa1e-f89413b59276","ios":"levelo://app?vid=a6546b50-d234-4f6a-aa1e-f89413b59276"},"vehicle_type_id":"4","last_reported":1708369552,"current_range_meters":6400,"station_id":"ce4bhc92rcd13ifvqetg","pricing_plan_id":"cebpf4jnsgd1na2vs0mg"},{"bike_id":"66c3f8a6-67ff-488c-9ed4-f6103bfebea1","system_id":"levelo_inurba_marseille","lat":43.294162,"lon":5.386292,"is_reserved":false,"is_disabled":false,"rental_uris":{"android":"levelo://app?vid=66c3f8a6-67ff-488c-9ed4-f6103bfebea1","ios":"levelo://app?vid=66c3f8a6-67ff-488c-9ed4-f6103bfebea1"},"vehicle_type_id":"4","last_reported":1708369552,"current_range_meters":17600,"station_id":"ce4bh2h2rcd13ifvqdh0","pricing_plan_id":"cebpf4jnsgd1na2vs0mg"},{"bike_id":"905b6888-a922-40d3-b2ef-349918a2bf42","system_id":"levelo_inurba_marseille","lat":43.294153,"lon":5.386305,"is_reserved":false,"is_disabled":false,"rental_uris":{"android":"levelo://app?vid=905b6888-a922-40d3-b2ef-349918a2bf42","ios":"levelo://app?vid=905b6888-a922-40d3-b2ef-349918a2bf42"},"vehicle_type_id":"4","last_reported":1708369552,"current_range_meters":24400,"station_id":"ce4bh2h2rcd13ifvqdh0","pricing_plan_id":"cebpf4jnsgd1na2vs0mg"},{"bike_id":"432661e7-96fd-4027-8311-a20c94a0b10d","system_id":"levelo_inurba_marseille","lat":43.289184,"lon":5.366408,"is_reserved":false,"is_disabled":false,"rental_uris":{"android":"levelo://app?vid=432661e7-96fd-4027-8311-a20c94a0b10d","ios":"levelo://app?vid=432661e7-96fd-4027-8311-a20c94a0b10d"},"vehicle_type_id":"4","last_reported":1708369552,"current_range_meters":0,"station_id":"ce4bhap2rcd13ifvqek0","pricing_plan_id":"cebpf4jnsgd1na2vs0mg"},{"bike_id":"28f48392-8f39-48ac-9ee1-c9e88ffd5fbb","system_id":"levelo_inurba_marseille","lat":43.290327,"lon":5.375711,"is_reserved":false,"is_disabled":false,"rental_uris":{"android":"levelo://app?vid=28f48392-8f39-48ac-9ee1-c9e88ffd5fbb","ios":"levelo://app?vid=28f48392-8f39-48ac-9ee1-c9e88ffd5fbb"},"vehicle_type_id":"4","last_reported":1708369552,"current_range_meters":30800,"station_id":"ce4bh692rcd13ifvqe90","pricing_plan_id":"cebpf4jnsgd1na2vs0mg"},{"bike_id":"18c8e9e9-d7be-44f8-87ba-76eb458e1d93","system_id":"levelo_inurba_marseille","lat":43.289468,"lon":5.363719,"is_reserved":false,"is_disabled":false,"rental_uris":{"android":"levelo://app?vid=18c8e9e9-d7be-44f8-87ba-76eb458e1d93","ios":"levelo://app?vid=18c8e9e9-d7be-44f8-87ba-76eb458e1d93"},"vehicle_type_id":"4","last_reported":1708369552,"current_range_meters":18800,"station_id":"ce4bhc92rcd13ifvqetg","pricing_plan_id":"cebpf4jnsgd1na2vs0mg"},{"bike_id":"e9952762-5f10-4910-aac8-db87bbf5caf2","system_id":"levelo_inurba_marseille","lat":43.289468,"lon":5.363719,"is_reserved":false,"is_disabled":false,"rental_uris":{"android":"levelo://app?vid=e9952762-5f10-4910-aac8-db87bbf5caf2","ios":"levelo://app?vid=e9952762-5f10-4910-aac8-db87bbf5caf2"},"vehicle_type_id":"4","last_reported":1708369552,"current_range_meters":6400,"station_id":"ce4bhc92rcd13ifvqetg","pricing_plan_id":"cebpf4jnsgd1na2vs0mg"},{"bike_id":"4205f57d-942f-4c21-9089-4ab70f47911f","system_id":"levelo_inurba_marseille","lat":43.289468,"lon":5.363719,"is_reserved":false,"is_disabled":false,"rental_uris":{"android":"levelo://app?vid=4205f57d-942f-4c21-9089-4ab70f47911f","ios":"levelo://app?vid=4205f57d-942f-4c21-9089-4ab70f47911f"},"vehicle_type_id":"4","last_reported":1708369552,"current_range_meters":1600,"station_id":"ce4bhc92rcd13ifvqetg","pricing_plan_id":"cebpf4jnsgd1na2vs0mg"},{"bike_id":"a0adad83-c911-4527-9595-004dd160d60c","system_id":"levelo_inurba_marseille","lat":43.289184,"lon":5.366408,"is_reserved":false,"is_disabled":false,"rental_uris":{"android":"levelo://app?vid=a0adad83-c911-4527-9595-004dd160d60c","ios":"levelo://app?vid=a0adad83-c911-4527-9595-004dd160d60c"},"vehicle_type_id":"4","last_reported":1708369552,"current_range_meters":3600,"station_id":"ce4bhap2rcd13ifvqek0","pricing_plan_id":"cebpf4jnsgd1na2vs0mg"},{"bike_id":"b447386d-e948-43d0-a8b9-4b73f8155fb5","system_id":"levelo_inurba_marseille","lat":43.289184,"lon":5.366408,"is_reserved":false,"is_disabled":false,"rental_uris":{"android":"levelo://app?vid=b447386d-e948-43d0-a8b9-4b73f8155fb5","ios":"levelo://app?vid=b447386d-e948-43d0-a8b9-4b73f8155fb5"},"vehicle_type_id":"4","last_reported":1708369552,"current_range_meters":14800,"station_id":"ce4bhap2rcd13ifvqek0","pricing_plan_id":"cebpf4jnsgd1na2vs0mg"},{"bike_id":"c330d24c-5923-4cbc-afee-64809bfbfe80","system_id":"levelo_inurba_marseille","lat":43.28927,"lon":5.3664,"is_reserved":false,"is_disabled":false,"rental_uris":{"android":"levelo://app?vid=c330d24c-5923-4cbc-afee-64809bfbfe80","ios":"levelo://app?vid=c330d24c-5923-4cbc-afee-64809bfbfe80"},"vehicle_type_id":"4","last_reported":1708369552,"current_range_meters":0,"station_id":"ce4bhap2rcd13ifvqek0","pricing_plan_id":"cebpf4jnsgd1na2vs0mg"},{"bike_id":"5ecdddfd-b0ec-422e-b2e0-2b508a4c4140","system_id":"levelo_inurba_marseille","lat":43.289468,"lon":5.363719,"is_reserved":false,"is_disabled":false,"rental_uris":{"android":"levelo://app?vid=5ecdddfd-b0ec-422e-b2e0-2b508a4c4140","ios":"levelo://app?vid=5ecdddfd-b0ec-422e-b2e0-2b508a4c4140"},"vehicle_type_id":"4","last_reported":1708369552,"current_range_meters":31200,"station_id":"ce4bhc92rcd13ifvqetg","pricing_plan_id":"cebpf4jnsgd1na2vs0mg"},{"bike_id":"af8845db-401c-4dd5-8c17-a5db6dfa9790","system_id":"levelo_inurba_marseille","lat":43.29266,"lon":5.38426,"is_reserved":false,"is_disabled":false,"rental_uris":{"android":"levelo://app?vid=af8845db-401c-4dd5-8c17-a5db6dfa9790","ios":"levelo://app?vid=af8845db-401c-4dd5-8c17-a5db6dfa9790"},"vehicle_type_id":"4","last_reported":1708369552,"current_range_meters":800,"station_id":"ce4bh692rcd13ifvqea0","pricing_plan_id":"cebpf4jnsgd1na2vs0mg"},{"bike_id":"7b5cb249-ee3d-4375-9a81-435e6a4e1fd2","system_id":"levelo_inurba_marseille","lat":43.304296,"lon":5.397513,"is_reserved":false,"is_disabled":false,"rental_uris":{"android":"levelo://app?vid=7b5cb249-ee3d-4375-9a81-435e6a4e1fd2","ios":"levelo://app?vid=7b5cb249-ee3d-4375-9a81-435e6a4e1fd2"},"vehicle_type_id":"4","last_reported":1708369552,"current_range_meters":23600,"station_id":"ce4bh092rcd13ifvqd20","pricing_plan_id":"cebpf4jnsgd1na2vs0mg"},{"bike_id":"c27febf1-f3fa-45cc-a4ca-377febca55b2","system_id":"levelo_inurba_marseille","lat":43.2912,"lon":5.38073,"is_reserved":false,"is_disabled":false,"rental_uris":{"android":"levelo://app?vid=c27febf1-f3fa-45cc-a4ca-377febca55b2","ios":"levelo://app?vid=c27febf1-f3fa-45cc-a4ca-377febca55b2"},"vehicle_type_id":"4","last_reported":1708369552,"current_range_meters":0,"station_id":"","pricing_plan_id":"cebpf4jnsgd1na2vs0mg"},{"bike_id":"49c4eac2-508a-4988-a697-89de8af6e0c0","system_id":"levelo_inurba_marseille","lat":43.292644,"lon":5.384257,"is_reserved":false,"is_disabled":false,"rental_uris":{"android":"levelo://app?vid=49c4eac2-508a-4988-a697-89de8af6e0c0","ios":"levelo://app?vid=49c4eac2-508a-4988-a697-89de8af6e0c0"},"vehicle_type_id":"4","last_reported":1708369552,"current_range_meters":12000,"station_id":"ce4bh692rcd13ifvqea0","pricing_plan_id":"cebpf4jnsgd1na2vs0mg"},{"bike_id":"dfc8e87c-3d22-4bdc-8a0a-939d8b24a25f","system_id":"levelo_inurba_marseille","lat":43.304296,"lon":5.397513,"is_reserved":false,"is_disabled":false,"rental_uris":{"android":"levelo://app?vid=dfc8e87c-3d22-4bdc-8a0a-939d8b24a25f","ios":"levelo://app?vid=dfc8e87c-3d22-4bdc-8a0a-939d8b24a25f"},"vehicle_type_id":"4","last_reported":1708369552,"current_range_meters":31200,"station_id":"ce4bh092rcd13ifvqd20","pricing_plan_id":"cebpf4jnsgd1na2vs0mg"},{"bike_id":"0b46b3cb-7135-426a-acd1-7f7f2c2be5ab","system_id":"levelo_inurba_marseille","lat":43.292644,"lon":5.384257,"is_reserved":false,"is_disabled":false,"rental_uris":{"android":"levelo://app?vid=0b46b3cb-7135-426a-acd1-7f7f2c2be5ab","ios":"levelo://app?vid=0b46b3cb-7135-426a-acd1-7f7f2c2be5ab"},"vehicle_type_id":"4","last_reported":1708369552,"current_range_meters":5600,"station_id":"ce4bh692rcd13ifvqea0","pricing_plan_id":"cebpf4jnsgd1na2vs0mg"},{"bike_id":"a7014aee-d7d0-48ba-8ddd-2338bd8c8f76","system_id":"levelo_inurba_marseille","lat":43.292644,"lon":5.384257,"is_reserved":false,"is_disabled":false,"rental_uris":{"android":"levelo://app?vid=a7014aee-d7d0-48ba-8ddd-2338bd8c8f76","ios":"levelo://app?vid=a7014aee-d7d0-48ba-8ddd-2338bd8c8f76"},"vehicle_type_id":"4","last_reported":1708369552,"current_range_meters":0,"station_id":"ce4bh692rcd13ifvqea0","pricing_plan_id":"cebpf4jnsgd1na2vs0mg"},{"bike_id":"903d868b-9f2e-42a0-8251-56c58e0fe53b","system_id":"levelo_inurba_marseille","lat":43.292644,"lon":5.384257,"is_reserved":false,"is_disabled":false,"rental_uris":{"android":"levelo://app?vid=903d868b-9f2e-42a0-8251-56c58e0fe53b","ios":"levelo://app?vid=903d868b-9f2e-42a0-8251-56c58e0fe53b"},"vehicle_type_id":"4","last_reported":1708369552,"current_range_meters":31200,"station_id":"ce4bh692rcd13ifvqea0","pricing_plan_id":"cebpf4jnsgd1na2vs0mg"},{"bike_id":"9a31efe2-d27e-413b-9959-7ae640a19fd8","system_id":"levelo_inurba_marseille","lat":43.292642,"lon":5.384254,"is_reserved":false,"is_disabled":false,"rental_uris":{"android":"levelo://app?vid=9a31efe2-d27e-413b-9959-7ae640a19fd8","ios":"levelo://app?vid=9a31efe2-d27e-413b-9959-7ae640a19fd8"},"vehicle_type_id":"4","last_reported":1708369552,"current_range_meters":12400,"station_id":"ce4bh692rcd13ifvqea0","pricing_plan_id":"cebpf4jnsgd1na2vs0mg"},{"bike_id":"5d37c5ee-0208-4e5e-bfa3-a123adfeb43c","system_id":"levelo_inurba_marseille","lat":43.292642,"lon":5.384254,"is_reserved":false,"is_disabled":false,"rental_uris":{"android":"levelo://app?vid=5d37c5ee-0208-4e5e-bfa3-a123adfeb43c","ios":"levelo://app?vid=5d37c5ee-0208-4e5e-bfa3-a123adfeb43c"},"vehicle_type_id":"4","last_reported":1708369552,"current_range_meters":13600,"station_id":"ce4bh692rcd13ifvqea0","pricing_plan_id":"cebpf4jnsgd1na2vs0mg"},{"bike_id":"ac6466e8-f179-4058-9018-31d53a062b75","system_id":"levelo_inurba_marseille","lat":43.292644,"lon":5.384257,"is_reserved":false,"is_disabled":false,"rental_uris":{"android":"levelo://app?vid=ac6466e8-f179-4058-9018-31d53a062b75","ios":"levelo://app?vid=ac6466e8-f179-4058-9018-31d53a062b75"},"vehicle_type_id":"4","last_reported":1708369552,"current_range_meters":12000,"station_id":"ce4bh692rcd13ifvqea0","pricing_plan_id":"cebpf4jnsgd1na2vs0mg"},{"bike_id":"985a50d9-1da2-473c-b4f4-3093637608f9","system_id":"levelo_inurba_marseille","lat":43.292642,"lon":5.384254,"is_reserved":false,"is_disabled":false,"rental_uris":{"android":"levelo://app?vid=985a50d9-1da2-473c-b4f4-3093637608f9","ios":"levelo://app?vid=985a50d9-1da2-473c-b4f4-3093637608f9"},"vehicle_type_id":"4","last_reported":1708369552,"current_range_meters":11200,"station_id":"ce4bh692rcd13ifvqea0","pricing_plan_id":"cebpf4jnsgd1na2vs0mg"},{"bike_id":"4ed05fdb-a1ee-4ed2-8095-b1153eb9bc7c","system_id":"levelo_inurba_marseille","lat":43.292642,"lon":5.384254,"is_reserved":false,"is_disabled":false,"rental_uris":{"android":"levelo://app?vid=4ed05fdb-a1ee-4ed2-8095-b1153eb9bc7c","ios":"levelo://app?vid=4ed05fdb-a1ee-4ed2-8095-b1153eb9bc7c"},"vehicle_type_id":"4","last_reported":1708369552,"current_range_meters":12000,"station_id":"ce4bh692rcd13ifvqea0","pricing_plan_id":"cebpf4jnsgd1na2vs0mg"},{"bike_id":"35a288ec-b2f5-44e8-8671-b9c2af9fa303","system_id":"levelo_inurba_marseille","lat":43.292642,"lon":5.384254,"is_reserved":false,"is_disabled":false,"rental_uris":{"android":"levelo://app?vid=35a288ec-b2f5-44e8-8671-b9c2af9fa303","ios":"levelo://app?vid=35a288ec-b2f5-44e8-8671-b9c2af9fa303"},"vehicle_type_id":"4","last_reported":1708369552,"current_range_meters":8000,"station_id":"ce4bh692rcd13ifvqea0","pricing_plan_id":"cebpf4jnsgd1na2vs0mg"},{"bike_id":"64c8a977-e817-4529-bbbf-d54830de4873","system_id":"levelo_inurba_marseille","lat":43.29103,"lon":5.38085,"is_reserved":false,"is_disabled":false,"rental_uris":{"android":"levelo://app?vid=64c8a977-e817-4529-bbbf-d54830de4873","ios":"levelo://app?vid=64c8a977-e817-4529-bbbf-d54830de4873"},"vehicle_type_id":"4","last_reported":1708369552,"current_range_meters":16000,"station_id":"","pricing_plan_id":"cebpf4jnsgd1na2vs0mg"},{"bike_id":"edcc0279-1716-4f8f-a660-34b1b14b2250","system_id":"levelo_inurba_marseille","lat":43.290103,"lon":5.356114,"is_reserved":false,"is_disabled":false,"rental_uris":{"android":"levelo://app?vid=edcc0279-1716-4f8f-a660-34b1b14b2250","ios":"levelo://app?vid=edcc0279-1716-4f8f-a660-34b1b14b2250"},"vehicle_type_id":"4","last_reported":1708369552,"current_range_meters":7200,"station_id":"ce4bhb92rcd13ifvqen0","pricing_plan_id":"cebpf4jnsgd1na2vs0mg"},{"bike_id":"e830da0a-86c7-4ce7-900d-8e961c0b939d","system_id":"levelo_inurba_marseille","lat":43.290103,"lon":5.356114,"is_reserved":false,"is_disabled":false,"rental_uris":{"android":"levelo://app?vid=e830da0a-86c7-4ce7-900d-8e961c0b939d","ios":"levelo://app?vid=e830da0a-86c7-4ce7-900d-8e961c0b939d"},"vehicle_type_id":"4","last_reported":1708369552,"current_range_meters":21200,"station_id":"ce4bhb92rcd13ifvqen0","pricing_plan_id":"cebpf4jnsgd1na2vs0mg"},{"bike_id":"f419e435-9e98-4b3d-a74f-8c4b8faf887e","system_id":"levelo_inurba_marseille","lat":43.29006,"lon":5.35616,"is_reserved":false,"is_disabled":false,"rental_uris":{"android":"levelo://app?vid=f419e435-9e98-4b3d-a74f-8c4b8faf887e","ios":"levelo://app?vid=f419e435-9e98-4b3d-a74f-8c4b8faf887e"},"vehicle_type_id":"4","last_reported":1708369552,"current_range_meters":18400,"station_id":"ce4bhb92rcd13ifvqen0","pricing_plan_id":"cebpf4jnsgd1na2vs0mg"},{"bike_id":"4e1c869c-37a3-40e1-b2da-e575043abfaf","system_id":"levelo_inurba_marseille","lat":43.29007,"lon":5.356112,"is_reserved":false,"is_disabled":false,"rental_uris":{"android":"levelo://app?vid=4e1c869c-37a3-40e1-b2da-e575043abfaf","ios":"levelo://app?vid=4e1c869c-37a3-40e1-b2da-e575043abfaf"},"vehicle_type_id":"4","last_reported":1708369552,"current_range_meters":26400,"station_id":"ce4bhb92rcd13ifvqen0","pricing_plan_id":"cebpf4jnsgd1na2vs0mg"},{"bike_id":"9a9240be-325a-4969-a362-4e84aed35f49","system_id":"levelo_inurba_marseille","lat":43.290104,"lon":5.356111,"is_reserved":false,"is_disabled":false,"rental_uris":{"android":"levelo://app?vid=9a9240be-325a-4969-a362-4e84aed35f49","ios":"levelo://app?vid=9a9240be-325a-4969-a362-4e84aed35f49"},"vehicle_type_id":"4","last_reported":1708369552,"current_range_meters":18400,"station_id":"ce4bhb92rcd13ifvqen0","pricing_plan_id":"cebpf4jnsgd1na2vs0mg"},{"bike_id":"976b7a6f-6946-4cc2-ac45-ef015536dc22","system_id":"levelo_inurba_marseille","lat":43.29005,"lon":5.35615,"is_reserved":false,"is_disabled":false,"rental_uris":{"android":"levelo://app?vid=976b7a6f-6946-4cc2-ac45-ef015536dc22","ios":"levelo://app?vid=976b7a6f-6946-4cc2-ac45-ef015536dc22"},"vehicle_type_id":"4","last_reported":1708369552,"current_range_meters":28400,"station_id":"ce4bhb92rcd13ifvqen0","pricing_plan_id":"cebpf4jnsgd1na2vs0mg"},{"bike_id":"9f48c0a5-b975-43ed-b2b9-63f1785c40b1","system_id":"levelo_inurba_marseille","lat":43.290104,"lon":5.356111,"is_reserved":false,"is_disabled":false,"rental_uris":{"android":"levelo://app?vid=9f48c0a5-b975-43ed-b2b9-63f1785c40b1","ios":"levelo://app?vid=9f48c0a5-b975-43ed-b2b9-63f1785c40b1"},"vehicle_type_id":"4","last_reported":1708369552,"current_range_meters":20000,"station_id":"ce4bhb92rcd13ifvqen0","pricing_plan_id":"cebpf4jnsgd1na2vs0mg"},{"bike_id":"1df3f504-5781-4d50-bc6c-d04624e9c380","system_id":"levelo_inurba_marseille","lat":43.29005,"lon":5.35612,"is_reserved":false,"is_disabled":false,"rental_uris":{"android":"levelo://app?vid=1df3f504-5781-4d50-bc6c-d04624e9c380","ios":"levelo://app?vid=1df3f504-5781-4d50-bc6c-d04624e9c380"},"vehicle_type_id":"4","last_reported":1708369552,"current_range_meters":20400,"station_id":"ce4bhb92rcd13ifvqen0","pricing_plan_id":"cebpf4jnsgd1na2vs0mg"},{"bike_id":"33dcc62e-67f5-47af-9f5d-0cdf07c7c80c","system_id":"levelo_inurba_marseille","lat":43.290103,"lon":5.356114,"is_reserved":false,"is_disabled":false,"rental_uris":{"android":"levelo://app?vid=33dcc62e-67f5-47af-9f5d-0cdf07c7c80c","ios":"levelo://app?vid=33dcc62e-67f5-47af-9f5d-0cdf07c7c80c"},"vehicle_type_id":"4","last_reported":1708369552,"current_range_meters":26400,"station_id":"ce4bhb92rcd13ifvqen0","pricing_plan_id":"cebpf4jnsgd1na2vs0mg"},{"bike_id":"c95ad3f9-ba14-4d47-9a17-91e5a028ceff","system_id":"levelo_inurba_marseille","lat":43.29004,"lon":5.35613,"is_reserved":false,"is_disabled":false,"rental_uris":{"android":"levelo://app?vid=c95ad3f9-ba14-4d47-9a17-91e5a028ceff","ios":"levelo://app?vid=c95ad3f9-ba14-4d47-9a17-91e5a028ceff"},"vehicle_type_id":"4","last_reported":1708369552,"current_range_meters":25600,"station_id":"","pricing_plan_id":"cebpf4jnsgd1na2vs0mg"},{"bike_id":"a376388f-8e38-4a45-86d6-1a65433d6918","system_id":"levelo_inurba_marseille","lat":43.29004,"lon":5.35613,"is_reserved":false,"is_disabled":false,"rental_uris":{"android":"levelo://app?vid=a376388f-8e38-4a45-86d6-1a65433d6918","ios":"levelo://app?vid=a376388f-8e38-4a45-86d6-1a65433d6918"},"vehicle_type_id":"4","last_reported":1708369552,"current_range_meters":15200,"station_id":"ce4bhb92rcd13ifvqen0","pricing_plan_id":"cebpf4jnsgd1na2vs0mg"},{"bike_id":"a28d0f7d-ff3d-458a-916a-a0efc1611ef6","system_id":"levelo_inurba_marseille","lat":43.29003,"lon":5.35614,"is_reserved":false,"is_disabled":false,"rental_uris":{"android":"levelo://app?vid=a28d0f7d-ff3d-458a-916a-a0efc1611ef6","ios":"levelo://app?vid=a28d0f7d-ff3d-458a-916a-a0efc1611ef6"},"vehicle_type_id":"4","last_reported":1708369552,"current_range_meters":25200,"station_id":"ce4bhb92rcd13ifvqen0","pricing_plan_id":"cebpf4jnsgd1na2vs0mg"},{"bike_id":"6ff16ab2-61d1-4c5d-9cc6-1f9c4599538b","system_id":"levelo_inurba_marseille","lat":43.290104,"lon":5.356111,"is_reserved":false,"is_disabled":false,"rental_uris":{"android":"levelo://app?vid=6ff16ab2-61d1-4c5d-9cc6-1f9c4599538b","ios":"levelo://app?vid=6ff16ab2-61d1-4c5d-9cc6-1f9c4599538b"},"vehicle_type_id":"4","last_reported":1708369552,"current_range_meters":3600,"station_id":"ce4bhb92rcd13ifvqen0","pricing_plan_id":"cebpf4jnsgd1na2vs0mg"},{"bike_id":"c99665f8-a7e4-43be-af3f-5ad7ea54612e","system_id":"levelo_inurba_marseille","lat":43.29002,"lon":5.35613,"is_reserved":false,"is_disabled":false,"rental_uris":{"android":"levelo://app?vid=c99665f8-a7e4-43be-af3f-5ad7ea54612e","ios":"levelo://app?vid=c99665f8-a7e4-43be-af3f-5ad7ea54612e"},