{"last_updated":1726150146,"ttl":30,"version":"2.2","data":{"bikes":[{"bike_id":"d4d0bb14-2cc6-4b73-a312-d8670ac6139a","system_id":"levelo_inurba_marseille","lat":43.23209,"lon":5.35568,"is_reserved":false,"is_disabled":false,"rental_uris":{"android":"levelo://app?vid=d4d0bb14-2cc6-4b73-a312-d8670ac6139a","ios":"levelo://app?vid=d4d0bb14-2cc6-4b73-a312-d8670ac6139a"},"vehicle_type_id":"4","last_reported":1726150146,"current_range_meters":27600,"station_id":"ce4bhu92rcd13ifvqi70","pricing_plan_id":"cebpf4jnsgd1na2vs0mg"},{"bike_id":"8cb20de7-ab38-4452-b74b-8c2dc0ec0ab9","system_id":"levelo_inurba_marseille","lat":43.2961,"lon":5.38101,"is_reserved":false,"is_disabled":false,"rental_uris":{"android":"levelo://app?vid=8cb20de7-ab38-4452-b74b-8c2dc0ec0ab9","ios":"levelo://app?vid=8cb20de7-ab38-4452-b74b-8c2dc0ec0ab9"},"vehicle_type_id":"4","last_reported":1726150146,"current_range_meters":38400,"station_id":"ce4bgl12rcd13ifvqbo0","pricing_plan_id":"cebpf4jnsgd1na2vs0mg"},{"bike_id":"822f85e1-5722-4be4-ab96-722fe3b703ac","system_id":"levelo_inurba_marseille","lat":43.28464,"lon":5.35891,"is_reserved":false,"is_disabled":false,"rental_uris":{"android":"levelo://app?vid=822f85e1-5722-4be4-ab96-722fe3b703ac","ios":"levelo://app?vid=822f85e1-5722-4be4-ab96-722fe3b703ac"},"vehicle_type_id":"4","last_reported":1726150146,"current_range_meters":14000,"station_id":"ce4bhah2rcd13ifvqei0","pricing_plan_id":"cebpf4jnsgd1na2vs0mg"},{"bike_id":"d3d0bf1e-8766-4413-be09-513aa812b8d5","system_id":"levelo_inurba_marseille","lat":43.24099,"lon":5.37771,"is_reserved":false,"is_disabled":false,"rental_uris":{"android":"levelo://app?vid=d3d0bf1e-8766-4413-be09-513aa812b8d5","ios":"levelo://app?vid=d3d0bf1e-8766-4413-be09-513aa812b8d5"},"vehicle_type_id":"4","last_reported":1726150146,"current_range_meters":34800,"station_id":"ce4bhnp2rcd13ifvqgvg","pricing_plan_id":"cebpf4jnsgd1na2vs0mg"},{"bike_id":"3e6f7544-08ca-49bd-8f83-5ac10a989f0b","system_id":"levelo_inurba_marseille","lat":43.272095,"lon":5.39196,"is_reserved":false,"is_disabled":false,"rental_uris":{"android":"levelo://app?vid=3e6f7544-08ca-49bd-8f83-5ac10a989f0b","ios":"levelo://app?vid=3e6f7544-08ca-49bd-8f83-5ac10a989f0b"},"vehicle_type_id":"4","last_reported":1726150146,"current_range_meters":12000,"station_id":"ce4bhbp2rcd13ifvqerg","pricing_plan_id":"cebpf4jnsgd1na2vs0mg"},{"bike_id":"032cca34-153b-4a2a-88a7-b47b5003aec0","system_id":"levelo_inurba_marseille","lat":43.30921,"lon":5.36849,"is_reserved":false,"is_disabled":false,"rental_uris":{"android":"levelo://app?vid=032cca34-153b-4a2a-88a7-b47b5003aec0","ios":"levelo://app?vid=032cca34-153b-4a2a-88a7-b47b5003aec0"},"vehicle_type_id":"4","last_reported":1726150146,"current_range_meters":38800,"station_id":"ce4bgn92rcd13ifvqbvg","pricing_plan_id":"cebpf4jnsgd1na2vs0mg"},{"bike_id":"352bf688-43f5-45a1-8a6c-82fdcb446e7d","system_id":"levelo_inurba_marseille","lat":43.3081,"lon":5.38159,"is_reserved":false,"is_disabled":false,"rental_uris":{"android":"levelo://app?vid=352bf688-43f5-45a1-8a6c-82fdcb446e7d","ios":"levelo://app?vid=352bf688-43f5-45a1-8a6c-82fdcb446e7d"},"vehicle_type_id":"4","last_reported":1726150146,"current_range_meters":6000,"station_id":"ce4bgt12rcd13ifvqce0","pricing_plan_id":"cebpf4jnsgd1na2vs0mg"},{"bike_id":"465b9711-45af-4bbc-ab09-d7e69fba4c7f","system_id":"levelo_inurba_marseille","lat":43.29811,"lon":5.38099,"is_reserved":false,"is_disabled":false,"rental_uris":{"android":"levelo://app?vid=465b9711-45af-4bbc-ab09-d7e69fba4c7f","ios":"levelo://app?vid=465b9711-45af-4bbc-ab09-d7e69fba4c7f"},"vehicle_type_id":"4","last_reported":1726150146,"current_range_meters":3200,"station_id":"ce4bgip2rcd13ifvqbb0","pricing_plan_id":"cebpf4jnsgd1na2vs0mg"},{"bike_id":"a7990105-4340-41b9-bedf-28d6659c34dd","system_id":"levelo_inurba_marseille","lat":43.29195,"lon":5.35803,"is_reserved":false,"is_disabled":false,"rental_uris":{"android":"levelo://app?vid=a7990105-4340-41b9-bedf-28d6659c34dd","ios":"levelo://app?vid=a7990105-4340-41b9-bedf-28d6659c34dd"},"vehicle_type_id":"4","last_reported":1726150146,"current_range_meters":26000,"station_id":"ce4bhb12rcd13ifvqel0","pricing_plan_id":"cebpf4jnsgd1na2vs0mg"},{"bike_id":"0ec080cc-bb27-4a15-8344-0cdec365a7be","system_id":"levelo_inurba_marseille","lat":43.284877,"lon":5.38545,"is_reserved":false,"is_disabled":false,"rental_uris":{"android":"levelo://app?vid=0ec080cc-bb27-4a15-8344-0cdec365a7be","ios":"levelo://app?vid=0ec080cc-bb27-4a15-8344-0cdec365a7be"},"vehicle_type_id":"4","last_reported":1726150146,"current_range_meters":24000,"station_id":"ce4bh2p2rcd13ifvqdi0","pricing_plan_id":"cebpf4jnsgd1na2vs0mg"},{"bike_id":"7ebd5420-dab1-4327-8d02-37c9f9b56046","system_id":"levelo_inurba_marseille","lat":43.308861,"lon":5.371899,"is_reserved":false,"is_disabled":false,"rental_uris":{"android":"levelo://app?vid=7ebd5420-dab1-4327-8d02-37c9f9b56046","ios":"levelo://app?vid=7ebd5420-dab1-4327-8d02-37c9f9b56046"},"vehicle_type_id":"4","last_reported":1726150146,"current_range_meters":30400,"station_id":"ce4bguh2rcd13ifvqckg","pricing_plan_id":"cebpf4jnsgd1na2vs0mg"},{"bike_id":"831ad933-e41a-4e0c-adcd-f8f4044446aa","system_id":"levelo_inurba_marseille","lat":43.23161,"lon":5.43711,"is_reserved":false,"is_disabled":false,"rental_uris":{"android":"levelo://app?vid=831ad933-e41a-4e0c-adcd-f8f4044446aa","ios":"levelo://app?vid=831ad933-e41a-4e0c-adcd-f8f4044446aa"},"vehicle_type_id":"4","last_reported":1726150146,"current_range_meters":20000,"station_id":"ce4bhmp2rcd13ifvqgog","pricing_plan_id":"cebpf4jnsgd1na2vs0mg"},{"bike_id":"a60167bb-fb67-4ea5-971c-66d5b70a3739","system_id":"levelo_inurba_marseille","lat":43.30304,"lon":5.39207,"is_reserved":false,"is_disabled":false,"rental_uris":{"android":"levelo://app?vid=a60167bb-fb67-4ea5-971c-66d5b70a3739","ios":"levelo://app?vid=a60167bb-fb67-4ea5-971c-66d5b70a3739"},"vehicle_type_id":"4","last_reported":1726150146,"current_range_meters":22400,"station_id":"ce4bgkh2rcd13ifvqbk0","pricing_plan_id":"cebpf4jnsgd1na2vs0mg"},{"bike_id":"13ec4916-f0ea-4897-8afc-596425b42c42","system_id":"levelo_inurba_marseille","lat":43.23194,"lon":5.35556,"is_reserved":false,"is_disabled":false,"rental_uris":{"android":"levelo://app?vid=13ec4916-f0ea-4897-8afc-596425b42c42","ios":"levelo://app?vid=13ec4916-f0ea-4897-8afc-596425b42c42"},"vehicle_type_id":"4","last_reported":1726150146,"current_range_meters":34800,"station_id":"ce4bhu92rcd13ifvqi70","pricing_plan_id":"cebpf4jnsgd1na2vs0mg"},{"bike_id":"328b8b59-2270-42e2-8bc6-799ca108f4fb","system_id":"levelo_inurba_marseille","lat":43.28275,"lon":5.35076,"is_reserved":false,"is_disabled":false,"rental_uris":{"android":"levelo://app?vid=328b8b59-2270-42e2-8bc6-799ca108f4fb","ios":"levelo://app?vid=328b8b59-2270-42e2-8bc6-799ca108f4fb"},"vehicle_type_id":"4","last_reported":1726150146,"current_range_meters":33600,"station_id":"ce4bhbp2rcd13ifvqerg","pricing_plan_id":"cebpf4jnsgd1na2vs0mg"},{"bike_id":"e77826da-8061-46cc-b52a-9da30264ce77","system_id":"levelo_inurba_marseille","lat":43.29586,"lon":5.36736,"is_reserved":false,"is_disabled":false,"rental_uris":{"android":"levelo://app?vid=e77826da-8061-46cc-b52a-9da30264ce77","ios":"levelo://app?vid=e77826da-8061-46cc-b52a-9da30264ce77"},"vehicle_type_id":"4","last_reported":1726150146,"current_range_meters":32800,"station_id":"ce4bgph2rcd13ifvqc2g","pricing_plan_id":"cebpf4jnsgd1na2vs0mg"},{"bike_id":"80e566a0-c600-421d-8a30-6eed52562566","system_id":"levelo_inurba_marseille","lat":43.25587,"lon":5.3824,"is_reserved":false,"is_disabled":false,"rental_uris":{"android":"levelo://app?vid=80e566a0-c600-421d-8a30-6eed52562566","ios":"levelo://app?vid=80e566a0-c600-421d-8a30-6eed52562566"},"vehicle_type_id":"4","last_reported":1726150146,"current_range_meters":14400,"station_id":"ce4bhih2rcd13ifvqfs0","pricing_plan_id":"cebpf4jnsgd1na2vs0mg"},{"bike_id":"a68df08b-f9fa-4991-9775-134d012f2510","system_id":"levelo_inurba_marseille","lat":43.23064,"lon":5.35487,"is_reserved":false,"is_disabled":false,"rental_uris":{"android":"levelo://app?vid=a68df08b-f9fa-4991-9775-134d012f2510","ios":"levelo://app?vid=a68df08b-f9fa-4991-9775-134d012f2510"},"vehicle_type_id":"4","last_reported":1726150146,"current_range_meters":16000,"station_id":"cpo3342slgdg3j2ifvpg","pricing_plan_id":"cebpf4jnsgd1na2vs0mg"},{"bike_id":"acd8a3d5-a9db-4ea3-b234-2a790cfd605a","system_id":"levelo_inurba_marseille","lat":43.23964,"lon":5.36625,"is_reserved":false,"is_disabled":false,"rental_uris":{"android":"levelo://app?vid=acd8a3d5-a9db-4ea3-b234-2a790cfd605a","ios":"levelo://app?vid=acd8a3d5-a9db-4ea3-b234-2a790cfd605a"},"vehicle_type_id":"4","last_reported":1726150146,"current_range_meters":20400,"station_id":"ce4bhi12rcd13ifvqfp0","pricing_plan_id":"cebpf4jnsgd1na2vs0mg"},{"bike_id":"9e961bae-c98c-40bc-9519-9fa212cce297","system_id":"levelo_inurba_marseille","lat":43.28467,"lon":5.35889,"is_reserved":false,"is_disabled":false,"rental_uris":{"android":"levelo://app?vid=9e961bae-c98c-40bc-9519-9fa212cce297","ios":"levelo://app?vid=9e961bae-c98c-40bc-9519-9fa212cce297"},"vehicle_type_id":"4","last_reported":1726150146,"current_range_meters":28400,"station_id":"ce4bhah2rcd13ifvqei0","pricing_plan_id":"cebpf4jnsgd1na2vs0mg"},{"bike_id":"9f1f6f85-5695-424c-bd13-79fdf2baefa9","system_id":"levelo_inurba_marseille","lat":43.25499,"lon":5.37649,"is_reserved":false,"is_disabled":false,"rental_uris":{"android":"levelo://app?vid=9f1f6f85-5695-424c-bd13-79fdf2baefa9","ios":"levelo://app?vid=9f1f6f85-5695-424c-bd13-79fdf2baefa9"},"vehicle_type_id":"4","last_reported":1726150146,"current_range_meters":31200,"station_id":"ce4bhh12rcd13ifvqff0","pricing_plan_id":"cebpf4jnsgd1na2vs0mg"},{"bike_id":"995d3a7e-289e-4ebd-b785-9d2da426ad57","system_id":"levelo_inurba_marseille","lat":43.231995,"lon":5.355555,"is_reserved":false,"is_disabled":false,"rental_uris":{"android":"levelo://app?vid=995d3a7e-289e-4ebd-b785-9d2da426ad57","ios":"levelo://app?vid=995d3a7e-289e-4ebd-b785-9d2da426ad57"},"vehicle_type_id":"4","last_reported":1726150146,"current_range_meters":28800,"station_id":"ce4bhu92rcd13ifvqi70","pricing_plan_id":"cebpf4jnsgd1na2vs0mg"},{"bike_id":"74c67d55-8a5f-40c9-8066-d68354718f8c","system_id":"levelo_inurba_marseille","lat":43.23202,"lon":5.35548,"is_reserved":false,"is_disabled":false,"rental_uris":{"android":"levelo://app?vid=74c67d55-8a5f-40c9-8066-d68354718f8c","ios":"levelo://app?vid=74c67d55-8a5f-40c9-8066-d68354718f8c"},"vehicle_type_id":"4","last_reported":1726150146,"current_range_meters":31200,"station_id":"ce4bhu92rcd13ifvqi70","pricing_plan_id":"cebpf4jnsgd1na2vs0mg"},{"bike_id":"e906be66-3b31-47b7-8419-b666d9464f0a","system_id":"levelo_inurba_marseille","lat":43.300751,"lon":5.390762,"is_reserved":false,"is_disabled":false,"rental_uris":{"android":"levelo://app?vid=e906be66-3b31-47b7-8419-b666d9464f0a","ios":"levelo://app?vid=e906be66-3b31-47b7-8419-b666d9464f0a"},"vehicle_type_id":"4","last_reported":1726150146,"current_range_meters":25200,"station_id":"ce4bh192rcd13ifvqdb0","pricing_plan_id":"cebpf4jnsgd1na2vs0mg"},{"bike_id":"19ec4de8-9a5f-46e3-8d5c-f63b9ae69204","system_id":"levelo_inurba_marseille","lat":43.29036,"lon":5.38642,"is_reserved":false,"is_disabled":false,"rental_uris":{"android":"levelo://app?vid=19ec4de8-9a5f-46e3-8d5c-f63b9ae69204","ios":"levelo://app?vid=19ec4de8-9a5f-46e3-8d5c-f63b9ae69204"},"vehicle_type_id":"4","last_reported":1726150146,"current_range_meters":34000,"station_id":"ce4bh4p2rcd13ifvqe0g","pricing_plan_id":"cebpf4jnsgd1na2vs0mg"},{"bike_id":"12ab67fc-3193-4e29-bf33-053d347db09d","system_id":"levelo_inurba_marseille","lat":43.25589,"lon":5.38221,"is_reserved":false,"is_disabled":false,"rental_uris":{"android":"levelo://app?vid=12ab67fc-3193-4e29-bf33-053d347db09d","ios":"levelo://app?vid=12ab67fc-3193-4e29-bf33-053d347db09d"},"vehicle_type_id":"4","last_reported":1726150146,"current_range_meters":11600,"station_id":"ce4bhih2rcd13ifvqfs0","pricing_plan_id":"cebpf4jnsgd1na2vs0mg"},{"bike_id":"f26c1504-1d02-4a96-9cce-a8d8d09650ab","system_id":"levelo_inurba_marseille","lat":43.31233,"lon":5.3686,"is_reserved":false,"is_disabled":false,"rental_uris":{"android":"levelo://app?vid=f26c1504-1d02-4a96-9cce-a8d8d09650ab","ios":"levelo://app?vid=f26c1504-1d02-4a96-9cce-a8d8d09650ab"},"vehicle_type_id":"4","last_reported":1726150146,"current_range_meters":38800,"station_id":"ce4bgl92rcd13ifvqbq0","pricing_plan_id":"cebpf4jnsgd1na2vs0mg"},{"bike_id":"eb685eeb-f508-4424-9ea7-a6e3d7e8091e","system_id":"levelo_inurba_marseille","lat":43.25937,"lon":5.40904,"is_reserved":false,"is_disabled":false,"rental_uris":{"android":"levelo://app?vid=eb685eeb-f508-4424-9ea7-a6e3d7e8091e","ios":"levelo://app?vid=eb685eeb-f508-4424-9ea7-a6e3d7e8091e"},"vehicle_type_id":"4","last_reported":1726150146,"current_range_meters":28400,"station_id":"ce4bhm92rcd13ifvqglg","pricing_plan_id":"cebpf4jnsgd1na2vs0mg"},{"bike_id":"6d094fd2-0ec4-4fb4-9cf8-16628054406a","system_id":"levelo_inurba_marseille","lat":43.23149,"lon":5.43727,"is_reserved":false,"is_disabled":false,"rental_uris":{"android":"levelo://app?vid=6d094fd2-0ec4-4fb4-9cf8-16628054406a","ios":"levelo://app?vid=6d094fd2-0ec4-4fb4-9cf8-16628054406a"},"vehicle_type_id":"4","last_reported":1726150146,"current_range_meters":24400,"station_id":"ce4bhmp2rcd13ifvqgog","pricing_plan_id":"cebpf4jnsgd1na2vs0mg"},{"bike_id":"39deef39-79d2-4c87-9ca0-d85b1b6c919f","system_id":"levelo_inurba_marseille","lat":43.29968,"lon":5.37163,"is_reserved":false,"is_disabled":false,"rental_uris":{"android":"levelo://app?vid=39deef39-79d2-4c87-9ca0-d85b1b6c919f","ios":"levelo://app?vid=39deef39-79d2-4c87-9ca0-d85b1b6c919f"},"vehicle_type_id":"4","last_reported":1726150146,"current_range_meters":30400,"station_id":"ce4bgr92rcd13ifvqc7g","pricing_plan_id":"cebpf4jnsgd1na2vs0mg"},{"bike_id":"e4f9a2d7-346b-4da7-b4f0-c8ec8f515f1d","system_id":"levelo_inurba_marseille","lat":43.29716,"lon":5.37695,"is_reserved":false,"is_disabled":false,"rental_uris":{"android":"levelo://app?vid=e4f9a2d7-346b-4da7-b4f0-c8ec8f515f1d","ios":"levelo://app?vid=e4f9a2d7-346b-4da7-b4f0-c8ec8f515f1d"},"vehicle_type_id":"4","last_reported":1726150146,"current_range_meters":25200,"station_id":"ce4bgkh2rcd13ifvqbl0","pricing_plan_id":"cebpf4jnsgd1na2vs0mg"},{"bike_id":"72212374-4ee5-4cd7-b2be-1d08af601cc1","system_id":"levelo_inurba_marseille","lat":43.28442,"lon":5.39191,"is_reserved":false,"is_disabled":false,"rental_uris":{"android":"levelo://app?vid=72212374-4ee5-4cd7-b2be-1d08af601cc1","ios":"levelo://app?vid=72212374-4ee5-4cd7-b2be-1d08af601cc1"},"vehicle_type_id":"4","last_reported":1726150146,"current_range_meters":31200,"station_id":"ce4bhoh2rcd13ifvqh5g","pricing_plan_id":"cebpf4jnsgd1na2vs0mg"},{"bike_id":"25311a33-d000-4765-a5f7-650e317e24a2","system_id":"levelo_inurba_marseille","lat":43.31484,"lon":5.37294,"is_reserved":false,"is_disabled":false,"rental_uris":{"android":"levelo://app?vid=25311a33-d000-4765-a5f7-650e317e24a2","ios":"levelo://app?vid=25311a33-d000-4765-a5f7-650e317e24a2"},"vehicle_type_id":"4","last_reported":1726150146,"current_range_meters":36400,"station_id":"ce4bgt12rcd13ifvqcd0","pricing_plan_id":"cebpf4jnsgd1na2vs0mg"},{"bike_id":"11944b44-cc54-4fe0-896f-7b982db000ce","system_id":"levelo_inurba_marseille","lat":43.24092,"lon":5.3774,"is_reserved":false,"is_disabled":false,"rental_uris":{"android":"levelo://app?vid=11944b44-cc54-4fe0-896f-7b982db000ce","ios":"levelo://app?vid=11944b44-cc54-4fe0-896f-7b982db000ce"},"vehicle_type_id":"4","last_reported":1726150146,"current_range_meters":33200,"station_id":"ce4bhnp2rcd13ifvqgvg","pricing_plan_id":"cebpf4jnsgd1na2vs0mg"},{"bike_id":"91783652-98c3-4f46-a05b-164c1cfdd1f0","system_id":"levelo_inurba_marseille","lat":43.29626,"lon":5.37167,"is_reserved":false,"is_disabled":false,"rental_uris":{"android":"levelo://app?vid=91783652-98c3-4f46-a05b-164c1cfdd1f0","ios":"levelo://app?vid=91783652-98c3-4f46-a05b-164c1cfdd1f0"},"vehicle_type_id":"4","last_reported":1726150146,"current_range_meters":35200,"station_id":"ce4bgnh2rcd13ifvqc0g","pricing_plan_id":"cebpf4jnsgd1na2vs0mg"},{"bike_id":"8154e961-dcd0-457f-a7fc-4dd68f383c69","system_id":"levelo_inurba_marseille","lat":43.31488,"lon":5.373061,"is_reserved":false,"is_disabled":false,"rental_uris":{"android":"levelo://app?vid=8154e961-dcd0-457f-a7fc-4dd68f383c69","ios":"levelo://app?vid=8154e961-dcd0-457f-a7fc-4dd68f383c69"},"vehicle_type_id":"4","last_reported":1726150146,"current_range_meters":6800,"station_id":"ce4bgt12rcd13ifvqcd0","pricing_plan_id":"cebpf4jnsgd1na2vs0mg"},{"bike_id":"45c957c7-7867-4675-82aa-3bd366aa5818","system_id":"levelo_inurba_marseille","lat":43.31544,"lon":5.38043,"is_reserved":false,"is_disabled":false,"rental_uris":{"android":"levelo://app?vid=45c957c7-7867-4675-82aa-3bd366aa5818","ios":"levelo://app?vid=45c957c7-7867-4675-82aa-3bd366aa5818"},"vehicle_type_id":"4","last_reported":1726150146,"current_range_meters":35600,"station_id":"ce4bhsp2rcd13ifvqi50","pricing_plan_id":"cebpf4jnsgd1na2vs0mg"},{"bike_id":"0c831d91-bf16-41f0-88cc-4fd28cab406e","system_id":"levelo_inurba_marseille","lat":43.26577,"lon":5.39013,"is_reserved":false,"is_disabled":false,"rental_uris":{"android":"levelo://app?vid=0c831d91-bf16-41f0-88cc-4fd28cab406e","ios":"levelo://app?vid=0c831d91-bf16-41f0-88cc-4fd28cab406e"},"vehicle_type_id":"4","last_reported":1726150146,"current_range_meters":6800,"station_id":"ce4bhe12rcd13ifvqf30","pricing_plan_id":"cebpf4jnsgd1na2vs0mg"},{"bike_id":"c3a84de0-e074-45d2-96a4-3ff17abba9fe","system_id":"levelo_inurba_marseille","lat":43.24089,"lon":5.3774,"is_reserved":false,"is_disabled":false,"rental_uris":{"android":"levelo://app?vid=c3a84de0-e074-45d2-96a4-3ff17abba9fe","ios":"levelo://app?vid=c3a84de0-e074-45d2-96a4-3ff17abba9fe"},"vehicle_type_id":"4","last_reported":1726150146,"current_range_meters":9200,"station_id":"ce4bhnp2rcd13ifvqgvg","pricing_plan_id":"cebpf4jnsgd1na2vs0mg"},{"bike_id":"86dc3c5e-affe-4475-a791-1385bf1a72a8","system_id":"levelo_inurba_marseille","lat":43.30151,"lon":5.3809,"is_reserved":false,"is_disabled":false,"rental_uris":{"android":"levelo://app?vid=86dc3c5e-affe-4475-a791-1385bf1a72a8","ios":"levelo://app?vid=86dc3c5e-affe-4475-a791-1385bf1a72a8"},"vehicle_type_id":"4","last_reported":1726150146,"current_range_meters":10000,"station_id":"ce4bgjp2rcd13ifvqbh0","pricing_plan_id":"cebpf4jnsgd1na2vs0mg"},{"bike_id":"d55bec3e-cd2b-4f49-91b2-7a9da15ee7fd","system_id":"levelo_inurba_marseille","lat":43.23152,"lon":5.43718,"is_reserved":false,"is_disabled":false,"rental_uris":{"android":"levelo://app?vid=d55bec3e-cd2b-4f49-91b2-7a9da15ee7fd","ios":"levelo://app?vid=d55bec3e-cd2b-4f49-91b2-7a9da15ee7fd"},"vehicle_type_id":"4","last_reported":1726150146,"current_range_meters":26000,"station_id":"ce4bhmp2rcd13ifvqgog","pricing_plan_id":"cebpf4jnsgd1na2vs0mg"},{"bike_id":"bf2d2172-be9c-4d8b-b2a9-e8472749e9f2","system_id":"levelo_inurba_marseille","lat":43.2456,"lon":5.39524,"is_reserved":false,"is_disabled":false,"rental_uris":{"android":"levelo://app?vid=bf2d2172-be9c-4d8b-b2a9-e8472749e9f2","ios":"levelo://app?vid=bf2d2172-be9c-4d8b-b2a9-e8472749e9f2"},"vehicle_type_id":"4","last_reported":1726150146,"current_range_meters":27600,"station_id":"ce4bhlp2rcd13ifvqgjg","pricing_plan_id":"cebpf4jnsgd1na2vs0mg"},{"bike_id":"0a1f63c4-8197-4edd-9c0f-886e05340093","system_id":"levelo_inurba_marseille","lat":43.26223,"lon":5.37448,"is_reserved":false,"is_disabled":false,"rental_uris":{"android":"levelo://app?vid=0a1f63c4-8197-4edd-9c0f-886e05340093","ios":"levelo://app?vid=0a1f63c4-8197-4edd-9c0f-886e05340093"},"vehicle_type_id":"4","last_reported":1726150146,"current_range_meters":37600,"station_id":"ce4bhgp2rcd13ifvqfc0","pricing_plan_id":"cebpf4jnsgd1na2vs0mg"},{"bike_id":"92ef01af-d419-4bed-b2e9-12e62eff24f5","system_id":"levelo_inurba_marseille","lat":43.29579,"lon":5.37521,"is_reserved":false,"is_disabled":false,"rental_uris":{"android":"levelo://app?vid=92ef01af-d419-4bed-b2e9-12e62eff24f5","ios":"levelo://app?vid=92ef01af-d419-4bed-b2e9-12e62eff24f5"},"vehicle_type_id":"4","last_reported":1726150146,"current_range_meters":38800,"station_id":"ce4bgh92rcd13ifvqb50","pricing_plan_id":"cebpf4jnsgd1na2vs0mg"},{"bike_id":"86b6a2b1-86a4-46ee-8c7e-90cb86d3d820","system_id":"levelo_inurba_marseille","lat":43.31339,"lon":5.39694,"is_reserved":false,"is_disabled":false,"rental_uris":{"android":"levelo://app?vid=86b6a2b1-86a4-46ee-8c7e-90cb86d3d820","ios":"levelo://app?vid=86b6a2b1-86a4-46ee-8c7e-90cb86d3d820"},"vehicle_type_id":"4","last_reported":1726150146,"current_range_meters":38800,"station_id":"ce4bgvp2rcd13ifvqcu0","pricing_plan_id":"cebpf4jnsgd1na2vs0mg"},{"bike_id":"118db879-b7d0-4bf0-a219-c082b60e3cc3","system_id":"levelo_inurba_marseille","lat":43.29601,"lon":5.37943,"is_reserved":false,"is_disabled":false,"rental_uris":{"android":"levelo://app?vid=118db879-b7d0-4bf0-a219-c082b60e3cc3","ios":"levelo://app?vid=118db879-b7d0-4bf0-a219-c082b60e3cc3"},"vehicle_type_id":"4","last_reported":1726150146,"current_range_meters":9600,"station_id":"","pricing_plan_id":"cebpf4jnsgd1na2vs0mg"},{"bike_id":"a52ae3d9-58a5-4929-a1fa-7958ae557e7d","system_id":"levelo_inurba_marseille","lat":43.25946,"lon":5.40896,"is_reserved":false,"is_disabled":false,"rental_uris":{"android":"levelo://app?vid=a52ae3d9-58a5-4929-a1fa-7958ae557e7d","ios":"levelo://app?vid=a52ae3d9-58a5-4929-a1fa-7958ae557e7d"},"vehicle_type_id":"4","last_reported":1726150146,"current_range_meters":13600,"station_id":"ce4bhm92rcd13ifvqglg","pricing_plan_id":"cebpf4jnsgd1na2vs0mg"},{"bike_id":"137d77b3-a0e8-4eb5-9ea5-007c554cc529","system_id":"levelo_inurba_marseille","lat":43.26815,"lon":5.40268,"is_reserved":false,"is_disabled":false,"rental_uris":{"android":"levelo://app?vid=137d77b3-a0e8-4eb5-9ea5-007c554cc529","ios":"levelo://app?vid=137d77b3-a0e8-4eb5-9ea5-007c554cc529"},"vehicle_type_id":"4","last_reported":1726150146,"current_range_meters":24000,"station_id":"ce501612rcd8frsf0b60","pricing_plan_id":"cebpf4jnsgd1na2vs0mg"},{"bike_id":"554beb7c-19ba-440e-a211-532f35657004","system_id":"levelo_inurba_marseille","lat":43.2955,"lon":5.42273,"is_reserved":false,"is_disabled":false,"rental_uris":{"android":"levelo://app?vid=554beb7c-19ba-440e-a211-532f35657004","ios":"levelo://app?vid=554beb7c-19ba-440e-a211-532f35657004"},"vehicle_type_id":"4","last_reported":1726150146,"current_range_meters":20400,"station_id":"ce4bhph2rcd13ifvqhdg","pricing_plan_id":"cebpf4jnsgd1na2vs0mg"},{"bike_id":"3882426c-e495-40ff-828d-beef56f8a9eb","system_id":"levelo_inurba_marseille","lat":43.3172,"lon":5.37763,"is_reserved":false,"is_disabled":false,"rental_uris":{"android":"levelo://app?vid=3882426c-e495-40ff-828d-beef56f8a9eb","ios":"levelo://app?vid=3882426c-e495-40ff-828d-beef56f8a9eb"},"vehicle_type_id":"4","last_reported":1726150146,"current_range_meters":32000,"station_id":"ce4bgth2rcd13ifvqch0","pricing_plan_id":"cebpf4jnsgd1na2vs0mg"},{"bike_id":"1654b7b3-ec53-4d5e-8993-e5f3179428df","system_id":"levelo_inurba_marseille","lat":43.30886,"lon":5.37186,"is_reserved":false,"is_disabled":false,"rental_uris":{"android":"levelo://app?vid=1654b7b3-ec53-4d5e-8993-e5f3179428df","ios":"levelo://app?vid=1654b7b3-ec53-4d5e-8993-e5f3179428df"},"vehicle_type_id":"4","last_reported":1726150146,"current_range_meters":39200,"station_id":"ce4bguh2rcd13ifvqckg","pricing_plan_id":"cebpf4jnsgd1na2vs0mg"},{"bike_id":"4067cf6c-6e3d-4ac9-99bf-c1b92b69f736","system_id":"levelo_inurba_marseille","lat":43.32501,"lon":5.36556,"is_reserved":false,"is_disabled":false,"rental_uris":{"android":"levelo://app?vid=4067cf6c-6e3d-4ac9-99bf-c1b92b69f736","ios":"levelo://app?vid=4067cf6c-6e3d-4ac9-99bf-c1b92b69f736"},"vehicle_type_id":"4","last_reported":1726150146,"current_range_meters":25200,"station_id":"ce4bhs12rcd13ifvqhvg","pricing_plan_id":"cebpf4jnsgd1na2vs0mg"},{"bike_id":"352085d8-a232-4bdb-94c4-7e4bc5d644a1","system_id":"levelo_inurba_marseille","lat":43.25938,"lon":5.4091,"is_reserved":false,"is_disabled":false,"rental_uris":{"android":"levelo://app?vid=352085d8-a232-4bdb-94c4-7e4bc5d644a1","ios":"levelo://app?vid=352085d8-a232-4bdb-94c4-7e4bc5d644a1"},"vehicle_type_id":"4","last_reported":1726150146,"current_range_meters":28400,"station_id":"ce4bhm92rcd13ifvqglg","pricing_plan_id":"cebpf4jnsgd1na2vs0mg"},{"bike_id":"99076584-ed77-4098-b163-e80b87a4a633","system_id":"levelo_inurba_marseille","lat":43.25597,"lon":5.38218,"is_reserved":false,"is_disabled":false,"rental_uris":{"android":"levelo://app?vid=99076584-ed77-4098-b163-e80b87a4a633","ios":"levelo://app?vid=99076584-ed77-4098-b163-e80b87a4a633"},"vehicle_type_id":"4","last_reported":1726150146,"current_range_meters":33200,"station_id":"ce4bhih2rcd13ifvqfs0","pricing_plan_id":"cebpf4jnsgd1na2vs0mg"},{"bike_id":"5890d27b-558d-45fc-9288-c7802832b9ba","system_id":"levelo_inurba_marseille","lat":43.29926,"lon":5.38157,"is_reserved":false,"is_disabled":false,"rental_uris":{"android":"levelo://app?vid=5890d27b-558d-45fc-9288-c7802832b9ba","ios":"levelo://app?vid=5890d27b-558d-45fc-9288-c7802832b9ba"},"vehicle_type_id":"4","last_reported":1726150146,"current_range_meters":16800,"station_id":"ce4bgj12rcd13ifvqbc0","pricing_plan_id":"cebpf4jnsgd1na2vs0mg"},{"bike_id":"7b83c2f0-d8e4-4407-ab5c-3edd944045ea","system_id":"levelo_inurba_marseille","lat":43.28713,"lon":5.37384,"is_reserved":false,"is_disabled":false,"rental_uris":{"android":"levelo://app?vid=7b83c2f0-d8e4-4407-ab5c-3edd944045ea","ios":"levelo://app?vid=7b83c2f0-d8e4-4407-ab5c-3edd944045ea"},"vehicle_type_id":"4","last_reported":1726150146,"current_range_meters":28800,"station_id":"ce4bh3p2rcd13ifvqdq0","pricing_plan_id":"cebpf4jnsgd1na2vs0mg"},{"bike_id":"97fb1b7f-695d-4049-8729-097bf60ac993","system_id":"levelo_inurba_marseille","lat":43.33023,"lon":5.39042,"is_reserved":false,"is_disabled":false,"rental_uris":{"android":"levelo://app?vid=97fb1b7f-695d-4049-8729-097bf60ac993","ios":"levelo://app?vid=97fb1b7f-695d-4049-8729-097bf60ac993"},"vehicle_type_id":"4","last_reported":1726150146,"current_range_meters":30800,"station_id":"ce4bhr92rcd13ifvqhrg","pricing_plan_id":"cebpf4jnsgd1na2vs0mg"},{"bike_id":"ef423b08-7e28-4a7e-bdb8-5d2d125f7b5c","system_id":"levelo_inurba_marseille","lat":43.23977,"lon":5.36629,"is_reserved":false,"is_disabled":false,"rental_uris":{"android":"levelo://app?vid=ef423b08-7e28-4a7e-bdb8-5d2d125f7b5c","ios":"levelo://app?vid=ef423b08-7e28-4a7e-bdb8-5d2d125f7b5c"},"vehicle_type_id":"4","last_reported":1726150146,"current_range_meters":22400,"station_id":"ce4bhi12rcd13ifvqfp0","pricing_plan_id":"cebpf4jnsgd1na2vs0mg"},{"bike_id":"18133a1b-df7b-42d0-89d1-ccdedf5f5524","system_id":"levelo_inurba_marseille","lat":43.30533,"lon":5.36547,"is_reserved":false,"is_disabled":false,"rental_uris":{"android":"levelo://app?vid=18133a1b-df7b-42d0-89d1-ccdedf5f5524","ios":"levelo://app?vid=18133a1b-df7b-42d0-89d1-ccdedf5f5524"},"vehicle_type_id":"4","last_reported":1726150146,"current_range_meters":38800,"station_id":"ce4bgs12rcd13ifvqcag","pricing_plan_id":"cebpf4jnsgd1na2vs0mg"},{"bike_id":"5e714c2c-7fd6-4958-bdcb-899c1b293eb3","system_id":"levelo_inurba_marseille","lat":43.29906,"lon":5.38135,"is_reserved":false,"is_disabled":false,"rental_uris":{"android":"levelo://app?vid=5e714c2c-7fd6-4958-bdcb-899c1b293eb3","ios":"levelo://app?vid=5e714c2c-7fd6-4958-bdcb-899c1b293eb3"},"vehicle_type_id":"4","last_reported":1726150146,"current_range_meters":36000,"station_id":"ce4bgj12rcd13ifvqbc0","pricing_plan_id":"cebpf4jnsgd1na2vs0mg"},{"bike_id":"215bff01-57d2-41cc-a3a9-4fce0413cd2d","system_id":"levelo_inurba_marseille","lat":43.3013,"lon":5.39864,"is_reserved":false,"is_disabled":false,"rental_uris":{"android":"levelo://app?vid=215bff01-57d2-41cc-a3a9-4fce0413cd2d","ios":"levelo://app?vid=215bff01-57d2-41cc-a3a9-4fce0413cd2d"},"vehicle_type_id":"4","last_reported":1726150146,"current_range_meters":9600,"station_id":"ce4bh0h2rcd13ifvqd40","pricing_plan_id":"cebpf4jnsgd1na2vs0mg"},{"bike_id":"b413d41f-7993-42f5-a3cc-daaaeaf22886","system_id":"levelo_inurba_marseille","lat":43.32488,"lon":5.36562,"is_reserved":false,"is_disabled":false,"rental_uris":{"android":"levelo://app?vid=b413d41f-7993-42f5-a3cc-daaaeaf22886","ios":"levelo://app?vid=b413d41f-7993-42f5-a3cc-daaaeaf22886"},"vehicle_type_id":"4","last_reported":1726150146,"current_range_meters":27600,"station_id":"ce4bhs12rcd13ifvqhvg","pricing_plan_id":"cebpf4jnsgd1na2vs0mg"},{"bike_id":"0eecb013-c59b-4968-b1fd-b060c29894af","system_id":"levelo_inurba_marseille","lat":43.2842,"lon":5.37517,"is_reserved":false,"is_disabled":false,"rental_uris":{"android":"levelo://app?vid=0eecb013-c59b-4968-b1fd-b060c29894af","ios":"levelo://app?vid=0eecb013-c59b-4968-b1fd-b060c29894af"},"vehicle_type_id":"4","last_reported":1726150146,"current_range_meters":28800,"station_id":"ce4bh412rcd13ifvqds0","pricing_plan_id":"cebpf4jnsgd1na2vs0mg"},{"bike_id":"f83d9729-8bff-4b4d-9b71-c5b9162cbd58","system_id":"levelo_inurba_marseille","lat":43.272219,"lon":5.391134,"is_reserved":false,"is_disabled":false,"rental_uris":{"android":"levelo://app?vid=f83d9729-8bff-4b4d-9b71-c5b9162cbd58","ios":"levelo://app?vid=f83d9729-8bff-4b4d-9b71-c5b9162cbd58"},"vehicle_type_id":"4","last_reported":1726150146,"current_range_meters":10800,"station_id":"","pricing_plan_id":"cebpf4jnsgd1na2vs0mg"},{"bike_id":"ce436c74-8382-49a0-9037-30b6397e19af","system_id":"levelo_inurba_marseille","lat":43.24085,"lon":5.37737,"is_reserved":false,"is_disabled":false,"rental_uris":{"android":"levelo://app?vid=ce436c74-8382-49a0-9037-30b6397e19af","ios":"levelo://app?vid=ce436c74-8382-49a0-9037-30b6397e19af"},"vehicle_type_id":"4","last_reported":1726150146,"current_range_meters":30000,"station_id":"ce4bhnp2rcd13ifvqgvg","pricing_plan_id":"cebpf4jnsgd1na2vs0mg"},{"bike_id":"ce32df34-ac4f-413c-abe3-80ff47bec20c","system_id":"levelo_inurba_marseille","lat":43.25828,"lon":5.3943,"is_reserved":false,"is_disabled":false,"rental_uris":{"android":"levelo://app?vid=ce32df34-ac4f-413c-abe3-80ff47bec20c","ios":"levelo://app?vid=ce32df34-ac4f-413c-abe3-80ff47bec20c"},"vehicle_type_id":"4","last_reported":1726150146,"current_range_meters":33600,"station_id":"ce4bhip2rcd13ifvqft0","pricing_plan_id":"cebpf4jnsgd1na2vs0mg"},{"bike_id":"96cb29cb-8da1-4dd6-bd35-ee190827a973","system_id":"levelo_inurba_marseille","lat":43.26563,"lon":5.37283,"is_reserved":false,"is_disabled":false,"rental_uris":{"android":"levelo://app?vid=96cb29cb-8da1-4dd6-bd35-ee190827a973","ios":"levelo://app?vid=96cb29cb-8da1-4dd6-bd35-ee190827a973"},"vehicle_type_id":"4","last_reported":1726150146,"current_range_meters":9600,"station_id":"ce4bhg12rcd13ifvqf70","pricing_plan_id":"cebpf4jnsgd1na2vs0mg"},{"bike_id":"ae3ad6c7-b322-42bb-bf54-fd91ef0db7c7","system_id":"levelo_inurba_marseille","lat":43.24085,"lon":5.37743,"is_reserved":false,"is_disabled":false,"rental_uris":{"android":"levelo://app?vid=ae3ad6c7-b322-42bb-bf54-fd91ef0db7c7","ios":"levelo://app?vid=ae3ad6c7-b322-42bb-bf54-fd91ef0db7c7"},"vehicle_type_id":"4","last_reported":1726150146,"current_range_meters":34800,"station_id":"ce4bhnp2rcd13ifvqgvg","pricing_plan_id":"cebpf4jnsgd1na2vs0mg"},{"bike_id":"ca33d2bf-c9f2-4944-aec8-d1b6204ec37b","system_id":"levelo_inurba_marseille","lat":43.29557,"lon":5.42281,"is_reserved":false,"is_disabled":false,"rental_uris":{"android":"levelo://app?vid=ca33d2bf-c9f2-4944-aec8-d1b6204ec37b","ios":"levelo://app?vid=ca33d2bf-c9f2-4944-aec8-d1b6204ec37b"},"vehicle_type_id":"4","last_reported":1726150146,"current_range_meters":24800,"station_id":"ce4bhph2rcd13ifvqhdg","pricing_plan_id":"cebpf4jnsgd1na2vs0mg"},{"bike_id":"ea725dd4-8715-426e-9c29-6ff15e8219b1","system_id":"levelo_inurba_marseille","lat":43.24081,"lon":5.37756,"is_reserved":false,"is_disabled":false,"rental_uris":{"android":"levelo://app?vid=ea725dd4-8715-426e-9c29-6ff15e8219b1","ios":"levelo://app?vid=ea725dd4-8715-426e-9c29-6ff15e8219b1"},"vehicle_type_id":"4","last_reported":1726150146,"current_range_meters":27200,"station_id":"ce4bhnp2rcd13ifvqgvg","pricing_plan_id":"cebpf4jnsgd1na2vs0mg"},{"bike_id":"e4a5e406-b72a-4f07-9791-f4133102a158","system_id":"levelo_inurba_marseille","lat":43.32486,"lon":5.36565,"is_reserved":false,"is_disabled":false,"rental_uris":{"android":"levelo://app?vid=e4a5e406-b72a-4f07-9791-f4133102a158","ios":"levelo://app?vid=e4a5e406-b72a-4f07-9791-f4133102a158"},"vehicle_type_id":"4","last_reported":1726150146,"current_range_meters":12400,"station_id":"ce4bhs12rcd13ifvqhvg","pricing_plan_id":"cebpf4jnsgd1na2vs0mg"},{"bike_id":"a2f26943-dc2e-4561-b068-dbd68c8f968c","system_id":"levelo_inurba_marseille","lat":43.29013,"lon":5.35607,"is_reserved":false,"is_disabled":false,"rental_uris":{"android":"levelo://app?vid=a2f26943-dc2e-4561-b068-dbd68c8f968c","ios":"levelo://app?vid=a2f26943-dc2e-4561-b068-dbd68c8f968c"},"vehicle_type_id":"4","last_reported":1726150146,"current_range_meters":22400,"station_id":"ce4bhb92rcd13ifvqen0","pricing_plan_id":"cebpf4jnsgd1na2vs0mg"},{"bike_id":"59837249-2cbd-4c07-8a6c-d3192d173b09","system_id":"levelo_inurba_marseille","lat":43.29919,"lon":5.37472,"is_reserved":false,"is_disabled":false,"rental_uris":{"android":"levelo://app?vid=59837249-2cbd-4c07-8a6c-d3192d173b09","ios":"levelo://app?vid=59837249-2cbd-4c07-8a6c-d3192d173b09"},"vehicle_type_id":"4","last_reported":1726150146,"current_range_meters":28000,"station_id":"ce4bgjh2rcd13ifvqbg0","pricing_plan_id":"cebpf4jnsgd1na2vs0mg"},{"bike_id":"254e9c95-b60a-44cc-8505-c762612f94b8","system_id":"levelo_inurba_marseille","lat":43.294373,"lon":5.385248,"is_reserved":false,"is_disabled":false,"rental_uris":{"android":"levelo://app?vid=254e9c95-b60a-44cc-8505-c762612f94b8","ios":"levelo://app?vid=254e9c95-b60a-44cc-8505-c762612f94b8"},"vehicle_type_id":"4","last_reported":1726150146,"current_range_meters":18800,"station_id":"ce4bh2h2rcd13ifvqdh0","pricing_plan_id":"cebpf4jnsgd1na2vs0mg"},{"bike_id":"db2b1e41-7799-4d24-86a4-8b1ea58dca12","system_id":"levelo_inurba_marseille","lat":43.29562,"lon":5.42286,"is_reserved":false,"is_disabled":false,"rental_uris":{"android":"levelo://app?vid=db2b1e41-7799-4d24-86a4-8b1ea58dca12","ios":"levelo://app?vid=db2b1e41-7799-4d24-86a4-8b1ea58dca12"},"vehicle_type_id":"4","last_reported":1726150146,"current_range_meters":24400,"station_id":"ce4bhph2rcd13ifvqhdg","pricing_plan_id":"cebpf4jnsgd1na2vs0mg"},{"bike_id":"08bb5566-8704-43b5-a307-cd706be21243","system_id":"levelo_inurba_marseille","lat":43.23156,"lon":5.43718,"is_reserved":false,"is_disabled":false,"rental_uris":{"android":"levelo://app?vid=08bb5566-8704-43b5-a307-cd706be21243","ios":"levelo://app?vid=08bb5566-8704-43b5-a307-cd706be21243"},"vehicle_type_id":"4","last_reported":1726150146,"current_range_meters":8000,"station_id":"ce4bhmp2rcd13ifvqgog","pricing_plan_id":"cebpf4jnsgd1na2vs0mg"},{"bike_id":"81f07673-dfe5-435a-a081-ff73a26a9256","system_id":"levelo_inurba_marseille","lat":43.24081,"lon":5.37753,"is_reserved":false,"is_disabled":false,"rental_uris":{"android":"levelo://app?vid=81f07673-dfe5-435a-a081-ff73a26a9256","ios":"levelo://app?vid=81f07673-dfe5-435a-a081-ff73a26a9256"},"vehicle_type_id":"4","last_reported":1726150146,"current_range_meters":9200,"station_id":"ce4bhnp2rcd13ifvqgvg","pricing_plan_id":"cebpf4jnsgd1na2vs0mg"},{"bike_id":"321b34f1-062d-49c0-988b-4389915e9625","system_id":"levelo_inurba_marseille","lat":43.28374,"lon":5.38642,"is_reserved":false,"is_disabled":false,"rental_uris":{"android":"levelo://app?vid=321b34f1-062d-49c0-988b-4389915e9625","ios":"levelo://app?vid=321b34f1-062d-49c0-988b-4389915e9625"},"vehicle_type_id":"4","last_reported":1726150146,"current_range_meters":35200,"station_id":"ce4bh492rcd13ifvqdvg","pricing_plan_id":"cebpf4jnsgd1na2vs0mg"},{"bike_id":"02e875d2-df35-4fac-9838-7425c2c862dd","system_id":"levelo_inurba_marseille","lat":43.26572,"lon":5.39008,"is_reserved":false,"is_disabled":false,"rental_uris":{"android":"levelo://app?vid=02e875d2-df35-4fac-9838-7425c2c862dd","ios":"levelo://app?vid=02e875d2-df35-4fac-9838-7425c2c862dd"},"vehicle_type_id":"4","last_reported":1726150146,"current_range_meters":24400,"station_id":"ce4bhe12rcd13ifvqf30","pricing_plan_id":"cebpf4jnsgd1na2vs0mg"},{"bike_id":"0bf903d3-e329-44ed-b03c-fb57aa49b8f3","system_id":"levelo_inurba_marseille","lat":43.28706,"lon":5.39988,"is_reserved":false,"is_disabled":false,"rental_uris":{"android":"levelo://app?vid=0bf903d3-e329-44ed-b03c-fb57aa49b8f3","ios":"levelo://app?vid=0bf903d3-e329-44ed-b03c-fb57aa49b8f3"},"vehicle_type_id":"4","last_reported":1726150146,"current_range_meters":4400,"station_id":"ce4bho92rcd13ifvqh3g","pricing_plan_id":"cebpf4jnsgd1na2vs0mg"},{"bike_id":"cfdd0e5d-34af-414f-999a-c01c6f568ccf","system_id":"levelo_inurba_marseille","lat":43.24546,"lon":5.39524,"is_reserved":false,"is_disabled":false,"rental_uris":{"android":"levelo://app?vid=cfdd0e5d-34af-414f-999a-c01c6f568ccf","ios":"levelo://app?vid=cfdd0e5d-34af-414f-999a-c01c6f568ccf"},"vehicle_type_id":"4","last_reported":1726150146,"current_range_meters":3200,"station_id":"ce4bhlp2rcd13ifvqgjg","pricing_plan_id":"cebpf4jnsgd1na2vs0mg"},{"bike_id":"2c4577b3-3689-495e-a3c3-a78eafd4dc43","system_id":"levelo_inurba_marseille","lat":43.26563,"lon":5.37291,"is_reserved":false,"is_disabled":false,"rental_uris":{"android":"levelo://app?vid=2c4577b3-3689-495e-a3c3-a78eafd4dc43","ios":"levelo://app?vid=2c4577b3-3689-495e-a3c3-a78eafd4dc43"},"vehicle_type_id":"4","last_reported":1726150146,"current_range_meters":26800,"station_id":"ce4bhg12rcd13ifvqf70","pricing_plan_id":"cebpf4jnsgd1na2vs0mg"},{"bike_id":"21adb4a2-7ac3-4fe4-bc1d-227f5322d7f0","system_id":"levelo_inurba_marseille","lat":43.33601,"lon":5.41032,"is_reserved":false,"is_disabled":false,"rental_uris":{"android":"levelo://app?vid=21adb4a2-7ac3-4fe4-bc1d-227f5322d7f0","ios":"levelo://app?vid=21adb4a2-7ac3-4fe4-bc1d-227f5322d7f0"},"vehicle_type_id":"4","last_reported":1726150146,"current_range_meters":3200,"station_id":"ce4bhqh2rcd13ifvqhmg","pricing_plan_id":"cebpf4jnsgd1na2vs0mg"},{"bike_id":"1de49c78-0af1-439a-b625-da2c38e06562","system_id":"levelo_inurba_marseille","lat":43.30894,"lon":5.37188,"is_reserved":false,"is_disabled":false,"rental_uris":{"android":"levelo://app?vid=1de49c78-0af1-439a-b625-da2c38e06562","ios":"levelo://app?vid=1de49c78-0af1-439a-b625-da2c38e06562"},"vehicle_type_id":"4","last_reported":1726150146,"current_range_meters":15200,"station_id":"ce4bguh2rcd13ifvqckg","pricing_plan_id":"cebpf4jnsgd1na2vs0mg"},{"bike_id":"6e02ffc0-6d82-43a2-afe9-d43ef2ef2ed7","system_id":"levelo_inurba_marseille","lat":43.2572,"lon":5.41115,"is_reserved":false,"is_disabled":false,"rental_uris":{"android":"levelo://app?vid=6e02ffc0-6d82-43a2-afe9-d43ef2ef2ed7","ios":"levelo://app?vid=6e02ffc0-6d82-43a2-afe9-d43ef2ef2ed7"},"vehicle_type_id":"4","last_reported":1726150146,"current_range_meters":11600,"station_id":"ce4bhkp2rcd13ifvqgd0","pricing_plan_id":"cebpf4jnsgd1na2vs0mg"},{"bike_id":"60d5bda9-f640-405a-935d-62d1314e50fa","system_id":"levelo_inurba_marseille","lat":43.23982,"lon":5.36608,"is_reserved":false,"is_disabled":false,"rental_uris":{"android":"levelo://app?vid=60d5bda9-f640-405a-935d-62d1314e50fa","ios":"levelo://app?vid=60d5bda9-f640-405a-935d-62d1314e50fa"},"vehicle_type_id":"4","last_reported":1726150146,"current_range_meters":29600,"station_id":"ce4bhi12rcd13ifvqfp0","pricing_plan_id":"cebpf4jnsgd1na2vs0mg"},{"bike_id":"22682857-1547-407e-9978-6c0f5d60c4a6","system_id":"levelo_inurba_marseille","lat":43.302632,"lon":5.400794,"is_reserved":false,"is_disabled":false,"rental_uris":{"android":"levelo://app?vid=22682857-1547-407e-9978-6c0f5d60c4a6","ios":"levelo://app?vid=22682857-1547-407e-9978-6c0f5d60c4a6"},"vehicle_type_id":"4","last_reported":1726150146,"current_range_meters":8400,"station_id":"ce4bhp12rcd13ifvqh9g","pricing_plan_id":"cebpf4jnsgd1na2vs0mg"},{"bike_id":"d970b38c-7387-43bd-989f-d6f74d17f57e","system_id":"levelo_inurba_marseille","lat":43.30538,"lon":5.36532,"is_reserved":false,"is_disabled":false,"rental_uris":{"android":"levelo://app?vid=d970b38c-7387-43bd-989f-d6f74d17f57e","ios":"levelo://app?vid=d970b38c-7387-43bd-989f-d6f74d17f57e"},"vehicle_type_id":"4","last_reported":1726150146,"current_range_meters":38800,"station_id":"ce4bgs12rcd13ifvqcag","pricing_plan_id":"cebpf4jnsgd1na2vs0mg"},{"bike_id":"61cbb08a-277a-4b17-846e-31b7ee5b854f","system_id":"levelo_inurba_marseille","lat":43.29807,"lon":5.38101,"is_reserved":false,"is_disabled":false,"rental_uris":{"android":"levelo://app?vid=61cbb08a-277a-4b17-846e-31b7ee5b854f","ios":"levelo://app?vid=61cbb08a-277a-4b17-846e-31b7ee5b854f"},"vehicle_type_id":"4","last_reported":1726150146,"current_range_meters":14800,"station_id":"ce4bgip2rcd13ifvqbb0","pricing_plan_id":"cebpf4jnsgd1na2vs0mg"},{"bike_id":"0ffa0517-76c8-4eca-ac44-ef6722886452","system_id":"levelo_inurba_marseille","lat":43.30644,"lon":5.40078,"is_reserved":false,"is_disabled":false,"rental_uris":{"android":"levelo://app?vid=0ffa0517-76c8-4eca-ac44-ef6722886452","ios":"levelo://app?vid=0ffa0517-76c8-4eca-ac44-ef6722886452"},"vehicle_type_id":"4","last_reported":1726150146,"current_range_meters":19200,"station_id":"ce4bh112rcd13ifvqda0","pricing_plan_id":"cebpf4jnsgd1na2vs0mg"},{"bike_id":"1d6ff7bc-6be2-42ac-b7c6-551f7cbddb2b","system_id":"levelo_inurba_marseille","lat":43.26206,"lon":5.37934,"is_reserved":false,"is_disabled":false,"rental_uris":{"android":"levelo://app?vid=1d6ff7bc-6be2-42ac-b7c6-551f7cbddb2b","ios":"levelo://app?vid=1d6ff7bc-6be2-42ac-b7c6-551f7cbddb2b"},"vehicle_type_id":"4","last_reported":1726150146,"current_range_meters":3200,"station_id":"ce4bhjp2rcd13ifvqg90","pricing_plan_id":"cebpf4jnsgd1na2vs0mg"},{"bike_id":"8f7b4634-f706-4d0d-ad63-683d83560116","system_id":"levelo_inurba_marseille","lat":43.27908,"lon":5.38002,"is_reserved":false,"is_disabled":false,"rental_uris":{"android":"levelo://app?vid=8f7b4634-f706-4d0d-ad63-683d83560116","ios":"levelo://app?vid=8f7b4634-f706-4d0d-ad63-683d83560116"},"vehicle_type_id":"4","last_reported":1726150146,"current_range_meters":36400,"station_id":"ce4bhf92rcd13ifvqf50","pricing_plan_id":"cebpf4jnsgd1na2vs0mg"},{"bike_id":"a794bbd9-e83e-4910-83a4-566ea7e762eb","system_id":"levelo_inurba_marseille","lat":43.25004,"lon":5.38939,"is_reserved":false,"is_disabled":false,"rental_uris":{"android":"levelo://app?vid=a794bbd9-e83e-4910-83a4-566ea7e762eb","ios":"levelo://app?vid=a794bbd9-e83e-4910-83a4-566ea7e762eb"},"vehicle_type_id":"4","last_reported":1726150146,"current_range_meters":6000,"station_id":"ce4bhgp2rcd13ifvqfd0","pricing_plan_id":"cebpf4jnsgd1na2vs0mg"},{"bike_id":"ac990218-e320-466b-b8bd-4a1f4844c212","system_id":"levelo_inurba_marseille","lat":43.27374,"lon":5.36247,"is_reserved":false,"is_disabled":false,"rental_uris":{"android":"levelo://app?vid=ac990218-e320-466b-b8bd-4a1f4844c212","ios":"levelo://app?vid=ac990218-e320-466b-b8bd-4a1f4844c212"},"vehicle_type_id":"4","last_reported":1726150146,"current_range_meters":16800,"station_id":"ce4bhbh2rcd13ifvqeo0","pricing_plan_id":"cebpf4jnsgd1na2vs0mg"},{"bike_id":"50307943-def8-44f2-a834-9bcb75a4bd41","system_id":"levelo_inurba_marseille","lat":43.30217,"lon":5.39469,"is_reserved":false,"is_disabled":false,"rental_uris":{"android":"levelo://app?vid=50307943-def8-44f2-a834-9bcb75a4bd41","ios":"levelo://app?vid=50307943-def8-44f2-a834-9bcb75a4bd41"},"vehicle_type_id":"4","last_reported":1726150146,"current_range_meters":14800,"station_id":"ce4bh0p2rcd13ifvqd70","pricing_plan_id":"cebpf4jnsgd1na2vs0mg"},{"bike_id":"b863aa5f-396c-4809-a642-42c1a62d9962","system_id":"levelo_inurba_marseille","lat":43.24667,"lon":5.38164,"is_reserved":false,"is_disabled":false,"rental_uris":{"android":"levelo://app?vid=b863aa5f-396c-4809-a642-42c1a62d9962","ios":"levelo://app?vid=b863aa5f-396c-4809-a642-42c1a62d9962"},"vehicle_type_id":"4","last_reported":1726150146,"current_range_meters":38400,"station_id":"ce4bhih2rcd13ifvqfr0","pricing_plan_id":"cebpf4jnsgd1na2vs0mg"},{"bike_id":"368223d1-6dbf-4a0e-924e-bc9f31d20375","system_id":"levelo_inurba_marseille","lat":43.30884,"lon":5.3719,"is_reserved":false,"is_disabled":false,"rental_uris":{"android":"levelo://app?vid=368223d1-6dbf-4a0e-924e-bc9f31d20375","ios":"levelo://app?vid=368223d1-6dbf-4a0e-924e-bc9f31d20375"},"vehicle_type_id":"4","last_reported":1726150146,"current_range_meters":38400,"station_id":"ce4bguh2rcd13ifvqckg","pricing_plan_id":"cebpf4jnsgd1na2vs0mg"},{"bike_id":"c483a0a6-b67e-4d5f-be4e-f472b866d751","system_id":"levelo_inurba_marseille","lat":43.28148,"lon":5.42628,"is_reserved":false,"is_disabled":false,"rental_uris":{"android":"levelo://app?vid=c483a0a6-b67e-4d5f-be4e-f472b866d751","ios":"levelo://app?vid=c483a0a6-b67e-4d5f-be4e-f472b866d751"},"vehicle_type_id":"4","last_reported":1726150146,"current_range_meters":14000,"station_id":"ce4bhnh2rcd13ifvqgug","pricing_plan_id":"cebpf4jnsgd1na2vs0mg"},{"bike_id":"e43aa60c-1314-4d9e-ab0a-d4cc3c0584a4","system_id":"levelo_inurba_marseille","lat":43.2408,"lon":5.37752,"is_reserved":false,"is_disabled":false,"rental_uris":{"android":"levelo://app?vid=e43aa60c-1314-4d9e-ab0a-d4cc3c0584a4","ios":"levelo://app?vid=e43aa60c-1314-4d9e-ab0a-d4cc3c0584a4"},"vehicle_type_id":"4","last_reported":1726150146,"current_range_meters":36400,"station_id":"ce4bhnp2rcd13ifvqgvg","pricing_plan_id":"cebpf4jnsgd1na2vs0mg"},{"bike_id":"8f56aca2-763c-45f0-b62d-dcb7723af9b3","system_id":"levelo_inurba_marseille","lat":43.29266,"lon":5.38435,"is_reserved":false,"is_disabled":false,"rental_uris":{"android":"levelo://app?vid=8f56aca2-763c-45f0-b62d-dcb7723af9b3","ios":"levelo://app?vid=8f56aca2-763c-45f0-b62d-dcb7723af9b3"},"vehicle_type_id":"4","last_reported":1726150146,"current_range_meters":13600,"station_id":"ce4bh692rcd13ifvqea0","pricing_plan_id":"cebpf4jnsgd1na2vs0mg"},{"bike_id":"42f4c576-b9c9-451e-bb09-e9ba24f78231","system_id":"levelo_inurba_marseille","lat":43.2408,"lon":5.37767,"is_reserved":false,"is_disabled":false,"rental_uris":{"android":"levelo://app?vid=42f4c576-b9c9-451e-bb09-e9ba24f78231","ios":"levelo://app?vid=42f4c576-b9c9-451e-bb09-e9ba24f78231"},"vehicle_type_id":"4","last_reported":1726150146,"current_range_meters":33200,"station_id":"ce4bhnp2rcd13ifvqgvg","pricing_plan_id":"cebpf4jnsgd1na2vs0mg"},{"bike_id":"dc673159-4558-442e-82c9-34dc9a337649","system_id":"levelo_inurba_marseille","lat":43.29926,"lon":5.37585,"is_reserved":false,"is_disabled":false,"rental_uris":{"android":"levelo://app?vid=dc673159-4558-442e-82c9-34dc9a337649","ios":"levelo://app?vid=dc673159-4558-442e-82c9-34dc9a337649"},"vehicle_type_id":"4","last_reported":1726150146,"current_range_meters":17600,"station_id":"","pricing_plan_id":"cebpf4jnsgd1na2vs0mg"},{"bike_id":"dfd604c4-221b-442d-8f0c-5524a0446526","system_id":"levelo_inurba_marseille","lat":43.30289,"lon":5.37699,"is_reserved":false,"is_disabled":false,"rental_uris":{"android":"levelo://app?vid=dfd604c4-221b-442d-8f0c-5524a0446526","ios":"levelo://app?vid=dfd604c4-221b-442d-8f0c-5524a0446526"},"vehicle_type_id":"4","last_reported":1726150146,"current_range_meters":38800,"station_id":"ce4bguh2rcd13ifvqcj0","pricing_plan_id":"cebpf4jnsgd1na2vs0mg"},{"bike_id":"7d6c7e08-bbaf-4660-8a46-89627ad3cdb8","system_id":"levelo_inurba_marseille","lat":43.30207,"lon":5.39464,"is_reserved":false,"is_disabled":false,"rental_uris":{"android":"levelo://app?vid=7d6c7e08-bbaf-4660-8a46-89627ad3cdb8","ios":"levelo://app?vid=7d6c7e08-bbaf-4660-8a46-89627ad3cdb8"},"vehicle_type_id":"4","last_reported":1726150146,"current_range_meters":10000,"station_id":"ce4bh0p2rcd13ifvqd70","pricing_plan_id":"cebpf4jnsgd1na2vs0mg"},{"bike_id":"7d348dd9-aba5-4535-bda9-b52ada6017ef","system_id":"levelo_inurba_marseille","lat":43.26199,"lon":5.37451,"is_reserved":false,"is_disabled":false,"rental_uris":{"android":"levelo://app?vid=7d348dd9-aba5-4535-bda9-b52ada6017ef","ios":"levelo://app?vid=7d348dd9-aba5-4535-bda9-b52ada6017ef"},"vehicle_type_id":"4","last_reported":1726150146,"current_range_meters":36400,"station_id":"ce4bhgp2rcd13ifvqfc0","pricing_plan_id":"cebpf4jnsgd1na2vs0mg"},{"bike_id":"9f7ee0be-e9c7-4974-9a33-f647d44b45df","system_id":"levelo_inurba_marseille","lat":43.31235,"lon":5.36855,"is_reserved":false,"is_disabled":false,"rental_uris":{"android":"levelo://app?vid=9f7ee0be-e9c7-4974-9a33-f647d44b45df","ios":"levelo://app?vid=9f7ee0be-e9c7-4974-9a33-f647d44b45df"},"vehicle_type_id":"4","last_reported":1726150146,"current_range_meters":30800,"station_id":"ce4bgl92rcd13ifvqbq0","pricing_plan_id":"cebpf4jnsgd1na2vs0mg"},{"bike_id":"7f6c41c3-b2a7-4559-8f9f-86191ac2c410","system_id":"levelo_inurba_marseille","lat":43.25589,"lon":5.38237,"is_reserved":false,"is_disabled":false,"rental_uris":{"android":"levelo://app?vid=7f6c41c3-b2a7-4559-8f9f-86191ac2c410","ios":"levelo://app?vid=7f6c41c3-b2a7-4559-8f9f-86191ac2c410"},"vehicle_type_id":"4","last_reported":1726150146,"current_range_meters":37600,"station_id":"ce4bhih2rcd13ifvqfs0","pricing_plan_id":"cebpf4jnsgd1na2vs0mg"},{"bike_id":"633ece75-4830-4a1c-9d86-b975e3856710","system_id":"levelo_inurba_marseille","lat":43.31127,"lon":5.37766,"is_reserved":false,"is_disabled":false,"rental_uris":{"android":"levelo://app?vid=633ece75-4830-4a1c-9d86-b975e3856710","ios":"levelo://app?vid=633ece75-4830-4a1c-9d86-b975e3856710"},"vehicle_type_id":"4","last_reported":1726150146,"current_range_meters":7200,"station_id":"ce4bgt92rcd13ifvqcg0","pricing_plan_id":"cebpf4jnsgd1na2vs0mg"},{"bike_id":"8fa69eb8-1a55-49f2-bed4-e655bbb0033b","system_id":"levelo_inurba_marseille","lat":43.29256,"lon":5.40905,"is_reserved":false,"is_disabled":false,"rental_uris":{"android":"levelo://app?vid=8fa69eb8-1a55-49f2-bed4-e655bbb0033b","ios":"levelo://app?vid=8fa69eb8-1a55-49f2-bed4-e655bbb0033b"},"vehicle_type_id":"4","last_reported":1726150146,"current_range_meters":4800,"station_id":"ce4bh192rcd13ifvqdc0","pricing_plan_id":"cebpf4jnsgd1na2vs0mg"},{"bike_id":"19510ac0-bff4-45d4-bdb2-93c175745534","system_id":"levelo_inurba_marseille","lat":43.29723,"lon":5.37682,"is_reserved":false,"is_disabled":false,"rental_uris":{"android":"levelo://app?vid=19510ac0-bff4-45d4-bdb2-93c175745534","ios":"levelo://app?vid=19510ac0-bff4-45d4-bdb2-93c175745534"},"vehicle_type_id":"4","last_reported":1726150146,"current_range_meters":32800,"station_id":"ce4bgkh2rcd13ifvqbl0","pricing_plan_id":"cebpf4jnsgd1na2vs0mg"},{"bike_id":"cd2104e9-fe8f-4a8d-a2d7-15eafb601787","system_id":"levelo_inurba_marseille","lat":43.31229,"lon":5.36831,"is_reserved":false,"is_disabled":false,"rental_uris":{"android":"levelo://app?vid=cd2104e9-fe8f-4a8d-a2d7-15eafb601787","ios":"levelo://app?vid=cd2104e9-fe8f-4a8d-a2d7-15eafb601787"},"vehicle_type_id":"4","last_reported":1726150146,"current_range_meters":38400,"station_id":"ce4bgl92rcd13ifvqbq0","pricing_plan_id":"cebpf4jnsgd1na2vs0mg"},{"bike_id":"6d0ed854-e2c4-4b46-b4a0-fbef76d06942","system_id":"levelo_inurba_marseille","lat":43.2658,"lon":5.39008,"is_reserved":false,"is_disabled":false,"rental_uris":{"android":"levelo://app?vid=6d0ed854-e2c4-4b46-b4a0-fbef76d06942","ios":"levelo://app?vid=6d0ed854-e2c4-4b46-b4a0-fbef76d06942"},"vehicle_type_id":"4","last_reported":1726150146,"current_range_meters":20000,"station_id":"ce4bhe12rcd13ifvqf30","pricing_plan_id":"cebpf4jnsgd1na2vs0mg"},{"bike_id":"1fb6226d-6c77-4ced-8134-9d4401cd7867","system_id":"levelo_inurba_marseille","lat":43.24176,"lon":5.39722,"is_reserved":false,"is_disabled":false,"rental_uris":{"android":"levelo://app?vid=1fb6226d-6c77-4ced-8134-9d4401cd7867","ios":"levelo://app?vid=1fb6226d-6c77-4ced-8134-9d4401cd7867"},"vehicle_type_id":"4","last_reported":1726150146,"current_range_meters":36800,"station_id":"ce4bhn12rcd13ifvqgpg","pricing_plan_id":"cebpf4jnsgd1na2vs0mg"},{"bike_id":"2e124a7a-275a-4db2-b3b6-68381ae43f6d","system_id":"levelo_inurba_marseille","lat":43.29008,"lon":5.3561,"is_reserved":false,"is_disabled":false,"rental_uris":{"android":"levelo://app?vid=2e124a7a-275a-4db2-b3b6-68381ae43f6d","ios":"levelo://app?vid=2e124a7a-275a-4db2-b3b6-68381ae43f6d"},"vehicle_type_id":"4","last_reported":1726150146,"current_range_meters":38800,"station_id":"ce4bhb92rcd13ifvqen0","pricing_plan_id":"cebpf4jnsgd1na2vs0mg"},{"bike_id":"8d6ef0a0-3beb-4379-88e9-0e71002572ef","system_id":"levelo_inurba_marseille","lat":43.273041,"lon":5.390666,"is_reserved":false,"is_disabled":false,"rental_uris":{"android":"levelo://app?vid=8d6ef0a0-3beb-4379-88e9-0e71002572ef","ios":"levelo://app?vid=8d6ef0a0-3beb-4379-88e9-0e71002572ef"},"vehicle_type_id":"4","last_reported":1726150146,"current_range_meters":18800,"station_id":"ce4bhgp2rcd13ifvqfe0","pricing_plan_id":"cebpf4jnsgd1na2vs0mg"},{"bike_id":"dc5dca54-8ebf-43b2-acf8-9ae498c9992e","system_id":"levelo_inurba_marseille","lat":43.29543,"lon":5.38546,"is_reserved":false,"is_disabled":false,"rental_uris":{"android":"levelo://app?vid=dc5dca54-8ebf-43b2-acf8-9ae498c9992e","ios":"levelo://app?vid=dc5dca54-8ebf-43b2-acf8-9ae498c9992e"},"vehicle_type_id":"4","last_reported":1726150146,"current_range_meters":35200,"station_id":"ce4bgih2rcd13ifvqba0","pricing_plan_id":"cebpf4jnsgd1na2vs0mg"},{"bike_id":"a5eb67ab-76b0-4200-9a0d-c31f911a6583","system_id":"levelo_inurba_marseille","lat":43.30146,"lon":5.39864,"is_reserved":false,"is_disabled":false,"rental_uris":{"android":"levelo://app?vid=a5eb67ab-76b0-4200-9a0d-c31f911a6583","ios":"levelo://app?vid=a5eb67ab-76b0-4200-9a0d-c31f911a6583"},"vehicle_type_id":"4","last_reported":1726150146,"current_range_meters":6800,"station_id":"ce4bh0h2rcd13ifvqd40","pricing_plan_id":"cebpf4jnsgd1na2vs0mg"},{"bike_id":"deaeb920-23ab-4b51-a90a-3a4d369b9959","system_id":"levelo_inurba_marseille","lat":43.26569,"lon":5.37281,"is_reserved":false,"is_disabled":false,"rental_uris":{"android":"levelo://app?vid=deaeb920-23ab-4b51-a90a-3a4d369b9959","ios":"levelo://app?vid=deaeb920-23ab-4b51-a90a-3a4d369b9959"},"vehicle_type_id":"4","last_reported":1726150146,"current_range_meters":12000,"station_id":"ce4bhg12rcd13ifvqf70","pricing_plan_id":"cebpf4jnsgd1na2vs0mg"},{"bike_id":"2978c8ef-7735-4057-b33e-747fe355072e","system_id":"levelo_inurba_marseille","lat":43.25909,"lon":5.37601,"is_reserved":false,"is_disabled":false,"rental_uris":{"android":"levelo://app?vid=2978c8ef-7735-4057-b33e-747fe355072e","ios":"levelo://app?vid=2978c8ef-7735-4057-b33e-747fe355072e"},"vehicle_type_id":"4","last_reported":1726150146,"current_range_meters":4000,"station_id":"","pricing_plan_id":"cebpf4jnsgd1na2vs0mg"},{"bike_id":"6937cb5d-7d03-4b67-a4a2-9feeef6e6dd1","system_id":"levelo_inurba_marseille","lat":43.28083,"lon":5.39664,"is_reserved":false,"is_disabled":false,"rental_uris":{"android":"levelo://app?vid=6937cb5d-7d03-4b67-a4a2-9feeef6e6dd1","ios":"levelo://app?vid=6937cb5d-7d03-4b67-a4a2-9feeef6e6dd1"},"vehicle_type_id":"4","last_reported":1726150146,"current_range_meters":23200,"station_id":"ce4bho12rcd13ifvqh2g","pricing_plan_id":"cebpf4jnsgd1na2vs0mg"},{"bike_id":"6b23265d-b8ac-4136-a0f9-07c4f0436fa5","system_id":"levelo_inurba_marseille","lat":43.29613,"lon":5.370827,"is_reserved":false,"is_disabled":false,"rental_uris":{"android":"levelo://app?vid=6b23265d-b8ac-4136-a0f9-07c4f0436fa5","ios":"levelo://app?vid=6b23265d-b8ac-4136-a0f9-07c4f0436fa5"},"vehicle_type_id":"4","last_reported":1726150146,"current_range_meters":18800,"station_id":"ce4bgnh2rcd13ifvqc0g","pricing_plan_id":"cebpf4jnsgd1na2vs0mg"},{"bike_id":"50697edf-455f-44a7-b908-3550073eeea4","system_id":"levelo_inurba_marseille","lat":43.295767,"lon":5.399801,"is_reserved":false,"is_disabled":false,"rental_uris":{"android":"levelo://app?vid=50697edf-455f-44a7-b908-3550073eeea4","ios":"levelo://app?vid=50697edf-455f-44a7-b908-3550073eeea4"},"vehicle_type_id":"4","last_reported":1726150146,"current_range_meters":30000,"station_id":"ce4bh312rcd13ifvqdj0","pricing_plan_id":"cebpf4jnsgd1na2vs0mg"},{"bike_id":"c6e9aa7c-b27d-4cf5-9ee9-64bc9c26ee8c","system_id":"levelo_inurba_marseille","lat":43.29264,"lon":5.38444,"is_reserved":false,"is_disabled":false,"rental_uris":{"android":"levelo://app?vid=c6e9aa7c-b27d-4cf5-9ee9-64bc9c26ee8c","ios":"levelo://app?vid=c6e9aa7c-b27d-4cf5-9ee9-64bc9c26ee8c"},"vehicle_type_id":"4","last_reported":1726150146,"current_range_meters":3600,"station_id":"ce4bh692rcd13ifvqea0","pricing_plan_id":"cebpf4jnsgd1na2vs0mg"},{"bike_id":"b3fbdb0d-4ca2-4439-a10a-2cfb15b9e481","system_id":"levelo_inurba_marseille","lat":43.30307,"lon":5.3922,"is_reserved":false,"is_disabled":false,"rental_uris":{"android":"levelo://app?vid=b3fbdb0d-4ca2-4439-a10a-2cfb15b9e481","ios":"levelo://app?vid=b3fbdb0d-4ca2-4439-a10a-2cfb15b9e481"},"vehicle_type_id":"4","last_reported":1726150146,"current_range_meters":19600,"station_id":"ce4bgkh2rcd13ifvqbk0","pricing_plan_id":"cebpf4jnsgd1na2vs0mg"},{"bike_id":"5b447c57-133e-42cd-827f-e526e0bfeef2","system_id":"levelo_inurba_marseille","lat":43.31356,"lon":5.36718,"is_reserved":false,"is_disabled":false,"rental_uris":{"android":"levelo://app?vid=5b447c57-133e-42cd-827f-e526e0bfeef2","ios":"levelo://app?vid=5b447c57-133e-42cd-827f-e526e0bfeef2"},"vehicle_type_id":"4","last_reported":1726150146,"current_range_meters":39200,"station_id":"ce4bgr92rcd13ifvqc6g","pricing_plan_id":"cebpf4jnsgd1na2vs0mg"},{"bike_id":"b339ada7-e3c9-4078-8ab9-62d2173286d7","system_id":"levelo_inurba_marseille","lat":43.30535,"lon":5.36541,"is_reserved":false,"is_disabled":false,"rental_uris":{"android":"levelo://app?vid=b339ada7-e3c9-4078-8ab9-62d2173286d7","ios":"levelo://app?vid=b339ada7-e3c9-4078-8ab9-62d2173286d7"},"vehicle_type_id":"4","last_reported":1726150146,"current_range_meters":23200,"station_id":"ce4bgs12rcd13ifvqcag","pricing_plan_id":"cebpf4jnsgd1na2vs0mg"},{"bike_id":"728a089e-76be-4def-9fb1-4a89f66fee2d","system_id":"levelo_inurba_marseille","lat":43.290039,"lon":5.386715,"is_reserved":false,"is_disabled":false,"rental_uris":{"android":"levelo://app?vid=728a089e-76be-4def-9fb1-4a89f66fee2d","ios":"levelo://app?vid=728a089e-76be-4def-9fb1-4a89f66fee2d"},"vehicle_type_id":"4","last_reported":1726150146,"current_range_meters":6800,"station_id":"ce4bh4p2rcd13ifvqe0g","pricing_plan_id":"cebpf4jnsgd1na2vs0mg"},{"bike_id":"7a9db6cc-034f-4ca0-a824-db851afb7f24","system_id":"levelo_inurba_marseille","lat":43.31239,"lon":5.3686,"is_reserved":false,"is_disabled":false,"rental_uris":{"android":"levelo://app?vid=7a9db6cc-034f-4ca0-a824-db851afb7f24","ios":"levelo://app?vid=7a9db6cc-034f-4ca0-a824-db851afb7f24"},"vehicle_type_id":"4","last_reported":1726150146,"current_range_meters":27600,"station_id":"ce4bgl92rcd13ifvqbq0","pricing_plan_id":"cebpf4jnsgd1na2vs0mg"},{"bike_id":"c5e96473-727a-418c-919e-8d3acae62332","system_id":"levelo_inurba_marseille","lat":43.29361,"lon":5.372522,"is_reserved":false,"is_disabled":false,"rental_uris":{"android":"levelo://app?vid=c5e96473-727a-418c-919e-8d3acae62332","ios":"levelo://app?vid=c5e96473-727a-418c-919e-8d3acae62332"},"vehicle_type_id":"4","last_reported":1726150146,"current_range_meters":10000,"station_id":"ce4bgh92rcd13ifvqb40","pricing_plan_id":"cebpf4jnsgd1na2vs0mg"},{"bike_id":"154af444-4633-483b-80c7-69a9052406d2","system_id":"levelo_inurba_marseille","lat":43.27377,"lon":5.36259,"is_reserved":false,"is_disabled":false,"rental_uris":{"android":"levelo://app?vid=154af444-4633-483b-80c7-69a9052406d2","ios":"levelo://app?vid=154af444-4633-483b-80c7-69a9052406d2"},"vehicle_type_id":"4","last_reported":1726150146,"current_range_meters":28800,"station_id":"ce4bhbh2rcd13ifvqeo0","pricing_plan_id":"cebpf4jnsgd1na2vs0mg"},{"bike_id":"a78102a0-bfeb-4bfd-a176-51b3099f4535","system_id":"levelo_inurba_marseille","lat":43.24083,"lon":5.3775,"is_reserved":false,"is_disabled":false,"rental_uris":{"android":"levelo://app?vid=a78102a0-bfeb-4bfd-a176-51b3099f4535","ios":"levelo://app?vid=a78102a0-bfeb-4bfd-a176-51b3099f4535"},"vehicle_type_id":"4","last_reported":1726150146,"current_range_meters":25200,"station_id":"ce4bhnp2rcd13ifvqgvg","pricing_plan_id":"cebpf4jnsgd1na2vs0mg"},{"bike_id":"a4899550-8fe9-4599-b91d-f640e0a6ec0f","system_id":"levelo_inurba_marseille","lat":43.31714,"lon":5.37738,"is_reserved":false,"is_disabled":false,"rental_uris":{"android":"levelo://app?vid=a4899550-8fe9-4599-b91d-f640e0a6ec0f","ios":"levelo://app?vid=a4899550-8fe9-4599-b91d-f640e0a6ec0f"},"vehicle_type_id":"4","last_reported":1726150146,"current_range_meters":8400,"station_id":"ce4bgth2rcd13ifvqch0","pricing_plan_id":"cebpf4jnsgd1na2vs0mg"},{"bike_id":"1b6b4677-9c6b-4e29-9bf6-abb793cfb377","system_id":"levelo_inurba_marseille","lat":43.29224,"lon":5.36057,"is_reserved":false,"is_disabled":false,"rental_uris":{"android":"levelo://app?vid=1b6b4677-9c6b-4e29-9bf6-abb793cfb377","ios":"levelo://app?vid=1b6b4677-9c6b-4e29-9bf6-abb793cfb377"},"vehicle_type_id":"4","last_reported":1726150146,"current_range_meters":8800,"station_id":"ce4bhbh2rcd13ifvqeqg","pricing_plan_id":"cebpf4jnsgd1na2vs0mg"},{"bike_id":"8fbc0af9-06af-4008-9113-da08b1db43f7","system_id":"levelo_inurba_marseille","lat":43.30425,"lon":5.3975,"is_reserved":false,"is_disabled":false,"rental_uris":{"android":"levelo://app?vid=8fbc0af9-06af-4008-9113-da08b1db43f7","ios":"levelo://app?vid=8fbc0af9-06af-4008-9113-da08b1db43f7"},"vehicle_type_id":"4","last_reported":1726150146,"current_range_meters":18000,"station_id":"ce4bh092rcd13ifvqd20","pricing_plan_id":"cebpf4jnsgd1na2vs0mg"},{"bike_id":"339f204f-150a-43aa-a80a-90483dee3923","system_id":"levelo_inurba_marseille","lat":43.29626,"lon":5.37169,"is_reserved":false,"is_disabled":false,"rental_uris":{"android":"levelo://app?vid=339f204f-150a-43aa-a80a-90483dee3923","ios":"levelo://app?vid=339f204f-150a-43aa-a80a-90483dee3923"},"vehicle_type_id":"4","last_reported":1726150146,"current_range_meters":30800,"station_id":"ce4bgnh2rcd13ifvqc0g","pricing_plan_id":"cebpf4jnsgd1na2vs0mg"},{"bike_id":"2650f79b-83f0-4c39-8504-6c82ac2ebdaa","system_id":"levelo_inurba_marseille","lat":43.32488,"lon":5.36561,"is_reserved":false,"is_disabled":false,"rental_uris":{"android":"levelo://app?vid=2650f79b-83f0-4c39-8504-6c82ac2ebdaa","ios":"levelo://app?vid=2650f79b-83f0-4c39-8504-6c82ac2ebdaa"},"vehicle_type_id":"4","last_reported":1726150146,"current_range_meters":22000,"station_id":"ce4bhs12rcd13ifvqhvg","pricing_plan_id":"cebpf4jnsgd1na2vs0mg"},{"bike_id":"efd87642-0fdd-4114-88d3-b4cff6d6dca8","system_id":"levelo_inurba_marseille","lat":43.29261,"lon":5.38447,"is_reserved":false,"is_disabled":false,"rental_uris":{"android":"levelo://app?vid=efd87642-0fdd-4114-88d3-b4cff6d6dca8","ios":"levelo://app?vid=efd87642-0fdd-4114-88d3-b4cff6d6dca8"},"vehicle_type_id":"4","last_reported":1726150146,"current_range_meters":30800,"station_id":"ce4bh692rcd13ifvqea0","pricing_plan_id":"cebpf4jnsgd1na2vs0mg"},{"bike_id":"9b8f0a3a-7dff-4fff-96a7-b5a6deeace85","system_id":"levelo_inurba_marseille","lat":43.23989,"lon":5.36608,"is_reserved":false,"is_disabled":false,"rental_uris":{"android":"levelo://app?vid=9b8f0a3a-7dff-4fff-96a7-b5a6deeace85","ios":"levelo://app?vid=9b8f0a3a-7dff-4fff-96a7-b5a6deeace85"},"vehicle_type_id":"4","last_reported":1726150146,"current_range_meters":8000,"station_id":"ce4bhi12rcd13ifvqfp0","pricing_plan_id":"cebpf4jnsgd1na2vs0mg"},{"bike_id":"0b708f21-60a7-4fc3-ac8b-c912807b5a30","system_id":"levelo_inurba_marseille","lat":43.2679,"lon":5.39413,"is_reserved":false,"is_disabled":false,"rental_uris":{"android":"levelo://app?vid=0b708f21-60a7-4fc3-ac8b-c912807b5a30","ios":"levelo://app?vid=0b708f21-60a7-4fc3-ac8b-c912807b5a30"},"vehicle_type_id":"4","last_reported":1726150146,"current_range_meters":28000,"station_id":"ce4bhh12rcd13ifvqfg0","pricing_plan_id":"cebpf4jnsgd1na2vs0mg"},{"bike_id":"64cc8cd9-5ab1-46c8-92e8-a82dc352828e","system_id":"levelo_inurba_marseille","lat":43.29541,"lon":5.393456,"is_reserved":false,"is_disabled":false,"rental_uris":{"android":"levelo://app?vid=64cc8cd9-5ab1-46c8-92e8-a82dc352828e","ios":"levelo://app?vid=64cc8cd9-5ab1-46c8-92e8-a82dc352828e"},"vehicle_type_id":"4","last_reported":1726150146,"current_range_meters":27600,"station_id":"ce4bh292rcd13ifvqdf0","pricing_plan_id":"cebpf4jnsgd1na2vs0mg"},{"bike_id":"39b0a492-2ee4-4082-917a-7dac592a8cea","system_id":"levelo_inurba_marseille","lat":43.2972,"lon":5.3769,"is_reserved":false,"is_disabled":false,"rental_uris":{"android":"levelo://app?vid=39b0a492-2ee4-4082-917a-7dac592a8cea","ios":"levelo://app?vid=39b0a492-2ee4-4082-917a-7dac592a8cea"},"vehicle_type_id":"4","last_reported":1726150146,"current_range_meters":22000,"station_id":"ce4bgkh2rcd13ifvqbl0","pricing_plan_id":"cebpf4jnsgd1na2vs0mg"},{"bike_id":"a90b3083-ba78-472c-8cab-9482b6dd16f4","system_id":"levelo_inurba_marseille","lat":43.2559,"lon":5.38232,"is_reserved":false,"is_disabled":false,"rental_uris":{"android":"levelo://app?vid=a90b3083-ba78-472c-8cab-9482b6dd16f4","ios":"levelo://app?vid=a90b3083-ba78-472c-8cab-9482b6dd16f4"},"vehicle_type_id":"4","last_reported":1726150146,"current_range_meters":29600,"station_id":"ce4bhih2rcd13ifvqfs0","pricing_plan_id":"cebpf4jnsgd1na2vs0mg"},{"bike_id":"fc1c1c5c-b12c-4e98-9b4f-194e7f9d2519","system_id":"levelo_inurba_marseille","lat":43.30804,"lon":5.38144,"is_reserved":false,"is_disabled":false,"rental_uris":{"android":"levelo://app?vid=fc1c1c5c-b12c-4e98-9b4f-194e7f9d2519","ios":"levelo://app?vid=fc1c1c5c-b12c-4e98-9b4f-194e7f9d2519"},"vehicle_type_id":"4","last_reported":1726150146,"current_range_meters":35600,"station_id":"ce4bgt12rcd13ifvqce0","pricing_plan_id":"cebpf4jnsgd1na2vs0mg"},{"bike_id":"dd2d66a6-976d-43e6-83be-d6211ff78acc","system_id":"levelo_inurba_marseille","lat":43.33733,"lon":5.3918,"is_reserved":false,"is_disabled":false,"rental_uris":{"android":"levelo://app?vid=dd2d66a6-976d-43e6-83be-d6211ff78acc","ios":"levelo://app?vid=dd2d66a6-976d-43e6-83be-d6211ff78acc"},"vehicle_type_id":"4","last_reported":1726150146,"current_range_meters":11200,"station_id":"ce4bhr92rcd13ifvqhsg","pricing_plan_id":"cebpf4jnsgd1na2vs0mg"},{"bike_id":"5ef7b96a-1cb8-4f42-af16-3a0d049b19cc","system_id":"levelo_inurba_marseille","lat":43.29555,"lon":5.42287,"is_reserved":false,"is_disabled":false,"rental_uris":{"android":"levelo://app?vid=5ef7b96a-1cb8-4f42-af16-3a0d049b19cc","ios":"levelo://app?vid=5ef7b96a-1cb8-4f42-af16-3a0d049b19cc"},"vehicle_type_id":"4","last_reported":1726150146,"current_range_meters":12800,"station_id":"ce4bhph2rcd13ifvqhdg","pricing_plan_id":"cebpf4jnsgd1na2vs0mg"},{"bike_id":"62e9d9d5-f20c-4d5a-a219-f299765a03a7","system_id":"levelo_inurba_marseille","lat":43.2795,"lon":5.41047,"is_reserved":false,"is_disabled":false,"rental_uris":{"android":"levelo://app?vid=62e9d9d5-f20c-4d5a-a219-f299765a03a7","ios":"levelo://app?vid=62e9d9d5-f20c-4d5a-a219-f299765a03a7"},"vehicle_type_id":"4","last_reported":1726150146,"current_range_meters":2800,"station_id":"ce4bhnp2rcd13ifvqh0g","pricing_plan_id":"cebpf4jnsgd1na2vs0mg"},{"bike_id":"7b16d790-f48c-4f07-a17e-934045f8b950","system_id":"levelo_inurba_marseille","lat":43.3015,"lon":5.39888,"is_reserved":false,"is_disabled":false,"rental_uris":{"android":"levelo://app?vid=7b16d790-f48c-4f07-a17e-934045f8b950","ios":"levelo://app?vid=7b16d790-f48c-4f07-a17e-934045f8b950"},"vehicle_type_id":"4","last_reported":1726150146,"current_range_meters":30000,"station_id":"ce4bh0h2rcd13ifvqd40","pricing_plan_id":"cebpf4jnsgd1na2vs0mg"},{"bike_id":"33b083fb-ff53-40c5-be9d-074bcef857d3","system_id":"levelo_inurba_marseille","lat":43.28008,"lon":5.4002,"is_reserved":false,"is_disabled":false,"rental_uris":{"android":"levelo://app?vid=33b083fb-ff53-40c5-be9d-074bcef857d3","ios":"levelo://app?vid=33b083fb-ff53-40c5-be9d-074bcef857d3"},"vehicle_type_id":"4","last_reported":1726150146,"current_range_meters":33200,"station_id":"ce4bho92rcd13ifvqh4g","pricing_plan_id":"cebpf4jnsgd1na2vs0mg"},{"bike_id":"d63b08fd-7716-422a-94e4-8f1dfff5bb11","system_id":"levelo_inurba_marseille","lat":43.28616,"lon":5.35102,"is_reserved":false,"is_disabled":false,"rental_uris":{"android":"levelo://app?vid=d63b08fd-7716-422a-94e4-8f1dfff5bb11","ios":"levelo://app?vid=d63b08fd-7716-422a-94e4-8f1dfff5bb11"},"vehicle_type_id":"4","last_reported":1726150146,"current_range_meters":18000,"station_id":"ce4bhch2rcd13ifvqeug","pricing_plan_id":"cebpf4jnsgd1na2vs0mg"},{"bike_id":"d32c8681-5c25-4caa-8515-f43cd3d9d0d7","system_id":"levelo_inurba_marseille","lat":43.24084,"lon":5.37732,"is_reserved":false,"is_disabled":false,"rental_uris":{"android":"levelo://app?vid=d32c8681-5c25-4caa-8515-f43cd3d9d0d7","ios":"levelo://app?vid=d32c8681-5c25-4caa-8515-f43cd3d9d0d7"},"vehicle_type_id":"4","last_reported":1726150146,"current_range_meters":25600,"station_id":"ce4bhnp2rcd13ifvqgvg","pricing_plan_id":"cebpf4jnsgd1na2vs0mg"},{"bike_id":"7ad9c4c2-8e82-4e19-bf1e-a8777466a1dc","system_id":"levelo_inurba_marseille","lat":43.28423,"lon":5.34991,"is_reserved":false,"is_disabled":false,"rental_uris":{"android":"levelo://app?vid=7ad9c4c2-8e82-4e19-bf1e-a8777466a1dc","ios":"levelo://app?vid=7ad9c4c2-8e82-4e19-bf1e-a8777466a1dc"},"vehicle_type_id":"4","last_reported":1726150146,"current_range_meters":38400,"station_id":"ce4bhbh2rcd13ifvqepg","pricing_plan_id":"cebpf4jnsgd1na2vs0mg"},{"bike_id":"9b0bddf8-22ef-4a8c-8650-bc3acf6ca0ba","system_id":"levelo_inurba_marseille","lat":43.28463,"lon":5.35893,"is_reserved":false,"is_disabled":false,"rental_uris":{"android":"levelo://app?vid=9b0bddf8-22ef-4a8c-8650-bc3acf6ca0ba","ios":"levelo://app?vid=9b0bddf8-22ef-4a8c-8650-bc3acf6ca0ba"},"vehicle_type_id":"4","last_reported":1726150146,"current_range_meters":17200,"station_id":"ce4bhah2rcd13ifvqei0","pricing_plan_id":"cebpf4jnsgd1na2vs0mg"},{"bike_id":"0137edf9-4cfa-40b6-ad64-2a40be855ebf","system_id":"levelo_inurba_marseille","lat":43.28472,"lon":5.3589,"is_reserved":false,"is_disabled":false,"rental_uris":{"android":"levelo://app?vid=0137edf9-4cfa-40b6-ad64-2a40be855ebf","ios":"levelo://app?vid=0137edf9-4cfa-40b6-ad64-2a40be855ebf"},"vehicle_type_id":"4","last_reported":1726150146,"current_range_meters":28800,"station_id":"ce4bhah2rcd13ifvqei0","pricing_plan_id":"cebpf4jnsgd1na2vs0mg"},{"bike_id":"41e2e5fd-b260-448a-a951-bddcd9555fd0","system_id":"levelo_inurba_marseille","lat":43.25838,"lon":5.39431,"is_reserved":false,"is_disabled":false,"rental_uris":{"android":"levelo://app?vid=41e2e5fd-b260-448a-a951-bddcd9555fd0","ios":"levelo://app?vid=41e2e5fd-b260-448a-a951-bddcd9555fd0"},"vehicle_type_id":"4","last_reported":1726150146,"current_range_meters":31200,"station_id":"ce4bhip2rcd13ifvqft0","pricing_plan_id":"cebpf4jnsgd1na2vs0mg"},{"bike_id":"8cecfdc6-d172-45b1-b59c-53e1a549ead6","system_id":"levelo_inurba_marseille","lat":43.29626,"lon":5.37162,"is_reserved":false,"is_disabled":false,"rental_uris":{"android":"levelo://app?vid=8cecfdc6-d172-45b1-b59c-53e1a549ead6","ios":"levelo://app?vid=8cecfdc6-d172-45b1-b59c-53e1a549ead6"},"vehicle_type_id":"4","last_reported":1726150146,"current_range_meters":36400,"station_id":"ce4bgnh2rcd13ifvqc0g","pricing_plan_id":"cebpf4jnsgd1na2vs0mg"},{"bike_id":"703c5b25-1435-45b2-8c89-d7647aa322b9","system_id":"levelo_inurba_marseille","lat":43.31329,"lon":5.36754,"is_reserved":false,"is_disabled":false,"rental_uris":{"android":"levelo://app?vid=703c5b25-1435-45b2-8c89-d7647aa322b9","ios":"levelo://app?vid=703c5b25-1435-45b2-8c89-d7647aa322b9"},"vehicle_type_id":"4","last_reported":1726150146,"current_range_meters":38800,"station_id":"ce4bgr92rcd13ifvqc6g","pricing_plan_id":"cebpf4jnsgd1na2vs0mg"},{"bike_id":"2ab898f9-4f45-4330-b58f-1198c37363bd","system_id":"levelo_inurba_marseille","lat":43.30143,"lon":5.37415,"is_reserved":false,"is_disabled":false,"rental_uris":{"android":"levelo://app?vid=2ab898f9-4f45-4330-b58f-1198c37363bd","ios":"levelo://app?vid=2ab898f9-4f45-4330-b58f-1198c37363bd"},"vehicle_type_id":"4","last_reported":1726150146,"current_range_meters":18000,"station_id":"ce4bgs92rcd13ifvqcc0","pricing_plan_id":"cebpf4jnsgd1na2vs0mg"},{"bike_id":"d137956e-1606-4a31-8e85-1ea4460cc028","system_id":"levelo_inurba_marseille","lat":43.28355,"lon":5.38101,"is_reserved":false,"is_disabled":false,"rental_uris":{"android":"levelo://app?vid=d137956e-1606-4a31-8e85-1ea4460cc028","ios":"levelo://app?vid=d137956e-1606-4a31-8e85-1ea4460cc028"},"vehicle_type_id":"4","last_reported":1726150146,"current_range_meters":16800,"station_id":"ce4bh412rcd13ifvqdr0","pricing_plan_id":"cebpf4jnsgd1na2vs0mg"},{"bike_id":"57fa5fde-7d0b-46b9-acd2-cbdf97625d62","system_id":"levelo_inurba_marseille","lat":43.3014,"lon":5.39866,"is_reserved":false,"is_disabled":false,"rental_uris":{"android":"levelo://app?vid=57fa5fde-7d0b-46b9-acd2-cbdf97625d62","ios":"levelo://app?vid=57fa5fde-7d0b-46b9-acd2-cbdf97625d62"},"vehicle_type_id":"4","last_reported":1726150146,"current_range_meters":22000,"station_id":"ce4bh0h2rcd13ifvqd40","pricing_plan_id":"cebpf4jnsgd1na2vs0mg"},{"bike_id":"0ae4c82d-7bf7-4f75-9cfc-82f2792f9ace","system_id":"levelo_inurba_marseille","lat":43.30908,"lon":5.36846,"is_reserved":false,"is_disabled":false,"rental_uris":{"android":"levelo://app?vid=0ae4c82d-7bf7-4f75-9cfc-82f2792f9ace","ios":"levelo://app?vid=0ae4c82d-7bf7-4f75-9cfc-82f2792f9ace"},"vehicle_type_id":"4","last_reported":1726150146,"current_range_meters":15200,"station_id":"ce4bgn92rcd13ifvqbvg","pricing_plan_id":"cebpf4jnsgd1na2vs0mg"},{"bike_id":"174abb8b-305a-442b-8ea7-e8f57019a553","system_id":"levelo_inurba_marseille","lat":43.25876,"lon":5.39899,"is_reserved":false,"is_disabled":false,"rental_uris":{"android":"levelo://app?vid=174abb8b-305a-442b-8ea7-e8f57019a553","ios":"levelo://app?vid=174abb8b-305a-442b-8ea7-e8f57019a553"},"vehicle_type_id":"4","last_reported":1726150146,"current_range_meters":19200,"station_id":"ce4bhl92rcd13ifvqghg","pricing_plan_id":"cebpf4jnsgd1na2vs0mg"},{"bike_id":"7551d42d-8659-416d-896d-f767a7f37efa","system_id":"levelo_inurba_marseille","lat":43.24547,"lon":5.39521,"is_reserved":false,"is_disabled":false,"rental_uris":{"android":"levelo://app?vid=7551d42d-8659-416d-896d-f767a7f37efa","ios":"levelo://app?vid=7551d42d-8659-416d-896d-f767a7f37efa"},"vehicle_type_id":"4","last_reported":1726150146,"current_range_meters":37600,"station_id":"ce4bhlp2rcd13ifvqgjg","pricing_plan_id":"cebpf4jnsgd1na2vs0mg"},{"bike_id":"c1f43d60-d4c8-4ef3-8dd0-d3db2184b632","system_id":"levelo_inurba_marseille","lat":43.31495,"lon":5.37304,"is_reserved":false,"is_disabled":false,"rental_uris":{"android":"levelo://app?vid=c1f43d60-d4c8-4ef3-8dd0-d3db2184b632","ios":"levelo://app?vid=c1f43d60-d4c8-4ef3-8dd0-d3db2184b632"},"vehicle_type_id":"4","last_reported":1726150146,"current_range_meters":2000,"station_id":"ce4bgt12rcd13ifvqcd0","pricing_plan_id":"cebpf4jnsgd1na2vs0mg"},{"bike_id":"935541dc-0a07-42cf-80dd-37fbb8c795eb","system_id":"levelo_inurba_marseille","lat":43.31229,"lon":5.3685,"is_reserved":false,"is_disabled":false,"rental_uris":{"android":"levelo://app?vid=935541dc-0a07-42cf-80dd-37fbb8c795eb","ios":"levelo://app?vid=935541dc-0a07-42cf-80dd-37fbb8c795eb"},"vehicle_type_id":"4","last_reported":1726150146,"current_range_meters":33600,"station_id":"ce4bgl92rcd13ifvqbq0","pricing_plan_id":"cebpf4jnsgd1na2vs0mg"},{"bike_id":"dc257456-5d47-403e-8156-50715631cd07","system_id":"levelo_inurba_marseille","lat":43.25502,"lon":5.37649,"is_reserved":false,"is_disabled":false,"rental_uris":{"android":"levelo://app?vid=dc257456-5d47-403e-8156-50715631cd07","ios":"levelo://app?vid=dc257456-5d47-403e-8156-50715631cd07"},"vehicle_type_id":"4","last_reported":1726150146,"current_range_meters":4000,"station_id":"ce4bhh12rcd13ifvqff0","pricing_plan_id":"cebpf4jnsgd1na2vs0mg"},{"bike_id":"dbffc40a-ad29-4e86-8073-3c24ef7376f6","system_id":"levelo_inurba_marseille","lat":43.24074,"lon":5.3776,"is_reserved":false,"is_disabled":false,"rental_uris":{"android":"levelo://app?vid=dbffc40a-ad29-4e86-8073-3c24ef7376f6","ios":"levelo://app?vid=dbffc40a-ad29-4e86-8073-3c24ef7376f6"},"vehicle_type_id":"4","last_reported":1726150146,"current_range_meters":21600,"station_id":"ce4bhnp2rcd13ifvqgvg","pricing_plan_id":"cebpf4jnsgd1na2vs0mg"},{"bike_id":"85a5dda7-6cf2-41c0-bd5c-c32fa4d77268","system_id":"levelo_inurba_marseille","lat":43.29823,"lon":5.38205,"is_reserved":false,"is_disabled":false,"rental_uris":{"android":"levelo://app?vid=85a5dda7-6cf2-41c0-bd5c-c32fa4d77268","ios":"levelo://app?vid=85a5dda7-6cf2-41c0-bd5c-c32fa4d77268"},"vehicle_type_id":"4","last_reported":1726150146,"current_range_meters":28400,"station_id":"","pricing_plan_id":"cebpf4jnsgd1na2vs0mg"},{"bike_id":"2665568f-5c24-4523-9878-6df6164d3dbb","system_id":"levelo_inurba_marseille","lat":43.24081,"lon":5.37753,"is_reserved":false,"is_disabled":false,"rental_uris":{"android":"levelo://app?vid=2665568f-5c24-4523-9878-6df6164d3dbb","ios":"levelo://app?vid=2665568f-5c24-4523-9878-6df6164d3dbb"},"vehicle_type_id":"4","last_reported":1726150146,"current_range_meters":18000,"station_id":"ce4bhnp2rcd13ifvqgvg","pricing_plan_id":"cebpf4jnsgd1na2vs0mg"},{"bike_id":"3a172185-6b70-4847-86ea-47ff75791967","system_id":"levelo_inurba_marseille","lat":43.31163,"lon":5.38736,"is_reserved":false,"is_disabled":false,"rental_uris":{"android":"levelo://app?vid=3a172185-6b70-4847-86ea-47ff75791967","ios":"levelo://app?vid=3a172185-6b70-4847-86ea-47ff75791967"},"vehicle_type_id":"4","last_reported":1726150146,"current_range_meters":35200,"station_id":"ce4bgv12rcd13ifvqcp0","pricing_plan_id":"cebpf4jnsgd1na2vs0mg"},{"bike_id":"61489bd0-8fef-4f04-9075-ebda97a854dd","system_id":"levelo_inurba_marseille","lat":43.29805,"lon":5.3809,"is_reserved":false,"is_disabled":false,"rental_uris":{"android":"levelo://app?vid=61489bd0-8fef-4f04-9075-ebda97a854dd","ios":"levelo://app?vid=61489bd0-8fef-4f04-9075-ebda97a854dd"},"vehicle_type_id":"4","last_reported":1726150146,"current_range_meters":36800,"station_id":"ce4bgip2rcd13ifvqbb0","pricing_plan_id":"cebpf4jnsgd1na2vs0mg"},{"bike_id":"35e327a1-1955-4d12-a070-7da01b3f8826","system_id":"levelo_inurba_marseille","lat":43.30909,"lon":5.36857,"is_reserved":false,"is_disabled":false,"rental_uris":{"android":"levelo://app?vid=35e327a1-1955-4d12-a070-7da01b3f8826","ios":"levelo://app?vid=35e327a1-1955-4d12-a070-7da01b3f8826"},"vehicle_type_id":"4","last_reported":1726150146,"current_range_meters":30400,"station_id":"ce4bgn92rcd13ifvqbvg","pricing_plan_id":"cebpf4jnsgd1na2vs0mg"},{"bike_id":"aa19fc99-f16a-4819-a418-d51a1a9bdec5","system_id":"levelo_inurba_marseille","lat":43.25504,"lon":5.37655,"is_reserved":false,"is_disabled":false,"rental_uris":{"android":"levelo://app?vid=aa19fc99-f16a-4819-a418-d51a1a9bdec5","ios":"levelo://app?vid=aa19fc99-f16a-4819-a418-d51a1a9bdec5"},"vehicle_type_id":"4","last_reported":1726150146,"current_range_meters":39200,"station_id":"ce4bhh12rcd13ifvqff0","pricing_plan_id":"cebpf4jnsgd1na2vs0mg"},{"bike_id":"d579b72d-add9-4c60-8a5a-ca102358ca3a","system_id":"levelo_inurba_marseille","lat":43.274017,"lon":5.390287,"is_reserved":false,"is_disabled":false,"rental_uris":{"android":"levelo://app?vid=d579b72d-add9-4c60-8a5a-ca102358ca3a","ios":"levelo://app?vid=d579b72d-add9-4c60-8a5a-ca102358ca3a"},"vehicle_type_id":"4","last_reported":1726150146,"current_range_meters":20800,"station_id":"ce4bhgp2rcd13ifvqfe0","pricing_plan_id":"cebpf4jnsgd1na2vs0mg"},{"bike_id":"f0ab1e44-8ac5-4033-a7ac-b3e3da389903","system_id":"levelo_inurba_marseille","lat":43.27066,"lon":5.42273,"is_reserved":false,"is_disabled":false,"rental_uris":{"android":"levelo://app?vid=f0ab1e44-8ac5-4033-a7ac-b3e3da389903","ios":"levelo://app?vid=f0ab1e44-8ac5-4033-a7ac-b3e3da389903"},"vehicle_type_id":"4","last_reported":1726150146,"current_range_meters":38800,"station_id":"ce4bhk92rcd13ifvqgb0","pricing_plan_id":"cebpf4jnsgd1na2vs0mg"},{"bike_id":"915d4d7a-12e5-4ddb-a43a-5316cd281986","system_id":"levelo_inurba_marseille","lat":43.29594,"lon":5.36742,"is_reserved":false,"is_disabled":false,"rental_uris":{"android":"levelo://app?vid=915d4d7a-12e5-4ddb-a43a-5316cd281986","ios":"levelo://app?vid=915d4d7a-12e5-4ddb-a43a-5316cd281986"},"vehicle_type_id":"4","last_reported":1726150146,"current_range_meters":33600,"station_id":"ce4bgph2rcd13ifvqc2g","pricing_plan_id":"cebpf4jnsgd1na2vs0mg"},{"bike_id":"07472c68-717a-4c3e-8fb3-7db33a0de292","system_id":"levelo_inurba_marseille","lat":43.28419,"lon":5.34994,"is_reserved":false,"is_disabled":false,"rental_uris":{"android":"levelo://app?vid=07472c68-717a-4c3e-8fb3-7db33a0de292","ios":"levelo://app?vid=07472c68-717a-4c3e-8fb3-7db33a0de292"},"vehicle_type_id":"4","last_reported":1726150146,"current_range_meters":38800,"station_id":"ce4bhbh2rcd13ifvqepg","pricing_plan_id":"cebpf4jnsgd1na2vs0mg"},{"bike_id":"30a27f2e-8fea-40c8-b42b-46b08748eca3","system_id":"levelo_inurba_marseille","lat":43.29702,"lon":5.37709,"is_reserved":false,"is_disabled":false,"rental_uris":{"android":"levelo://app?vid=30a27f2e-8fea-40c8-b42b-46b08748eca3","ios":"levelo://app?vid=30a27f2e-8fea-40c8-b42b-46b08748eca3"},"vehicle_type_id":"4","last_reported":1726150146,"current_range_meters":14800,"station_id":"ce4bgkh2rcd13ifvqbl0","pricing_plan_id":"cebpf4jnsgd1na2vs0mg"},{"bike_id":"1a419928-5c6e-4ae3-9042-f112394f3c34","system_id":"levelo_inurba_marseille","lat":43.29574,"lon":5.37524,"is_reserved":false,"is_disabled":false,"rental_uris":{"android":"levelo://app?vid=1a419928-5c6e-4ae3-9042-f112394f3c34","ios":"levelo://app?vid=1a419928-5c6e-4ae3-9042-f112394f3c34"},"vehicle_type_id":"4","last_reported":1726150146,"current_range_meters":20000,"station_id":"ce4bgh92rcd13ifvqb50","pricing_plan_id":"cebpf4jnsgd1na2vs0mg"},{"bike_id":"f436725f-afd9-41c1-99f1-be7189f34823","system_id":"levelo_inurba_marseille","lat":43.29716,"lon":5.3768,"is_reserved":false,"is_disabled":false,"rental_uris":{"android":"levelo://app?vid=f436725f-afd9-41c1-99f1-be7189f34823","ios":"levelo://app?vid=f436725f-afd9-41c1-99f1-be7189f34823"},"vehicle_type_id":"4","last_reported":1726150146,"current_range_meters":9600,"station_id":"ce4bgkh2rcd13ifvqbl0","pricing_plan_id":"cebpf4jnsgd1na2vs0mg"},{"bike_id":"db58cdfc-4c11-4d08-9795-51b78b37db20","system_id":"levelo_inurba_marseille","lat":43.30141,"lon":5.39876,"is_reserved":false,"is_disabled":false,"rental_uris":{"android":"levelo://app?vid=db58cdfc-4c11-4d08-9795-51b78b37db20","ios":"levelo://app?vid=db58cdfc-4c11-4d08-9795-51b78b37db20"},"vehicle_type_id":"4","last_reported":1726150146,"current_range_meters":25600,"station_id":"ce4bh0h2rcd13ifvqd40","pricing_plan_id":"cebpf4jnsgd1na2vs0mg"},{"bike_id":"7e30533e-4494-4f63-98a5-7809aac44858","system_id":"levelo_inurba_marseille","lat":43.29552,"lon":5.42265,"is_reserved":false,"is_disabled":false,"rental_uris":{"android":"levelo://app?vid=7e30533e-4494-4f63-98a5-7809aac44858","ios":"levelo://app?vid=7e30533e-4494-4f63-98a5-7809aac44858"},"vehicle_type_id":"4","last_reported":1726150146,"current_range_meters":20000,"station_id":"ce4bhph2rcd13ifvqhdg","pricing_plan_id":"cebpf4jnsgd1na2vs0mg"},{"bike_id":"0812723c-bd87-43d9-ba80-42e1368ee507","system_id":"levelo_inurba_marseille","lat":43.25937,"lon":5.409,"is_reserved":false,"is_disabled":false,"rental_uris":{"android":"levelo://app?vid=0812723c-bd87-43d9-ba80-42e1368ee507","ios":"levelo://app?vid=0812723c-bd87-43d9-ba80-42e1368ee507"},"vehicle_type_id":"4","last_reported":1726150146,"current_range_meters":25200,"station_id":"ce4bhm92rcd13ifvqglg","pricing_plan_id":"cebpf4jnsgd1na2vs0mg"},{"bike_id":"43f324fc-000b-4ca8-a7c3-f866285e436b","system_id":"levelo_inurba_marseille","lat":43.24073,"lon":5.37751,"is_reserved":false,"is_disabled":false,"rental_uris":{"android":"levelo://app?vid=43f324fc-000b-4ca8-a7c3-f866285e436b","ios":"levelo://app?vid=43f324fc-000b-4ca8-a7c3-f866285e436b"},"vehicle_type_id":"4","last_reported":1726150146,"current_range_meters":4400,"station_id":"ce4bhnp2rcd13ifvqgvg","pricing_plan_id":"cebpf4jnsgd1na2vs0mg"},{"bike_id":"77f4b5d0-9f37-4c8d-b6f5-5e74a6e0a18f","system_id":"levelo_inurba_marseille","lat":43.32485,"lon":5.3656,"is_reserved":false,"is_disabled":false,"rental_uris":{"android":"levelo://app?vid=77f4b5d0-9f37-4c8d-b6f5-5e74a6e0a18f","ios":"levelo://app?vid=77f4b5d0-9f37-4c8d-b6f5-5e74a6e0a18f"},"vehicle_type_id":"4","last_reported":1726150146,"current_range_meters":11200,"station_id":"ce4bhs12rcd13ifvqhvg","pricing_plan_id":"cebpf4jnsgd1na2vs0mg"},{"bike_id":"07a838ef-b646-4dfd-b290-10094b472288","system_id":"levelo_inurba_marseille","lat":43.28684,"lon":5.38655,"is_reserved":false,"is_disabled":false,"rental_uris":{"android":"levelo://app?vid=07a838ef-b646-4dfd-b290-10094b472288","ios":"levelo://app?vid=07a838ef-b646-4dfd-b290-10094b472288"},"vehicle_type_id":"4","last_reported":1726150146,"current_range_meters":9600,"station_id":"ce4bh492rcd13ifvqdug","pricing_plan_id":"cebpf4jnsgd1na2vs0mg"},{"bike_id":"23fbe7c1-46b0-493f-aed2-d7ab793b47a4","system_id":"levelo_inurba_marseille","lat":43.30547,"lon":5.36533,"is_reserved":false,"is_disabled":false,"rental_uris":{"android":"levelo://app?vid=23fbe7c1-46b0-493f-aed2-d7ab793b47a4","ios":"levelo://app?vid=23fbe7c1-46b0-493f-aed2-d7ab793b47a4"},"vehicle_type_id":"4","last_reported":1726150146,"current_range_meters":34000,"station_id":"ce4bgs12rcd13ifvqcag","pricing_plan_id":"cebpf4jnsgd1na2vs0mg"},{"bike_id":"0ad43492-8e05-4931-b73f-494cb560ced9","system_id":"levelo_inurba_marseille","lat":43.28464,"lon":5.3589,"is_reserved":false,"is_disabled":false,"rental_uris":{"android":"levelo://app?vid=0ad43492-8e05-4931-b73f-494cb560ced9","ios":"levelo://app?vid=0ad43492-8e05-4931-b73f-494cb560ced9"},"vehicle_type_id":"4","last_reported":1726150146,"current_range_meters":6800,"station_id":"ce4bhah2rcd13ifvqei0","pricing_plan_id":"cebpf4jnsgd1na2vs0mg"},{"bike_id":"8e476c8b-4a0c-474a-884e-d68e4b8e3eca","system_id":"levelo_inurba_marseille","lat":43.32493,"lon":5.36561,"is_reserved":false,"is_disabled":false,"rental_uris":{"android":"levelo://app?vid=8e476c8b-4a0c-474a-884e-d68e4b8e3eca","ios":"levelo://app?vid=8e476c8b-4a0c-474a-884e-d68e4b8e3eca"},"vehicle_type_id":"4","last_reported":1726150146,"current_range_meters":14800,"station_id":"ce4bhs12rcd13ifvqhvg","pricing_plan_id":"cebpf4jnsgd1na2vs0mg"},{"bike_id":"d2d6102a-8092-4166-98be-8f0747906347","system_id":"levelo_inurba_marseille","lat":43.31236,"lon":5.36855,"is_reserved":false,"is_disabled":false,"rental_uris":{"android":"levelo://app?vid=d2d6102a-8092-4166-98be-8f0747906347","ios":"levelo://app?vid=d2d6102a-8092-4166-98be-8f0747906347"},"vehicle_type_id":"4","last_reported":1726150146,"current_range_meters":15200,"station_id":"ce4bgl92rcd13ifvqbq0","pricing_plan_id":"cebpf4jnsgd1na2vs0mg"},{"bike_id":"f7383583-f6d9-4a1f-9651-744703bbb837","system_id":"levelo_inurba_marseille","lat":43.30801,"lon":5.43523,"is_reserved":false,"is_disabled":false,"rental_uris":{"android":"levelo://app?vid=f7383583-f6d9-4a1f-9651-744703bbb837","ios":"levelo://app?vid=f7383583-f6d9-4a1f-9651-744703bbb837"},"vehicle_type_id":"4","last_reported":1726150146,"current_range_meters":6800,"station_id":"ce4bhph2rcd13ifvqheg","pricing_plan_id":"cebpf4jnsgd1na2vs0mg"},{"bike_id":"7f4b1bca-f436-49f3-8c0f-43bb4ac6f92a","system_id":"levelo_inurba_marseille","lat":43.24074,"lon":5.37755,"is_reserved":false,"is_disabled":false,"rental_uris":{"android":"levelo://app?vid=7f4b1bca-f436-49f3-8c0f-43bb4ac6f92a","ios":"levelo://app?vid=7f4b1bca-f436-49f3-8c0f-43bb4ac6f92a"},"vehicle_type_id":"4","last_reported":1726150146,"current_range_meters":22400,"station_id":"ce4bhnp2rcd13ifvqgvg","pricing_plan_id":"cebpf4jnsgd1na2vs0mg"},{"bike_id":"ca9db4ad-d15d-4e34-aa64-af6b115744c2","system_id":"levelo_inurba_marseille","lat":43.296235,"lon":5.37717,"is_reserved":false,"is_disabled":false,"rental_uris":{"android":"levelo://app?vid=ca9db4ad-d15d-4e34-aa64-af6b115744c2","ios":"levelo://app?vid=ca9db4ad-d15d-4e34-aa64-af6b115744c2"},"vehicle_type_id":"4","last_reported":1726150146,"current_range_meters":33600,"station_id":"ce4bgi92rcd13ifvqb90","pricing_plan_id":"cebpf4jnsgd1na2vs0mg"},{"bike_id":"753c5de1-28eb-4e88-9680-ee7a63733350","system_id":"levelo_inurba_marseille","lat":43.29987,"lon":5.38487,"is_reserved":false,"is_disabled":false,"rental_uris":{"android":"levelo://app?vid=753c5de1-28eb-4e88-9680-ee7a63733350","ios":"levelo://app?vid=753c5de1-28eb-4e88-9680-ee7a63733350"},"vehicle_type_id":"4","last_reported":1726150146,"current_range_meters":31200,"station_id":"ce4bgj92rcd13ifvqbd0","pricing_plan_id":"cebpf4jnsgd1na2vs0mg"},{"bike_id":"d7558d08-bfba-441d-93de-ee7cca7eb86f","system_id":"levelo_inurba_marseille","lat":43.2972,"lon":5.37686,"is_reserved":false,"is_disabled":false,"rental_uris":{"android":"levelo://app?vid=d7558d08-bfba-441d-93de-ee7cca7eb86f","ios":"levelo://app?vid=d7558d08-bfba-441d-93de-ee7cca7eb86f"},"vehicle_type_id":"4","last_reported":1726150146,"current_range_meters":29600,"station_id":"ce4bgkh2rcd13ifvqbl0","pricing_plan_id":"cebpf4jnsgd1na2vs0mg"},{"bike_id":"072a52ab-6ce9-476b-903d-4623c3ea4aa5","system_id":"levelo_inurba_marseille","lat":43.29008,"lon":5.3561,"is_reserved":false,"is_disabled":false,"rental_uris":{"android":"levelo://app?vid=072a52ab-6ce9-476b-903d-4623c3ea4aa5","ios":"levelo://app?vid=072a52ab-6ce9-476b-903d-4623c3ea4aa5"},"vehicle_type_id":"4","last_reported":1726150146,"current_range_meters":17600,"station_id":"ce4bhb92rcd13ifvqen0","pricing_plan_id":"cebpf4jnsgd1na2vs0mg"},{"bike_id":"1cf4b49b-0cc8-4e09-9515-1f626a4e313a","system_id":"levelo_inurba_marseille","lat":43.2669,"lon":5.38272,"is_reserved":false,"is_disabled":false,"rental_uris":{"android":"levelo://app?vid=1cf4b49b-0cc8-4e09-9515-1f626a4e313a","ios":"levelo://app?vid=1cf4b49b-0cc8-4e09-9515-1f626a4e313a"},"vehicle_type_id":"4","last_reported":1726150146,"current_range_meters":21600,"station_id":"ce4bhg92rcd13ifvqf90","pricing_plan_id":"cebpf4jnsgd1na2vs0mg"},{"bike_id":"ca67b363-fb8e-4b7b-8058-52b7e75e6e73","system_id":"levelo_inurba_marseille","lat":43.30542,"lon":5.3654,"is_reserved":false,"is_disabled":false,"rental_uris":{"android":"levelo://app?vid=ca67b363-fb8e-4b7b-8058-52b7e75e6e73","ios":"levelo://app?vid=ca67b363-fb8e-4b7b-8058-52b7e75e6e73"},"vehicle_type_id":"4","last_reported":1726150146,"current_range_meters":38800,"station_id":"ce4bgs12rcd13ifvqcag","pricing_plan_id":"cebpf4jnsgd1na2vs0mg"},{"bike_id":"f4a94560-b74f-49e2-aaa1-40adb5c41a8d","system_id":"levelo_inurba_marseille","lat":43.31218,"lon":5.36853,"is_reserved":false,"is_disabled":false,"rental_uris":{"android":"levelo://app?vid=f4a94560-b74f-49e2-aaa1-40adb5c41a8d","ios":"levelo://app?vid=f4a94560-b74f-49e2-aaa1-40adb5c41a8d"},"vehicle_type_id":"4","last_reported":1726150146,"current_range_meters":26000,"station_id":"ce4bgl92rcd13ifvqbq0","pricing_plan_id":"cebpf4jnsgd1na2vs0mg"},{"bike_id":"cef66aa6-33c2-4d68-bb12-4f7e19c429a6","system_id":"levelo_inurba_marseille","lat":43.29012,"lon":5.35617,"is_reserved":false,"is_disabled":false,"rental_uris":{"android":"levelo://app?vid=cef66aa6-33c2-4d68-bb12-4f7e19c429a6","ios":"levelo://app?vid=cef66aa6-33c2-4d68-bb12-4f7e19c429a6"},"vehicle_type_id":"4","last_reported":1726150146,"current_range_meters":6800,"station_id":"ce4bhb92rcd13ifvqen0","pricing_plan_id":"cebpf4jnsgd1na2vs0mg"},{"bike_id":"af9421c8-e08e-45c9-9f79-72574fc04e9d","system_id":"levelo_inurba_marseille","lat":43.24173,"lon":5.36385,"is_reserved":false,"is_disabled":false,"rental_uris":{"android":"levelo://app?vid=af9421c8-e08e-45c9-9f79-72574fc04e9d","ios":"levelo://app?vid=af9421c8-e08e-45c9-9f79-72574fc04e9d"},"vehicle_type_id":"4","last_reported":1726150146,"current_range_meters":35200,"station_id":"cpo36qri1sfpv3e86is0","pricing_plan_id":"cebpf4jnsgd1na2vs0mg"},{"bike_id":"471b6568-61c8-4f60-ad25-bd8e4a87780b","system_id":"levelo_inurba_marseille","lat":43.30141,"lon":5.39874,"is_reserved":false,"is_disabled":false,"rental_uris":{"android":"levelo://app?vid=471b6568-61c8-4f60-ad25-bd8e4a87780b","ios":"levelo://app?vid=471b6568-61c8-4f60-ad25-bd8e4a87780b"},"vehicle_type_id":"4","last_reported":1726150146,"current_range_meters":24800,"station_id":"ce4bh0h2rcd13ifvqd40","pricing_plan_id":"cebpf4jnsgd1na2vs0mg"},{"bike_id":"117b59fd-f738-4cae-931d-a15c7db5c8f8","system_id":"levelo_inurba_marseille","lat":43.26786,"lon":5.3942,"is_reserved":false,"is_disabled":false,"rental_uris":{"android":"levelo://app?vid=117b59fd-f738-4cae-931d-a15c7db5c8f8","ios":"levelo://app?vid=117b59fd-f738-4cae-931d-a15c7db5c8f8"},"vehicle_type_id":"4","last_reported":1726150146,"current_range_meters":24000,"station_id":"ce4bhh12rcd13ifvqfg0","pricing_plan_id":"cebpf4jnsgd1na2vs0mg"},{"bike_id":"2f82dba1-9ba7-410a-b7f9-36bc7368c6ed","system_id":"levelo_inurba_marseille","lat":43.24689,"lon":5.38166,"is_reserved":false,"is_disabled":false,"rental_uris":{"android":"levelo://app?vid=2f82dba1-9ba7-410a-b7f9-36bc7368c6ed","ios":"levelo://app?vid=2f82dba1-9ba7-410a-b7f9-36bc7368c6ed"},"vehicle_type_id":"4","last_reported":1726150146,"current_range_meters":10000,"station_id":"ce4bhih2rcd13ifvqfr0","pricing_plan_id":"cebpf4jnsgd1na2vs0mg"},{"bike_id":"50fb3a76-2918-4cef-b29a-33342c8bfe02","system_id":"levelo_inurba_marseille","lat":43.33738,"lon":5.39177,"is_reserved":false,"is_disabled":false,"rental_uris":{"android":"levelo://app?vid=50fb3a76-2918-4cef-b29a-33342c8bfe02","ios":"levelo://app?vid=50fb3a76-2918-4cef-b29a-33342c8bfe02"},"vehicle_type_id":"4","last_reported":1726150146,"current_range_meters":14800,"station_id":"ce4bhr92rcd13ifvqhsg","pricing_plan_id":"cebpf4jnsgd1na2vs0mg"},{"bike_id":"f400d370-a20e-4ced-86f0-64f62510749c","system_id":"levelo_inurba_marseille","lat":43.3237,"lon":5.38926,"is_reserved":false,"is_disabled":false,"rental_uris":{"android":"levelo://app?vid=f400d370-a20e-4ced-86f0-64f62510749c","ios":"levelo://app?vid=f400d370-a20e-4ced-86f0-64f62510749c"},"vehicle_type_id":"4","last_reported":1726150146,"current_range_meters":9200,"station_id":"","pricing_plan_id":"cebpf4jnsgd1na2vs0mg"},{"bike_id":"1c113703-95ba-4466-b3d9-ea0ff698d715","system_id":"levelo_inurba_marseille","lat":43.24087,"lon":5.3774,"is_reserved":false,"is_disabled":false,"rental_uris":{"android":"levelo://app?vid=1c113703-95ba-4466-b3d9-ea0ff698d715","ios":"levelo://app?vid=1c113703-95ba-4466-b3d9-ea0ff698d715"},"vehicle_type_id":"4","last_reported":1726150146,"current_range_meters":16000,"station_id":"ce4bhnp2rcd13ifvqgvg","pricing_plan_id":"cebpf4jnsgd1na2vs0mg"},{"bike_id":"60528fcb-e292-4f08-88de-5e8503343cf4","system_id":"levelo_inurba_marseille","lat":43.28983,"lon":5.37833,"is_reserved":false,"is_disabled":false,"rental_uris":{"android":"levelo://app?vid=60528fcb-e292-4f08-88de-5e8503343cf4","ios":"levelo://app?vid=60528fcb-e292-4f08-88de-5e8503343cf4"},"vehicle_type_id":"4","last_reported":1726150146,"current_range_meters":33600,"station_id":"ce4bh9p2rcd13ifvqed0","pricing_plan_id":"cebpf4jnsgd1na2vs0mg"},{"bike_id":"43f79be1-e45e-4e3c-9f64-a38d59be5d7a","system_id":"levelo_inurba_marseille","lat":43.28447,"lon":5.39178,"is_reserved":false,"is_disabled":false,"rental_uris":{"android":"levelo://app?vid=43f79be1-e45e-4e3c-9f64-a38d59be5d7a","ios":"levelo://app?vid=43f79be1-e45e-4e3c-9f64-a38d59be5d7a"},"vehicle_type_id":"4","last_reported":1726150146,"current_range_meters":23200,"station_id":"ce4bhoh2rcd13ifvqh5g","pricing_plan_id":"cebpf4jnsgd1na2vs0mg"},{"bike_id":"13e8ed3a-03c3-4aeb-b2e4-5599eee620ac","system_id":"levelo_inurba_marseille","lat":43.32488,"lon":5.36576,"is_reserved":false,"is_disabled":false,"rental_uris":{"android":"levelo://app?vid=13e8ed3a-03c3-4aeb-b2e4-5599eee620ac","ios":"levelo://app?vid=13e8ed3a-03c3-4aeb-b2e4-5599eee620ac"},"vehicle_type_id":"4","last_reported":1726150146,"current_range_meters":22000,"station_id":"ce4bhs12rcd13ifvqhvg","pricing_plan_id":"cebpf4jnsgd1na2vs0mg"},{"bike_id":"bbbb5f4d-c2ca-43ea-9929-8063bdd68ab5","system_id":"levelo_inurba_marseille","lat":43.26684,"lon":5.38271,"is_reserved":false,"is_disabled":false,"rental_uris":{"android":"levelo://app?vid=bbbb5f4d-c2ca-43ea-9929-8063bdd68ab5","ios":"levelo://app?vid=bbbb5f4d-c2ca-43ea-9929-8063bdd68ab5"},"vehicle_type_id":"4","last_reported":1726150146,"current_range_meters":12000,"station_id":"ce4bhg92rcd13ifvqf90","pricing_plan_id":"cebpf4jnsgd1na2vs0mg"},{"bike_id":"5091a8dd-c900-4a3a-afdc-9b0e49e3068d","system_id":"levelo_inurba_marseille","lat":43.280731,"lon":5.39661,"is_reserved":false,"is_disabled":false,"rental_uris":{"android":"levelo://app?vid=5091a8dd-c900-4a3a-afdc-9b0e49e3068d","ios":"levelo://app?vid=5091a8dd-c900-4a3a-afdc-9b0e49e3068d"},"vehicle_type_id":"4","last_reported":1726150146,"current_range_meters":6800,"station_id":"ce4bho12rcd13ifvqh2g","pricing_plan_id":"cebpf4jnsgd1na2vs0mg"},{"bike_id":"644c929c-c815-4860-9b03-8da944f75cb1","system_id":"levelo_inurba_marseille","lat":43.29116,"lon":5.38143,"is_reserved":false,"is_disabled":false,"rental_uris":{"android":"levelo://app?vid=644c929c-c815-4860-9b03-8da944f75cb1","ios":"levelo://app?vid=644c929c-c815-4860-9b03-8da944f75cb1"},"vehicle_type_id":"4","last_reported":1726150146,"current_range_meters":14000,"station_id":"ce4bh512rcd13ifvqe2g","pricing_plan_id":"cebpf4jnsgd1na2vs0mg"},{"bike_id":"a3a7a35a-c08b-4dc8-8543-275b5d433915","system_id":"levelo_inurba_marseille","lat":43.28864,"lon":5.35843,"is_reserved":false,"is_disabled":false,"rental_uris":{"android":"levelo://app?vid=a3a7a35a-c08b-4dc8-8543-275b5d433915","ios":"levelo://app?vid=a3a7a35a-c08b-4dc8-8543-275b5d433915"},"vehicle_type_id":"4","last_reported":1726150146,"current_range_meters":35200,"station_id":"ce4bhb12rcd13ifvqem0","pricing_plan_id":"cebpf4jnsgd1na2vs0mg"},{"bike_id":"48b306a2-3e31-435c-b0f6-ad50520556c1","system_id":"levelo_inurba_marseille","lat":43.31765,"lon":5.39009,"is_reserved":false,"is_disabled":false,"rental_uris":{"android":"levelo://app?vid=48b306a2-3e31-435c-b0f6-ad50520556c1","ios":"levelo://app?vid=48b306a2-3e31-435c-b0f6-ad50520556c1"},"vehicle_type_id":"4","last_reported":1726150146,"current_range_meters":17600,"station_id":"ce4bhqp2rcd13ifvqhng","pricing_plan_id":"cebpf4jnsgd1na2vs0mg"},{"bike_id":"936e369c-7068-4099-9a8b-071806817a6c","system_id":"levelo_inurba_marseille","lat":43.29859,"lon":5.3629,"is_reserved":false,"is_disabled":false,"rental_uris":{"android":"levelo://app?vid=936e369c-7068-4099-9a8b-071806817a6c","ios":"levelo://app?vid=936e369c-7068-4099-9a8b-071806817a6c"},"vehicle_type_id":"4","last_reported":1726150146,"current_range_meters":28800,"station_id":"ce4bgpp2rcd13ifvqc3g","pricing_plan_id":"cebpf4jnsgd1na2vs0mg"},{"bike_id":"d2b5438d-c3ce-408a-97f0-f77b818c95bf","system_id":"levelo_inurba_marseille","lat":43.25934,"lon":5.40909,"is_reserved":false,"is_disabled":false,"rental_uris":{"android":"levelo://app?vid=d2b5438d-c3ce-408a-97f0-f77b818c95bf","ios":"levelo://app?vid=d2b5438d-c3ce-408a-97f0-f77b818c95bf"},"vehicle_type_id":"4","last_reported":1726150146,"current_range_meters":9600,"station_id":"ce4bhm92rcd13ifvqglg","pricing_plan_id":"cebpf4jnsgd1na2vs0mg"},{"bike_id":"d8a23558-f387-4af8-af09-e956582d4ace","system_id":"levelo_inurba_marseille","lat":43.29604,"lon":5.37724,"is_reserved":false,"is_disabled":false,"rental_uris":{"android":"levelo://app?vid=d8a23558-f387-4af8-af09-e956582d4ace","ios":"levelo://app?vid=d8a23558-f387-4af8-af09-e956582d4ace"},"vehicle_type_id":"4","last_reported":1726150146,"current_range_meters":15200,"station_id":"ce4bgi92rcd13ifvqb90","pricing_plan_id":"cebpf4jnsgd1na2vs0mg"},{"bike_id":"6527021e-5dff-4971-b4f5-25ba75a6fff0","system_id":"levelo_inurba_marseille","lat":43.31336,"lon":5.39699,"is_reserved":false,"is_disabled":false,"rental_uris":{"android":"levelo://app?vid=6527021e-5dff-4971-b4f5-25ba75a6fff0","ios":"levelo://app?vid=6527021e-5dff-4971-b4f5-25ba75a6fff0"},"vehicle_type_id":"4","last_reported":1726150146,"current_range_meters":34800,"station_id":"ce4bgvp2rcd13ifvqcu0","pricing_plan_id":"cebpf4jnsgd1na2vs0mg"},{"bike_id":"29512e17-8190-43d1-bef4-ff092643ebd9","system_id":"levelo_inurba_marseille","lat":43.29523,"lon":5.39044,"is_reserved":false,"is_disabled":false,"rental_uris":{"android":"levelo://app?vid=29512e17-8190-43d1-bef4-ff092643ebd9","ios":"levelo://app?vid=29512e17-8190-43d1-bef4-ff092643ebd9"},"vehicle_type_id":"4","last_reported":1726150146,"current_range_meters":38000,"station_id":"ce4bh3p2rcd13ifvqdp0","pricing_plan_id":"cebpf4jnsgd1na2vs0mg"},