{"last_updated":1699985281,"ttl":30,"version":"2.2","data":{"bikes":[{"bike_id":"f1614e10-dc82-4e22-b541-1a7b3c3be7f8","system_id":"levelo_inurba_marseille","lat":43.312239,"lon":5.368562,"is_reserved":false,"is_disabled":false,"rental_uris":{"android":"levelo://app?vid=f1614e10-dc82-4e22-b541-1a7b3c3be7f8","ios":"levelo://app?vid=f1614e10-dc82-4e22-b541-1a7b3c3be7f8"},"vehicle_type_id":"4","last_reported":1699985281,"current_range_meters":19200,"station_id":"ce4bgl92rcd13ifvqbq0","pricing_plan_id":"free"},{"bike_id":"c696ae08-12c5-4c4b-9134-e6117cf821c4","system_id":"levelo_inurba_marseille","lat":43.312239,"lon":5.368562,"is_reserved":false,"is_disabled":false,"rental_uris":{"android":"levelo://app?vid=c696ae08-12c5-4c4b-9134-e6117cf821c4","ios":"levelo://app?vid=c696ae08-12c5-4c4b-9134-e6117cf821c4"},"vehicle_type_id":"4","last_reported":1699985281,"current_range_meters":24400,"station_id":"ce4bgl92rcd13ifvqbq0","pricing_plan_id":"free"},{"bike_id":"943dfc2f-eec4-44b8-ae3a-bf8f278b58c3","system_id":"levelo_inurba_marseille","lat":43.311509,"lon":5.368928,"is_reserved":false,"is_disabled":false,"rental_uris":{"android":"levelo://app?vid=943dfc2f-eec4-44b8-ae3a-bf8f278b58c3","ios":"levelo://app?vid=943dfc2f-eec4-44b8-ae3a-bf8f278b58c3"},"vehicle_type_id":"4","last_reported":1699985281,"current_range_meters":17600,"station_id":"","pricing_plan_id":"free"},{"bike_id":"b2817c5b-369e-401a-994e-bbd8cda45043","system_id":"levelo_inurba_marseille","lat":43.309135,"lon":5.36854,"is_reserved":false,"is_disabled":false,"rental_uris":{"android":"levelo://app?vid=b2817c5b-369e-401a-994e-bbd8cda45043","ios":"levelo://app?vid=b2817c5b-369e-401a-994e-bbd8cda45043"},"vehicle_type_id":"4","last_reported":1699985281,"current_range_meters":14400,"station_id":"ce4bgn92rcd13ifvqbvg","pricing_plan_id":"free"},{"bike_id":"7121b30f-b3ac-4455-a28a-72a3ba309aad","system_id":"levelo_inurba_marseille","lat":43.309076,"lon":5.368465,"is_reserved":false,"is_disabled":false,"rental_uris":{"android":"levelo://app?vid=7121b30f-b3ac-4455-a28a-72a3ba309aad","ios":"levelo://app?vid=7121b30f-b3ac-4455-a28a-72a3ba309aad"},"vehicle_type_id":"4","last_reported":1699985281,"current_range_meters":1200,"station_id":"ce4bgn92rcd13ifvqbvg","pricing_plan_id":"free"},{"bike_id":"981dd138-ade2-4320-ae3d-8e3fe29bb2de","system_id":"levelo_inurba_marseille","lat":43.31493,"lon":5.37315,"is_reserved":false,"is_disabled":false,"rental_uris":{"android":"levelo://app?vid=981dd138-ade2-4320-ae3d-8e3fe29bb2de","ios":"levelo://app?vid=981dd138-ade2-4320-ae3d-8e3fe29bb2de"},"vehicle_type_id":"4","last_reported":1699985281,"current_range_meters":5200,"station_id":"ce4bgt12rcd13ifvqcd0","pricing_plan_id":"free"},{"bike_id":"5203ee95-42e6-4564-82f5-2e08de52d34e","system_id":"levelo_inurba_marseille","lat":43.309034,"lon":5.371783,"is_reserved":false,"is_disabled":false,"rental_uris":{"android":"levelo://app?vid=5203ee95-42e6-4564-82f5-2e08de52d34e","ios":"levelo://app?vid=5203ee95-42e6-4564-82f5-2e08de52d34e"},"vehicle_type_id":"4","last_reported":1699985281,"current_range_meters":1200,"station_id":"ce4bguh2rcd13ifvqckg","pricing_plan_id":"free"},{"bike_id":"69d016a5-d6e6-44f7-bbbc-2a1a2aad7318","system_id":"levelo_inurba_marseille","lat":43.31409,"lon":5.37635,"is_reserved":false,"is_disabled":false,"rental_uris":{"android":"levelo://app?vid=69d016a5-d6e6-44f7-bbbc-2a1a2aad7318","ios":"levelo://app?vid=69d016a5-d6e6-44f7-bbbc-2a1a2aad7318"},"vehicle_type_id":"4","last_reported":1699985281,"current_range_meters":12000,"station_id":"","pricing_plan_id":"free"},{"bike_id":"3475d204-43b6-43d9-b615-ca1d0d58200e","system_id":"levelo_inurba_marseille","lat":43.30539,"lon":5.36702,"is_reserved":false,"is_disabled":false,"rental_uris":{"android":"levelo://app?vid=3475d204-43b6-43d9-b615-ca1d0d58200e","ios":"levelo://app?vid=3475d204-43b6-43d9-b615-ca1d0d58200e"},"vehicle_type_id":"4","last_reported":1699985281,"current_range_meters":25200,"station_id":"ce4bgrp2rcd13ifvqc9g","pricing_plan_id":"free"},{"bike_id":"8beb8ac8-77c1-4cf5-852c-e88a7d306823","system_id":"levelo_inurba_marseille","lat":43.30545,"lon":5.36534,"is_reserved":false,"is_disabled":false,"rental_uris":{"android":"levelo://app?vid=8beb8ac8-77c1-4cf5-852c-e88a7d306823","ios":"levelo://app?vid=8beb8ac8-77c1-4cf5-852c-e88a7d306823"},"vehicle_type_id":"4","last_reported":1699985281,"current_range_meters":0,"station_id":"ce4bgs12rcd13ifvqcag","pricing_plan_id":"free"},{"bike_id":"6e3f5947-29e7-4cd0-8105-0e35f0294e36","system_id":"levelo_inurba_marseille","lat":43.305989,"lon":5.37225,"is_reserved":false,"is_disabled":false,"rental_uris":{"android":"levelo://app?vid=6e3f5947-29e7-4cd0-8105-0e35f0294e36","ios":"levelo://app?vid=6e3f5947-29e7-4cd0-8105-0e35f0294e36"},"vehicle_type_id":"4","last_reported":1699985281,"current_range_meters":0,"station_id":"ce4bgqh2rcd13ifvqc4g","pricing_plan_id":"free"},{"bike_id":"23f67d3e-2636-4309-8003-a44e55eb9c56","system_id":"levelo_inurba_marseille","lat":43.30818,"lon":5.37665,"is_reserved":false,"is_disabled":false,"rental_uris":{"android":"levelo://app?vid=23f67d3e-2636-4309-8003-a44e55eb9c56","ios":"levelo://app?vid=23f67d3e-2636-4309-8003-a44e55eb9c56"},"vehicle_type_id":"4","last_reported":1699985281,"current_range_meters":17200,"station_id":"ce4bgv92rcd13ifvqcq0","pricing_plan_id":"free"},{"bike_id":"0d23261f-2b7f-4881-91c2-46839641e6b3","system_id":"levelo_inurba_marseille","lat":43.31713,"lon":5.37696,"is_reserved":false,"is_disabled":false,"rental_uris":{"android":"levelo://app?vid=0d23261f-2b7f-4881-91c2-46839641e6b3","ios":"levelo://app?vid=0d23261f-2b7f-4881-91c2-46839641e6b3"},"vehicle_type_id":"4","last_reported":1699985281,"current_range_meters":400,"station_id":"ce4bgth2rcd13ifvqch0","pricing_plan_id":"free"},{"bike_id":"57053367-5328-4d78-8951-737f56b37ed9","system_id":"levelo_inurba_marseille","lat":43.319924,"lon":5.373389,"is_reserved":false,"is_disabled":false,"rental_uris":{"android":"levelo://app?vid=57053367-5328-4d78-8951-737f56b37ed9","ios":"levelo://app?vid=57053367-5328-4d78-8951-737f56b37ed9"},"vehicle_type_id":"4","last_reported":1699985281,"current_range_meters":6400,"station_id":"","pricing_plan_id":"free"},{"bike_id":"e2a1c122-0075-49e9-b456-3c348a3ce45d","system_id":"levelo_inurba_marseille","lat":43.31529,"lon":5.38033,"is_reserved":false,"is_disabled":false,"rental_uris":{"android":"levelo://app?vid=e2a1c122-0075-49e9-b456-3c348a3ce45d","ios":"levelo://app?vid=e2a1c122-0075-49e9-b456-3c348a3ce45d"},"vehicle_type_id":"4","last_reported":1699985281,"current_range_meters":20800,"station_id":"ce4bhsp2rcd13ifvqi50","pricing_plan_id":"free"},{"bike_id":"420f857b-f98e-4477-8f56-9f5097b8f7c4","system_id":"levelo_inurba_marseille","lat":43.30268,"lon":5.3689,"is_reserved":false,"is_disabled":false,"rental_uris":{"android":"levelo://app?vid=420f857b-f98e-4477-8f56-9f5097b8f7c4","ios":"levelo://app?vid=420f857b-f98e-4477-8f56-9f5097b8f7c4"},"vehicle_type_id":"4","last_reported":1699985281,"current_range_meters":0,"station_id":"ce4bgqh2rcd13ifvqc5g","pricing_plan_id":"free"},{"bike_id":"a26a672c-8f86-40f5-9e8e-9856cf399a24","system_id":"levelo_inurba_marseille","lat":43.30792,"lon":5.37966,"is_reserved":false,"is_disabled":false,"rental_uris":{"android":"levelo://app?vid=a26a672c-8f86-40f5-9e8e-9856cf399a24","ios":"levelo://app?vid=a26a672c-8f86-40f5-9e8e-9856cf399a24"},"vehicle_type_id":"4","last_reported":1699985281,"current_range_meters":13200,"station_id":"","pricing_plan_id":"free"},{"bike_id":"1d070605-99ca-458d-8b90-044b3b2f3d36","system_id":"levelo_inurba_marseille","lat":43.301939,"lon":5.366286,"is_reserved":false,"is_disabled":false,"rental_uris":{"android":"levelo://app?vid=1d070605-99ca-458d-8b90-044b3b2f3d36","ios":"levelo://app?vid=1d070605-99ca-458d-8b90-044b3b2f3d36"},"vehicle_type_id":"4","last_reported":1699985281,"current_range_meters":25600,"station_id":"ce4bgrh2rcd13ifvqc8g","pricing_plan_id":"free"},{"bike_id":"03b91f82-2cfc-41c6-9b15-db5695e486be","system_id":"levelo_inurba_marseille","lat":43.31633,"lon":5.38189,"is_reserved":false,"is_disabled":false,"rental_uris":{"android":"levelo://app?vid=03b91f82-2cfc-41c6-9b15-db5695e486be","ios":"levelo://app?vid=03b91f82-2cfc-41c6-9b15-db5695e486be"},"vehicle_type_id":"4","last_reported":1699985281,"current_range_meters":0,"station_id":"","pricing_plan_id":"free"},{"bike_id":"a6b9b5a1-fd48-48fc-be70-cf1d1343302f","system_id":"levelo_inurba_marseille","lat":43.30697,"lon":5.38072,"is_reserved":false,"is_disabled":false,"rental_uris":{"android":"levelo://app?vid=a6b9b5a1-fd48-48fc-be70-cf1d1343302f","ios":"levelo://app?vid=a6b9b5a1-fd48-48fc-be70-cf1d1343302f"},"vehicle_type_id":"4","last_reported":1699985281,"current_range_meters":12800,"station_id":"","pricing_plan_id":"free"},{"bike_id":"a40fc47f-f00d-45df-b68e-117670bcecdb","system_id":"levelo_inurba_marseille","lat":43.308012,"lon":5.381511,"is_reserved":false,"is_disabled":false,"rental_uris":{"android":"levelo://app?vid=a40fc47f-f00d-45df-b68e-117670bcecdb","ios":"levelo://app?vid=a40fc47f-f00d-45df-b68e-117670bcecdb"},"vehicle_type_id":"4","last_reported":1699985281,"current_range_meters":5600,"station_id":"ce4bgt12rcd13ifvqce0","pricing_plan_id":"free"},{"bike_id":"6cdf0653-1323-4e4a-8f79-ac2361073341","system_id":"levelo_inurba_marseille","lat":43.308012,"lon":5.381511,"is_reserved":false,"is_disabled":false,"rental_uris":{"android":"levelo://app?vid=6cdf0653-1323-4e4a-8f79-ac2361073341","ios":"levelo://app?vid=6cdf0653-1323-4e4a-8f79-ac2361073341"},"vehicle_type_id":"4","last_reported":1699985281,"current_range_meters":4800,"station_id":"ce4bgt12rcd13ifvqce0","pricing_plan_id":"free"},{"bike_id":"d03b42a5-7b5c-44a7-af9d-0b6b1d9c7e66","system_id":"levelo_inurba_marseille","lat":43.308012,"lon":5.381511,"is_reserved":false,"is_disabled":false,"rental_uris":{"android":"levelo://app?vid=d03b42a5-7b5c-44a7-af9d-0b6b1d9c7e66","ios":"levelo://app?vid=d03b42a5-7b5c-44a7-af9d-0b6b1d9c7e66"},"vehicle_type_id":"4","last_reported":1699985281,"current_range_meters":13200,"station_id":"ce4bgt12rcd13ifvqce0","pricing_plan_id":"free"},{"bike_id":"64801fc7-37fb-4179-a924-7de74bb05259","system_id":"levelo_inurba_marseille","lat":43.30464,"lon":5.37897,"is_reserved":false,"is_disabled":false,"rental_uris":{"android":"levelo://app?vid=64801fc7-37fb-4179-a924-7de74bb05259","ios":"levelo://app?vid=64801fc7-37fb-4179-a924-7de74bb05259"},"vehicle_type_id":"4","last_reported":1699985281,"current_range_meters":0,"station_id":"ce4bgup2rcd13ifvqcn0","pricing_plan_id":"free"},{"bike_id":"67ffd28a-0325-489b-a10f-d90500122751","system_id":"levelo_inurba_marseille","lat":43.304606,"lon":5.379026,"is_reserved":false,"is_disabled":false,"rental_uris":{"android":"levelo://app?vid=67ffd28a-0325-489b-a10f-d90500122751","ios":"levelo://app?vid=67ffd28a-0325-489b-a10f-d90500122751"},"vehicle_type_id":"4","last_reported":1699985281,"current_range_meters":31600,"station_id":"ce4bgup2rcd13ifvqcn0","pricing_plan_id":"free"},{"bike_id":"c95e41bc-e660-46f3-982d-9d8d14b3a847","system_id":"levelo_inurba_marseille","lat":43.32031,"lon":5.38083,"is_reserved":false,"is_disabled":false,"rental_uris":{"android":"levelo://app?vid=c95e41bc-e660-46f3-982d-9d8d14b3a847","ios":"levelo://app?vid=c95e41bc-e660-46f3-982d-9d8d14b3a847"},"vehicle_type_id":"4","last_reported":1699985281,"current_range_meters":6000,"station_id":"","pricing_plan_id":"free"},{"bike_id":"69166d53-ec8e-4a0a-864c-7a29f7650dd8","system_id":"levelo_inurba_marseille","lat":43.32103,"lon":5.380105,"is_reserved":false,"is_disabled":false,"rental_uris":{"android":"levelo://app?vid=69166d53-ec8e-4a0a-864c-7a29f7650dd8","ios":"levelo://app?vid=69166d53-ec8e-4a0a-864c-7a29f7650dd8"},"vehicle_type_id":"4","last_reported":1699985281,"current_range_meters":4400,"station_id":"","pricing_plan_id":"free"},{"bike_id":"0f6061ec-01e1-475b-9c56-256ca5b7f0a0","system_id":"levelo_inurba_marseille","lat":43.31997,"lon":5.38165,"is_reserved":false,"is_disabled":false,"rental_uris":{"android":"levelo://app?vid=0f6061ec-01e1-475b-9c56-256ca5b7f0a0","ios":"levelo://app?vid=0f6061ec-01e1-475b-9c56-256ca5b7f0a0"},"vehicle_type_id":"4","last_reported":1699985281,"current_range_meters":1600,"station_id":"ce4bhr12rcd13ifvqhpg","pricing_plan_id":"free"},{"bike_id":"35906753-a135-4f01-9e22-4a2f081dc6f1","system_id":"levelo_inurba_marseille","lat":43.299209,"lon":5.365547,"is_reserved":false,"is_disabled":false,"rental_uris":{"android":"levelo://app?vid=35906753-a135-4f01-9e22-4a2f081dc6f1","ios":"levelo://app?vid=35906753-a135-4f01-9e22-4a2f081dc6f1"},"vehicle_type_id":"4","last_reported":1699985281,"current_range_meters":0,"station_id":"ce4bgm92rcd13ifvqbr0","pricing_plan_id":"free"},{"bike_id":"ae0f1389-be5b-4458-ab95-05e74ffdd748","system_id":"levelo_inurba_marseille","lat":43.31191,"lon":5.38589,"is_reserved":false,"is_disabled":false,"rental_uris":{"android":"levelo://app?vid=ae0f1389-be5b-4458-ab95-05e74ffdd748","ios":"levelo://app?vid=ae0f1389-be5b-4458-ab95-05e74ffdd748"},"vehicle_type_id":"4","last_reported":1699985281,"current_range_meters":5200,"station_id":"","pricing_plan_id":"free"},{"bike_id":"5da9dea2-bd9f-4746-b637-56e44ea9e587","system_id":"levelo_inurba_marseille","lat":43.298489,"lon":5.362942,"is_reserved":false,"is_disabled":false,"rental_uris":{"android":"levelo://app?vid=5da9dea2-bd9f-4746-b637-56e44ea9e587","ios":"levelo://app?vid=5da9dea2-bd9f-4746-b637-56e44ea9e587"},"vehicle_type_id":"4","last_reported":1699985281,"current_range_meters":12400,"station_id":"ce4bgpp2rcd13ifvqc3g","pricing_plan_id":"free"},{"bike_id":"e6c201f9-af9a-4337-8f79-973d0a81edf1","system_id":"levelo_inurba_marseille","lat":43.305364,"lon":5.384119,"is_reserved":false,"is_disabled":false,"rental_uris":{"android":"levelo://app?vid=e6c201f9-af9a-4337-8f79-973d0a81edf1","ios":"levelo://app?vid=e6c201f9-af9a-4337-8f79-973d0a81edf1"},"vehicle_type_id":"4","last_reported":1699985281,"current_range_meters":8000,"station_id":"ce4bgg92rcd13ifvqb30","pricing_plan_id":"free"},{"bike_id":"17796ea0-5d27-45a2-af13-986abe061f1a","system_id":"levelo_inurba_marseille","lat":43.311722,"lon":5.387247,"is_reserved":false,"is_disabled":false,"rental_uris":{"android":"levelo://app?vid=17796ea0-5d27-45a2-af13-986abe061f1a","ios":"levelo://app?vid=17796ea0-5d27-45a2-af13-986abe061f1a"},"vehicle_type_id":"4","last_reported":1699985281,"current_range_meters":9200,"station_id":"ce4bgv12rcd13ifvqcp0","pricing_plan_id":"free"},{"bike_id":"8950f55a-e75d-4fac-9a7c-f529bc0580a5","system_id":"levelo_inurba_marseille","lat":43.320464,"lon":5.384144,"is_reserved":false,"is_disabled":false,"rental_uris":{"android":"levelo://app?vid=8950f55a-e75d-4fac-9a7c-f529bc0580a5","ios":"levelo://app?vid=8950f55a-e75d-4fac-9a7c-f529bc0580a5"},"vehicle_type_id":"4","last_reported":1699985281,"current_range_meters":800,"station_id":"","pricing_plan_id":"free"},{"bike_id":"3e262eb7-2e60-462f-a2bd-2e13123a42c8","system_id":"levelo_inurba_marseille","lat":43.311722,"lon":5.387247,"is_reserved":false,"is_disabled":false,"rental_uris":{"android":"levelo://app?vid=3e262eb7-2e60-462f-a2bd-2e13123a42c8","ios":"levelo://app?vid=3e262eb7-2e60-462f-a2bd-2e13123a42c8"},"vehicle_type_id":"4","last_reported":1699985281,"current_range_meters":4000,"station_id":"ce4bgv12rcd13ifvqcp0","pricing_plan_id":"free"},{"bike_id":"8b6fb159-1b4d-4432-a89d-41d3d317dac6","system_id":"levelo_inurba_marseille","lat":43.299143,"lon":5.376278,"is_reserved":false,"is_disabled":false,"rental_uris":{"android":"levelo://app?vid=8b6fb159-1b4d-4432-a89d-41d3d317dac6","ios":"levelo://app?vid=8b6fb159-1b4d-4432-a89d-41d3d317dac6"},"vehicle_type_id":"4","last_reported":1699985281,"current_range_meters":0,"station_id":"","pricing_plan_id":"free"},{"bike_id":"9f280dc3-4fec-4a1b-a045-8fc0631b593d","system_id":"levelo_inurba_marseille","lat":43.322743,"lon":5.382687,"is_reserved":false,"is_disabled":false,"rental_uris":{"android":"levelo://app?vid=9f280dc3-4fec-4a1b-a045-8fc0631b593d","ios":"levelo://app?vid=9f280dc3-4fec-4a1b-a045-8fc0631b593d"},"vehicle_type_id":"4","last_reported":1699985281,"current_range_meters":14000,"station_id":"ce4bhr12rcd13ifvqhqg","pricing_plan_id":"free"},{"bike_id":"ccb0513b-586f-466c-b397-1eb38f3a8d46","system_id":"levelo_inurba_marseille","lat":43.32832,"lon":5.36681,"is_reserved":false,"is_disabled":false,"rental_uris":{"android":"levelo://app?vid=ccb0513b-586f-466c-b397-1eb38f3a8d46","ios":"levelo://app?vid=ccb0513b-586f-466c-b397-1eb38f3a8d46"},"vehicle_type_id":"4","last_reported":1699985281,"current_range_meters":18000,"station_id":"ce4bhs92rcd13ifvqi0g","pricing_plan_id":"free"},{"bike_id":"53d5ff0e-8e21-41c9-a410-1186a9d5d0fe","system_id":"levelo_inurba_marseille","lat":43.32836,"lon":5.36688,"is_reserved":false,"is_disabled":false,"rental_uris":{"android":"levelo://app?vid=53d5ff0e-8e21-41c9-a410-1186a9d5d0fe","ios":"levelo://app?vid=53d5ff0e-8e21-41c9-a410-1186a9d5d0fe"},"vehicle_type_id":"4","last_reported":1699985281,"current_range_meters":16800,"station_id":"ce4bhs92rcd13ifvqi0g","pricing_plan_id":"free"},{"bike_id":"e0c6b230-52e4-45f9-b03c-3c323ae8ecf0","system_id":"levelo_inurba_marseille","lat":43.297163,"lon":5.365866,"is_reserved":false,"is_disabled":false,"rental_uris":{"android":"levelo://app?vid=e0c6b230-52e4-45f9-b03c-3c323ae8ecf0","ios":"levelo://app?vid=e0c6b230-52e4-45f9-b03c-3c323ae8ecf0"},"vehicle_type_id":"4","last_reported":1699985281,"current_range_meters":14000,"station_id":"ce4bgn12rcd13ifvqbt0","pricing_plan_id":"free"},{"bike_id":"a303818d-7d60-423b-b1a7-1a46366805e5","system_id":"levelo_inurba_marseille","lat":43.29701,"lon":5.36615,"is_reserved":false,"is_disabled":false,"rental_uris":{"android":"levelo://app?vid=a303818d-7d60-423b-b1a7-1a46366805e5","ios":"levelo://app?vid=a303818d-7d60-423b-b1a7-1a46366805e5"},"vehicle_type_id":"4","last_reported":1699985281,"current_range_meters":30000,"station_id":"ce4bgn12rcd13ifvqbt0","pricing_plan_id":"free"},{"bike_id":"21ef66fc-f849-4436-a784-addc98d58662","system_id":"levelo_inurba_marseille","lat":43.32098,"lon":5.38576,"is_reserved":false,"is_disabled":false,"rental_uris":{"android":"levelo://app?vid=21ef66fc-f849-4436-a784-addc98d58662","ios":"levelo://app?vid=21ef66fc-f849-4436-a784-addc98d58662"},"vehicle_type_id":"4","last_reported":1699985281,"current_range_meters":19200,"station_id":"","pricing_plan_id":"free"},{"bike_id":"d447991a-59b4-4778-a190-7d2b0920a414","system_id":"levelo_inurba_marseille","lat":43.32215,"lon":5.38613,"is_reserved":false,"is_disabled":false,"rental_uris":{"android":"levelo://app?vid=d447991a-59b4-4778-a190-7d2b0920a414","ios":"levelo://app?vid=d447991a-59b4-4778-a190-7d2b0920a414"},"vehicle_type_id":"4","last_reported":1699985281,"current_range_meters":8400,"station_id":"","pricing_plan_id":"free"},{"bike_id":"9cc5e647-3e75-404f-8bc5-286687867558","system_id":"levelo_inurba_marseille","lat":43.2962,"lon":5.37148,"is_reserved":false,"is_disabled":false,"rental_uris":{"android":"levelo://app?vid=9cc5e647-3e75-404f-8bc5-286687867558","ios":"levelo://app?vid=9cc5e647-3e75-404f-8bc5-286687867558"},"vehicle_type_id":"4","last_reported":1699985281,"current_range_meters":0,"station_id":"ce4bgnh2rcd13ifvqc0g","pricing_plan_id":"free"},{"bike_id":"d08995d2-7fa5-4e4e-ae26-9ebe24b7a282","system_id":"levelo_inurba_marseille","lat":43.29573,"lon":5.367355,"is_reserved":false,"is_disabled":false,"rental_uris":{"android":"levelo://app?vid=d08995d2-7fa5-4e4e-ae26-9ebe24b7a282","ios":"levelo://app?vid=d08995d2-7fa5-4e4e-ae26-9ebe24b7a282"},"vehicle_type_id":"4","last_reported":1699985281,"current_range_meters":7200,"station_id":"ce4bgph2rcd13ifvqc2g","pricing_plan_id":"free"},{"bike_id":"408e1bba-ac1b-479c-ad30-32026784c873","system_id":"levelo_inurba_marseille","lat":43.2966,"lon":5.37463,"is_reserved":false,"is_disabled":false,"rental_uris":{"android":"levelo://app?vid=408e1bba-ac1b-479c-ad30-32026784c873","ios":"levelo://app?vid=408e1bba-ac1b-479c-ad30-32026784c873"},"vehicle_type_id":"4","last_reported":1699985281,"current_range_meters":2000,"station_id":"","pricing_plan_id":"free"},{"bike_id":"e160d619-f834-495b-b3ff-276bacc73906","system_id":"levelo_inurba_marseille","lat":43.309589,"lon":5.390258,"is_reserved":false,"is_disabled":false,"rental_uris":{"android":"levelo://app?vid=e160d619-f834-495b-b3ff-276bacc73906","ios":"levelo://app?vid=e160d619-f834-495b-b3ff-276bacc73906"},"vehicle_type_id":"4","last_reported":1699985281,"current_range_meters":0,"station_id":"ce4bgup2rcd13ifvqco0","pricing_plan_id":"free"},{"bike_id":"88e21de1-f4e4-4f43-8de7-d58a2ce32c29","system_id":"levelo_inurba_marseille","lat":43.317557,"lon":5.390173,"is_reserved":false,"is_disabled":false,"rental_uris":{"android":"levelo://app?vid=88e21de1-f4e4-4f43-8de7-d58a2ce32c29","ios":"levelo://app?vid=88e21de1-f4e4-4f43-8de7-d58a2ce32c29"},"vehicle_type_id":"4","last_reported":1699985281,"current_range_meters":16000,"station_id":"ce4bhqp2rcd13ifvqhng","pricing_plan_id":"free"},{"bike_id":"779b4aea-fdbc-4ca9-87a1-e629487f5b71","system_id":"levelo_inurba_marseille","lat":43.317557,"lon":5.390173,"is_reserved":false,"is_disabled":false,"rental_uris":{"android":"levelo://app?vid=779b4aea-fdbc-4ca9-87a1-e629487f5b71","ios":"levelo://app?vid=779b4aea-fdbc-4ca9-87a1-e629487f5b71"},"vehicle_type_id":"4","last_reported":1699985281,"current_range_meters":4400,"station_id":"ce4bhqp2rcd13ifvqhng","pricing_plan_id":"free"},{"bike_id":"3257c594-ef3f-490f-9dbc-228a1da7efda","system_id":"levelo_inurba_marseille","lat":43.317557,"lon":5.390173,"is_reserved":false,"is_disabled":false,"rental_uris":{"android":"levelo://app?vid=3257c594-ef3f-490f-9dbc-228a1da7efda","ios":"levelo://app?vid=3257c594-ef3f-490f-9dbc-228a1da7efda"},"vehicle_type_id":"4","last_reported":1699985281,"current_range_meters":7600,"station_id":"ce4bhqp2rcd13ifvqhng","pricing_plan_id":"free"},{"bike_id":"feff7d8e-9456-4b4b-b917-4f91bb23e023","system_id":"levelo_inurba_marseille","lat":43.3175,"lon":5.39022,"is_reserved":false,"is_disabled":false,"rental_uris":{"android":"levelo://app?vid=feff7d8e-9456-4b4b-b917-4f91bb23e023","ios":"levelo://app?vid=feff7d8e-9456-4b4b-b917-4f91bb23e023"},"vehicle_type_id":"4","last_reported":1699985281,"current_range_meters":6400,"station_id":"","pricing_plan_id":"free"},{"bike_id":"d2dced52-b7fb-4d11-ad33-56be009e3364","system_id":"levelo_inurba_marseille","lat":43.32207,"lon":5.3875,"is_reserved":false,"is_disabled":false,"rental_uris":{"android":"levelo://app?vid=d2dced52-b7fb-4d11-ad33-56be009e3364","ios":"levelo://app?vid=d2dced52-b7fb-4d11-ad33-56be009e3364"},"vehicle_type_id":"4","last_reported":1699985281,"current_range_meters":29200,"station_id":"","pricing_plan_id":"free"},{"bike_id":"1d7e0f84-564e-40a2-8e06-696f38c40fb4","system_id":"levelo_inurba_marseille","lat":43.304278,"lon":5.388868,"is_reserved":false,"is_disabled":false,"rental_uris":{"android":"levelo://app?vid=1d7e0f84-564e-40a2-8e06-696f38c40fb4","ios":"levelo://app?vid=1d7e0f84-564e-40a2-8e06-696f38c40fb4"},"vehicle_type_id":"4","last_reported":1699985281,"current_range_meters":15600,"station_id":"ce4bgk12rcd13ifvqbi0","pricing_plan_id":"free"},{"bike_id":"abecf9e1-a70f-4d62-b113-64064b1d3c9c","system_id":"levelo_inurba_marseille","lat":43.304278,"lon":5.388868,"is_reserved":false,"is_disabled":false,"rental_uris":{"android":"levelo://app?vid=abecf9e1-a70f-4d62-b113-64064b1d3c9c","ios":"levelo://app?vid=abecf9e1-a70f-4d62-b113-64064b1d3c9c"},"vehicle_type_id":"4","last_reported":1699985281,"current_range_meters":10400,"station_id":"ce4bgk12rcd13ifvqbi0","pricing_plan_id":"free"},{"bike_id":"4eef38cc-64cf-4f4d-8d5b-99bd9d3b1b37","system_id":"levelo_inurba_marseille","lat":43.295748,"lon":5.37522,"is_reserved":false,"is_disabled":false,"rental_uris":{"android":"levelo://app?vid=4eef38cc-64cf-4f4d-8d5b-99bd9d3b1b37","ios":"levelo://app?vid=4eef38cc-64cf-4f4d-8d5b-99bd9d3b1b37"},"vehicle_type_id":"4","last_reported":1699985281,"current_range_meters":24800,"station_id":"ce4bgh92rcd13ifvqb50","pricing_plan_id":"free"},{"bike_id":"76037457-4c90-4ab2-90fb-14fe48291a94","system_id":"levelo_inurba_marseille","lat":43.29617,"lon":5.3771,"is_reserved":false,"is_disabled":false,"rental_uris":{"android":"levelo://app?vid=76037457-4c90-4ab2-90fb-14fe48291a94","ios":"levelo://app?vid=76037457-4c90-4ab2-90fb-14fe48291a94"},"vehicle_type_id":"4","last_reported":1699985281,"current_range_meters":0,"station_id":"ce4bgi92rcd13ifvqb90","pricing_plan_id":"free"},{"bike_id":"9caec048-a3aa-428b-9d1e-66ad6c2d8e58","system_id":"levelo_inurba_marseille","lat":43.324371,"lon":5.386085,"is_reserved":false,"is_disabled":false,"rental_uris":{"android":"levelo://app?vid=9caec048-a3aa-428b-9d1e-66ad6c2d8e58","ios":"levelo://app?vid=9caec048-a3aa-428b-9d1e-66ad6c2d8e58"},"vehicle_type_id":"4","last_reported":1699985281,"current_range_meters":20800,"station_id":"","pricing_plan_id":"free"},{"bike_id":"8ac26c40-50c0-473f-8bd6-7f59a219f0df","system_id":"levelo_inurba_marseille","lat":43.296263,"lon":5.377094,"is_reserved":false,"is_disabled":false,"rental_uris":{"android":"levelo://app?vid=8ac26c40-50c0-473f-8bd6-7f59a219f0df","ios":"levelo://app?vid=8ac26c40-50c0-473f-8bd6-7f59a219f0df"},"vehicle_type_id":"4","last_reported":1699985281,"current_range_meters":3600,"station_id":"ce4bgi92rcd13ifvqb90","pricing_plan_id":"free"},{"bike_id":"37e3db77-388d-4a13-92f4-e4555804736b","system_id":"levelo_inurba_marseille","lat":43.297604,"lon":5.381108,"is_reserved":false,"is_disabled":false,"rental_uris":{"android":"levelo://app?vid=37e3db77-388d-4a13-92f4-e4555804736b","ios":"levelo://app?vid=37e3db77-388d-4a13-92f4-e4555804736b"},"vehicle_type_id":"4","last_reported":1699985281,"current_range_meters":0,"station_id":"ce4bgip2rcd13ifvqbb0","pricing_plan_id":"free"},{"bike_id":"3e3e92fe-39b7-4933-99ff-3747b28b5d69","system_id":"levelo_inurba_marseille","lat":43.328075,"lon":5.380705,"is_reserved":false,"is_disabled":false,"rental_uris":{"android":"levelo://app?vid=3e3e92fe-39b7-4933-99ff-3747b28b5d69","ios":"levelo://app?vid=3e3e92fe-39b7-4933-99ff-3747b28b5d69"},"vehicle_type_id":"4","last_reported":1699985281,"current_range_meters":13600,"station_id":"","pricing_plan_id":"free"},{"bike_id":"9293175e-3eca-403d-bc95-76b9c7b5bdad","system_id":"levelo_inurba_marseille","lat":43.3039,"lon":5.3891,"is_reserved":false,"is_disabled":false,"rental_uris":{"android":"levelo://app?vid=9293175e-3eca-403d-bc95-76b9c7b5bdad","ios":"levelo://app?vid=9293175e-3eca-403d-bc95-76b9c7b5bdad"},"vehicle_type_id":"4","last_reported":1699985281,"current_range_meters":8000,"station_id":"ce4bgk12rcd13ifvqbi0","pricing_plan_id":"free"},{"bike_id":"2530ac8c-1816-4cc6-91cd-89b17583fb5c","system_id":"levelo_inurba_marseille","lat":43.32359,"lon":5.388867,"is_reserved":false,"is_disabled":false,"rental_uris":{"android":"levelo://app?vid=2530ac8c-1816-4cc6-91cd-89b17583fb5c","ios":"levelo://app?vid=2530ac8c-1816-4cc6-91cd-89b17583fb5c"},"vehicle_type_id":"4","last_reported":1699985281,"current_range_meters":22800,"station_id":"ce4bhqp2rcd13ifvqhog","pricing_plan_id":"free"},{"bike_id":"ad2d3867-3436-4719-ac1e-ae88801272da","system_id":"levelo_inurba_marseille","lat":43.302765,"lon":5.38964,"is_reserved":false,"is_disabled":false,"rental_uris":{"android":"levelo://app?vid=ad2d3867-3436-4719-ac1e-ae88801272da","ios":"levelo://app?vid=ad2d3867-3436-4719-ac1e-ae88801272da"},"vehicle_type_id":"4","last_reported":1699985281,"current_range_meters":2400,"station_id":"","pricing_plan_id":"free"},{"bike_id":"90a37eaf-14f3-4ea3-9b46-c59ec935a317","system_id":"levelo_inurba_marseille","lat":43.2939,"lon":5.37308,"is_reserved":false,"is_disabled":false,"rental_uris":{"android":"levelo://app?vid=90a37eaf-14f3-4ea3-9b46-c59ec935a317","ios":"levelo://app?vid=90a37eaf-14f3-4ea3-9b46-c59ec935a317"},"vehicle_type_id":"4","last_reported":1699985281,"current_range_meters":27600,"station_id":"","pricing_plan_id":"free"},{"bike_id":"f10674c5-5acf-4a5d-a464-8d5110054ef4","system_id":"levelo_inurba_marseille","lat":43.29601,"lon":5.381084,"is_reserved":false,"is_disabled":false,"rental_uris":{"android":"levelo://app?vid=f10674c5-5acf-4a5d-a464-8d5110054ef4","ios":"levelo://app?vid=f10674c5-5acf-4a5d-a464-8d5110054ef4"},"vehicle_type_id":"4","last_reported":1699985281,"current_range_meters":4800,"station_id":"ce4bgl12rcd13ifvqbo0","pricing_plan_id":"free"},{"bike_id":"326267de-1d1a-4196-bee4-6458e4d915d6","system_id":"levelo_inurba_marseille","lat":43.29602,"lon":5.381084,"is_reserved":false,"is_disabled":false,"rental_uris":{"android":"levelo://app?vid=326267de-1d1a-4196-bee4-6458e4d915d6","ios":"levelo://app?vid=326267de-1d1a-4196-bee4-6458e4d915d6"},"vehicle_type_id":"4","last_reported":1699985281,"current_range_meters":2000,"station_id":"ce4bgl12rcd13ifvqbo0","pricing_plan_id":"free"},{"bike_id":"d4c7303a-f1aa-427b-a495-852d474c17cd","system_id":"levelo_inurba_marseille","lat":43.29276,"lon":5.36842,"is_reserved":false,"is_disabled":false,"rental_uris":{"android":"levelo://app?vid=d4c7303a-f1aa-427b-a495-852d474c17cd","ios":"levelo://app?vid=d4c7303a-f1aa-427b-a495-852d474c17cd"},"vehicle_type_id":"4","last_reported":1699985281,"current_range_meters":1200,"station_id":"ce4bhbp2rcd13ifvqesg","pricing_plan_id":"free"},{"bike_id":"168eb8e8-c695-4d30-9ce2-ad4263225dee","system_id":"levelo_inurba_marseille","lat":43.292757,"lon":5.368414,"is_reserved":false,"is_disabled":false,"rental_uris":{"android":"levelo://app?vid=168eb8e8-c695-4d30-9ce2-ad4263225dee","ios":"levelo://app?vid=168eb8e8-c695-4d30-9ce2-ad4263225dee"},"vehicle_type_id":"4","last_reported":1699985281,"current_range_meters":8800,"station_id":"ce4bhbp2rcd13ifvqesg","pricing_plan_id":"free"},{"bike_id":"26980da1-93b4-4164-99bc-3ecb672a46f5","system_id":"levelo_inurba_marseille","lat":43.292749,"lon":5.368402,"is_reserved":false,"is_disabled":false,"rental_uris":{"android":"levelo://app?vid=26980da1-93b4-4164-99bc-3ecb672a46f5","ios":"levelo://app?vid=26980da1-93b4-4164-99bc-3ecb672a46f5"},"vehicle_type_id":"4","last_reported":1699985281,"current_range_meters":18400,"station_id":"ce4bhbp2rcd13ifvqesg","pricing_plan_id":"free"},{"bike_id":"8d7fdfd7-d2d0-4060-ba2d-4fdc9562906c","system_id":"levelo_inurba_marseille","lat":43.29274,"lon":5.36846,"is_reserved":false,"is_disabled":false,"rental_uris":{"android":"levelo://app?vid=8d7fdfd7-d2d0-4060-ba2d-4fdc9562906c","ios":"levelo://app?vid=8d7fdfd7-d2d0-4060-ba2d-4fdc9562906c"},"vehicle_type_id":"4","last_reported":1699985281,"current_range_meters":14800,"station_id":"ce4bhbp2rcd13ifvqesg","pricing_plan_id":"free"},{"bike_id":"46c041e1-0116-4ecc-840d-0f711db11909","system_id":"levelo_inurba_marseille","lat":43.293009,"lon":5.374584,"is_reserved":false,"is_disabled":false,"rental_uris":{"android":"levelo://app?vid=46c041e1-0116-4ecc-840d-0f711db11909","ios":"levelo://app?vid=46c041e1-0116-4ecc-840d-0f711db11909"},"vehicle_type_id":"4","last_reported":1699985281,"current_range_meters":13600,"station_id":"ce4bgi12rcd13ifvqb70","pricing_plan_id":"free"},{"bike_id":"2dc9595b-ce6b-418b-b00d-45d692327e0d","system_id":"levelo_inurba_marseille","lat":43.30312,"lon":5.39203,"is_reserved":false,"is_disabled":false,"rental_uris":{"android":"levelo://app?vid=2dc9595b-ce6b-418b-b00d-45d692327e0d","ios":"levelo://app?vid=2dc9595b-ce6b-418b-b00d-45d692327e0d"},"vehicle_type_id":"4","last_reported":1699985281,"current_range_meters":0,"station_id":"ce4bgkh2rcd13ifvqbk0","pricing_plan_id":"free"},{"bike_id":"b8167da0-ea6d-4c28-9a56-eb2a0d13dc84","system_id":"levelo_inurba_marseille","lat":43.30085,"lon":5.390856,"is_reserved":false,"is_disabled":false,"rental_uris":{"android":"levelo://app?vid=b8167da0-ea6d-4c28-9a56-eb2a0d13dc84","ios":"levelo://app?vid=b8167da0-ea6d-4c28-9a56-eb2a0d13dc84"},"vehicle_type_id":"4","last_reported":1699985281,"current_range_meters":14000,"station_id":"ce4bh192rcd13ifvqdb0","pricing_plan_id":"free"},{"bike_id":"32a73f35-7c26-4fc3-ba27-ab3905346f75","system_id":"levelo_inurba_marseille","lat":43.292587,"lon":5.37623,"is_reserved":false,"is_disabled":false,"rental_uris":{"android":"levelo://app?vid=32a73f35-7c26-4fc3-ba27-ab3905346f75","ios":"levelo://app?vid=32a73f35-7c26-4fc3-ba27-ab3905346f75"},"vehicle_type_id":"4","last_reported":1699985281,"current_range_meters":7600,"station_id":"ce4bgi12rcd13ifvqb80","pricing_plan_id":"free"},{"bike_id":"dced48ed-295f-4e93-a5e1-858d22f7c658","system_id":"levelo_inurba_marseille","lat":43.293308,"lon":5.379482,"is_reserved":false,"is_disabled":false,"rental_uris":{"android":"levelo://app?vid=dced48ed-295f-4e93-a5e1-858d22f7c658","ios":"levelo://app?vid=dced48ed-295f-4e93-a5e1-858d22f7c658"},"vehicle_type_id":"4","last_reported":1699985281,"current_range_meters":0,"station_id":"","pricing_plan_id":"free"},{"bike_id":"c2b51d08-cb1a-4930-aa88-1725ff3e7c9a","system_id":"levelo_inurba_marseille","lat":43.291956,"lon":5.358117,"is_reserved":false,"is_disabled":false,"rental_uris":{"android":"levelo://app?vid=c2b51d08-cb1a-4930-aa88-1725ff3e7c9a","ios":"levelo://app?vid=c2b51d08-cb1a-4930-aa88-1725ff3e7c9a"},"vehicle_type_id":"4","last_reported":1699985281,"current_range_meters":24800,"station_id":"","pricing_plan_id":"free"},{"bike_id":"811638c6-a824-4983-9716-28a411b62e7b","system_id":"levelo_inurba_marseille","lat":43.313291,"lon":5.396838,"is_reserved":false,"is_disabled":false,"rental_uris":{"android":"levelo://app?vid=811638c6-a824-4983-9716-28a411b62e7b","ios":"levelo://app?vid=811638c6-a824-4983-9716-28a411b62e7b"},"vehicle_type_id":"4","last_reported":1699985281,"current_range_meters":1200,"station_id":"ce4bgvp2rcd13ifvqcu0","pricing_plan_id":"free"},{"bike_id":"08354b7f-4960-469c-950b-0ce2e33816cb","system_id":"levelo_inurba_marseille","lat":43.309038,"lon":5.396546,"is_reserved":false,"is_disabled":false,"rental_uris":{"android":"levelo://app?vid=08354b7f-4960-469c-950b-0ce2e33816cb","ios":"levelo://app?vid=08354b7f-4960-469c-950b-0ce2e33816cb"},"vehicle_type_id":"4","last_reported":1699985281,"current_range_meters":28800,"station_id":"ce4bh012rcd13ifvqcv0","pricing_plan_id":"free"},{"bike_id":"b1faa0c7-ba76-48bd-a235-c65666056d6e","system_id":"levelo_inurba_marseille","lat":43.308858,"lon":5.396418,"is_reserved":false,"is_disabled":false,"rental_uris":{"android":"levelo://app?vid=b1faa0c7-ba76-48bd-a235-c65666056d6e","ios":"levelo://app?vid=b1faa0c7-ba76-48bd-a235-c65666056d6e"},"vehicle_type_id":"4","last_reported":1699985281,"current_range_meters":29600,"station_id":"ce4bh012rcd13ifvqcv0","pricing_plan_id":"free"},{"bike_id":"3d5c62c8-ca1e-4a25-a3d8-5ebff5de39b9","system_id":"levelo_inurba_marseille","lat":43.313291,"lon":5.396838,"is_reserved":false,"is_disabled":false,"rental_uris":{"android":"levelo://app?vid=3d5c62c8-ca1e-4a25-a3d8-5ebff5de39b9","ios":"levelo://app?vid=3d5c62c8-ca1e-4a25-a3d8-5ebff5de39b9"},"vehicle_type_id":"4","last_reported":1699985281,"current_range_meters":5600,"station_id":"ce4bgvp2rcd13ifvqcu0","pricing_plan_id":"free"},{"bike_id":"e0f07a2d-2307-4363-92f5-00765e39a917","system_id":"levelo_inurba_marseille","lat":43.309038,"lon":5.396546,"is_reserved":false,"is_disabled":false,"rental_uris":{"android":"levelo://app?vid=e0f07a2d-2307-4363-92f5-00765e39a917","ios":"levelo://app?vid=e0f07a2d-2307-4363-92f5-00765e39a917"},"vehicle_type_id":"4","last_reported":1699985281,"current_range_meters":24400,"station_id":"ce4bh012rcd13ifvqcv0","pricing_plan_id":"free"},{"bike_id":"e042e7e6-5a68-4c3a-828f-44c6156dee89","system_id":"levelo_inurba_marseille","lat":43.31329,"lon":5.39694,"is_reserved":false,"is_disabled":false,"rental_uris":{"android":"levelo://app?vid=e042e7e6-5a68-4c3a-828f-44c6156dee89","ios":"levelo://app?vid=e042e7e6-5a68-4c3a-828f-44c6156dee89"},"vehicle_type_id":"4","last_reported":1699985281,"current_range_meters":10000,"station_id":"ce4bgvp2rcd13ifvqcu0","pricing_plan_id":"free"},{"bike_id":"5154ba01-7e4b-40bf-9799-3811da56e2a4","system_id":"levelo_inurba_marseille","lat":43.31321,"lon":5.396945,"is_reserved":false,"is_disabled":false,"rental_uris":{"android":"levelo://app?vid=5154ba01-7e4b-40bf-9799-3811da56e2a4","ios":"levelo://app?vid=5154ba01-7e4b-40bf-9799-3811da56e2a4"},"vehicle_type_id":"4","last_reported":1699985281,"current_range_meters":11600,"station_id":"ce4bgvp2rcd13ifvqcu0","pricing_plan_id":"free"},{"bike_id":"1b50fc76-fb4c-416c-96d1-4010545aafe5","system_id":"levelo_inurba_marseille","lat":43.31331,"lon":5.39697,"is_reserved":false,"is_disabled":false,"rental_uris":{"android":"levelo://app?vid=1b50fc76-fb4c-416c-96d1-4010545aafe5","ios":"levelo://app?vid=1b50fc76-fb4c-416c-96d1-4010545aafe5"},"vehicle_type_id":"4","last_reported":1699985281,"current_range_meters":18000,"station_id":"ce4bgvp2rcd13ifvqcu0","pricing_plan_id":"free"},{"bike_id":"0b020d14-35cc-4b71-bbc4-65af2dbfe472","system_id":"levelo_inurba_marseille","lat":43.30891,"lon":5.39652,"is_reserved":false,"is_disabled":false,"rental_uris":{"android":"levelo://app?vid=0b020d14-35cc-4b71-bbc4-65af2dbfe472","ios":"levelo://app?vid=0b020d14-35cc-4b71-bbc4-65af2dbfe472"},"vehicle_type_id":"4","last_reported":1699985281,"current_range_meters":30000,"station_id":"ce4bh012rcd13ifvqcv0","pricing_plan_id":"free"},{"bike_id":"a687dc82-c03c-417c-8a3e-a993f584f605","system_id":"levelo_inurba_marseille","lat":43.309038,"lon":5.396546,"is_reserved":false,"is_disabled":false,"rental_uris":{"android":"levelo://app?vid=a687dc82-c03c-417c-8a3e-a993f584f605","ios":"levelo://app?vid=a687dc82-c03c-417c-8a3e-a993f584f605"},"vehicle_type_id":"4","last_reported":1699985281,"current_range_meters":1200,"station_id":"ce4bh012rcd13ifvqcv0","pricing_plan_id":"free"},{"bike_id":"1d64c9ce-c7aa-443d-8945-bdeb4fca2c35","system_id":"levelo_inurba_marseille","lat":43.29186,"lon":5.3579,"is_reserved":false,"is_disabled":false,"rental_uris":{"android":"levelo://app?vid=1d64c9ce-c7aa-443d-8945-bdeb4fca2c35","ios":"levelo://app?vid=1d64c9ce-c7aa-443d-8945-bdeb4fca2c35"},"vehicle_type_id":"4","last_reported":1699985281,"current_range_meters":6800,"station_id":"ce4bhb12rcd13ifvqel0","pricing_plan_id":"free"},{"bike_id":"11622721-6e58-42bd-9d5d-153ee1abaceb","system_id":"levelo_inurba_marseille","lat":43.313101,"lon":5.397031,"is_reserved":false,"is_disabled":false,"rental_uris":{"android":"levelo://app?vid=11622721-6e58-42bd-9d5d-153ee1abaceb","ios":"levelo://app?vid=11622721-6e58-42bd-9d5d-153ee1abaceb"},"vehicle_type_id":"4","last_reported":1699985281,"current_range_meters":22400,"station_id":"","pricing_plan_id":"free"},{"bike_id":"099da101-1858-4793-aa81-1b193dbbdd72","system_id":"levelo_inurba_marseille","lat":43.309038,"lon":5.396546,"is_reserved":false,"is_disabled":false,"rental_uris":{"android":"levelo://app?vid=099da101-1858-4793-aa81-1b193dbbdd72","ios":"levelo://app?vid=099da101-1858-4793-aa81-1b193dbbdd72"},"vehicle_type_id":"4","last_reported":1699985281,"current_range_meters":28000,"station_id":"ce4bh012rcd13ifvqcv0","pricing_plan_id":"free"},{"bike_id":"16f2fc71-cc8d-40e0-ac2e-0e56e133b08c","system_id":"levelo_inurba_marseille","lat":43.29529,"lon":5.385581,"is_reserved":false,"is_disabled":false,"rental_uris":{"android":"levelo://app?vid=16f2fc71-cc8d-40e0-ac2e-0e56e133b08c","ios":"levelo://app?vid=16f2fc71-cc8d-40e0-ac2e-0e56e133b08c"},"vehicle_type_id":"4","last_reported":1699985281,"current_range_meters":400,"station_id":"ce4bgih2rcd13ifvqba0","pricing_plan_id":"free"},{"bike_id":"eef6e3c4-2d56-4350-9d73-67e5790a24d3","system_id":"levelo_inurba_marseille","lat":43.29529,"lon":5.385581,"is_reserved":false,"is_disabled":false,"rental_uris":{"android":"levelo://app?vid=eef6e3c4-2d56-4350-9d73-67e5790a24d3","ios":"levelo://app?vid=eef6e3c4-2d56-4350-9d73-67e5790a24d3"},"vehicle_type_id":"4","last_reported":1699985281,"current_range_meters":28800,"station_id":"ce4bgih2rcd13ifvqba0","pricing_plan_id":"free"},{"bike_id":"876f28f8-2e18-4b22-8bf9-9c22446a6835","system_id":"levelo_inurba_marseille","lat":43.294153,"lon":5.386305,"is_reserved":false,"is_disabled":false,"rental_uris":{"android":"levelo://app?vid=876f28f8-2e18-4b22-8bf9-9c22446a6835","ios":"levelo://app?vid=876f28f8-2e18-4b22-8bf9-9c22446a6835"},"vehicle_type_id":"4","last_reported":1699985281,"current_range_meters":3600,"station_id":"ce4bh2h2rcd13ifvqdh0","pricing_plan_id":"free"},{"bike_id":"eba6d8b1-aac3-4031-b36f-b60725e868bc","system_id":"levelo_inurba_marseille","lat":43.28946,"lon":5.36639,"is_reserved":false,"is_disabled":false,"rental_uris":{"android":"levelo://app?vid=eba6d8b1-aac3-4031-b36f-b60725e868bc","ios":"levelo://app?vid=eba6d8b1-aac3-4031-b36f-b60725e868bc"},"vehicle_type_id":"4","last_reported":1699985281,"current_range_meters":0,"station_id":"ce4bhap2rcd13ifvqek0","pricing_plan_id":"free"},{"bike_id":"52de3ef7-ff25-419b-baab-a43a2a7e1dca","system_id":"levelo_inurba_marseille","lat":43.294153,"lon":5.386305,"is_reserved":false,"is_disabled":false,"rental_uris":{"android":"levelo://app?vid=52de3ef7-ff25-419b-baab-a43a2a7e1dca","ios":"levelo://app?vid=52de3ef7-ff25-419b-baab-a43a2a7e1dca"},"vehicle_type_id":"4","last_reported":1699985281,"current_range_meters":13200,"station_id":"ce4bh2h2rcd13ifvqdh0","pricing_plan_id":"free"},{"bike_id":"6dae57a9-0b0b-4ab2-af65-cfbc647a2402","system_id":"levelo_inurba_marseille","lat":43.294162,"lon":5.386292,"is_reserved":false,"is_disabled":false,"rental_uris":{"android":"levelo://app?vid=6dae57a9-0b0b-4ab2-af65-cfbc647a2402","ios":"levelo://app?vid=6dae57a9-0b0b-4ab2-af65-cfbc647a2402"},"vehicle_type_id":"4","last_reported":1699985281,"current_range_meters":14400,"station_id":"ce4bh2h2rcd13ifvqdh0","pricing_plan_id":"free"},{"bike_id":"e02828ed-ad82-421f-83b3-06eaf88af507","system_id":"levelo_inurba_marseille","lat":43.294162,"lon":5.386292,"is_reserved":false,"is_disabled":false,"rental_uris":{"android":"levelo://app?vid=e02828ed-ad82-421f-83b3-06eaf88af507","ios":"levelo://app?vid=e02828ed-ad82-421f-83b3-06eaf88af507"},"vehicle_type_id":"4","last_reported":1699985281,"current_range_meters":11200,"station_id":"ce4bh2h2rcd13ifvqdh0","pricing_plan_id":"free"},{"bike_id":"2d7210fa-b742-40f8-aac7-4a10d4972288","system_id":"levelo_inurba_marseille","lat":43.289184,"lon":5.366408,"is_reserved":false,"is_disabled":false,"rental_uris":{"android":"levelo://app?vid=2d7210fa-b742-40f8-aac7-4a10d4972288","ios":"levelo://app?vid=2d7210fa-b742-40f8-aac7-4a10d4972288"},"vehicle_type_id":"4","last_reported":1699985281,"current_range_meters":16800,"station_id":"ce4bhap2rcd13ifvqek0","pricing_plan_id":"free"},{"bike_id":"b884246f-fd52-4858-8c03-72fcd4ee37c4","system_id":"levelo_inurba_marseille","lat":43.289468,"lon":5.363719,"is_reserved":false,"is_disabled":false,"rental_uris":{"android":"levelo://app?vid=b884246f-fd52-4858-8c03-72fcd4ee37c4","ios":"levelo://app?vid=b884246f-fd52-4858-8c03-72fcd4ee37c4"},"vehicle_type_id":"4","last_reported":1699985281,"current_range_meters":400,"station_id":"ce4bhc92rcd13ifvqetg","pricing_plan_id":"free"},{"bike_id":"2c4734c7-eadf-404b-b484-ee5e26ab9abe","system_id":"levelo_inurba_marseille","lat":43.292644,"lon":5.384257,"is_reserved":false,"is_disabled":false,"rental_uris":{"android":"levelo://app?vid=2c4734c7-eadf-404b-b484-ee5e26ab9abe","ios":"levelo://app?vid=2c4734c7-eadf-404b-b484-ee5e26ab9abe"},"vehicle_type_id":"4","last_reported":1699985281,"current_range_meters":22800,"station_id":"ce4bh692rcd13ifvqea0","pricing_plan_id":"free"},{"bike_id":"50425342-e381-4968-9f0f-bf2eac77e159","system_id":"levelo_inurba_marseille","lat":43.292644,"lon":5.384257,"is_reserved":false,"is_disabled":false,"rental_uris":{"android":"levelo://app?vid=50425342-e381-4968-9f0f-bf2eac77e159","ios":"levelo://app?vid=50425342-e381-4968-9f0f-bf2eac77e159"},"vehicle_type_id":"4","last_reported":1699985281,"current_range_meters":6800,"station_id":"ce4bh692rcd13ifvqea0","pricing_plan_id":"free"},{"bike_id":"adde8686-113f-4eb5-af31-c124839ce7d4","system_id":"levelo_inurba_marseille","lat":43.292644,"lon":5.384257,"is_reserved":false,"is_disabled":false,"rental_uris":{"android":"levelo://app?vid=adde8686-113f-4eb5-af31-c124839ce7d4","ios":"levelo://app?vid=adde8686-113f-4eb5-af31-c124839ce7d4"},"vehicle_type_id":"4","last_reported":1699985281,"current_range_meters":0,"station_id":"ce4bh692rcd13ifvqea0","pricing_plan_id":"free"},{"bike_id":"6171faa7-3ab2-4ed0-bb32-05ac94633408","system_id":"levelo_inurba_marseille","lat":43.292733,"lon":5.384535,"is_reserved":false,"is_disabled":false,"rental_uris":{"android":"levelo://app?vid=6171faa7-3ab2-4ed0-bb32-05ac94633408","ios":"levelo://app?vid=6171faa7-3ab2-4ed0-bb32-05ac94633408"},"vehicle_type_id":"4","last_reported":1699985281,"current_range_meters":0,"station_id":"ce4bh692rcd13ifvqea0","pricing_plan_id":"free"},{"bike_id":"a8edf58e-21ba-49cb-b696-42894de3b58e","system_id":"levelo_inurba_marseille","lat":43.304296,"lon":5.397513,"is_reserved":false,"is_disabled":false,"rental_uris":{"android":"levelo://app?vid=a8edf58e-21ba-49cb-b696-42894de3b58e","ios":"levelo://app?vid=a8edf58e-21ba-49cb-b696-42894de3b58e"},"vehicle_type_id":"4","last_reported":1699985281,"current_range_meters":0,"station_id":"ce4bh092rcd13ifvqd20","pricing_plan_id":"free"},{"bike_id":"450145ed-a7a3-4c84-a0d0-48c96010bea4","system_id":"levelo_inurba_marseille","lat":43.292644,"lon":5.384257,"is_reserved":false,"is_disabled":false,"rental_uris":{"android":"levelo://app?vid=450145ed-a7a3-4c84-a0d0-48c96010bea4","ios":"levelo://app?vid=450145ed-a7a3-4c84-a0d0-48c96010bea4"},"vehicle_type_id":"4","last_reported":1699985281,"current_range_meters":14000,"station_id":"ce4bh692rcd13ifvqea0","pricing_plan_id":"free"},{"bike_id":"0777298f-8748-4f97-aefe-c2707cd38e09","system_id":"levelo_inurba_marseille","lat":43.330383,"lon":5.389247,"is_reserved":false,"is_disabled":false,"rental_uris":{"android":"levelo://app?vid=0777298f-8748-4f97-aefe-c2707cd38e09","ios":"levelo://app?vid=0777298f-8748-4f97-aefe-c2707cd38e09"},"vehicle_type_id":"4","last_reported":1699985281,"current_range_meters":16800,"station_id":"ce4bhr92rcd13ifvqhrg","pricing_plan_id":"free"},{"bike_id":"6b721cd9-9ba0-4c89-8a70-15da853bc052","system_id":"levelo_inurba_marseille","lat":43.33039,"lon":5.38924,"is_reserved":false,"is_disabled":false,"rental_uris":{"android":"levelo://app?vid=6b721cd9-9ba0-4c89-8a70-15da853bc052","ios":"levelo://app?vid=6b721cd9-9ba0-4c89-8a70-15da853bc052"},"vehicle_type_id":"4","last_reported":1699985281,"current_range_meters":8000,"station_id":"ce4bhr92rcd13ifvqhrg","pricing_plan_id":"free"},{"bike_id":"aee096e5-440f-47da-ad12-1e3c64b6f28a","system_id":"levelo_inurba_marseille","lat":43.30245,"lon":5.39674,"is_reserved":false,"is_disabled":false,"rental_uris":{"android":"levelo://app?vid=aee096e5-440f-47da-ad12-1e3c64b6f28a","ios":"levelo://app?vid=aee096e5-440f-47da-ad12-1e3c64b6f28a"},"vehicle_type_id":"4","last_reported":1699985281,"current_range_meters":12800,"station_id":"","pricing_plan_id":"free"},{"bike_id":"8927fa21-3835-4ffb-b2f3-fc7ac499318b","system_id":"levelo_inurba_marseille","lat":43.290995,"lon":5.381361,"is_reserved":false,"is_disabled":false,"rental_uris":{"android":"levelo://app?vid=8927fa21-3835-4ffb-b2f3-fc7ac499318b","ios":"levelo://app?vid=8927fa21-3835-4ffb-b2f3-fc7ac499318b"},"vehicle_type_id":"4","last_reported":1699985281,"current_range_meters":10000,"station_id":"ce4bh512rcd13ifvqe2g","pricing_plan_id":"free"},{"bike_id":"8dbf9be9-2c7e-4219-94d6-3b559465bbdb","system_id":"levelo_inurba_marseille","lat":43.290995,"lon":5.381361,"is_reserved":false,"is_disabled":false,"rental_uris":{"android":"levelo://app?vid=8dbf9be9-2c7e-4219-94d6-3b559465bbdb","ios":"levelo://app?vid=8dbf9be9-2c7e-4219-94d6-3b559465bbdb"},"vehicle_type_id":"4","last_reported":1699985281,"current_range_meters":15200,"station_id":"ce4bh512rcd13ifvqe2g","pricing_plan_id":"free"},{"bike_id":"6dc1967c-101e-430b-9271-5c9f54b7a3e7","system_id":"levelo_inurba_marseille","lat":43.29096,"lon":5.38139,"is_reserved":false,"is_disabled":false,"rental_uris":{"android":"levelo://app?vid=6dc1967c-101e-430b-9271-5c9f54b7a3e7","ios":"levelo://app?vid=6dc1967c-101e-430b-9271-5c9f54b7a3e7"},"vehicle_type_id":"4","last_reported":1699985281,"current_range_meters":26400,"station_id":"ce4bh512rcd13ifvqe2g","pricing_plan_id":"free"},{"bike_id":"9e2e725e-db1d-49a8-b528-b46c17412527","system_id":"levelo_inurba_marseille","lat":43.29795,"lon":5.3934,"is_reserved":false,"is_disabled":false,"rental_uris":{"android":"levelo://app?vid=9e2e725e-db1d-49a8-b528-b46c17412527","ios":"levelo://app?vid=9e2e725e-db1d-49a8-b528-b46c17412527"},"vehicle_type_id":"4","last_reported":1699985281,"current_range_meters":27200,"station_id":"chh1huq6cuj3fo74tm60","pricing_plan_id":"free"},{"bike_id":"658b1709-4cb7-40bc-a03c-4e71f9552461","system_id":"levelo_inurba_marseille","lat":43.295169,"lon":5.390426,"is_reserved":false,"is_disabled":false,"rental_uris":{"android":"levelo://app?vid=658b1709-4cb7-40bc-a03c-4e71f9552461","ios":"levelo://app?vid=658b1709-4cb7-40bc-a03c-4e71f9552461"},"vehicle_type_id":"4","last_reported":1699985281,"current_range_meters":4800,"station_id":"ce4bh3p2rcd13ifvqdp0","pricing_plan_id":"free"},{"bike_id":"ff7c86c1-2d4c-4d39-9e82-855b99e69399","system_id":"levelo_inurba_marseille","lat":43.29784,"lon":5.39338,"is_reserved":false,"is_disabled":false,"rental_uris":{"android":"levelo://app?vid=ff7c86c1-2d4c-4d39-9e82-855b99e69399","ios":"levelo://app?vid=ff7c86c1-2d4c-4d39-9e82-855b99e69399"},"vehicle_type_id":"4","last_reported":1699985281,"current_range_meters":26400,"station_id":"chh1huq6cuj3fo74tm60","pricing_plan_id":"free"},{"bike_id":"5737b09c-8b8c-47df-93c6-f3d7db213e2f","system_id":"levelo_inurba_marseille","lat":43.295169,"lon":5.390426,"is_reserved":false,"is_disabled":false,"rental_uris":{"android":"levelo://app?vid=5737b09c-8b8c-47df-93c6-f3d7db213e2f","ios":"levelo://app?vid=5737b09c-8b8c-47df-93c6-f3d7db213e2f"},"vehicle_type_id":"4","last_reported":1699985281,"current_range_meters":13600,"station_id":"ce4bh3p2rcd13ifvqdp0","pricing_plan_id":"free"},{"bike_id":"e44a6034-b203-4dfe-966c-16aa5fe8c471","system_id":"levelo_inurba_marseille","lat":43.33059,"lon":5.39056,"is_reserved":false,"is_disabled":false,"rental_uris":{"android":"levelo://app?vid=e44a6034-b203-4dfe-966c-16aa5fe8c471","ios":"levelo://app?vid=e44a6034-b203-4dfe-966c-16aa5fe8c471"},"vehicle_type_id":"4","last_reported":1699985281,"current_range_meters":8400,"station_id":"","pricing_plan_id":"free"},{"bike_id":"7a1356b5-2437-4bfa-bb34-cf55b7f00bb1","system_id":"levelo_inurba_marseille","lat":43.33063,"lon":5.39051,"is_reserved":false,"is_disabled":false,"rental_uris":{"android":"levelo://app?vid=7a1356b5-2437-4bfa-bb34-cf55b7f00bb1","ios":"levelo://app?vid=7a1356b5-2437-4bfa-bb34-cf55b7f00bb1"},"vehicle_type_id":"4","last_reported":1699985281,"current_range_meters":2400,"station_id":"","pricing_plan_id":"free"},{"bike_id":"3ef01ae3-e9c6-451e-a807-142dc8d73b48","system_id":"levelo_inurba_marseille","lat":43.288047,"lon":5.361637,"is_reserved":false,"is_disabled":false,"rental_uris":{"android":"levelo://app?vid=3ef01ae3-e9c6-451e-a807-142dc8d73b48","ios":"levelo://app?vid=3ef01ae3-e9c6-451e-a807-142dc8d73b48"},"vehicle_type_id":"4","last_reported":1699985281,"current_range_meters":12000,"station_id":"","pricing_plan_id":"free"},{"bike_id":"b84d37e7-9356-4082-9aa2-a53b3ef0bb78","system_id":"levelo_inurba_marseille","lat":43.33732,"lon":5.374505,"is_reserved":false,"is_disabled":false,"rental_uris":{"android":"levelo://app?vid=b84d37e7-9356-4082-9aa2-a53b3ef0bb78","ios":"levelo://app?vid=b84d37e7-9356-4082-9aa2-a53b3ef0bb78"},"vehicle_type_id":"4","last_reported":1699985281,"current_range_meters":28000,"station_id":"","pricing_plan_id":"free"},{"bike_id":"3f703ece-e06b-4341-beb5-c5a6f7e0ac9f","system_id":"levelo_inurba_marseille","lat":43.330727,"lon":5.391266,"is_reserved":false,"is_disabled":false,"rental_uris":{"android":"levelo://app?vid=3f703ece-e06b-4341-beb5-c5a6f7e0ac9f","ios":"levelo://app?vid=3f703ece-e06b-4341-beb5-c5a6f7e0ac9f"},"vehicle_type_id":"4","last_reported":1699985281,"current_range_meters":0,"station_id":"","pricing_plan_id":"free"},{"bike_id":"ecb74e71-927e-4f0b-9187-fa879207361e","system_id":"levelo_inurba_marseille","lat":43.31268,"lon":5.4017,"is_reserved":false,"is_disabled":false,"rental_uris":{"android":"levelo://app?vid=ecb74e71-927e-4f0b-9187-fa879207361e","ios":"levelo://app?vid=ecb74e71-927e-4f0b-9187-fa879207361e"},"vehicle_type_id":"4","last_reported":1699985281,"current_range_meters":8400,"station_id":"ce4bh092rcd13ifvqd30","pricing_plan_id":"free"},{"bike_id":"92c6cfac-c7f3-4773-b481-583da3146ebe","system_id":"levelo_inurba_marseille","lat":43.30924,"lon":5.40141,"is_reserved":false,"is_disabled":false,"rental_uris":{"android":"levelo://app?vid=92c6cfac-c7f3-4773-b481-583da3146ebe","ios":"levelo://app?vid=92c6cfac-c7f3-4773-b481-583da3146ebe"},"vehicle_type_id":"4","last_reported":1699985281,"current_range_meters":12000,"station_id":"ce4bgvp2rcd13ifvqct0","pricing_plan_id":"free"},{"bike_id":"167c6403-0dc9-47da-b219-8067806799d0","system_id":"levelo_inurba_marseille","lat":43.33748,"lon":5.37458,"is_reserved":false,"is_disabled":false,"rental_uris":{"android":"levelo://app?vid=167c6403-0dc9-47da-b219-8067806799d0","ios":"levelo://app?vid=167c6403-0dc9-47da-b219-8067806799d0"},"vehicle_type_id":"4","last_reported":1699985281,"current_range_meters":13600,"station_id":"","pricing_plan_id":"free"},{"bike_id":"342cf571-a2f7-409e-8e4b-e4cfc3886465","system_id":"levelo_inurba_marseille","lat":43.33751,"lon":5.3745,"is_reserved":false,"is_disabled":false,"rental_uris":{"android":"levelo://app?vid=342cf571-a2f7-409e-8e4b-e4cfc3886465","ios":"levelo://app?vid=342cf571-a2f7-409e-8e4b-e4cfc3886465"},"vehicle_type_id":"4","last_reported":1699985281,"current_range_meters":14800,"station_id":"","pricing_plan_id":"free"},{"bike_id":"846e0d05-8c88-4c22-bd55-4daef72e07c8","system_id":"levelo_inurba_marseille","lat":43.337596,"lon":5.374462,"is_reserved":false,"is_disabled":false,"rental_uris":{"android":"levelo://app?vid=846e0d05-8c88-4c22-bd55-4daef72e07c8","ios":"levelo://app?vid=846e0d05-8c88-4c22-bd55-4daef72e07c8"},"vehicle_type_id":"4","last_reported":1699985281,"current_range_meters":0,"station_id":"","pricing_plan_id":"free"},{"bike_id":"18c53b3b-17a2-4647-80e6-4e9a472e1609","system_id":"levelo_inurba_marseille","lat":43.337613,"lon":5.374521,"is_reserved":false,"is_disabled":false,"rental_uris":{"android":"levelo://app?vid=18c53b3b-17a2-4647-80e6-4e9a472e1609","ios":"levelo://app?vid=18c53b3b-17a2-4647-80e6-4e9a472e1609"},"vehicle_type_id":"4","last_reported":1699985281,"current_range_meters":12400,"station_id":"","pricing_plan_id":"free"},{"bike_id":"337b3b25-5587-4b2b-84b2-7dca7afc6e44","system_id":"levelo_inurba_marseille","lat":43.33764,"lon":5.37475,"is_reserved":false,"is_disabled":false,"rental_uris":{"android":"levelo://app?vid=337b3b25-5587-4b2b-84b2-7dca7afc6e44","ios":"levelo://app?vid=337b3b25-5587-4b2b-84b2-7dca7afc6e44"},"vehicle_type_id":"4","last_reported":1699985281,"current_range_meters":8400,"station_id":"","pricing_plan_id":"free"},{"bike_id":"3ae951d6-43a9-4961-bfa6-4a90d7a06713","system_id":"levelo_inurba_marseille","lat":43.33778,"lon":5.37469,"is_reserved":false,"is_disabled":false,"rental_uris":{"android":"levelo://app?vid=3ae951d6-43a9-4961-bfa6-4a90d7a06713","ios":"levelo://app?vid=3ae951d6-43a9-4961-bfa6-4a90d7a06713"},"vehicle_type_id":"4","last_reported":1699985281,"current_range_meters":31200,"station_id":"","pricing_plan_id":"free"},{"bike_id":"7308b703-3498-43fd-9cc7-54184ae724a5","system_id":"levelo_inurba_marseille","lat":43.298526,"lon":5.396632,"is_reserved":false,"is_disabled":false,"rental_uris":{"android":"levelo://app?vid=7308b703-3498-43fd-9cc7-54184ae724a5","ios":"levelo://app?vid=7308b703-3498-43fd-9cc7-54184ae724a5"},"vehicle_type_id":"4","last_reported":1699985281,"current_range_meters":0,"station_id":"","pricing_plan_id":"free"},{"bike_id":"8d53a32c-39e7-49ad-aad0-b7fae3b62fe4","system_id":"levelo_inurba_marseille","lat":43.28727,"lon":5.36078,"is_reserved":false,"is_disabled":false,"rental_uris":{"android":"levelo://app?vid=8d53a32c-39e7-49ad-aad0-b7fae3b62fe4","ios":"levelo://app?vid=8d53a32c-39e7-49ad-aad0-b7fae3b62fe4"},"vehicle_type_id":"4","last_reported":1699985281,"current_range_meters":2000,"station_id":"cki0cbj6b192h4jlfktg","pricing_plan_id":"free"},{"bike_id":"ad4dd458-4ac9-49c4-bdb2-84c90f0f118d","system_id":"levelo_inurba_marseille","lat":43.287209,"lon":5.360849,"is_reserved":false,"is_disabled":false,"rental_uris":{"android":"levelo://app?vid=ad4dd458-4ac9-49c4-bdb2-84c90f0f118d","ios":"levelo://app?vid=ad4dd458-4ac9-49c4-bdb2-84c90f0f118d"},"vehicle_type_id":"4","last_reported":1699985281,"current_range_meters":29600,"station_id":"cki0cbj6b192h4jlfktg","pricing_plan_id":"free"},{"bike_id":"45121553-ee95-4875-bc0f-4977223b23b7","system_id":"levelo_inurba_marseille","lat":43.298681,"lon":5.397225,"is_reserved":false,"is_disabled":false,"rental_uris":{"android":"levelo://app?vid=45121553-ee95-4875-bc0f-4977223b23b7","ios":"levelo://app?vid=45121553-ee95-4875-bc0f-4977223b23b7"},"vehicle_type_id":"4","last_reported":1699985281,"current_range_meters":8400,"station_id":"ce4bh0h2rcd13ifvqd50","pricing_plan_id":"free"},{"bike_id":"4acfaf02-10b6-4573-8c36-3ea2ff24a001","system_id":"levelo_inurba_marseille","lat":43.298681,"lon":5.397225,"is_reserved":false,"is_disabled":false,"rental_uris":{"android":"levelo://app?vid=4acfaf02-10b6-4573-8c36-3ea2ff24a001","ios":"levelo://app?vid=4acfaf02-10b6-4573-8c36-3ea2ff24a001"},"vehicle_type_id":"4","last_reported":1699985281,"current_range_meters":7600,"station_id":"ce4bh0h2rcd13ifvqd50","pricing_plan_id":"free"},{"bike_id":"d6bfa777-be1f-4729-b1f5-1675b1454344","system_id":"levelo_inurba_marseille","lat":43.298681,"lon":5.397225,"is_reserved":false,"is_disabled":false,"rental_uris":{"android":"levelo://app?vid=d6bfa777-be1f-4729-b1f5-1675b1454344","ios":"levelo://app?vid=d6bfa777-be1f-4729-b1f5-1675b1454344"},"vehicle_type_id":"4","last_reported":1699985281,"current_range_meters":0,"station_id":"ce4bh0h2rcd13ifvqd50","pricing_plan_id":"free"},{"bike_id":"1a057a92-acdb-4c53-9015-5ee8da683c02","system_id":"levelo_inurba_marseille","lat":43.29034,"lon":5.38647,"is_reserved":false,"is_disabled":false,"rental_uris":{"android":"levelo://app?vid=1a057a92-acdb-4c53-9015-5ee8da683c02","ios":"levelo://app?vid=1a057a92-acdb-4c53-9015-5ee8da683c02"},"vehicle_type_id":"4","last_reported":1699985281,"current_range_meters":0,"station_id":"ce4bh4p2rcd13ifvqe0g","pricing_plan_id":"free"},{"bike_id":"3dc556d4-8390-4199-9f92-b88280901c82","system_id":"levelo_inurba_marseille","lat":43.29035,"lon":5.38654,"is_reserved":false,"is_disabled":false,"rental_uris":{"android":"levelo://app?vid=3dc556d4-8390-4199-9f92-b88280901c82","ios":"levelo://app?vid=3dc556d4-8390-4199-9f92-b88280901c82"},"vehicle_type_id":"4","last_reported":1699985281,"current_range_meters":12400,"station_id":"ce4bh4p2rcd13ifvqe0g","pricing_plan_id":"free"},{"bike_id":"6dd65673-22a6-4243-bfc7-90696669a737","system_id":"levelo_inurba_marseille","lat":43.29032,"lon":5.38651,"is_reserved":false,"is_disabled":false,"rental_uris":{"android":"levelo://app?vid=6dd65673-22a6-4243-bfc7-90696669a737","ios":"levelo://app?vid=6dd65673-22a6-4243-bfc7-90696669a737"},"vehicle_type_id":"4","last_reported":1699985281,"current_range_meters":13200,"station_id":"","pricing_plan_id":"free"},{"bike_id":"331933b2-f479-4058-a9a2-4d159b8d497c","system_id":"levelo_inurba_marseille","lat":43.29029,"lon":5.38648,"is_reserved":false,"is_disabled":false,"rental_uris":{"android":"levelo://app?vid=331933b2-f479-4058-a9a2-4d159b8d497c","ios":"levelo://app?vid=331933b2-f479-4058-a9a2-4d159b8d497c"},"vehicle_type_id":"4","last_reported":1699985281,"current_range_meters":16000,"station_id":"","pricing_plan_id":"free"},{"bike_id":"c53b6bc7-76c4-4b12-9296-c38eea533abc","system_id":"levelo_inurba_marseille","lat":43.302759,"lon":5.400793,"is_reserved":false,"is_disabled":false,"rental_uris":{"android":"levelo://app?vid=c53b6bc7-76c4-4b12-9296-c38eea533abc","ios":"levelo://app?vid=c53b6bc7-76c4-4b12-9296-c38eea533abc"},"vehicle_type_id":"4","last_reported":1699985281,"current_range_meters":800,"station_id":"ce4bgvh2rcd13ifvqcs0","pricing_plan_id":"free"},{"bike_id":"a868f48c-7485-473a-b561-d2b5c6fa476b","system_id":"levelo_inurba_marseille","lat":43.29024,"lon":5.38646,"is_reserved":false,"is_disabled":false,"rental_uris":{"android":"levelo://app?vid=a868f48c-7485-473a-b561-d2b5c6fa476b","ios":"levelo://app?vid=a868f48c-7485-473a-b561-d2b5c6fa476b"},"vehicle_type_id":"4","last_reported":1699985281,"current_range_meters":5200,"station_id":"ce4bh4p2rcd13ifvqe0g","pricing_plan_id":"free"},{"bike_id":"f7fe05bd-38b2-4752-bb64-6e38277e5e19","system_id":"levelo_inurba_marseille","lat":43.29023,"lon":5.38647,"is_reserved":false,"is_disabled":false,"rental_uris":{"android":"levelo://app?vid=f7fe05bd-38b2-4752-bb64-6e38277e5e19","ios":"levelo://app?vid=f7fe05bd-38b2-4752-bb64-6e38277e5e19"},"vehicle_type_id":"4","last_reported":1699985281,"current_range_meters":0,"station_id":"ce4bh4p2rcd13ifvqe0g","pricing_plan_id":"free"},{"bike_id":"d963f31b-1c05-4946-8690-c2e3aa17cd85","system_id":"levelo_inurba_marseille","lat":43.29017,"lon":5.38651,"is_reserved":false,"is_disabled":false,"rental_uris":{"android":"levelo://app?vid=d963f31b-1c05-4946-8690-c2e3aa17cd85","ios":"levelo://app?vid=d963f31b-1c05-4946-8690-c2e3aa17cd85"},"vehicle_type_id":"4","last_reported":1699985281,"current_range_meters":15600,"station_id":"","pricing_plan_id":"free"},{"bike_id":"c488ff2e-56c1-46fc-82c5-a8bbb855de1c","system_id":"levelo_inurba_marseille","lat":43.30242,"lon":5.40084,"is_reserved":false,"is_disabled":false,"rental_uris":{"android":"levelo://app?vid=c488ff2e-56c1-46fc-82c5-a8bbb855de1c","ios":"levelo://app?vid=c488ff2e-56c1-46fc-82c5-a8bbb855de1c"},"vehicle_type_id":"4","last_reported":1699985281,"current_range_meters":0,"station_id":"ce4bgvh2rcd13ifvqcs0","pricing_plan_id":"free"},{"bike_id":"53cb5166-b013-4caa-b8a3-641a1a096a43","system_id":"levelo_inurba_marseille","lat":43.287184,"lon":5.37937,"is_reserved":false,"is_disabled":false,"rental_uris":{"android":"levelo://app?vid=53cb5166-b013-4caa-b8a3-641a1a096a43","ios":"levelo://app?vid=53cb5166-b013-4caa-b8a3-641a1a096a43"},"vehicle_type_id":"4","last_reported":1699985281,"current_range_meters":16800,"station_id":"ce4bh9p2rcd13ifvqec0","pricing_plan_id":"free"},{"bike_id":"5d1ab709-e027-4179-a353-a7e47d7065d4","system_id":"levelo_inurba_marseille","lat":43.287185,"lon":5.379373,"is_reserved":false,"is_disabled":false,"rental_uris":{"android":"levelo://app?vid=5d1ab709-e027-4179-a353-a7e47d7065d4","ios":"levelo://app?vid=5d1ab709-e027-4179-a353-a7e47d7065d4"},"vehicle_type_id":"4","last_reported":1699985281,"current_range_meters":16800,"station_id":"ce4bh9p2rcd13ifvqec0","pricing_plan_id":"free"},{"bike_id":"228cbbf5-b669-4ae7-b581-03836a1bf823","system_id":"levelo_inurba_marseille","lat":43.28715,"lon":5.38104,"is_reserved":false,"is_disabled":false,"rental_uris":{"android":"levelo://app?vid=228cbbf5-b669-4ae7-b581-03836a1bf823","ios":"levelo://app?vid=228cbbf5-b669-4ae7-b581-03836a1bf823"},"vehicle_type_id":"4","last_reported":1699985281,"current_range_meters":0,"station_id":"","pricing_plan_id":"free"},{"bike_id":"e57449c2-d088-47cf-8bf2-271593713c89","system_id":"levelo_inurba_marseille","lat":43.328576,"lon":5.398841,"is_reserved":false,"is_disabled":false,"rental_uris":{"android":"levelo://app?vid=e57449c2-d088-47cf-8bf2-271593713c89","ios":"levelo://app?vid=e57449c2-d088-47cf-8bf2-271593713c89"},"vehicle_type_id":"4","last_reported":1699985281,"current_range_meters":0,"station_id":"","pricing_plan_id":"free"},{"bike_id":"58c2fc16-632c-47a8-8ebf-1cf0287ae7ef","system_id":"levelo_inurba_marseille","lat":43.284663,"lon":5.358907,"is_reserved":false,"is_disabled":false,"rental_uris":{"android":"levelo://app?vid=58c2fc16-632c-47a8-8ebf-1cf0287ae7ef","ios":"levelo://app?vid=58c2fc16-632c-47a8-8ebf-1cf0287ae7ef"},"vehicle_type_id":"4","last_reported":1699985281,"current_range_meters":3600,"station_id":"ce4bhah2rcd13ifvqei0","pricing_plan_id":"free"},{"bike_id":"e47a29f8-c5f6-417a-aa31-bc1d82800c34","system_id":"levelo_inurba_marseille","lat":43.284534,"lon":5.358662,"is_reserved":false,"is_disabled":false,"rental_uris":{"android":"levelo://app?vid=e47a29f8-c5f6-417a-aa31-bc1d82800c34","ios":"levelo://app?vid=e47a29f8-c5f6-417a-aa31-bc1d82800c34"},"vehicle_type_id":"4","last_reported":1699985281,"current_range_meters":22400,"station_id":"ce4bhah2rcd13ifvqei0","pricing_plan_id":"free"},{"bike_id":"a1cead37-c188-4bde-ad1a-abf7a9291f2d","system_id":"levelo_inurba_marseille","lat":43.284538,"lon":5.358657,"is_reserved":false,"is_disabled":false,"rental_uris":{"android":"levelo://app?vid=a1cead37-c188-4bde-ad1a-abf7a9291f2d","ios":"levelo://app?vid=a1cead37-c188-4bde-ad1a-abf7a9291f2d"},"vehicle_type_id":"4","last_reported":1699985281,"current_range_meters":10800,"station_id":"ce4bhah2rcd13ifvqei0","pricing_plan_id":"free"},{"bike_id":"8ccd772e-e194-4bc2-957c-beb0891f6465","system_id":"levelo_inurba_marseille","lat":43.284534,"lon":5.358662,"is_reserved":false,"is_disabled":false,"rental_uris":{"android":"levelo://app?vid=8ccd772e-e194-4bc2-957c-beb0891f6465","ios":"levelo://app?vid=8ccd772e-e194-4bc2-957c-beb0891f6465"},"vehicle_type_id":"4","last_reported":1699985281,"current_range_meters":31200,"station_id":"ce4bhah2rcd13ifvqei0","pricing_plan_id":"free"},{"bike_id":"8e50f669-f928-4c5a-8716-38d703091fc8","system_id":"levelo_inurba_marseille","lat":43.284538,"lon":5.358657,"is_reserved":false,"is_disabled":false,"rental_uris":{"android":"levelo://app?vid=8e50f669-f928-4c5a-8716-38d703091fc8","ios":"levelo://app?vid=8e50f669-f928-4c5a-8716-38d703091fc8"},"vehicle_type_id":"4","last_reported":1699985281,"current_range_meters":18400,"station_id":"ce4bhah2rcd13ifvqei0","pricing_plan_id":"free"},{"bike_id":"3edf476a-6cd4-4e0d-be51-0aa060e21bb5","system_id":"levelo_inurba_marseille","lat":43.294314,"lon":5.397498,"is_reserved":false,"is_disabled":false,"rental_uris":{"android":"levelo://app?vid=3edf476a-6cd4-4e0d-be51-0aa060e21bb5","ios":"levelo://app?vid=3edf476a-6cd4-4e0d-be51-0aa060e21bb5"},"vehicle_type_id":"4","last_reported":1699985281,"current_range_meters":0,"station_id":"ce4bh3h2rcd13ifvqdo0","pricing_plan_id":"free"},{"bike_id":"cf2cf2b2-10de-4019-9216-3bcd4f64693e","system_id":"levelo_inurba_marseille","lat":43.28621,"lon":5.35103,"is_reserved":false,"is_disabled":false,"rental_uris":{"android":"levelo://app?vid=cf2cf2b2-10de-4019-9216-3bcd4f64693e","ios":"levelo://app?vid=cf2cf2b2-10de-4019-9216-3bcd4f64693e"},"vehicle_type_id":"4","last_reported":1699985281,"current_range_meters":0,"station_id":"ce4bhch2rcd13ifvqeug","pricing_plan_id":"free"},{"bike_id":"2fafe791-4894-4b5e-a2cc-fd41ec7f2489","system_id":"levelo_inurba_marseille","lat":43.28615,"lon":5.35102,"is_reserved":false,"is_disabled":false,"rental_uris":{"android":"levelo://app?vid=2fafe791-4894-4b5e-a2cc-fd41ec7f2489","ios":"levelo://app?vid=2fafe791-4894-4b5e-a2cc-fd41ec7f2489"},"vehicle_type_id":"4","last_reported":1699985281,"current_range_meters":0,"station_id":"ce4bhch2rcd13ifvqeug","pricing_plan_id":"free"},{"bike_id":"fec581f7-562b-4b49-abad-bc41408993b5","system_id":"levelo_inurba_marseille","lat":43.283998,"lon":5.375062,"is_reserved":false,"is_disabled":false,"rental_uris":{"android":"levelo://app?vid=fec581f7-562b-4b49-abad-bc41408993b5","ios":"levelo://app?vid=fec581f7-562b-4b49-abad-bc41408993b5"},"vehicle_type_id":"4","last_reported":1699985281,"current_range_meters":24400,"station_id":"ce4bh412rcd13ifvqds0","pricing_plan_id":"free"},{"bike_id":"7c31b9d0-29a7-4aef-a82b-c1dd75ba4cab","system_id":"levelo_inurba_marseille","lat":43.295713,"lon":5.399639,"is_reserved":false,"is_disabled":false,"rental_uris":{"android":"levelo://app?vid=7c31b9d0-29a7-4aef-a82b-c1dd75ba4cab","ios":"levelo://app?vid=7c31b9d0-29a7-4aef-a82b-c1dd75ba4cab"},"vehicle_type_id":"4","last_reported":1699985281,"current_range_meters":23600,"station_id":"ce4bh312rcd13ifvqdj0","pricing_plan_id":"free"},{"bike_id":"6f67d3c0-6508-4674-a799-ae024645f80b","system_id":"levelo_inurba_marseille","lat":43.286595,"lon":5.386795,"is_reserved":false,"is_disabled":false,"rental_uris":{"android":"levelo://app?vid=6f67d3c0-6508-4674-a799-ae024645f80b","ios":"levelo://app?vid=6f67d3c0-6508-4674-a799-ae024645f80b"},"vehicle_type_id":"4","last_reported":1699985281,"current_range_meters":6400,"station_id":"ce4bh492rcd13ifvqdug","pricing_plan_id":"free"},{"bike_id":"c8b486ad-ea4c-4a04-b748-05550353e140","system_id":"levelo_inurba_marseille","lat":43.319179,"lon":5.407725,"is_reserved":false,"is_disabled":false,"rental_uris":{"android":"levelo://app?vid=c8b486ad-ea4c-4a04-b748-05550353e140","ios":"levelo://app?vid=c8b486ad-ea4c-4a04-b748-05550353e140"},"vehicle_type_id":"4","last_reported":1699985281,"current_range_meters":4800,"station_id":"ce4bhq12rcd13ifvqhig","pricing_plan_id":"free"},{"bike_id":"2d0048a6-a1f9-42ce-93c8-35a78b214630","system_id":"levelo_inurba_marseille","lat":43.288497,"lon":5.393089,"is_reserved":false,"is_disabled":false,"rental_uris":{"android":"levelo://app?vid=2d0048a6-a1f9-42ce-93c8-35a78b214630","ios":"levelo://app?vid=2d0048a6-a1f9-42ce-93c8-35a78b214630"},"vehicle_type_id":"4","last_reported":1699985281,"current_range_meters":4000,"station_id":"ce4bh2p2rcd13ifvqdi0","pricing_plan_id":"free"},{"bike_id":"1c18b6ad-e778-489f-958c-2d8b2e0f930e","system_id":"levelo_inurba_marseille","lat":43.288501,"lon":5.393087,"is_reserved":false,"is_disabled":false,"rental_uris":{"android":"levelo://app?vid=1c18b6ad-e778-489f-958c-2d8b2e0f930e","ios":"levelo://app?vid=1c18b6ad-e778-489f-958c-2d8b2e0f930e"},"vehicle_type_id":"4","last_reported":1699985281,"current_range_meters":400,"station_id":"ce4bh2p2rcd13ifvqdi0","pricing_plan_id":"free"},{"bike_id":"110991a2-92b7-4bb2-930b-aeba9f595903","system_id":"levelo_inurba_marseille","lat":43.29279,"lon":5.40111,"is_reserved":false,"is_disabled":false,"rental_uris":{"android":"levelo://app?vid=110991a2-92b7-4bb2-930b-aeba9f595903","ios":"levelo://app?vid=110991a2-92b7-4bb2-930b-aeba9f595903"},"vehicle_type_id":"4","last_reported":1699985281,"current_range_meters":0,"station_id":"ce4bh312rcd13ifvqdk0","pricing_plan_id":"free"},{"bike_id":"9b4e5b50-47ac-4855-bda1-111acd886b34","system_id":"levelo_inurba_marseille","lat":43.28039,"lon":5.369297,"is_reserved":false,"is_disabled":false,"rental_uris":{"android":"levelo://app?vid=9b4e5b50-47ac-4855-bda1-111acd886b34","ios":"levelo://app?vid=9b4e5b50-47ac-4855-bda1-111acd886b34"},"vehicle_type_id":"4","last_reported":1699985281,"current_range_meters":17200,"station_id":"ce4bha12rcd13ifvqef0","pricing_plan_id":"free"},{"bike_id":"11e575f8-2a2b-46b5-94e9-7d398dbc7d55","system_id":"levelo_inurba_marseille","lat":43.283502,"lon":5.386471,"is_reserved":false,"is_disabled":false,"rental_uris":{"android":"levelo://app?vid=11e575f8-2a2b-46b5-94e9-7d398dbc7d55","ios":"levelo://app?vid=11e575f8-2a2b-46b5-94e9-7d398dbc7d55"},"vehicle_type_id":"4","last_reported":1699985281,"current_range_meters":800,"station_id":"ce4bh492rcd13ifvqdvg","pricing_plan_id":"free"},{"bike_id":"3be93491-f187-41ae-8125-a2466b5ad074","system_id":"levelo_inurba_marseille","lat":43.283502,"lon":5.386471,"is_reserved":false,"is_disabled":false,"rental_uris":{"android":"levelo://app?vid=3be93491-f187-41ae-8125-a2466b5ad074","ios":"levelo://app?vid=3be93491-f187-41ae-8125-a2466b5ad074"},"vehicle_type_id":"4","last_reported":1699985281,"current_range_meters":18000,"station_id":"ce4bh492rcd13ifvqdvg","pricing_plan_id":"free"},{"bike_id":"7458d4b1-065b-4006-ba8d-3490ea137419","system_id":"levelo_inurba_marseille","lat":43.28039,"lon":5.369297,"is_reserved":false,"is_disabled":false,"rental_uris":{"android":"levelo://app?vid=7458d4b1-065b-4006-ba8d-3490ea137419","ios":"levelo://app?vid=7458d4b1-065b-4006-ba8d-3490ea137419"},"vehicle_type_id":"4","last_reported":1699985281,"current_range_meters":10000,"station_id":"ce4bha12rcd13ifvqef0","pricing_plan_id":"free"},{"bike_id":"e8d4de81-7d10-4ff3-8b49-d8d5f8a54cb1","system_id":"levelo_inurba_marseille","lat":43.28035,"lon":5.36943,"is_reserved":false,"is_disabled":false,"rental_uris":{"android":"levelo://app?vid=e8d4de81-7d10-4ff3-8b49-d8d5f8a54cb1","ios":"levelo://app?vid=e8d4de81-7d10-4ff3-8b49-d8d5f8a54cb1"},"vehicle_type_id":"4","last_reported":1699985281,"current_range_meters":18800,"station_id":"ce4bha12rcd13ifvqef0","pricing_plan_id":"free"},{"bike_id":"8397e29a-002d-42a7-8bd1-01dface4ff02","system_id":"levelo_inurba_marseille","lat":43.29054,"lon":5.39978,"is_reserved":false,"is_disabled":false,"rental_uris":{"android":"levelo://app?vid=8397e29a-002d-42a7-8bd1-01dface4ff02","ios":"levelo://app?vid=8397e29a-002d-42a7-8bd1-01dface4ff02"},"vehicle_type_id":"4","last_reported":1699985281,"current_range_meters":0,"station_id":"ce4bh392rcd13ifvqdm0","pricing_plan_id":"free"},{"bike_id":"9504d3a8-4529-4ac0-b808-390ba2d73a3f","system_id":"levelo_inurba_marseille","lat":43.290412,"lon":5.399633,"is_reserved":false,"is_disabled":false,"rental_uris":{"android":"levelo://app?vid=9504d3a8-4529-4ac0-b808-390ba2d73a3f","ios":"levelo://app?vid=9504d3a8-4529-4ac0-b808-390ba2d73a3f"},"vehicle_type_id":"4","last_reported":1699985281,"current_range_meters":0,"station_id":"ce4bh392rcd13ifvqdm0","pricing_plan_id":"free"},{"bike_id":"0af82fb3-5446-4e4f-9ba4-46dffb5f8ad5","system_id":"levelo_inurba_marseille","lat":43.281044,"lon":5.378308,"is_reserved":false,"is_disabled":false,"rental_uris":{"android":"levelo://app?vid=0af82fb3-5446-4e4f-9ba4-46dffb5f8ad5","ios":"levelo://app?vid=0af82fb3-5446-4e4f-9ba4-46dffb5f8ad5"},"vehicle_type_id":"4","last_reported":1699985281,"current_range_meters":400,"station_id":"ce4bha12rcd13ifvqee0","pricing_plan_id":"free"},{"bike_id":"90fa543f-e311-42ff-abd6-02d77190df91","system_id":"levelo_inurba_marseille","lat":43.290237,"lon":5.399913,"is_reserved":false,"is_disabled":false,"rental_uris":{"android":"levelo://app?vid=90fa543f-e311-42ff-abd6-02d77190df91","ios":"levelo://app?vid=90fa543f-e311-42ff-abd6-02d77190df91"},"vehicle_type_id":"4","last_reported":1699985281,"current_range_meters":0,"station_id":"ce4bh392rcd13ifvqdm0","pricing_plan_id":"free"},{"bike_id":"c5269fde-c094-4163-a2ac-a6350e774e3c","system_id":"levelo_inurba_marseille","lat":43.323447,"lon":5.41003,"is_reserved":false,"is_disabled":false,"rental_uris":{"android":"levelo://app?vid=c5269fde-c094-4163-a2ac-a6350e774e3c","ios":"levelo://app?vid=c5269fde-c094-4163-a2ac-a6350e774e3c"},"vehicle_type_id":"4","last_reported":1699985281,"current_range_meters":0,"station_id":"","pricing_plan_id":"free"},{"bike_id":"8d8f459f-4f62-4772-aeeb-16f305dee9fb","system_id":"levelo_inurba_marseille","lat":43.285742,"lon":5.395004,"is_reserved":false,"is_disabled":false,"rental_uris":{"android":"levelo://app?vid=8d8f459f-4f62-4772-aeeb-16f305dee9fb","ios":"levelo://app?vid=8d8f459f-4f62-4772-aeeb-16f305dee9fb"},"vehicle_type_id":"4","last_reported":1699985281,"current_range_meters":0,"station_id":"ce4bh292rcd13ifvqdg0","pricing_plan_id":"free"},{"bike_id":"2d2edcd7-b8be-4271-88bc-048e03770b3d","system_id":"levelo_inurba_marseille","lat":43.28573,"lon":5.394992,"is_reserved":false,"is_disabled":false,"rental_uris":{"android":"levelo://app?vid=2d2edcd7-b8be-4271-88bc-048e03770b3d","ios":"levelo://app?vid=2d2edcd7-b8be-4271-88bc-048e03770b3d"},"vehicle_type_id":"4","last_reported":1699985281,"current_range_meters":2000,"station_id":"ce4bh292rcd13ifvqdg0","pricing_plan_id":"free"},{"bike_id":"ccf9b17e-2fb6-47d5-b5cb-73ea08fcb6e5","system_id":"levelo_inurba_marseille","lat":43.28575,"lon":5.39498,"is_reserved":false,"is_disabled":false,"rental_uris":{"android":"levelo://app?vid=ccf9b17e-2fb6-47d5-b5cb-73ea08fcb6e5","ios":"levelo://app?vid=ccf9b17e-2fb6-47d5-b5cb-73ea08fcb6e5"},"vehicle_type_id":"4","last_reported":1699985281,"current_range_meters":15600,"station_id":"ce4bh292rcd13ifvqdg0","pricing_plan_id":"free"},{"bike_id":"908afd8d-d0f3-469f-a3f6-a0466b98928b","system_id":"levelo_inurba_marseille","lat":43.304188,"lon":5.412904,"is_reserved":false,"is_disabled":false,"rental_uris":{"android":"levelo://app?vid=908afd8d-d0f3-469f-a3f6-a0466b98928b","ios":"levelo://app?vid=908afd8d-d0f3-469f-a3f6-a0466b98928b"},"vehicle_type_id":"4","last_reported":1699985281,"current_range_meters":16400,"station_id":"ce4bhop2rcd13ifvqh8g","pricing_plan_id":"free"},{"bike_id":"fc2419fa-b439-4c21-a2a5-0a167a67f3f3","system_id":"levelo_inurba_marseille","lat":43.304188,"lon":5.412904,"is_reserved":false,"is_disabled":false,"rental_uris":{"android":"levelo://app?vid=fc2419fa-b439-4c21-a2a5-0a167a67f3f3","ios":"levelo://app?vid=fc2419fa-b439-4c21-a2a5-0a167a67f3f3"},"vehicle_type_id":"4","last_reported":1699985281,"current_range_meters":16800,"station_id":"ce4bhop2rcd13ifvqh8g","pricing_plan_id":"free"},{"bike_id":"508df3ce-6301-470d-ba4f-622cfa047637","system_id":"levelo_inurba_marseille","lat":43.279087,"lon":5.380114,"is_reserved":false,"is_disabled":false,"rental_uris":{"android":"levelo://app?vid=508df3ce-6301-470d-ba4f-622cfa047637","ios":"levelo://app?vid=508df3ce-6301-470d-ba4f-622cfa047637"},"vehicle_type_id":"4","last_reported":1699985281,"current_range_meters":7200,"station_id":"ce4bhf92rcd13ifvqf50","pricing_plan_id":"free"},{"bike_id":"34bf0749-4d4d-4a4b-8902-75832b8148b0","system_id":"levelo_inurba_marseille","lat":43.28064,"lon":5.34771,"is_reserved":false,"is_disabled":false,"rental_uris":{"android":"levelo://app?vid=34bf0749-4d4d-4a4b-8902-75832b8148b0","ios":"levelo://app?vid=34bf0749-4d4d-4a4b-8902-75832b8148b0"},"vehicle_type_id":"4","last_reported":1699985281,"current_range_meters":21200,"station_id":"","pricing_plan_id":"free"},{"bike_id":"e69e62b3-6690-4a07-a060-ae6cfb89eda1","system_id":"levelo_inurba_marseille","lat":43.279087,"lon":5.380114,"is_reserved":false,"is_disabled":false,"rental_uris":{"android":"levelo://app?vid=e69e62b3-6690-4a07-a060-ae6cfb89eda1","ios":"levelo://app?vid=e69e62b3-6690-4a07-a060-ae6cfb89eda1"},"vehicle_type_id":"4","last_reported":1699985281,"current_range_meters":30800,"station_id":"ce4bhf92rcd13ifvqf50","pricing_plan_id":"free"},{"bike_id":"feca28d2-7019-4e39-96be-d7938cc29597","system_id":"levelo_inurba_marseille","lat":43.32435,"lon":5.4137,"is_reserved":false,"is_disabled":false,"rental_uris":{"android":"levelo://app?vid=feca28d2-7019-4e39-96be-d7938cc29597","ios":"levelo://app?vid=feca28d2-7019-4e39-96be-d7938cc29597"},"vehicle_type_id":"4","last_reported":1699985281,"current_range_meters":9200,"station_id":"","pricing_plan_id":"free"},{"bike_id":"eb062761-1725-4763-b373-639a9d04d85c","system_id":"levelo_inurba_marseille","lat":43.299579,"lon":5.413255,"is_reserved":false,"is_disabled":false,"rental_uris":{"android":"levelo://app?vid=eb062761-1725-4763-b373-639a9d04d85c","ios":"levelo://app?vid=eb062761-1725-4763-b373-639a9d04d85c"},"vehicle_type_id":"4","last_reported":1699985281,"current_range_meters":22400,"station_id":"ce4bhp12rcd13ifvqh9g","pricing_plan_id":"free"},{"bike_id":"56067e6f-f2e1-495d-865f-62f64030320c","system_id":"levelo_inurba_marseille","lat":43.28163,"lon":5.3922,"is_reserved":false,"is_disabled":false,"rental_uris":{"android":"levelo://app?vid=56067e6f-f2e1-495d-865f-62f64030320c","ios":"levelo://app?vid=56067e6f-f2e1-495d-865f-62f64030320c"},"vehicle_type_id":"4","last_reported":1699985281,"current_range_meters":0,"station_id":"","pricing_plan_id":"free"},{"bike_id":"74a70d47-ee0c-4e14-a619-a527872095b5","system_id":"levelo_inurba_marseille","lat":43.279742,"lon":5.38744,"is_reserved":false,"is_disabled":false,"rental_uris":{"android":"levelo://app?vid=74a70d47-ee0c-4e14-a619-a527872095b5","ios":"levelo://app?vid=74a70d47-ee0c-4e14-a619-a527872095b5"},"vehicle_type_id":"4","last_reported":1699985281,"current_range_meters":1600,"station_id":"ce4bhg12rcd13ifvqf80","pricing_plan_id":"free"},{"bike_id":"c8a8052b-fc90-40bc-ad87-d07475c3ea9b","system_id":"levelo_inurba_marseille","lat":43.292571,"lon":5.409107,"is_reserved":false,"is_disabled":false,"rental_uris":{"android":"levelo://app?vid=c8a8052b-fc90-40bc-ad87-d07475c3ea9b","ios":"levelo://app?vid=c8a8052b-fc90-40bc-ad87-d07475c3ea9b"},"vehicle_type_id":"4","last_reported":1699985281,"current_range_meters":1200,"station_id":"ce4bh192rcd13ifvqdc0","pricing_plan_id":"free"},{"bike_id":"56ec4631-19f2-458f-ae42-97a9d89ae45b","system_id":"levelo_inurba_marseille","lat":43.331262,"lon":5.410744,"is_reserved":false,"is_disabled":false,"rental_uris":{"android":"levelo://app?vid=56ec4631-19f2-458f-ae42-97a9d89ae45b","ios":"levelo://app?vid=56ec4631-19f2-458f-ae42-97a9d89ae45b"},"vehicle_type_id":"4","last_reported":1699985281,"current_range_meters":0,"station_id":"","pricing_plan_id":"free"},{"bike_id":"78313f07-b628-486f-b4fe-83bb790e2f13","system_id":"levelo_inurba_marseille","lat":43.32531,"lon":5.41586,"is_reserved":false,"is_disabled":false,"rental_uris":{"android":"levelo://app?vid=78313f07-b628-486f-b4fe-83bb790e2f13","ios":"levelo://app?vid=78313f07-b628-486f-b4fe-83bb790e2f13"},"vehicle_type_id":"4","last_reported":1699985281,"current_range_meters":15600,"station_id":"","pricing_plan_id":"free"},{"bike_id":"6896f85d-1800-4c16-b4eb-182ad7166bb0","system_id":"levelo_inurba_marseille","lat":43.325253,"lon":5.41603,"is_reserved":false,"is_disabled":false,"rental_uris":{"android":"levelo://app?vid=6896f85d-1800-4c16-b4eb-182ad7166bb0","ios":"levelo://app?vid=6896f85d-1800-4c16-b4eb-182ad7166bb0"},"vehicle_type_id":"4","last_reported":1699985281,"current_range_meters":28800,"station_id":"","pricing_plan_id":"free"},{"bike_id":"58b30156-b9ee-4772-b2b8-187602fee6da","system_id":"levelo_inurba_marseille","lat":43.29364,"lon":5.412553,"is_reserved":false,"is_disabled":false,"rental_uris":{"android":"levelo://app?vid=58b30156-b9ee-4772-b2b8-187602fee6da","ios":"levelo://app?vid=58b30156-b9ee-4772-b2b8-187602fee6da"},"vehicle_type_id":"4","last_reported":1699985281,"current_range_meters":13200,"station_id":"","pricing_plan_id":"free"},{"bike_id":"eb37ac1a-9127-4b4c-bf7a-7fa4d5a9ba8e","system_id":"levelo_inurba_marseille","lat":43.293706,"lon":5.41261,"is_reserved":false,"is_disabled":false,"rental_uris":{"android":"levelo://app?vid=eb37ac1a-9127-4b4c-bf7a-7fa4d5a9ba8e","ios":"levelo://app?vid=eb37ac1a-9127-4b4c-bf7a-7fa4d5a9ba8e"},"vehicle_type_id":"4","last_reported":1699985281,"current_range_meters":23200,"station_id":"","pricing_plan_id":"free"},{"bike_id":"f41ed599-0d52-4b18-82ae-fb2ca59c0476","system_id":"levelo_inurba_marseille","lat":43.28603,"lon":5.40527,"is_reserved":false,"is_disabled":false,"rental_uris":{"android":"levelo://app?vid=f41ed599-0d52-4b18-82ae-fb2ca59c0476","ios":"levelo://app?vid=f41ed599-0d52-4b18-82ae-fb2ca59c0476"},"vehicle_type_id":"4","last_reported":1699985281,"current_range_meters":7600,"station_id":"","pricing_plan_id":"free"},{"bike_id":"e8f68e2b-c799-4660-a0ad-49ce3a5f5bfc","system_id":"levelo_inurba_marseille","lat":43.275727,"lon":5.384175,"is_reserved":false,"is_disabled":false,"rental_uris":{"android":"levelo://app?vid=e8f68e2b-c799-4660-a0ad-49ce3a5f5bfc","ios":"levelo://app?vid=e8f68e2b-c799-4660-a0ad-49ce3a5f5bfc"},"vehicle_type_id":"4","last_reported":1699985281,"current_range_meters":18000,"station_id":"ce4bhh92rcd13ifvqfi0","pricing_plan_id":"free"},{"bike_id":"eb1d9a06-7ff2-4c50-9901-7678a68aae3f","system_id":"levelo_inurba_marseille","lat":43.275657,"lon":5.384227,"is_reserved":false,"is_disabled":false,"rental_uris":{"android":"levelo://app?vid=eb1d9a06-7ff2-4c50-9901-7678a68aae3f","ios":"levelo://app?vid=eb1d9a06-7ff2-4c50-9901-7678a68aae3f"},"vehicle_type_id":"4","last_reported":1699985281,"current_range_meters":18400,"station_id":"ce4bhh92rcd13ifvqfi0","pricing_plan_id":"free"},{"bike_id":"295ab160-8ff4-45b2-913e-447a034679fa","system_id":"levelo_inurba_marseille","lat":43.33612,"lon":5.410321,"is_reserved":false,"is_disabled":false,"rental_uris":{"android":"levelo://app?vid=295ab160-8ff4-45b2-913e-447a034679fa","ios":"levelo://app?vid=295ab160-8ff4-45b2-913e-447a034679fa"},"vehicle_type_id":"4","last_reported":1699985281,"current_range_meters":800,"station_id":"ce4bhqh2rcd13ifvqhmg","pricing_plan_id":"free"},{"bike_id":"96125fbd-7956-4f4a-9db0-7d6885072e20","system_id":"levelo_inurba_marseille","lat":43.27562,"lon":5.38429,"is_reserved":false,"is_disabled":false,"rental_uris":{"android":"levelo://app?vid=96125fbd-7956-4f4a-9db0-7d6885072e20","ios":"levelo://app?vid=96125fbd-7956-4f4a-9db0-7d6885072e20"},"vehicle_type_id":"4","last_reported":1699985281,"current_range_meters":10800,"station_id":"ce4bhh92rcd13ifvqfi0","pricing_plan_id":"free"},{"bike_id":"ce03ecf3-9f95-47ba-92fb-41813a1d07cc","system_id":"levelo_inurba_marseille","lat":43.276653,"lon":5.38885,"is_reserved":false,"is_disabled":false,"rental_uris":{"android":"levelo://app?vid=ce03ecf3-9f95-47ba-92fb-41813a1d07cc","ios":"levelo://app?vid=ce03ecf3-9f95-47ba-92fb-41813a1d07cc"},"vehicle_type_id":"4","last_reported":1699985281,"current_range_meters":0,"station_id":"ce4bhi12rcd13ifvqfo0","pricing_plan_id":"free"},{"bike_id":"50fc40db-4b24-48fd-8969-b03db002faae","system_id":"levelo_inurba_marseille","lat":43.28004,"lon":5.40015,"is_reserved":false,"is_disabled":false,"rental_uris":{"android":"levelo://app?vid=50fc40db-4b24-48fd-8969-b03db002faae","ios":"levelo://app?vid=50fc40db-4b24-48fd-8969-b03db002faae"},"vehicle_type_id":"4","last_reported":1699985281,"current_range_meters":13600,"station_id":"ce4bho92rcd13ifvqh4g","pricing_plan_id":"free"},{"bike_id":"3c915ddf-89fc-4134-8d49-899a03954794","system_id":"levelo_inurba_marseille","lat":43.310785,"lon":5.424305,"is_reserved":false,"is_disabled":false,"rental_uris":{"android":"levelo://app?vid=3c915ddf-89fc-4134-8d49-899a03954794","ios":"levelo://app?vid=3c915ddf-89fc-4134-8d49-899a03954794"},"vehicle_type_id":"4","last_reported":1699985281,"current_range_meters":0,"station_id":"ce4bhp92rcd13ifvqhag","pricing_plan_id":"free"},{"bike_id":"b967939f-36b0-430e-936d-40d8e605aea9","system_id":"levelo_inurba_marseille","lat":43.292644,"lon":5.384257,"is_reserved":false,"is_disabled":false,"rental_uris":{"android":"levelo://app?vid=b967939f-36b0-430e-936d-40d8e605aea9","ios":"levelo://app?vid=b967939f-36b0-430e-936d-40d8e605aea9"},"vehicle_type_id":"4","last_reported":1699985281,"current_range_meters":2800,"station_id":"ce4bh692rcd13ifvqea0","pricing_plan_id":"free"},{"bike_id":"3d6f9382-7c6e-40ab-a9b4-1f62578b0238","system_id":"levelo_inurba_marseille","lat":43.295511,"lon":5.422926,"is_reserved":false,"is_disabled":false,"rental_uris":{"android":"levelo://app?vid=3d6f9382-7c6e-40ab-a9b4-1f62578b0238","ios":"levelo://app?vid=3d6f9382-7c6e-40ab-a9b4-1f62578b0238"},"vehicle_type_id":"4","last_reported":1699985281,"current_range_meters":13200,"station_id":"ce4bhph2rcd13ifvqhdg","pricing_plan_id":"free"},{"bike_id":"1c3e91e0-7bdb-4bdf-86e2-9641716de885","system_id":"levelo_inurba_marseille","lat":43.272124,"lon":5.391768,"is_reserved":false,"is_disabled":false,"rental_uris":{"android":"levelo://app?vid=1c3e91e0-7bdb-4bdf-86e2-9641716de885","ios":"levelo://app?vid=1c3e91e0-7bdb-4bdf-86e2-9641716de885"},"vehicle_type_id":"4","last_reported":1699985281,"current_range_meters":2800,"station_id":"ce4bhhp2rcd13ifvqfm0","pricing_plan_id":"free"},{"bike_id":"f0ed4531-078e-42fb-a007-3ed80505eb54","system_id":"levelo_inurba_marseille","lat":43.27193,"lon":5.39241,"is_reserved":false,"is_disabled":false,"rental_uris":{"android":"levelo://app?vid=f0ed4531-078e-42fb-a007-3ed80505eb54","ios":"levelo://app?vid=f0ed4531-078e-42fb-a007-3ed80505eb54"},"vehicle_type_id":"4","last_reported":1699985281,"current_range_meters":13200,"station_id":"","pricing_plan_id":"free"},{"bike_id":"fe75077d-42bf-43ae-8fa2-44109df3d40a","system_id":"levelo_inurba_marseille","lat":43.27203,"lon":5.39295,"is_reserved":false,"is_disabled":false,"rental_uris":{"android":"levelo://app?vid=fe75077d-42bf-43ae-8fa2-44109df3d40a","ios":"levelo://app?vid=fe75077d-42bf-43ae-8fa2-44109df3d40a"},"vehicle_type_id":"4","last_reported":1699985281,"current_range_meters":6800,"station_id":"","pricing_plan_id":"free"},{"bike_id":"dd6509e1-e13c-4be6-b9cd-e079add9ed87","system_id":"levelo_inurba_marseille","lat":43.278128,"lon":5.407195,"is_reserved":false,"is_disabled":false,"rental_uris":{"android":"levelo://app?vid=dd6509e1-e13c-4be6-b9cd-e079add9ed87","ios":"levelo://app?vid=dd6509e1-e13c-4be6-b9cd-e079add9ed87"},"vehicle_type_id":"4","last_reported":1699985281,"current_range_meters":1200,"station_id":"ce4bhnh2rcd13ifvqgtg","pricing_plan_id":"free"},{"bike_id":"9950a817-da71-4c8e-a1d3-b5a28e7e5fda","system_id":"levelo_inurba_marseille","lat":43.269319,"lon":5.389397,"is_reserved":false,"is_disabled":false,"rental_uris":{"android":"levelo://app?vid=9950a817-da71-4c8e-a1d3-b5a28e7e5fda","ios":"levelo://app?vid=9950a817-da71-4c8e-a1d3-b5a28e7e5fda"},"vehicle_type_id":"4","last_reported":1699985281,"current_range_meters":4800,"station_id":"ce4bhhh2rcd13ifvqfl0","pricing_plan_id":"free"},{"bike_id":"39213531-b9f7-4dc4-9d01-9517b3e9c713","system_id":"levelo_inurba_marseille","lat":43.26929,"lon":5.38917,"is_reserved":false,"is_disabled":false,"rental_uris":{"android":"levelo://app?vid=39213531-b9f7-4dc4-9d01-9517b3e9c713","ios":"levelo://app?vid=39213531-b9f7-4dc4-9d01-9517b3e9c713"},"vehicle_type_id":"4","last_reported":1699985281,"current_range_meters":5200,"station_id":"ce4bhhh2rcd13ifvqfl0","pricing_plan_id":"free"},{"bike_id":"078b5feb-f5ce-4f1d-9325-45d044ab1ce9","system_id":"levelo_inurba_marseille","lat":43.26924,"lon":5.3892,"is_reserved":false,"is_disabled":false,"rental_uris":{"android":"levelo://app?vid=078b5feb-f5ce-4f1d-9325-45d044ab1ce9","ios":"levelo://app?vid=078b5feb-f5ce-4f1d-9325-45d044ab1ce9"},"vehicle_type_id":"4","last_reported":1699985281,"current_range_meters":27600,"station_id":"ce4bhhh2rcd13ifvqfl0","pricing_plan_id":"free"},{"bike_id":"b0c89744-fda9-41a7-8de4-3f4c2dc8998b","system_id":"levelo_inurba_marseille","lat":43.265714,"lon":5.372891,"is_reserved":false,"is_disabled":false,"rental_uris":{"android":"levelo://app?vid=b0c89744-fda9-41a7-8de4-3f4c2dc8998b","ios":"levelo://app?vid=b0c89744-fda9-41a7-8de4-3f4c2dc8998b"},"vehicle_type_id":"4","last_reported":1699985281,"current_range_meters":23200,"station_id":"ce4bhg12rcd13ifvqf70","pricing_plan_id":"free"},{"bike_id":"b2ff9841-e8e2-41a4-934a-2e4e4f8226a7","system_id":"levelo_inurba_marseille","lat":43.27996,"lon":5.416624,"is_reserved":false,"is_disabled":false,"rental_uris":{"android":"levelo://app?vid=b2ff9841-e8e2-41a4-934a-2e4e4f8226a7","ios":"levelo://app?vid=b2ff9841-e8e2-41a4-934a-2e4e4f8226a7"},"vehicle_type_id":"4","last_reported":1699985281,"current_range_meters":12800,"station_id":"ce4bho12rcd13ifvqh1g","pricing_plan_id":"free"},{"bike_id":"e4bdb1d3-d7ca-4191-8916-d53da7dd08ac","system_id":"levelo_inurba_marseille","lat":43.27996,"lon":5.416624,"is_reserved":false,"is_disabled":false,"rental_uris":{"android":"levelo://app?vid=e4bdb1d3-d7ca-4191-8916-d53da7dd08ac","ios":"levelo://app?vid=e4bdb1d3-d7ca-4191-8916-d53da7dd08ac"},"vehicle_type_id":"4","last_reported":1699985281,"current_range_meters":18000,"station_id":"ce4bho12rcd13ifvqh1g","pricing_plan_id":"free"},{"bike_id":"fb4edacc-176d-4fd3-bddc-4737ac1478de","system_id":"levelo_inurba_marseille","lat":43.265714,"lon":5.372891,"is_reserved":false,"is_disabled":false,"rental_uris":{"android":"levelo://app?vid=fb4edacc-176d-4fd3-bddc-4737ac1478de","ios":"levelo://app?vid=fb4edacc-176d-4fd3-bddc-4737ac1478de"},"vehicle_type_id":"4","last_reported":1699985281,"current_range_meters":5600,"station_id":"ce4bhg12rcd13ifvqf70","pricing_plan_id":"free"},{"bike_id":"4376276d-9783-4873-81f8-4573e5e7eec2","system_id":"levelo_inurba_marseille","lat":43.267966,"lon":5.393976,"is_reserved":false,"is_disabled":false,"rental_uris":{"android":"levelo://app?vid=4376276d-9783-4873-81f8-4573e5e7eec2","ios":"levelo://app?vid=4376276d-9783-4873-81f8-4573e5e7eec2"},"vehicle_type_id":"4","last_reported":1699985281,"current_range_meters":9600,"station_id":"ce4bhh12rcd13ifvqfg0","pricing_plan_id":"free"},{"bike_id":"093417f9-f3b2-460e-a4df-273635067b93","system_id":"levelo_inurba_marseille","lat":43.27012,"lon":5.401608,"is_reserved":false,"is_disabled":false,"rental_uris":{"android":"levelo://app?vid=093417f9-f3b2-460e-a4df-273635067b93","ios":"levelo://app?vid=093417f9-f3b2-460e-a4df-273635067b93"},"vehicle_type_id":"4","last_reported":1699985281,"current_range_meters":17600,"station_id":"","pricing_plan_id":"free"},{"bike_id":"88cbc86b-55bc-47dc-933e-e64180753a61","system_id":"levelo_inurba_marseille","lat":43.267614,"lon":5.396013,"is_reserved":false,"is_disabled":false,"rental_uris":{"android":"levelo://app?vid=88cbc86b-55bc-47dc-933e-e64180753a61","ios":"levelo://app?vid=88cbc86b-55bc-47dc-933e-e64180753a61"},"vehicle_type_id":"4","last_reported":1699985281,"current_range_meters":7200,"station_id":"","pricing_plan_id":"free"},{"bike_id":"747a95e6-7ec2-4732-a57e-6183fa9515a7","system_id":"levelo_inurba_marseille","lat":43.3079,"lon":5.43517,"is_reserved":false,"is_disabled":false,"rental_uris":{"android":"levelo://app?vid=747a95e6-7ec2-4732-a57e-6183fa9515a7","ios":"levelo://app?vid=747a95e6-7ec2-4732-a57e-6183fa9515a7"},"vehicle_type_id":"4","last_reported":1699985281,"current_range_meters":5200,"station_id":"ce4bhph2rcd13ifvqheg","pricing_plan_id":"free"},{"bike_id":"08d079db-0f7b-45c8-9ab3-9a759da481c7","system_id":"levelo_inurba_marseille","lat":43.265569,"lon":5.390047,"is_reserved":false,"is_disabled":false,"rental_uris":{"android":"levelo://app?vid=08d079db-0f7b-45c8-9ab3-9a759da481c7","ios":"levelo://app?vid=08d079db-0f7b-45c8-9ab3-9a759da481c7"},"vehicle_type_id":"4","last_reported":1699985281,"current_range_meters":0,"station_id":"ce4bhe12rcd13ifvqf30","pricing_plan_id":"free"},{"bike_id":"e9f7e9d2-4e25-4ee6-892f-5ff039d1611c","system_id":"levelo_inurba_marseille","lat":43.307973,"lon":5.435293,"is_reserved":false,"is_disabled":false,"rental_uris":{"android":"levelo://app?vid=e9f7e9d2-4e25-4ee6-892f-5ff039d1611c","ios":"levelo://app?vid=e9f7e9d2-4e25-4ee6-892f-5ff039d1611c"},"vehicle_type_id":"4","last_reported":1699985281,"current_range_meters":10400,"station_id":"","pricing_plan_id":"free"},{"bike_id":"5fcfdd33-a86a-4b84-a5f3-02a6cc9a74da","system_id":"levelo_inurba_marseille","lat":43.307891,"lon":5.435283,"is_reserved":false,"is_disabled":false,"rental_uris":{"android":"levelo://app?vid=5fcfdd33-a86a-4b84-a5f3-02a6cc9a74da","ios":"levelo://app?vid=5fcfdd33-a86a-4b84-a5f3-02a6cc9a74da"},"vehicle_type_id":"4","last_reported":1699985281,"current_range_meters":17200,"station_id":"","pricing_plan_id":"free"},{"bike_id":"b72871fa-38dd-4ad7-8ac0-54a118ca1eab","system_id":"levelo_inurba_marseille","lat":43.307988,"lon":5.435308,"is_reserved":false,"is_disabled":false,"rental_uris":{"android":"levelo://app?vid=b72871fa-38dd-4ad7-8ac0-54a118ca1eab","ios":"levelo://app?vid=b72871fa-38dd-4ad7-8ac0-54a118ca1eab"},"vehicle_type_id":"4","last_reported":1699985281,"current_range_meters":18800,"station_id":"","pricing_plan_id":"free"},{"bike_id":"acf9951d-c9fd-41a8-86fb-fe1eea83b9e4","system_id":"levelo_inurba_marseille","lat":43.293009,"lon":5.374584,"is_reserved":false,"is_disabled":false,"rental_uris":{"android":"levelo://app?vid=acf9951d-c9fd-41a8-86fb-fe1eea83b9e4","ios":"levelo://app?vid=acf9951d-c9fd-41a8-86fb-fe1eea83b9e4"},"vehicle_type_id":"4","last_reported":1699985281,"current_range_meters":22000,"station_id":"ce4bgi12rcd13ifvqb70","pricing_plan_id":"free"},{"bike_id":"22d90201-d01e-4414-9c44-495aa90eecc0","system_id":"levelo_inurba_marseille","lat":43.265655,"lon":5.39046,"is_reserved":false,"is_disabled":false,"rental_uris":{"android":"levelo://app?vid=22d90201-d01e-4414-9c44-495aa90eecc0","ios":"levelo://app?vid=22d90201-d01e-4414-9c44-495aa90eecc0"},"vehicle_type_id":"4","last_reported":1699985281,"current_range_meters":10800,"station_id":"ce4bhe12rcd13ifvqf30","pricing_plan_id":"free"},{"bike_id":"335380aa-3c6b-4ed6-97f8-8df8f9284d48","system_id":"levelo_inurba_marseille","lat":43.2694,"lon":5.40257,"is_reserved":false,"is_disabled":false,"rental_uris":{"android":"levelo://app?vid=335380aa-3c6b-4ed6-97f8-8df8f9284d48","ios":"levelo://app?vid=335380aa-3c6b-4ed6-97f8-8df8f9284d48"},"vehicle_type_id":"4","last_reported":1699985281,"current_range_meters":9600,"station_id":"cjm6bp8fraef2m0cb0m0","pricing_plan_id":"free"},{"bike_id":"b1de3b28-0da2-431e-82f3-ab113f0156c1","system_id":"levelo_inurba_marseille","lat":43.269405,"lon":5.40263,"is_reserved":false,"is_disabled":false,"rental_uris":{"android":"levelo://app?vid=b1de3b28-0da2-431e-82f3-ab113f0156c1","ios":"levelo://app?vid=b1de3b28-0da2-431e-82f3-ab113f0156c1"},"vehicle_type_id":"4","last_reported":1699985281,"current_range_meters":29600,"station_id":"cjm6bp8fraef2m0cb0m0","pricing_plan_id":"free"},{"bike_id":"3e97fc8d-e09c-4100-a648-c20b3cc89d63","system_id":"levelo_inurba_marseille","lat":43.317269,"lon":5.436127,"is_reserved":false,"is_disabled":false,"rental_uris":{"android":"levelo://app?vid=3e97fc8d-e09c-4100-a648-c20b3cc89d63","ios":"levelo://app?vid=3e97fc8d-e09c-4100-a648-c20b3cc89d63"},"vehicle_type_id":"4","last_reported":1699985281,"current_range_meters":22800,"station_id":"","pricing_plan_id":"free"},{"bike_id":"15c7adc9-799d-4853-906a-68db7b45b003","system_id":"levelo_inurba_marseille","lat":43.26936,"lon":5.4026,"is_reserved":false,"is_disabled":false,"rental_uris":{"android":"levelo://app?vid=15c7adc9-799d-4853-906a-68db7b45b003","ios":"levelo://app?vid=15c7adc9-799d-4853-906a-68db7b45b003"},"vehicle_type_id":"4","last_reported":1699985281,"current_range_meters":15600,"station_id":"cjm6bp8fraef2m0cb0m0","pricing_plan_id":"free"},{"bike_id":"8624235b-cf2b-403b-9a92-3bb41add6f03","system_id":"levelo_inurba_marseille","lat":43.261782,"lon":5.374515,"is_reserved":false,"is_disabled":false,"rental_uris":{"android":"levelo://app?vid=8624235b-cf2b-403b-9a92-3bb41add6f03","ios":"levelo://app?vid=8624235b-cf2b-403b-9a92-3bb41add6f03"},"vehicle_type_id":"4","last_reported":1699985281,"current_range_meters":3200,"station_id":"ce4bhgp2rcd13ifvqfc0","pricing_plan_id":"free"},{"bike_id":"3db315a0-2624-4e6f-be83-6e9e60273cee","system_id":"levelo_inurba_marseille","lat":43.261782,"lon":5.374515,"is_reserved":false,"is_disabled":false,"rental_uris":{"android":"levelo://app?vid=3db315a0-2624-4e6f-be83-6e9e60273cee","ios":"levelo://app?vid=3db315a0-2624-4e6f-be83-6e9e60273cee"},"vehicle_type_id":"4","last_reported":1699985281,"current_range_meters":13600,"station_id":"ce4bhgp2rcd13ifvqfc0","pricing_plan_id":"free"},{"bike_id":"36ef8162-0cb8-4d2a-9764-97cd0b325875","system_id":"levelo_inurba_marseille","lat":43.31712,"lon":5.43708,"is_reserved":false,"is_disabled":false,"rental_uris":{"android":"levelo://app?vid=36ef8162-0cb8-4d2a-9764-97cd0b325875","ios":"levelo://app?vid=36ef8162-0cb8-4d2a-9764-97cd0b325875"},"vehicle_type_id":"4","last_reported":1699985281,"current_range_meters":15600,"station_id":"ce4bhp92rcd13ifvqhcg","pricing_plan_id":"free"},{"bike_id":"e3ef3bc6-d5d7-4f5e-aa32-039b0bbcd2d7","system_id":"levelo_inurba_marseille","lat":43.26202,"lon":5.379299,"is_reserved":false,"is_disabled":false,"rental_uris":{"android":"levelo://app?vid=e3ef3bc6-d5d7-4f5e-aa32-039b0bbcd2d7","ios":"levelo://app?vid=e3ef3bc6-d5d7-4f5e-aa32-039b0bbcd2d7"},"vehicle_type_id":"4","last_reported":1699985281,"current_range_meters":5200,"station_id":"ce4bhjp2rcd13ifvqg90","pricing_plan_id":"free"},{"bike_id":"d81a9e6f-3870-43b8-bcd9-629f239dcad4","system_id":"levelo_inurba_marseille","lat":43.271368,"lon":5.40928,"is_reserved":false,"is_disabled":false,"rental_uris":{"android":"levelo://app?vid=d81a9e6f-3870-43b8-bcd9-629f239dcad4","ios":"levelo://app?vid=d81a9e6f-3870-43b8-bcd9-629f239dcad4"},"vehicle_type_id":"4","last_reported":1699985281,"current_range_meters":19600,"station_id":"ce4bhl12rcd13ifvqgf0","pricing_plan_id":"free"},