{"last_updated":1747152806,"ttl":60,"version":"2.2","data":{"bikes":[{"bike_id":"c0b9fd4f-e181-46ce-b0bf-f5119973334f","system_id":"levelo_inurba_marseille","lat":43.33771,"lon":5.37424,"is_reserved":false,"is_disabled":false,"rental_uris":{"android":"levelo://app?vid=c0b9fd4f-e181-46ce-b0bf-f5119973334f","ios":"levelo://app?vid=c0b9fd4f-e181-46ce-b0bf-f5119973334f"},"vehicle_type_id":"4","last_reported":1747152806,"current_range_meters":22800,"station_id":"","pricing_plan_id":"cebpf4jnsgd1na2vs0mg"},{"bike_id":"d97ad416-5352-4423-9def-f13900f85e74","system_id":"levelo_inurba_marseille","lat":43.290086,"lon":5.355674,"is_reserved":false,"is_disabled":true,"rental_uris":{"android":"levelo://app?vid=d97ad416-5352-4423-9def-f13900f85e74","ios":"levelo://app?vid=d97ad416-5352-4423-9def-f13900f85e74"},"vehicle_type_id":"4","last_reported":1747152806,"current_range_meters":0,"station_id":"","pricing_plan_id":"cebpf4jnsgd1na2vs0mg"},{"bike_id":"0fedde00-40eb-40d2-8fc2-e61ecce46b7b","system_id":"levelo_inurba_marseille","lat":43.28317,"lon":5.43246,"is_reserved":false,"is_disabled":true,"rental_uris":{"android":"levelo://app?vid=0fedde00-40eb-40d2-8fc2-e61ecce46b7b","ios":"levelo://app?vid=0fedde00-40eb-40d2-8fc2-e61ecce46b7b"},"vehicle_type_id":"4","last_reported":1747152806,"current_range_meters":0,"station_id":"","pricing_plan_id":"cebpf4jnsgd1na2vs0mg"},{"bike_id":"d19ebaab-ef98-4efa-b952-7192b9b2f014","system_id":"levelo_inurba_marseille","lat":43.26172,"lon":5.39225,"is_reserved":false,"is_disabled":true,"rental_uris":{"android":"levelo://app?vid=d19ebaab-ef98-4efa-b952-7192b9b2f014","ios":"levelo://app?vid=d19ebaab-ef98-4efa-b952-7192b9b2f014"},"vehicle_type_id":"4","last_reported":1747152806,"current_range_meters":0,"station_id":"","pricing_plan_id":"cebpf4jnsgd1na2vs0mg"},{"bike_id":"b8a9d9f9-0cac-4a94-8139-65b270835f58","system_id":"levelo_inurba_marseille","lat":43.27951,"lon":5.38984,"is_reserved":false,"is_disabled":true,"rental_uris":{"android":"levelo://app?vid=b8a9d9f9-0cac-4a94-8139-65b270835f58","ios":"levelo://app?vid=b8a9d9f9-0cac-4a94-8139-65b270835f58"},"vehicle_type_id":"4","last_reported":1747152806,"current_range_meters":0,"station_id":"","pricing_plan_id":"cebpf4jnsgd1na2vs0mg"},{"bike_id":"792567c6-0442-4011-aff0-9c05e25deb48","system_id":"levelo_inurba_marseille","lat":43.281,"lon":5.4419,"is_reserved":false,"is_disabled":true,"rental_uris":{"android":"levelo://app?vid=792567c6-0442-4011-aff0-9c05e25deb48","ios":"levelo://app?vid=792567c6-0442-4011-aff0-9c05e25deb48"},"vehicle_type_id":"4","last_reported":1747152806,"current_range_meters":0,"station_id":"","pricing_plan_id":"cebpf4jnsgd1na2vs0mg"},{"bike_id":"4eaefb73-5a4b-4bad-8683-fb18ec038e6d","system_id":"levelo_inurba_marseille","lat":43.29624,"lon":5.37721,"is_reserved":false,"is_disabled":true,"rental_uris":{"android":"levelo://app?vid=4eaefb73-5a4b-4bad-8683-fb18ec038e6d","ios":"levelo://app?vid=4eaefb73-5a4b-4bad-8683-fb18ec038e6d"},"vehicle_type_id":"4","last_reported":1747152806,"current_range_meters":0,"station_id":"ce4bgi92rcd13ifvqb90","pricing_plan_id":"cebpf4jnsgd1na2vs0mg"},{"bike_id":"2dd05688-b38d-4f71-bc59-b5b2f2648e06","system_id":"levelo_inurba_marseille","lat":43.307861,"lon":5.376484,"is_reserved":false,"is_disabled":true,"rental_uris":{"android":"levelo://app?vid=2dd05688-b38d-4f71-bc59-b5b2f2648e06","ios":"levelo://app?vid=2dd05688-b38d-4f71-bc59-b5b2f2648e06"},"vehicle_type_id":"4","last_reported":1747152806,"current_range_meters":0,"station_id":"ce4bgv92rcd13ifvqcq0","pricing_plan_id":"cebpf4jnsgd1na2vs0mg"},{"bike_id":"459407ba-1f0a-425e-8129-68a433107400","system_id":"levelo_inurba_marseille","lat":43.29869,"lon":5.39725,"is_reserved":false,"is_disabled":true,"rental_uris":{"android":"levelo://app?vid=459407ba-1f0a-425e-8129-68a433107400","ios":"levelo://app?vid=459407ba-1f0a-425e-8129-68a433107400"},"vehicle_type_id":"4","last_reported":1747152806,"current_range_meters":0,"station_id":"ce4bh0h2rcd13ifvqd50","pricing_plan_id":"cebpf4jnsgd1na2vs0mg"},{"bike_id":"28826fb1-41e9-40a7-b5d3-0eaf678d6867","system_id":"levelo_inurba_marseille","lat":43.29529,"lon":5.39402,"is_reserved":false,"is_disabled":true,"rental_uris":{"android":"levelo://app?vid=28826fb1-41e9-40a7-b5d3-0eaf678d6867","ios":"levelo://app?vid=28826fb1-41e9-40a7-b5d3-0eaf678d6867"},"vehicle_type_id":"4","last_reported":1747152806,"current_range_meters":0,"station_id":"ce4bh292rcd13ifvqdf0","pricing_plan_id":"cebpf4jnsgd1na2vs0mg"},{"bike_id":"ef4eb9ef-51ce-4a9c-8eb5-ec9cb66f582c","system_id":"levelo_inurba_marseille","lat":43.29029,"lon":5.39968,"is_reserved":false,"is_disabled":true,"rental_uris":{"android":"levelo://app?vid=ef4eb9ef-51ce-4a9c-8eb5-ec9cb66f582c","ios":"levelo://app?vid=ef4eb9ef-51ce-4a9c-8eb5-ec9cb66f582c"},"vehicle_type_id":"4","last_reported":1747152806,"current_range_meters":0,"station_id":"ce4bh392rcd13ifvqdm0","pricing_plan_id":"cebpf4jnsgd1na2vs0mg"},{"bike_id":"1bd3c7bf-2bae-43da-a224-46102056d295","system_id":"levelo_inurba_marseille","lat":43.29518,"lon":5.39037,"is_reserved":false,"is_disabled":true,"rental_uris":{"android":"levelo://app?vid=1bd3c7bf-2bae-43da-a224-46102056d295","ios":"levelo://app?vid=1bd3c7bf-2bae-43da-a224-46102056d295"},"vehicle_type_id":"4","last_reported":1747152806,"current_range_meters":0,"station_id":"ce4bh3p2rcd13ifvqdp0","pricing_plan_id":"cebpf4jnsgd1na2vs0mg"},{"bike_id":"c5b2f958-1263-4cfd-897a-aad79610fe60","system_id":"levelo_inurba_marseille","lat":43.28405,"lon":5.37518,"is_reserved":false,"is_disabled":true,"rental_uris":{"android":"levelo://app?vid=c5b2f958-1263-4cfd-897a-aad79610fe60","ios":"levelo://app?vid=c5b2f958-1263-4cfd-897a-aad79610fe60"},"vehicle_type_id":"4","last_reported":1747152806,"current_range_meters":0,"station_id":"ce4bh412rcd13ifvqds0","pricing_plan_id":"cebpf4jnsgd1na2vs0mg"},{"bike_id":"11b56afd-b89e-4390-a6d6-36315a2712da","system_id":"levelo_inurba_marseille","lat":43.26555,"lon":5.37284,"is_reserved":false,"is_disabled":true,"rental_uris":{"android":"levelo://app?vid=11b56afd-b89e-4390-a6d6-36315a2712da","ios":"levelo://app?vid=11b56afd-b89e-4390-a6d6-36315a2712da"},"vehicle_type_id":"4","last_reported":1747152806,"current_range_meters":0,"station_id":"ce4bhg12rcd13ifvqf70","pricing_plan_id":"cebpf4jnsgd1na2vs0mg"},{"bike_id":"65c05c73-d244-4743-a5e4-1be5c961c717","system_id":"levelo_inurba_marseille","lat":43.26953,"lon":5.38639,"is_reserved":false,"is_disabled":true,"rental_uris":{"android":"levelo://app?vid=65c05c73-d244-4743-a5e4-1be5c961c717","ios":"levelo://app?vid=65c05c73-d244-4743-a5e4-1be5c961c717"},"vehicle_type_id":"4","last_reported":1747152806,"current_range_meters":0,"station_id":"ce4bhh92rcd13ifvqfh0","pricing_plan_id":"cebpf4jnsgd1na2vs0mg"},{"bike_id":"5d827ec4-8e5e-4cde-b859-9c1aa0de8069","system_id":"levelo_inurba_marseille","lat":43.27054,"lon":5.40295,"is_reserved":false,"is_disabled":true,"rental_uris":{"android":"levelo://app?vid=5d827ec4-8e5e-4cde-b859-9c1aa0de8069","ios":"levelo://app?vid=5d827ec4-8e5e-4cde-b859-9c1aa0de8069"},"vehicle_type_id":"4","last_reported":1747152806,"current_range_meters":0,"station_id":"ce4bhk92rcd13ifvqgc0","pricing_plan_id":"cebpf4jnsgd1na2vs0mg"},{"bike_id":"488e3f7b-29db-42cc-8cbc-0d810d4d25ab","system_id":"levelo_inurba_marseille","lat":43.2455,"lon":5.39523,"is_reserved":false,"is_disabled":true,"rental_uris":{"android":"levelo://app?vid=488e3f7b-29db-42cc-8cbc-0d810d4d25ab","ios":"levelo://app?vid=488e3f7b-29db-42cc-8cbc-0d810d4d25ab"},"vehicle_type_id":"4","last_reported":1747152806,"current_range_meters":0,"station_id":"ce4bhlp2rcd13ifvqgjg","pricing_plan_id":"cebpf4jnsgd1na2vs0mg"},{"bike_id":"7d648bb7-ab7e-409a-add7-d4a17f03de12","system_id":"levelo_inurba_marseille","lat":43.23126,"lon":5.43691,"is_reserved":false,"is_disabled":true,"rental_uris":{"android":"levelo://app?vid=7d648bb7-ab7e-409a-add7-d4a17f03de12","ios":"levelo://app?vid=7d648bb7-ab7e-409a-add7-d4a17f03de12"},"vehicle_type_id":"4","last_reported":1747152806,"current_range_meters":0,"station_id":"ce4bhmp2rcd13ifvqgog","pricing_plan_id":"cebpf4jnsgd1na2vs0mg"},{"bike_id":"7d4b7501-cac6-403e-90bb-390002322926","system_id":"levelo_inurba_marseille","lat":43.27826,"lon":5.40706,"is_reserved":false,"is_disabled":true,"rental_uris":{"android":"levelo://app?vid=7d4b7501-cac6-403e-90bb-390002322926","ios":"levelo://app?vid=7d4b7501-cac6-403e-90bb-390002322926"},"vehicle_type_id":"4","last_reported":1747152806,"current_range_meters":0,"station_id":"ce4bhnh2rcd13ifvqgtg","pricing_plan_id":"cebpf4jnsgd1na2vs0mg"},{"bike_id":"6af03016-8529-41bf-a76c-959e0f94726e","system_id":"levelo_inurba_marseille","lat":43.268136,"lon":5.402592,"is_reserved":false,"is_disabled":true,"rental_uris":{"android":"levelo://app?vid=6af03016-8529-41bf-a76c-959e0f94726e","ios":"levelo://app?vid=6af03016-8529-41bf-a76c-959e0f94726e"},"vehicle_type_id":"4","last_reported":1747152806,"current_range_meters":0,"station_id":"ce501612rcd8frsf0b60","pricing_plan_id":"cebpf4jnsgd1na2vs0mg"},{"bike_id":"fc2577e7-1497-425b-9d4f-ab8d7dc843c6","system_id":"levelo_inurba_marseille","lat":43.33771,"lon":5.37485,"is_reserved":false,"is_disabled":true,"rental_uris":{"android":"levelo://app?vid=fc2577e7-1497-425b-9d4f-ab8d7dc843c6","ios":"levelo://app?vid=fc2577e7-1497-425b-9d4f-ab8d7dc843c6"},"vehicle_type_id":"4","last_reported":1747152806,"current_range_meters":800,"station_id":"","pricing_plan_id":"cebpf4jnsgd1na2vs0mg"},{"bike_id":"f18f4b88-0483-4151-8b4e-63006664886d","system_id":"levelo_inurba_marseille","lat":43.30194,"lon":5.36607,"is_reserved":false,"is_disabled":true,"rental_uris":{"android":"levelo://app?vid=f18f4b88-0483-4151-8b4e-63006664886d","ios":"levelo://app?vid=f18f4b88-0483-4151-8b4e-63006664886d"},"vehicle_type_id":"4","last_reported":1747152806,"current_range_meters":800,"station_id":"ce4bgrh2rcd13ifvqc8g","pricing_plan_id":"cebpf4jnsgd1na2vs0mg"},{"bike_id":"0a293588-f726-4b23-853f-df1a75cc8ec6","system_id":"levelo_inurba_marseille","lat":43.266829,"lon":5.382713,"is_reserved":false,"is_disabled":true,"rental_uris":{"android":"levelo://app?vid=0a293588-f726-4b23-853f-df1a75cc8ec6","ios":"levelo://app?vid=0a293588-f726-4b23-853f-df1a75cc8ec6"},"vehicle_type_id":"4","last_reported":1747152806,"current_range_meters":800,"station_id":"ce4bhg92rcd13ifvqf90","pricing_plan_id":"cebpf4jnsgd1na2vs0mg"},{"bike_id":"0ea87cdc-98f8-4614-b0de-9a47095c886a","system_id":"levelo_inurba_marseille","lat":43.29255,"lon":5.40905,"is_reserved":false,"is_disabled":true,"rental_uris":{"android":"levelo://app?vid=0ea87cdc-98f8-4614-b0de-9a47095c886a","ios":"levelo://app?vid=0ea87cdc-98f8-4614-b0de-9a47095c886a"},"vehicle_type_id":"4","last_reported":1747152806,"current_range_meters":1200,"station_id":"ce4bh192rcd13ifvqdc0","pricing_plan_id":"cebpf4jnsgd1na2vs0mg"},{"bike_id":"b616d1bb-f5be-44ad-acab-f4a10fc00278","system_id":"levelo_inurba_marseille","lat":43.295197,"lon":5.393978,"is_reserved":false,"is_disabled":true,"rental_uris":{"android":"levelo://app?vid=b616d1bb-f5be-44ad-acab-f4a10fc00278","ios":"levelo://app?vid=b616d1bb-f5be-44ad-acab-f4a10fc00278"},"vehicle_type_id":"4","last_reported":1747152806,"current_range_meters":1200,"station_id":"ce4bh292rcd13ifvqdf0","pricing_plan_id":"cebpf4jnsgd1na2vs0mg"},{"bike_id":"8ab3a3e6-73f7-4f79-9eb0-45ab9950b6da","system_id":"levelo_inurba_marseille","lat":43.27662,"lon":5.38883,"is_reserved":false,"is_disabled":false,"rental_uris":{"android":"levelo://app?vid=8ab3a3e6-73f7-4f79-9eb0-45ab9950b6da","ios":"levelo://app?vid=8ab3a3e6-73f7-4f79-9eb0-45ab9950b6da"},"vehicle_type_id":"4","last_reported":1747152806,"current_range_meters":1200,"station_id":"ce4bhi12rcd13ifvqfo0","pricing_plan_id":"cebpf4jnsgd1na2vs0mg"},{"bike_id":"bb0be9fc-c8f9-4757-b312-2fdf0570d13f","system_id":"levelo_inurba_marseille","lat":43.279187,"lon":5.395807,"is_reserved":false,"is_disabled":true,"rental_uris":{"android":"levelo://app?vid=bb0be9fc-c8f9-4757-b312-2fdf0570d13f","ios":"levelo://app?vid=bb0be9fc-c8f9-4757-b312-2fdf0570d13f"},"vehicle_type_id":"4","last_reported":1747152806,"current_range_meters":1600,"station_id":"ce4bhf92rcd13ifvqf40","pricing_plan_id":"cebpf4jnsgd1na2vs0mg"},{"bike_id":"22e7d5dc-13b5-4fee-8c7a-787abc0a1bf0","system_id":"levelo_inurba_marseille","lat":43.27559,"lon":5.38421,"is_reserved":false,"is_disabled":true,"rental_uris":{"android":"levelo://app?vid=22e7d5dc-13b5-4fee-8c7a-787abc0a1bf0","ios":"levelo://app?vid=22e7d5dc-13b5-4fee-8c7a-787abc0a1bf0"},"vehicle_type_id":"4","last_reported":1747152806,"current_range_meters":1600,"station_id":"ce4bhh92rcd13ifvqfi0","pricing_plan_id":"cebpf4jnsgd1na2vs0mg"},{"bike_id":"8883095c-9b7b-410c-b9dc-2ba9a862d99e","system_id":"levelo_inurba_marseille","lat":43.26572,"lon":5.39008,"is_reserved":false,"is_disabled":true,"rental_uris":{"android":"levelo://app?vid=8883095c-9b7b-410c-b9dc-2ba9a862d99e","ios":"levelo://app?vid=8883095c-9b7b-410c-b9dc-2ba9a862d99e"},"vehicle_type_id":"4","last_reported":1747152806,"current_range_meters":2000,"station_id":"ce4bhe12rcd13ifvqf30","pricing_plan_id":"cebpf4jnsgd1na2vs0mg"},{"bike_id":"b93e0852-8f53-4af2-ae95-9df0dfc8c8e6","system_id":"levelo_inurba_marseille","lat":43.25109,"lon":5.40325,"is_reserved":false,"is_disabled":true,"rental_uris":{"android":"levelo://app?vid=b93e0852-8f53-4af2-ae95-9df0dfc8c8e6","ios":"levelo://app?vid=b93e0852-8f53-4af2-ae95-9df0dfc8c8e6"},"vehicle_type_id":"4","last_reported":1747152806,"current_range_meters":2000,"station_id":"ce4bhlh2rcd13ifvqgig","pricing_plan_id":"cebpf4jnsgd1na2vs0mg"},{"bike_id":"f5d1bfce-e113-4742-888a-6eb121f13a53","system_id":"levelo_inurba_marseille","lat":43.27951,"lon":5.41042,"is_reserved":false,"is_disabled":true,"rental_uris":{"android":"levelo://app?vid=f5d1bfce-e113-4742-888a-6eb121f13a53","ios":"levelo://app?vid=f5d1bfce-e113-4742-888a-6eb121f13a53"},"vehicle_type_id":"4","last_reported":1747152806,"current_range_meters":2000,"station_id":"ce4bhnp2rcd13ifvqh0g","pricing_plan_id":"cebpf4jnsgd1na2vs0mg"},{"bike_id":"bb385d28-2b7d-4137-884b-fc989f3ae9f5","system_id":"levelo_inurba_marseille","lat":43.28712,"lon":5.40006,"is_reserved":false,"is_disabled":true,"rental_uris":{"android":"levelo://app?vid=bb385d28-2b7d-4137-884b-fc989f3ae9f5","ios":"levelo://app?vid=bb385d28-2b7d-4137-884b-fc989f3ae9f5"},"vehicle_type_id":"4","last_reported":1747152806,"current_range_meters":2000,"station_id":"ce4bho92rcd13ifvqh3g","pricing_plan_id":"cebpf4jnsgd1na2vs0mg"},{"bike_id":"bf30935e-8bac-4a75-8df0-c53cfd35f3cb","system_id":"levelo_inurba_marseille","lat":43.29801,"lon":5.39354,"is_reserved":false,"is_disabled":true,"rental_uris":{"android":"levelo://app?vid=bf30935e-8bac-4a75-8df0-c53cfd35f3cb","ios":"levelo://app?vid=bf30935e-8bac-4a75-8df0-c53cfd35f3cb"},"vehicle_type_id":"4","last_reported":1747152806,"current_range_meters":2000,"station_id":"chh1huq6cuj3fo74tm60","pricing_plan_id":"cebpf4jnsgd1na2vs0mg"},{"bike_id":"1d9cbec2-dd4d-488a-ae21-2da5b56b47ac","system_id":"levelo_inurba_marseille","lat":43.29776,"lon":5.381342,"is_reserved":false,"is_disabled":true,"rental_uris":{"android":"levelo://app?vid=1d9cbec2-dd4d-488a-ae21-2da5b56b47ac","ios":"levelo://app?vid=1d9cbec2-dd4d-488a-ae21-2da5b56b47ac"},"vehicle_type_id":"4","last_reported":1747152806,"current_range_meters":2800,"station_id":"ce4bgip2rcd13ifvqbb0","pricing_plan_id":"cebpf4jnsgd1na2vs0mg"},{"bike_id":"ddfbe308-468b-4ead-b535-8dcdb4cdc125","system_id":"levelo_inurba_marseille","lat":43.294182,"lon":5.386188,"is_reserved":false,"is_disabled":false,"rental_uris":{"android":"levelo://app?vid=ddfbe308-468b-4ead-b535-8dcdb4cdc125","ios":"levelo://app?vid=ddfbe308-468b-4ead-b535-8dcdb4cdc125"},"vehicle_type_id":"4","last_reported":1747152806,"current_range_meters":2800,"station_id":"ce4bh2h2rcd13ifvqdh0","pricing_plan_id":"cebpf4jnsgd1na2vs0mg"},{"bike_id":"9fb41f51-62bb-4313-9b9f-cac83ee56e24","system_id":"levelo_inurba_marseille","lat":43.26557,"lon":5.37288,"is_reserved":false,"is_disabled":false,"rental_uris":{"android":"levelo://app?vid=9fb41f51-62bb-4313-9b9f-cac83ee56e24","ios":"levelo://app?vid=9fb41f51-62bb-4313-9b9f-cac83ee56e24"},"vehicle_type_id":"4","last_reported":1747152806,"current_range_meters":2800,"station_id":"ce4bhg12rcd13ifvqf70","pricing_plan_id":"cebpf4jnsgd1na2vs0mg"},{"bike_id":"00eeae3c-3ddc-406b-a99b-55c6b70ce425","system_id":"levelo_inurba_marseille","lat":43.26055,"lon":5.39405,"is_reserved":false,"is_disabled":false,"rental_uris":{"android":"levelo://app?vid=00eeae3c-3ddc-406b-a99b-55c6b70ce425","ios":"levelo://app?vid=00eeae3c-3ddc-406b-a99b-55c6b70ce425"},"vehicle_type_id":"4","last_reported":1747152806,"current_range_meters":2800,"station_id":"ce4bhh92rcd13ifvqfj0","pricing_plan_id":"cebpf4jnsgd1na2vs0mg"},{"bike_id":"67da5ef4-fcdd-431f-9f42-2a0318449ad7","system_id":"levelo_inurba_marseille","lat":43.289368,"lon":5.364033,"is_reserved":false,"is_disabled":false,"rental_uris":{"android":"levelo://app?vid=67da5ef4-fcdd-431f-9f42-2a0318449ad7","ios":"levelo://app?vid=67da5ef4-fcdd-431f-9f42-2a0318449ad7"},"vehicle_type_id":"4","last_reported":1747152806,"current_range_meters":3200,"station_id":"ce4bhc92rcd13ifvqetg","pricing_plan_id":"cebpf4jnsgd1na2vs0mg"},{"bike_id":"e3d6cdaa-b2cf-4b38-ac15-9260ad586734","system_id":"levelo_inurba_marseille","lat":43.24809,"lon":5.37458,"is_reserved":false,"is_disabled":false,"rental_uris":{"android":"levelo://app?vid=e3d6cdaa-b2cf-4b38-ac15-9260ad586734","ios":"levelo://app?vid=e3d6cdaa-b2cf-4b38-ac15-9260ad586734"},"vehicle_type_id":"4","last_reported":1747152806,"current_range_meters":3200,"station_id":"ce4bhgh2rcd13ifvqfb0","pricing_plan_id":"cebpf4jnsgd1na2vs0mg"},{"bike_id":"4599b1df-4dfe-4c0f-ab98-7bf77e45c378","system_id":"levelo_inurba_marseille","lat":43.23194,"lon":5.35544,"is_reserved":false,"is_disabled":false,"rental_uris":{"android":"levelo://app?vid=4599b1df-4dfe-4c0f-ab98-7bf77e45c378","ios":"levelo://app?vid=4599b1df-4dfe-4c0f-ab98-7bf77e45c378"},"vehicle_type_id":"4","last_reported":1747152806,"current_range_meters":3200,"station_id":"ce4bhu92rcd13ifvqi70","pricing_plan_id":"cebpf4jnsgd1na2vs0mg"},{"bike_id":"3c5c0f67-b4e3-4bbf-b49f-d8725d7ba884","system_id":"levelo_inurba_marseille","lat":43.2894,"lon":5.39631,"is_reserved":false,"is_disabled":false,"rental_uris":{"android":"levelo://app?vid=3c5c0f67-b4e3-4bbf-b49f-d8725d7ba884","ios":"levelo://app?vid=3c5c0f67-b4e3-4bbf-b49f-d8725d7ba884"},"vehicle_type_id":"4","last_reported":1747152806,"current_range_meters":3600,"station_id":"ce4bh3h2rcd13ifvqdn0","pricing_plan_id":"cebpf4jnsgd1na2vs0mg"},{"bike_id":"f628a8de-b3d1-447c-9405-9a5db731cce1","system_id":"levelo_inurba_marseille","lat":43.29438,"lon":5.39755,"is_reserved":false,"is_disabled":false,"rental_uris":{"android":"levelo://app?vid=f628a8de-b3d1-447c-9405-9a5db731cce1","ios":"levelo://app?vid=f628a8de-b3d1-447c-9405-9a5db731cce1"},"vehicle_type_id":"4","last_reported":1747152806,"current_range_meters":3600,"station_id":"ce4bh3h2rcd13ifvqdo0","pricing_plan_id":"cebpf4jnsgd1na2vs0mg"},{"bike_id":"f36b9996-097b-4b5d-8040-55126526f488","system_id":"levelo_inurba_marseille","lat":43.281081,"lon":5.378303,"is_reserved":false,"is_disabled":false,"rental_uris":{"android":"levelo://app?vid=f36b9996-097b-4b5d-8040-55126526f488","ios":"levelo://app?vid=f36b9996-097b-4b5d-8040-55126526f488"},"vehicle_type_id":"4","last_reported":1747152806,"current_range_meters":3600,"station_id":"ce4bha12rcd13ifvqee0","pricing_plan_id":"cebpf4jnsgd1na2vs0mg"},{"bike_id":"917db42b-5d9a-4bee-b43c-dc6a564628b3","system_id":"levelo_inurba_marseille","lat":43.25866,"lon":5.39896,"is_reserved":false,"is_disabled":false,"rental_uris":{"android":"levelo://app?vid=917db42b-5d9a-4bee-b43c-dc6a564628b3","ios":"levelo://app?vid=917db42b-5d9a-4bee-b43c-dc6a564628b3"},"vehicle_type_id":"4","last_reported":1747152806,"current_range_meters":3600,"station_id":"ce4bhl92rcd13ifvqghg","pricing_plan_id":"cebpf4jnsgd1na2vs0mg"},{"bike_id":"63636790-bff0-47aa-a4e6-4ece11a115ee","system_id":"levelo_inurba_marseille","lat":43.260319,"lon":5.375481,"is_reserved":false,"is_disabled":false,"rental_uris":{"android":"levelo://app?vid=63636790-bff0-47aa-a4e6-4ece11a115ee","ios":"levelo://app?vid=63636790-bff0-47aa-a4e6-4ece11a115ee"},"vehicle_type_id":"4","last_reported":1747152806,"current_range_meters":4000,"station_id":"","pricing_plan_id":"cebpf4jnsgd1na2vs0mg"},{"bike_id":"3f9b7946-2b45-4f45-93c3-c0418b274e80","system_id":"levelo_inurba_marseille","lat":43.25824,"lon":5.39435,"is_reserved":false,"is_disabled":false,"rental_uris":{"android":"levelo://app?vid=3f9b7946-2b45-4f45-93c3-c0418b274e80","ios":"levelo://app?vid=3f9b7946-2b45-4f45-93c3-c0418b274e80"},"vehicle_type_id":"4","last_reported":1747152806,"current_range_meters":4000,"station_id":"ce4bhip2rcd13ifvqft0","pricing_plan_id":"cebpf4jnsgd1na2vs0mg"},{"bike_id":"af3a3e53-4d5a-45b9-9355-bc523c2ddd74","system_id":"levelo_inurba_marseille","lat":43.29244,"lon":5.37516,"is_reserved":false,"is_disabled":false,"rental_uris":{"android":"levelo://app?vid=af3a3e53-4d5a-45b9-9355-bc523c2ddd74","ios":"levelo://app?vid=af3a3e53-4d5a-45b9-9355-bc523c2ddd74"},"vehicle_type_id":"4","last_reported":1747152806,"current_range_meters":4400,"station_id":"","pricing_plan_id":"cebpf4jnsgd1na2vs0mg"},{"bike_id":"4faaaf48-1746-4c6b-9d1a-1a8011a86638","system_id":"levelo_inurba_marseille","lat":43.28482,"lon":5.38561,"is_reserved":false,"is_disabled":false,"rental_uris":{"android":"levelo://app?vid=4faaaf48-1746-4c6b-9d1a-1a8011a86638","ios":"levelo://app?vid=4faaaf48-1746-4c6b-9d1a-1a8011a86638"},"vehicle_type_id":"4","last_reported":1747152806,"current_range_meters":4400,"station_id":"ce4bh8p2rcd13ifvqeb0","pricing_plan_id":"cebpf4jnsgd1na2vs0mg"},{"bike_id":"4766a7b1-9d56-4d2a-8b56-861018ca2bba","system_id":"levelo_inurba_marseille","lat":43.26574,"lon":5.39001,"is_reserved":false,"is_disabled":false,"rental_uris":{"android":"levelo://app?vid=4766a7b1-9d56-4d2a-8b56-861018ca2bba","ios":"levelo://app?vid=4766a7b1-9d56-4d2a-8b56-861018ca2bba"},"vehicle_type_id":"4","last_reported":1747152806,"current_range_meters":4400,"station_id":"ce4bhe12rcd13ifvqf30","pricing_plan_id":"cebpf4jnsgd1na2vs0mg"},{"bike_id":"22b5b891-f9dc-4849-9cb7-652e4944e601","system_id":"levelo_inurba_marseille","lat":43.27817,"lon":5.40707,"is_reserved":false,"is_disabled":false,"rental_uris":{"android":"levelo://app?vid=22b5b891-f9dc-4849-9cb7-652e4944e601","ios":"levelo://app?vid=22b5b891-f9dc-4849-9cb7-652e4944e601"},"vehicle_type_id":"4","last_reported":1747152806,"current_range_meters":4400,"station_id":"ce4bhnh2rcd13ifvqgtg","pricing_plan_id":"cebpf4jnsgd1na2vs0mg"},{"bike_id":"78d31239-d8d7-4ae9-b288-6ff1f6288e7a","system_id":"levelo_inurba_marseille","lat":43.28446,"lon":5.39207,"is_reserved":false,"is_disabled":false,"rental_uris":{"android":"levelo://app?vid=78d31239-d8d7-4ae9-b288-6ff1f6288e7a","ios":"levelo://app?vid=78d31239-d8d7-4ae9-b288-6ff1f6288e7a"},"vehicle_type_id":"4","last_reported":1747152806,"current_range_meters":4400,"station_id":"ce4bhoh2rcd13ifvqh5g","pricing_plan_id":"cebpf4jnsgd1na2vs0mg"},{"bike_id":"3e1f740a-e853-46fa-b4b1-625fbc032f5c","system_id":"levelo_inurba_marseille","lat":43.28475,"lon":5.38415,"is_reserved":false,"is_disabled":false,"rental_uris":{"android":"levelo://app?vid=3e1f740a-e853-46fa-b4b1-625fbc032f5c","ios":"levelo://app?vid=3e1f740a-e853-46fa-b4b1-625fbc032f5c"},"vehicle_type_id":"4","last_reported":1747152806,"current_range_meters":4800,"station_id":"","pricing_plan_id":"cebpf4jnsgd1na2vs0mg"},{"bike_id":"bdd8546f-899a-48ce-beb2-b1e79c163891","system_id":"levelo_inurba_marseille","lat":43.29029,"lon":5.386537,"is_reserved":false,"is_disabled":false,"rental_uris":{"android":"levelo://app?vid=bdd8546f-899a-48ce-beb2-b1e79c163891","ios":"levelo://app?vid=bdd8546f-899a-48ce-beb2-b1e79c163891"},"vehicle_type_id":"4","last_reported":1747152806,"current_range_meters":4800,"station_id":"ce4bh4p2rcd13ifvqe0g","pricing_plan_id":"cebpf4jnsgd1na2vs0mg"},{"bike_id":"65a14733-28a6-4b81-941b-34acc03df6b1","system_id":"levelo_inurba_marseille","lat":43.28618,"lon":5.35107,"is_reserved":false,"is_disabled":false,"rental_uris":{"android":"levelo://app?vid=65a14733-28a6-4b81-941b-34acc03df6b1","ios":"levelo://app?vid=65a14733-28a6-4b81-941b-34acc03df6b1"},"vehicle_type_id":"4","last_reported":1747152806,"current_range_meters":4800,"station_id":"ce4bhch2rcd13ifvqeug","pricing_plan_id":"cebpf4jnsgd1na2vs0mg"},{"bike_id":"c25c25a7-f7e8-4ce5-9460-c6c0fe43eb4f","system_id":"levelo_inurba_marseille","lat":43.26569,"lon":5.39014,"is_reserved":false,"is_disabled":false,"rental_uris":{"android":"levelo://app?vid=c25c25a7-f7e8-4ce5-9460-c6c0fe43eb4f","ios":"levelo://app?vid=c25c25a7-f7e8-4ce5-9460-c6c0fe43eb4f"},"vehicle_type_id":"4","last_reported":1747152806,"current_range_meters":4800,"station_id":"ce4bhe12rcd13ifvqf30","pricing_plan_id":"cebpf4jnsgd1na2vs0mg"},{"bike_id":"e4188f0f-3e2f-4d3a-9f41-81d35bc71bbc","system_id":"levelo_inurba_marseille","lat":43.250977,"lon":5.39428,"is_reserved":false,"is_disabled":false,"rental_uris":{"android":"levelo://app?vid=e4188f0f-3e2f-4d3a-9f41-81d35bc71bbc","ios":"levelo://app?vid=e4188f0f-3e2f-4d3a-9f41-81d35bc71bbc"},"vehicle_type_id":"4","last_reported":1747152806,"current_range_meters":4800,"station_id":"ce4bhm12rcd13ifvqgkg","pricing_plan_id":"cebpf4jnsgd1na2vs0mg"},{"bike_id":"0c692254-211d-44aa-853a-ed370636980b","system_id":"levelo_inurba_marseille","lat":43.29561,"lon":5.42284,"is_reserved":false,"is_disabled":false,"rental_uris":{"android":"levelo://app?vid=0c692254-211d-44aa-853a-ed370636980b","ios":"levelo://app?vid=0c692254-211d-44aa-853a-ed370636980b"},"vehicle_type_id":"4","last_reported":1747152806,"current_range_meters":4800,"station_id":"ce4bhph2rcd13ifvqhdg","pricing_plan_id":"cebpf4jnsgd1na2vs0mg"},{"bike_id":"9235f85a-52c9-4620-a0cf-cb2c432bcf88","system_id":"levelo_inurba_marseille","lat":43.27379,"lon":5.36263,"is_reserved":false,"is_disabled":false,"rental_uris":{"android":"levelo://app?vid=9235f85a-52c9-4620-a0cf-cb2c432bcf88","ios":"levelo://app?vid=9235f85a-52c9-4620-a0cf-cb2c432bcf88"},"vehicle_type_id":"4","last_reported":1747152806,"current_range_meters":6000,"station_id":"ce4bhbh2rcd13ifvqeo0","pricing_plan_id":"cebpf4jnsgd1na2vs0mg"},{"bike_id":"831aa21e-7eed-48a7-8fee-11df5950f587","system_id":"levelo_inurba_marseille","lat":43.28418,"lon":5.34992,"is_reserved":false,"is_disabled":false,"rental_uris":{"android":"levelo://app?vid=831aa21e-7eed-48a7-8fee-11df5950f587","ios":"levelo://app?vid=831aa21e-7eed-48a7-8fee-11df5950f587"},"vehicle_type_id":"4","last_reported":1747152806,"current_range_meters":6000,"station_id":"ce4bhbh2rcd13ifvqepg","pricing_plan_id":"cebpf4jnsgd1na2vs0mg"},{"bike_id":"ff101072-60b7-4685-b3a8-609a97876463","system_id":"levelo_inurba_marseille","lat":43.28939,"lon":5.36389,"is_reserved":false,"is_disabled":false,"rental_uris":{"android":"levelo://app?vid=ff101072-60b7-4685-b3a8-609a97876463","ios":"levelo://app?vid=ff101072-60b7-4685-b3a8-609a97876463"},"vehicle_type_id":"4","last_reported":1747152806,"current_range_meters":6000,"station_id":"ce4bhc92rcd13ifvqetg","pricing_plan_id":"cebpf4jnsgd1na2vs0mg"},{"bike_id":"d6678e57-354c-4c19-89dc-7e17c920f025","system_id":"levelo_inurba_marseille","lat":43.28615,"lon":5.35123,"is_reserved":false,"is_disabled":false,"rental_uris":{"android":"levelo://app?vid=d6678e57-354c-4c19-89dc-7e17c920f025","ios":"levelo://app?vid=d6678e57-354c-4c19-89dc-7e17c920f025"},"vehicle_type_id":"4","last_reported":1747152806,"current_range_meters":6000,"station_id":"ce4bhch2rcd13ifvqeug","pricing_plan_id":"cebpf4jnsgd1na2vs0mg"},{"bike_id":"427a58bb-2e01-4b4b-beba-f8a3c9527667","system_id":"levelo_inurba_marseille","lat":43.33729,"lon":5.39182,"is_reserved":false,"is_disabled":false,"rental_uris":{"android":"levelo://app?vid=427a58bb-2e01-4b4b-beba-f8a3c9527667","ios":"levelo://app?vid=427a58bb-2e01-4b4b-beba-f8a3c9527667"},"vehicle_type_id":"4","last_reported":1747152806,"current_range_meters":6000,"station_id":"ce4bhr92rcd13ifvqhsg","pricing_plan_id":"cebpf4jnsgd1na2vs0mg"},{"bike_id":"1544eb8a-0b71-4895-be17-9219e9b4eb83","system_id":"levelo_inurba_marseille","lat":43.2926,"lon":5.4091,"is_reserved":false,"is_disabled":false,"rental_uris":{"android":"levelo://app?vid=1544eb8a-0b71-4895-be17-9219e9b4eb83","ios":"levelo://app?vid=1544eb8a-0b71-4895-be17-9219e9b4eb83"},"vehicle_type_id":"4","last_reported":1747152806,"current_range_meters":6400,"station_id":"ce4bh192rcd13ifvqdc0","pricing_plan_id":"cebpf4jnsgd1na2vs0mg"},{"bike_id":"8bc7bafe-dbfa-47c9-8db8-1d5f76bbd590","system_id":"levelo_inurba_marseille","lat":43.2657,"lon":5.39002,"is_reserved":false,"is_disabled":false,"rental_uris":{"android":"levelo://app?vid=8bc7bafe-dbfa-47c9-8db8-1d5f76bbd590","ios":"levelo://app?vid=8bc7bafe-dbfa-47c9-8db8-1d5f76bbd590"},"vehicle_type_id":"4","last_reported":1747152806,"current_range_meters":6400,"station_id":"ce4bhe12rcd13ifvqf30","pricing_plan_id":"cebpf4jnsgd1na2vs0mg"},{"bike_id":"c4cc038d-871d-450e-9d50-4727ea9ead18","system_id":"levelo_inurba_marseille","lat":43.27208,"lon":5.39176,"is_reserved":false,"is_disabled":false,"rental_uris":{"android":"levelo://app?vid=c4cc038d-871d-450e-9d50-4727ea9ead18","ios":"levelo://app?vid=c4cc038d-871d-450e-9d50-4727ea9ead18"},"vehicle_type_id":"4","last_reported":1747152806,"current_range_meters":6400,"station_id":"ce4bhhp2rcd13ifvqfm0","pricing_plan_id":"cebpf4jnsgd1na2vs0mg"},{"bike_id":"4d7c8d32-d563-4ba9-8dd4-2d5f22445c04","system_id":"levelo_inurba_marseille","lat":43.28156,"lon":5.42645,"is_reserved":false,"is_disabled":false,"rental_uris":{"android":"levelo://app?vid=4d7c8d32-d563-4ba9-8dd4-2d5f22445c04","ios":"levelo://app?vid=4d7c8d32-d563-4ba9-8dd4-2d5f22445c04"},"vehicle_type_id":"4","last_reported":1747152806,"current_range_meters":6400,"station_id":"ce4bhnh2rcd13ifvqgug","pricing_plan_id":"cebpf4jnsgd1na2vs0mg"},{"bike_id":"ebf89b3c-92cf-4afd-929b-a8429327c141","system_id":"levelo_inurba_marseille","lat":43.30422,"lon":5.412816,"is_reserved":false,"is_disabled":false,"rental_uris":{"android":"levelo://app?vid=ebf89b3c-92cf-4afd-929b-a8429327c141","ios":"levelo://app?vid=ebf89b3c-92cf-4afd-929b-a8429327c141"},"vehicle_type_id":"4","last_reported":1747152806,"current_range_meters":6400,"station_id":"ce4bhop2rcd13ifvqh8g","pricing_plan_id":"cebpf4jnsgd1na2vs0mg"},{"bike_id":"6117b24f-938b-46bb-9643-6c2da0e94543","system_id":"levelo_inurba_marseille","lat":43.34142,"lon":5.40898,"is_reserved":false,"is_disabled":false,"rental_uris":{"android":"levelo://app?vid=6117b24f-938b-46bb-9643-6c2da0e94543","ios":"levelo://app?vid=6117b24f-938b-46bb-9643-6c2da0e94543"},"vehicle_type_id":"4","last_reported":1747152806,"current_range_meters":6400,"station_id":"ce4bhqh2rcd13ifvqhlg","pricing_plan_id":"cebpf4jnsgd1na2vs0mg"},{"bike_id":"6a4f71b2-3608-4f18-9a90-fe23a10721dd","system_id":"levelo_inurba_marseille","lat":43.2962,"lon":5.37172,"is_reserved":false,"is_disabled":false,"rental_uris":{"android":"levelo://app?vid=6a4f71b2-3608-4f18-9a90-fe23a10721dd","ios":"levelo://app?vid=6a4f71b2-3608-4f18-9a90-fe23a10721dd"},"vehicle_type_id":"4","last_reported":1747152806,"current_range_meters":6800,"station_id":"ce4bgnh2rcd13ifvqc0g","pricing_plan_id":"cebpf4jnsgd1na2vs0mg"},{"bike_id":"93bc076b-3457-4232-93bd-cb2451f65579","system_id":"levelo_inurba_marseille","lat":43.282744,"lon":5.350734,"is_reserved":false,"is_disabled":false,"rental_uris":{"android":"levelo://app?vid=93bc076b-3457-4232-93bd-cb2451f65579","ios":"levelo://app?vid=93bc076b-3457-4232-93bd-cb2451f65579"},"vehicle_type_id":"4","last_reported":1747152806,"current_range_meters":6800,"station_id":"ce4bhbp2rcd13ifvqerg","pricing_plan_id":"cebpf4jnsgd1na2vs0mg"},{"bike_id":"0d6438e6-7767-4184-ae65-2887dcc54a91","system_id":"levelo_inurba_marseille","lat":43.28161,"lon":5.42664,"is_reserved":false,"is_disabled":false,"rental_uris":{"android":"levelo://app?vid=0d6438e6-7767-4184-ae65-2887dcc54a91","ios":"levelo://app?vid=0d6438e6-7767-4184-ae65-2887dcc54a91"},"vehicle_type_id":"4","last_reported":1747152806,"current_range_meters":6800,"station_id":"ce4bhnh2rcd13ifvqgug","pricing_plan_id":"cebpf4jnsgd1na2vs0mg"},{"bike_id":"f37660b9-f06b-48cb-8471-32a804e0baac","system_id":"levelo_inurba_marseille","lat":43.3372,"lon":5.39188,"is_reserved":false,"is_disabled":false,"rental_uris":{"android":"levelo://app?vid=f37660b9-f06b-48cb-8471-32a804e0baac","ios":"levelo://app?vid=f37660b9-f06b-48cb-8471-32a804e0baac"},"vehicle_type_id":"4","last_reported":1747152806,"current_range_meters":6800,"station_id":"ce4bhr92rcd13ifvqhsg","pricing_plan_id":"cebpf4jnsgd1na2vs0mg"},{"bike_id":"c5da7788-e83c-48d1-9374-1c2edda4936c","system_id":"levelo_inurba_marseille","lat":43.31328,"lon":5.39694,"is_reserved":false,"is_disabled":false,"rental_uris":{"android":"levelo://app?vid=c5da7788-e83c-48d1-9374-1c2edda4936c","ios":"levelo://app?vid=c5da7788-e83c-48d1-9374-1c2edda4936c"},"vehicle_type_id":"4","last_reported":1747152806,"current_range_meters":7200,"station_id":"ce4bgvp2rcd13ifvqcu0","pricing_plan_id":"cebpf4jnsgd1na2vs0mg"},{"bike_id":"9d744ea1-36f1-48cd-9999-8a0e320f48f0","system_id":"levelo_inurba_marseille","lat":43.31328,"lon":5.39689,"is_reserved":false,"is_disabled":false,"rental_uris":{"android":"levelo://app?vid=9d744ea1-36f1-48cd-9999-8a0e320f48f0","ios":"levelo://app?vid=9d744ea1-36f1-48cd-9999-8a0e320f48f0"},"vehicle_type_id":"4","last_reported":1747152806,"current_range_meters":7200,"station_id":"ce4bgvp2rcd13ifvqcu0","pricing_plan_id":"cebpf4jnsgd1na2vs0mg"},{"bike_id":"75878334-8e53-4f5e-8cf0-1226507b5c65","system_id":"levelo_inurba_marseille","lat":43.30881,"lon":5.396586,"is_reserved":false,"is_disabled":false,"rental_uris":{"android":"levelo://app?vid=75878334-8e53-4f5e-8cf0-1226507b5c65","ios":"levelo://app?vid=75878334-8e53-4f5e-8cf0-1226507b5c65"},"vehicle_type_id":"4","last_reported":1747152806,"current_range_meters":7200,"station_id":"ce4bh012rcd13ifvqcv0","pricing_plan_id":"cebpf4jnsgd1na2vs0mg"},{"bike_id":"55a013b4-90e4-4dfc-a475-5e822d8df6a3","system_id":"levelo_inurba_marseille","lat":43.29034,"lon":5.3865,"is_reserved":false,"is_disabled":false,"rental_uris":{"android":"levelo://app?vid=55a013b4-90e4-4dfc-a475-5e822d8df6a3","ios":"levelo://app?vid=55a013b4-90e4-4dfc-a475-5e822d8df6a3"},"vehicle_type_id":"4","last_reported":1747152806,"current_range_meters":7200,"station_id":"ce4bh4p2rcd13ifvqe0g","pricing_plan_id":"cebpf4jnsgd1na2vs0mg"},{"bike_id":"b016f336-8b62-45d2-9a00-2383d0aae169","system_id":"levelo_inurba_marseille","lat":43.2905,"lon":5.35904,"is_reserved":false,"is_disabled":false,"rental_uris":{"android":"levelo://app?vid=b016f336-8b62-45d2-9a00-2383d0aae169","ios":"levelo://app?vid=b016f336-8b62-45d2-9a00-2383d0aae169"},"vehicle_type_id":"4","last_reported":1747152806,"current_range_meters":7200,"station_id":"ce4bha92rcd13ifvqeg0","pricing_plan_id":"cebpf4jnsgd1na2vs0mg"},{"bike_id":"538ef0fd-e05b-4565-bc6f-bfbed5a6926a","system_id":"levelo_inurba_marseille","lat":43.29195,"lon":5.35813,"is_reserved":false,"is_disabled":false,"rental_uris":{"android":"levelo://app?vid=538ef0fd-e05b-4565-bc6f-bfbed5a6926a","ios":"levelo://app?vid=538ef0fd-e05b-4565-bc6f-bfbed5a6926a"},"vehicle_type_id":"4","last_reported":1747152806,"current_range_meters":7200,"station_id":"ce4bhb12rcd13ifvqel0","pricing_plan_id":"cebpf4jnsgd1na2vs0mg"},{"bike_id":"d229b99d-c82f-4e18-a9da-5b53006e90a4","system_id":"levelo_inurba_marseille","lat":43.27376,"lon":5.36263,"is_reserved":false,"is_disabled":false,"rental_uris":{"android":"levelo://app?vid=d229b99d-c82f-4e18-a9da-5b53006e90a4","ios":"levelo://app?vid=d229b99d-c82f-4e18-a9da-5b53006e90a4"},"vehicle_type_id":"4","last_reported":1747152806,"current_range_meters":7200,"station_id":"ce4bhbh2rcd13ifvqeo0","pricing_plan_id":"cebpf4jnsgd1na2vs0mg"},{"bike_id":"8e0135bd-db96-4cf8-b714-0edbf0c84883","system_id":"levelo_inurba_marseille","lat":43.26028,"lon":5.37551,"is_reserved":false,"is_disabled":false,"rental_uris":{"android":"levelo://app?vid=8e0135bd-db96-4cf8-b714-0edbf0c84883","ios":"levelo://app?vid=8e0135bd-db96-4cf8-b714-0edbf0c84883"},"vehicle_type_id":"4","last_reported":1747152806,"current_range_meters":7200,"station_id":"ce4bhgh2rcd13ifvqfa0","pricing_plan_id":"cebpf4jnsgd1na2vs0mg"},{"bike_id":"8434b29f-67e4-4ec7-bc2c-a9025fccb797","system_id":"levelo_inurba_marseille","lat":43.24805,"lon":5.37455,"is_reserved":false,"is_disabled":false,"rental_uris":{"android":"levelo://app?vid=8434b29f-67e4-4ec7-bc2c-a9025fccb797","ios":"levelo://app?vid=8434b29f-67e4-4ec7-bc2c-a9025fccb797"},"vehicle_type_id":"4","last_reported":1747152806,"current_range_meters":7200,"station_id":"ce4bhgh2rcd13ifvqfb0","pricing_plan_id":"cebpf4jnsgd1na2vs0mg"},{"bike_id":"67f2e6f6-3916-438c-a21a-eccbc85c7e23","system_id":"levelo_inurba_marseille","lat":43.282699,"lon":5.390608,"is_reserved":false,"is_disabled":false,"rental_uris":{"android":"levelo://app?vid=67f2e6f6-3916-438c-a21a-eccbc85c7e23","ios":"levelo://app?vid=67f2e6f6-3916-438c-a21a-eccbc85c7e23"},"vehicle_type_id":"4","last_reported":1747152806,"current_range_meters":7200,"station_id":"ce4bho12rcd13ifvqh2g","pricing_plan_id":"cebpf4jnsgd1na2vs0mg"},{"bike_id":"054e026e-c067-475e-a99a-8c100e7e89ac","system_id":"levelo_inurba_marseille","lat":43.29557,"lon":5.42296,"is_reserved":false,"is_disabled":false,"rental_uris":{"android":"levelo://app?vid=054e026e-c067-475e-a99a-8c100e7e89ac","ios":"levelo://app?vid=054e026e-c067-475e-a99a-8c100e7e89ac"},"vehicle_type_id":"4","last_reported":1747152806,"current_range_meters":7200,"station_id":"ce4bhph2rcd13ifvqhdg","pricing_plan_id":"cebpf4jnsgd1na2vs0mg"},{"bike_id":"9c6415ed-b3e1-45d4-97ca-1675bbf7d1d7","system_id":"levelo_inurba_marseille","lat":43.32335,"lon":5.4062,"is_reserved":false,"is_disabled":false,"rental_uris":{"android":"levelo://app?vid=9c6415ed-b3e1-45d4-97ca-1675bbf7d1d7","ios":"levelo://app?vid=9c6415ed-b3e1-45d4-97ca-1675bbf7d1d7"},"vehicle_type_id":"4","last_reported":1747152806,"current_range_meters":7200,"station_id":"ce4bhq92rcd13ifvqhjg","pricing_plan_id":"cebpf4jnsgd1na2vs0mg"},{"bike_id":"4dc78298-0f15-438d-bc87-d3baa98121ad","system_id":"levelo_inurba_marseille","lat":43.23192,"lon":5.35569,"is_reserved":false,"is_disabled":false,"rental_uris":{"android":"levelo://app?vid=4dc78298-0f15-438d-bc87-d3baa98121ad","ios":"levelo://app?vid=4dc78298-0f15-438d-bc87-d3baa98121ad"},"vehicle_type_id":"4","last_reported":1747152806,"current_range_meters":7200,"station_id":"ce4bhu92rcd13ifvqi70","pricing_plan_id":"cebpf4jnsgd1na2vs0mg"},{"bike_id":"f16911ca-5748-4011-a06c-54c9079f5741","system_id":"levelo_inurba_marseille","lat":43.26211,"lon":5.3744,"is_reserved":false,"is_disabled":false,"rental_uris":{"android":"levelo://app?vid=f16911ca-5748-4011-a06c-54c9079f5741","ios":"levelo://app?vid=f16911ca-5748-4011-a06c-54c9079f5741"},"vehicle_type_id":"4","last_reported":1747152806,"current_range_meters":8000,"station_id":"ce4bhgp2rcd13ifvqfc0","pricing_plan_id":"cebpf4jnsgd1na2vs0mg"},{"bike_id":"7fd9d862-c905-4040-a89a-19b3db9e918a","system_id":"levelo_inurba_marseille","lat":43.2623,"lon":5.40447,"is_reserved":false,"is_disabled":false,"rental_uris":{"android":"levelo://app?vid=7fd9d862-c905-4040-a89a-19b3db9e918a","ios":"levelo://app?vid=7fd9d862-c905-4040-a89a-19b3db9e918a"},"vehicle_type_id":"4","last_reported":1747152806,"current_range_meters":8000,"station_id":"ce4bhmh2rcd13ifvqgmg","pricing_plan_id":"cebpf4jnsgd1na2vs0mg"},{"bike_id":"fda1dc9f-4e64-4a08-8544-64e94f40ea18","system_id":"levelo_inurba_marseille","lat":43.27995,"lon":5.41663,"is_reserved":false,"is_disabled":false,"rental_uris":{"android":"levelo://app?vid=fda1dc9f-4e64-4a08-8544-64e94f40ea18","ios":"levelo://app?vid=fda1dc9f-4e64-4a08-8544-64e94f40ea18"},"vehicle_type_id":"4","last_reported":1747152806,"current_range_meters":8000,"station_id":"ce4bho12rcd13ifvqh1g","pricing_plan_id":"cebpf4jnsgd1na2vs0mg"},{"bike_id":"820e3afc-5e14-4713-abdd-9239b1c9712c","system_id":"levelo_inurba_marseille","lat":43.29194,"lon":5.35803,"is_reserved":false,"is_disabled":false,"rental_uris":{"android":"levelo://app?vid=820e3afc-5e14-4713-abdd-9239b1c9712c","ios":"levelo://app?vid=820e3afc-5e14-4713-abdd-9239b1c9712c"},"vehicle_type_id":"4","last_reported":1747152806,"current_range_meters":8400,"station_id":"ce4bhb12rcd13ifvqel0","pricing_plan_id":"cebpf4jnsgd1na2vs0mg"},{"bike_id":"de0499fd-5042-4404-b67f-374e55bd442c","system_id":"levelo_inurba_marseille","lat":43.27378,"lon":5.3626,"is_reserved":false,"is_disabled":false,"rental_uris":{"android":"levelo://app?vid=de0499fd-5042-4404-b67f-374e55bd442c","ios":"levelo://app?vid=de0499fd-5042-4404-b67f-374e55bd442c"},"vehicle_type_id":"4","last_reported":1747152806,"current_range_meters":8400,"station_id":"ce4bhbh2rcd13ifvqeo0","pricing_plan_id":"cebpf4jnsgd1na2vs0mg"},{"bike_id":"135a6fbd-0c6a-486e-a7fd-6fca8c346b0f","system_id":"levelo_inurba_marseille","lat":43.26038,"lon":5.37561,"is_reserved":false,"is_disabled":false,"rental_uris":{"android":"levelo://app?vid=135a6fbd-0c6a-486e-a7fd-6fca8c346b0f","ios":"levelo://app?vid=135a6fbd-0c6a-486e-a7fd-6fca8c346b0f"},"vehicle_type_id":"4","last_reported":1747152806,"current_range_meters":8400,"station_id":"ce4bhgh2rcd13ifvqfa0","pricing_plan_id":"cebpf4jnsgd1na2vs0mg"},{"bike_id":"5a9af408-222e-4295-9ccc-5afcc2dce769","system_id":"levelo_inurba_marseille","lat":43.28409,"lon":5.34999,"is_reserved":false,"is_disabled":false,"rental_uris":{"android":"levelo://app?vid=5a9af408-222e-4295-9ccc-5afcc2dce769","ios":"levelo://app?vid=5a9af408-222e-4295-9ccc-5afcc2dce769"},"vehicle_type_id":"4","last_reported":1747152806,"current_range_meters":8800,"station_id":"ce4bhbh2rcd13ifvqepg","pricing_plan_id":"cebpf4jnsgd1na2vs0mg"},{"bike_id":"45b02cd8-da99-4691-a762-f1fc770d57e6","system_id":"levelo_inurba_marseille","lat":43.28266,"lon":5.35085,"is_reserved":false,"is_disabled":false,"rental_uris":{"android":"levelo://app?vid=45b02cd8-da99-4691-a762-f1fc770d57e6","ios":"levelo://app?vid=45b02cd8-da99-4691-a762-f1fc770d57e6"},"vehicle_type_id":"4","last_reported":1747152806,"current_range_meters":8800,"station_id":"ce4bhbp2rcd13ifvqerg","pricing_plan_id":"cebpf4jnsgd1na2vs0mg"},{"bike_id":"a9fef8cd-2d29-4882-a062-a7c128ee28a2","system_id":"levelo_inurba_marseille","lat":43.26198,"lon":5.37465,"is_reserved":false,"is_disabled":false,"rental_uris":{"android":"levelo://app?vid=a9fef8cd-2d29-4882-a062-a7c128ee28a2","ios":"levelo://app?vid=a9fef8cd-2d29-4882-a062-a7c128ee28a2"},"vehicle_type_id":"4","last_reported":1747152806,"current_range_meters":8800,"station_id":"ce4bhgp2rcd13ifvqfc0","pricing_plan_id":"cebpf4jnsgd1na2vs0mg"},{"bike_id":"7511d401-f004-451d-be5d-6faa8a33198c","system_id":"levelo_inurba_marseille","lat":43.24545,"lon":5.39525,"is_reserved":false,"is_disabled":false,"rental_uris":{"android":"levelo://app?vid=7511d401-f004-451d-be5d-6faa8a33198c","ios":"levelo://app?vid=7511d401-f004-451d-be5d-6faa8a33198c"},"vehicle_type_id":"4","last_reported":1747152806,"current_range_meters":8800,"station_id":"ce4bhlp2rcd13ifvqgjg","pricing_plan_id":"cebpf4jnsgd1na2vs0mg"},{"bike_id":"da5ac655-9074-4400-b77e-64c357199063","system_id":"levelo_inurba_marseille","lat":43.270707,"lon":5.422852,"is_reserved":false,"is_disabled":false,"rental_uris":{"android":"levelo://app?vid=da5ac655-9074-4400-b77e-64c357199063","ios":"levelo://app?vid=da5ac655-9074-4400-b77e-64c357199063"},"vehicle_type_id":"4","last_reported":1747152806,"current_range_meters":8800,"station_id":"ce4bho92rcd13ifvqh4g","pricing_plan_id":"cebpf4jnsgd1na2vs0mg"},{"bike_id":"0ab43f42-a55d-4ab2-a4d5-d0d04480fae2","system_id":"levelo_inurba_marseille","lat":43.30889,"lon":5.3966,"is_reserved":false,"is_disabled":false,"rental_uris":{"android":"levelo://app?vid=0ab43f42-a55d-4ab2-a4d5-d0d04480fae2","ios":"levelo://app?vid=0ab43f42-a55d-4ab2-a4d5-d0d04480fae2"},"vehicle_type_id":"4","last_reported":1747152806,"current_range_meters":9200,"station_id":"ce4bh012rcd13ifvqcv0","pricing_plan_id":"cebpf4jnsgd1na2vs0mg"},{"bike_id":"710552c6-827c-4014-b6a4-cdffe4bbed7d","system_id":"levelo_inurba_marseille","lat":43.26563,"lon":5.37321,"is_reserved":false,"is_disabled":false,"rental_uris":{"android":"levelo://app?vid=710552c6-827c-4014-b6a4-cdffe4bbed7d","ios":"levelo://app?vid=710552c6-827c-4014-b6a4-cdffe4bbed7d"},"vehicle_type_id":"4","last_reported":1747152806,"current_range_meters":9200,"station_id":"ce4bhg12rcd13ifvqf70","pricing_plan_id":"cebpf4jnsgd1na2vs0mg"},{"bike_id":"071b2a57-2439-4119-8b31-212e08ec9cf0","system_id":"levelo_inurba_marseille","lat":43.32288,"lon":5.38278,"is_reserved":false,"is_disabled":false,"rental_uris":{"android":"levelo://app?vid=071b2a57-2439-4119-8b31-212e08ec9cf0","ios":"levelo://app?vid=071b2a57-2439-4119-8b31-212e08ec9cf0"},"vehicle_type_id":"4","last_reported":1747152806,"current_range_meters":9200,"station_id":"ce4bhr12rcd13ifvqhqg","pricing_plan_id":"cebpf4jnsgd1na2vs0mg"},{"bike_id":"31313693-507a-4a7c-a6cd-629fada67c9a","system_id":"levelo_inurba_marseille","lat":43.27621,"lon":5.36104,"is_reserved":false,"is_disabled":false,"rental_uris":{"android":"levelo://app?vid=31313693-507a-4a7c-a6cd-629fada67c9a","ios":"levelo://app?vid=31313693-507a-4a7c-a6cd-629fada67c9a"},"vehicle_type_id":"4","last_reported":1747152806,"current_range_meters":9600,"station_id":"ce4bgj92rcd13ifvqbe0","pricing_plan_id":"cebpf4jnsgd1na2vs0mg"},{"bike_id":"0e89a721-196d-4572-b905-e39e1dafff7a","system_id":"levelo_inurba_marseille","lat":43.321165,"lon":5.367748,"is_reserved":false,"is_disabled":false,"rental_uris":{"android":"levelo://app?vid=0e89a721-196d-4572-b905-e39e1dafff7a","ios":"levelo://app?vid=0e89a721-196d-4572-b905-e39e1dafff7a"},"vehicle_type_id":"4","last_reported":1747152806,"current_range_meters":9600,"station_id":"ce4bhrh2rcd13ifvqhug","pricing_plan_id":"cebpf4jnsgd1na2vs0mg"},{"bike_id":"ac8bdcbc-2723-4ca5-acf7-7409858d7c18","system_id":"levelo_inurba_marseille","lat":43.28852,"lon":5.35858,"is_reserved":false,"is_disabled":false,"rental_uris":{"android":"levelo://app?vid=ac8bdcbc-2723-4ca5-acf7-7409858d7c18","ios":"levelo://app?vid=ac8bdcbc-2723-4ca5-acf7-7409858d7c18"},"vehicle_type_id":"4","last_reported":1747152806,"current_range_meters":10000,"station_id":"ce4bhb12rcd13ifvqem0","pricing_plan_id":"cebpf4jnsgd1na2vs0mg"},{"bike_id":"73924c19-03b9-469e-b393-46a3c25386e2","system_id":"levelo_inurba_marseille","lat":43.27206,"lon":5.39182,"is_reserved":false,"is_disabled":false,"rental_uris":{"android":"levelo://app?vid=73924c19-03b9-469e-b393-46a3c25386e2","ios":"levelo://app?vid=73924c19-03b9-469e-b393-46a3c25386e2"},"vehicle_type_id":"4","last_reported":1747152806,"current_range_meters":10000,"station_id":"ce4bhhp2rcd13ifvqfm0","pricing_plan_id":"cebpf4jnsgd1na2vs0mg"},{"bike_id":"c76520cd-c528-43a4-b26b-22812e34f6db","system_id":"levelo_inurba_marseille","lat":43.2817,"lon":5.42678,"is_reserved":false,"is_disabled":false,"rental_uris":{"android":"levelo://app?vid=c76520cd-c528-43a4-b26b-22812e34f6db","ios":"levelo://app?vid=c76520cd-c528-43a4-b26b-22812e34f6db"},"vehicle_type_id":"4","last_reported":1747152806,"current_range_meters":10000,"station_id":"ce4bhnh2rcd13ifvqgug","pricing_plan_id":"cebpf4jnsgd1na2vs0mg"},{"bike_id":"a60a6777-ff52-431c-ae41-e2093ca85ddc","system_id":"levelo_inurba_marseille","lat":43.298721,"lon":5.381012,"is_reserved":false,"is_disabled":false,"rental_uris":{"android":"levelo://app?vid=a60a6777-ff52-431c-ae41-e2093ca85ddc","ios":"levelo://app?vid=a60a6777-ff52-431c-ae41-e2093ca85ddc"},"vehicle_type_id":"4","last_reported":1747152806,"current_range_meters":10800,"station_id":"ce4bgj12rcd13ifvqbc0","pricing_plan_id":"cebpf4jnsgd1na2vs0mg"},{"bike_id":"b147b2da-e91f-4ba5-b9ec-f2759715e071","system_id":"levelo_inurba_marseille","lat":43.30886,"lon":5.39661,"is_reserved":false,"is_disabled":false,"rental_uris":{"android":"levelo://app?vid=b147b2da-e91f-4ba5-b9ec-f2759715e071","ios":"levelo://app?vid=b147b2da-e91f-4ba5-b9ec-f2759715e071"},"vehicle_type_id":"4","last_reported":1747152806,"current_range_meters":10800,"station_id":"ce4bh012rcd13ifvqcv0","pricing_plan_id":"cebpf4jnsgd1na2vs0mg"},{"bike_id":"34b2d933-4797-4428-81b0-182b0716fb75","system_id":"levelo_inurba_marseille","lat":43.29527,"lon":5.39401,"is_reserved":false,"is_disabled":false,"rental_uris":{"android":"levelo://app?vid=34b2d933-4797-4428-81b0-182b0716fb75","ios":"levelo://app?vid=34b2d933-4797-4428-81b0-182b0716fb75"},"vehicle_type_id":"4","last_reported":1747152806,"current_range_meters":10800,"station_id":"ce4bh292rcd13ifvqdf0","pricing_plan_id":"cebpf4jnsgd1na2vs0mg"},{"bike_id":"2275b321-52dd-4d3e-8dc3-c5414037498c","system_id":"levelo_inurba_marseille","lat":43.29037,"lon":5.37549,"is_reserved":false,"is_disabled":false,"rental_uris":{"android":"levelo://app?vid=2275b321-52dd-4d3e-8dc3-c5414037498c","ios":"levelo://app?vid=2275b321-52dd-4d3e-8dc3-c5414037498c"},"vehicle_type_id":"4","last_reported":1747152806,"current_range_meters":10800,"station_id":"ce4bh692rcd13ifvqe90","pricing_plan_id":"cebpf4jnsgd1na2vs0mg"},{"bike_id":"5b8481da-904c-4d5a-b047-83ad3e2cd586","system_id":"levelo_inurba_marseille","lat":43.30241,"lon":5.40061,"is_reserved":false,"is_disabled":false,"rental_uris":{"android":"levelo://app?vid=5b8481da-904c-4d5a-b047-83ad3e2cd586","ios":"levelo://app?vid=5b8481da-904c-4d5a-b047-83ad3e2cd586"},"vehicle_type_id":"4","last_reported":1747152806,"current_range_meters":11200,"station_id":"ce4bgvh2rcd13ifvqcs0","pricing_plan_id":"cebpf4jnsgd1na2vs0mg"},{"bike_id":"d1268844-1a4e-4da0-aca2-13dc43c4a0bf","system_id":"levelo_inurba_marseille","lat":43.28937,"lon":5.36637,"is_reserved":false,"is_disabled":false,"rental_uris":{"android":"levelo://app?vid=d1268844-1a4e-4da0-aca2-13dc43c4a0bf","ios":"levelo://app?vid=d1268844-1a4e-4da0-aca2-13dc43c4a0bf"},"vehicle_type_id":"4","last_reported":1747152806,"current_range_meters":11200,"station_id":"ce4bhap2rcd13ifvqek0","pricing_plan_id":"cebpf4jnsgd1na2vs0mg"},{"bike_id":"26471048-2327-4e9d-822e-7d79f1942260","system_id":"levelo_inurba_marseille","lat":43.27908,"lon":5.39593,"is_reserved":false,"is_disabled":false,"rental_uris":{"android":"levelo://app?vid=26471048-2327-4e9d-822e-7d79f1942260","ios":"levelo://app?vid=26471048-2327-4e9d-822e-7d79f1942260"},"vehicle_type_id":"4","last_reported":1747152806,"current_range_meters":11200,"station_id":"ce4bhf92rcd13ifvqf40","pricing_plan_id":"cebpf4jnsgd1na2vs0mg"},{"bike_id":"155bccb8-d82e-480f-b099-26c069c5e59a","system_id":"levelo_inurba_marseille","lat":43.26202,"lon":5.37455,"is_reserved":false,"is_disabled":false,"rental_uris":{"android":"levelo://app?vid=155bccb8-d82e-480f-b099-26c069c5e59a","ios":"levelo://app?vid=155bccb8-d82e-480f-b099-26c069c5e59a"},"vehicle_type_id":"4","last_reported":1747152806,"current_range_meters":11200,"station_id":"ce4bhgp2rcd13ifvqfc0","pricing_plan_id":"cebpf4jnsgd1na2vs0mg"},{"bike_id":"1dfbd5a5-d25f-4890-9161-e73a5500e2e4","system_id":"levelo_inurba_marseille","lat":43.29363,"lon":5.386342,"is_reserved":false,"is_disabled":false,"rental_uris":{"android":"levelo://app?vid=1dfbd5a5-d25f-4890-9161-e73a5500e2e4","ios":"levelo://app?vid=1dfbd5a5-d25f-4890-9161-e73a5500e2e4"},"vehicle_type_id":"4","last_reported":1747152806,"current_range_meters":11600,"station_id":"ce4bh0h2rcd13ifvqd60","pricing_plan_id":"cebpf4jnsgd1na2vs0mg"},{"bike_id":"cfd55402-cb54-4900-ab90-0131fad858dd","system_id":"levelo_inurba_marseille","lat":43.27177,"lon":5.40992,"is_reserved":false,"is_disabled":false,"rental_uris":{"android":"levelo://app?vid=cfd55402-cb54-4900-ab90-0131fad858dd","ios":"levelo://app?vid=cfd55402-cb54-4900-ab90-0131fad858dd"},"vehicle_type_id":"4","last_reported":1747152806,"current_range_meters":11600,"station_id":"ce4bhl12rcd13ifvqgf0","pricing_plan_id":"cebpf4jnsgd1na2vs0mg"},{"bike_id":"bae0709b-c933-441a-ab47-3aad58f66d78","system_id":"levelo_inurba_marseille","lat":43.21751,"lon":5.34613,"is_reserved":false,"is_disabled":false,"rental_uris":{"android":"levelo://app?vid=bae0709b-c933-441a-ab47-3aad58f66d78","ios":"levelo://app?vid=bae0709b-c933-441a-ab47-3aad58f66d78"},"vehicle_type_id":"4","last_reported":1747152806,"current_range_meters":11600,"station_id":"st_cvj6r9ubvosntc0bgbag","pricing_plan_id":"cebpf4jnsgd1na2vs0mg"},{"bike_id":"d842b4d3-0a9b-4056-9366-feb3f0b7009c","system_id":"levelo_inurba_marseille","lat":43.32265,"lon":5.41242,"is_reserved":false,"is_disabled":false,"rental_uris":{"android":"levelo://app?vid=d842b4d3-0a9b-4056-9366-feb3f0b7009c","ios":"levelo://app?vid=d842b4d3-0a9b-4056-9366-feb3f0b7009c"},"vehicle_type_id":"4","last_reported":1747152806,"current_range_meters":12000,"station_id":"","pricing_plan_id":"cebpf4jnsgd1na2vs0mg"},{"bike_id":"b7c78b99-f07e-438d-b6d4-873f757229e5","system_id":"levelo_inurba_marseille","lat":43.251176,"lon":5.403162,"is_reserved":false,"is_disabled":false,"rental_uris":{"android":"levelo://app?vid=b7c78b99-f07e-438d-b6d4-873f757229e5","ios":"levelo://app?vid=b7c78b99-f07e-438d-b6d4-873f757229e5"},"vehicle_type_id":"4","last_reported":1747152806,"current_range_meters":12000,"station_id":"","pricing_plan_id":"cebpf4jnsgd1na2vs0mg"},{"bike_id":"fba99400-17bf-4d02-a768-e8a4a2d5c86d","system_id":"levelo_inurba_marseille","lat":43.289866,"lon":5.378283,"is_reserved":false,"is_disabled":false,"rental_uris":{"android":"levelo://app?vid=fba99400-17bf-4d02-a768-e8a4a2d5c86d","ios":"levelo://app?vid=fba99400-17bf-4d02-a768-e8a4a2d5c86d"},"vehicle_type_id":"4","last_reported":1747152806,"current_range_meters":12000,"station_id":"ce4bh9p2rcd13ifvqed0","pricing_plan_id":"cebpf4jnsgd1na2vs0mg"},{"bike_id":"958abf6b-1bdb-40ab-ac14-60f773deff2c","system_id":"levelo_inurba_marseille","lat":43.27375,"lon":5.36261,"is_reserved":false,"is_disabled":false,"rental_uris":{"android":"levelo://app?vid=958abf6b-1bdb-40ab-ac14-60f773deff2c","ios":"levelo://app?vid=958abf6b-1bdb-40ab-ac14-60f773deff2c"},"vehicle_type_id":"4","last_reported":1747152806,"current_range_meters":12000,"station_id":"ce4bhbh2rcd13ifvqeo0","pricing_plan_id":"cebpf4jnsgd1na2vs0mg"},{"bike_id":"513c7320-36ae-499b-a293-0d63b1bf0522","system_id":"levelo_inurba_marseille","lat":43.23963,"lon":5.36639,"is_reserved":false,"is_disabled":false,"rental_uris":{"android":"levelo://app?vid=513c7320-36ae-499b-a293-0d63b1bf0522","ios":"levelo://app?vid=513c7320-36ae-499b-a293-0d63b1bf0522"},"vehicle_type_id":"4","last_reported":1747152806,"current_range_meters":12000,"station_id":"ce4bhi12rcd13ifvqfp0","pricing_plan_id":"cebpf4jnsgd1na2vs0mg"},{"bike_id":"8af0f37f-91d0-4a8f-90fb-768ce0af8917","system_id":"levelo_inurba_marseille","lat":43.27177,"lon":5.40991,"is_reserved":false,"is_disabled":false,"rental_uris":{"android":"levelo://app?vid=8af0f37f-91d0-4a8f-90fb-768ce0af8917","ios":"levelo://app?vid=8af0f37f-91d0-4a8f-90fb-768ce0af8917"},"vehicle_type_id":"4","last_reported":1747152806,"current_range_meters":12400,"station_id":"ce4bhl12rcd13ifvqgf0","pricing_plan_id":"cebpf4jnsgd1na2vs0mg"},{"bike_id":"42443488-41e5-4837-8ea1-69f0eff95b92","system_id":"levelo_inurba_marseille","lat":43.31881,"lon":5.40735,"is_reserved":false,"is_disabled":false,"rental_uris":{"android":"levelo://app?vid=42443488-41e5-4837-8ea1-69f0eff95b92","ios":"levelo://app?vid=42443488-41e5-4837-8ea1-69f0eff95b92"},"vehicle_type_id":"4","last_reported":1747152806,"current_range_meters":12400,"station_id":"ce4bhq12rcd13ifvqhig","pricing_plan_id":"cebpf4jnsgd1na2vs0mg"},{"bike_id":"c9b9419a-f39f-40bd-b1a6-5670f346aafd","system_id":"levelo_inurba_marseille","lat":43.27574,"lon":5.38437,"is_reserved":false,"is_disabled":false,"rental_uris":{"android":"levelo://app?vid=c9b9419a-f39f-40bd-b1a6-5670f346aafd","ios":"levelo://app?vid=c9b9419a-f39f-40bd-b1a6-5670f346aafd"},"vehicle_type_id":"4","last_reported":1747152806,"current_range_meters":12800,"station_id":"ce4bhh92rcd13ifvqfi0","pricing_plan_id":"cebpf4jnsgd1na2vs0mg"},{"bike_id":"d3dcffff-93c0-4bc1-b0a2-3b06504ce18f","system_id":"levelo_inurba_marseille","lat":43.29006,"lon":5.35607,"is_reserved":false,"is_disabled":false,"rental_uris":{"android":"levelo://app?vid=d3dcffff-93c0-4bc1-b0a2-3b06504ce18f","ios":"levelo://app?vid=d3dcffff-93c0-4bc1-b0a2-3b06504ce18f"},"vehicle_type_id":"4","last_reported":1747152806,"current_range_meters":14400,"station_id":"ce4bhb92rcd13ifvqen0","pricing_plan_id":"cebpf4jnsgd1na2vs0mg"},{"bike_id":"c8747c89-b35f-4348-87e6-c594a932c995","system_id":"levelo_inurba_marseille","lat":43.28426,"lon":5.34986,"is_reserved":false,"is_disabled":false,"rental_uris":{"android":"levelo://app?vid=c8747c89-b35f-4348-87e6-c594a932c995","ios":"levelo://app?vid=c8747c89-b35f-4348-87e6-c594a932c995"},"vehicle_type_id":"4","last_reported":1747152806,"current_range_meters":14400,"station_id":"ce4bhbh2rcd13ifvqepg","pricing_plan_id":"cebpf4jnsgd1na2vs0mg"},{"bike_id":"1a706600-019a-4396-8800-b5631eeea594","system_id":"levelo_inurba_marseille","lat":43.28276,"lon":5.35074,"is_reserved":false,"is_disabled":false,"rental_uris":{"android":"levelo://app?vid=1a706600-019a-4396-8800-b5631eeea594","ios":"levelo://app?vid=1a706600-019a-4396-8800-b5631eeea594"},"vehicle_type_id":"4","last_reported":1747152806,"current_range_meters":14400,"station_id":"ce4bhbp2rcd13ifvqerg","pricing_plan_id":"cebpf4jnsgd1na2vs0mg"},{"bike_id":"e5dc0b4a-f487-4680-b97e-3074f8f5ad01","system_id":"levelo_inurba_marseille","lat":43.278097,"lon":5.407157,"is_reserved":false,"is_disabled":false,"rental_uris":{"android":"levelo://app?vid=e5dc0b4a-f487-4680-b97e-3074f8f5ad01","ios":"levelo://app?vid=e5dc0b4a-f487-4680-b97e-3074f8f5ad01"},"vehicle_type_id":"4","last_reported":1747152806,"current_range_meters":14400,"station_id":"ce4bhnh2rcd13ifvqgtg","pricing_plan_id":"cebpf4jnsgd1na2vs0mg"},{"bike_id":"a1d04765-41b8-4f67-b0b1-11bdeb1c97b8","system_id":"levelo_inurba_marseille","lat":43.27996,"lon":5.41662,"is_reserved":false,"is_disabled":false,"rental_uris":{"android":"levelo://app?vid=a1d04765-41b8-4f67-b0b1-11bdeb1c97b8","ios":"levelo://app?vid=a1d04765-41b8-4f67-b0b1-11bdeb1c97b8"},"vehicle_type_id":"4","last_reported":1747152806,"current_range_meters":14400,"station_id":"ce4bho12rcd13ifvqh1g","pricing_plan_id":"cebpf4jnsgd1na2vs0mg"},{"bike_id":"f894a287-9954-4ec8-8267-3f4cbe657af9","system_id":"levelo_inurba_marseille","lat":43.31532,"lon":5.38053,"is_reserved":false,"is_disabled":false,"rental_uris":{"android":"levelo://app?vid=f894a287-9954-4ec8-8267-3f4cbe657af9","ios":"levelo://app?vid=f894a287-9954-4ec8-8267-3f4cbe657af9"},"vehicle_type_id":"4","last_reported":1747152806,"current_range_meters":14400,"station_id":"ce4bhsp2rcd13ifvqi50","pricing_plan_id":"cebpf4jnsgd1na2vs0mg"},{"bike_id":"faaec59f-661e-4627-a103-722962f818f9","system_id":"levelo_inurba_marseille","lat":43.29624,"lon":5.37169,"is_reserved":false,"is_disabled":false,"rental_uris":{"android":"levelo://app?vid=faaec59f-661e-4627-a103-722962f818f9","ios":"levelo://app?vid=faaec59f-661e-4627-a103-722962f818f9"},"vehicle_type_id":"4","last_reported":1747152806,"current_range_meters":14800,"station_id":"ce4bgnh2rcd13ifvqc0g","pricing_plan_id":"cebpf4jnsgd1na2vs0mg"},{"bike_id":"88e5653c-5694-4db1-943e-843cbc4f2809","system_id":"levelo_inurba_marseille","lat":43.29228,"lon":5.3607,"is_reserved":false,"is_disabled":false,"rental_uris":{"android":"levelo://app?vid=88e5653c-5694-4db1-943e-843cbc4f2809","ios":"levelo://app?vid=88e5653c-5694-4db1-943e-843cbc4f2809"},"vehicle_type_id":"4","last_reported":1747152806,"current_range_meters":14800,"station_id":"ce4bhbh2rcd13ifvqeqg","pricing_plan_id":"cebpf4jnsgd1na2vs0mg"},{"bike_id":"0a937b37-2a73-4b79-bebe-c5952c78432f","system_id":"levelo_inurba_marseille","lat":43.286165,"lon":5.350985,"is_reserved":false,"is_disabled":false,"rental_uris":{"android":"levelo://app?vid=0a937b37-2a73-4b79-bebe-c5952c78432f","ios":"levelo://app?vid=0a937b37-2a73-4b79-bebe-c5952c78432f"},"vehicle_type_id":"4","last_reported":1747152806,"current_range_meters":14800,"station_id":"ce4bhch2rcd13ifvqeug","pricing_plan_id":"cebpf4jnsgd1na2vs0mg"},{"bike_id":"ee8f5cf0-4459-4d4c-9195-5f2cd778392f","system_id":"levelo_inurba_marseille","lat":43.26555,"lon":5.37285,"is_reserved":false,"is_disabled":false,"rental_uris":{"android":"levelo://app?vid=ee8f5cf0-4459-4d4c-9195-5f2cd778392f","ios":"levelo://app?vid=ee8f5cf0-4459-4d4c-9195-5f2cd778392f"},"vehicle_type_id":"4","last_reported":1747152806,"current_range_meters":14800,"station_id":"ce4bhg12rcd13ifvqf70","pricing_plan_id":"cebpf4jnsgd1na2vs0mg"},{"bike_id":"382da604-28cd-407b-adb2-1bed2bb48c46","system_id":"levelo_inurba_marseille","lat":43.32368,"lon":5.38881,"is_reserved":false,"is_disabled":false,"rental_uris":{"android":"levelo://app?vid=382da604-28cd-407b-adb2-1bed2bb48c46","ios":"levelo://app?vid=382da604-28cd-407b-adb2-1bed2bb48c46"},"vehicle_type_id":"4","last_reported":1747152806,"current_range_meters":14800,"station_id":"ce4bhqp2rcd13ifvqhog","pricing_plan_id":"cebpf4jnsgd1na2vs0mg"},{"bike_id":"5f962fa4-024d-4d23-a83e-3aa84a4befda","system_id":"levelo_inurba_marseille","lat":43.29527,"lon":5.39407,"is_reserved":false,"is_disabled":false,"rental_uris":{"android":"levelo://app?vid=5f962fa4-024d-4d23-a83e-3aa84a4befda","ios":"levelo://app?vid=5f962fa4-024d-4d23-a83e-3aa84a4befda"},"vehicle_type_id":"4","last_reported":1747152806,"current_range_meters":15200,"station_id":"ce4bh292rcd13ifvqdf0","pricing_plan_id":"cebpf4jnsgd1na2vs0mg"},{"bike_id":"42eaedfa-7b25-4e49-817e-cc1d183ff412","system_id":"levelo_inurba_marseille","lat":43.28462,"lon":5.359,"is_reserved":false,"is_disabled":false,"rental_uris":{"android":"levelo://app?vid=42eaedfa-7b25-4e49-817e-cc1d183ff412","ios":"levelo://app?vid=42eaedfa-7b25-4e49-817e-cc1d183ff412"},"vehicle_type_id":"4","last_reported":1747152806,"current_range_meters":15200,"station_id":"ce4bhah2rcd13ifvqei0","pricing_plan_id":"cebpf4jnsgd1na2vs0mg"},{"bike_id":"ee95d7b1-23aa-4ba2-8604-c3c7e16b2172","system_id":"levelo_inurba_marseille","lat":43.28938,"lon":5.36619,"is_reserved":false,"is_disabled":false,"rental_uris":{"android":"levelo://app?vid=ee95d7b1-23aa-4ba2-8604-c3c7e16b2172","ios":"levelo://app?vid=ee95d7b1-23aa-4ba2-8604-c3c7e16b2172"},"vehicle_type_id":"4","last_reported":1747152806,"current_range_meters":15200,"station_id":"ce4bhap2rcd13ifvqek0","pricing_plan_id":"cebpf4jnsgd1na2vs0mg"},{"bike_id":"2f2808f9-72d5-4e29-a4a0-cbbaffbbe57a","system_id":"levelo_inurba_marseille","lat":43.27373,"lon":5.36246,"is_reserved":false,"is_disabled":false,"rental_uris":{"android":"levelo://app?vid=2f2808f9-72d5-4e29-a4a0-cbbaffbbe57a","ios":"levelo://app?vid=2f2808f9-72d5-4e29-a4a0-cbbaffbbe57a"},"vehicle_type_id":"4","last_reported":1747152806,"current_range_meters":15200,"station_id":"ce4bhbh2rcd13ifvqeo0","pricing_plan_id":"cebpf4jnsgd1na2vs0mg"},{"bike_id":"af7378f2-5574-4580-8919-9220d94ad1cc","system_id":"levelo_inurba_marseille","lat":43.23195,"lon":5.35547,"is_reserved":false,"is_disabled":false,"rental_uris":{"android":"levelo://app?vid=af7378f2-5574-4580-8919-9220d94ad1cc","ios":"levelo://app?vid=af7378f2-5574-4580-8919-9220d94ad1cc"},"vehicle_type_id":"4","last_reported":1747152806,"current_range_meters":15200,"station_id":"ce4bhu92rcd13ifvqi70","pricing_plan_id":"cebpf4jnsgd1na2vs0mg"},{"bike_id":"c0bda1e2-f53d-4fe2-a81b-f00b399acd9e","system_id":"levelo_inurba_marseille","lat":43.26576,"lon":5.39013,"is_reserved":false,"is_disabled":false,"rental_uris":{"android":"levelo://app?vid=c0bda1e2-f53d-4fe2-a81b-f00b399acd9e","ios":"levelo://app?vid=c0bda1e2-f53d-4fe2-a81b-f00b399acd9e"},"vehicle_type_id":"4","last_reported":1747152806,"current_range_meters":16000,"station_id":"ce4bhe12rcd13ifvqf30","pricing_plan_id":"cebpf4jnsgd1na2vs0mg"},{"bike_id":"09515db7-9738-4001-b87c-9371c34a4a1f","system_id":"levelo_inurba_marseille","lat":43.278323,"lon":5.39951,"is_reserved":false,"is_disabled":false,"rental_uris":{"android":"levelo://app?vid=09515db7-9738-4001-b87c-9371c34a4a1f","ios":"levelo://app?vid=09515db7-9738-4001-b87c-9371c34a4a1f"},"vehicle_type_id":"4","last_reported":1747152806,"current_range_meters":16400,"station_id":"","pricing_plan_id":"cebpf4jnsgd1na2vs0mg"},{"bike_id":"1a707287-7970-418a-9daa-ed8010eac8d7","system_id":"levelo_inurba_marseille","lat":43.27317,"lon":5.39105,"is_reserved":false,"is_disabled":false,"rental_uris":{"android":"levelo://app?vid=1a707287-7970-418a-9daa-ed8010eac8d7","ios":"levelo://app?vid=1a707287-7970-418a-9daa-ed8010eac8d7"},"vehicle_type_id":"4","last_reported":1747152806,"current_range_meters":16400,"station_id":"","pricing_plan_id":"cebpf4jnsgd1na2vs0mg"},{"bike_id":"42cfaabc-d4d4-405c-ab84-52ce3ce3032a","system_id":"levelo_inurba_marseille","lat":43.31693,"lon":5.43605,"is_reserved":false,"is_disabled":false,"rental_uris":{"android":"levelo://app?vid=42cfaabc-d4d4-405c-ab84-52ce3ce3032a","ios":"levelo://app?vid=42cfaabc-d4d4-405c-ab84-52ce3ce3032a"},"vehicle_type_id":"4","last_reported":1747152806,"current_range_meters":16400,"station_id":"","pricing_plan_id":"cebpf4jnsgd1na2vs0mg"},{"bike_id":"a3fd3e9f-7711-4890-bcf4-65117b504e6b","system_id":"levelo_inurba_marseille","lat":43.29308,"lon":5.41098,"is_reserved":false,"is_disabled":false,"rental_uris":{"android":"levelo://app?vid=a3fd3e9f-7711-4890-bcf4-65117b504e6b","ios":"levelo://app?vid=a3fd3e9f-7711-4890-bcf4-65117b504e6b"},"vehicle_type_id":"4","last_reported":1747152806,"current_range_meters":16800,"station_id":"","pricing_plan_id":"cebpf4jnsgd1na2vs0mg"},{"bike_id":"e689c297-1018-44e1-8e5a-b1725d64e5c8","system_id":"levelo_inurba_marseille","lat":43.287037,"lon":5.373678,"is_reserved":false,"is_disabled":false,"rental_uris":{"android":"levelo://app?vid=e689c297-1018-44e1-8e5a-b1725d64e5c8","ios":"levelo://app?vid=e689c297-1018-44e1-8e5a-b1725d64e5c8"},"vehicle_type_id":"4","last_reported":1747152806,"current_range_meters":16800,"station_id":"ce4bh3p2rcd13ifvqdq0","pricing_plan_id":"cebpf4jnsgd1na2vs0mg"},{"bike_id":"e29fe6b3-48d2-41a1-aa71-c6b196ca7da6","system_id":"levelo_inurba_marseille","lat":43.27385,"lon":5.36276,"is_reserved":false,"is_disabled":false,"rental_uris":{"android":"levelo://app?vid=e29fe6b3-48d2-41a1-aa71-c6b196ca7da6","ios":"levelo://app?vid=e29fe6b3-48d2-41a1-aa71-c6b196ca7da6"},"vehicle_type_id":"4","last_reported":1747152806,"current_range_meters":16800,"station_id":"ce4bhbh2rcd13ifvqeo0","pricing_plan_id":"cebpf4jnsgd1na2vs0mg"},{"bike_id":"876ad49d-085f-428a-90ac-b682108e8df4","system_id":"levelo_inurba_marseille","lat":43.24664,"lon":5.38166,"is_reserved":false,"is_disabled":false,"rental_uris":{"android":"levelo://app?vid=876ad49d-085f-428a-90ac-b682108e8df4","ios":"levelo://app?vid=876ad49d-085f-428a-90ac-b682108e8df4"},"vehicle_type_id":"4","last_reported":1747152806,"current_range_meters":16800,"station_id":"ce4bhih2rcd13ifvqfr0","pricing_plan_id":"cebpf4jnsgd1na2vs0mg"},{"bike_id":"a611ab18-e728-4398-af00-035f731be9ab","system_id":"levelo_inurba_marseille","lat":43.28144,"lon":5.42661,"is_reserved":false,"is_disabled":false,"rental_uris":{"android":"levelo://app?vid=a611ab18-e728-4398-af00-035f731be9ab","ios":"levelo://app?vid=a611ab18-e728-4398-af00-035f731be9ab"},"vehicle_type_id":"4","last_reported":1747152806,"current_range_meters":16800,"station_id":"ce4bhnh2rcd13ifvqgug","pricing_plan_id":"cebpf4jnsgd1na2vs0mg"},{"bike_id":"9d76660f-c284-49a2-8765-48337aa51471","system_id":"levelo_inurba_marseille","lat":43.321079,"lon":5.367836,"is_reserved":false,"is_disabled":false,"rental_uris":{"android":"levelo://app?vid=9d76660f-c284-49a2-8765-48337aa51471","ios":"levelo://app?vid=9d76660f-c284-49a2-8765-48337aa51471"},"vehicle_type_id":"4","last_reported":1747152806,"current_range_meters":16800,"station_id":"ce4bhrh2rcd13ifvqhug","pricing_plan_id":"cebpf4jnsgd1na2vs0mg"},{"bike_id":"bd143fa5-24de-48fa-ada8-3adf2b859f1d","system_id":"levelo_inurba_marseille","lat":43.30733,"lon":5.42431,"is_reserved":false,"is_disabled":false,"rental_uris":{"android":"levelo://app?vid=bd143fa5-24de-48fa-ada8-3adf2b859f1d","ios":"levelo://app?vid=bd143fa5-24de-48fa-ada8-3adf2b859f1d"},"vehicle_type_id":"4","last_reported":1747152806,"current_range_meters":16800,"station_id":"st_cvj6ca6bvosntc0bfgr0","pricing_plan_id":"cebpf4jnsgd1na2vs0mg"},{"bike_id":"0c893fb7-8626-4706-85bf-f404b871dea5","system_id":"levelo_inurba_marseille","lat":43.281276,"lon":5.445951,"is_reserved":false,"is_disabled":false,"rental_uris":{"android":"levelo://app?vid=0c893fb7-8626-4706-85bf-f404b871dea5","ios":"levelo://app?vid=0c893fb7-8626-4706-85bf-f404b871dea5"},"vehicle_type_id":"4","last_reported":1747152806,"current_range_meters":17200,"station_id":"","pricing_plan_id":"cebpf4jnsgd1na2vs0mg"},{"bike_id":"99c7a04a-5e5d-4a4e-82ae-f7b615fc2b46","system_id":"levelo_inurba_marseille","lat":43.2918,"lon":5.3932,"is_reserved":false,"is_disabled":false,"rental_uris":{"android":"levelo://app?vid=99c7a04a-5e5d-4a4e-82ae-f7b615fc2b46","ios":"levelo://app?vid=99c7a04a-5e5d-4a4e-82ae-f7b615fc2b46"},"vehicle_type_id":"4","last_reported":1747152806,"current_range_meters":17200,"station_id":"ce4bh192rcd13ifvqdd0","pricing_plan_id":"cebpf4jnsgd1na2vs0mg"},{"bike_id":"6f412ce9-eee9-48d2-9d8a-1233d2df974f","system_id":"levelo_inurba_marseille","lat":43.28699,"lon":5.37383,"is_reserved":false,"is_disabled":false,"rental_uris":{"android":"levelo://app?vid=6f412ce9-eee9-48d2-9d8a-1233d2df974f","ios":"levelo://app?vid=6f412ce9-eee9-48d2-9d8a-1233d2df974f"},"vehicle_type_id":"4","last_reported":1747152806,"current_range_meters":17200,"station_id":"ce4bh3p2rcd13ifvqdq0","pricing_plan_id":"cebpf4jnsgd1na2vs0mg"},{"bike_id":"4a1aa9bb-156c-450a-8cff-4aa9e9e62ee3","system_id":"levelo_inurba_marseille","lat":43.29006,"lon":5.35611,"is_reserved":false,"is_disabled":false,"rental_uris":{"android":"levelo://app?vid=4a1aa9bb-156c-450a-8cff-4aa9e9e62ee3","ios":"levelo://app?vid=4a1aa9bb-156c-450a-8cff-4aa9e9e62ee3"},"vehicle_type_id":"4","last_reported":1747152806,"current_range_meters":17200,"station_id":"ce4bhb92rcd13ifvqen0","pricing_plan_id":"cebpf4jnsgd1na2vs0mg"},{"bike_id":"b9272588-7a56-4677-8329-a3204fef55d7","system_id":"levelo_inurba_marseille","lat":43.28415,"lon":5.34996,"is_reserved":false,"is_disabled":false,"rental_uris":{"android":"levelo://app?vid=b9272588-7a56-4677-8329-a3204fef55d7","ios":"levelo://app?vid=b9272588-7a56-4677-8329-a3204fef55d7"},"vehicle_type_id":"4","last_reported":1747152806,"current_range_meters":17200,"station_id":"ce4bhbh2rcd13ifvqepg","pricing_plan_id":"cebpf4jnsgd1na2vs0mg"},{"bike_id":"ebbb3db5-66b4-4907-9a7b-ed749cb4c62b","system_id":"levelo_inurba_marseille","lat":43.31758,"lon":5.39023,"is_reserved":false,"is_disabled":false,"rental_uris":{"android":"levelo://app?vid=ebbb3db5-66b4-4907-9a7b-ed749cb4c62b","ios":"levelo://app?vid=ebbb3db5-66b4-4907-9a7b-ed749cb4c62b"},"vehicle_type_id":"4","last_reported":1747152806,"current_range_meters":17200,"station_id":"ce4bhqp2rcd13ifvqhng","pricing_plan_id":"cebpf4jnsgd1na2vs0mg"},{"bike_id":"0bb2c9ac-7679-4915-9df0-aa0855c6e6b0","system_id":"levelo_inurba_marseille","lat":43.28723,"lon":5.36102,"is_reserved":false,"is_disabled":false,"rental_uris":{"android":"levelo://app?vid=0bb2c9ac-7679-4915-9df0-aa0855c6e6b0","ios":"levelo://app?vid=0bb2c9ac-7679-4915-9df0-aa0855c6e6b0"},"vehicle_type_id":"4","last_reported":1747152806,"current_range_meters":17200,"station_id":"cki0cbj6b192h4jlfktg","pricing_plan_id":"cebpf4jnsgd1na2vs0mg"},{"bike_id":"1e297e0e-a907-489c-9a22-1dfb89bfb64f","system_id":"levelo_inurba_marseille","lat":43.292364,"lon":5.364194,"is_reserved":false,"is_disabled":false,"rental_uris":{"android":"levelo://app?vid=1e297e0e-a907-489c-9a22-1dfb89bfb64f","ios":"levelo://app?vid=1e297e0e-a907-489c-9a22-1dfb89bfb64f"},"vehicle_type_id":"4","last_reported":1747152806,"current_range_meters":17600,"station_id":"","pricing_plan_id":"cebpf4jnsgd1na2vs0mg"},{"bike_id":"eeb882a8-fe36-4d5c-a964-fc0d0f965523","system_id":"levelo_inurba_marseille","lat":43.30682,"lon":5.36697,"is_reserved":false,"is_disabled":false,"rental_uris":{"android":"levelo://app?vid=eeb882a8-fe36-4d5c-a964-fc0d0f965523","ios":"levelo://app?vid=eeb882a8-fe36-4d5c-a964-fc0d0f965523"},"vehicle_type_id":"4","last_reported":1747152806,"current_range_meters":17600,"station_id":"","pricing_plan_id":"cebpf4jnsgd1na2vs0mg"},{"bike_id":"236e752b-470d-4153-a25a-eae3e33c38f2","system_id":"levelo_inurba_marseille","lat":43.27944,"lon":5.4105,"is_reserved":false,"is_disabled":false,"rental_uris":{"android":"levelo://app?vid=236e752b-470d-4153-a25a-eae3e33c38f2","ios":"levelo://app?vid=236e752b-470d-4153-a25a-eae3e33c38f2"},"vehicle_type_id":"4","last_reported":1747152806,"current_range_meters":17600,"station_id":"ce4bhnp2rcd13ifvqh0g","pricing_plan_id":"cebpf4jnsgd1na2vs0mg"},{"bike_id":"90b47be1-47ee-466d-b74a-5bcce5a1c637","system_id":"levelo_inurba_marseille","lat":43.22957,"lon":5.35391,"is_reserved":false,"is_disabled":false,"rental_uris":{"android":"levelo://app?vid=90b47be1-47ee-466d-b74a-5bcce5a1c637","ios":"levelo://app?vid=90b47be1-47ee-466d-b74a-5bcce5a1c637"},"vehicle_type_id":"4","last_reported":1747152806,"current_range_meters":17600,"station_id":"cpo3532slgdg3j2ikp40","pricing_plan_id":"cebpf4jnsgd1na2vs0mg"},{"bike_id":"bdec6bdc-0e5f-44a0-be72-2f48a0a1faf2","system_id":"levelo_inurba_marseille","lat":43.30087,"lon":5.39062,"is_reserved":false,"is_disabled":false,"rental_uris":{"android":"levelo://app?vid=bdec6bdc-0e5f-44a0-be72-2f48a0a1faf2","ios":"levelo://app?vid=bdec6bdc-0e5f-44a0-be72-2f48a0a1faf2"},"vehicle_type_id":"4","last_reported":1747152806,"current_range_meters":18000,"station_id":"ce4bh192rcd13ifvqdb0","pricing_plan_id":"cebpf4jnsgd1na2vs0mg"},{"bike_id":"fa358810-8564-40de-ae1c-e303acd3a45d","system_id":"levelo_inurba_marseille","lat":43.25497,"lon":5.37654,"is_reserved":false,"is_disabled":false,"rental_uris":{"android":"levelo://app?vid=fa358810-8564-40de-ae1c-e303acd3a45d","ios":"levelo://app?vid=fa358810-8564-40de-ae1c-e303acd3a45d"},"vehicle_type_id":"4","last_reported":1747152806,"current_range_meters":18000,"station_id":"ce4bhh12rcd13ifvqff0","pricing_plan_id":"cebpf4jnsgd1na2vs0mg"},{"bike_id":"8b2c0f3c-8b2f-422f-8771-6c703fcebf88","system_id":"levelo_inurba_marseille","lat":43.28858,"lon":5.35848,"is_reserved":false,"is_disabled":false,"rental_uris":{"android":"levelo://app?vid=8b2c0f3c-8b2f-422f-8771-6c703fcebf88","ios":"levelo://app?vid=8b2c0f3c-8b2f-422f-8771-6c703fcebf88"},"vehicle_type_id":"4","last_reported":1747152806,"current_range_meters":18800,"station_id":"ce4bhb12rcd13ifvqem0","pricing_plan_id":"cebpf4jnsgd1na2vs0mg"},{"bike_id":"7471ae41-13b3-4cf7-ad07-5944ca16ee74","system_id":"levelo_inurba_marseille","lat":43.284,"lon":5.34989,"is_reserved":false,"is_disabled":false,"rental_uris":{"android":"levelo://app?vid=7471ae41-13b3-4cf7-ad07-5944ca16ee74","ios":"levelo://app?vid=7471ae41-13b3-4cf7-ad07-5944ca16ee74"},"vehicle_type_id":"4","last_reported":1747152806,"current_range_meters":18800,"station_id":"ce4bhbh2rcd13ifvqepg","pricing_plan_id":"cebpf4jnsgd1na2vs0mg"},{"bike_id":"f8366153-296f-420d-b25a-1f96b77d2ab3","system_id":"levelo_inurba_marseille","lat":43.27941,"lon":5.41047,"is_reserved":false,"is_disabled":false,"rental_uris":{"android":"levelo://app?vid=f8366153-296f-420d-b25a-1f96b77d2ab3","ios":"levelo://app?vid=f8366153-296f-420d-b25a-1f96b77d2ab3"},"vehicle_type_id":"4","last_reported":1747152806,"current_range_meters":18800,"station_id":"ce4bhnp2rcd13ifvqh0g","pricing_plan_id":"cebpf4jnsgd1na2vs0mg"},{"bike_id":"6e3094ae-584b-4b23-8747-809792d486b5","system_id":"levelo_inurba_marseille","lat":43.21209,"lon":5.35123,"is_reserved":false,"is_disabled":false,"rental_uris":{"android":"levelo://app?vid=6e3094ae-584b-4b23-8747-809792d486b5","ios":"levelo://app?vid=6e3094ae-584b-4b23-8747-809792d486b5"},"vehicle_type_id":"4","last_reported":1747152806,"current_range_meters":18800,"station_id":"st_cvj6sg6p6f1abm77japg","pricing_plan_id":"cebpf4jnsgd1na2vs0mg"},{"bike_id":"995b6502-9a4f-4150-822f-178690fca4ba","system_id":"levelo_inurba_marseille","lat":43.211923,"lon":5.350796,"is_reserved":false,"is_disabled":false,"rental_uris":{"android":"levelo://app?vid=995b6502-9a4f-4150-822f-178690fca4ba","ios":"levelo://app?vid=995b6502-9a4f-4150-822f-178690fca4ba"},"vehicle_type_id":"4","last_reported":1747152806,"current_range_meters":18800,"station_id":"st_cvj6sg6p6f1abm77japg","pricing_plan_id":"cebpf4jnsgd1na2vs0mg"},{"bike_id":"7179318f-b58e-45ad-86d5-49b0aef8d3ca","system_id":"levelo_inurba_marseille","lat":43.2795,"lon":5.41056,"is_reserved":false,"is_disabled":false,"rental_uris":{"android":"levelo://app?vid=7179318f-b58e-45ad-86d5-49b0aef8d3ca","ios":"levelo://app?vid=7179318f-b58e-45ad-86d5-49b0aef8d3ca"},"vehicle_type_id":"4","last_reported":1747152806,"current_range_meters":19600,"station_id":"ce4bhnp2rcd13ifvqh0g","pricing_plan_id":"cebpf4jnsgd1na2vs0mg"},{"bike_id":"c5a6038e-e242-4c42-a6da-186787771b16","system_id":"levelo_inurba_marseille","lat":43.21793,"lon":5.34609,"is_reserved":false,"is_disabled":false,"rental_uris":{"android":"levelo://app?vid=c5a6038e-e242-4c42-a6da-186787771b16","ios":"levelo://app?vid=c5a6038e-e242-4c42-a6da-186787771b16"},"vehicle_type_id":"4","last_reported":1747152806,"current_range_meters":19600,"station_id":"st_cvj6r9ubvosntc0bgbag","pricing_plan_id":"cebpf4jnsgd1na2vs0mg"},{"bike_id":"354cd526-6a2a-4890-9e71-febe02a03e3a","system_id":"levelo_inurba_marseille","lat":43.3043,"lon":5.38891,"is_reserved":false,"is_disabled":false,"rental_uris":{"android":"levelo://app?vid=354cd526-6a2a-4890-9e71-febe02a03e3a","ios":"levelo://app?vid=354cd526-6a2a-4890-9e71-febe02a03e3a"},"vehicle_type_id":"4","last_reported":1747152806,"current_range_meters":20000,"station_id":"ce4bgk12rcd13ifvqbi0","pricing_plan_id":"cebpf4jnsgd1na2vs0mg"},{"bike_id":"c2870003-aded-4ff6-a31a-83b8d8983012","system_id":"levelo_inurba_marseille","lat":43.23179,"lon":5.39987,"is_reserved":false,"is_disabled":false,"rental_uris":{"android":"levelo://app?vid=c2870003-aded-4ff6-a31a-83b8d8983012","ios":"levelo://app?vid=c2870003-aded-4ff6-a31a-83b8d8983012"},"vehicle_type_id":"4","last_reported":1747152806,"current_range_meters":20000,"station_id":"ce4bhn12rcd13ifvqgqg","pricing_plan_id":"cebpf4jnsgd1na2vs0mg"},{"bike_id":"fa4ed7a6-cf77-40a3-91a6-b7a168b78432","system_id":"levelo_inurba_marseille","lat":43.34141,"lon":5.40901,"is_reserved":false,"is_disabled":false,"rental_uris":{"android":"levelo://app?vid=fa4ed7a6-cf77-40a3-91a6-b7a168b78432","ios":"levelo://app?vid=fa4ed7a6-cf77-40a3-91a6-b7a168b78432"},"vehicle_type_id":"4","last_reported":1747152806,"current_range_meters":20000,"station_id":"ce4bhqh2rcd13ifvqhlg","pricing_plan_id":"cebpf4jnsgd1na2vs0mg"},{"bike_id":"b334cba1-669b-4ba4-b288-ab14a40de0d1","system_id":"levelo_inurba_marseille","lat":43.23195,"lon":5.3555,"is_reserved":false,"is_disabled":false,"rental_uris":{"android":"levelo://app?vid=b334cba1-669b-4ba4-b288-ab14a40de0d1","ios":"levelo://app?vid=b334cba1-669b-4ba4-b288-ab14a40de0d1"},"vehicle_type_id":"4","last_reported":1747152806,"current_range_meters":20000,"station_id":"ce4bhu92rcd13ifvqi70","pricing_plan_id":"cebpf4jnsgd1na2vs0mg"},{"bike_id":"a0c4157f-97df-4227-b416-00b93dcdbbdd","system_id":"levelo_inurba_marseille","lat":43.29524,"lon":5.39394,"is_reserved":false,"is_disabled":false,"rental_uris":{"android":"levelo://app?vid=a0c4157f-97df-4227-b416-00b93dcdbbdd","ios":"levelo://app?vid=a0c4157f-97df-4227-b416-00b93dcdbbdd"},"vehicle_type_id":"4","last_reported":1747152806,"current_range_meters":20400,"station_id":"ce4bh292rcd13ifvqdf0","pricing_plan_id":"cebpf4jnsgd1na2vs0mg"},{"bike_id":"987ebcdc-e752-4db2-93a6-bdc475212ce1","system_id":"levelo_inurba_marseille","lat":43.28031,"lon":5.36947,"is_reserved":false,"is_disabled":false,"rental_uris":{"android":"levelo://app?vid=987ebcdc-e752-4db2-93a6-bdc475212ce1","ios":"levelo://app?vid=987ebcdc-e752-4db2-93a6-bdc475212ce1"},"vehicle_type_id":"4","last_reported":1747152806,"current_range_meters":20800,"station_id":"ce4bha12rcd13ifvqef0","pricing_plan_id":"cebpf4jnsgd1na2vs0mg"},{"bike_id":"909cc242-04da-471c-a863-edcf6b798cd7","system_id":"levelo_inurba_marseille","lat":43.270596,"lon":5.402559,"is_reserved":false,"is_disabled":false,"rental_uris":{"android":"levelo://app?vid=909cc242-04da-471c-a863-edcf6b798cd7","ios":"levelo://app?vid=909cc242-04da-471c-a863-edcf6b798cd7"},"vehicle_type_id":"4","last_reported":1747152806,"current_range_meters":20800,"station_id":"ce4bhk92rcd13ifvqgc0","pricing_plan_id":"cebpf4jnsgd1na2vs0mg"},{"bike_id":"c42952a7-da2d-4ec1-8c80-121b4b265560","system_id":"levelo_inurba_marseille","lat":43.23184,"lon":5.39988,"is_reserved":false,"is_disabled":false,"rental_uris":{"android":"levelo://app?vid=c42952a7-da2d-4ec1-8c80-121b4b265560","ios":"levelo://app?vid=c42952a7-da2d-4ec1-8c80-121b4b265560"},"vehicle_type_id":"4","last_reported":1747152806,"current_range_meters":20800,"station_id":"ce4bhn12rcd13ifvqgqg","pricing_plan_id":"cebpf4jnsgd1na2vs0mg"},{"bike_id":"81759df7-0b71-428c-bae4-4b87a68e03dd","system_id":"levelo_inurba_marseille","lat":43.23228,"lon":5.35544,"is_reserved":false,"is_disabled":false,"rental_uris":{"android":"levelo://app?vid=81759df7-0b71-428c-bae4-4b87a68e03dd","ios":"levelo://app?vid=81759df7-0b71-428c-bae4-4b87a68e03dd"},"vehicle_type_id":"4","last_reported":1747152806,"current_range_meters":20800,"station_id":"ce4bhu92rcd13ifvqi70","pricing_plan_id":"cebpf4jnsgd1na2vs0mg"},{"bike_id":"5647a91f-31a6-41fb-82bb-83893a94fc73","system_id":"levelo_inurba_marseille","lat":43.21204,"lon":5.35096,"is_reserved":false,"is_disabled":false,"rental_uris":{"android":"levelo://app?vid=5647a91f-31a6-41fb-82bb-83893a94fc73","ios":"levelo://app?vid=5647a91f-31a6-41fb-82bb-83893a94fc73"},"vehicle_type_id":"4","last_reported":1747152806,"current_range_meters":20800,"station_id":"st_cvj6sg6p6f1abm77japg","pricing_plan_id":"cebpf4jnsgd1na2vs0mg"},{"bike_id":"d1b69818-1964-4d56-bb06-2d949d7e8deb","system_id":"levelo_inurba_marseille","lat":43.27615,"lon":5.36111,"is_reserved":false,"is_disabled":false,"rental_uris":{"android":"levelo://app?vid=d1b69818-1964-4d56-bb06-2d949d7e8deb","ios":"levelo://app?vid=d1b69818-1964-4d56-bb06-2d949d7e8deb"},"vehicle_type_id":"4","last_reported":1747152806,"current_range_meters":21600,"station_id":"ce4bgj92rcd13ifvqbe0","pricing_plan_id":"cebpf4jnsgd1na2vs0mg"},{"bike_id":"d1daf05a-ed1d-41f5-893b-7cc253c4996f","system_id":"levelo_inurba_marseille","lat":43.30929,"lon":5.40139,"is_reserved":false,"is_disabled":false,"rental_uris":{"android":"levelo://app?vid=d1daf05a-ed1d-41f5-893b-7cc253c4996f","ios":"levelo://app?vid=d1daf05a-ed1d-41f5-893b-7cc253c4996f"},"vehicle_type_id":"4","last_reported":1747152806,"current_range_meters":21600,"station_id":"ce4bgvp2rcd13ifvqct0","pricing_plan_id":"cebpf4jnsgd1na2vs0mg"},{"bike_id":"ac0112c9-313e-422c-910b-a3523b05b0c9","system_id":"levelo_inurba_marseille","lat":43.230582,"lon":5.354886,"is_reserved":false,"is_disabled":false,"rental_uris":{"android":"levelo://app?vid=ac0112c9-313e-422c-910b-a3523b05b0c9","ios":"levelo://app?vid=ac0112c9-313e-422c-910b-a3523b05b0c9"},"vehicle_type_id":"4","last_reported":1747152806,"current_range_meters":21600,"station_id":"cpo3342slgdg3j2ifvpg","pricing_plan_id":"cebpf4jnsgd1na2vs0mg"},{"bike_id":"cffd751f-d03c-41c8-b988-57227d8082cc","system_id":"levelo_inurba_marseille","lat":43.3033,"lon":5.40431,"is_reserved":false,"is_disabled":false,"rental_uris":{"android":"levelo://app?vid=cffd751f-d03c-41c8-b988-57227d8082cc","ios":"levelo://app?vid=cffd751f-d03c-41c8-b988-57227d8082cc"},"vehicle_type_id":"4","last_reported":1747152806,"current_range_meters":22000,"station_id":"ce4bh012rcd13ifvqd10","pricing_plan_id":"cebpf4jnsgd1na2vs0mg"},{"bike_id":"817737f0-ce27-40a7-9b20-d7fe9be6de95","system_id":"levelo_inurba_marseille","lat":43.29264,"lon":5.38452,"is_reserved":false,"is_disabled":false,"rental_uris":{"android":"levelo://app?vid=817737f0-ce27-40a7-9b20-d7fe9be6de95","ios":"levelo://app?vid=817737f0-ce27-40a7-9b20-d7fe9be6de95"},"vehicle_type_id":"4","last_reported":1747152806,"current_range_meters":22000,"station_id":"ce4bh0h2rcd13ifvqd40","pricing_plan_id":"cebpf4jnsgd1na2vs0mg"},{"bike_id":"e95200e9-4db1-4855-a060-a6ac80287691","system_id":"levelo_inurba_marseille","lat":43.28979,"lon":5.37832,"is_reserved":false,"is_disabled":false,"rental_uris":{"android":"levelo://app?vid=e95200e9-4db1-4855-a060-a6ac80287691","ios":"levelo://app?vid=e95200e9-4db1-4855-a060-a6ac80287691"},"vehicle_type_id":"4","last_reported":1747152806,"current_range_meters":22000,"station_id":"ce4bh9p2rcd13ifvqed0","pricing_plan_id":"cebpf4jnsgd1na2vs0mg"},{"bike_id":"008f64d9-4c9e-4b4d-8133-a07664581a4b","system_id":"levelo_inurba_marseille","lat":43.2582,"lon":5.39437,"is_reserved":false,"is_disabled":false,"rental_uris":{"android":"levelo://app?vid=008f64d9-4c9e-4b4d-8133-a07664581a4b","ios":"levelo://app?vid=008f64d9-4c9e-4b4d-8133-a07664581a4b"},"vehicle_type_id":"4","last_reported":1747152806,"current_range_meters":22000,"station_id":"ce4bhip2rcd13ifvqft0","pricing_plan_id":"cebpf4jnsgd1na2vs0mg"},{"bike_id":"896abe95-30c8-4930-b1d2-77465c2f1093","system_id":"levelo_inurba_marseille","lat":43.321125,"lon":5.36804,"is_reserved":false,"is_disabled":false,"rental_uris":{"android":"levelo://app?vid=896abe95-30c8-4930-b1d2-77465c2f1093","ios":"levelo://app?vid=896abe95-30c8-4930-b1d2-77465c2f1093"},"vehicle_type_id":"4","last_reported":1747152806,"current_range_meters":22000,"station_id":"ce4bhrh2rcd13ifvqhug","pricing_plan_id":"cebpf4jnsgd1na2vs0mg"},{"bike_id":"76ece841-510d-4672-95b9-59e4a04cbd03","system_id":"levelo_inurba_marseille","lat":43.3229,"lon":5.38274,"is_reserved":false,"is_disabled":false,"rental_uris":{"android":"levelo://app?vid=76ece841-510d-4672-95b9-59e4a04cbd03","ios":"levelo://app?vid=76ece841-510d-4672-95b9-59e4a04cbd03"},"vehicle_type_id":"4","last_reported":1747152806,"current_range_meters":22800,"station_id":"ce4bhr12rcd13ifvqhqg","pricing_plan_id":"cebpf4jnsgd1na2vs0mg"},{"bike_id":"e413baf9-3f6d-4c51-bc15-736e8982ec9d","system_id":"levelo_inurba_marseille","lat":43.27621,"lon":5.36107,"is_reserved":false,"is_disabled":false,"rental_uris":{"android":"levelo://app?vid=e413baf9-3f6d-4c51-bc15-736e8982ec9d","ios":"levelo://app?vid=e413baf9-3f6d-4c51-bc15-736e8982ec9d"},"vehicle_type_id":"4","last_reported":1747152806,"current_range_meters":23200,"station_id":"ce4bgj92rcd13ifvqbe0","pricing_plan_id":"cebpf4jnsgd1na2vs0mg"},{"bike_id":"5c3eb281-6976-45b8-9526-7dac96f521d6","system_id":"levelo_inurba_marseille","lat":43.29005,"lon":5.35615,"is_reserved":false,"is_disabled":false,"rental_uris":{"android":"levelo://app?vid=5c3eb281-6976-45b8-9526-7dac96f521d6","ios":"levelo://app?vid=5c3eb281-6976-45b8-9526-7dac96f521d6"},"vehicle_type_id":"4","last_reported":1747152806,"current_range_meters":23200,"station_id":"ce4bhb92rcd13ifvqen0","pricing_plan_id":"cebpf4jnsgd1na2vs0mg"},{"bike_id":"13d11a02-ff8c-499a-a6ca-0bbe36351f0b","system_id":"levelo_inurba_marseille","lat":43.28268,"lon":5.35059,"is_reserved":false,"is_disabled":false,"rental_uris":{"android":"levelo://app?vid=13d11a02-ff8c-499a-a6ca-0bbe36351f0b","ios":"levelo://app?vid=13d11a02-ff8c-499a-a6ca-0bbe36351f0b"},"vehicle_type_id":"4","last_reported":1747152806,"current_range_meters":23200,"station_id":"ce4bhbp2rcd13ifvqerg","pricing_plan_id":"cebpf4jnsgd1na2vs0mg"},{"bike_id":"42612b71-e6e9-49d6-bb66-e9451ea40b17","system_id":"levelo_inurba_marseille","lat":43.28934,"lon":5.36399,"is_reserved":false,"is_disabled":false,"rental_uris":{"android":"levelo://app?vid=42612b71-e6e9-49d6-bb66-e9451ea40b17","ios":"levelo://app?vid=42612b71-e6e9-49d6-bb66-e9451ea40b17"},"vehicle_type_id":"4","last_reported":1747152806,"current_range_meters":23200,"station_id":"ce4bhc92rcd13ifvqetg","pricing_plan_id":"cebpf4jnsgd1na2vs0mg"},{"bike_id":"8729a857-dda3-49e0-9d8b-3756a19b5949","system_id":"levelo_inurba_marseille","lat":43.26214,"lon":5.37472,"is_reserved":false,"is_disabled":false,"rental_uris":{"android":"levelo://app?vid=8729a857-dda3-49e0-9d8b-3756a19b5949","ios":"levelo://app?vid=8729a857-dda3-49e0-9d8b-3756a19b5949"},"vehicle_type_id":"4","last_reported":1747152806,"current_range_meters":23200,"station_id":"ce4bhgp2rcd13ifvqfc0","pricing_plan_id":"cebpf4jnsgd1na2vs0mg"},{"bike_id":"08a93b84-f9e2-4480-b23a-2ee7a592645e","system_id":"levelo_inurba_marseille","lat":43.21751,"lon":5.34602,"is_reserved":false,"is_disabled":false,"rental_uris":{"android":"levelo://app?vid=08a93b84-f9e2-4480-b23a-2ee7a592645e","ios":"levelo://app?vid=08a93b84-f9e2-4480-b23a-2ee7a592645e"},"vehicle_type_id":"4","last_reported":1747152806,"current_range_meters":23200,"station_id":"st_cvj6r9ubvosntc0bgbag","pricing_plan_id":"cebpf4jnsgd1na2vs0mg"},{"bike_id":"64824209-6cba-4c12-875a-1502c403c27a","system_id":"levelo_inurba_marseille","lat":43.21231,"lon":5.35089,"is_reserved":false,"is_disabled":false,"rental_uris":{"android":"levelo://app?vid=64824209-6cba-4c12-875a-1502c403c27a","ios":"levelo://app?vid=64824209-6cba-4c12-875a-1502c403c27a"},"vehicle_type_id":"4","last_reported":1747152806,"current_range_meters":24000,"station_id":"","pricing_plan_id":"cebpf4jnsgd1na2vs0mg"},{"bike_id":"3e2409db-d657-4e39-8d7f-9281749c629d","system_id":"levelo_inurba_marseille","lat":43.301405,"lon":5.387786,"is_reserved":false,"is_disabled":false,"rental_uris":{"android":"levelo://app?vid=3e2409db-d657-4e39-8d7f-9281749c629d","ios":"levelo://app?vid=3e2409db-d657-4e39-8d7f-9281749c629d"},"vehicle_type_id":"4","last_reported":1747152806,"current_range_meters":24000,"station_id":"ce4bghh2rcd13ifvqb60","pricing_plan_id":"cebpf4jnsgd1na2vs0mg"},{"bike_id":"4dd23750-b0ed-4f48-bbfe-78352eb32013","system_id":"levelo_inurba_marseille","lat":43.286653,"lon":5.363595,"is_reserved":false,"is_disabled":false,"rental_uris":{"android":"levelo://app?vid=4dd23750-b0ed-4f48-bbfe-78352eb32013","ios":"levelo://app?vid=4dd23750-b0ed-4f48-bbfe-78352eb32013"},"vehicle_type_id":"4","last_reported":1747152806,"current_range_meters":24000,"station_id":"ce4bhah2rcd13ifvqej0","pricing_plan_id":"cebpf4jnsgd1na2vs0mg"},{"bike_id":"752652eb-7428-49c1-bd74-7c8ff2124c56","system_id":"levelo_inurba_marseille","lat":43.317167,"lon":5.437158,"is_reserved":false,"is_disabled":false,"rental_uris":{"android":"levelo://app?vid=752652eb-7428-49c1-bd74-7c8ff2124c56","ios":"levelo://app?vid=752652eb-7428-49c1-bd74-7c8ff2124c56"},"vehicle_type_id":"4","last_reported":1747152806,"current_range_meters":24000,"station_id":"ce4bhp92rcd13ifvqhcg","pricing_plan_id":"cebpf4jnsgd1na2vs0mg"},{"bike_id":"49efdab0-886a-4b6e-a79a-5c5bc5d6d492","system_id":"levelo_inurba_marseille","lat":43.33184,"lon":5.38155,"is_reserved":false,"is_disabled":false,"rental_uris":{"android":"levelo://app?vid=49efdab0-886a-4b6e-a79a-5c5bc5d6d492","ios":"levelo://app?vid=49efdab0-886a-4b6e-a79a-5c5bc5d6d492"},"vehicle_type_id":"4","last_reported":1747152806,"current_range_meters":24400,"station_id":"","pricing_plan_id":"cebpf4jnsgd1na2vs0mg"},{"bike_id":"512db899-193b-442a-9484-b1f0d394e18f","system_id":"levelo_inurba_marseille","lat":43.30149,"lon":5.38078,"is_reserved":false,"is_disabled":false,"rental_uris":{"android":"levelo://app?vid=512db899-193b-442a-9484-b1f0d394e18f","ios":"levelo://app?vid=512db899-193b-442a-9484-b1f0d394e18f"},"vehicle_type_id":"4","last_reported":1747152806,"current_range_meters":24400,"station_id":"ce4bgjp2rcd13ifvqbh0","pricing_plan_id":"cebpf4jnsgd1na2vs0mg"},{"bike_id":"dcfff4a8-251a-4250-b3f1-4b861bc84392","system_id":"levelo_inurba_marseille","lat":43.28357,"lon":5.38097,"is_reserved":false,"is_disabled":false,"rental_uris":{"android":"levelo://app?vid=dcfff4a8-251a-4250-b3f1-4b861bc84392","ios":"levelo://app?vid=dcfff4a8-251a-4250-b3f1-4b861bc84392"},"vehicle_type_id":"4","last_reported":1747152806,"current_range_meters":24400,"station_id":"ce4bh412rcd13ifvqdr0","pricing_plan_id":"cebpf4jnsgd1na2vs0mg"},{"bike_id":"ecd2c2c3-2d89-46b1-9b9d-c6a1a47e965e","system_id":"levelo_inurba_marseille","lat":43.26031,"lon":5.37555,"is_reserved":false,"is_disabled":false,"rental_uris":{"android":"levelo://app?vid=ecd2c2c3-2d89-46b1-9b9d-c6a1a47e965e","ios":"levelo://app?vid=ecd2c2c3-2d89-46b1-9b9d-c6a1a47e965e"},"vehicle_type_id":"4","last_reported":1747152806,"current_range_meters":24400,"station_id":"ce4bhgh2rcd13ifvqfa0","pricing_plan_id":"cebpf4jnsgd1na2vs0mg"},{"bike_id":"e99f4a26-64b2-45ac-a273-67f7e5f31e17","system_id":"levelo_inurba_marseille","lat":43.29189,"lon":5.35799,"is_reserved":false,"is_disabled":false,"rental_uris":{"android":"levelo://app?vid=e99f4a26-64b2-45ac-a273-67f7e5f31e17","ios":"levelo://app?vid=e99f4a26-64b2-45ac-a273-67f7e5f31e17"},"vehicle_type_id":"4","last_reported":1747152806,"current_range_meters":24800,"station_id":"ce4bhb12rcd13ifvqel0","pricing_plan_id":"cebpf4jnsgd1na2vs0mg"},{"bike_id":"f0a95312-a1a1-4046-805e-db4fd743e743","system_id":"levelo_inurba_marseille","lat":43.27374,"lon":5.36267,"is_reserved":false,"is_disabled":false,"rental_uris":{"android":"levelo://app?vid=f0a95312-a1a1-4046-805e-db4fd743e743","ios":"levelo://app?vid=f0a95312-a1a1-4046-805e-db4fd743e743"},"vehicle_type_id":"4","last_reported":1747152806,"current_range_meters":24800,"station_id":"ce4bhbh2rcd13ifvqeo0","pricing_plan_id":"cebpf4jnsgd1na2vs0mg"},{"bike_id":"9094b422-50de-4679-8fcb-4e3b4b54507e","system_id":"levelo_inurba_marseille","lat":43.28719,"lon":5.36085,"is_reserved":false,"is_disabled":false,"rental_uris":{"android":"levelo://app?vid=9094b422-50de-4679-8fcb-4e3b4b54507e","ios":"levelo://app?vid=9094b422-50de-4679-8fcb-4e3b4b54507e"},"vehicle_type_id":"4","last_reported":1747152806,"current_range_meters":24800,"station_id":"cki0cbj6b192h4jlfktg","pricing_plan_id":"cebpf4jnsgd1na2vs0mg"},{"bike_id":"9a402898-f116-408b-8709-c62dd77d2b5d","system_id":"levelo_inurba_marseille","lat":43.29359,"lon":5.42832,"is_reserved":false,"is_disabled":false,"rental_uris":{"android":"levelo://app?vid=9a402898-f116-408b-8709-c62dd77d2b5d","ios":"levelo://app?vid=9a402898-f116-408b-8709-c62dd77d2b5d"},"vehicle_type_id":"4","last_reported":1747152806,"current_range_meters":25200,"station_id":"","pricing_plan_id":"cebpf4jnsgd1na2vs0mg"},{"bike_id":"27dabe74-7470-4bfb-abaa-f791cd2aea5e","system_id":"levelo_inurba_marseille","lat":43.289337,"lon":5.364017,"is_reserved":false,"is_disabled":false,"rental_uris":{"android":"levelo://app?vid=27dabe74-7470-4bfb-abaa-f791cd2aea5e","ios":"levelo://app?vid=27dabe74-7470-4bfb-abaa-f791cd2aea5e"},"vehicle_type_id":"4","last_reported":1747152806,"current_range_meters":25200,"station_id":"ce4bhc92rcd13ifvqetg","pricing_plan_id":"cebpf4jnsgd1na2vs0mg"},{"bike_id":"1edb7391-c5f9-4300-a025-bc630d6de77d","system_id":"levelo_inurba_marseille","lat":43.287,"lon":5.37378,"is_reserved":false,"is_disabled":false,"rental_uris":{"android":"levelo://app?vid=1edb7391-c5f9-4300-a025-bc630d6de77d","ios":"levelo://app?vid=1edb7391-c5f9-4300-a025-bc630d6de77d"},"vehicle_type_id":"4","last_reported":1747152806,"current_range_meters":25600,"station_id":"ce4bh3p2rcd13ifvqdq0","pricing_plan_id":"cebpf4jnsgd1na2vs0mg"},{"bike_id":"34a66121-75b8-4add-93d0-c544c6eb4c70","system_id":"levelo_inurba_marseille","lat":43.27367,"lon":5.36239,"is_reserved":false,"is_disabled":false,"rental_uris":{"android":"levelo://app?vid=34a66121-75b8-4add-93d0-c544c6eb4c70","ios":"levelo://app?vid=34a66121-75b8-4add-93d0-c544c6eb4c70"},"vehicle_type_id":"4","last_reported":1747152806,"current_range_meters":25600,"station_id":"ce4bhbh2rcd13ifvqeo0","pricing_plan_id":"cebpf4jnsgd1na2vs0mg"},{"bike_id":"70fa0de6-c56c-485e-82c1-1af23fce4129","system_id":"levelo_inurba_marseille","lat":43.26574,"lon":5.39011,"is_reserved":false,"is_disabled":false,"rental_uris":{"android":"levelo://app?vid=70fa0de6-c56c-485e-82c1-1af23fce4129","ios":"levelo://app?vid=70fa0de6-c56c-485e-82c1-1af23fce4129"},"vehicle_type_id":"4","last_reported":1747152806,"current_range_meters":25600,"station_id":"ce4bhe12rcd13ifvqf30","pricing_plan_id":"cebpf4jnsgd1na2vs0mg"},{"bike_id":"72279ddf-7ae3-4787-9190-fac0f39d5e9b","system_id":"levelo_inurba_marseille","lat":43.27907,"lon":5.38015,"is_reserved":false,"is_disabled":false,"rental_uris":{"android":"levelo://app?vid=72279ddf-7ae3-4787-9190-fac0f39d5e9b","ios":"levelo://app?vid=72279ddf-7ae3-4787-9190-fac0f39d5e9b"},"vehicle_type_id":"4","last_reported":1747152806,"current_range_meters":25600,"station_id":"ce4bhf92rcd13ifvqf50","pricing_plan_id":"cebpf4jnsgd1na2vs0mg"},{"bike_id":"3ed7b136-7e44-4e26-9e34-6d57d42640a6","system_id":"levelo_inurba_marseille","lat":43.32364,"lon":5.36748,"is_reserved":false,"is_disabled":false,"rental_uris":{"android":"levelo://app?vid=3ed7b136-7e44-4e26-9e34-6d57d42640a6","ios":"levelo://app?vid=3ed7b136-7e44-4e26-9e34-6d57d42640a6"},"vehicle_type_id":"4","last_reported":1747152806,"current_range_meters":25600,"station_id":"ce4bhsh2rcd13ifvqi2g","pricing_plan_id":"cebpf4jnsgd1na2vs0mg"},{"bike_id":"acf88e01-0130-4c45-ab6a-b47007070c96","system_id":"levelo_inurba_marseille","lat":43.225037,"lon":5.347845,"is_reserved":false,"is_disabled":false,"rental_uris":{"android":"levelo://app?vid=acf88e01-0130-4c45-ab6a-b47007070c96","ios":"levelo://app?vid=acf88e01-0130-4c45-ab6a-b47007070c96"},"vehicle_type_id":"4","last_reported":1747152806,"current_range_meters":26000,"station_id":"","pricing_plan_id":"cebpf4jnsgd1na2vs0mg"},{"bike_id":"19563356-5ffb-4b62-a44f-7ef2a439e321","system_id":"levelo_inurba_marseille","lat":43.28264,"lon":5.35065,"is_reserved":false,"is_disabled":false,"rental_uris":{"android":"levelo://app?vid=19563356-5ffb-4b62-a44f-7ef2a439e321","ios":"levelo://app?vid=19563356-5ffb-4b62-a44f-7ef2a439e321"},"vehicle_type_id":"4","last_reported":1747152806,"current_range_meters":26000,"station_id":"","pricing_plan_id":"cebpf4jnsgd1na2vs0mg"},{"bike_id":"33da1059-611e-4c0a-9d9b-cc95e2ad4f27","system_id":"levelo_inurba_marseille","lat":43.27995,"lon":5.40011,"is_reserved":false,"is_disabled":false,"rental_uris":{"android":"levelo://app?vid=33da1059-611e-4c0a-9d9b-cc95e2ad4f27","ios":"levelo://app?vid=33da1059-611e-4c0a-9d9b-cc95e2ad4f27"},"vehicle_type_id":"4","last_reported":1747152806,"current_range_meters":26000,"station_id":"ce4bho92rcd13ifvqh4g","pricing_plan_id":"cebpf4jnsgd1na2vs0mg"},{"bike_id":"c351ad74-cfad-4524-b23a-5f995cfa52ab","system_id":"levelo_inurba_marseille","lat":43.22517,"lon":5.34808,"is_reserved":false,"is_disabled":false,"rental_uris":{"android":"levelo://app?vid=c351ad74-cfad-4524-b23a-5f995cfa52ab","ios":"levelo://app?vid=c351ad74-cfad-4524-b23a-5f995cfa52ab"},"vehicle_type_id":"4","last_reported":1747152806,"current_range_meters":26000,"station_id":"st_cvj5dfep6f1abm77gieg","pricing_plan_id":"cebpf4jnsgd1na2vs0mg"},{"bike_id":"45392d0d-0712-4254-8062-a9ad559c3716","system_id":"levelo_inurba_marseille","lat":43.29198,"lon":5.35812,"is_reserved":false,"is_disabled":false,"rental_uris":{"android":"levelo://app?vid=45392d0d-0712-4254-8062-a9ad559c3716","ios":"levelo://app?vid=45392d0d-0712-4254-8062-a9ad559c3716"},"vehicle_type_id":"4","last_reported":1747152806,"current_range_meters":26800,"station_id":"ce4bhb12rcd13ifvqel0","pricing_plan_id":"cebpf4jnsgd1na2vs0mg"},{"bike_id":"224cda1b-40cf-4dc9-b883-848fa4529d9a","system_id":"levelo_inurba_marseille","lat":43.29003,"lon":5.35617,"is_reserved":false,"is_disabled":false,"rental_uris":{"android":"levelo://app?vid=224cda1b-40cf-4dc9-b883-848fa4529d9a","ios":"levelo://app?vid=224cda1b-40cf-4dc9-b883-848fa4529d9a"},"vehicle_type_id":"4","last_reported":1747152806,"current_range_meters":26800,"station_id":"ce4bhb92rcd13ifvqen0","pricing_plan_id":"cebpf4jnsgd1na2vs0mg"},{"bike_id":"1a9314f0-dac8-4a2b-bf8c-3d94b3b1de45","system_id":"levelo_inurba_marseille","lat":43.31526,"lon":5.38039,"is_reserved":false,"is_disabled":false,"rental_uris":{"android":"levelo://app?vid=1a9314f0-dac8-4a2b-bf8c-3d94b3b1de45","ios":"levelo://app?vid=1a9314f0-dac8-4a2b-bf8c-3d94b3b1de45"},"vehicle_type_id":"4","last_reported":1747152806,"current_range_meters":26800,"station_id":"ce4bhsp2rcd13ifvqi50","pricing_plan_id":"cebpf4jnsgd1na2vs0mg"},