{"last_updated":1726938516,"ttl":30,"version":"2.2","data":{"bikes":[{"bike_id":"a0fc9b51-3fd5-4b9f-8329-2ab2063b6254","system_id":"levelo_inurba_marseille","lat":43.27995,"lon":5.40039,"is_reserved":false,"is_disabled":false,"rental_uris":{"android":"levelo://app?vid=a0fc9b51-3fd5-4b9f-8329-2ab2063b6254","ios":"levelo://app?vid=a0fc9b51-3fd5-4b9f-8329-2ab2063b6254"},"vehicle_type_id":"4","last_reported":1726938516,"current_range_meters":38800,"station_id":"ce4bho92rcd13ifvqh4g","pricing_plan_id":"cebpf4jnsgd1na2vs0mg"},{"bike_id":"c0993040-99f3-4e65-8495-c15b103ad0e7","system_id":"levelo_inurba_marseille","lat":43.3236,"lon":5.38892,"is_reserved":false,"is_disabled":false,"rental_uris":{"android":"levelo://app?vid=c0993040-99f3-4e65-8495-c15b103ad0e7","ios":"levelo://app?vid=c0993040-99f3-4e65-8495-c15b103ad0e7"},"vehicle_type_id":"4","last_reported":1726938516,"current_range_meters":8000,"station_id":"ce4bhqp2rcd13ifvqhog","pricing_plan_id":"cebpf4jnsgd1na2vs0mg"},{"bike_id":"71651ac6-0b76-4019-b34f-072820ef1ca3","system_id":"levelo_inurba_marseille","lat":43.26036,"lon":5.37557,"is_reserved":false,"is_disabled":false,"rental_uris":{"android":"levelo://app?vid=71651ac6-0b76-4019-b34f-072820ef1ca3","ios":"levelo://app?vid=71651ac6-0b76-4019-b34f-072820ef1ca3"},"vehicle_type_id":"4","last_reported":1726938516,"current_range_meters":34800,"station_id":"ce4bhgh2rcd13ifvqfa0","pricing_plan_id":"cebpf4jnsgd1na2vs0mg"},{"bike_id":"a283422d-2500-49df-9f02-16eaa7281bcd","system_id":"levelo_inurba_marseille","lat":43.33027,"lon":5.39047,"is_reserved":false,"is_disabled":false,"rental_uris":{"android":"levelo://app?vid=a283422d-2500-49df-9f02-16eaa7281bcd","ios":"levelo://app?vid=a283422d-2500-49df-9f02-16eaa7281bcd"},"vehicle_type_id":"4","last_reported":1726938516,"current_range_meters":11600,"station_id":"ce4bhr92rcd13ifvqhrg","pricing_plan_id":"cebpf4jnsgd1na2vs0mg"},{"bike_id":"9cabe17d-502a-4d87-9801-27c23cddee48","system_id":"levelo_inurba_marseille","lat":43.28611,"lon":5.37066,"is_reserved":false,"is_disabled":false,"rental_uris":{"android":"levelo://app?vid=9cabe17d-502a-4d87-9801-27c23cddee48","ios":"levelo://app?vid=9cabe17d-502a-4d87-9801-27c23cddee48"},"vehicle_type_id":"4","last_reported":1726938516,"current_range_meters":24400,"station_id":"ce4bht12rcd13ifvqi60","pricing_plan_id":"cebpf4jnsgd1na2vs0mg"},{"bike_id":"f8709230-5ae6-4049-93ca-f1c199ece460","system_id":"levelo_inurba_marseille","lat":43.29436,"lon":5.39755,"is_reserved":false,"is_disabled":false,"rental_uris":{"android":"levelo://app?vid=f8709230-5ae6-4049-93ca-f1c199ece460","ios":"levelo://app?vid=f8709230-5ae6-4049-93ca-f1c199ece460"},"vehicle_type_id":"4","last_reported":1726938516,"current_range_meters":6400,"station_id":"ce4bh3h2rcd13ifvqdo0","pricing_plan_id":"cebpf4jnsgd1na2vs0mg"},{"bike_id":"d5f6e9f3-46d9-48bb-b755-112fa9989d0d","system_id":"levelo_inurba_marseille","lat":43.32283,"lon":5.3828,"is_reserved":false,"is_disabled":false,"rental_uris":{"android":"levelo://app?vid=d5f6e9f3-46d9-48bb-b755-112fa9989d0d","ios":"levelo://app?vid=d5f6e9f3-46d9-48bb-b755-112fa9989d0d"},"vehicle_type_id":"4","last_reported":1726938516,"current_range_meters":31200,"station_id":"ce4bhr12rcd13ifvqhqg","pricing_plan_id":"cebpf4jnsgd1na2vs0mg"},{"bike_id":"f0e36611-7a85-4300-8dd4-f182a8d1efc2","system_id":"levelo_inurba_marseille","lat":43.30907,"lon":5.36848,"is_reserved":false,"is_disabled":false,"rental_uris":{"android":"levelo://app?vid=f0e36611-7a85-4300-8dd4-f182a8d1efc2","ios":"levelo://app?vid=f0e36611-7a85-4300-8dd4-f182a8d1efc2"},"vehicle_type_id":"4","last_reported":1726938516,"current_range_meters":32000,"station_id":"ce4bgn92rcd13ifvqbvg","pricing_plan_id":"cebpf4jnsgd1na2vs0mg"},{"bike_id":"22d2f0f6-c031-4df2-977c-83c10e49e760","system_id":"levelo_inurba_marseille","lat":43.29266,"lon":5.38434,"is_reserved":false,"is_disabled":false,"rental_uris":{"android":"levelo://app?vid=22d2f0f6-c031-4df2-977c-83c10e49e760","ios":"levelo://app?vid=22d2f0f6-c031-4df2-977c-83c10e49e760"},"vehicle_type_id":"4","last_reported":1726938516,"current_range_meters":8400,"station_id":"ce4bh692rcd13ifvqea0","pricing_plan_id":"cebpf4jnsgd1na2vs0mg"},{"bike_id":"9a52eaad-1c79-432a-83bd-cbdceb5dd418","system_id":"levelo_inurba_marseille","lat":43.29929,"lon":5.37472,"is_reserved":false,"is_disabled":false,"rental_uris":{"android":"levelo://app?vid=9a52eaad-1c79-432a-83bd-cbdceb5dd418","ios":"levelo://app?vid=9a52eaad-1c79-432a-83bd-cbdceb5dd418"},"vehicle_type_id":"4","last_reported":1726938516,"current_range_meters":9600,"station_id":"ce4bgjh2rcd13ifvqbg0","pricing_plan_id":"cebpf4jnsgd1na2vs0mg"},{"bike_id":"2f86184e-6cf5-4a2c-bcdf-6f262742aefd","system_id":"levelo_inurba_marseille","lat":43.2481,"lon":5.37465,"is_reserved":false,"is_disabled":false,"rental_uris":{"android":"levelo://app?vid=2f86184e-6cf5-4a2c-bcdf-6f262742aefd","ios":"levelo://app?vid=2f86184e-6cf5-4a2c-bcdf-6f262742aefd"},"vehicle_type_id":"4","last_reported":1726938516,"current_range_meters":39200,"station_id":"ce4bhgh2rcd13ifvqfb0","pricing_plan_id":"cebpf4jnsgd1na2vs0mg"},{"bike_id":"3f3a1968-161c-4281-9dac-b1f6f3f79cd0","system_id":"levelo_inurba_marseille","lat":43.27496,"lon":5.42453,"is_reserved":false,"is_disabled":false,"rental_uris":{"android":"levelo://app?vid=3f3a1968-161c-4281-9dac-b1f6f3f79cd0","ios":"levelo://app?vid=3f3a1968-161c-4281-9dac-b1f6f3f79cd0"},"vehicle_type_id":"4","last_reported":1726938516,"current_range_meters":20800,"station_id":"ce4bhn92rcd13ifvqgrg","pricing_plan_id":"cebpf4jnsgd1na2vs0mg"},{"bike_id":"5b7f8c2a-f400-4ac6-935d-e529c91e3a39","system_id":"levelo_inurba_marseille","lat":43.30146,"lon":5.38083,"is_reserved":false,"is_disabled":false,"rental_uris":{"android":"levelo://app?vid=5b7f8c2a-f400-4ac6-935d-e529c91e3a39","ios":"levelo://app?vid=5b7f8c2a-f400-4ac6-935d-e529c91e3a39"},"vehicle_type_id":"4","last_reported":1726938516,"current_range_meters":38800,"station_id":"ce4bgjp2rcd13ifvqbh0","pricing_plan_id":"cebpf4jnsgd1na2vs0mg"},{"bike_id":"c9e21436-caec-41cf-8484-be6be98df0ff","system_id":"levelo_inurba_marseille","lat":43.26036,"lon":5.37556,"is_reserved":false,"is_disabled":false,"rental_uris":{"android":"levelo://app?vid=c9e21436-caec-41cf-8484-be6be98df0ff","ios":"levelo://app?vid=c9e21436-caec-41cf-8484-be6be98df0ff"},"vehicle_type_id":"4","last_reported":1726938516,"current_range_meters":6800,"station_id":"ce4bhgh2rcd13ifvqfa0","pricing_plan_id":"cebpf4jnsgd1na2vs0mg"},{"bike_id":"00dfdb53-2614-4f5c-8a8b-65f920c3b3a0","system_id":"levelo_inurba_marseille","lat":43.24807,"lon":5.37456,"is_reserved":false,"is_disabled":false,"rental_uris":{"android":"levelo://app?vid=00dfdb53-2614-4f5c-8a8b-65f920c3b3a0","ios":"levelo://app?vid=00dfdb53-2614-4f5c-8a8b-65f920c3b3a0"},"vehicle_type_id":"4","last_reported":1726938516,"current_range_meters":9600,"station_id":"ce4bhgh2rcd13ifvqfb0","pricing_plan_id":"cebpf4jnsgd1na2vs0mg"},{"bike_id":"ba222bf8-f3df-4b4b-9a52-a17646204963","system_id":"levelo_inurba_marseille","lat":43.23199,"lon":5.35549,"is_reserved":false,"is_disabled":false,"rental_uris":{"android":"levelo://app?vid=ba222bf8-f3df-4b4b-9a52-a17646204963","ios":"levelo://app?vid=ba222bf8-f3df-4b4b-9a52-a17646204963"},"vehicle_type_id":"4","last_reported":1726938516,"current_range_meters":38800,"station_id":"ce4bhu92rcd13ifvqi70","pricing_plan_id":"cebpf4jnsgd1na2vs0mg"},{"bike_id":"8c3e9bfd-318a-432a-8c0f-4cf4060aa4a0","system_id":"levelo_inurba_marseille","lat":43.30149,"lon":5.38086,"is_reserved":false,"is_disabled":false,"rental_uris":{"android":"levelo://app?vid=8c3e9bfd-318a-432a-8c0f-4cf4060aa4a0","ios":"levelo://app?vid=8c3e9bfd-318a-432a-8c0f-4cf4060aa4a0"},"vehicle_type_id":"4","last_reported":1726938516,"current_range_meters":3200,"station_id":"ce4bgjp2rcd13ifvqbh0","pricing_plan_id":"cebpf4jnsgd1na2vs0mg"},{"bike_id":"f7799aa3-45ee-4987-a997-9d3e2d59c3ac","system_id":"levelo_inurba_marseille","lat":43.31351,"lon":5.36718,"is_reserved":false,"is_disabled":false,"rental_uris":{"android":"levelo://app?vid=f7799aa3-45ee-4987-a997-9d3e2d59c3ac","ios":"levelo://app?vid=f7799aa3-45ee-4987-a997-9d3e2d59c3ac"},"vehicle_type_id":"4","last_reported":1726938516,"current_range_meters":38800,"station_id":"ce4bgr92rcd13ifvqc6g","pricing_plan_id":"cebpf4jnsgd1na2vs0mg"},{"bike_id":"229fa5c5-7113-4c7b-8f18-45482a14448f","system_id":"levelo_inurba_marseille","lat":43.30143,"lon":5.37419,"is_reserved":false,"is_disabled":false,"rental_uris":{"android":"levelo://app?vid=229fa5c5-7113-4c7b-8f18-45482a14448f","ios":"levelo://app?vid=229fa5c5-7113-4c7b-8f18-45482a14448f"},"vehicle_type_id":"4","last_reported":1726938516,"current_range_meters":8400,"station_id":"ce4bgs92rcd13ifvqcc0","pricing_plan_id":"cebpf4jnsgd1na2vs0mg"},{"bike_id":"feef65fd-70ed-4c2a-ab1c-62060f564852","system_id":"levelo_inurba_marseille","lat":43.26689,"lon":5.38277,"is_reserved":false,"is_disabled":false,"rental_uris":{"android":"levelo://app?vid=feef65fd-70ed-4c2a-ab1c-62060f564852","ios":"levelo://app?vid=feef65fd-70ed-4c2a-ab1c-62060f564852"},"vehicle_type_id":"4","last_reported":1726938516,"current_range_meters":24800,"station_id":"ce4bhg92rcd13ifvqf90","pricing_plan_id":"cebpf4jnsgd1na2vs0mg"},{"bike_id":"e9254c9d-6435-402d-be1f-21236cedfb85","system_id":"levelo_inurba_marseille","lat":43.28637,"lon":5.40065,"is_reserved":false,"is_disabled":false,"rental_uris":{"android":"levelo://app?vid=e9254c9d-6435-402d-be1f-21236cedfb85","ios":"levelo://app?vid=e9254c9d-6435-402d-be1f-21236cedfb85"},"vehicle_type_id":"4","last_reported":1726938516,"current_range_meters":36800,"station_id":"ce4bh292rcd13ifvqdg0","pricing_plan_id":"cebpf4jnsgd1na2vs0mg"},{"bike_id":"8488640c-0d0c-4dfe-ae3d-e75b65bf2778","system_id":"levelo_inurba_marseille","lat":43.29226,"lon":5.36072,"is_reserved":false,"is_disabled":false,"rental_uris":{"android":"levelo://app?vid=8488640c-0d0c-4dfe-ae3d-e75b65bf2778","ios":"levelo://app?vid=8488640c-0d0c-4dfe-ae3d-e75b65bf2778"},"vehicle_type_id":"4","last_reported":1726938516,"current_range_meters":16400,"station_id":"ce4bhbh2rcd13ifvqeqg","pricing_plan_id":"cebpf4jnsgd1na2vs0mg"},{"bike_id":"2abfd0da-52ff-49fd-a5cb-a8f4dd818089","system_id":"levelo_inurba_marseille","lat":43.28167,"lon":5.42656,"is_reserved":false,"is_disabled":false,"rental_uris":{"android":"levelo://app?vid=2abfd0da-52ff-49fd-a5cb-a8f4dd818089","ios":"levelo://app?vid=2abfd0da-52ff-49fd-a5cb-a8f4dd818089"},"vehicle_type_id":"4","last_reported":1726938516,"current_range_meters":30400,"station_id":"ce4bhnh2rcd13ifvqgug","pricing_plan_id":"cebpf4jnsgd1na2vs0mg"},{"bike_id":"edfb1ff5-b81b-4225-8da9-100a9115b1e3","system_id":"levelo_inurba_marseille","lat":43.29735,"lon":5.36561,"is_reserved":false,"is_disabled":false,"rental_uris":{"android":"levelo://app?vid=edfb1ff5-b81b-4225-8da9-100a9115b1e3","ios":"levelo://app?vid=edfb1ff5-b81b-4225-8da9-100a9115b1e3"},"vehicle_type_id":"4","last_reported":1726938516,"current_range_meters":7200,"station_id":"","pricing_plan_id":"cebpf4jnsgd1na2vs0mg"},{"bike_id":"4f54f2cd-e200-47af-bdfc-b18c5c9ec573","system_id":"levelo_inurba_marseille","lat":43.294159,"lon":5.386201,"is_reserved":false,"is_disabled":false,"rental_uris":{"android":"levelo://app?vid=4f54f2cd-e200-47af-bdfc-b18c5c9ec573","ios":"levelo://app?vid=4f54f2cd-e200-47af-bdfc-b18c5c9ec573"},"vehicle_type_id":"4","last_reported":1726938516,"current_range_meters":17200,"station_id":"ce4bh2h2rcd13ifvqdh0","pricing_plan_id":"cebpf4jnsgd1na2vs0mg"},{"bike_id":"2921f246-4889-41d0-935a-a28bf606cf5c","system_id":"levelo_inurba_marseille","lat":43.2895,"lon":5.36622,"is_reserved":false,"is_disabled":false,"rental_uris":{"android":"levelo://app?vid=2921f246-4889-41d0-935a-a28bf606cf5c","ios":"levelo://app?vid=2921f246-4889-41d0-935a-a28bf606cf5c"},"vehicle_type_id":"4","last_reported":1726938516,"current_range_meters":38800,"station_id":"ce4bhap2rcd13ifvqek0","pricing_plan_id":"cebpf4jnsgd1na2vs0mg"},{"bike_id":"0e5454ca-9e8c-4842-881d-9ca8bcceb7c4","system_id":"levelo_inurba_marseille","lat":43.295135,"lon":5.394023,"is_reserved":false,"is_disabled":false,"rental_uris":{"android":"levelo://app?vid=0e5454ca-9e8c-4842-881d-9ca8bcceb7c4","ios":"levelo://app?vid=0e5454ca-9e8c-4842-881d-9ca8bcceb7c4"},"vehicle_type_id":"4","last_reported":1726938516,"current_range_meters":17200,"station_id":"ce4bh292rcd13ifvqdf0","pricing_plan_id":"cebpf4jnsgd1na2vs0mg"},{"bike_id":"0363c961-290b-4049-96f3-a504d7751db9","system_id":"levelo_inurba_marseille","lat":43.258206,"lon":5.394275,"is_reserved":false,"is_disabled":false,"rental_uris":{"android":"levelo://app?vid=0363c961-290b-4049-96f3-a504d7751db9","ios":"levelo://app?vid=0363c961-290b-4049-96f3-a504d7751db9"},"vehicle_type_id":"4","last_reported":1726938516,"current_range_meters":11600,"station_id":"ce4bhip2rcd13ifvqft0","pricing_plan_id":"cebpf4jnsgd1na2vs0mg"},{"bike_id":"248c0583-cb1e-4285-9c90-603125697792","system_id":"levelo_inurba_marseille","lat":43.28109,"lon":5.37846,"is_reserved":false,"is_disabled":false,"rental_uris":{"android":"levelo://app?vid=248c0583-cb1e-4285-9c90-603125697792","ios":"levelo://app?vid=248c0583-cb1e-4285-9c90-603125697792"},"vehicle_type_id":"4","last_reported":1726938516,"current_range_meters":30000,"station_id":"ce4bha12rcd13ifvqee0","pricing_plan_id":"cebpf4jnsgd1na2vs0mg"},{"bike_id":"e378085f-776b-4894-a669-4a55d901cd98","system_id":"levelo_inurba_marseille","lat":43.27494,"lon":5.42453,"is_reserved":false,"is_disabled":false,"rental_uris":{"android":"levelo://app?vid=e378085f-776b-4894-a669-4a55d901cd98","ios":"levelo://app?vid=e378085f-776b-4894-a669-4a55d901cd98"},"vehicle_type_id":"4","last_reported":1726938516,"current_range_meters":23200,"station_id":"ce4bhn92rcd13ifvqgrg","pricing_plan_id":"cebpf4jnsgd1na2vs0mg"},{"bike_id":"3af56387-c0a9-406d-b9ab-767e425be036","system_id":"levelo_inurba_marseille","lat":43.25496,"lon":5.37651,"is_reserved":false,"is_disabled":false,"rental_uris":{"android":"levelo://app?vid=3af56387-c0a9-406d-b9ab-767e425be036","ios":"levelo://app?vid=3af56387-c0a9-406d-b9ab-767e425be036"},"vehicle_type_id":"4","last_reported":1726938516,"current_range_meters":24400,"station_id":"ce4bhh12rcd13ifvqff0","pricing_plan_id":"cebpf4jnsgd1na2vs0mg"},{"bike_id":"d9668b87-778f-4030-8d59-02ba6ceae805","system_id":"levelo_inurba_marseille","lat":43.27621,"lon":5.36113,"is_reserved":false,"is_disabled":false,"rental_uris":{"android":"levelo://app?vid=d9668b87-778f-4030-8d59-02ba6ceae805","ios":"levelo://app?vid=d9668b87-778f-4030-8d59-02ba6ceae805"},"vehicle_type_id":"4","last_reported":1726938516,"current_range_meters":8000,"station_id":"ce4bgj92rcd13ifvqbe0","pricing_plan_id":"cebpf4jnsgd1na2vs0mg"},{"bike_id":"5c8dd71e-6989-46d7-ad98-8a597881d968","system_id":"levelo_inurba_marseille","lat":43.28426,"lon":5.34998,"is_reserved":false,"is_disabled":false,"rental_uris":{"android":"levelo://app?vid=5c8dd71e-6989-46d7-ad98-8a597881d968","ios":"levelo://app?vid=5c8dd71e-6989-46d7-ad98-8a597881d968"},"vehicle_type_id":"4","last_reported":1726938516,"current_range_meters":38800,"station_id":"ce4bhbh2rcd13ifvqepg","pricing_plan_id":"cebpf4jnsgd1na2vs0mg"},{"bike_id":"257616ce-bd10-4bf8-9060-2c6942a59331","system_id":"levelo_inurba_marseille","lat":43.28614,"lon":5.350997,"is_reserved":false,"is_disabled":false,"rental_uris":{"android":"levelo://app?vid=257616ce-bd10-4bf8-9060-2c6942a59331","ios":"levelo://app?vid=257616ce-bd10-4bf8-9060-2c6942a59331"},"vehicle_type_id":"4","last_reported":1726938516,"current_range_meters":37600,"station_id":"ce4bh692rcd13ifvqea0","pricing_plan_id":"cebpf4jnsgd1na2vs0mg"},{"bike_id":"dfe68015-2f5b-4810-9368-ec9ab996fd15","system_id":"levelo_inurba_marseille","lat":43.30795,"lon":5.37649,"is_reserved":false,"is_disabled":false,"rental_uris":{"android":"levelo://app?vid=dfe68015-2f5b-4810-9368-ec9ab996fd15","ios":"levelo://app?vid=dfe68015-2f5b-4810-9368-ec9ab996fd15"},"vehicle_type_id":"4","last_reported":1726938516,"current_range_meters":36400,"station_id":"ce4bgv92rcd13ifvqcq0","pricing_plan_id":"cebpf4jnsgd1na2vs0mg"},{"bike_id":"5a906720-3d1e-4fcf-80e0-d3d05a7e7f77","system_id":"levelo_inurba_marseille","lat":43.31714,"lon":5.43709,"is_reserved":false,"is_disabled":false,"rental_uris":{"android":"levelo://app?vid=5a906720-3d1e-4fcf-80e0-d3d05a7e7f77","ios":"levelo://app?vid=5a906720-3d1e-4fcf-80e0-d3d05a7e7f77"},"vehicle_type_id":"4","last_reported":1726938516,"current_range_meters":6400,"station_id":"ce4bhp92rcd13ifvqhcg","pricing_plan_id":"cebpf4jnsgd1na2vs0mg"},{"bike_id":"31a5bb6c-e9e4-4e32-9543-71cced6fe63e","system_id":"levelo_inurba_marseille","lat":43.27564,"lon":5.38411,"is_reserved":false,"is_disabled":false,"rental_uris":{"android":"levelo://app?vid=31a5bb6c-e9e4-4e32-9543-71cced6fe63e","ios":"levelo://app?vid=31a5bb6c-e9e4-4e32-9543-71cced6fe63e"},"vehicle_type_id":"4","last_reported":1726938516,"current_range_meters":16800,"station_id":"ce4bhh92rcd13ifvqfi0","pricing_plan_id":"cebpf4jnsgd1na2vs0mg"},{"bike_id":"37486a02-517a-4a6a-85b9-2999ec5971f5","system_id":"levelo_inurba_marseille","lat":43.26954,"lon":5.386413,"is_reserved":false,"is_disabled":false,"rental_uris":{"android":"levelo://app?vid=37486a02-517a-4a6a-85b9-2999ec5971f5","ios":"levelo://app?vid=37486a02-517a-4a6a-85b9-2999ec5971f5"},"vehicle_type_id":"4","last_reported":1726938516,"current_range_meters":22800,"station_id":"ce4bhh92rcd13ifvqfh0","pricing_plan_id":"cebpf4jnsgd1na2vs0mg"},{"bike_id":"9e8fcd9a-57be-4b10-a1e1-047e6906712b","system_id":"levelo_inurba_marseille","lat":43.30349,"lon":5.41877,"is_reserved":false,"is_disabled":false,"rental_uris":{"android":"levelo://app?vid=9e8fcd9a-57be-4b10-a1e1-047e6906712b","ios":"levelo://app?vid=9e8fcd9a-57be-4b10-a1e1-047e6906712b"},"vehicle_type_id":"4","last_reported":1726938516,"current_range_meters":20400,"station_id":"ce4bhop2rcd13ifvqh7g","pricing_plan_id":"cebpf4jnsgd1na2vs0mg"},{"bike_id":"386d7d39-d9a0-4f2f-9dfa-7b382234f940","system_id":"levelo_inurba_marseille","lat":43.23197,"lon":5.35559,"is_reserved":false,"is_disabled":false,"rental_uris":{"android":"levelo://app?vid=386d7d39-d9a0-4f2f-9dfa-7b382234f940","ios":"levelo://app?vid=386d7d39-d9a0-4f2f-9dfa-7b382234f940"},"vehicle_type_id":"4","last_reported":1726938516,"current_range_meters":20000,"station_id":"ce4bhu92rcd13ifvqi70","pricing_plan_id":"cebpf4jnsgd1na2vs0mg"},{"bike_id":"5419b1bf-d37c-4076-a34c-52ede101758e","system_id":"levelo_inurba_marseille","lat":43.337444,"lon":5.374475,"is_reserved":false,"is_disabled":false,"rental_uris":{"android":"levelo://app?vid=5419b1bf-d37c-4076-a34c-52ede101758e","ios":"levelo://app?vid=5419b1bf-d37c-4076-a34c-52ede101758e"},"vehicle_type_id":"4","last_reported":1726938516,"current_range_meters":32000,"station_id":"","pricing_plan_id":"cebpf4jnsgd1na2vs0mg"},{"bike_id":"6e46e8b4-5a7d-4388-87f8-6661de2d928c","system_id":"levelo_inurba_marseille","lat":43.24396,"lon":5.37061,"is_reserved":false,"is_disabled":false,"rental_uris":{"android":"levelo://app?vid=6e46e8b4-5a7d-4388-87f8-6661de2d928c","ios":"levelo://app?vid=6e46e8b4-5a7d-4388-87f8-6661de2d928c"},"vehicle_type_id":"4","last_reported":1726938516,"current_range_meters":38800,"station_id":"ce4bhhh2rcd13ifvqfk0","pricing_plan_id":"cebpf4jnsgd1na2vs0mg"},{"bike_id":"d910318f-b134-456a-956e-b7c2c8399dd9","system_id":"levelo_inurba_marseille","lat":43.26936,"lon":5.38924,"is_reserved":false,"is_disabled":false,"rental_uris":{"android":"levelo://app?vid=d910318f-b134-456a-956e-b7c2c8399dd9","ios":"levelo://app?vid=d910318f-b134-456a-956e-b7c2c8399dd9"},"vehicle_type_id":"4","last_reported":1726938516,"current_range_meters":28800,"station_id":"ce4bhhh2rcd13ifvqfl0","pricing_plan_id":"cebpf4jnsgd1na2vs0mg"},{"bike_id":"7f9c1455-4c58-4d10-bb4b-2f8e79c6ba16","system_id":"levelo_inurba_marseille","lat":43.29728,"lon":5.37696,"is_reserved":false,"is_disabled":false,"rental_uris":{"android":"levelo://app?vid=7f9c1455-4c58-4d10-bb4b-2f8e79c6ba16","ios":"levelo://app?vid=7f9c1455-4c58-4d10-bb4b-2f8e79c6ba16"},"vehicle_type_id":"4","last_reported":1726938516,"current_range_meters":28400,"station_id":"ce4bgkh2rcd13ifvqbl0","pricing_plan_id":"cebpf4jnsgd1na2vs0mg"},{"bike_id":"cc62e28a-7c3e-40f6-9fd1-40052225ad61","system_id":"levelo_inurba_marseille","lat":43.23188,"lon":5.39987,"is_reserved":false,"is_disabled":false,"rental_uris":{"android":"levelo://app?vid=cc62e28a-7c3e-40f6-9fd1-40052225ad61","ios":"levelo://app?vid=cc62e28a-7c3e-40f6-9fd1-40052225ad61"},"vehicle_type_id":"4","last_reported":1726938516,"current_range_meters":14400,"station_id":"ce4bhn12rcd13ifvqgqg","pricing_plan_id":"cebpf4jnsgd1na2vs0mg"},{"bike_id":"71a7b2e6-4958-4435-b511-a37f05e12241","system_id":"levelo_inurba_marseille","lat":43.31716,"lon":5.37761,"is_reserved":false,"is_disabled":false,"rental_uris":{"android":"levelo://app?vid=71a7b2e6-4958-4435-b511-a37f05e12241","ios":"levelo://app?vid=71a7b2e6-4958-4435-b511-a37f05e12241"},"vehicle_type_id":"4","last_reported":1726938516,"current_range_meters":17600,"station_id":"ce4bgth2rcd13ifvqch0","pricing_plan_id":"cebpf4jnsgd1na2vs0mg"},{"bike_id":"865c7326-77fb-463d-a527-888219528f2a","system_id":"levelo_inurba_marseille","lat":43.30359,"lon":5.41884,"is_reserved":false,"is_disabled":false,"rental_uris":{"android":"levelo://app?vid=865c7326-77fb-463d-a527-888219528f2a","ios":"levelo://app?vid=865c7326-77fb-463d-a527-888219528f2a"},"vehicle_type_id":"4","last_reported":1726938516,"current_range_meters":35600,"station_id":"ce4bhop2rcd13ifvqh7g","pricing_plan_id":"cebpf4jnsgd1na2vs0mg"},{"bike_id":"6e2fd8fb-799c-468d-a60b-38d2bf81aa37","system_id":"levelo_inurba_marseille","lat":43.23962,"lon":5.3662,"is_reserved":false,"is_disabled":false,"rental_uris":{"android":"levelo://app?vid=6e2fd8fb-799c-468d-a60b-38d2bf81aa37","ios":"levelo://app?vid=6e2fd8fb-799c-468d-a60b-38d2bf81aa37"},"vehicle_type_id":"4","last_reported":1726938516,"current_range_meters":38400,"station_id":"ce4bhi12rcd13ifvqfp0","pricing_plan_id":"cebpf4jnsgd1na2vs0mg"},{"bike_id":"d410bc6d-d048-406f-899a-9442df27020d","system_id":"levelo_inurba_marseille","lat":43.29602,"lon":5.3771,"is_reserved":false,"is_disabled":false,"rental_uris":{"android":"levelo://app?vid=d410bc6d-d048-406f-899a-9442df27020d","ios":"levelo://app?vid=d410bc6d-d048-406f-899a-9442df27020d"},"vehicle_type_id":"4","last_reported":1726938516,"current_range_meters":38800,"station_id":"ce4bgi92rcd13ifvqb90","pricing_plan_id":"cebpf4jnsgd1na2vs0mg"},{"bike_id":"7ccc499f-63f1-4a72-b7c8-4b3b2437d268","system_id":"levelo_inurba_marseille","lat":43.25014,"lon":5.38919,"is_reserved":false,"is_disabled":false,"rental_uris":{"android":"levelo://app?vid=7ccc499f-63f1-4a72-b7c8-4b3b2437d268","ios":"levelo://app?vid=7ccc499f-63f1-4a72-b7c8-4b3b2437d268"},"vehicle_type_id":"4","last_reported":1726938516,"current_range_meters":27600,"station_id":"ce4bhgp2rcd13ifvqfd0","pricing_plan_id":"cebpf4jnsgd1na2vs0mg"},{"bike_id":"287fbaa2-21a3-433d-b8f3-85e2e5a098f4","system_id":"levelo_inurba_marseille","lat":43.28888,"lon":5.36044,"is_reserved":false,"is_disabled":false,"rental_uris":{"android":"levelo://app?vid=287fbaa2-21a3-433d-b8f3-85e2e5a098f4","ios":"levelo://app?vid=287fbaa2-21a3-433d-b8f3-85e2e5a098f4"},"vehicle_type_id":"4","last_reported":1726938516,"current_range_meters":10000,"station_id":"ce4bha92rcd13ifvqeg0","pricing_plan_id":"cebpf4jnsgd1na2vs0mg"},{"bike_id":"55a9ec32-330c-4d14-beb1-24d7238764e7","system_id":"levelo_inurba_marseille","lat":43.31702,"lon":5.37759,"is_reserved":false,"is_disabled":false,"rental_uris":{"android":"levelo://app?vid=55a9ec32-330c-4d14-beb1-24d7238764e7","ios":"levelo://app?vid=55a9ec32-330c-4d14-beb1-24d7238764e7"},"vehicle_type_id":"4","last_reported":1726938516,"current_range_meters":10800,"station_id":"ce4bgth2rcd13ifvqch0","pricing_plan_id":"cebpf4jnsgd1na2vs0mg"},{"bike_id":"149779fc-bc45-458a-857f-33707eedaf6a","system_id":"levelo_inurba_marseille","lat":43.2319,"lon":5.35557,"is_reserved":false,"is_disabled":false,"rental_uris":{"android":"levelo://app?vid=149779fc-bc45-458a-857f-33707eedaf6a","ios":"levelo://app?vid=149779fc-bc45-458a-857f-33707eedaf6a"},"vehicle_type_id":"4","last_reported":1726938516,"current_range_meters":19600,"station_id":"ce4bhu92rcd13ifvqi70","pricing_plan_id":"cebpf4jnsgd1na2vs0mg"},{"bike_id":"e174aa26-a7c9-4ed6-80e1-3d885e828475","system_id":"levelo_inurba_marseille","lat":43.287042,"lon":5.37378,"is_reserved":false,"is_disabled":false,"rental_uris":{"android":"levelo://app?vid=e174aa26-a7c9-4ed6-80e1-3d885e828475","ios":"levelo://app?vid=e174aa26-a7c9-4ed6-80e1-3d885e828475"},"vehicle_type_id":"4","last_reported":1726938516,"current_range_meters":9600,"station_id":"ce4bgn92rcd13ifvqbvg","pricing_plan_id":"cebpf4jnsgd1na2vs0mg"},{"bike_id":"39fba4c3-1d26-4cd4-adbc-309496cfa29b","system_id":"levelo_inurba_marseille","lat":43.29579,"lon":5.37524,"is_reserved":false,"is_disabled":false,"rental_uris":{"android":"levelo://app?vid=39fba4c3-1d26-4cd4-adbc-309496cfa29b","ios":"levelo://app?vid=39fba4c3-1d26-4cd4-adbc-309496cfa29b"},"vehicle_type_id":"4","last_reported":1726938516,"current_range_meters":8400,"station_id":"ce4bgh92rcd13ifvqb50","pricing_plan_id":"cebpf4jnsgd1na2vs0mg"},{"bike_id":"03189b4c-ee8d-4944-aa24-0fe08103b652","system_id":"levelo_inurba_marseille","lat":43.29852,"lon":5.36287,"is_reserved":false,"is_disabled":false,"rental_uris":{"android":"levelo://app?vid=03189b4c-ee8d-4944-aa24-0fe08103b652","ios":"levelo://app?vid=03189b4c-ee8d-4944-aa24-0fe08103b652"},"vehicle_type_id":"4","last_reported":1726938516,"current_range_meters":33200,"station_id":"ce4bgpp2rcd13ifvqc3g","pricing_plan_id":"cebpf4jnsgd1na2vs0mg"},{"bike_id":"604c9531-be4f-4974-bfe2-bd7828d7386f","system_id":"levelo_inurba_marseille","lat":43.29905,"lon":5.4368,"is_reserved":false,"is_disabled":false,"rental_uris":{"android":"levelo://app?vid=604c9531-be4f-4974-bfe2-bd7828d7386f","ios":"levelo://app?vid=604c9531-be4f-4974-bfe2-bd7828d7386f"},"vehicle_type_id":"4","last_reported":1726938516,"current_range_meters":22800,"station_id":"ce4bhpp2rcd13ifvqhfg","pricing_plan_id":"cebpf4jnsgd1na2vs0mg"},{"bike_id":"1496c070-7786-4860-8732-864e0591ced4","system_id":"levelo_inurba_marseille","lat":43.31329,"lon":5.39695,"is_reserved":false,"is_disabled":false,"rental_uris":{"android":"levelo://app?vid=1496c070-7786-4860-8732-864e0591ced4","ios":"levelo://app?vid=1496c070-7786-4860-8732-864e0591ced4"},"vehicle_type_id":"4","last_reported":1726938516,"current_range_meters":25600,"station_id":"ce4bgvp2rcd13ifvqcu0","pricing_plan_id":"cebpf4jnsgd1na2vs0mg"},{"bike_id":"6053d2f1-7b8e-4855-bcfa-85eb1d8eecf1","system_id":"levelo_inurba_marseille","lat":43.30303,"lon":5.39221,"is_reserved":false,"is_disabled":false,"rental_uris":{"android":"levelo://app?vid=6053d2f1-7b8e-4855-bcfa-85eb1d8eecf1","ios":"levelo://app?vid=6053d2f1-7b8e-4855-bcfa-85eb1d8eecf1"},"vehicle_type_id":"4","last_reported":1726938516,"current_range_meters":4000,"station_id":"ce4bgkh2rcd13ifvqbk0","pricing_plan_id":"cebpf4jnsgd1na2vs0mg"},{"bike_id":"26daa3a1-9ceb-4f47-bb11-4b27167a7d5c","system_id":"levelo_inurba_marseille","lat":43.28872,"lon":5.35859,"is_reserved":false,"is_disabled":false,"rental_uris":{"android":"levelo://app?vid=26daa3a1-9ceb-4f47-bb11-4b27167a7d5c","ios":"levelo://app?vid=26daa3a1-9ceb-4f47-bb11-4b27167a7d5c"},"vehicle_type_id":"4","last_reported":1726938516,"current_range_meters":38800,"station_id":"ce4bhb12rcd13ifvqem0","pricing_plan_id":"cebpf4jnsgd1na2vs0mg"},{"bike_id":"a8d42cf3-65fd-4e73-93d7-47142c435399","system_id":"levelo_inurba_marseille","lat":43.34387,"lon":5.40841,"is_reserved":false,"is_disabled":false,"rental_uris":{"android":"levelo://app?vid=a8d42cf3-65fd-4e73-93d7-47142c435399","ios":"levelo://app?vid=a8d42cf3-65fd-4e73-93d7-47142c435399"},"vehicle_type_id":"4","last_reported":1726938516,"current_range_meters":25600,"station_id":"","pricing_plan_id":"cebpf4jnsgd1na2vs0mg"},{"bike_id":"eb0e566e-7d71-4cc0-bc76-de33a9fd73a8","system_id":"levelo_inurba_marseille","lat":43.23199,"lon":5.35548,"is_reserved":false,"is_disabled":false,"rental_uris":{"android":"levelo://app?vid=eb0e566e-7d71-4cc0-bc76-de33a9fd73a8","ios":"levelo://app?vid=eb0e566e-7d71-4cc0-bc76-de33a9fd73a8"},"vehicle_type_id":"4","last_reported":1726938516,"current_range_meters":38800,"station_id":"ce4bhu92rcd13ifvqi70","pricing_plan_id":"cebpf4jnsgd1na2vs0mg"},{"bike_id":"8f46e2a1-edcd-4c99-9319-897432bbf14e","system_id":"levelo_inurba_marseille","lat":43.29922,"lon":5.3748,"is_reserved":false,"is_disabled":false,"rental_uris":{"android":"levelo://app?vid=8f46e2a1-edcd-4c99-9319-897432bbf14e","ios":"levelo://app?vid=8f46e2a1-edcd-4c99-9319-897432bbf14e"},"vehicle_type_id":"4","last_reported":1726938516,"current_range_meters":5600,"station_id":"ce4bgjh2rcd13ifvqbg0","pricing_plan_id":"cebpf4jnsgd1na2vs0mg"},{"bike_id":"8353a310-ccba-4580-a9f6-46a2fe633ce9","system_id":"levelo_inurba_marseille","lat":43.30139,"lon":5.38783,"is_reserved":false,"is_disabled":false,"rental_uris":{"android":"levelo://app?vid=8353a310-ccba-4580-a9f6-46a2fe633ce9","ios":"levelo://app?vid=8353a310-ccba-4580-a9f6-46a2fe633ce9"},"vehicle_type_id":"4","last_reported":1726938516,"current_range_meters":38400,"station_id":"ce4bghh2rcd13ifvqb60","pricing_plan_id":"cebpf4jnsgd1na2vs0mg"},{"bike_id":"c90889c6-4c61-48f2-b140-89043e514d7b","system_id":"levelo_inurba_marseille","lat":43.25945,"lon":5.40903,"is_reserved":false,"is_disabled":false,"rental_uris":{"android":"levelo://app?vid=c90889c6-4c61-48f2-b140-89043e514d7b","ios":"levelo://app?vid=c90889c6-4c61-48f2-b140-89043e514d7b"},"vehicle_type_id":"4","last_reported":1726938516,"current_range_meters":6400,"station_id":"ce4bhm92rcd13ifvqglg","pricing_plan_id":"cebpf4jnsgd1na2vs0mg"},{"bike_id":"5fd4e5f3-830c-4aae-b445-4ac111d25e28","system_id":"levelo_inurba_marseille","lat":43.2956,"lon":5.42273,"is_reserved":false,"is_disabled":false,"rental_uris":{"android":"levelo://app?vid=5fd4e5f3-830c-4aae-b445-4ac111d25e28","ios":"levelo://app?vid=5fd4e5f3-830c-4aae-b445-4ac111d25e28"},"vehicle_type_id":"4","last_reported":1726938516,"current_range_meters":6400,"station_id":"ce4bhph2rcd13ifvqhdg","pricing_plan_id":"cebpf4jnsgd1na2vs0mg"},{"bike_id":"02debf90-31c9-4774-bd72-b158df023a1d","system_id":"levelo_inurba_marseille","lat":43.309369,"lon":5.401372,"is_reserved":false,"is_disabled":false,"rental_uris":{"android":"levelo://app?vid=02debf90-31c9-4774-bd72-b158df023a1d","ios":"levelo://app?vid=02debf90-31c9-4774-bd72-b158df023a1d"},"vehicle_type_id":"4","last_reported":1726938516,"current_range_meters":12000,"station_id":"ce4bgvp2rcd13ifvqct0","pricing_plan_id":"cebpf4jnsgd1na2vs0mg"},{"bike_id":"92f276cc-a712-4ee1-9375-00618af0288f","system_id":"levelo_inurba_marseille","lat":43.26938,"lon":5.40249,"is_reserved":false,"is_disabled":false,"rental_uris":{"android":"levelo://app?vid=92f276cc-a712-4ee1-9375-00618af0288f","ios":"levelo://app?vid=92f276cc-a712-4ee1-9375-00618af0288f"},"vehicle_type_id":"4","last_reported":1726938516,"current_range_meters":39200,"station_id":"cjm6bp8fraef2m0cb0m0","pricing_plan_id":"cebpf4jnsgd1na2vs0mg"},{"bike_id":"f18b2960-8cd3-482b-969c-ba0321b0ac0b","system_id":"levelo_inurba_marseille","lat":43.29558,"lon":5.42299,"is_reserved":false,"is_disabled":false,"rental_uris":{"android":"levelo://app?vid=f18b2960-8cd3-482b-969c-ba0321b0ac0b","ios":"levelo://app?vid=f18b2960-8cd3-482b-969c-ba0321b0ac0b"},"vehicle_type_id":"4","last_reported":1726938516,"current_range_meters":11200,"station_id":"ce4bhph2rcd13ifvqhdg","pricing_plan_id":"cebpf4jnsgd1na2vs0mg"},{"bike_id":"7b9dd459-340b-4978-bfb0-6c163a5263e8","system_id":"levelo_inurba_marseille","lat":43.23196,"lon":5.35551,"is_reserved":false,"is_disabled":false,"rental_uris":{"android":"levelo://app?vid=7b9dd459-340b-4978-bfb0-6c163a5263e8","ios":"levelo://app?vid=7b9dd459-340b-4978-bfb0-6c163a5263e8"},"vehicle_type_id":"4","last_reported":1726938516,"current_range_meters":39200,"station_id":"ce4bhu92rcd13ifvqi70","pricing_plan_id":"cebpf4jnsgd1na2vs0mg"},{"bike_id":"df882019-dd6e-4c53-a418-bd32b68a46b8","system_id":"levelo_inurba_marseille","lat":43.27385,"lon":5.36258,"is_reserved":false,"is_disabled":false,"rental_uris":{"android":"levelo://app?vid=df882019-dd6e-4c53-a418-bd32b68a46b8","ios":"levelo://app?vid=df882019-dd6e-4c53-a418-bd32b68a46b8"},"vehicle_type_id":"4","last_reported":1726938516,"current_range_meters":2000,"station_id":"ce4bhbh2rcd13ifvqeo0","pricing_plan_id":"cebpf4jnsgd1na2vs0mg"},{"bike_id":"7b39ded5-4eff-4a15-bfe7-a29f88c6bd8b","system_id":"levelo_inurba_marseille","lat":43.31146,"lon":5.388556,"is_reserved":false,"is_disabled":false,"rental_uris":{"android":"levelo://app?vid=7b39ded5-4eff-4a15-bfe7-a29f88c6bd8b","ios":"levelo://app?vid=7b39ded5-4eff-4a15-bfe7-a29f88c6bd8b"},"vehicle_type_id":"4","last_reported":1726938516,"current_range_meters":38000,"station_id":"ce4bgv12rcd13ifvqcp0","pricing_plan_id":"cebpf4jnsgd1na2vs0mg"},{"bike_id":"a36bb8ef-8b4d-4463-bfe0-825aa8007963","system_id":"levelo_inurba_marseille","lat":43.2558,"lon":5.38234,"is_reserved":false,"is_disabled":false,"rental_uris":{"android":"levelo://app?vid=a36bb8ef-8b4d-4463-bfe0-825aa8007963","ios":"levelo://app?vid=a36bb8ef-8b4d-4463-bfe0-825aa8007963"},"vehicle_type_id":"4","last_reported":1726938516,"current_range_meters":8000,"station_id":"ce4bhih2rcd13ifvqfs0","pricing_plan_id":"cebpf4jnsgd1na2vs0mg"},{"bike_id":"71aa8592-ddf7-4343-aed4-c00d3433340f","system_id":"levelo_inurba_marseille","lat":43.337444,"lon":5.374475,"is_reserved":false,"is_disabled":false,"rental_uris":{"android":"levelo://app?vid=71aa8592-ddf7-4343-aed4-c00d3433340f","ios":"levelo://app?vid=71aa8592-ddf7-4343-aed4-c00d3433340f"},"vehicle_type_id":"4","last_reported":1726938516,"current_range_meters":35200,"station_id":"","pricing_plan_id":"cebpf4jnsgd1na2vs0mg"},{"bike_id":"3740c6df-06cd-419b-9ae6-b8d9e5eff548","system_id":"levelo_inurba_marseille","lat":43.2753,"lon":5.40935,"is_reserved":false,"is_disabled":false,"rental_uris":{"android":"levelo://app?vid=3740c6df-06cd-419b-9ae6-b8d9e5eff548","ios":"levelo://app?vid=3740c6df-06cd-419b-9ae6-b8d9e5eff548"},"vehicle_type_id":"4","last_reported":1726938516,"current_range_meters":17200,"station_id":"","pricing_plan_id":"cebpf4jnsgd1na2vs0mg"},{"bike_id":"08d47ba1-820f-423f-9ec4-ad9fd36b31df","system_id":"levelo_inurba_marseille","lat":43.29022,"lon":5.3815,"is_reserved":false,"is_disabled":false,"rental_uris":{"android":"levelo://app?vid=08d47ba1-820f-423f-9ec4-ad9fd36b31df","ios":"levelo://app?vid=08d47ba1-820f-423f-9ec4-ad9fd36b31df"},"vehicle_type_id":"4","last_reported":1726938516,"current_range_meters":28000,"station_id":"ce4bh4p2rcd13ifvqe1g","pricing_plan_id":"cebpf4jnsgd1na2vs0mg"},{"bike_id":"031c7f84-a43a-4deb-9b43-a573dd4a878e","system_id":"levelo_inurba_marseille","lat":43.30523,"lon":5.36665,"is_reserved":false,"is_disabled":false,"rental_uris":{"android":"levelo://app?vid=031c7f84-a43a-4deb-9b43-a573dd4a878e","ios":"levelo://app?vid=031c7f84-a43a-4deb-9b43-a573dd4a878e"},"vehicle_type_id":"4","last_reported":1726938516,"current_range_meters":30000,"station_id":"","pricing_plan_id":"cebpf4jnsgd1na2vs0mg"},{"bike_id":"a845b2e8-d777-49c2-9c99-8f4b4753eecb","system_id":"levelo_inurba_marseille","lat":43.262095,"lon":5.37441,"is_reserved":false,"is_disabled":false,"rental_uris":{"android":"levelo://app?vid=a845b2e8-d777-49c2-9c99-8f4b4753eecb","ios":"levelo://app?vid=a845b2e8-d777-49c2-9c99-8f4b4753eecb"},"vehicle_type_id":"4","last_reported":1726938516,"current_range_meters":39200,"station_id":"ce4bhgp2rcd13ifvqfc0","pricing_plan_id":"cebpf4jnsgd1na2vs0mg"},{"bike_id":"6ff050e6-4b0e-4637-b85e-1f6802b10178","system_id":"levelo_inurba_marseille","lat":43.29846,"lon":5.36274,"is_reserved":false,"is_disabled":false,"rental_uris":{"android":"levelo://app?vid=6ff050e6-4b0e-4637-b85e-1f6802b10178","ios":"levelo://app?vid=6ff050e6-4b0e-4637-b85e-1f6802b10178"},"vehicle_type_id":"4","last_reported":1726938516,"current_range_meters":14400,"station_id":"ce4bgpp2rcd13ifvqc3g","pricing_plan_id":"cebpf4jnsgd1na2vs0mg"},{"bike_id":"f5c7eebc-eec0-4667-932e-d819c3a521e4","system_id":"levelo_inurba_marseille","lat":43.29267,"lon":5.40118,"is_reserved":false,"is_disabled":false,"rental_uris":{"android":"levelo://app?vid=f5c7eebc-eec0-4667-932e-d819c3a521e4","ios":"levelo://app?vid=f5c7eebc-eec0-4667-932e-d819c3a521e4"},"vehicle_type_id":"4","last_reported":1726938516,"current_range_meters":4400,"station_id":"ce4bh312rcd13ifvqdk0","pricing_plan_id":"cebpf4jnsgd1na2vs0mg"},{"bike_id":"a5be9935-c8a1-4ba2-8a57-e5c2e3e5a158","system_id":"levelo_inurba_marseille","lat":43.32338,"lon":5.40623,"is_reserved":false,"is_disabled":false,"rental_uris":{"android":"levelo://app?vid=a5be9935-c8a1-4ba2-8a57-e5c2e3e5a158","ios":"levelo://app?vid=a5be9935-c8a1-4ba2-8a57-e5c2e3e5a158"},"vehicle_type_id":"4","last_reported":1726938516,"current_range_meters":30800,"station_id":"ce4bhq92rcd13ifvqhjg","pricing_plan_id":"cebpf4jnsgd1na2vs0mg"},{"bike_id":"8b931328-76e5-484e-8fc0-bda30a5d8a7f","system_id":"levelo_inurba_marseille","lat":43.31084,"lon":5.38356,"is_reserved":false,"is_disabled":false,"rental_uris":{"android":"levelo://app?vid=8b931328-76e5-484e-8fc0-bda30a5d8a7f","ios":"levelo://app?vid=8b931328-76e5-484e-8fc0-bda30a5d8a7f"},"vehicle_type_id":"4","last_reported":1726938516,"current_range_meters":38800,"station_id":"ce4bgv92rcd13ifvqcr0","pricing_plan_id":"cebpf4jnsgd1na2vs0mg"},{"bike_id":"fc852d31-c828-4e6a-a588-92b330a659b0","system_id":"levelo_inurba_marseille","lat":43.29274,"lon":5.3685,"is_reserved":false,"is_disabled":false,"rental_uris":{"android":"levelo://app?vid=fc852d31-c828-4e6a-a588-92b330a659b0","ios":"levelo://app?vid=fc852d31-c828-4e6a-a588-92b330a659b0"},"vehicle_type_id":"4","last_reported":1726938516,"current_range_meters":38800,"station_id":"ce4bhbp2rcd13ifvqesg","pricing_plan_id":"cebpf4jnsgd1na2vs0mg"},{"bike_id":"af2ed737-d295-4b68-92df-25b9620ec967","system_id":"levelo_inurba_marseille","lat":43.281,"lon":5.3785,"is_reserved":false,"is_disabled":false,"rental_uris":{"android":"levelo://app?vid=af2ed737-d295-4b68-92df-25b9620ec967","ios":"levelo://app?vid=af2ed737-d295-4b68-92df-25b9620ec967"},"vehicle_type_id":"4","last_reported":1726938516,"current_range_meters":27200,"station_id":"ce4bha12rcd13ifvqee0","pricing_plan_id":"cebpf4jnsgd1na2vs0mg"},{"bike_id":"170c8f79-ef1b-4655-acd3-20649a8acbc3","system_id":"levelo_inurba_marseille","lat":43.28945,"lon":5.36639,"is_reserved":false,"is_disabled":false,"rental_uris":{"android":"levelo://app?vid=170c8f79-ef1b-4655-acd3-20649a8acbc3","ios":"levelo://app?vid=170c8f79-ef1b-4655-acd3-20649a8acbc3"},"vehicle_type_id":"4","last_reported":1726938516,"current_range_meters":2800,"station_id":"ce4bhap2rcd13ifvqek0","pricing_plan_id":"cebpf4jnsgd1na2vs0mg"},{"bike_id":"dec88a85-7e48-4a0f-8c50-ecaf21745708","system_id":"levelo_inurba_marseille","lat":43.291992,"lon":5.393189,"is_reserved":false,"is_disabled":false,"rental_uris":{"android":"levelo://app?vid=dec88a85-7e48-4a0f-8c50-ecaf21745708","ios":"levelo://app?vid=dec88a85-7e48-4a0f-8c50-ecaf21745708"},"vehicle_type_id":"4","last_reported":1726938516,"current_range_meters":11200,"station_id":"ce4bh192rcd13ifvqdd0","pricing_plan_id":"cebpf4jnsgd1na2vs0mg"},{"bike_id":"4f6cd953-65f5-4d4f-a052-70118d864e1d","system_id":"levelo_inurba_marseille","lat":43.29901,"lon":5.43683,"is_reserved":false,"is_disabled":false,"rental_uris":{"android":"levelo://app?vid=4f6cd953-65f5-4d4f-a052-70118d864e1d","ios":"levelo://app?vid=4f6cd953-65f5-4d4f-a052-70118d864e1d"},"vehicle_type_id":"4","last_reported":1726938516,"current_range_meters":8000,"station_id":"ce4bhpp2rcd13ifvqhfg","pricing_plan_id":"cebpf4jnsgd1na2vs0mg"},{"bike_id":"03278b0d-f7dd-4188-a095-33f50678e80d","system_id":"levelo_inurba_marseille","lat":43.28443,"lon":5.39196,"is_reserved":false,"is_disabled":false,"rental_uris":{"android":"levelo://app?vid=03278b0d-f7dd-4188-a095-33f50678e80d","ios":"levelo://app?vid=03278b0d-f7dd-4188-a095-33f50678e80d"},"vehicle_type_id":"4","last_reported":1726938516,"current_range_meters":18000,"station_id":"ce4bhoh2rcd13ifvqh5g","pricing_plan_id":"cebpf4jnsgd1na2vs0mg"},{"bike_id":"742fe014-1f5e-499c-bbc5-66a0cbb87904","system_id":"levelo_inurba_marseille","lat":43.23199,"lon":5.35565,"is_reserved":false,"is_disabled":false,"rental_uris":{"android":"levelo://app?vid=742fe014-1f5e-499c-bbc5-66a0cbb87904","ios":"levelo://app?vid=742fe014-1f5e-499c-bbc5-66a0cbb87904"},"vehicle_type_id":"4","last_reported":1726938516,"current_range_meters":800,"station_id":"ce4bhu92rcd13ifvqi70","pricing_plan_id":"cebpf4jnsgd1na2vs0mg"},{"bike_id":"5b0da2f5-9a0f-41a4-8230-94892874d673","system_id":"levelo_inurba_marseille","lat":43.27624,"lon":5.36101,"is_reserved":false,"is_disabled":false,"rental_uris":{"android":"levelo://app?vid=5b0da2f5-9a0f-41a4-8230-94892874d673","ios":"levelo://app?vid=5b0da2f5-9a0f-41a4-8230-94892874d673"},"vehicle_type_id":"4","last_reported":1726938516,"current_range_meters":10000,"station_id":"ce4bhih2rcd13ifvqfs0","pricing_plan_id":"cebpf4jnsgd1na2vs0mg"},{"bike_id":"c7cc523d-69b6-4fd3-8b69-f7699df17207","system_id":"levelo_inurba_marseille","lat":43.27372,"lon":5.36259,"is_reserved":false,"is_disabled":false,"rental_uris":{"android":"levelo://app?vid=c7cc523d-69b6-4fd3-8b69-f7699df17207","ios":"levelo://app?vid=c7cc523d-69b6-4fd3-8b69-f7699df17207"},"vehicle_type_id":"4","last_reported":1726938516,"current_range_meters":4400,"station_id":"ce4bhbh2rcd13ifvqeo0","pricing_plan_id":"cebpf4jnsgd1na2vs0mg"},{"bike_id":"9fa9ccdc-a095-4ab1-aec6-df207bb710ae","system_id":"levelo_inurba_marseille","lat":43.25503,"lon":5.37653,"is_reserved":false,"is_disabled":false,"rental_uris":{"android":"levelo://app?vid=9fa9ccdc-a095-4ab1-aec6-df207bb710ae","ios":"levelo://app?vid=9fa9ccdc-a095-4ab1-aec6-df207bb710ae"},"vehicle_type_id":"4","last_reported":1726938516,"current_range_meters":3200,"station_id":"ce4bhh12rcd13ifvqff0","pricing_plan_id":"cebpf4jnsgd1na2vs0mg"},{"bike_id":"c523144d-390f-44a8-9983-02ae472ea59a","system_id":"levelo_inurba_marseille","lat":43.28352,"lon":5.38108,"is_reserved":false,"is_disabled":false,"rental_uris":{"android":"levelo://app?vid=c523144d-390f-44a8-9983-02ae472ea59a","ios":"levelo://app?vid=c523144d-390f-44a8-9983-02ae472ea59a"},"vehicle_type_id":"4","last_reported":1726938516,"current_range_meters":12800,"station_id":"ce4bh412rcd13ifvqdr0","pricing_plan_id":"cebpf4jnsgd1na2vs0mg"},{"bike_id":"ac803776-2e6d-4126-a164-953be5dfaecf","system_id":"levelo_inurba_marseille","lat":43.29625,"lon":5.37718,"is_reserved":false,"is_disabled":false,"rental_uris":{"android":"levelo://app?vid=ac803776-2e6d-4126-a164-953be5dfaecf","ios":"levelo://app?vid=ac803776-2e6d-4126-a164-953be5dfaecf"},"vehicle_type_id":"4","last_reported":1726938516,"current_range_meters":38800,"station_id":"ce4bgi92rcd13ifvqb90","pricing_plan_id":"cebpf4jnsgd1na2vs0mg"},{"bike_id":"29058ff5-4d24-4c57-9c80-3c616b905bac","system_id":"levelo_inurba_marseille","lat":43.29556,"lon":5.42286,"is_reserved":false,"is_disabled":false,"rental_uris":{"android":"levelo://app?vid=29058ff5-4d24-4c57-9c80-3c616b905bac","ios":"levelo://app?vid=29058ff5-4d24-4c57-9c80-3c616b905bac"},"vehicle_type_id":"4","last_reported":1726938516,"current_range_meters":36800,"station_id":"ce4bhph2rcd13ifvqhdg","pricing_plan_id":"cebpf4jnsgd1na2vs0mg"},{"bike_id":"2f7ce6af-8424-4bac-a9f7-26729fe09da9","system_id":"levelo_inurba_marseille","lat":43.31495,"lon":5.37315,"is_reserved":false,"is_disabled":false,"rental_uris":{"android":"levelo://app?vid=2f7ce6af-8424-4bac-a9f7-26729fe09da9","ios":"levelo://app?vid=2f7ce6af-8424-4bac-a9f7-26729fe09da9"},"vehicle_type_id":"4","last_reported":1726938516,"current_range_meters":32800,"station_id":"ce4bgt12rcd13ifvqcd0","pricing_plan_id":"cebpf4jnsgd1na2vs0mg"},{"bike_id":"f74941be-f473-4ce7-9230-0799526567ae","system_id":"levelo_inurba_marseille","lat":43.23199,"lon":5.3555,"is_reserved":false,"is_disabled":false,"rental_uris":{"android":"levelo://app?vid=f74941be-f473-4ce7-9230-0799526567ae","ios":"levelo://app?vid=f74941be-f473-4ce7-9230-0799526567ae"},"vehicle_type_id":"4","last_reported":1726938516,"current_range_meters":38800,"station_id":"ce4bhu92rcd13ifvqi70","pricing_plan_id":"cebpf4jnsgd1na2vs0mg"},{"bike_id":"3b9eda23-c0d1-45d4-a91f-443e1edfb912","system_id":"levelo_inurba_marseille","lat":43.266797,"lon":5.382645,"is_reserved":false,"is_disabled":false,"rental_uris":{"android":"levelo://app?vid=3b9eda23-c0d1-45d4-a91f-443e1edfb912","ios":"levelo://app?vid=3b9eda23-c0d1-45d4-a91f-443e1edfb912"},"vehicle_type_id":"4","last_reported":1726938516,"current_range_meters":2800,"station_id":"ce4bhg92rcd13ifvqf90","pricing_plan_id":"cebpf4jnsgd1na2vs0mg"},{"bike_id":"49106595-c813-4c7b-8227-287101826b58","system_id":"levelo_inurba_marseille","lat":43.29101,"lon":5.38152,"is_reserved":false,"is_disabled":false,"rental_uris":{"android":"levelo://app?vid=49106595-c813-4c7b-8227-287101826b58","ios":"levelo://app?vid=49106595-c813-4c7b-8227-287101826b58"},"vehicle_type_id":"4","last_reported":1726938516,"current_range_meters":26000,"station_id":"ce4bh512rcd13ifvqe2g","pricing_plan_id":"cebpf4jnsgd1na2vs0mg"},{"bike_id":"4dd06d29-744e-4170-b904-e63fcb0c3a39","system_id":"levelo_inurba_marseille","lat":43.27664,"lon":5.388842,"is_reserved":false,"is_disabled":false,"rental_uris":{"android":"levelo://app?vid=4dd06d29-744e-4170-b904-e63fcb0c3a39","ios":"levelo://app?vid=4dd06d29-744e-4170-b904-e63fcb0c3a39"},"vehicle_type_id":"4","last_reported":1726938516,"current_range_meters":9200,"station_id":"ce4bhi12rcd13ifvqfo0","pricing_plan_id":"cebpf4jnsgd1na2vs0mg"},{"bike_id":"64888f7c-9f6a-466b-b0ea-08a52848b759","system_id":"levelo_inurba_marseille","lat":43.29276,"lon":5.36844,"is_reserved":false,"is_disabled":false,"rental_uris":{"android":"levelo://app?vid=64888f7c-9f6a-466b-b0ea-08a52848b759","ios":"levelo://app?vid=64888f7c-9f6a-466b-b0ea-08a52848b759"},"vehicle_type_id":"4","last_reported":1726938516,"current_range_meters":29600,"station_id":"ce4bhbp2rcd13ifvqesg","pricing_plan_id":"cebpf4jnsgd1na2vs0mg"},{"bike_id":"545e096f-ea39-4932-86c0-ac645cca2743","system_id":"levelo_inurba_marseille","lat":43.29283,"lon":5.36852,"is_reserved":false,"is_disabled":false,"rental_uris":{"android":"levelo://app?vid=545e096f-ea39-4932-86c0-ac645cca2743","ios":"levelo://app?vid=545e096f-ea39-4932-86c0-ac645cca2743"},"vehicle_type_id":"4","last_reported":1726938516,"current_range_meters":25200,"station_id":"ce4bhbp2rcd13ifvqesg","pricing_plan_id":"cebpf4jnsgd1na2vs0mg"},{"bike_id":"88050332-70ab-4c43-9a44-62333b76219f","system_id":"levelo_inurba_marseille","lat":43.31331,"lon":5.39694,"is_reserved":false,"is_disabled":false,"rental_uris":{"android":"levelo://app?vid=88050332-70ab-4c43-9a44-62333b76219f","ios":"levelo://app?vid=88050332-70ab-4c43-9a44-62333b76219f"},"vehicle_type_id":"4","last_reported":1726938516,"current_range_meters":17200,"station_id":"ce4bgvp2rcd13ifvqcu0","pricing_plan_id":"cebpf4jnsgd1na2vs0mg"},{"bike_id":"6f3d0c90-a68f-4aca-a2ae-a8efc0ae8b3c","system_id":"levelo_inurba_marseille","lat":43.25825,"lon":5.39442,"is_reserved":false,"is_disabled":false,"rental_uris":{"android":"levelo://app?vid=6f3d0c90-a68f-4aca-a2ae-a8efc0ae8b3c","ios":"levelo://app?vid=6f3d0c90-a68f-4aca-a2ae-a8efc0ae8b3c"},"vehicle_type_id":"4","last_reported":1726938516,"current_range_meters":12800,"station_id":"ce4bhip2rcd13ifvqft0","pricing_plan_id":"cebpf4jnsgd1na2vs0mg"},{"bike_id":"2cdd52c5-14a7-4330-8099-5275846bca2e","system_id":"levelo_inurba_marseille","lat":43.27941,"lon":5.4105,"is_reserved":false,"is_disabled":false,"rental_uris":{"android":"levelo://app?vid=2cdd52c5-14a7-4330-8099-5275846bca2e","ios":"levelo://app?vid=2cdd52c5-14a7-4330-8099-5275846bca2e"},"vehicle_type_id":"4","last_reported":1726938516,"current_range_meters":16800,"station_id":"ce4bhnp2rcd13ifvqh0g","pricing_plan_id":"cebpf4jnsgd1na2vs0mg"},{"bike_id":"fb2b63d9-4a26-4602-9a57-d2caab531ee7","system_id":"levelo_inurba_marseille","lat":43.33726,"lon":5.39184,"is_reserved":false,"is_disabled":false,"rental_uris":{"android":"levelo://app?vid=fb2b63d9-4a26-4602-9a57-d2caab531ee7","ios":"levelo://app?vid=fb2b63d9-4a26-4602-9a57-d2caab531ee7"},"vehicle_type_id":"4","last_reported":1726938516,"current_range_meters":38000,"station_id":"ce4bhr92rcd13ifvqhsg","pricing_plan_id":"cebpf4jnsgd1na2vs0mg"},{"bike_id":"b49e955e-518b-4cbe-9fc9-4243582f6257","system_id":"levelo_inurba_marseille","lat":43.248016,"lon":5.374573,"is_reserved":false,"is_disabled":false,"rental_uris":{"android":"levelo://app?vid=b49e955e-518b-4cbe-9fc9-4243582f6257","ios":"levelo://app?vid=b49e955e-518b-4cbe-9fc9-4243582f6257"},"vehicle_type_id":"4","last_reported":1726938516,"current_range_meters":14000,"station_id":"ce4bhgh2rcd13ifvqfb0","pricing_plan_id":"cebpf4jnsgd1na2vs0mg"},{"bike_id":"b869f1ae-f37d-464a-8d18-0fd8cd3f314c","system_id":"levelo_inurba_marseille","lat":43.29183,"lon":5.40635,"is_reserved":false,"is_disabled":false,"rental_uris":{"android":"levelo://app?vid=b869f1ae-f37d-464a-8d18-0fd8cd3f314c","ios":"levelo://app?vid=b869f1ae-f37d-464a-8d18-0fd8cd3f314c"},"vehicle_type_id":"4","last_reported":1726938516,"current_range_meters":2800,"station_id":"","pricing_plan_id":"cebpf4jnsgd1na2vs0mg"},{"bike_id":"fa690805-233a-4a70-a9f3-33f1b67cdb1f","system_id":"levelo_inurba_marseille","lat":43.32294,"lon":5.38274,"is_reserved":false,"is_disabled":false,"rental_uris":{"android":"levelo://app?vid=fa690805-233a-4a70-a9f3-33f1b67cdb1f","ios":"levelo://app?vid=fa690805-233a-4a70-a9f3-33f1b67cdb1f"},"vehicle_type_id":"4","last_reported":1726938516,"current_range_meters":10800,"station_id":"ce4bhr12rcd13ifvqhqg","pricing_plan_id":"cebpf4jnsgd1na2vs0mg"},{"bike_id":"897f19b8-7bd8-4a46-b9b4-dbafaea756fb","system_id":"levelo_inurba_marseille","lat":43.24814,"lon":5.37464,"is_reserved":false,"is_disabled":false,"rental_uris":{"android":"levelo://app?vid=897f19b8-7bd8-4a46-b9b4-dbafaea756fb","ios":"levelo://app?vid=897f19b8-7bd8-4a46-b9b4-dbafaea756fb"},"vehicle_type_id":"4","last_reported":1726938516,"current_range_meters":38800,"station_id":"ce4bhgh2rcd13ifvqfb0","pricing_plan_id":"cebpf4jnsgd1na2vs0mg"},{"bike_id":"d262f134-64cb-4b81-a562-56bda9914540","system_id":"levelo_inurba_marseille","lat":43.29266,"lon":5.38424,"is_reserved":false,"is_disabled":false,"rental_uris":{"android":"levelo://app?vid=d262f134-64cb-4b81-a562-56bda9914540","ios":"levelo://app?vid=d262f134-64cb-4b81-a562-56bda9914540"},"vehicle_type_id":"4","last_reported":1726938516,"current_range_meters":27600,"station_id":"ce4bh692rcd13ifvqea0","pricing_plan_id":"cebpf4jnsgd1na2vs0mg"},{"bike_id":"f8cfcef6-4dae-4c1f-b014-bc2f338108a8","system_id":"levelo_inurba_marseille","lat":43.27216,"lon":5.39181,"is_reserved":false,"is_disabled":false,"rental_uris":{"android":"levelo://app?vid=f8cfcef6-4dae-4c1f-b014-bc2f338108a8","ios":"levelo://app?vid=f8cfcef6-4dae-4c1f-b014-bc2f338108a8"},"vehicle_type_id":"4","last_reported":1726938516,"current_range_meters":36400,"station_id":"ce4bhhp2rcd13ifvqfm0","pricing_plan_id":"cebpf4jnsgd1na2vs0mg"},{"bike_id":"716f07ae-c32a-4cb1-9661-c039e55fa02f","system_id":"levelo_inurba_marseille","lat":43.2989,"lon":5.38846,"is_reserved":false,"is_disabled":false,"rental_uris":{"android":"levelo://app?vid=716f07ae-c32a-4cb1-9661-c039e55fa02f","ios":"levelo://app?vid=716f07ae-c32a-4cb1-9661-c039e55fa02f"},"vehicle_type_id":"4","last_reported":1726938516,"current_range_meters":18000,"station_id":"ce4bh392rcd13ifvqdl0","pricing_plan_id":"cebpf4jnsgd1na2vs0mg"},{"bike_id":"935f3218-ddd9-4bfb-872a-12c6c454247d","system_id":"levelo_inurba_marseille","lat":43.320526,"lon":5.415523,"is_reserved":false,"is_disabled":false,"rental_uris":{"android":"levelo://app?vid=935f3218-ddd9-4bfb-872a-12c6c454247d","ios":"levelo://app?vid=935f3218-ddd9-4bfb-872a-12c6c454247d"},"vehicle_type_id":"4","last_reported":1726938516,"current_range_meters":30400,"station_id":"ce4bhq92rcd13ifvqhkg","pricing_plan_id":"cebpf4jnsgd1na2vs0mg"},{"bike_id":"b2763354-ec6c-4733-8de6-6c4493759ae9","system_id":"levelo_inurba_marseille","lat":43.29077,"lon":5.40163,"is_reserved":false,"is_disabled":false,"rental_uris":{"android":"levelo://app?vid=b2763354-ec6c-4733-8de6-6c4493759ae9","ios":"levelo://app?vid=b2763354-ec6c-4733-8de6-6c4493759ae9"},"vehicle_type_id":"4","last_reported":1726938516,"current_range_meters":12800,"station_id":"","pricing_plan_id":"cebpf4jnsgd1na2vs0mg"},{"bike_id":"e2c70787-0686-400e-a5dd-887f05f8d659","system_id":"levelo_inurba_marseille","lat":43.308594,"lon":5.368047,"is_reserved":false,"is_disabled":false,"rental_uris":{"android":"levelo://app?vid=e2c70787-0686-400e-a5dd-887f05f8d659","ios":"levelo://app?vid=e2c70787-0686-400e-a5dd-887f05f8d659"},"vehicle_type_id":"4","last_reported":1726938516,"current_range_meters":38800,"station_id":"ce4bgn92rcd13ifvqbvg","pricing_plan_id":"cebpf4jnsgd1na2vs0mg"},{"bike_id":"ff631810-e1ed-405c-b2a0-ec4520d1070e","system_id":"levelo_inurba_marseille","lat":43.287112,"lon":5.400063,"is_reserved":false,"is_disabled":false,"rental_uris":{"android":"levelo://app?vid=ff631810-e1ed-405c-b2a0-ec4520d1070e","ios":"levelo://app?vid=ff631810-e1ed-405c-b2a0-ec4520d1070e"},"vehicle_type_id":"4","last_reported":1726938516,"current_range_meters":30000,"station_id":"ce4bgk12rcd13ifvqbi0","pricing_plan_id":"cebpf4jnsgd1na2vs0mg"},{"bike_id":"51ecefa1-80f3-4ed8-b057-611aa28b8f51","system_id":"levelo_inurba_marseille","lat":43.30137,"lon":5.38774,"is_reserved":false,"is_disabled":false,"rental_uris":{"android":"levelo://app?vid=51ecefa1-80f3-4ed8-b057-611aa28b8f51","ios":"levelo://app?vid=51ecefa1-80f3-4ed8-b057-611aa28b8f51"},"vehicle_type_id":"4","last_reported":1726938516,"current_range_meters":7200,"station_id":"ce4bghh2rcd13ifvqb60","pricing_plan_id":"cebpf4jnsgd1na2vs0mg"},{"bike_id":"2b40b9d7-323b-4207-b2de-d3cf4cff3e1f","system_id":"levelo_inurba_marseille","lat":43.232,"lon":5.35552,"is_reserved":false,"is_disabled":false,"rental_uris":{"android":"levelo://app?vid=2b40b9d7-323b-4207-b2de-d3cf4cff3e1f","ios":"levelo://app?vid=2b40b9d7-323b-4207-b2de-d3cf4cff3e1f"},"vehicle_type_id":"4","last_reported":1726938516,"current_range_meters":20000,"station_id":"ce4bhu92rcd13ifvqi70","pricing_plan_id":"cebpf4jnsgd1na2vs0mg"},{"bike_id":"9d039e0e-71cf-45be-a39c-002b6bee56fd","system_id":"levelo_inurba_marseille","lat":43.29692,"lon":5.37309,"is_reserved":false,"is_disabled":false,"rental_uris":{"android":"levelo://app?vid=9d039e0e-71cf-45be-a39c-002b6bee56fd","ios":"levelo://app?vid=9d039e0e-71cf-45be-a39c-002b6bee56fd"},"vehicle_type_id":"4","last_reported":1726938516,"current_range_meters":20000,"station_id":"ce4bgk12rcd13ifvqbj0","pricing_plan_id":"cebpf4jnsgd1na2vs0mg"},{"bike_id":"55825df2-7169-40c3-b34a-148fef6ebe50","system_id":"levelo_inurba_marseille","lat":43.23964,"lon":5.36619,"is_reserved":false,"is_disabled":false,"rental_uris":{"android":"levelo://app?vid=55825df2-7169-40c3-b34a-148fef6ebe50","ios":"levelo://app?vid=55825df2-7169-40c3-b34a-148fef6ebe50"},"vehicle_type_id":"4","last_reported":1726938516,"current_range_meters":9200,"station_id":"ce4bhi12rcd13ifvqfp0","pricing_plan_id":"cebpf4jnsgd1na2vs0mg"},{"bike_id":"aaa5c187-dedb-40a2-a249-8f2117fe26cf","system_id":"levelo_inurba_marseille","lat":43.23203,"lon":5.35562,"is_reserved":false,"is_disabled":false,"rental_uris":{"android":"levelo://app?vid=aaa5c187-dedb-40a2-a249-8f2117fe26cf","ios":"levelo://app?vid=aaa5c187-dedb-40a2-a249-8f2117fe26cf"},"vehicle_type_id":"4","last_reported":1726938516,"current_range_meters":37600,"station_id":"ce4bhu92rcd13ifvqi70","pricing_plan_id":"cebpf4jnsgd1na2vs0mg"},{"bike_id":"7dabd429-59e6-4397-8ce9-4a04aeda981d","system_id":"levelo_inurba_marseille","lat":43.30142,"lon":5.38783,"is_reserved":false,"is_disabled":false,"rental_uris":{"android":"levelo://app?vid=7dabd429-59e6-4397-8ce9-4a04aeda981d","ios":"levelo://app?vid=7dabd429-59e6-4397-8ce9-4a04aeda981d"},"vehicle_type_id":"4","last_reported":1726938516,"current_range_meters":8400,"station_id":"ce4bghh2rcd13ifvqb60","pricing_plan_id":"cebpf4jnsgd1na2vs0mg"},{"bike_id":"fd025459-cfa4-427d-9f90-7216a1a41593","system_id":"levelo_inurba_marseille","lat":43.2501,"lon":5.38932,"is_reserved":false,"is_disabled":false,"rental_uris":{"android":"levelo://app?vid=fd025459-cfa4-427d-9f90-7216a1a41593","ios":"levelo://app?vid=fd025459-cfa4-427d-9f90-7216a1a41593"},"vehicle_type_id":"4","last_reported":1726938516,"current_range_meters":30000,"station_id":"ce4bhgp2rcd13ifvqfd0","pricing_plan_id":"cebpf4jnsgd1na2vs0mg"},{"bike_id":"d0e719fd-30fd-4a2b-8f2b-0b4de562a61d","system_id":"levelo_inurba_marseille","lat":43.30281,"lon":5.37697,"is_reserved":false,"is_disabled":false,"rental_uris":{"android":"levelo://app?vid=d0e719fd-30fd-4a2b-8f2b-0b4de562a61d","ios":"levelo://app?vid=d0e719fd-30fd-4a2b-8f2b-0b4de562a61d"},"vehicle_type_id":"4","last_reported":1726938516,"current_range_meters":12000,"station_id":"ce4bguh2rcd13ifvqcj0","pricing_plan_id":"cebpf4jnsgd1na2vs0mg"},{"bike_id":"55b0efa5-5e70-480a-9a3a-5a35d6c3910c","system_id":"levelo_inurba_marseille","lat":43.24398,"lon":5.37065,"is_reserved":false,"is_disabled":false,"rental_uris":{"android":"levelo://app?vid=55b0efa5-5e70-480a-9a3a-5a35d6c3910c","ios":"levelo://app?vid=55b0efa5-5e70-480a-9a3a-5a35d6c3910c"},"vehicle_type_id":"4","last_reported":1726938516,"current_range_meters":38800,"station_id":"ce4bhhh2rcd13ifvqfk0","pricing_plan_id":"cebpf4jnsgd1na2vs0mg"},{"bike_id":"1a2441a3-c843-4441-88c8-b20815b23b5e","system_id":"levelo_inurba_marseille","lat":43.289722,"lon":5.378362,"is_reserved":false,"is_disabled":false,"rental_uris":{"android":"levelo://app?vid=1a2441a3-c843-4441-88c8-b20815b23b5e","ios":"levelo://app?vid=1a2441a3-c843-4441-88c8-b20815b23b5e"},"vehicle_type_id":"4","last_reported":1726938516,"current_range_meters":26800,"station_id":"ce4bh9p2rcd13ifvqed0","pricing_plan_id":"cebpf4jnsgd1na2vs0mg"},{"bike_id":"33b65e4f-aab6-44dd-8953-f748d2d7a4a5","system_id":"levelo_inurba_marseille","lat":43.24808,"lon":5.37458,"is_reserved":false,"is_disabled":false,"rental_uris":{"android":"levelo://app?vid=33b65e4f-aab6-44dd-8953-f748d2d7a4a5","ios":"levelo://app?vid=33b65e4f-aab6-44dd-8953-f748d2d7a4a5"},"vehicle_type_id":"4","last_reported":1726938516,"current_range_meters":9600,"station_id":"ce4bhgh2rcd13ifvqfb0","pricing_plan_id":"cebpf4jnsgd1na2vs0mg"},{"bike_id":"25816335-d223-4a5a-8ec1-51049a75cbe2","system_id":"levelo_inurba_marseille","lat":43.29042,"lon":5.37569,"is_reserved":false,"is_disabled":false,"rental_uris":{"android":"levelo://app?vid=25816335-d223-4a5a-8ec1-51049a75cbe2","ios":"levelo://app?vid=25816335-d223-4a5a-8ec1-51049a75cbe2"},"vehicle_type_id":"4","last_reported":1726938516,"current_range_meters":38800,"station_id":"ce4bh692rcd13ifvqe90","pricing_plan_id":"cebpf4jnsgd1na2vs0mg"},{"bike_id":"20841971-80c7-4f06-bc62-cf244edbe15b","system_id":"levelo_inurba_marseille","lat":43.29531,"lon":5.37502,"is_reserved":false,"is_disabled":false,"rental_uris":{"android":"levelo://app?vid=20841971-80c7-4f06-bc62-cf244edbe15b","ios":"levelo://app?vid=20841971-80c7-4f06-bc62-cf244edbe15b"},"vehicle_type_id":"4","last_reported":1726938516,"current_range_meters":21600,"station_id":"ce4bgkp2rcd13ifvqbmg","pricing_plan_id":"cebpf4jnsgd1na2vs0mg"},{"bike_id":"598539f9-f8b2-4ce4-bc29-852a23adc8f1","system_id":"levelo_inurba_marseille","lat":43.23194,"lon":5.35559,"is_reserved":false,"is_disabled":false,"rental_uris":{"android":"levelo://app?vid=598539f9-f8b2-4ce4-bc29-852a23adc8f1","ios":"levelo://app?vid=598539f9-f8b2-4ce4-bc29-852a23adc8f1"},"vehicle_type_id":"4","last_reported":1726938516,"current_range_meters":6800,"station_id":"ce4bhu92rcd13ifvqi70","pricing_plan_id":"cebpf4jnsgd1na2vs0mg"},{"bike_id":"31444d97-ada7-4c14-9ccc-e8d8f546def7","system_id":"levelo_inurba_marseille","lat":43.26942,"lon":5.36673,"is_reserved":false,"is_disabled":false,"rental_uris":{"android":"levelo://app?vid=31444d97-ada7-4c14-9ccc-e8d8f546def7","ios":"levelo://app?vid=31444d97-ada7-4c14-9ccc-e8d8f546def7"},"vehicle_type_id":"4","last_reported":1726938516,"current_range_meters":8400,"station_id":"","pricing_plan_id":"cebpf4jnsgd1na2vs0mg"},{"bike_id":"1eb4c5c8-d57c-4391-abcb-9b908b009f8b","system_id":"levelo_inurba_marseille","lat":43.25008,"lon":5.3893,"is_reserved":false,"is_disabled":false,"rental_uris":{"android":"levelo://app?vid=1eb4c5c8-d57c-4391-abcb-9b908b009f8b","ios":"levelo://app?vid=1eb4c5c8-d57c-4391-abcb-9b908b009f8b"},"vehicle_type_id":"4","last_reported":1726938516,"current_range_meters":7200,"station_id":"ce4bhgp2rcd13ifvqfd0","pricing_plan_id":"cebpf4jnsgd1na2vs0mg"},{"bike_id":"f919600c-ac0a-45b9-96b8-d0b4be089bcb","system_id":"levelo_inurba_marseille","lat":43.286072,"lon":5.351044,"is_reserved":false,"is_disabled":false,"rental_uris":{"android":"levelo://app?vid=f919600c-ac0a-45b9-96b8-d0b4be089bcb","ios":"levelo://app?vid=f919600c-ac0a-45b9-96b8-d0b4be089bcb"},"vehicle_type_id":"4","last_reported":1726938516,"current_range_meters":34800,"station_id":"ce4bh692rcd13ifvqea0","pricing_plan_id":"cebpf4jnsgd1na2vs0mg"},{"bike_id":"55be27c1-386e-4cd3-a18b-d48170ff5f4a","system_id":"levelo_inurba_marseille","lat":43.28047,"lon":5.36952,"is_reserved":false,"is_disabled":false,"rental_uris":{"android":"levelo://app?vid=55be27c1-386e-4cd3-a18b-d48170ff5f4a","ios":"levelo://app?vid=55be27c1-386e-4cd3-a18b-d48170ff5f4a"},"vehicle_type_id":"4","last_reported":1726938516,"current_range_meters":7200,"station_id":"ce4bha12rcd13ifvqef0","pricing_plan_id":"cebpf4jnsgd1na2vs0mg"},{"bike_id":"56adb964-7830-47b4-b7b4-17156529fd86","system_id":"levelo_inurba_marseille","lat":43.308929,"lon":5.368463,"is_reserved":false,"is_disabled":false,"rental_uris":{"android":"levelo://app?vid=56adb964-7830-47b4-b7b4-17156529fd86","ios":"levelo://app?vid=56adb964-7830-47b4-b7b4-17156529fd86"},"vehicle_type_id":"4","last_reported":1726938516,"current_range_meters":23200,"station_id":"ce4bgn92rcd13ifvqbvg","pricing_plan_id":"cebpf4jnsgd1na2vs0mg"},{"bike_id":"cbb2ac17-c19b-4342-8bbb-d4a960c72488","system_id":"levelo_inurba_marseille","lat":43.26557,"lon":5.37293,"is_reserved":false,"is_disabled":false,"rental_uris":{"android":"levelo://app?vid=cbb2ac17-c19b-4342-8bbb-d4a960c72488","ios":"levelo://app?vid=cbb2ac17-c19b-4342-8bbb-d4a960c72488"},"vehicle_type_id":"4","last_reported":1726938516,"current_range_meters":37600,"station_id":"ce4bhg12rcd13ifvqf70","pricing_plan_id":"cebpf4jnsgd1na2vs0mg"},{"bike_id":"e4b6fd11-73c7-4541-9c13-3d74ca616573","system_id":"levelo_inurba_marseille","lat":43.26954,"lon":5.3863,"is_reserved":false,"is_disabled":false,"rental_uris":{"android":"levelo://app?vid=e4b6fd11-73c7-4541-9c13-3d74ca616573","ios":"levelo://app?vid=e4b6fd11-73c7-4541-9c13-3d74ca616573"},"vehicle_type_id":"4","last_reported":1726938516,"current_range_meters":19600,"station_id":"ce4bhh92rcd13ifvqfh0","pricing_plan_id":"cebpf4jnsgd1na2vs0mg"},{"bike_id":"71450835-ec7c-4b5c-b22d-7e1668bf42fe","system_id":"levelo_inurba_marseille","lat":43.25069,"lon":5.39735,"is_reserved":false,"is_disabled":false,"rental_uris":{"android":"levelo://app?vid=71450835-ec7c-4b5c-b22d-7e1668bf42fe","ios":"levelo://app?vid=71450835-ec7c-4b5c-b22d-7e1668bf42fe"},"vehicle_type_id":"4","last_reported":1726938516,"current_range_meters":29600,"station_id":"","pricing_plan_id":"cebpf4jnsgd1na2vs0mg"},{"bike_id":"b75db2e2-9ab7-490a-9616-9a5b6f16c129","system_id":"levelo_inurba_marseille","lat":43.2971,"lon":5.37704,"is_reserved":false,"is_disabled":false,"rental_uris":{"android":"levelo://app?vid=b75db2e2-9ab7-490a-9616-9a5b6f16c129","ios":"levelo://app?vid=b75db2e2-9ab7-490a-9616-9a5b6f16c129"},"vehicle_type_id":"4","last_reported":1726938516,"current_range_meters":39200,"station_id":"ce4bgkh2rcd13ifvqbl0","pricing_plan_id":"cebpf4jnsgd1na2vs0mg"},{"bike_id":"ecd87928-9ce4-40b2-bd15-1cb3e0aae524","system_id":"levelo_inurba_marseille","lat":43.24169,"lon":5.36398,"is_reserved":false,"is_disabled":false,"rental_uris":{"android":"levelo://app?vid=ecd87928-9ce4-40b2-bd15-1cb3e0aae524","ios":"levelo://app?vid=ecd87928-9ce4-40b2-bd15-1cb3e0aae524"},"vehicle_type_id":"4","last_reported":1726938516,"current_range_meters":37600,"station_id":"cpo36qri1sfpv3e86is0","pricing_plan_id":"cebpf4jnsgd1na2vs0mg"},{"bike_id":"d323bc23-4105-4d98-87ab-fb3899c88f8a","system_id":"levelo_inurba_marseille","lat":43.23202,"lon":5.35548,"is_reserved":false,"is_disabled":false,"rental_uris":{"android":"levelo://app?vid=d323bc23-4105-4d98-87ab-fb3899c88f8a","ios":"levelo://app?vid=d323bc23-4105-4d98-87ab-fb3899c88f8a"},"vehicle_type_id":"4","last_reported":1726938516,"current_range_meters":36800,"station_id":"ce4bhu92rcd13ifvqi70","pricing_plan_id":"cebpf4jnsgd1na2vs0mg"},{"bike_id":"a95491f4-5ffb-470d-943d-1a4ab34cd6b4","system_id":"levelo_inurba_marseille","lat":43.28704,"lon":5.37391,"is_reserved":false,"is_disabled":false,"rental_uris":{"android":"levelo://app?vid=a95491f4-5ffb-470d-943d-1a4ab34cd6b4","ios":"levelo://app?vid=a95491f4-5ffb-470d-943d-1a4ab34cd6b4"},"vehicle_type_id":"4","last_reported":1726938516,"current_range_meters":33200,"station_id":"ce4bh3p2rcd13ifvqdq0","pricing_plan_id":"cebpf4jnsgd1na2vs0mg"},{"bike_id":"c9ed8b7d-2786-4e05-b894-9d45f15c178a","system_id":"levelo_inurba_marseille","lat":43.28472,"lon":5.3843,"is_reserved":false,"is_disabled":false,"rental_uris":{"android":"levelo://app?vid=c9ed8b7d-2786-4e05-b894-9d45f15c178a","ios":"levelo://app?vid=c9ed8b7d-2786-4e05-b894-9d45f15c178a"},"vehicle_type_id":"4","last_reported":1726938516,"current_range_meters":38800,"station_id":"ce4bh512rcd13ifvqe3g","pricing_plan_id":"cebpf4jnsgd1na2vs0mg"},{"bike_id":"33d6ff2c-e9ab-420e-9dd7-bcdb5d1a399f","system_id":"levelo_inurba_marseille","lat":43.3171,"lon":5.43711,"is_reserved":false,"is_disabled":false,"rental_uris":{"android":"levelo://app?vid=33d6ff2c-e9ab-420e-9dd7-bcdb5d1a399f","ios":"levelo://app?vid=33d6ff2c-e9ab-420e-9dd7-bcdb5d1a399f"},"vehicle_type_id":"4","last_reported":1726938516,"current_range_meters":39200,"station_id":"ce4bhp92rcd13ifvqhcg","pricing_plan_id":"cebpf4jnsgd1na2vs0mg"},{"bike_id":"e80048a3-3f79-4808-bba9-1889035c4c4c","system_id":"levelo_inurba_marseille","lat":43.28721,"lon":5.36086,"is_reserved":false,"is_disabled":false,"rental_uris":{"android":"levelo://app?vid=e80048a3-3f79-4808-bba9-1889035c4c4c","ios":"levelo://app?vid=e80048a3-3f79-4808-bba9-1889035c4c4c"},"vehicle_type_id":"4","last_reported":1726938516,"current_range_meters":36000,"station_id":"cki0cbj6b192h4jlfktg","pricing_plan_id":"cebpf4jnsgd1na2vs0mg"},{"bike_id":"62e07f60-2ab2-4989-b082-9264a715ae9a","system_id":"levelo_inurba_marseille","lat":43.25508,"lon":5.37654,"is_reserved":false,"is_disabled":false,"rental_uris":{"android":"levelo://app?vid=62e07f60-2ab2-4989-b082-9264a715ae9a","ios":"levelo://app?vid=62e07f60-2ab2-4989-b082-9264a715ae9a"},"vehicle_type_id":"4","last_reported":1726938516,"current_range_meters":6800,"station_id":"ce4bhh12rcd13ifvqff0","pricing_plan_id":"cebpf4jnsgd1na2vs0mg"},{"bike_id":"32ecd4a5-6a6e-4685-ae24-d272b98d1ca3","system_id":"levelo_inurba_marseille","lat":43.23965,"lon":5.36617,"is_reserved":false,"is_disabled":false,"rental_uris":{"android":"levelo://app?vid=32ecd4a5-6a6e-4685-ae24-d272b98d1ca3","ios":"levelo://app?vid=32ecd4a5-6a6e-4685-ae24-d272b98d1ca3"},"vehicle_type_id":"4","last_reported":1726938516,"current_range_meters":8000,"station_id":"ce4bhi12rcd13ifvqfp0","pricing_plan_id":"cebpf4jnsgd1na2vs0mg"},{"bike_id":"5e78fb85-e163-454f-b47f-06d0c000c116","system_id":"levelo_inurba_marseille","lat":43.2916,"lon":5.38617,"is_reserved":false,"is_disabled":false,"rental_uris":{"android":"levelo://app?vid=5e78fb85-e163-454f-b47f-06d0c000c116","ios":"levelo://app?vid=5e78fb85-e163-454f-b47f-06d0c000c116"},"vehicle_type_id":"4","last_reported":1726938516,"current_range_meters":19600,"station_id":"","pricing_plan_id":"cebpf4jnsgd1na2vs0mg"},{"bike_id":"417b67da-5db6-4939-bc85-d17f1a193753","system_id":"levelo_inurba_marseille","lat":43.27907,"lon":5.38015,"is_reserved":false,"is_disabled":false,"rental_uris":{"android":"levelo://app?vid=417b67da-5db6-4939-bc85-d17f1a193753","ios":"levelo://app?vid=417b67da-5db6-4939-bc85-d17f1a193753"},"vehicle_type_id":"4","last_reported":1726938516,"current_range_meters":16000,"station_id":"ce4bhf92rcd13ifvqf50","pricing_plan_id":"cebpf4jnsgd1na2vs0mg"},{"bike_id":"bcbe6095-74c6-4e6a-9235-6041481bec8a","system_id":"levelo_inurba_marseille","lat":43.23178,"lon":5.39987,"is_reserved":false,"is_disabled":false,"rental_uris":{"android":"levelo://app?vid=bcbe6095-74c6-4e6a-9235-6041481bec8a","ios":"levelo://app?vid=bcbe6095-74c6-4e6a-9235-6041481bec8a"},"vehicle_type_id":"4","last_reported":1726938516,"current_range_meters":27600,"station_id":"ce4bhn12rcd13ifvqgqg","pricing_plan_id":"cebpf4jnsgd1na2vs0mg"},{"bike_id":"a69b9332-231b-405c-b609-82a81cd72392","system_id":"levelo_inurba_marseille","lat":43.258278,"lon":5.394365,"is_reserved":false,"is_disabled":false,"rental_uris":{"android":"levelo://app?vid=a69b9332-231b-405c-b609-82a81cd72392","ios":"levelo://app?vid=a69b9332-231b-405c-b609-82a81cd72392"},"vehicle_type_id":"4","last_reported":1726938516,"current_range_meters":23200,"station_id":"ce4bhip2rcd13ifvqft0","pricing_plan_id":"cebpf4jnsgd1na2vs0mg"},{"bike_id":"8c3bd448-d874-4cbc-b476-ce92878a4d83","system_id":"levelo_inurba_marseille","lat":43.3117,"lon":5.38729,"is_reserved":false,"is_disabled":false,"rental_uris":{"android":"levelo://app?vid=8c3bd448-d874-4cbc-b476-ce92878a4d83","ios":"levelo://app?vid=8c3bd448-d874-4cbc-b476-ce92878a4d83"},"vehicle_type_id":"4","last_reported":1726938516,"current_range_meters":33600,"station_id":"ce4bgv12rcd13ifvqcp0","pricing_plan_id":"cebpf4jnsgd1na2vs0mg"},{"bike_id":"3c5e64a0-f4ac-46d7-a9c5-927a0ef07b31","system_id":"levelo_inurba_marseille","lat":43.29165,"lon":5.37145,"is_reserved":false,"is_disabled":false,"rental_uris":{"android":"levelo://app?vid=3c5e64a0-f4ac-46d7-a9c5-927a0ef07b31","ios":"levelo://app?vid=3c5e64a0-f4ac-46d7-a9c5-927a0ef07b31"},"vehicle_type_id":"4","last_reported":1726938516,"current_range_meters":24000,"station_id":"ce4bha92rcd13ifvqeh0","pricing_plan_id":"cebpf4jnsgd1na2vs0mg"},{"bike_id":"4058ea0e-9892-4067-b318-42847b74de1d","system_id":"levelo_inurba_marseille","lat":43.24806,"lon":5.3746,"is_reserved":false,"is_disabled":false,"rental_uris":{"android":"levelo://app?vid=4058ea0e-9892-4067-b318-42847b74de1d","ios":"levelo://app?vid=4058ea0e-9892-4067-b318-42847b74de1d"},"vehicle_type_id":"4","last_reported":1726938516,"current_range_meters":12400,"station_id":"ce4bhgh2rcd13ifvqfb0","pricing_plan_id":"cebpf4jnsgd1na2vs0mg"},{"bike_id":"53ddf0f7-375f-418e-898c-8ba4a03b2d15","system_id":"levelo_inurba_marseille","lat":43.29799,"lon":5.40403,"is_reserved":false,"is_disabled":false,"rental_uris":{"android":"levelo://app?vid=53ddf0f7-375f-418e-898c-8ba4a03b2d15","ios":"levelo://app?vid=53ddf0f7-375f-418e-898c-8ba4a03b2d15"},"vehicle_type_id":"4","last_reported":1726938516,"current_range_meters":19600,"station_id":"ce4bh112rcd13ifvqd90","pricing_plan_id":"cebpf4jnsgd1na2vs0mg"},{"bike_id":"512a72a2-9886-42ab-a6f8-fbe091444cf6","system_id":"levelo_inurba_marseille","lat":43.24179,"lon":5.3639,"is_reserved":false,"is_disabled":false,"rental_uris":{"android":"levelo://app?vid=512a72a2-9886-42ab-a6f8-fbe091444cf6","ios":"levelo://app?vid=512a72a2-9886-42ab-a6f8-fbe091444cf6"},"vehicle_type_id":"4","last_reported":1726938516,"current_range_meters":38800,"station_id":"cpo36qri1sfpv3e86is0","pricing_plan_id":"cebpf4jnsgd1na2vs0mg"},{"bike_id":"14800e9f-b459-4e63-8a01-9e7ab3c21753","system_id":"levelo_inurba_marseille","lat":43.31359,"lon":5.3671,"is_reserved":false,"is_disabled":false,"rental_uris":{"android":"levelo://app?vid=14800e9f-b459-4e63-8a01-9e7ab3c21753","ios":"levelo://app?vid=14800e9f-b459-4e63-8a01-9e7ab3c21753"},"vehicle_type_id":"4","last_reported":1726938516,"current_range_meters":22800,"station_id":"ce4bgr92rcd13ifvqc6g","pricing_plan_id":"cebpf4jnsgd1na2vs0mg"},{"bike_id":"35faea71-56e7-4860-b4e8-ea6c7685e116","system_id":"levelo_inurba_marseille","lat":43.25857,"lon":5.39907,"is_reserved":false,"is_disabled":false,"rental_uris":{"android":"levelo://app?vid=35faea71-56e7-4860-b4e8-ea6c7685e116","ios":"levelo://app?vid=35faea71-56e7-4860-b4e8-ea6c7685e116"},"vehicle_type_id":"4","last_reported":1726938516,"current_range_meters":10800,"station_id":"ce4bhl92rcd13ifvqghg","pricing_plan_id":"cebpf4jnsgd1na2vs0mg"},{"bike_id":"859af6e0-6482-4e0a-b431-9e88ea4a8a01","system_id":"levelo_inurba_marseille","lat":43.290438,"lon":5.375854,"is_reserved":false,"is_disabled":false,"rental_uris":{"android":"levelo://app?vid=859af6e0-6482-4e0a-b431-9e88ea4a8a01","ios":"levelo://app?vid=859af6e0-6482-4e0a-b431-9e88ea4a8a01"},"vehicle_type_id":"4","last_reported":1726938516,"current_range_meters":34800,"station_id":"ce4bh692rcd13ifvqe90","pricing_plan_id":"cebpf4jnsgd1na2vs0mg"},{"bike_id":"217ddcb8-e413-4d17-8eaa-2f798a74b01b","system_id":"levelo_inurba_marseille","lat":43.24544,"lon":5.39524,"is_reserved":false,"is_disabled":false,"rental_uris":{"android":"levelo://app?vid=217ddcb8-e413-4d17-8eaa-2f798a74b01b","ios":"levelo://app?vid=217ddcb8-e413-4d17-8eaa-2f798a74b01b"},"vehicle_type_id":"4","last_reported":1726938516,"current_range_meters":25200,"station_id":"ce4bhlp2rcd13ifvqgjg","pricing_plan_id":"cebpf4jnsgd1na2vs0mg"},{"bike_id":"ad22515a-e934-45d6-89e1-ad5b79b0f815","system_id":"levelo_inurba_marseille","lat":43.30136,"lon":5.39865,"is_reserved":false,"is_disabled":false,"rental_uris":{"android":"levelo://app?vid=ad22515a-e934-45d6-89e1-ad5b79b0f815","ios":"levelo://app?vid=ad22515a-e934-45d6-89e1-ad5b79b0f815"},"vehicle_type_id":"4","last_reported":1726938516,"current_range_meters":19200,"station_id":"ce4bh0h2rcd13ifvqd40","pricing_plan_id":"cebpf4jnsgd1na2vs0mg"},{"bike_id":"794b8dc6-a949-41ba-a274-76f3401f1460","system_id":"levelo_inurba_marseille","lat":43.29268,"lon":5.38446,"is_reserved":false,"is_disabled":false,"rental_uris":{"android":"levelo://app?vid=794b8dc6-a949-41ba-a274-76f3401f1460","ios":"levelo://app?vid=794b8dc6-a949-41ba-a274-76f3401f1460"},"vehicle_type_id":"4","last_reported":1726938516,"current_range_meters":38800,"station_id":"ce4bh692rcd13ifvqea0","pricing_plan_id":"cebpf4jnsgd1na2vs0mg"},{"bike_id":"56648c11-3bd5-44db-89e6-e8d198ee789b","system_id":"levelo_inurba_marseille","lat":43.329468,"lon":5.399712,"is_reserved":false,"is_disabled":false,"rental_uris":{"android":"levelo://app?vid=56648c11-3bd5-44db-89e6-e8d198ee789b","ios":"levelo://app?vid=56648c11-3bd5-44db-89e6-e8d198ee789b"},"vehicle_type_id":"4","last_reported":1726938516,"current_range_meters":36000,"station_id":"ce4bhqh2rcd13ifvqhmg","pricing_plan_id":"cebpf4jnsgd1na2vs0mg"},{"bike_id":"4011cb0c-fac0-41b0-a7db-eadf070e76ae","system_id":"levelo_inurba_marseille","lat":43.30598,"lon":5.39355,"is_reserved":false,"is_disabled":false,"rental_uris":{"android":"levelo://app?vid=4011cb0c-fac0-41b0-a7db-eadf070e76ae","ios":"levelo://app?vid=4011cb0c-fac0-41b0-a7db-eadf070e76ae"},"vehicle_type_id":"4","last_reported":1726938516,"current_range_meters":36800,"station_id":"ce4bh0p2rcd13ifvqd80","pricing_plan_id":"cebpf4jnsgd1na2vs0mg"},{"bike_id":"22e4a15e-6041-4c71-b288-1c12c69d262d","system_id":"levelo_inurba_marseille","lat":43.33723,"lon":5.39188,"is_reserved":false,"is_disabled":false,"rental_uris":{"android":"levelo://app?vid=22e4a15e-6041-4c71-b288-1c12c69d262d","ios":"levelo://app?vid=22e4a15e-6041-4c71-b288-1c12c69d262d"},"vehicle_type_id":"4","last_reported":1726938516,"current_range_meters":11600,"station_id":"ce4bhr92rcd13ifvqhsg","pricing_plan_id":"cebpf4jnsgd1na2vs0mg"},{"bike_id":"c5d3a046-6bd7-4d7b-af21-c3e4cb98efd0","system_id":"levelo_inurba_marseille","lat":43.23962,"lon":5.36625,"is_reserved":false,"is_disabled":false,"rental_uris":{"android":"levelo://app?vid=c5d3a046-6bd7-4d7b-af21-c3e4cb98efd0","ios":"levelo://app?vid=c5d3a046-6bd7-4d7b-af21-c3e4cb98efd0"},"vehicle_type_id":"4","last_reported":1726938516,"current_range_meters":20400,"station_id":"ce4bhi12rcd13ifvqfp0","pricing_plan_id":"cebpf4jnsgd1na2vs0mg"},{"bike_id":"503db22b-1e5a-4bd5-83d4-dcb9c888e58f","system_id":"levelo_inurba_marseille","lat":43.26035,"lon":5.37558,"is_reserved":false,"is_disabled":false,"rental_uris":{"android":"levelo://app?vid=503db22b-1e5a-4bd5-83d4-dcb9c888e58f","ios":"levelo://app?vid=503db22b-1e5a-4bd5-83d4-dcb9c888e58f"},"vehicle_type_id":"4","last_reported":1726938516,"current_range_meters":37600,"station_id":"ce4bhgh2rcd13ifvqfa0","pricing_plan_id":"cebpf4jnsgd1na2vs0mg"},{"bike_id":"1e6150d9-4e30-4a8b-9480-a209923c34a8","system_id":"levelo_inurba_marseille","lat":43.30501,"lon":5.36797,"is_reserved":false,"is_disabled":false,"rental_uris":{"android":"levelo://app?vid=1e6150d9-4e30-4a8b-9480-a209923c34a8","ios":"levelo://app?vid=1e6150d9-4e30-4a8b-9480-a209923c34a8"},"vehicle_type_id":"4","last_reported":1726938516,"current_range_meters":33600,"station_id":"ce4bgrh2rcd13ifvqc8g","pricing_plan_id":"cebpf4jnsgd1na2vs0mg"},{"bike_id":"05938825-2740-4907-bd01-3d283617a1c6","system_id":"levelo_inurba_marseille","lat":43.32354,"lon":5.44014,"is_reserved":false,"is_disabled":false,"rental_uris":{"android":"levelo://app?vid=05938825-2740-4907-bd01-3d283617a1c6","ios":"levelo://app?vid=05938825-2740-4907-bd01-3d283617a1c6"},"vehicle_type_id":"4","last_reported":1726938516,"current_range_meters":6400,"station_id":"","pricing_plan_id":"cebpf4jnsgd1na2vs0mg"},{"bike_id":"653ee886-9bc8-425e-97b9-a72f03e6a2ef","system_id":"levelo_inurba_marseille","lat":43.26566,"lon":5.39013,"is_reserved":false,"is_disabled":false,"rental_uris":{"android":"levelo://app?vid=653ee886-9bc8-425e-97b9-a72f03e6a2ef","ios":"levelo://app?vid=653ee886-9bc8-425e-97b9-a72f03e6a2ef"},"vehicle_type_id":"4","last_reported":1726938516,"current_range_meters":38800,"station_id":"ce4bhe12rcd13ifvqf30","pricing_plan_id":"cebpf4jnsgd1na2vs0mg"},{"bike_id":"6c49d7fc-28d4-430a-a652-7d35afd8384c","system_id":"levelo_inurba_marseille","lat":43.29897,"lon":5.43673,"is_reserved":false,"is_disabled":false,"rental_uris":{"android":"levelo://app?vid=6c49d7fc-28d4-430a-a652-7d35afd8384c","ios":"levelo://app?vid=6c49d7fc-28d4-430a-a652-7d35afd8384c"},"vehicle_type_id":"4","last_reported":1726938516,"current_range_meters":6400,"station_id":"ce4bhpp2rcd13ifvqhfg","pricing_plan_id":"cebpf4jnsgd1na2vs0mg"},{"bike_id":"dfc6cc80-38cc-439b-bab5-dc3adc2f5b13","system_id":"levelo_inurba_marseille","lat":43.25585,"lon":5.38237,"is_reserved":false,"is_disabled":false,"rental_uris":{"android":"levelo://app?vid=dfc6cc80-38cc-439b-bab5-dc3adc2f5b13","ios":"levelo://app?vid=dfc6cc80-38cc-439b-bab5-dc3adc2f5b13"},"vehicle_type_id":"4","last_reported":1726938516,"current_range_meters":14400,"station_id":"ce4bhih2rcd13ifvqfs0","pricing_plan_id":"cebpf4jnsgd1na2vs0mg"},{"bike_id":"121bf4fd-f4bd-49c4-86cd-f5e7d0690e3f","system_id":"levelo_inurba_marseille","lat":43.33028,"lon":5.39041,"is_reserved":false,"is_disabled":false,"rental_uris":{"android":"levelo://app?vid=121bf4fd-f4bd-49c4-86cd-f5e7d0690e3f","ios":"levelo://app?vid=121bf4fd-f4bd-49c4-86cd-f5e7d0690e3f"},"vehicle_type_id":"4","last_reported":1726938516,"current_range_meters":32000,"station_id":"ce4bhr92rcd13ifvqhrg","pricing_plan_id":"cebpf4jnsgd1na2vs0mg"},{"bike_id":"f716c828-f3e7-4e51-8504-6e5d37ed3435","system_id":"levelo_inurba_marseille","lat":43.2804,"lon":5.36948,"is_reserved":false,"is_disabled":false,"rental_uris":{"android":"levelo://app?vid=f716c828-f3e7-4e51-8504-6e5d37ed3435","ios":"levelo://app?vid=f716c828-f3e7-4e51-8504-6e5d37ed3435"},"vehicle_type_id":"4","last_reported":1726938516,"current_range_meters":8400,"station_id":"ce4bha12rcd13ifvqef0","pricing_plan_id":"cebpf4jnsgd1na2vs0mg"},{"bike_id":"231df590-15eb-4c0a-bdf6-dddd3cb861cb","system_id":"levelo_inurba_marseille","lat":43.337444,"lon":5.374475,"is_reserved":false,"is_disabled":false,"rental_uris":{"android":"levelo://app?vid=231df590-15eb-4c0a-bdf6-dddd3cb861cb","ios":"levelo://app?vid=231df590-15eb-4c0a-bdf6-dddd3cb861cb"},"vehicle_type_id":"4","last_reported":1726938516,"current_range_meters":30000,"station_id":"","pricing_plan_id":"cebpf4jnsgd1na2vs0mg"},{"bike_id":"fa2f05b0-276e-4caa-bf98-1fd118e90914","system_id":"levelo_inurba_marseille","lat":43.23184,"lon":5.39986,"is_reserved":false,"is_disabled":false,"rental_uris":{"android":"levelo://app?vid=fa2f05b0-276e-4caa-bf98-1fd118e90914","ios":"levelo://app?vid=fa2f05b0-276e-4caa-bf98-1fd118e90914"},"vehicle_type_id":"4","last_reported":1726938516,"current_range_meters":24000,"station_id":"ce4bhn12rcd13ifvqgqg","pricing_plan_id":"cebpf4jnsgd1na2vs0mg"},{"bike_id":"3b211465-5030-4ebd-b5e2-78bdfeebc435","system_id":"levelo_inurba_marseille","lat":43.33721,"lon":5.39183,"is_reserved":false,"is_disabled":false,"rental_uris":{"android":"levelo://app?vid=3b211465-5030-4ebd-b5e2-78bdfeebc435","ios":"levelo://app?vid=3b211465-5030-4ebd-b5e2-78bdfeebc435"},"vehicle_type_id":"4","last_reported":1726938516,"current_range_meters":30800,"station_id":"ce4bhr92rcd13ifvqhsg","pricing_plan_id":"cebpf4jnsgd1na2vs0mg"},{"bike_id":"497a258c-61fd-443c-b361-a3b7574e468d","system_id":"levelo_inurba_marseille","lat":43.23194,"lon":5.35554,"is_reserved":false,"is_disabled":false,"rental_uris":{"android":"levelo://app?vid=497a258c-61fd-443c-b361-a3b7574e468d","ios":"levelo://app?vid=497a258c-61fd-443c-b361-a3b7574e468d"},"vehicle_type_id":"4","last_reported":1726938516,"current_range_meters":0,"station_id":"ce4bhu92rcd13ifvqi70","pricing_plan_id":"cebpf4jnsgd1na2vs0mg"},{"bike_id":"3e156987-96e3-48ad-8746-0582637bdaa1","system_id":"levelo_inurba_marseille","lat":43.29898,"lon":5.43672,"is_reserved":false,"is_disabled":false,"rental_uris":{"android":"levelo://app?vid=3e156987-96e3-48ad-8746-0582637bdaa1","ios":"levelo://app?vid=3e156987-96e3-48ad-8746-0582637bdaa1"},"vehicle_type_id":"4","last_reported":1726938516,"current_range_meters":28000,"station_id":"ce4bhpp2rcd13ifvqhfg","pricing_plan_id":"cebpf4jnsgd1na2vs0mg"},{"bike_id":"ec7b3506-4cfa-4bf9-b901-869fad233612","system_id":"levelo_inurba_marseille","lat":43.29283,"lon":5.4012,"is_reserved":false,"is_disabled":false,"rental_uris":{"android":"levelo://app?vid=ec7b3506-4cfa-4bf9-b901-869fad233612","ios":"levelo://app?vid=ec7b3506-4cfa-4bf9-b901-869fad233612"},"vehicle_type_id":"4","last_reported":1726938516,"current_range_meters":37600,"station_id":"ce4bh312rcd13ifvqdk0","pricing_plan_id":"cebpf4jnsgd1na2vs0mg"},{"bike_id":"ea0cca34-779c-4455-aebd-63ad7691b96d","system_id":"levelo_inurba_marseille","lat":43.30894,"lon":5.3966,"is_reserved":false,"is_disabled":false,"rental_uris":{"android":"levelo://app?vid=ea0cca34-779c-4455-aebd-63ad7691b96d","ios":"levelo://app?vid=ea0cca34-779c-4455-aebd-63ad7691b96d"},"vehicle_type_id":"4","last_reported":1726938516,"current_range_meters":33600,"station_id":"ce4bh012rcd13ifvqcv0","pricing_plan_id":"cebpf4jnsgd1na2vs0mg"},{"bike_id":"ea119233-f538-444f-b578-9f6cb1213c3d","system_id":"levelo_inurba_marseille","lat":43.29283,"lon":5.36847,"is_reserved":false,"is_disabled":false,"rental_uris":{"android":"levelo://app?vid=ea119233-f538-444f-b578-9f6cb1213c3d","ios":"levelo://app?vid=ea119233-f538-444f-b578-9f6cb1213c3d"},"vehicle_type_id":"4","last_reported":1726938516,"current_range_meters":30000,"station_id":"ce4bhbp2rcd13ifvqesg","pricing_plan_id":"cebpf4jnsgd1na2vs0mg"},{"bike_id":"45b9fd81-95fe-4e4e-8fab-e031b0eb6fb8","system_id":"levelo_inurba_marseille","lat":43.27569,"lon":5.36043,"is_reserved":false,"is_disabled":false,"rental_uris":{"android":"levelo://app?vid=45b9fd81-95fe-4e4e-8fab-e031b0eb6fb8","ios":"levelo://app?vid=45b9fd81-95fe-4e4e-8fab-e031b0eb6fb8"},"vehicle_type_id":"4","last_reported":1726938516,"current_range_meters":15200,"station_id":"ce4bgj92rcd13ifvqbe0","pricing_plan_id":"cebpf4jnsgd1na2vs0mg"},{"bike_id":"18baa39c-3b40-4d3d-a779-40e4d1c4f66d","system_id":"levelo_inurba_marseille","lat":43.28423,"lon":5.34993,"is_reserved":false,"is_disabled":false,"rental_uris":{"android":"levelo://app?vid=18baa39c-3b40-4d3d-a779-40e4d1c4f66d","ios":"levelo://app?vid=18baa39c-3b40-4d3d-a779-40e4d1c4f66d"},"vehicle_type_id":"4","last_reported":1726938516,"current_range_meters":38800,"station_id":"ce4bhbh2rcd13ifvqepg","pricing_plan_id":"cebpf4jnsgd1na2vs0mg"},{"bike_id":"91ac8d21-f8f2-41ac-963d-9ff0feefa041","system_id":"levelo_inurba_marseille","lat":43.26945,"lon":5.40251,"is_reserved":false,"is_disabled":false,"rental_uris":{"android":"levelo://app?vid=91ac8d21-f8f2-41ac-963d-9ff0feefa041","ios":"levelo://app?vid=91ac8d21-f8f2-41ac-963d-9ff0feefa041"},"vehicle_type_id":"4","last_reported":1726938516,"current_range_meters":9200,"station_id":"cjm6bp8fraef2m0cb0m0","pricing_plan_id":"cebpf4jnsgd1na2vs0mg"},{"bike_id":"b436cc9b-dacc-4633-afd1-a8926f7e3a55","system_id":"levelo_inurba_marseille","lat":43.27496,"lon":5.42457,"is_reserved":false,"is_disabled":false,"rental_uris":{"android":"levelo://app?vid=b436cc9b-dacc-4633-afd1-a8926f7e3a55","ios":"levelo://app?vid=b436cc9b-dacc-4633-afd1-a8926f7e3a55"},"vehicle_type_id":"4","last_reported":1726938516,"current_range_meters":20800,"station_id":"ce4bhn92rcd13ifvqgrg","pricing_plan_id":"cebpf4jnsgd1na2vs0mg"},{"bike_id":"53881499-6f36-4f42-8317-208461db06cd","system_id":"levelo_inurba_marseille","lat":43.2927,"lon":5.38452,"is_reserved":false,"is_disabled":false,"rental_uris":{"android":"levelo://app?vid=53881499-6f36-4f42-8317-208461db06cd","ios":"levelo://app?vid=53881499-6f36-4f42-8317-208461db06cd"},"vehicle_type_id":"4","last_reported":1726938516,"current_range_meters":8800,"station_id":"ce4bh692rcd13ifvqea0","pricing_plan_id":"cebpf4jnsgd1na2vs0mg"},{"bike_id":"2a545eee-24f9-4828-9335-71707d791250","system_id":"levelo_inurba_marseille","lat":43.27619,"lon":5.36109,"is_reserved":false,"is_disabled":false,"rental_uris":{"android":"levelo://app?vid=2a545eee-24f9-4828-9335-71707d791250","ios":"levelo://app?vid=2a545eee-24f9-4828-9335-71707d791250"},"vehicle_type_id":"4","last_reported":1726938516,"current_range_meters":25600,"station_id":"ce4bgj92rcd13ifvqbe0","pricing_plan_id":"cebpf4jnsgd1na2vs0mg"},{"bike_id":"e2a0c155-4e70-4b06-838d-23e1009f1c61","system_id":"levelo_inurba_marseille","lat":43.26842,"lon":5.37105,"is_reserved":false,"is_disabled":false,"rental_uris":{"android":"levelo://app?vid=e2a0c155-4e70-4b06-838d-23e1009f1c61","ios":"levelo://app?vid=e2a0c155-4e70-4b06-838d-23e1009f1c61"},"vehicle_type_id":"4","last_reported":1726938516,"current_range_meters":17600,"station_id":"","pricing_plan_id":"cebpf4jnsgd1na2vs0mg"},{"bike_id":"027f4c6d-ee7f-4841-b5b0-5709eb7ee65a","system_id":"levelo_inurba_marseille","lat":43.29223,"lon":5.39935,"is_reserved":false,"is_disabled":false,"rental_uris":{"android":"levelo://app?vid=027f4c6d-ee7f-4841-b5b0-5709eb7ee65a","ios":"levelo://app?vid=027f4c6d-ee7f-4841-b5b0-5709eb7ee65a"},"vehicle_type_id":"4","last_reported":1726938516,"current_range_meters":6000,"station_id":"ce4bh192rcd13ifvqdc0","pricing_plan_id":"cebpf4jnsgd1na2vs0mg"},{"bike_id":"a0d0a96f-d3b5-4183-bfff-5829cfb6dbdf","system_id":"levelo_inurba_marseille","lat":43.30125,"lon":5.38786,"is_reserved":false,"is_disabled":false,"rental_uris":{"android":"levelo://app?vid=a0d0a96f-d3b5-4183-bfff-5829cfb6dbdf","ios":"levelo://app?vid=a0d0a96f-d3b5-4183-bfff-5829cfb6dbdf"},"vehicle_type_id":"4","last_reported":1726938516,"current_range_meters":28800,"station_id":"ce4bghh2rcd13ifvqb60","pricing_plan_id":"cebpf4jnsgd1na2vs0mg"},{"bike_id":"6534d041-837b-4d5f-93af-c269a5112208","system_id":"levelo_inurba_marseille","lat":43.30535,"lon":5.36726,"is_reserved":false,"is_disabled":false,"rental_uris":{"android":"levelo://app?vid=6534d041-837b-4d5f-93af-c269a5112208","ios":"levelo://app?vid=6534d041-837b-4d5f-93af-c269a5112208"},"vehicle_type_id":"4","last_reported":1726938516,"current_range_meters":10800,"station_id":"ce4bgrp2rcd13ifvqc9g","pricing_plan_id":"cebpf4jnsgd1na2vs0mg"},{"bike_id":"dd3f91bd-4e41-4d8f-a7a3-cf3465fdc877","system_id":"levelo_inurba_marseille","lat":43.292734,"lon":5.384402,"is_reserved":false,"is_disabled":false,"rental_uris":{"android":"levelo://app?vid=dd3f91bd-4e41-4d8f-a7a3-cf3465fdc877","ios":"levelo://app?vid=dd3f91bd-4e41-4d8f-a7a3-cf3465fdc877"},"vehicle_type_id":"4","last_reported":1726938516,"current_range_meters":36800,"station_id":"ce4bh692rcd13ifvqea0","pricing_plan_id":"cebpf4jnsgd1na2vs0mg"},{"bike_id":"8b9587bf-57cd-4683-85eb-2e12d6fa0042","system_id":"levelo_inurba_marseille","lat":43.26217,"lon":5.3793,"is_reserved":false,"is_disabled":false,"rental_uris":{"android":"levelo://app?vid=8b9587bf-57cd-4683-85eb-2e12d6fa0042","ios":"levelo://app?vid=8b9587bf-57cd-4683-85eb-2e12d6fa0042"},"vehicle_type_id":"4","last_reported":1726938516,"current_range_meters":9200,"station_id":"ce4bhjp2rcd13ifvqg90","pricing_plan_id":"cebpf4jnsgd1na2vs0mg"},{"bike_id":"5e4918a7-d009-48ec-acef-c4649c9348e8","system_id":"levelo_inurba_marseille","lat":43.25587,"lon":5.38238,"is_reserved":false,"is_disabled":false,"rental_uris":{"android":"levelo://app?vid=5e4918a7-d009-48ec-acef-c4649c9348e8","ios":"levelo://app?vid=5e4918a7-d009-48ec-acef-c4649c9348e8"},"vehicle_type_id":"4","last_reported":1726938516,"current_range_meters":17600,"station_id":"ce4bhih2rcd13ifvqfs0","pricing_plan_id":"cebpf4jnsgd1na2vs0mg"},{"bike_id":"c62ecea5-86f4-4fe5-b96a-6260a68822d1","system_id":"levelo_inurba_marseille","lat":43.27623,"lon":5.36117,"is_reserved":false,"is_disabled":false,"rental_uris":{"android":"levelo://app?vid=c62ecea5-86f4-4fe5-b96a-6260a68822d1","ios":"levelo://app?vid=c62ecea5-86f4-4fe5-b96a-6260a68822d1"},"vehicle_type_id":"4","last_reported":1726938516,"current_range_meters":12800,"station_id":"ce4bgj92rcd13ifvqbe0","pricing_plan_id":"cebpf4jnsgd1na2vs0mg"},{"bike_id":"5cd046c0-380a-4e56-8277-0c115fe9678e","system_id":"levelo_inurba_marseille","lat":43.29532,"lon":5.39412,"is_reserved":false,"is_disabled":false,"rental_uris":{"android":"levelo://app?vid=5cd046c0-380a-4e56-8277-0c115fe9678e","ios":"levelo://app?vid=5cd046c0-380a-4e56-8277-0c115fe9678e"},"vehicle_type_id":"4","last_reported":1726938516,"current_range_meters":5600,"station_id":"ce4bh292rcd13ifvqdf0","pricing_plan_id":"cebpf4jnsgd1na2vs0mg"},{"bike_id":"ae25c95e-4bb9-421c-a857-8ab9b392adfe","system_id":"levelo_inurba_marseille","lat":43.29266,"lon":5.38439,"is_reserved":false,"is_disabled":false,"rental_uris":{"android":"levelo://app?vid=ae25c95e-4bb9-421c-a857-8ab9b392adfe","ios":"levelo://app?vid=ae25c95e-4bb9-421c-a857-8ab9b392adfe"},"vehicle_type_id":"4","last_reported":1726938516,"current_range_meters":9600,"station_id":"ce4bh692rcd13ifvqea0","pricing_plan_id":"cebpf4jnsgd1na2vs0mg"},{"bike_id":"08e1ea90-29aa-4fd2-b097-8b49ce43be10","system_id":"levelo_inurba_marseille","lat":43.26951,"lon":5.38629,"is_reserved":false,"is_disabled":false,"rental_uris":{"android":"levelo://app?vid=08e1ea90-29aa-4fd2-b097-8b49ce43be10","ios":"levelo://app?vid=08e1ea90-29aa-4fd2-b097-8b49ce43be10"},"vehicle_type_id":"4","last_reported":1726938516,"current_range_meters":37600,"station_id":"ce4bhh92rcd13ifvqfh0","pricing_plan_id":"cebpf4jnsgd1na2vs0mg"},{"bike_id":"f4e67045-f637-40a9-99bb-fa4434311c68","system_id":"levelo_inurba_marseille","lat":43.293091,"lon":5.371639,"is_reserved":false,"is_disabled":false,"rental_uris":{"android":"levelo://app?vid=f4e67045-f637-40a9-99bb-fa4434311c68","ios":"levelo://app?vid=f4e67045-f637-40a9-99bb-fa4434311c68"},"vehicle_type_id":"4","last_reported":1726938516,"current_range_meters":22000,"station_id":"ce4bgh92rcd13ifvqb40","pricing_plan_id":"cebpf4jnsgd1na2vs0mg"},{"bike_id":"55994187-2d3b-4b87-bd25-f550651b6dd7","system_id":"levelo_inurba_marseille","lat":43.27997,"lon":5.40011,"is_reserved":false,"is_disabled":false,"rental_uris":{"android":"levelo://app?vid=55994187-2d3b-4b87-bd25-f550651b6dd7","ios":"levelo://app?vid=55994187-2d3b-4b87-bd25-f550651b6dd7"},"vehicle_type_id":"4","last_reported":1726938516,"current_range_meters":3200,"station_id":"ce4bho92rcd13ifvqh4g","pricing_plan_id":"cebpf4jnsgd1na2vs0mg"},{"bike_id":"eefe5cba-c241-4b81-98e0-de83f99d4a99","system_id":"levelo_inurba_marseille","lat":43.27815,"lon":5.40712,"is_reserved":false,"is_disabled":false,"rental_uris":{"android":"levelo://app?vid=eefe5cba-c241-4b81-98e0-de83f99d4a99","ios":"levelo://app?vid=eefe5cba-c241-4b81-98e0-de83f99d4a99"},"vehicle_type_id":"4","last_reported":1726938516,"current_range_meters":11600,"station_id":"ce4bhnh2rcd13ifvqgtg","pricing_plan_id":"cebpf4jnsgd1na2vs0mg"},{"bike_id":"fbf41cdd-51c3-467e-a76d-9d3ecfc5ceeb","system_id":"levelo_inurba_marseille","lat":43.29599,"lon":5.381,"is_reserved":false,"is_disabled":false,"rental_uris":{"android":"levelo://app?vid=fbf41cdd-51c3-467e-a76d-9d3ecfc5ceeb","ios":"levelo://app?vid=fbf41cdd-51c3-467e-a76d-9d3ecfc5ceeb"},"vehicle_type_id":"4","last_reported":1726938516,"current_range_meters":27200,"station_id":"ce4bgl12rcd13ifvqbo0","pricing_plan_id":"cebpf4jnsgd1na2vs0mg"},{"bike_id":"010c6b60-ccdc-4328-b5a8-02ef4be01c19","system_id":"levelo_inurba_marseille","lat":43.31171,"lon":5.38715,"is_reserved":false,"is_disabled":false,"rental_uris":{"android":"levelo://app?vid=010c6b60-ccdc-4328-b5a8-02ef4be01c19","ios":"levelo://app?vid=010c6b60-ccdc-4328-b5a8-02ef4be01c19"},"vehicle_type_id":"4","last_reported":1726938516,"current_range_meters":26000,"station_id":"ce4bgv12rcd13ifvqcp0","pricing_plan_id":"cebpf4jnsgd1na2vs0mg"},{"bike_id":"f75e63b2-2510-468c-baae-2c19407e3583","system_id":"levelo_inurba_marseille","lat":43.26038,"lon":5.37554,"is_reserved":false,"is_disabled":false,"rental_uris":{"android":"levelo://app?vid=f75e63b2-2510-468c-baae-2c19407e3583","ios":"levelo://app?vid=f75e63b2-2510-468c-baae-2c19407e3583"},"vehicle_type_id":"4","last_reported":1726938516,"current_range_meters":18800,"station_id":"ce4bhgh2rcd13ifvqfa0","pricing_plan_id":"cebpf4jnsgd1na2vs0mg"},{"bike_id":"0f07a49c-f65d-47d2-a4c5-d16de2715f39","system_id":"levelo_inurba_marseille","lat":43.26033,"lon":5.37546,"is_reserved":false,"is_disabled":false,"rental_uris":{"android":"levelo://app?vid=0f07a49c-f65d-47d2-a4c5-d16de2715f39","ios":"levelo://app?vid=0f07a49c-f65d-47d2-a4c5-d16de2715f39"},"vehicle_type_id":"4","last_reported":1726938516,"current_range_meters":38000,"station_id":"ce4bhgh2rcd13ifvqfa0","pricing_plan_id":"cebpf4jnsgd1na2vs0mg"},{"bike_id":"eac0a18c-0b96-43ed-9556-44d25cceb72f","system_id":"levelo_inurba_marseille","lat":43.28278,"lon":5.37909,"is_reserved":false,"is_disabled":false,"rental_uris":{"android":"levelo://app?vid=eac0a18c-0b96-43ed-9556-44d25cceb72f","ios":"levelo://app?vid=eac0a18c-0b96-43ed-9556-44d25cceb72f"},"vehicle_type_id":"4","last_reported":1726938516,"current_range_meters":6800,"station_id":"ce4bhmp2rcd13ifvqgog","pricing_plan_id":"cebpf4jnsgd1na2vs0mg"},{"bike_id":"0d45154d-d3ae-43d0-b536-667d49da2cc7","system_id":"levelo_inurba_marseille","lat":43.28004,"lon":5.40016,"is_reserved":false,"is_disabled":false,"rental_uris":{"android":"levelo://app?vid=0d45154d-d3ae-43d0-b536-667d49da2cc7","ios":"levelo://app?vid=0d45154d-d3ae-43d0-b536-667d49da2cc7"},"vehicle_type_id":"4","last_reported":1726938516,"current_range_meters":27600,"station_id":"ce4bho92rcd13ifvqh4g","pricing_plan_id":"cebpf4jnsgd1na2vs0mg"},{"bike_id":"4772b107-2f18-495b-9190-24cad4cfb493","system_id":"levelo_inurba_marseille","lat":43.27736,"lon":5.41146,"is_reserved":false,"is_disabled":false,"rental_uris":{"android":"levelo://app?vid=4772b107-2f18-495b-9190-24cad4cfb493","ios":"levelo://app?vid=4772b107-2f18-495b-9190-24cad4cfb493"},"vehicle_type_id":"4","last_reported":1726938516,"current_range_meters":16800,"station_id":"","pricing_plan_id":"cebpf4jnsgd1na2vs0mg"},{"bike_id":"89b62774-4139-4dca-bc17-53cdeae471fe","system_id":"levelo_inurba_marseille","lat":43.31709,"lon":5.37771,"is_reserved":false,"is_disabled":false,"rental_uris":{"android":"levelo://app?vid=89b62774-4139-4dca-bc17-53cdeae471fe","ios":"levelo://app?vid=89b62774-4139-4dca-bc17-53cdeae471fe"},"vehicle_type_id":"4","last_reported":1726938516,"current_range_meters":36400,"station_id":"ce4bgth2rcd13ifvqch0","pricing_plan_id":"cebpf4jnsgd1na2vs0mg"},{"bike_id":"4a1e1ed2-57de-4a37-ac93-4a746a6a0469","system_id":"levelo_inurba_marseille","lat":43.32555,"lon":5.41433,"is_reserved":false,"is_disabled":false,"rental_uris":{"android":"levelo://app?vid=4a1e1ed2-57de-4a37-ac93-4a746a6a0469","ios":"levelo://app?vid=4a1e1ed2-57de-4a37-ac93-4a746a6a0469"},"vehicle_type_id":"4","last_reported":1726938516,"current_range_meters":38800,"station_id":"ce4bhq12rcd13ifvqhhg","pricing_plan_id":"cebpf4jnsgd1na2vs0mg"},{"bike_id":"e70ab32c-ee6b-4216-bf10-394ec0f0c75f","system_id":"levelo_inurba_marseille","lat":43.28697,"lon":5.39982,"is_reserved":false,"is_disabled":false,"rental_uris":{"android":"levelo://app?vid=e70ab32c-ee6b-4216-bf10-394ec0f0c75f","ios":"levelo://app?vid=e70ab32c-ee6b-4216-bf10-394ec0f0c75f"},"vehicle_type_id":"4","last_reported":1726938516,"current_range_meters":3600,"station_id":"ce4bho92rcd13ifvqh3g","pricing_plan_id":"cebpf4jnsgd1na2vs0mg"},{"bike_id":"722b0127-57cd-4524-84ca-abe398635797","system_id":"levelo_inurba_marseille","lat":43.2467,"lon":5.3817,"is_reserved":false,"is_disabled":false,"rental_uris":{"android":"levelo://app?vid=722b0127-57cd-4524-84ca-abe398635797","ios":"levelo://app?vid=722b0127-57cd-4524-84ca-abe398635797"},"vehicle_type_id":"4","last_reported":1726938516,"current_range_meters":17600,"station_id":"ce4bhih2rcd13ifvqfr0","pricing_plan_id":"cebpf4jnsgd1na2vs0mg"},{"bike_id":"c9ef1453-9c14-43ec-9df2-3e5a2c8bf7cc","system_id":"levelo_inurba_marseille","lat":43.26889,"lon":5.39965,"is_reserved":false,"is_disabled":false,"rental_uris":{"android":"levelo://app?vid=c9ef1453-9c14-43ec-9df2-3e5a2c8bf7cc","ios":"levelo://app?vid=c9ef1453-9c14-43ec-9df2-3e5a2c8bf7cc"},"vehicle_type_id":"4","last_reported":1726938516,"current_range_meters":6800,"station_id":"","pricing_plan_id":"cebpf4jnsgd1na2vs0mg"},{"bike_id":"1520b651-f573-4a7b-943e-b3836bcb0180","system_id":"levelo_inurba_marseille","lat":43.295309,"lon":5.375081,"is_reserved":false,"is_disabled":false,"rental_uris":{"android":"levelo://app?vid=1520b651-f573-4a7b-943e-b3836bcb0180","ios":"levelo://app?vid=1520b651-f573-4a7b-943e-b3836bcb0180"},"vehicle_type_id":"4","last_reported":1726938516,"current_range_meters":35200,"station_id":"ce4bgkp2rcd13ifvqbmg","pricing_plan_id":"cebpf4jnsgd1na2vs0mg"},{"bike_id":"f7beb917-257d-4e7c-afb8-5f8388f1439d","system_id":"levelo_inurba_marseille","lat":43.24671,"lon":5.38908,"is_reserved":false,"is_disabled":false,"rental_uris":{"android":"levelo://app?vid=f7beb917-257d-4e7c-afb8-5f8388f1439d","ios":"levelo://app?vid=f7beb917-257d-4e7c-afb8-5f8388f1439d"},"vehicle_type_id":"4","last_reported":1726938516,"current_range_meters":22000,"station_id":"ce4bhg12rcd13ifvqf60","pricing_plan_id":"cebpf4jnsgd1na2vs0mg"},{"bike_id":"b010b85b-8e30-43f1-b95f-a98802ed8a41","system_id":"levelo_inurba_marseille","lat":43.29621,"lon":5.37174,"is_reserved":false,"is_disabled":false,"rental_uris":{"android":"levelo://app?vid=b010b85b-8e30-43f1-b95f-a98802ed8a41","ios":"levelo://app?vid=b010b85b-8e30-43f1-b95f-a98802ed8a41"},"vehicle_type_id":"4","last_reported":1726938516,"current_range_meters":36000,"station_id":"ce4bgnh2rcd13ifvqc0g","pricing_plan_id":"cebpf4jnsgd1na2vs0mg"},{"bike_id":"586a652e-9fe0-42b5-9d0f-77f59552ee55","system_id":"levelo_inurba_marseille","lat":43.296021,"lon":5.376354,"is_reserved":false,"is_disabled":false,"rental_uris":{"android":"levelo://app?vid=586a652e-9fe0-42b5-9d0f-77f59552ee55","ios":"levelo://app?vid=586a652e-9fe0-42b5-9d0f-77f59552ee55"},"vehicle_type_id":"4","last_reported":1726938516,"current_range_meters":38800,"station_id":"","pricing_plan_id":"cebpf4jnsgd1na2vs0mg"},