{"last_updated":1686459983,"ttl":30,"version":"2.2","data":{"bikes":[{"bike_id":"f56dfca6-884d-40e5-bb12-c7bceb2732cd","system_id":"levelo_inurba_marseille","lat":43.31341,"lon":5.367098,"is_reserved":false,"is_disabled":false,"rental_uris":{"android":"levelo://app?vid=f56dfca6-884d-40e5-bb12-c7bceb2732cd","ios":"levelo://app?vid=f56dfca6-884d-40e5-bb12-c7bceb2732cd"},"vehicle_type_id":"4","last_reported":1686459984,"current_range_meters":31600,"station_id":"ce4bgr92rcd13ifvqc6g","pricing_plan_id":"free"},{"bike_id":"6f4817b3-1085-4b2e-9ca3-cb67081e15dc","system_id":"levelo_inurba_marseille","lat":43.31341,"lon":5.367098,"is_reserved":false,"is_disabled":false,"rental_uris":{"android":"levelo://app?vid=6f4817b3-1085-4b2e-9ca3-cb67081e15dc","ios":"levelo://app?vid=6f4817b3-1085-4b2e-9ca3-cb67081e15dc"},"vehicle_type_id":"4","last_reported":1686459984,"current_range_meters":31600,"station_id":"ce4bgr92rcd13ifvqc6g","pricing_plan_id":"free"},{"bike_id":"22e29d24-6e7b-47cf-9026-08bfc9b9adbb","system_id":"levelo_inurba_marseille","lat":43.31341,"lon":5.367098,"is_reserved":false,"is_disabled":false,"rental_uris":{"android":"levelo://app?vid=22e29d24-6e7b-47cf-9026-08bfc9b9adbb","ios":"levelo://app?vid=22e29d24-6e7b-47cf-9026-08bfc9b9adbb"},"vehicle_type_id":"4","last_reported":1686459984,"current_range_meters":28000,"station_id":"ce4bgr92rcd13ifvqc6g","pricing_plan_id":"free"},{"bike_id":"8b45441e-cd00-4b4a-9992-82f98f731cb9","system_id":"levelo_inurba_marseille","lat":43.312239,"lon":5.368562,"is_reserved":false,"is_disabled":false,"rental_uris":{"android":"levelo://app?vid=8b45441e-cd00-4b4a-9992-82f98f731cb9","ios":"levelo://app?vid=8b45441e-cd00-4b4a-9992-82f98f731cb9"},"vehicle_type_id":"4","last_reported":1686459984,"current_range_meters":27200,"station_id":"ce4bgl92rcd13ifvqbq0","pricing_plan_id":"free"},{"bike_id":"475deda3-3e92-43e8-8778-bcd7dda4a2d6","system_id":"levelo_inurba_marseille","lat":43.31253,"lon":5.36857,"is_reserved":false,"is_disabled":false,"rental_uris":{"android":"levelo://app?vid=475deda3-3e92-43e8-8778-bcd7dda4a2d6","ios":"levelo://app?vid=475deda3-3e92-43e8-8778-bcd7dda4a2d6"},"vehicle_type_id":"4","last_reported":1686459984,"current_range_meters":23200,"station_id":"ce4bgl92rcd13ifvqbq0","pricing_plan_id":"free"},{"bike_id":"e215e44b-264e-4626-ae88-2d3a12aefe09","system_id":"levelo_inurba_marseille","lat":43.309076,"lon":5.368465,"is_reserved":false,"is_disabled":false,"rental_uris":{"android":"levelo://app?vid=e215e44b-264e-4626-ae88-2d3a12aefe09","ios":"levelo://app?vid=e215e44b-264e-4626-ae88-2d3a12aefe09"},"vehicle_type_id":"4","last_reported":1686459984,"current_range_meters":10800,"station_id":"ce4bgn92rcd13ifvqbvg","pricing_plan_id":"free"},{"bike_id":"df8b1660-030c-46ee-8d0e-8a881c8aa03f","system_id":"levelo_inurba_marseille","lat":43.314811,"lon":5.373103,"is_reserved":false,"is_disabled":false,"rental_uris":{"android":"levelo://app?vid=df8b1660-030c-46ee-8d0e-8a881c8aa03f","ios":"levelo://app?vid=df8b1660-030c-46ee-8d0e-8a881c8aa03f"},"vehicle_type_id":"4","last_reported":1686459984,"current_range_meters":31600,"station_id":"ce4bgt12rcd13ifvqcd0","pricing_plan_id":"free"},{"bike_id":"613423e2-1bc5-492f-b17b-06f0a8a477cb","system_id":"levelo_inurba_marseille","lat":43.314811,"lon":5.373103,"is_reserved":false,"is_disabled":false,"rental_uris":{"android":"levelo://app?vid=613423e2-1bc5-492f-b17b-06f0a8a477cb","ios":"levelo://app?vid=613423e2-1bc5-492f-b17b-06f0a8a477cb"},"vehicle_type_id":"4","last_reported":1686459984,"current_range_meters":31600,"station_id":"ce4bgt12rcd13ifvqcd0","pricing_plan_id":"free"},{"bike_id":"02f8a2a9-87f0-43d9-989c-e8c8b74b72ae","system_id":"levelo_inurba_marseille","lat":43.314811,"lon":5.373103,"is_reserved":false,"is_disabled":false,"rental_uris":{"android":"levelo://app?vid=02f8a2a9-87f0-43d9-989c-e8c8b74b72ae","ios":"levelo://app?vid=02f8a2a9-87f0-43d9-989c-e8c8b74b72ae"},"vehicle_type_id":"4","last_reported":1686459984,"current_range_meters":31600,"station_id":"ce4bgt12rcd13ifvqcd0","pricing_plan_id":"free"},{"bike_id":"e0caafcf-1e0a-455f-9c56-99191e238920","system_id":"levelo_inurba_marseille","lat":43.314811,"lon":5.373103,"is_reserved":false,"is_disabled":false,"rental_uris":{"android":"levelo://app?vid=e0caafcf-1e0a-455f-9c56-99191e238920","ios":"levelo://app?vid=e0caafcf-1e0a-455f-9c56-99191e238920"},"vehicle_type_id":"4","last_reported":1686459984,"current_range_meters":31200,"station_id":"ce4bgt12rcd13ifvqcd0","pricing_plan_id":"free"},{"bike_id":"6f389c55-202b-4178-9e06-14ca94d24ba6","system_id":"levelo_inurba_marseille","lat":43.314811,"lon":5.373103,"is_reserved":false,"is_disabled":false,"rental_uris":{"android":"levelo://app?vid=6f389c55-202b-4178-9e06-14ca94d24ba6","ios":"levelo://app?vid=6f389c55-202b-4178-9e06-14ca94d24ba6"},"vehicle_type_id":"4","last_reported":1686459984,"current_range_meters":29200,"station_id":"ce4bgt12rcd13ifvqcd0","pricing_plan_id":"free"},{"bike_id":"45c34702-1c1a-49dc-8c15-84796b537b9a","system_id":"levelo_inurba_marseille","lat":43.314811,"lon":5.373103,"is_reserved":false,"is_disabled":false,"rental_uris":{"android":"levelo://app?vid=45c34702-1c1a-49dc-8c15-84796b537b9a","ios":"levelo://app?vid=45c34702-1c1a-49dc-8c15-84796b537b9a"},"vehicle_type_id":"4","last_reported":1686459984,"current_range_meters":30400,"station_id":"ce4bgt12rcd13ifvqcd0","pricing_plan_id":"free"},{"bike_id":"012e93f1-006d-472c-8506-53e3765960b4","system_id":"levelo_inurba_marseille","lat":43.314811,"lon":5.373104,"is_reserved":false,"is_disabled":false,"rental_uris":{"android":"levelo://app?vid=012e93f1-006d-472c-8506-53e3765960b4","ios":"levelo://app?vid=012e93f1-006d-472c-8506-53e3765960b4"},"vehicle_type_id":"4","last_reported":1686459984,"current_range_meters":19600,"station_id":"ce4bgt12rcd13ifvqcd0","pricing_plan_id":"free"},{"bike_id":"71e7ceb7-35a2-49ca-b5c0-c001fbc6f6c9","system_id":"levelo_inurba_marseille","lat":43.314811,"lon":5.373103,"is_reserved":false,"is_disabled":false,"rental_uris":{"android":"levelo://app?vid=71e7ceb7-35a2-49ca-b5c0-c001fbc6f6c9","ios":"levelo://app?vid=71e7ceb7-35a2-49ca-b5c0-c001fbc6f6c9"},"vehicle_type_id":"4","last_reported":1686459984,"current_range_meters":29200,"station_id":"ce4bgt12rcd13ifvqcd0","pricing_plan_id":"free"},{"bike_id":"bccdd6a5-4acd-4f36-84fe-dbfde9070eea","system_id":"levelo_inurba_marseille","lat":43.314811,"lon":5.373104,"is_reserved":false,"is_disabled":false,"rental_uris":{"android":"levelo://app?vid=bccdd6a5-4acd-4f36-84fe-dbfde9070eea","ios":"levelo://app?vid=bccdd6a5-4acd-4f36-84fe-dbfde9070eea"},"vehicle_type_id":"4","last_reported":1686459984,"current_range_meters":31600,"station_id":"ce4bgt12rcd13ifvqcd0","pricing_plan_id":"free"},{"bike_id":"8c9ddf23-33e2-41f5-82c7-ddc191677abb","system_id":"levelo_inurba_marseille","lat":43.31493,"lon":5.37306,"is_reserved":false,"is_disabled":false,"rental_uris":{"android":"levelo://app?vid=8c9ddf23-33e2-41f5-82c7-ddc191677abb","ios":"levelo://app?vid=8c9ddf23-33e2-41f5-82c7-ddc191677abb"},"vehicle_type_id":"4","last_reported":1686459984,"current_range_meters":28400,"station_id":"ce4bgt12rcd13ifvqcd0","pricing_plan_id":"free"},{"bike_id":"89a58938-98df-4e28-865c-9d518e77aa51","system_id":"levelo_inurba_marseille","lat":43.314811,"lon":5.373103,"is_reserved":false,"is_disabled":false,"rental_uris":{"android":"levelo://app?vid=89a58938-98df-4e28-865c-9d518e77aa51","ios":"levelo://app?vid=89a58938-98df-4e28-865c-9d518e77aa51"},"vehicle_type_id":"4","last_reported":1686459984,"current_range_meters":31600,"station_id":"ce4bgt12rcd13ifvqcd0","pricing_plan_id":"free"},{"bike_id":"febbd7eb-33ed-449d-b2a9-5bf98a8f91e5","system_id":"levelo_inurba_marseille","lat":43.314811,"lon":5.373103,"is_reserved":false,"is_disabled":false,"rental_uris":{"android":"levelo://app?vid=febbd7eb-33ed-449d-b2a9-5bf98a8f91e5","ios":"levelo://app?vid=febbd7eb-33ed-449d-b2a9-5bf98a8f91e5"},"vehicle_type_id":"4","last_reported":1686459984,"current_range_meters":31600,"station_id":"ce4bgt12rcd13ifvqcd0","pricing_plan_id":"free"},{"bike_id":"8d92bc27-d33c-47cf-9315-19c384c34864","system_id":"levelo_inurba_marseille","lat":43.314811,"lon":5.373104,"is_reserved":false,"is_disabled":false,"rental_uris":{"android":"levelo://app?vid=8d92bc27-d33c-47cf-9315-19c384c34864","ios":"levelo://app?vid=8d92bc27-d33c-47cf-9315-19c384c34864"},"vehicle_type_id":"4","last_reported":1686459984,"current_range_meters":31600,"station_id":"ce4bgt12rcd13ifvqcd0","pricing_plan_id":"free"},{"bike_id":"c76dd5cf-eee6-4f4f-adf5-c8da2444eac9","system_id":"levelo_inurba_marseille","lat":43.314811,"lon":5.373103,"is_reserved":false,"is_disabled":false,"rental_uris":{"android":"levelo://app?vid=c76dd5cf-eee6-4f4f-adf5-c8da2444eac9","ios":"levelo://app?vid=c76dd5cf-eee6-4f4f-adf5-c8da2444eac9"},"vehicle_type_id":"4","last_reported":1686459984,"current_range_meters":31600,"station_id":"ce4bgt12rcd13ifvqcd0","pricing_plan_id":"free"},{"bike_id":"5d4420b5-d8e0-4366-b2b5-42c41845f817","system_id":"levelo_inurba_marseille","lat":43.314811,"lon":5.373103,"is_reserved":false,"is_disabled":false,"rental_uris":{"android":"levelo://app?vid=5d4420b5-d8e0-4366-b2b5-42c41845f817","ios":"levelo://app?vid=5d4420b5-d8e0-4366-b2b5-42c41845f817"},"vehicle_type_id":"4","last_reported":1686459984,"current_range_meters":31600,"station_id":"ce4bgt12rcd13ifvqcd0","pricing_plan_id":"free"},{"bike_id":"8d3b9dd9-ad47-43a6-a2c2-0df64025aa90","system_id":"levelo_inurba_marseille","lat":43.314811,"lon":5.373103,"is_reserved":false,"is_disabled":false,"rental_uris":{"android":"levelo://app?vid=8d3b9dd9-ad47-43a6-a2c2-0df64025aa90","ios":"levelo://app?vid=8d3b9dd9-ad47-43a6-a2c2-0df64025aa90"},"vehicle_type_id":"4","last_reported":1686459984,"current_range_meters":31200,"station_id":"ce4bgt12rcd13ifvqcd0","pricing_plan_id":"free"},{"bike_id":"ed5ef7eb-e06d-43e9-aba4-8906267630d4","system_id":"levelo_inurba_marseille","lat":43.30898,"lon":5.37203,"is_reserved":false,"is_disabled":false,"rental_uris":{"android":"levelo://app?vid=ed5ef7eb-e06d-43e9-aba4-8906267630d4","ios":"levelo://app?vid=ed5ef7eb-e06d-43e9-aba4-8906267630d4"},"vehicle_type_id":"4","last_reported":1686459984,"current_range_meters":26000,"station_id":"","pricing_plan_id":"free"},{"bike_id":"f7776fdb-f2e7-4c5f-b393-50c52ac72473","system_id":"levelo_inurba_marseille","lat":43.308614,"lon":5.372098,"is_reserved":false,"is_disabled":false,"rental_uris":{"android":"levelo://app?vid=f7776fdb-f2e7-4c5f-b393-50c52ac72473","ios":"levelo://app?vid=f7776fdb-f2e7-4c5f-b393-50c52ac72473"},"vehicle_type_id":"4","last_reported":1686459984,"current_range_meters":26400,"station_id":"ce4bguh2rcd13ifvqckg","pricing_plan_id":"free"},{"bike_id":"726e69fe-0789-44cc-8872-aafade0684ce","system_id":"levelo_inurba_marseille","lat":43.306,"lon":5.36574,"is_reserved":false,"is_disabled":false,"rental_uris":{"android":"levelo://app?vid=726e69fe-0789-44cc-8872-aafade0684ce","ios":"levelo://app?vid=726e69fe-0789-44cc-8872-aafade0684ce"},"vehicle_type_id":"4","last_reported":1686459984,"current_range_meters":6400,"station_id":"","pricing_plan_id":"free"},{"bike_id":"094d6886-8b4d-451e-9e08-cfa9c34fde4d","system_id":"levelo_inurba_marseille","lat":43.305989,"lon":5.37225,"is_reserved":false,"is_disabled":false,"rental_uris":{"android":"levelo://app?vid=094d6886-8b4d-451e-9e08-cfa9c34fde4d","ios":"levelo://app?vid=094d6886-8b4d-451e-9e08-cfa9c34fde4d"},"vehicle_type_id":"4","last_reported":1686459984,"current_range_meters":30000,"station_id":"ce4bgqh2rcd13ifvqc4g","pricing_plan_id":"free"},{"bike_id":"f0c9c49e-d3c5-4eb8-988e-1863ce26c241","system_id":"levelo_inurba_marseille","lat":43.30609,"lon":5.37224,"is_reserved":false,"is_disabled":false,"rental_uris":{"android":"levelo://app?vid=f0c9c49e-d3c5-4eb8-988e-1863ce26c241","ios":"levelo://app?vid=f0c9c49e-d3c5-4eb8-988e-1863ce26c241"},"vehicle_type_id":"4","last_reported":1686459984,"current_range_meters":27200,"station_id":"ce4bgqh2rcd13ifvqc4g","pricing_plan_id":"free"},{"bike_id":"d1dfb593-53b7-49d3-92e2-377b36530255","system_id":"levelo_inurba_marseille","lat":43.305989,"lon":5.37225,"is_reserved":false,"is_disabled":false,"rental_uris":{"android":"levelo://app?vid=d1dfb593-53b7-49d3-92e2-377b36530255","ios":"levelo://app?vid=d1dfb593-53b7-49d3-92e2-377b36530255"},"vehicle_type_id":"4","last_reported":1686459984,"current_range_meters":21600,"station_id":"ce4bgqh2rcd13ifvqc4g","pricing_plan_id":"free"},{"bike_id":"64eedcf4-8f6b-47ef-b3d8-b8ca73d3a1b6","system_id":"levelo_inurba_marseille","lat":43.305989,"lon":5.37225,"is_reserved":false,"is_disabled":false,"rental_uris":{"android":"levelo://app?vid=64eedcf4-8f6b-47ef-b3d8-b8ca73d3a1b6","ios":"levelo://app?vid=64eedcf4-8f6b-47ef-b3d8-b8ca73d3a1b6"},"vehicle_type_id":"4","last_reported":1686459984,"current_range_meters":31200,"station_id":"ce4bgqh2rcd13ifvqc4g","pricing_plan_id":"free"},{"bike_id":"6266f872-a2e6-41b9-8964-71b439a7350a","system_id":"levelo_inurba_marseille","lat":43.305989,"lon":5.37225,"is_reserved":false,"is_disabled":false,"rental_uris":{"android":"levelo://app?vid=6266f872-a2e6-41b9-8964-71b439a7350a","ios":"levelo://app?vid=6266f872-a2e6-41b9-8964-71b439a7350a"},"vehicle_type_id":"4","last_reported":1686459984,"current_range_meters":26000,"station_id":"ce4bgqh2rcd13ifvqc4g","pricing_plan_id":"free"},{"bike_id":"429e2512-0ca0-4289-ac98-25bb5e1c7285","system_id":"levelo_inurba_marseille","lat":43.311131,"lon":5.377651,"is_reserved":false,"is_disabled":false,"rental_uris":{"android":"levelo://app?vid=429e2512-0ca0-4289-ac98-25bb5e1c7285","ios":"levelo://app?vid=429e2512-0ca0-4289-ac98-25bb5e1c7285"},"vehicle_type_id":"4","last_reported":1686459984,"current_range_meters":31600,"station_id":"ce4bgt92rcd13ifvqcg0","pricing_plan_id":"free"},{"bike_id":"47a45a6b-9228-47db-a310-0d104193a66d","system_id":"levelo_inurba_marseille","lat":43.305989,"lon":5.37225,"is_reserved":false,"is_disabled":false,"rental_uris":{"android":"levelo://app?vid=47a45a6b-9228-47db-a310-0d104193a66d","ios":"levelo://app?vid=47a45a6b-9228-47db-a310-0d104193a66d"},"vehicle_type_id":"4","last_reported":1686459984,"current_range_meters":30800,"station_id":"ce4bgqh2rcd13ifvqc4g","pricing_plan_id":"free"},{"bike_id":"a8d4b0a0-ae38-4ee2-a3a4-694c2fa387ae","system_id":"levelo_inurba_marseille","lat":43.311131,"lon":5.377651,"is_reserved":false,"is_disabled":false,"rental_uris":{"android":"levelo://app?vid=a8d4b0a0-ae38-4ee2-a3a4-694c2fa387ae","ios":"levelo://app?vid=a8d4b0a0-ae38-4ee2-a3a4-694c2fa387ae"},"vehicle_type_id":"4","last_reported":1686459984,"current_range_meters":24800,"station_id":"ce4bgt92rcd13ifvqcg0","pricing_plan_id":"free"},{"bike_id":"fbb08ee3-b3c5-42c3-b6b9-29890444a518","system_id":"levelo_inurba_marseille","lat":43.311131,"lon":5.377651,"is_reserved":false,"is_disabled":false,"rental_uris":{"android":"levelo://app?vid=fbb08ee3-b3c5-42c3-b6b9-29890444a518","ios":"levelo://app?vid=fbb08ee3-b3c5-42c3-b6b9-29890444a518"},"vehicle_type_id":"4","last_reported":1686459984,"current_range_meters":26000,"station_id":"ce4bgt92rcd13ifvqcg0","pricing_plan_id":"free"},{"bike_id":"98aa25d1-c212-41b1-af38-52fe7b6df99b","system_id":"levelo_inurba_marseille","lat":43.311131,"lon":5.377651,"is_reserved":false,"is_disabled":false,"rental_uris":{"android":"levelo://app?vid=98aa25d1-c212-41b1-af38-52fe7b6df99b","ios":"levelo://app?vid=98aa25d1-c212-41b1-af38-52fe7b6df99b"},"vehicle_type_id":"4","last_reported":1686459984,"current_range_meters":26400,"station_id":"ce4bgt92rcd13ifvqcg0","pricing_plan_id":"free"},{"bike_id":"2d99b220-53af-41f3-a711-560f0f0ed330","system_id":"levelo_inurba_marseille","lat":43.311131,"lon":5.377651,"is_reserved":false,"is_disabled":false,"rental_uris":{"android":"levelo://app?vid=2d99b220-53af-41f3-a711-560f0f0ed330","ios":"levelo://app?vid=2d99b220-53af-41f3-a711-560f0f0ed330"},"vehicle_type_id":"4","last_reported":1686459984,"current_range_meters":24800,"station_id":"ce4bgt92rcd13ifvqcg0","pricing_plan_id":"free"},{"bike_id":"ebb7f57d-5515-4750-b414-2bc3c6eb1801","system_id":"levelo_inurba_marseille","lat":43.311131,"lon":5.377651,"is_reserved":false,"is_disabled":false,"rental_uris":{"android":"levelo://app?vid=ebb7f57d-5515-4750-b414-2bc3c6eb1801","ios":"levelo://app?vid=ebb7f57d-5515-4750-b414-2bc3c6eb1801"},"vehicle_type_id":"4","last_reported":1686459984,"current_range_meters":31600,"station_id":"ce4bgt92rcd13ifvqcg0","pricing_plan_id":"free"},{"bike_id":"f326dbae-231f-4d7b-9f2f-a803b4321d13","system_id":"levelo_inurba_marseille","lat":43.311131,"lon":5.377651,"is_reserved":false,"is_disabled":false,"rental_uris":{"android":"levelo://app?vid=f326dbae-231f-4d7b-9f2f-a803b4321d13","ios":"levelo://app?vid=f326dbae-231f-4d7b-9f2f-a803b4321d13"},"vehicle_type_id":"4","last_reported":1686459984,"current_range_meters":22800,"station_id":"ce4bgt92rcd13ifvqcg0","pricing_plan_id":"free"},{"bike_id":"ea4131d0-9f1d-4483-8aee-b4211a9a301a","system_id":"levelo_inurba_marseille","lat":43.311131,"lon":5.377651,"is_reserved":false,"is_disabled":false,"rental_uris":{"android":"levelo://app?vid=ea4131d0-9f1d-4483-8aee-b4211a9a301a","ios":"levelo://app?vid=ea4131d0-9f1d-4483-8aee-b4211a9a301a"},"vehicle_type_id":"4","last_reported":1686459984,"current_range_meters":24400,"station_id":"ce4bgt92rcd13ifvqcg0","pricing_plan_id":"free"},{"bike_id":"aaeb49ef-80e5-4b99-a393-69eb3ec9f2f3","system_id":"levelo_inurba_marseille","lat":43.311125,"lon":5.377624,"is_reserved":false,"is_disabled":false,"rental_uris":{"android":"levelo://app?vid=aaeb49ef-80e5-4b99-a393-69eb3ec9f2f3","ios":"levelo://app?vid=aaeb49ef-80e5-4b99-a393-69eb3ec9f2f3"},"vehicle_type_id":"4","last_reported":1686459984,"current_range_meters":31600,"station_id":"ce4bgt92rcd13ifvqcg0","pricing_plan_id":"free"},{"bike_id":"16855f58-e3f3-4685-b06b-58ce6c329ded","system_id":"levelo_inurba_marseille","lat":43.311125,"lon":5.377624,"is_reserved":false,"is_disabled":false,"rental_uris":{"android":"levelo://app?vid=16855f58-e3f3-4685-b06b-58ce6c329ded","ios":"levelo://app?vid=16855f58-e3f3-4685-b06b-58ce6c329ded"},"vehicle_type_id":"4","last_reported":1686459984,"current_range_meters":30800,"station_id":"ce4bgt92rcd13ifvqcg0","pricing_plan_id":"free"},{"bike_id":"5729bfcc-57f5-48a8-a772-79d5adfa092e","system_id":"levelo_inurba_marseille","lat":43.311125,"lon":5.377624,"is_reserved":false,"is_disabled":false,"rental_uris":{"android":"levelo://app?vid=5729bfcc-57f5-48a8-a772-79d5adfa092e","ios":"levelo://app?vid=5729bfcc-57f5-48a8-a772-79d5adfa092e"},"vehicle_type_id":"4","last_reported":1686459984,"current_range_meters":30800,"station_id":"ce4bgt92rcd13ifvqcg0","pricing_plan_id":"free"},{"bike_id":"186952f1-df31-44d9-af01-c024a5fff464","system_id":"levelo_inurba_marseille","lat":43.311125,"lon":5.377624,"is_reserved":false,"is_disabled":false,"rental_uris":{"android":"levelo://app?vid=186952f1-df31-44d9-af01-c024a5fff464","ios":"levelo://app?vid=186952f1-df31-44d9-af01-c024a5fff464"},"vehicle_type_id":"4","last_reported":1686459984,"current_range_meters":31600,"station_id":"ce4bgt92rcd13ifvqcg0","pricing_plan_id":"free"},{"bike_id":"d9d6bd19-6872-41e5-974a-a24ead297816","system_id":"levelo_inurba_marseille","lat":43.311125,"lon":5.377624,"is_reserved":false,"is_disabled":false,"rental_uris":{"android":"levelo://app?vid=d9d6bd19-6872-41e5-974a-a24ead297816","ios":"levelo://app?vid=d9d6bd19-6872-41e5-974a-a24ead297816"},"vehicle_type_id":"4","last_reported":1686459984,"current_range_meters":31600,"station_id":"ce4bgt92rcd13ifvqcg0","pricing_plan_id":"free"},{"bike_id":"371e90ee-aa26-4a2a-8ff4-e0731e5f7267","system_id":"levelo_inurba_marseille","lat":43.317075,"lon":5.377367,"is_reserved":false,"is_disabled":false,"rental_uris":{"android":"levelo://app?vid=371e90ee-aa26-4a2a-8ff4-e0731e5f7267","ios":"levelo://app?vid=371e90ee-aa26-4a2a-8ff4-e0731e5f7267"},"vehicle_type_id":"4","last_reported":1686459984,"current_range_meters":29200,"station_id":"ce4bgth2rcd13ifvqch0","pricing_plan_id":"free"},{"bike_id":"9579acdd-c429-4bc3-aee6-d1e4494048db","system_id":"levelo_inurba_marseille","lat":43.303046,"lon":5.368981,"is_reserved":false,"is_disabled":false,"rental_uris":{"android":"levelo://app?vid=9579acdd-c429-4bc3-aee6-d1e4494048db","ios":"levelo://app?vid=9579acdd-c429-4bc3-aee6-d1e4494048db"},"vehicle_type_id":"4","last_reported":1686459984,"current_range_meters":22800,"station_id":"ce4bgqh2rcd13ifvqc5g","pricing_plan_id":"free"},{"bike_id":"9e35ff5f-b4f4-4fc7-857a-dc1a73272718","system_id":"levelo_inurba_marseille","lat":43.303046,"lon":5.368981,"is_reserved":false,"is_disabled":false,"rental_uris":{"android":"levelo://app?vid=9e35ff5f-b4f4-4fc7-857a-dc1a73272718","ios":"levelo://app?vid=9e35ff5f-b4f4-4fc7-857a-dc1a73272718"},"vehicle_type_id":"4","last_reported":1686459984,"current_range_meters":24400,"station_id":"ce4bgqh2rcd13ifvqc5g","pricing_plan_id":"free"},{"bike_id":"40c45a96-41e7-4845-b29e-052f5693b016","system_id":"levelo_inurba_marseille","lat":43.303046,"lon":5.368981,"is_reserved":false,"is_disabled":false,"rental_uris":{"android":"levelo://app?vid=40c45a96-41e7-4845-b29e-052f5693b016","ios":"levelo://app?vid=40c45a96-41e7-4845-b29e-052f5693b016"},"vehicle_type_id":"4","last_reported":1686459984,"current_range_meters":20400,"station_id":"ce4bgqh2rcd13ifvqc5g","pricing_plan_id":"free"},{"bike_id":"2705d3be-cb39-4bb1-998c-6dda311a5b54","system_id":"levelo_inurba_marseille","lat":43.303046,"lon":5.368981,"is_reserved":false,"is_disabled":false,"rental_uris":{"android":"levelo://app?vid=2705d3be-cb39-4bb1-998c-6dda311a5b54","ios":"levelo://app?vid=2705d3be-cb39-4bb1-998c-6dda311a5b54"},"vehicle_type_id":"4","last_reported":1686459984,"current_range_meters":22800,"station_id":"ce4bgqh2rcd13ifvqc5g","pricing_plan_id":"free"},{"bike_id":"cd18ccbf-25e0-4270-90e3-3ed6654d38d0","system_id":"levelo_inurba_marseille","lat":43.31553,"lon":5.38024,"is_reserved":false,"is_disabled":false,"rental_uris":{"android":"levelo://app?vid=cd18ccbf-25e0-4270-90e3-3ed6654d38d0","ios":"levelo://app?vid=cd18ccbf-25e0-4270-90e3-3ed6654d38d0"},"vehicle_type_id":"4","last_reported":1686459984,"current_range_meters":2400,"station_id":"ce4bhsp2rcd13ifvqi50","pricing_plan_id":"free"},{"bike_id":"f436b8ff-7d89-404d-923b-9f816988156c","system_id":"levelo_inurba_marseille","lat":43.30191,"lon":5.36617,"is_reserved":false,"is_disabled":false,"rental_uris":{"android":"levelo://app?vid=f436b8ff-7d89-404d-923b-9f816988156c","ios":"levelo://app?vid=f436b8ff-7d89-404d-923b-9f816988156c"},"vehicle_type_id":"4","last_reported":1686459984,"current_range_meters":21600,"station_id":"ce4bgrh2rcd13ifvqc8g","pricing_plan_id":"free"},{"bike_id":"e040aad6-6c5f-47ec-a76a-4f84b7020add","system_id":"levelo_inurba_marseille","lat":43.30178,"lon":5.36624,"is_reserved":false,"is_disabled":false,"rental_uris":{"android":"levelo://app?vid=e040aad6-6c5f-47ec-a76a-4f84b7020add","ios":"levelo://app?vid=e040aad6-6c5f-47ec-a76a-4f84b7020add"},"vehicle_type_id":"4","last_reported":1686459984,"current_range_meters":12400,"station_id":"ce4bgrh2rcd13ifvqc8g","pricing_plan_id":"free"},{"bike_id":"9129810f-81f1-413e-a766-7c370ac8cc6c","system_id":"levelo_inurba_marseille","lat":43.308012,"lon":5.381511,"is_reserved":false,"is_disabled":false,"rental_uris":{"android":"levelo://app?vid=9129810f-81f1-413e-a766-7c370ac8cc6c","ios":"levelo://app?vid=9129810f-81f1-413e-a766-7c370ac8cc6c"},"vehicle_type_id":"4","last_reported":1686459984,"current_range_meters":25600,"station_id":"ce4bgt12rcd13ifvqce0","pricing_plan_id":"free"},{"bike_id":"f9335c9f-51de-4e46-aaed-1e569ff9605a","system_id":"levelo_inurba_marseille","lat":43.308012,"lon":5.381511,"is_reserved":false,"is_disabled":false,"rental_uris":{"android":"levelo://app?vid=f9335c9f-51de-4e46-aaed-1e569ff9605a","ios":"levelo://app?vid=f9335c9f-51de-4e46-aaed-1e569ff9605a"},"vehicle_type_id":"4","last_reported":1686459984,"current_range_meters":18800,"station_id":"ce4bgt12rcd13ifvqce0","pricing_plan_id":"free"},{"bike_id":"0062235e-a976-4042-98e7-19a80b511e8a","system_id":"levelo_inurba_marseille","lat":43.308012,"lon":5.381511,"is_reserved":false,"is_disabled":false,"rental_uris":{"android":"levelo://app?vid=0062235e-a976-4042-98e7-19a80b511e8a","ios":"levelo://app?vid=0062235e-a976-4042-98e7-19a80b511e8a"},"vehicle_type_id":"4","last_reported":1686459984,"current_range_meters":22400,"station_id":"ce4bgt12rcd13ifvqce0","pricing_plan_id":"free"},{"bike_id":"ef366cb3-7b79-410e-a33b-2d4378c67def","system_id":"levelo_inurba_marseille","lat":43.308012,"lon":5.381511,"is_reserved":false,"is_disabled":false,"rental_uris":{"android":"levelo://app?vid=ef366cb3-7b79-410e-a33b-2d4378c67def","ios":"levelo://app?vid=ef366cb3-7b79-410e-a33b-2d4378c67def"},"vehicle_type_id":"4","last_reported":1686459984,"current_range_meters":27600,"station_id":"ce4bgt12rcd13ifvqce0","pricing_plan_id":"free"},{"bike_id":"f656eaf0-ad73-4d6b-8335-1ea8ed8c2341","system_id":"levelo_inurba_marseille","lat":43.308012,"lon":5.381511,"is_reserved":false,"is_disabled":false,"rental_uris":{"android":"levelo://app?vid=f656eaf0-ad73-4d6b-8335-1ea8ed8c2341","ios":"levelo://app?vid=f656eaf0-ad73-4d6b-8335-1ea8ed8c2341"},"vehicle_type_id":"4","last_reported":1686459984,"current_range_meters":31200,"station_id":"ce4bgt12rcd13ifvqce0","pricing_plan_id":"free"},{"bike_id":"64d72065-823a-49a8-9d94-b53dca989e04","system_id":"levelo_inurba_marseille","lat":43.308012,"lon":5.381511,"is_reserved":false,"is_disabled":false,"rental_uris":{"android":"levelo://app?vid=64d72065-823a-49a8-9d94-b53dca989e04","ios":"levelo://app?vid=64d72065-823a-49a8-9d94-b53dca989e04"},"vehicle_type_id":"4","last_reported":1686459984,"current_range_meters":31200,"station_id":"ce4bgt12rcd13ifvqce0","pricing_plan_id":"free"},{"bike_id":"2814e5b0-d009-43cf-a03d-bbef590807fa","system_id":"levelo_inurba_marseille","lat":43.308012,"lon":5.381511,"is_reserved":false,"is_disabled":false,"rental_uris":{"android":"levelo://app?vid=2814e5b0-d009-43cf-a03d-bbef590807fa","ios":"levelo://app?vid=2814e5b0-d009-43cf-a03d-bbef590807fa"},"vehicle_type_id":"4","last_reported":1686459984,"current_range_meters":26400,"station_id":"ce4bgt12rcd13ifvqce0","pricing_plan_id":"free"},{"bike_id":"c35c38d0-828d-489b-b1a4-d2a9f91eb7b4","system_id":"levelo_inurba_marseille","lat":43.304606,"lon":5.379026,"is_reserved":false,"is_disabled":false,"rental_uris":{"android":"levelo://app?vid=c35c38d0-828d-489b-b1a4-d2a9f91eb7b4","ios":"levelo://app?vid=c35c38d0-828d-489b-b1a4-d2a9f91eb7b4"},"vehicle_type_id":"4","last_reported":1686459984,"current_range_meters":6000,"station_id":"ce4bgup2rcd13ifvqcn0","pricing_plan_id":"free"},{"bike_id":"7392c51b-cc2c-4043-b6eb-3a58bb74edef","system_id":"levelo_inurba_marseille","lat":43.304606,"lon":5.379026,"is_reserved":false,"is_disabled":false,"rental_uris":{"android":"levelo://app?vid=7392c51b-cc2c-4043-b6eb-3a58bb74edef","ios":"levelo://app?vid=7392c51b-cc2c-4043-b6eb-3a58bb74edef"},"vehicle_type_id":"4","last_reported":1686459984,"current_range_meters":23600,"station_id":"ce4bgup2rcd13ifvqcn0","pricing_plan_id":"free"},{"bike_id":"3956b147-3935-411f-8248-1634f0ea0249","system_id":"levelo_inurba_marseille","lat":43.304606,"lon":5.379026,"is_reserved":false,"is_disabled":false,"rental_uris":{"android":"levelo://app?vid=3956b147-3935-411f-8248-1634f0ea0249","ios":"levelo://app?vid=3956b147-3935-411f-8248-1634f0ea0249"},"vehicle_type_id":"4","last_reported":1686459984,"current_range_meters":21200,"station_id":"ce4bgup2rcd13ifvqcn0","pricing_plan_id":"free"},{"bike_id":"5d2a241b-a31e-4c98-9d76-e06beb420f4f","system_id":"levelo_inurba_marseille","lat":43.30278,"lon":5.37706,"is_reserved":false,"is_disabled":false,"rental_uris":{"android":"levelo://app?vid=5d2a241b-a31e-4c98-9d76-e06beb420f4f","ios":"levelo://app?vid=5d2a241b-a31e-4c98-9d76-e06beb420f4f"},"vehicle_type_id":"4","last_reported":1686459984,"current_range_meters":0,"station_id":"ce4bguh2rcd13ifvqcj0","pricing_plan_id":"free"},{"bike_id":"90868aeb-5709-4f37-9c10-0a6725496544","system_id":"levelo_inurba_marseille","lat":43.30145,"lon":5.37414,"is_reserved":false,"is_disabled":false,"rental_uris":{"android":"levelo://app?vid=90868aeb-5709-4f37-9c10-0a6725496544","ios":"levelo://app?vid=90868aeb-5709-4f37-9c10-0a6725496544"},"vehicle_type_id":"4","last_reported":1686459984,"current_range_meters":25600,"station_id":"ce4bgs92rcd13ifvqcc0","pricing_plan_id":"free"},{"bike_id":"36965d37-2a05-487a-a47e-5918e3dd5723","system_id":"levelo_inurba_marseille","lat":43.30142,"lon":5.37412,"is_reserved":false,"is_disabled":false,"rental_uris":{"android":"levelo://app?vid=36965d37-2a05-487a-a47e-5918e3dd5723","ios":"levelo://app?vid=36965d37-2a05-487a-a47e-5918e3dd5723"},"vehicle_type_id":"4","last_reported":1686459984,"current_range_meters":31200,"station_id":"ce4bgs92rcd13ifvqcc0","pricing_plan_id":"free"},{"bike_id":"43d80386-46d7-4601-a3d9-fb77e0a9d70d","system_id":"levelo_inurba_marseille","lat":43.30136,"lon":5.37399,"is_reserved":false,"is_disabled":false,"rental_uris":{"android":"levelo://app?vid=43d80386-46d7-4601-a3d9-fb77e0a9d70d","ios":"levelo://app?vid=43d80386-46d7-4601-a3d9-fb77e0a9d70d"},"vehicle_type_id":"4","last_reported":1686459984,"current_range_meters":2000,"station_id":"ce4bgs92rcd13ifvqcc0","pricing_plan_id":"free"},{"bike_id":"b90cd9c0-0318-4bf3-8f04-a45bf783a99f","system_id":"levelo_inurba_marseille","lat":43.30139,"lon":5.37409,"is_reserved":false,"is_disabled":false,"rental_uris":{"android":"levelo://app?vid=b90cd9c0-0318-4bf3-8f04-a45bf783a99f","ios":"levelo://app?vid=b90cd9c0-0318-4bf3-8f04-a45bf783a99f"},"vehicle_type_id":"4","last_reported":1686459984,"current_range_meters":31200,"station_id":"ce4bgs92rcd13ifvqcc0","pricing_plan_id":"free"},{"bike_id":"09bc19a2-b266-4b6c-939f-801467ad67db","system_id":"levelo_inurba_marseille","lat":43.30134,"lon":5.3741,"is_reserved":false,"is_disabled":false,"rental_uris":{"android":"levelo://app?vid=09bc19a2-b266-4b6c-939f-801467ad67db","ios":"levelo://app?vid=09bc19a2-b266-4b6c-939f-801467ad67db"},"vehicle_type_id":"4","last_reported":1686459984,"current_range_meters":30400,"station_id":"ce4bgs92rcd13ifvqcc0","pricing_plan_id":"free"},{"bike_id":"1a1d24de-e763-4daf-8e89-4473e94a1b54","system_id":"levelo_inurba_marseille","lat":43.31996,"lon":5.38154,"is_reserved":false,"is_disabled":false,"rental_uris":{"android":"levelo://app?vid=1a1d24de-e763-4daf-8e89-4473e94a1b54","ios":"levelo://app?vid=1a1d24de-e763-4daf-8e89-4473e94a1b54"},"vehicle_type_id":"4","last_reported":1686459984,"current_range_meters":28800,"station_id":"ce4bhr12rcd13ifvqhpg","pricing_plan_id":"free"},{"bike_id":"4f8495d8-d01a-40e4-90a8-b4be238d8278","system_id":"levelo_inurba_marseille","lat":43.313571,"lon":5.384829,"is_reserved":false,"is_disabled":false,"rental_uris":{"android":"levelo://app?vid=4f8495d8-d01a-40e4-90a8-b4be238d8278","ios":"levelo://app?vid=4f8495d8-d01a-40e4-90a8-b4be238d8278"},"vehicle_type_id":"4","last_reported":1686459984,"current_range_meters":30400,"station_id":"ce4bgt92rcd13ifvqcf0","pricing_plan_id":"free"},{"bike_id":"5c2b779f-018a-4f0f-86f3-a820300c4f4f","system_id":"levelo_inurba_marseille","lat":43.30549,"lon":5.38432,"is_reserved":false,"is_disabled":false,"rental_uris":{"android":"levelo://app?vid=5c2b779f-018a-4f0f-86f3-a820300c4f4f","ios":"levelo://app?vid=5c2b779f-018a-4f0f-86f3-a820300c4f4f"},"vehicle_type_id":"4","last_reported":1686459984,"current_range_meters":27200,"station_id":"ce4bgg92rcd13ifvqb30","pricing_plan_id":"free"},{"bike_id":"39b60a7a-c79a-46a2-b1d6-f54343a77b7c","system_id":"levelo_inurba_marseille","lat":43.30554,"lon":5.38446,"is_reserved":false,"is_disabled":false,"rental_uris":{"android":"levelo://app?vid=39b60a7a-c79a-46a2-b1d6-f54343a77b7c","ios":"levelo://app?vid=39b60a7a-c79a-46a2-b1d6-f54343a77b7c"},"vehicle_type_id":"4","last_reported":1686459984,"current_range_meters":21600,"station_id":"ce4bgg92rcd13ifvqb30","pricing_plan_id":"free"},{"bike_id":"2e7ac725-fe13-4217-9ef7-aad83bc8f2d9","system_id":"levelo_inurba_marseille","lat":43.30537,"lon":5.38436,"is_reserved":false,"is_disabled":false,"rental_uris":{"android":"levelo://app?vid=2e7ac725-fe13-4217-9ef7-aad83bc8f2d9","ios":"levelo://app?vid=2e7ac725-fe13-4217-9ef7-aad83bc8f2d9"},"vehicle_type_id":"4","last_reported":1686459984,"current_range_meters":20800,"station_id":"ce4bgg92rcd13ifvqb30","pricing_plan_id":"free"},{"bike_id":"8d545691-9146-4a02-a796-809a154ec515","system_id":"levelo_inurba_marseille","lat":43.29789,"lon":5.37106,"is_reserved":false,"is_disabled":false,"rental_uris":{"android":"levelo://app?vid=8d545691-9146-4a02-a796-809a154ec515","ios":"levelo://app?vid=8d545691-9146-4a02-a796-809a154ec515"},"vehicle_type_id":"4","last_reported":1686459984,"current_range_meters":30000,"station_id":"ce4bgop2rcd13ifvqc1g","pricing_plan_id":"free"},{"bike_id":"4f3da90d-1b9f-4aab-af17-fe6b60ad804b","system_id":"levelo_inurba_marseille","lat":43.29789,"lon":5.37114,"is_reserved":false,"is_disabled":false,"rental_uris":{"android":"levelo://app?vid=4f3da90d-1b9f-4aab-af17-fe6b60ad804b","ios":"levelo://app?vid=4f3da90d-1b9f-4aab-af17-fe6b60ad804b"},"vehicle_type_id":"4","last_reported":1686459984,"current_range_meters":0,"station_id":"ce4bgop2rcd13ifvqc1g","pricing_plan_id":"free"},{"bike_id":"d96dcc96-ce3c-432f-8f37-1733de830b5a","system_id":"levelo_inurba_marseille","lat":43.328371,"lon":5.366909,"is_reserved":false,"is_disabled":false,"rental_uris":{"android":"levelo://app?vid=d96dcc96-ce3c-432f-8f37-1733de830b5a","ios":"levelo://app?vid=d96dcc96-ce3c-432f-8f37-1733de830b5a"},"vehicle_type_id":"4","last_reported":1686459984,"current_range_meters":28400,"station_id":"ce4bhs92rcd13ifvqi0g","pricing_plan_id":"free"},{"bike_id":"a171b683-f844-4b6f-8205-0c579bd8e9e8","system_id":"levelo_inurba_marseille","lat":43.328371,"lon":5.366909,"is_reserved":false,"is_disabled":false,"rental_uris":{"android":"levelo://app?vid=a171b683-f844-4b6f-8205-0c579bd8e9e8","ios":"levelo://app?vid=a171b683-f844-4b6f-8205-0c579bd8e9e8"},"vehicle_type_id":"4","last_reported":1686459984,"current_range_meters":28800,"station_id":"ce4bhs92rcd13ifvqi0g","pricing_plan_id":"free"},{"bike_id":"d2ee4f47-c99d-4207-bf1f-965db1bb1561","system_id":"levelo_inurba_marseille","lat":43.328371,"lon":5.366909,"is_reserved":false,"is_disabled":false,"rental_uris":{"android":"levelo://app?vid=d2ee4f47-c99d-4207-bf1f-965db1bb1561","ios":"levelo://app?vid=d2ee4f47-c99d-4207-bf1f-965db1bb1561"},"vehicle_type_id":"4","last_reported":1686459984,"current_range_meters":4400,"station_id":"ce4bhs92rcd13ifvqi0g","pricing_plan_id":"free"},{"bike_id":"646e9ad8-7b91-4157-a6bc-9b5f2ad20d49","system_id":"levelo_inurba_marseille","lat":43.328371,"lon":5.366912,"is_reserved":false,"is_disabled":false,"rental_uris":{"android":"levelo://app?vid=646e9ad8-7b91-4157-a6bc-9b5f2ad20d49","ios":"levelo://app?vid=646e9ad8-7b91-4157-a6bc-9b5f2ad20d49"},"vehicle_type_id":"4","last_reported":1686459984,"current_range_meters":4800,"station_id":"ce4bhs92rcd13ifvqi0g","pricing_plan_id":"free"},{"bike_id":"a0565906-42fe-436f-8a68-dac07fb0f6a4","system_id":"levelo_inurba_marseille","lat":43.328371,"lon":5.366912,"is_reserved":false,"is_disabled":false,"rental_uris":{"android":"levelo://app?vid=a0565906-42fe-436f-8a68-dac07fb0f6a4","ios":"levelo://app?vid=a0565906-42fe-436f-8a68-dac07fb0f6a4"},"vehicle_type_id":"4","last_reported":1686459984,"current_range_meters":26000,"station_id":"ce4bhs92rcd13ifvqi0g","pricing_plan_id":"free"},{"bike_id":"813c30a6-3fa2-46f4-b4e3-80d8e62c35c7","system_id":"levelo_inurba_marseille","lat":43.303687,"lon":5.384449,"is_reserved":false,"is_disabled":false,"rental_uris":{"android":"levelo://app?vid=813c30a6-3fa2-46f4-b4e3-80d8e62c35c7","ios":"levelo://app?vid=813c30a6-3fa2-46f4-b4e3-80d8e62c35c7"},"vehicle_type_id":"4","last_reported":1686459984,"current_range_meters":24800,"station_id":"ce4bgg92rcd13ifvqb30","pricing_plan_id":"free"},{"bike_id":"2b895108-4c7b-4899-b184-21a49ca60ff3","system_id":"levelo_inurba_marseille","lat":43.296935,"lon":5.376544,"is_reserved":false,"is_disabled":false,"rental_uris":{"android":"levelo://app?vid=2b895108-4c7b-4899-b184-21a49ca60ff3","ios":"levelo://app?vid=2b895108-4c7b-4899-b184-21a49ca60ff3"},"vehicle_type_id":"4","last_reported":1686459984,"current_range_meters":31200,"station_id":"ce4bgkh2rcd13ifvqbl0","pricing_plan_id":"free"},{"bike_id":"1a6c6873-0222-4cce-888b-8bf9bc82a049","system_id":"levelo_inurba_marseille","lat":43.296935,"lon":5.376544,"is_reserved":false,"is_disabled":false,"rental_uris":{"android":"levelo://app?vid=1a6c6873-0222-4cce-888b-8bf9bc82a049","ios":"levelo://app?vid=1a6c6873-0222-4cce-888b-8bf9bc82a049"},"vehicle_type_id":"4","last_reported":1686459984,"current_range_meters":31600,"station_id":"ce4bgkh2rcd13ifvqbl0","pricing_plan_id":"free"},{"bike_id":"f686fb8e-cdd5-40b6-a14e-996b86435c16","system_id":"levelo_inurba_marseille","lat":43.296935,"lon":5.376544,"is_reserved":false,"is_disabled":false,"rental_uris":{"android":"levelo://app?vid=f686fb8e-cdd5-40b6-a14e-996b86435c16","ios":"levelo://app?vid=f686fb8e-cdd5-40b6-a14e-996b86435c16"},"vehicle_type_id":"4","last_reported":1686459984,"current_range_meters":31200,"station_id":"ce4bgkh2rcd13ifvqbl0","pricing_plan_id":"free"},{"bike_id":"c67d8c79-240b-4be3-aa15-39640f6c59f8","system_id":"levelo_inurba_marseille","lat":43.299028,"lon":5.381509,"is_reserved":false,"is_disabled":false,"rental_uris":{"android":"levelo://app?vid=c67d8c79-240b-4be3-aa15-39640f6c59f8","ios":"levelo://app?vid=c67d8c79-240b-4be3-aa15-39640f6c59f8"},"vehicle_type_id":"4","last_reported":1686459984,"current_range_meters":29600,"station_id":"ce4bgj12rcd13ifvqbc0","pricing_plan_id":"free"},{"bike_id":"1c5b4e61-5774-4445-94f8-69660facbd18","system_id":"levelo_inurba_marseille","lat":43.317557,"lon":5.390173,"is_reserved":false,"is_disabled":false,"rental_uris":{"android":"levelo://app?vid=1c5b4e61-5774-4445-94f8-69660facbd18","ios":"levelo://app?vid=1c5b4e61-5774-4445-94f8-69660facbd18"},"vehicle_type_id":"4","last_reported":1686459984,"current_range_meters":30400,"station_id":"ce4bhqp2rcd13ifvqhng","pricing_plan_id":"free"},{"bike_id":"edb4b00b-d10f-4907-935d-7388eace0c3b","system_id":"levelo_inurba_marseille","lat":43.298037,"lon":5.381066,"is_reserved":false,"is_disabled":false,"rental_uris":{"android":"levelo://app?vid=edb4b00b-d10f-4907-935d-7388eace0c3b","ios":"levelo://app?vid=edb4b00b-d10f-4907-935d-7388eace0c3b"},"vehicle_type_id":"4","last_reported":1686459984,"current_range_meters":29200,"station_id":"ce4bgip2rcd13ifvqbb0","pricing_plan_id":"free"},{"bike_id":"0e4fc199-f1a6-4a7c-985f-d51d565ede81","system_id":"levelo_inurba_marseille","lat":43.29797,"lon":5.38098,"is_reserved":false,"is_disabled":false,"rental_uris":{"android":"levelo://app?vid=0e4fc199-f1a6-4a7c-985f-d51d565ede81","ios":"levelo://app?vid=0e4fc199-f1a6-4a7c-985f-d51d565ede81"},"vehicle_type_id":"4","last_reported":1686459984,"current_range_meters":0,"station_id":"ce4bgip2rcd13ifvqbb0","pricing_plan_id":"free"},{"bike_id":"4003db28-9bec-4a06-ae54-fdda353b3e4f","system_id":"levelo_inurba_marseille","lat":43.295748,"lon":5.37522,"is_reserved":false,"is_disabled":false,"rental_uris":{"android":"levelo://app?vid=4003db28-9bec-4a06-ae54-fdda353b3e4f","ios":"levelo://app?vid=4003db28-9bec-4a06-ae54-fdda353b3e4f"},"vehicle_type_id":"4","last_reported":1686459984,"current_range_meters":0,"station_id":"ce4bgh92rcd13ifvqb50","pricing_plan_id":"free"},{"bike_id":"c2390cd2-7ca6-47ce-a43a-1b80c9542138","system_id":"levelo_inurba_marseille","lat":43.295748,"lon":5.37522,"is_reserved":false,"is_disabled":false,"rental_uris":{"android":"levelo://app?vid=c2390cd2-7ca6-47ce-a43a-1b80c9542138","ios":"levelo://app?vid=c2390cd2-7ca6-47ce-a43a-1b80c9542138"},"vehicle_type_id":"4","last_reported":1686459984,"current_range_meters":30400,"station_id":"ce4bgh92rcd13ifvqb50","pricing_plan_id":"free"},{"bike_id":"d7f169c0-a9ec-4b3a-8e01-2c04fb4fda30","system_id":"levelo_inurba_marseille","lat":43.295748,"lon":5.37522,"is_reserved":false,"is_disabled":false,"rental_uris":{"android":"levelo://app?vid=d7f169c0-a9ec-4b3a-8e01-2c04fb4fda30","ios":"levelo://app?vid=d7f169c0-a9ec-4b3a-8e01-2c04fb4fda30"},"vehicle_type_id":"4","last_reported":1686459984,"current_range_meters":29600,"station_id":"ce4bgh92rcd13ifvqb50","pricing_plan_id":"free"},{"bike_id":"f619b8e5-7378-479e-8e54-cc493b248a3e","system_id":"levelo_inurba_marseille","lat":43.29794,"lon":5.3812,"is_reserved":false,"is_disabled":false,"rental_uris":{"android":"levelo://app?vid=f619b8e5-7378-479e-8e54-cc493b248a3e","ios":"levelo://app?vid=f619b8e5-7378-479e-8e54-cc493b248a3e"},"vehicle_type_id":"4","last_reported":1686459984,"current_range_meters":0,"station_id":"ce4bgip2rcd13ifvqbb0","pricing_plan_id":"free"},{"bike_id":"159a1095-63ba-413a-a60a-9d682af456f9","system_id":"levelo_inurba_marseille","lat":43.30426,"lon":5.388882,"is_reserved":false,"is_disabled":false,"rental_uris":{"android":"levelo://app?vid=159a1095-63ba-413a-a60a-9d682af456f9","ios":"levelo://app?vid=159a1095-63ba-413a-a60a-9d682af456f9"},"vehicle_type_id":"4","last_reported":1686459984,"current_range_meters":21600,"station_id":"","pricing_plan_id":"free"},{"bike_id":"94ac3cd6-3945-4952-b59c-87e77d3352c2","system_id":"levelo_inurba_marseille","lat":43.304274,"lon":5.388873,"is_reserved":false,"is_disabled":false,"rental_uris":{"android":"levelo://app?vid=94ac3cd6-3945-4952-b59c-87e77d3352c2","ios":"levelo://app?vid=94ac3cd6-3945-4952-b59c-87e77d3352c2"},"vehicle_type_id":"4","last_reported":1686459984,"current_range_meters":31200,"station_id":"ce4bgk12rcd13ifvqbi0","pricing_plan_id":"free"},{"bike_id":"6ed07436-99ea-44e5-9f24-a4adc80a1d96","system_id":"levelo_inurba_marseille","lat":43.304274,"lon":5.388873,"is_reserved":false,"is_disabled":false,"rental_uris":{"android":"levelo://app?vid=6ed07436-99ea-44e5-9f24-a4adc80a1d96","ios":"levelo://app?vid=6ed07436-99ea-44e5-9f24-a4adc80a1d96"},"vehicle_type_id":"4","last_reported":1686459984,"current_range_meters":20800,"station_id":"ce4bgk12rcd13ifvqbi0","pricing_plan_id":"free"},{"bike_id":"0be55c15-d5a5-46e2-8d5e-3dcdf53f4f29","system_id":"levelo_inurba_marseille","lat":43.304274,"lon":5.388873,"is_reserved":false,"is_disabled":false,"rental_uris":{"android":"levelo://app?vid=0be55c15-d5a5-46e2-8d5e-3dcdf53f4f29","ios":"levelo://app?vid=0be55c15-d5a5-46e2-8d5e-3dcdf53f4f29"},"vehicle_type_id":"4","last_reported":1686459984,"current_range_meters":31200,"station_id":"ce4bgk12rcd13ifvqbi0","pricing_plan_id":"free"},{"bike_id":"c762ac42-db14-46ff-b2b0-98a52e5c8d63","system_id":"levelo_inurba_marseille","lat":43.296263,"lon":5.377094,"is_reserved":false,"is_disabled":false,"rental_uris":{"android":"levelo://app?vid=c762ac42-db14-46ff-b2b0-98a52e5c8d63","ios":"levelo://app?vid=c762ac42-db14-46ff-b2b0-98a52e5c8d63"},"vehicle_type_id":"4","last_reported":1686459984,"current_range_meters":31200,"station_id":"ce4bgi92rcd13ifvqb90","pricing_plan_id":"free"},{"bike_id":"ec745e4c-eee7-4711-94cc-900238979b68","system_id":"levelo_inurba_marseille","lat":43.299717,"lon":5.384845,"is_reserved":false,"is_disabled":false,"rental_uris":{"android":"levelo://app?vid=ec745e4c-eee7-4711-94cc-900238979b68","ios":"levelo://app?vid=ec745e4c-eee7-4711-94cc-900238979b68"},"vehicle_type_id":"4","last_reported":1686459984,"current_range_meters":16000,"station_id":"ce4bgj92rcd13ifvqbd0","pricing_plan_id":"free"},{"bike_id":"3db23c4d-fe21-4d65-9801-7c9ca9abb154","system_id":"levelo_inurba_marseille","lat":43.32367,"lon":5.388836,"is_reserved":false,"is_disabled":false,"rental_uris":{"android":"levelo://app?vid=3db23c4d-fe21-4d65-9801-7c9ca9abb154","ios":"levelo://app?vid=3db23c4d-fe21-4d65-9801-7c9ca9abb154"},"vehicle_type_id":"4","last_reported":1686459984,"current_range_meters":13600,"station_id":"ce4bhqp2rcd13ifvqhog","pricing_plan_id":"free"},{"bike_id":"4b111394-dde9-48f7-8b66-ef650ea96860","system_id":"levelo_inurba_marseille","lat":43.32366,"lon":5.38884,"is_reserved":false,"is_disabled":false,"rental_uris":{"android":"levelo://app?vid=4b111394-dde9-48f7-8b66-ef650ea96860","ios":"levelo://app?vid=4b111394-dde9-48f7-8b66-ef650ea96860"},"vehicle_type_id":"4","last_reported":1686459984,"current_range_meters":0,"station_id":"ce4bhqp2rcd13ifvqhog","pricing_plan_id":"free"},{"bike_id":"dd66a00a-ae87-4f13-8320-0f02c4972732","system_id":"levelo_inurba_marseille","lat":43.323656,"lon":5.38888,"is_reserved":false,"is_disabled":false,"rental_uris":{"android":"levelo://app?vid=dd66a00a-ae87-4f13-8320-0f02c4972732","ios":"levelo://app?vid=dd66a00a-ae87-4f13-8320-0f02c4972732"},"vehicle_type_id":"4","last_reported":1686459984,"current_range_meters":14000,"station_id":"ce4bhqp2rcd13ifvqhog","pricing_plan_id":"free"},{"bike_id":"22094213-1579-403d-a960-85f6f9fe6d6d","system_id":"levelo_inurba_marseille","lat":43.29602,"lon":5.381084,"is_reserved":false,"is_disabled":false,"rental_uris":{"android":"levelo://app?vid=22094213-1579-403d-a960-85f6f9fe6d6d","ios":"levelo://app?vid=22094213-1579-403d-a960-85f6f9fe6d6d"},"vehicle_type_id":"4","last_reported":1686459984,"current_range_meters":29200,"station_id":"ce4bgl12rcd13ifvqbo0","pricing_plan_id":"free"},{"bike_id":"bc461419-5603-4598-a468-025fcc5b3d3b","system_id":"levelo_inurba_marseille","lat":43.293249,"lon":5.371578,"is_reserved":false,"is_disabled":false,"rental_uris":{"android":"levelo://app?vid=bc461419-5603-4598-a468-025fcc5b3d3b","ios":"levelo://app?vid=bc461419-5603-4598-a468-025fcc5b3d3b"},"vehicle_type_id":"4","last_reported":1686459984,"current_range_meters":30800,"station_id":"ce4bgh92rcd13ifvqb40","pricing_plan_id":"free"},{"bike_id":"6ea36e5e-0a32-4937-a77e-d2720f8c722d","system_id":"levelo_inurba_marseille","lat":43.29281,"lon":5.36841,"is_reserved":false,"is_disabled":false,"rental_uris":{"android":"levelo://app?vid=6ea36e5e-0a32-4937-a77e-d2720f8c722d","ios":"levelo://app?vid=6ea36e5e-0a32-4937-a77e-d2720f8c722d"},"vehicle_type_id":"4","last_reported":1686459984,"current_range_meters":27200,"station_id":"ce4bhbp2rcd13ifvqesg","pricing_plan_id":"free"},{"bike_id":"22c7ce6b-2319-45dc-9293-1ed99e112afd","system_id":"levelo_inurba_marseille","lat":43.29277,"lon":5.36791,"is_reserved":false,"is_disabled":false,"rental_uris":{"android":"levelo://app?vid=22c7ce6b-2319-45dc-9293-1ed99e112afd","ios":"levelo://app?vid=22c7ce6b-2319-45dc-9293-1ed99e112afd"},"vehicle_type_id":"4","last_reported":1686459984,"current_range_meters":28000,"station_id":"","pricing_plan_id":"free"},{"bike_id":"54848880-9c53-4dcf-a4c9-93cd23803694","system_id":"levelo_inurba_marseille","lat":43.292749,"lon":5.368402,"is_reserved":false,"is_disabled":false,"rental_uris":{"android":"levelo://app?vid=54848880-9c53-4dcf-a4c9-93cd23803694","ios":"levelo://app?vid=54848880-9c53-4dcf-a4c9-93cd23803694"},"vehicle_type_id":"4","last_reported":1686459984,"current_range_meters":31600,"station_id":"ce4bhbp2rcd13ifvqesg","pricing_plan_id":"free"},{"bike_id":"5a0f676d-74bb-4d6f-a82f-ce5823d75fa8","system_id":"levelo_inurba_marseille","lat":43.289184,"lon":5.366408,"is_reserved":false,"is_disabled":false,"rental_uris":{"android":"levelo://app?vid=5a0f676d-74bb-4d6f-a82f-ce5823d75fa8","ios":"levelo://app?vid=5a0f676d-74bb-4d6f-a82f-ce5823d75fa8"},"vehicle_type_id":"4","last_reported":1686459984,"current_range_meters":16400,"station_id":"ce4bhap2rcd13ifvqek0","pricing_plan_id":"free"},{"bike_id":"904ffdda-3d1c-4f8e-b4e3-2c8cc8cb204e","system_id":"levelo_inurba_marseille","lat":43.293009,"lon":5.374584,"is_reserved":false,"is_disabled":false,"rental_uris":{"android":"levelo://app?vid=904ffdda-3d1c-4f8e-b4e3-2c8cc8cb204e","ios":"levelo://app?vid=904ffdda-3d1c-4f8e-b4e3-2c8cc8cb204e"},"vehicle_type_id":"4","last_reported":1686459984,"current_range_meters":30800,"station_id":"ce4bgi12rcd13ifvqb70","pricing_plan_id":"free"},{"bike_id":"58403448-7411-48be-82ab-c17ab95a3cf4","system_id":"levelo_inurba_marseille","lat":43.302992,"lon":5.392136,"is_reserved":false,"is_disabled":false,"rental_uris":{"android":"levelo://app?vid=58403448-7411-48be-82ab-c17ab95a3cf4","ios":"levelo://app?vid=58403448-7411-48be-82ab-c17ab95a3cf4"},"vehicle_type_id":"4","last_reported":1686459984,"current_range_meters":10400,"station_id":"ce4bgkh2rcd13ifvqbk0","pricing_plan_id":"free"},{"bike_id":"141aa33d-60a4-40a2-8993-15ed530a8e09","system_id":"levelo_inurba_marseille","lat":43.30302,"lon":5.39214,"is_reserved":false,"is_disabled":false,"rental_uris":{"android":"levelo://app?vid=141aa33d-60a4-40a2-8993-15ed530a8e09","ios":"levelo://app?vid=141aa33d-60a4-40a2-8993-15ed530a8e09"},"vehicle_type_id":"4","last_reported":1686459984,"current_range_meters":16400,"station_id":"ce4bgkh2rcd13ifvqbk0","pricing_plan_id":"free"},{"bike_id":"328fba44-d9f9-43bc-80dd-c98681088656","system_id":"levelo_inurba_marseille","lat":43.303,"lon":5.39214,"is_reserved":false,"is_disabled":false,"rental_uris":{"android":"levelo://app?vid=328fba44-d9f9-43bc-80dd-c98681088656","ios":"levelo://app?vid=328fba44-d9f9-43bc-80dd-c98681088656"},"vehicle_type_id":"4","last_reported":1686459984,"current_range_meters":0,"station_id":"ce4bgkh2rcd13ifvqbk0","pricing_plan_id":"free"},{"bike_id":"61e4ccfd-dc98-4837-8123-2dfa5e087f42","system_id":"levelo_inurba_marseille","lat":43.293723,"lon":5.378443,"is_reserved":false,"is_disabled":false,"rental_uris":{"android":"levelo://app?vid=61e4ccfd-dc98-4837-8123-2dfa5e087f42","ios":"levelo://app?vid=61e4ccfd-dc98-4837-8123-2dfa5e087f42"},"vehicle_type_id":"4","last_reported":1686459984,"current_range_meters":1200,"station_id":"","pricing_plan_id":"free"},{"bike_id":"9bbc5d33-d244-473e-8ade-b1017ab56cbc","system_id":"levelo_inurba_marseille","lat":43.2936,"lon":5.37835,"is_reserved":false,"is_disabled":false,"rental_uris":{"android":"levelo://app?vid=9bbc5d33-d244-473e-8ade-b1017ab56cbc","ios":"levelo://app?vid=9bbc5d33-d244-473e-8ade-b1017ab56cbc"},"vehicle_type_id":"4","last_reported":1686459984,"current_range_meters":29200,"station_id":"ce4bgjh2rcd13ifvqbf0","pricing_plan_id":"free"},{"bike_id":"319421d1-0a77-46da-b134-bba23cabe2b6","system_id":"levelo_inurba_marseille","lat":43.31367,"lon":5.39684,"is_reserved":false,"is_disabled":false,"rental_uris":{"android":"levelo://app?vid=319421d1-0a77-46da-b134-bba23cabe2b6","ios":"levelo://app?vid=319421d1-0a77-46da-b134-bba23cabe2b6"},"vehicle_type_id":"4","last_reported":1686459984,"current_range_meters":800,"station_id":"","pricing_plan_id":"free"},{"bike_id":"cd310b02-826c-429c-93fb-6e0471de4029","system_id":"levelo_inurba_marseille","lat":43.309038,"lon":5.396546,"is_reserved":false,"is_disabled":false,"rental_uris":{"android":"levelo://app?vid=cd310b02-826c-429c-93fb-6e0471de4029","ios":"levelo://app?vid=cd310b02-826c-429c-93fb-6e0471de4029"},"vehicle_type_id":"4","last_reported":1686459984,"current_range_meters":30400,"station_id":"ce4bh012rcd13ifvqcv0","pricing_plan_id":"free"},{"bike_id":"45d73caf-3064-466c-bc94-dd4ced404678","system_id":"levelo_inurba_marseille","lat":43.309038,"lon":5.396546,"is_reserved":false,"is_disabled":false,"rental_uris":{"android":"levelo://app?vid=45d73caf-3064-466c-bc94-dd4ced404678","ios":"levelo://app?vid=45d73caf-3064-466c-bc94-dd4ced404678"},"vehicle_type_id":"4","last_reported":1686459984,"current_range_meters":17600,"station_id":"ce4bh012rcd13ifvqcv0","pricing_plan_id":"free"},{"bike_id":"e894dd1e-50e4-4aae-ab8c-6c0c68354e13","system_id":"levelo_inurba_marseille","lat":43.309038,"lon":5.396546,"is_reserved":false,"is_disabled":false,"rental_uris":{"android":"levelo://app?vid=e894dd1e-50e4-4aae-ab8c-6c0c68354e13","ios":"levelo://app?vid=e894dd1e-50e4-4aae-ab8c-6c0c68354e13"},"vehicle_type_id":"4","last_reported":1686459984,"current_range_meters":31200,"station_id":"ce4bh012rcd13ifvqcv0","pricing_plan_id":"free"},{"bike_id":"a922a9f5-fea5-49ff-ac01-d12f16622f4e","system_id":"levelo_inurba_marseille","lat":43.31392,"lon":5.39711,"is_reserved":false,"is_disabled":false,"rental_uris":{"android":"levelo://app?vid=a922a9f5-fea5-49ff-ac01-d12f16622f4e","ios":"levelo://app?vid=a922a9f5-fea5-49ff-ac01-d12f16622f4e"},"vehicle_type_id":"4","last_reported":1686459984,"current_range_meters":18400,"station_id":"","pricing_plan_id":"free"},{"bike_id":"41179885-7b5f-4a97-b02a-d6d81b0123d6","system_id":"levelo_inurba_marseille","lat":43.302008,"lon":5.394694,"is_reserved":false,"is_disabled":false,"rental_uris":{"android":"levelo://app?vid=41179885-7b5f-4a97-b02a-d6d81b0123d6","ios":"levelo://app?vid=41179885-7b5f-4a97-b02a-d6d81b0123d6"},"vehicle_type_id":"4","last_reported":1686459984,"current_range_meters":25600,"station_id":"ce4bh0p2rcd13ifvqd70","pricing_plan_id":"free"},{"bike_id":"32c8d485-c4c0-426b-a614-dcdc99aeb113","system_id":"levelo_inurba_marseille","lat":43.30209,"lon":5.394718,"is_reserved":false,"is_disabled":false,"rental_uris":{"android":"levelo://app?vid=32c8d485-c4c0-426b-a614-dcdc99aeb113","ios":"levelo://app?vid=32c8d485-c4c0-426b-a614-dcdc99aeb113"},"vehicle_type_id":"4","last_reported":1686459984,"current_range_meters":31600,"station_id":"ce4bh0p2rcd13ifvqd70","pricing_plan_id":"free"},{"bike_id":"b0f7445b-bd50-415f-87ee-ace3a2d1b20f","system_id":"levelo_inurba_marseille","lat":43.302088,"lon":5.394725,"is_reserved":false,"is_disabled":false,"rental_uris":{"android":"levelo://app?vid=b0f7445b-bd50-415f-87ee-ace3a2d1b20f","ios":"levelo://app?vid=b0f7445b-bd50-415f-87ee-ace3a2d1b20f"},"vehicle_type_id":"4","last_reported":1686459984,"current_range_meters":26800,"station_id":"ce4bh0p2rcd13ifvqd70","pricing_plan_id":"free"},{"bike_id":"6f7632e9-a74f-4e6d-b89e-ff4a88a433a4","system_id":"levelo_inurba_marseille","lat":43.29031,"lon":5.35929,"is_reserved":false,"is_disabled":false,"rental_uris":{"android":"levelo://app?vid=6f7632e9-a74f-4e6d-b89e-ff4a88a433a4","ios":"levelo://app?vid=6f7632e9-a74f-4e6d-b89e-ff4a88a433a4"},"vehicle_type_id":"4","last_reported":1686459984,"current_range_meters":30800,"station_id":"ce4bha92rcd13ifvqeg0","pricing_plan_id":"free"},{"bike_id":"5fa8efe5-0e64-4163-9948-49c9aac2fbcd","system_id":"levelo_inurba_marseille","lat":43.289184,"lon":5.366408,"is_reserved":false,"is_disabled":false,"rental_uris":{"android":"levelo://app?vid=5fa8efe5-0e64-4163-9948-49c9aac2fbcd","ios":"levelo://app?vid=5fa8efe5-0e64-4163-9948-49c9aac2fbcd"},"vehicle_type_id":"4","last_reported":1686459984,"current_range_meters":28000,"station_id":"ce4bhap2rcd13ifvqek0","pricing_plan_id":"free"},{"bike_id":"8d3e0a2e-0c27-47f8-9355-29619f617a83","system_id":"levelo_inurba_marseille","lat":43.289184,"lon":5.366408,"is_reserved":false,"is_disabled":false,"rental_uris":{"android":"levelo://app?vid=8d3e0a2e-0c27-47f8-9355-29619f617a83","ios":"levelo://app?vid=8d3e0a2e-0c27-47f8-9355-29619f617a83"},"vehicle_type_id":"4","last_reported":1686459984,"current_range_meters":31200,"station_id":"ce4bhap2rcd13ifvqek0","pricing_plan_id":"free"},{"bike_id":"4e446d59-9020-45f6-ac58-492e3704dd36","system_id":"levelo_inurba_marseille","lat":43.289184,"lon":5.366408,"is_reserved":false,"is_disabled":false,"rental_uris":{"android":"levelo://app?vid=4e446d59-9020-45f6-ac58-492e3704dd36","ios":"levelo://app?vid=4e446d59-9020-45f6-ac58-492e3704dd36"},"vehicle_type_id":"4","last_reported":1686459984,"current_range_meters":31600,"station_id":"ce4bhap2rcd13ifvqek0","pricing_plan_id":"free"},{"bike_id":"646bc190-4b8b-4af5-b724-6ef01e001c8a","system_id":"levelo_inurba_marseille","lat":43.289184,"lon":5.366408,"is_reserved":false,"is_disabled":false,"rental_uris":{"android":"levelo://app?vid=646bc190-4b8b-4af5-b724-6ef01e001c8a","ios":"levelo://app?vid=646bc190-4b8b-4af5-b724-6ef01e001c8a"},"vehicle_type_id":"4","last_reported":1686459984,"current_range_meters":31600,"station_id":"ce4bhap2rcd13ifvqek0","pricing_plan_id":"free"},{"bike_id":"b53dd95a-0659-4b94-b495-3d83f652ee12","system_id":"levelo_inurba_marseille","lat":43.290327,"lon":5.375711,"is_reserved":false,"is_disabled":false,"rental_uris":{"android":"levelo://app?vid=b53dd95a-0659-4b94-b495-3d83f652ee12","ios":"levelo://app?vid=b53dd95a-0659-4b94-b495-3d83f652ee12"},"vehicle_type_id":"4","last_reported":1686459984,"current_range_meters":0,"station_id":"ce4bh692rcd13ifvqe90","pricing_plan_id":"free"},{"bike_id":"7d9a1af0-d912-4e92-a7b5-52c67c6ba49b","system_id":"levelo_inurba_marseille","lat":43.289184,"lon":5.366408,"is_reserved":false,"is_disabled":false,"rental_uris":{"android":"levelo://app?vid=7d9a1af0-d912-4e92-a7b5-52c67c6ba49b","ios":"levelo://app?vid=7d9a1af0-d912-4e92-a7b5-52c67c6ba49b"},"vehicle_type_id":"4","last_reported":1686459984,"current_range_meters":30000,"station_id":"ce4bhap2rcd13ifvqek0","pricing_plan_id":"free"},{"bike_id":"8a5b41da-e67a-4ced-b46c-a639e671c776","system_id":"levelo_inurba_marseille","lat":43.289184,"lon":5.366408,"is_reserved":false,"is_disabled":false,"rental_uris":{"android":"levelo://app?vid=8a5b41da-e67a-4ced-b46c-a639e671c776","ios":"levelo://app?vid=8a5b41da-e67a-4ced-b46c-a639e671c776"},"vehicle_type_id":"4","last_reported":1686459984,"current_range_meters":22000,"station_id":"ce4bhap2rcd13ifvqek0","pricing_plan_id":"free"},{"bike_id":"86fcef90-4ff8-4ff3-b259-682223fdc02b","system_id":"levelo_inurba_marseille","lat":43.289184,"lon":5.366408,"is_reserved":false,"is_disabled":false,"rental_uris":{"android":"levelo://app?vid=86fcef90-4ff8-4ff3-b259-682223fdc02b","ios":"levelo://app?vid=86fcef90-4ff8-4ff3-b259-682223fdc02b"},"vehicle_type_id":"4","last_reported":1686459984,"current_range_meters":31600,"station_id":"ce4bhap2rcd13ifvqek0","pricing_plan_id":"free"},{"bike_id":"431c0b23-96b9-47e5-a0a9-9d507bc7c559","system_id":"levelo_inurba_marseille","lat":43.289184,"lon":5.366408,"is_reserved":false,"is_disabled":false,"rental_uris":{"android":"levelo://app?vid=431c0b23-96b9-47e5-a0a9-9d507bc7c559","ios":"levelo://app?vid=431c0b23-96b9-47e5-a0a9-9d507bc7c559"},"vehicle_type_id":"4","last_reported":1686459984,"current_range_meters":28000,"station_id":"ce4bhap2rcd13ifvqek0","pricing_plan_id":"free"},{"bike_id":"5bc69d4e-2347-4a6d-a142-093fbdc38229","system_id":"levelo_inurba_marseille","lat":43.289468,"lon":5.363719,"is_reserved":false,"is_disabled":false,"rental_uris":{"android":"levelo://app?vid=5bc69d4e-2347-4a6d-a142-093fbdc38229","ios":"levelo://app?vid=5bc69d4e-2347-4a6d-a142-093fbdc38229"},"vehicle_type_id":"4","last_reported":1686459984,"current_range_meters":29200,"station_id":"ce4bhc92rcd13ifvqetg","pricing_plan_id":"free"},{"bike_id":"c9e4a2c4-af76-4018-ad02-101199c994ed","system_id":"levelo_inurba_marseille","lat":43.289468,"lon":5.363719,"is_reserved":false,"is_disabled":false,"rental_uris":{"android":"levelo://app?vid=c9e4a2c4-af76-4018-ad02-101199c994ed","ios":"levelo://app?vid=c9e4a2c4-af76-4018-ad02-101199c994ed"},"vehicle_type_id":"4","last_reported":1686459984,"current_range_meters":29600,"station_id":"ce4bhc92rcd13ifvqetg","pricing_plan_id":"free"},{"bike_id":"c4a70924-50ca-48f6-be6f-388b7cf78ab7","system_id":"levelo_inurba_marseille","lat":43.330341,"lon":5.389162,"is_reserved":false,"is_disabled":false,"rental_uris":{"android":"levelo://app?vid=c4a70924-50ca-48f6-be6f-388b7cf78ab7","ios":"levelo://app?vid=c4a70924-50ca-48f6-be6f-388b7cf78ab7"},"vehicle_type_id":"4","last_reported":1686459984,"current_range_meters":26800,"station_id":"ce4bhr92rcd13ifvqhrg","pricing_plan_id":"free"},{"bike_id":"f5ce4ece-64a0-44e8-b195-d07a1364e948","system_id":"levelo_inurba_marseille","lat":43.330367,"lon":5.389155,"is_reserved":false,"is_disabled":false,"rental_uris":{"android":"levelo://app?vid=f5ce4ece-64a0-44e8-b195-d07a1364e948","ios":"levelo://app?vid=f5ce4ece-64a0-44e8-b195-d07a1364e948"},"vehicle_type_id":"4","last_reported":1686459984,"current_range_meters":23600,"station_id":"ce4bhr92rcd13ifvqhrg","pricing_plan_id":"free"},{"bike_id":"791edcab-44f2-4826-bf51-ee66af80f2ec","system_id":"levelo_inurba_marseille","lat":43.33042,"lon":5.38916,"is_reserved":false,"is_disabled":false,"rental_uris":{"android":"levelo://app?vid=791edcab-44f2-4826-bf51-ee66af80f2ec","ios":"levelo://app?vid=791edcab-44f2-4826-bf51-ee66af80f2ec"},"vehicle_type_id":"4","last_reported":1686459984,"current_range_meters":26000,"station_id":"ce4bhr92rcd13ifvqhrg","pricing_plan_id":"free"},{"bike_id":"9c5e6858-421f-4e0e-8152-986ab4399106","system_id":"levelo_inurba_marseille","lat":43.33041,"lon":5.3892,"is_reserved":false,"is_disabled":false,"rental_uris":{"android":"levelo://app?vid=9c5e6858-421f-4e0e-8152-986ab4399106","ios":"levelo://app?vid=9c5e6858-421f-4e0e-8152-986ab4399106"},"vehicle_type_id":"4","last_reported":1686459984,"current_range_meters":24800,"station_id":"ce4bhr92rcd13ifvqhrg","pricing_plan_id":"free"},{"bike_id":"a99f7f58-4b79-4059-b63e-da9934bca2d0","system_id":"levelo_inurba_marseille","lat":43.33041,"lon":5.38922,"is_reserved":false,"is_disabled":false,"rental_uris":{"android":"levelo://app?vid=a99f7f58-4b79-4059-b63e-da9934bca2d0","ios":"levelo://app?vid=a99f7f58-4b79-4059-b63e-da9934bca2d0"},"vehicle_type_id":"4","last_reported":1686459984,"current_range_meters":30800,"station_id":"ce4bhr92rcd13ifvqhrg","pricing_plan_id":"free"},{"bike_id":"e9170bf1-c1d4-4557-956e-3de979f19338","system_id":"levelo_inurba_marseille","lat":43.290057,"lon":5.356213,"is_reserved":false,"is_disabled":false,"rental_uris":{"android":"levelo://app?vid=e9170bf1-c1d4-4557-956e-3de979f19338","ios":"levelo://app?vid=e9170bf1-c1d4-4557-956e-3de979f19338"},"vehicle_type_id":"4","last_reported":1686459984,"current_range_meters":10000,"station_id":"","pricing_plan_id":"free"},{"bike_id":"64f81127-7584-4d13-8c2b-ddb58f27fb4c","system_id":"levelo_inurba_marseille","lat":43.3304,"lon":5.38925,"is_reserved":false,"is_disabled":false,"rental_uris":{"android":"levelo://app?vid=64f81127-7584-4d13-8c2b-ddb58f27fb4c","ios":"levelo://app?vid=64f81127-7584-4d13-8c2b-ddb58f27fb4c"},"vehicle_type_id":"4","last_reported":1686459984,"current_range_meters":26400,"station_id":"ce4bhr92rcd13ifvqhrg","pricing_plan_id":"free"},{"bike_id":"04bf548d-fbde-4fd0-8951-4981764fbf55","system_id":"levelo_inurba_marseille","lat":43.33044,"lon":5.38922,"is_reserved":false,"is_disabled":false,"rental_uris":{"android":"levelo://app?vid=04bf548d-fbde-4fd0-8951-4981764fbf55","ios":"levelo://app?vid=04bf548d-fbde-4fd0-8951-4981764fbf55"},"vehicle_type_id":"4","last_reported":1686459984,"current_range_meters":20000,"station_id":"ce4bhr92rcd13ifvqhrg","pricing_plan_id":"free"},{"bike_id":"4377dcd6-98ee-4ec2-afb7-10b1e3a18b38","system_id":"levelo_inurba_marseille","lat":43.33047,"lon":5.38919,"is_reserved":false,"is_disabled":false,"rental_uris":{"android":"levelo://app?vid=4377dcd6-98ee-4ec2-afb7-10b1e3a18b38","ios":"levelo://app?vid=4377dcd6-98ee-4ec2-afb7-10b1e3a18b38"},"vehicle_type_id":"4","last_reported":1686459984,"current_range_meters":21600,"station_id":"ce4bhr92rcd13ifvqhrg","pricing_plan_id":"free"},{"bike_id":"eebb0572-4916-4105-a791-7d74572be411","system_id":"levelo_inurba_marseille","lat":43.290103,"lon":5.356114,"is_reserved":false,"is_disabled":false,"rental_uris":{"android":"levelo://app?vid=eebb0572-4916-4105-a791-7d74572be411","ios":"levelo://app?vid=eebb0572-4916-4105-a791-7d74572be411"},"vehicle_type_id":"4","last_reported":1686459984,"current_range_meters":2800,"station_id":"ce4bhb92rcd13ifvqen0","pricing_plan_id":"free"},{"bike_id":"8a74edc7-c27c-4999-bd0e-863e43bae0f7","system_id":"levelo_inurba_marseille","lat":43.33049,"lon":5.3892,"is_reserved":false,"is_disabled":false,"rental_uris":{"android":"levelo://app?vid=8a74edc7-c27c-4999-bd0e-863e43bae0f7","ios":"levelo://app?vid=8a74edc7-c27c-4999-bd0e-863e43bae0f7"},"vehicle_type_id":"4","last_reported":1686459984,"current_range_meters":25200,"station_id":"ce4bhr92rcd13ifvqhrg","pricing_plan_id":"free"},{"bike_id":"018edadd-bd92-4efc-9bb3-0c4c46e7d1fc","system_id":"levelo_inurba_marseille","lat":43.290995,"lon":5.381361,"is_reserved":false,"is_disabled":false,"rental_uris":{"android":"levelo://app?vid=018edadd-bd92-4efc-9bb3-0c4c46e7d1fc","ios":"levelo://app?vid=018edadd-bd92-4efc-9bb3-0c4c46e7d1fc"},"vehicle_type_id":"4","last_reported":1686459984,"current_range_meters":29200,"station_id":"ce4bh512rcd13ifvqe2g","pricing_plan_id":"free"},{"bike_id":"3af57cdb-c9cb-4dd0-9135-5d48bb0aa874","system_id":"levelo_inurba_marseille","lat":43.290995,"lon":5.381361,"is_reserved":false,"is_disabled":false,"rental_uris":{"android":"levelo://app?vid=3af57cdb-c9cb-4dd0-9135-5d48bb0aa874","ios":"levelo://app?vid=3af57cdb-c9cb-4dd0-9135-5d48bb0aa874"},"vehicle_type_id":"4","last_reported":1686459984,"current_range_meters":17200,"station_id":"ce4bh512rcd13ifvqe2g","pricing_plan_id":"free"},{"bike_id":"f3feca80-8ae6-4851-b4f1-de55ae63afed","system_id":"levelo_inurba_marseille","lat":43.290995,"lon":5.381361,"is_reserved":false,"is_disabled":false,"rental_uris":{"android":"levelo://app?vid=f3feca80-8ae6-4851-b4f1-de55ae63afed","ios":"levelo://app?vid=f3feca80-8ae6-4851-b4f1-de55ae63afed"},"vehicle_type_id":"4","last_reported":1686459984,"current_range_meters":27200,"station_id":"ce4bh512rcd13ifvqe2g","pricing_plan_id":"free"},{"bike_id":"7f525faf-7d2a-4953-9ff4-03e0eca15657","system_id":"levelo_inurba_marseille","lat":43.290995,"lon":5.381361,"is_reserved":false,"is_disabled":false,"rental_uris":{"android":"levelo://app?vid=7f525faf-7d2a-4953-9ff4-03e0eca15657","ios":"levelo://app?vid=7f525faf-7d2a-4953-9ff4-03e0eca15657"},"vehicle_type_id":"4","last_reported":1686459984,"current_range_meters":26400,"station_id":"ce4bh512rcd13ifvqe2g","pricing_plan_id":"free"},{"bike_id":"7537e0bb-ac0e-4add-8892-13dc1070e106","system_id":"levelo_inurba_marseille","lat":43.290995,"lon":5.381361,"is_reserved":false,"is_disabled":false,"rental_uris":{"android":"levelo://app?vid=7537e0bb-ac0e-4add-8892-13dc1070e106","ios":"levelo://app?vid=7537e0bb-ac0e-4add-8892-13dc1070e106"},"vehicle_type_id":"4","last_reported":1686459984,"current_range_meters":26400,"station_id":"ce4bh512rcd13ifvqe2g","pricing_plan_id":"free"},{"bike_id":"092c298e-5226-4323-b6c2-19514b2eb340","system_id":"levelo_inurba_marseille","lat":43.290995,"lon":5.381361,"is_reserved":false,"is_disabled":false,"rental_uris":{"android":"levelo://app?vid=092c298e-5226-4323-b6c2-19514b2eb340","ios":"levelo://app?vid=092c298e-5226-4323-b6c2-19514b2eb340"},"vehicle_type_id":"4","last_reported":1686459984,"current_range_meters":31200,"station_id":"ce4bh512rcd13ifvqe2g","pricing_plan_id":"free"},{"bike_id":"8ce5bc91-f5dc-4850-9113-f123bed6fac5","system_id":"levelo_inurba_marseille","lat":43.297814,"lon":5.393513,"is_reserved":false,"is_disabled":false,"rental_uris":{"android":"levelo://app?vid=8ce5bc91-f5dc-4850-9113-f123bed6fac5","ios":"levelo://app?vid=8ce5bc91-f5dc-4850-9113-f123bed6fac5"},"vehicle_type_id":"4","last_reported":1686459984,"current_range_meters":0,"station_id":"chh1huq6cuj3fo74tm60","pricing_plan_id":"free"},{"bike_id":"3f671c10-ef24-4dbe-a07f-9991053c5276","system_id":"levelo_inurba_marseille","lat":43.297814,"lon":5.393513,"is_reserved":false,"is_disabled":false,"rental_uris":{"android":"levelo://app?vid=3f671c10-ef24-4dbe-a07f-9991053c5276","ios":"levelo://app?vid=3f671c10-ef24-4dbe-a07f-9991053c5276"},"vehicle_type_id":"4","last_reported":1686459984,"current_range_meters":24800,"station_id":"chh1huq6cuj3fo74tm60","pricing_plan_id":"free"},{"bike_id":"d8bfccca-46b6-4170-ac79-8e5fbda63a04","system_id":"levelo_inurba_marseille","lat":43.289741,"lon":5.378306,"is_reserved":false,"is_disabled":false,"rental_uris":{"android":"levelo://app?vid=d8bfccca-46b6-4170-ac79-8e5fbda63a04","ios":"levelo://app?vid=d8bfccca-46b6-4170-ac79-8e5fbda63a04"},"vehicle_type_id":"4","last_reported":1686459984,"current_range_meters":31200,"station_id":"ce4bh9p2rcd13ifvqed0","pricing_plan_id":"free"},{"bike_id":"b6bcbdd0-fec8-4d78-b1f0-c89addd8912b","system_id":"levelo_inurba_marseille","lat":43.289741,"lon":5.378306,"is_reserved":false,"is_disabled":false,"rental_uris":{"android":"levelo://app?vid=b6bcbdd0-fec8-4d78-b1f0-c89addd8912b","ios":"levelo://app?vid=b6bcbdd0-fec8-4d78-b1f0-c89addd8912b"},"vehicle_type_id":"4","last_reported":1686459984,"current_range_meters":31200,"station_id":"ce4bh9p2rcd13ifvqed0","pricing_plan_id":"free"},{"bike_id":"b68c1151-c2c6-45b0-8068-48bdc81ec5d3","system_id":"levelo_inurba_marseille","lat":43.289741,"lon":5.378306,"is_reserved":false,"is_disabled":false,"rental_uris":{"android":"levelo://app?vid=b68c1151-c2c6-45b0-8068-48bdc81ec5d3","ios":"levelo://app?vid=b68c1151-c2c6-45b0-8068-48bdc81ec5d3"},"vehicle_type_id":"4","last_reported":1686459984,"current_range_meters":31600,"station_id":"ce4bh9p2rcd13ifvqed0","pricing_plan_id":"free"},{"bike_id":"6801266e-161d-4e18-bf06-0ae576cc929f","system_id":"levelo_inurba_marseille","lat":43.289741,"lon":5.378306,"is_reserved":false,"is_disabled":false,"rental_uris":{"android":"levelo://app?vid=6801266e-161d-4e18-bf06-0ae576cc929f","ios":"levelo://app?vid=6801266e-161d-4e18-bf06-0ae576cc929f"},"vehicle_type_id":"4","last_reported":1686459984,"current_range_meters":14000,"station_id":"ce4bh9p2rcd13ifvqed0","pricing_plan_id":"free"},{"bike_id":"4bdd0679-0efd-468b-a6b5-aa88181ec59a","system_id":"levelo_inurba_marseille","lat":43.28856,"lon":5.358371,"is_reserved":false,"is_disabled":false,"rental_uris":{"android":"levelo://app?vid=4bdd0679-0efd-468b-a6b5-aa88181ec59a","ios":"levelo://app?vid=4bdd0679-0efd-468b-a6b5-aa88181ec59a"},"vehicle_type_id":"4","last_reported":1686459984,"current_range_meters":26400,"station_id":"ce4bhb12rcd13ifvqem0","pricing_plan_id":"free"},{"bike_id":"42c1de33-6185-4344-8c22-3126c1134e4c","system_id":"levelo_inurba_marseille","lat":43.28809,"lon":5.36249,"is_reserved":false,"is_disabled":false,"rental_uris":{"android":"levelo://app?vid=42c1de33-6185-4344-8c22-3126c1134e4c","ios":"levelo://app?vid=42c1de33-6185-4344-8c22-3126c1134e4c"},"vehicle_type_id":"4","last_reported":1686459984,"current_range_meters":16800,"station_id":"","pricing_plan_id":"free"},{"bike_id":"b4e23db2-8369-40b9-b2d6-1d12698e957f","system_id":"levelo_inurba_marseille","lat":43.28856,"lon":5.358371,"is_reserved":false,"is_disabled":false,"rental_uris":{"android":"levelo://app?vid=b4e23db2-8369-40b9-b2d6-1d12698e957f","ios":"levelo://app?vid=b4e23db2-8369-40b9-b2d6-1d12698e957f"},"vehicle_type_id":"4","last_reported":1686459984,"current_range_meters":31200,"station_id":"ce4bhb12rcd13ifvqem0","pricing_plan_id":"free"},{"bike_id":"d1e79c47-88c0-41ec-bfd8-d2ccd28a6cf0","system_id":"levelo_inurba_marseille","lat":43.33745,"lon":5.37464,"is_reserved":false,"is_disabled":false,"rental_uris":{"android":"levelo://app?vid=d1e79c47-88c0-41ec-bfd8-d2ccd28a6cf0","ios":"levelo://app?vid=d1e79c47-88c0-41ec-bfd8-d2ccd28a6cf0"},"vehicle_type_id":"4","last_reported":1686459984,"current_range_meters":30800,"station_id":"","pricing_plan_id":"free"},{"bike_id":"41dc07ab-a6f4-4ddf-b71e-eb145564ea17","system_id":"levelo_inurba_marseille","lat":43.33754,"lon":5.37442,"is_reserved":false,"is_disabled":false,"rental_uris":{"android":"levelo://app?vid=41dc07ab-a6f4-4ddf-b71e-eb145564ea17","ios":"levelo://app?vid=41dc07ab-a6f4-4ddf-b71e-eb145564ea17"},"vehicle_type_id":"4","last_reported":1686459984,"current_range_meters":30400,"station_id":"","pricing_plan_id":"free"},{"bike_id":"645f64ee-7683-400e-9cbb-33ac173343ee","system_id":"levelo_inurba_marseille","lat":43.33753,"lon":5.37453,"is_reserved":false,"is_disabled":false,"rental_uris":{"android":"levelo://app?vid=645f64ee-7683-400e-9cbb-33ac173343ee","ios":"levelo://app?vid=645f64ee-7683-400e-9cbb-33ac173343ee"},"vehicle_type_id":"4","last_reported":1686459984,"current_range_meters":11600,"station_id":"","pricing_plan_id":"free"},{"bike_id":"dd8fc20e-ceef-4860-9e44-ab6c2126786e","system_id":"levelo_inurba_marseille","lat":43.309371,"lon":5.401449,"is_reserved":false,"is_disabled":false,"rental_uris":{"android":"levelo://app?vid=dd8fc20e-ceef-4860-9e44-ab6c2126786e","ios":"levelo://app?vid=dd8fc20e-ceef-4860-9e44-ab6c2126786e"},"vehicle_type_id":"4","last_reported":1686459984,"current_range_meters":20800,"station_id":"ce4bgvp2rcd13ifvqct0","pricing_plan_id":"free"},{"bike_id":"37cee0ba-3dd4-4dcf-9974-5ef8119d86a9","system_id":"levelo_inurba_marseille","lat":43.309371,"lon":5.401449,"is_reserved":false,"is_disabled":false,"rental_uris":{"android":"levelo://app?vid=37cee0ba-3dd4-4dcf-9974-5ef8119d86a9","ios":"levelo://app?vid=37cee0ba-3dd4-4dcf-9974-5ef8119d86a9"},"vehicle_type_id":"4","last_reported":1686459984,"current_range_meters":24400,"station_id":"ce4bgvp2rcd13ifvqct0","pricing_plan_id":"free"},{"bike_id":"265c0905-166c-408b-8d33-95a8e86424e1","system_id":"levelo_inurba_marseille","lat":43.337582,"lon":5.374483,"is_reserved":false,"is_disabled":false,"rental_uris":{"android":"levelo://app?vid=265c0905-166c-408b-8d33-95a8e86424e1","ios":"levelo://app?vid=265c0905-166c-408b-8d33-95a8e86424e1"},"vehicle_type_id":"4","last_reported":1686459984,"current_range_meters":13600,"station_id":"","pricing_plan_id":"free"},{"bike_id":"4b8fc8d2-f260-4739-8677-25f38678a220","system_id":"levelo_inurba_marseille","lat":43.30642,"lon":5.401031,"is_reserved":false,"is_disabled":false,"rental_uris":{"android":"levelo://app?vid=4b8fc8d2-f260-4739-8677-25f38678a220","ios":"levelo://app?vid=4b8fc8d2-f260-4739-8677-25f38678a220"},"vehicle_type_id":"4","last_reported":1686459984,"current_range_meters":30000,"station_id":"ce4bh112rcd13ifvqda0","pricing_plan_id":"free"},{"bike_id":"5872a32f-7a50-4f75-8ca6-84aaea759e0f","system_id":"levelo_inurba_marseille","lat":43.306412,"lon":5.401035,"is_reserved":false,"is_disabled":false,"rental_uris":{"android":"levelo://app?vid=5872a32f-7a50-4f75-8ca6-84aaea759e0f","ios":"levelo://app?vid=5872a32f-7a50-4f75-8ca6-84aaea759e0f"},"vehicle_type_id":"4","last_reported":1686459984,"current_range_meters":31200,"station_id":"ce4bh112rcd13ifvqda0","pricing_plan_id":"free"},{"bike_id":"76ce4ebb-f816-440b-9633-2901ecffdfe0","system_id":"levelo_inurba_marseille","lat":43.30648,"lon":5.40085,"is_reserved":false,"is_disabled":false,"rental_uris":{"android":"levelo://app?vid=76ce4ebb-f816-440b-9633-2901ecffdfe0","ios":"levelo://app?vid=76ce4ebb-f816-440b-9633-2901ecffdfe0"},"vehicle_type_id":"4","last_reported":1686459984,"current_range_meters":31200,"station_id":"ce4bh112rcd13ifvqda0","pricing_plan_id":"free"},{"bike_id":"73d08f7d-c593-4dff-bac6-8ddab710f1fd","system_id":"levelo_inurba_marseille","lat":43.30642,"lon":5.401031,"is_reserved":false,"is_disabled":false,"rental_uris":{"android":"levelo://app?vid=73d08f7d-c593-4dff-bac6-8ddab710f1fd","ios":"levelo://app?vid=73d08f7d-c593-4dff-bac6-8ddab710f1fd"},"vehicle_type_id":"4","last_reported":1686459984,"current_range_meters":26800,"station_id":"ce4bh112rcd13ifvqda0","pricing_plan_id":"free"},{"bike_id":"f3500618-1e32-4d5b-8f2a-9fde05440a04","system_id":"levelo_inurba_marseille","lat":43.30642,"lon":5.401031,"is_reserved":false,"is_disabled":false,"rental_uris":{"android":"levelo://app?vid=f3500618-1e32-4d5b-8f2a-9fde05440a04","ios":"levelo://app?vid=f3500618-1e32-4d5b-8f2a-9fde05440a04"},"vehicle_type_id":"4","last_reported":1686459984,"current_range_meters":13200,"station_id":"ce4bh112rcd13ifvqda0","pricing_plan_id":"free"},{"bike_id":"14946bac-dd0f-430f-bc17-2752e45d5a94","system_id":"levelo_inurba_marseille","lat":43.306412,"lon":5.401035,"is_reserved":false,"is_disabled":false,"rental_uris":{"android":"levelo://app?vid=14946bac-dd0f-430f-bc17-2752e45d5a94","ios":"levelo://app?vid=14946bac-dd0f-430f-bc17-2752e45d5a94"},"vehicle_type_id":"4","last_reported":1686459984,"current_range_meters":30000,"station_id":"ce4bh112rcd13ifvqda0","pricing_plan_id":"free"},{"bike_id":"fb041ec1-b611-46eb-9d8b-3229cfb3396a","system_id":"levelo_inurba_marseille","lat":43.33768,"lon":5.37459,"is_reserved":false,"is_disabled":false,"rental_uris":{"android":"levelo://app?vid=fb041ec1-b611-46eb-9d8b-3229cfb3396a","ios":"levelo://app?vid=fb041ec1-b611-46eb-9d8b-3229cfb3396a"},"vehicle_type_id":"4","last_reported":1686459984,"current_range_meters":20800,"station_id":"","pricing_plan_id":"free"},{"bike_id":"e0979c68-1ad8-4441-aea3-b41f9546fadc","system_id":"levelo_inurba_marseille","lat":43.301117,"lon":5.398795,"is_reserved":false,"is_disabled":false,"rental_uris":{"android":"levelo://app?vid=e0979c68-1ad8-4441-aea3-b41f9546fadc","ios":"levelo://app?vid=e0979c68-1ad8-4441-aea3-b41f9546fadc"},"vehicle_type_id":"4","last_reported":1686459984,"current_range_meters":31200,"station_id":"ce4bh0h2rcd13ifvqd40","pricing_plan_id":"free"},{"bike_id":"fb957a57-520a-4147-9ed8-f29af5d43da6","system_id":"levelo_inurba_marseille","lat":43.30138,"lon":5.39874,"is_reserved":false,"is_disabled":false,"rental_uris":{"android":"levelo://app?vid=fb957a57-520a-4147-9ed8-f29af5d43da6","ios":"levelo://app?vid=fb957a57-520a-4147-9ed8-f29af5d43da6"},"vehicle_type_id":"4","last_reported":1686459984,"current_range_meters":26000,"station_id":"ce4bh0h2rcd13ifvqd40","pricing_plan_id":"free"},{"bike_id":"46614cc3-78f5-4e00-b7cf-ace4ef28b883","system_id":"levelo_inurba_marseille","lat":43.301117,"lon":5.398795,"is_reserved":false,"is_disabled":false,"rental_uris":{"android":"levelo://app?vid=46614cc3-78f5-4e00-b7cf-ace4ef28b883","ios":"levelo://app?vid=46614cc3-78f5-4e00-b7cf-ace4ef28b883"},"vehicle_type_id":"4","last_reported":1686459984,"current_range_meters":30400,"station_id":"ce4bh0h2rcd13ifvqd40","pricing_plan_id":"free"},{"bike_id":"d8e815a0-71d3-480a-90f9-ccfc65f737ee","system_id":"levelo_inurba_marseille","lat":43.301117,"lon":5.398795,"is_reserved":false,"is_disabled":false,"rental_uris":{"android":"levelo://app?vid=d8e815a0-71d3-480a-90f9-ccfc65f737ee","ios":"levelo://app?vid=d8e815a0-71d3-480a-90f9-ccfc65f737ee"},"vehicle_type_id":"4","last_reported":1686459984,"current_range_meters":31200,"station_id":"ce4bh0h2rcd13ifvqd40","pricing_plan_id":"free"},{"bike_id":"1fbecf42-43b0-4666-8cf0-d2f18e804fc6","system_id":"levelo_inurba_marseille","lat":43.301117,"lon":5.398795,"is_reserved":false,"is_disabled":false,"rental_uris":{"android":"levelo://app?vid=1fbecf42-43b0-4666-8cf0-d2f18e804fc6","ios":"levelo://app?vid=1fbecf42-43b0-4666-8cf0-d2f18e804fc6"},"vehicle_type_id":"4","last_reported":1686459984,"current_range_meters":19200,"station_id":"ce4bh0h2rcd13ifvqd40","pricing_plan_id":"free"},{"bike_id":"054f3258-74c2-49b9-a978-1d1f04fe1d4c","system_id":"levelo_inurba_marseille","lat":43.3013,"lon":5.39885,"is_reserved":false,"is_disabled":false,"rental_uris":{"android":"levelo://app?vid=054f3258-74c2-49b9-a978-1d1f04fe1d4c","ios":"levelo://app?vid=054f3258-74c2-49b9-a978-1d1f04fe1d4c"},"vehicle_type_id":"4","last_reported":1686459984,"current_range_meters":16000,"station_id":"ce4bh0h2rcd13ifvqd40","pricing_plan_id":"free"},{"bike_id":"1fe62604-96f6-44aa-8414-72561b2124aa","system_id":"levelo_inurba_marseille","lat":43.28665,"lon":5.36358,"is_reserved":false,"is_disabled":false,"rental_uris":{"android":"levelo://app?vid=1fe62604-96f6-44aa-8414-72561b2124aa","ios":"levelo://app?vid=1fe62604-96f6-44aa-8414-72561b2124aa"},"vehicle_type_id":"4","last_reported":1686459984,"current_range_meters":28400,"station_id":"ce4bhah2rcd13ifvqej0","pricing_plan_id":"free"},{"bike_id":"f3c3356b-8d79-4c10-bd73-3e8bc98dd6fb","system_id":"levelo_inurba_marseille","lat":43.298681,"lon":5.397225,"is_reserved":false,"is_disabled":false,"rental_uris":{"android":"levelo://app?vid=f3c3356b-8d79-4c10-bd73-3e8bc98dd6fb","ios":"levelo://app?vid=f3c3356b-8d79-4c10-bd73-3e8bc98dd6fb"},"vehicle_type_id":"4","last_reported":1686459984,"current_range_meters":26000,"station_id":"ce4bh0h2rcd13ifvqd50","pricing_plan_id":"free"},{"bike_id":"025e0c3c-abd2-4c5d-b1aa-d7aff8dd6945","system_id":"levelo_inurba_marseille","lat":43.298681,"lon":5.397225,"is_reserved":false,"is_disabled":false,"rental_uris":{"android":"levelo://app?vid=025e0c3c-abd2-4c5d-b1aa-d7aff8dd6945","ios":"levelo://app?vid=025e0c3c-abd2-4c5d-b1aa-d7aff8dd6945"},"vehicle_type_id":"4","last_reported":1686459984,"current_range_meters":29600,"station_id":"ce4bh0h2rcd13ifvqd50","pricing_plan_id":"free"},{"bike_id":"866c35be-3ebd-4fb8-9f99-e7fd582d19aa","system_id":"levelo_inurba_marseille","lat":43.286591,"lon":5.363346,"is_reserved":false,"is_disabled":false,"rental_uris":{"android":"levelo://app?vid=866c35be-3ebd-4fb8-9f99-e7fd582d19aa","ios":"levelo://app?vid=866c35be-3ebd-4fb8-9f99-e7fd582d19aa"},"vehicle_type_id":"4","last_reported":1686459984,"current_range_meters":29200,"station_id":"ce4bhah2rcd13ifvqej0","pricing_plan_id":"free"},{"bike_id":"51187d16-c3d4-4e32-86a3-c72134eaf816","system_id":"levelo_inurba_marseille","lat":43.286591,"lon":5.363346,"is_reserved":false,"is_disabled":false,"rental_uris":{"android":"levelo://app?vid=51187d16-c3d4-4e32-86a3-c72134eaf816","ios":"levelo://app?vid=51187d16-c3d4-4e32-86a3-c72134eaf816"},"vehicle_type_id":"4","last_reported":1686459984,"current_range_meters":22400,"station_id":"ce4bhah2rcd13ifvqej0","pricing_plan_id":"free"},{"bike_id":"a56c4e3d-b7c9-43c0-a4b5-5b68d9eccc7e","system_id":"levelo_inurba_marseille","lat":43.286591,"lon":5.363346,"is_reserved":false,"is_disabled":false,"rental_uris":{"android":"levelo://app?vid=a56c4e3d-b7c9-43c0-a4b5-5b68d9eccc7e","ios":"levelo://app?vid=a56c4e3d-b7c9-43c0-a4b5-5b68d9eccc7e"},"vehicle_type_id":"4","last_reported":1686459984,"current_range_meters":30400,"station_id":"ce4bhah2rcd13ifvqej0","pricing_plan_id":"free"},{"bike_id":"316cc035-6022-4252-9c6e-04616c79370b","system_id":"levelo_inurba_marseille","lat":43.286591,"lon":5.363346,"is_reserved":false,"is_disabled":false,"rental_uris":{"android":"levelo://app?vid=316cc035-6022-4252-9c6e-04616c79370b","ios":"levelo://app?vid=316cc035-6022-4252-9c6e-04616c79370b"},"vehicle_type_id":"4","last_reported":1686459984,"current_range_meters":27600,"station_id":"ce4bhah2rcd13ifvqej0","pricing_plan_id":"free"},{"bike_id":"b349cddc-5b10-48ad-a2fc-0b37fb6afd70","system_id":"levelo_inurba_marseille","lat":43.302759,"lon":5.400793,"is_reserved":false,"is_disabled":false,"rental_uris":{"android":"levelo://app?vid=b349cddc-5b10-48ad-a2fc-0b37fb6afd70","ios":"levelo://app?vid=b349cddc-5b10-48ad-a2fc-0b37fb6afd70"},"vehicle_type_id":"4","last_reported":1686459984,"current_range_meters":29200,"station_id":"ce4bgvh2rcd13ifvqcs0","pricing_plan_id":"free"},{"bike_id":"a4bae2de-0104-4799-82f0-4056442c651a","system_id":"levelo_inurba_marseille","lat":43.302759,"lon":5.400793,"is_reserved":false,"is_disabled":false,"rental_uris":{"android":"levelo://app?vid=a4bae2de-0104-4799-82f0-4056442c651a","ios":"levelo://app?vid=a4bae2de-0104-4799-82f0-4056442c651a"},"vehicle_type_id":"4","last_reported":1686459984,"current_range_meters":24800,"station_id":"ce4bgvh2rcd13ifvqcs0","pricing_plan_id":"free"},{"bike_id":"03433924-2b7e-40c7-bdb2-74f496fec7af","system_id":"levelo_inurba_marseille","lat":43.302759,"lon":5.400793,"is_reserved":false,"is_disabled":false,"rental_uris":{"android":"levelo://app?vid=03433924-2b7e-40c7-bdb2-74f496fec7af","ios":"levelo://app?vid=03433924-2b7e-40c7-bdb2-74f496fec7af"},"vehicle_type_id":"4","last_reported":1686459984,"current_range_meters":30000,"station_id":"ce4bgvh2rcd13ifvqcs0","pricing_plan_id":"free"},{"bike_id":"57495e2d-ba09-41f9-a17b-a36636913101","system_id":"levelo_inurba_marseille","lat":43.316517,"lon":5.404375,"is_reserved":false,"is_disabled":false,"rental_uris":{"android":"levelo://app?vid=57495e2d-ba09-41f9-a17b-a36636913101","ios":"levelo://app?vid=57495e2d-ba09-41f9-a17b-a36636913101"},"vehicle_type_id":"4","last_reported":1686459984,"current_range_meters":8000,"station_id":"ce4bh012rcd13ifvqd00","pricing_plan_id":"free"},{"bike_id":"0647a80c-abb4-47d6-b01e-4d40da61227a","system_id":"levelo_inurba_marseille","lat":43.316517,"lon":5.404375,"is_reserved":false,"is_disabled":false,"rental_uris":{"android":"levelo://app?vid=0647a80c-abb4-47d6-b01e-4d40da61227a","ios":"levelo://app?vid=0647a80c-abb4-47d6-b01e-4d40da61227a"},"vehicle_type_id":"4","last_reported":1686459984,"current_range_meters":24800,"station_id":"ce4bh012rcd13ifvqd00","pricing_plan_id":"free"},{"bike_id":"815b724d-2b84-4ba1-b906-cb890829f287","system_id":"levelo_inurba_marseille","lat":43.316517,"lon":5.404375,"is_reserved":false,"is_disabled":false,"rental_uris":{"android":"levelo://app?vid=815b724d-2b84-4ba1-b906-cb890829f287","ios":"levelo://app?vid=815b724d-2b84-4ba1-b906-cb890829f287"},"vehicle_type_id":"4","last_reported":1686459984,"current_range_meters":28800,"station_id":"ce4bh012rcd13ifvqd00","pricing_plan_id":"free"},{"bike_id":"4e83b573-c0e7-488c-82c6-411f9e0be026","system_id":"levelo_inurba_marseille","lat":43.316517,"lon":5.404375,"is_reserved":false,"is_disabled":false,"rental_uris":{"android":"levelo://app?vid=4e83b573-c0e7-488c-82c6-411f9e0be026","ios":"levelo://app?vid=4e83b573-c0e7-488c-82c6-411f9e0be026"},"vehicle_type_id":"4","last_reported":1686459984,"current_range_meters":31200,"station_id":"ce4bh012rcd13ifvqd00","pricing_plan_id":"free"},{"bike_id":"bda056da-7ccd-4fc3-9fcd-cc4d7dc02f31","system_id":"levelo_inurba_marseille","lat":43.316517,"lon":5.404375,"is_reserved":false,"is_disabled":false,"rental_uris":{"android":"levelo://app?vid=bda056da-7ccd-4fc3-9fcd-cc4d7dc02f31","ios":"levelo://app?vid=bda056da-7ccd-4fc3-9fcd-cc4d7dc02f31"},"vehicle_type_id":"4","last_reported":1686459984,"current_range_meters":22400,"station_id":"ce4bh012rcd13ifvqd00","pricing_plan_id":"free"},{"bike_id":"3fc29017-99ba-48ab-bcaf-76617656610a","system_id":"levelo_inurba_marseille","lat":43.316517,"lon":5.404375,"is_reserved":false,"is_disabled":false,"rental_uris":{"android":"levelo://app?vid=3fc29017-99ba-48ab-bcaf-76617656610a","ios":"levelo://app?vid=3fc29017-99ba-48ab-bcaf-76617656610a"},"vehicle_type_id":"4","last_reported":1686459984,"current_range_meters":22400,"station_id":"ce4bh012rcd13ifvqd00","pricing_plan_id":"free"},{"bike_id":"402893d0-a075-4ca0-a398-5f9c77d60401","system_id":"levelo_inurba_marseille","lat":43.28463,"lon":5.35895,"is_reserved":false,"is_disabled":false,"rental_uris":{"android":"levelo://app?vid=402893d0-a075-4ca0-a398-5f9c77d60401","ios":"levelo://app?vid=402893d0-a075-4ca0-a398-5f9c77d60401"},"vehicle_type_id":"4","last_reported":1686459984,"current_range_meters":31200,"station_id":"ce4bhah2rcd13ifvqei0","pricing_plan_id":"free"},{"bike_id":"328fccbe-aeb6-4eba-86e7-a863f015a6ea","system_id":"levelo_inurba_marseille","lat":43.2846,"lon":5.359,"is_reserved":false,"is_disabled":false,"rental_uris":{"android":"levelo://app?vid=328fccbe-aeb6-4eba-86e7-a863f015a6ea","ios":"levelo://app?vid=328fccbe-aeb6-4eba-86e7-a863f015a6ea"},"vehicle_type_id":"4","last_reported":1686459984,"current_range_meters":26800,"station_id":"ce4bhah2rcd13ifvqei0","pricing_plan_id":"free"},{"bike_id":"de92014c-4e11-409f-a768-224767978187","system_id":"levelo_inurba_marseille","lat":43.2846,"lon":5.35894,"is_reserved":false,"is_disabled":false,"rental_uris":{"android":"levelo://app?vid=de92014c-4e11-409f-a768-224767978187","ios":"levelo://app?vid=de92014c-4e11-409f-a768-224767978187"},"vehicle_type_id":"4","last_reported":1686459984,"current_range_meters":3200,"station_id":"ce4bhah2rcd13ifvqei0","pricing_plan_id":"free"},{"bike_id":"653c875a-b007-4e81-a4d6-c6f5ee4691bf","system_id":"levelo_inurba_marseille","lat":43.284534,"lon":5.358662,"is_reserved":false,"is_disabled":false,"rental_uris":{"android":"levelo://app?vid=653c875a-b007-4e81-a4d6-c6f5ee4691bf","ios":"levelo://app?vid=653c875a-b007-4e81-a4d6-c6f5ee4691bf"},"vehicle_type_id":"4","last_reported":1686459984,"current_range_meters":27200,"station_id":"ce4bhah2rcd13ifvqei0","pricing_plan_id":"free"},{"bike_id":"dbb39201-dadb-433c-8478-1167d290ccc4","system_id":"levelo_inurba_marseille","lat":43.284534,"lon":5.358662,"is_reserved":false,"is_disabled":false,"rental_uris":{"android":"levelo://app?vid=dbb39201-dadb-433c-8478-1167d290ccc4","ios":"levelo://app?vid=dbb39201-dadb-433c-8478-1167d290ccc4"},"vehicle_type_id":"4","last_reported":1686459984,"current_range_meters":19200,"station_id":"ce4bhah2rcd13ifvqei0","pricing_plan_id":"free"},{"bike_id":"43b6de74-2eee-4839-a851-d3c8b895feaf","system_id":"levelo_inurba_marseille","lat":43.284534,"lon":5.358662,"is_reserved":false,"is_disabled":false,"rental_uris":{"android":"levelo://app?vid=43b6de74-2eee-4839-a851-d3c8b895feaf","ios":"levelo://app?vid=43b6de74-2eee-4839-a851-d3c8b895feaf"},"vehicle_type_id":"4","last_reported":1686459984,"current_range_meters":28000,"station_id":"ce4bhah2rcd13ifvqei0","pricing_plan_id":"free"},{"bike_id":"76316b62-d115-4a09-9066-5cbd28cf268c","system_id":"levelo_inurba_marseille","lat":43.284114,"lon":5.375159,"is_reserved":false,"is_disabled":false,"rental_uris":{"android":"levelo://app?vid=76316b62-d115-4a09-9066-5cbd28cf268c","ios":"levelo://app?vid=76316b62-d115-4a09-9066-5cbd28cf268c"},"vehicle_type_id":"4","last_reported":1686459984,"current_range_meters":20800,"station_id":"","pricing_plan_id":"free"},{"bike_id":"2c420f2f-a6dd-48f3-8013-f81c7d8bca05","system_id":"levelo_inurba_marseille","lat":43.295713,"lon":5.399639,"is_reserved":false,"is_disabled":false,"rental_uris":{"android":"levelo://app?vid=2c420f2f-a6dd-48f3-8013-f81c7d8bca05","ios":"levelo://app?vid=2c420f2f-a6dd-48f3-8013-f81c7d8bca05"},"vehicle_type_id":"4","last_reported":1686459984,"current_range_meters":26800,"station_id":"ce4bh312rcd13ifvqdj0","pricing_plan_id":"free"},{"bike_id":"776647c4-577c-4e45-b567-0de16959d7d0","system_id":"levelo_inurba_marseille","lat":43.296263,"lon":5.40601,"is_reserved":false,"is_disabled":false,"rental_uris":{"android":"levelo://app?vid=776647c4-577c-4e45-b567-0de16959d7d0","ios":"levelo://app?vid=776647c4-577c-4e45-b567-0de16959d7d0"},"vehicle_type_id":"4","last_reported":1686459984,"current_range_meters":22400,"station_id":"ce4bh0h2rcd13ifvqd60","pricing_plan_id":"free"},{"bike_id":"7cee8e31-41b5-4468-a73a-b60780607147","system_id":"levelo_inurba_marseille","lat":43.33591,"lon":5.39218,"is_reserved":false,"is_disabled":false,"rental_uris":{"android":"levelo://app?vid=7cee8e31-41b5-4468-a73a-b60780607147","ios":"levelo://app?vid=7cee8e31-41b5-4468-a73a-b60780607147"},"vehicle_type_id":"4","last_reported":1686459984,"current_range_meters":0,"station_id":"","pricing_plan_id":"free"},{"bike_id":"a87055f3-23b4-4c30-8490-99ce2a3d1748","system_id":"levelo_inurba_marseille","lat":43.286595,"lon":5.386795,"is_reserved":false,"is_disabled":false,"rental_uris":{"android":"levelo://app?vid=a87055f3-23b4-4c30-8490-99ce2a3d1748","ios":"levelo://app?vid=a87055f3-23b4-4c30-8490-99ce2a3d1748"},"vehicle_type_id":"4","last_reported":1686459984,"current_range_meters":14000,"station_id":"ce4bh492rcd13ifvqdug","pricing_plan_id":"free"},{"bike_id":"78ca5992-3ff1-4217-9e01-a0de993bee81","system_id":"levelo_inurba_marseille","lat":43.28678,"lon":5.38657,"is_reserved":false,"is_disabled":false,"rental_uris":{"android":"levelo://app?vid=78ca5992-3ff1-4217-9e01-a0de993bee81","ios":"levelo://app?vid=78ca5992-3ff1-4217-9e01-a0de993bee81"},"vehicle_type_id":"4","last_reported":1686459984,"current_range_meters":0,"station_id":"ce4bh492rcd13ifvqdug","pricing_plan_id":"free"},{"bike_id":"bea4ed63-9812-4629-8704-60cd91ff2209","system_id":"levelo_inurba_marseille","lat":43.286595,"lon":5.386795,"is_reserved":false,"is_disabled":false,"rental_uris":{"android":"levelo://app?vid=bea4ed63-9812-4629-8704-60cd91ff2209","ios":"levelo://app?vid=bea4ed63-9812-4629-8704-60cd91ff2209"},"vehicle_type_id":"4","last_reported":1686459984,"current_range_meters":18000,"station_id":"ce4bh492rcd13ifvqdug","pricing_plan_id":"free"},{"bike_id":"d9684f5f-3e01-47e8-83f3-b6e8ba5ec8ad","system_id":"levelo_inurba_marseille","lat":43.286595,"lon":5.386795,"is_reserved":false,"is_disabled":false,"rental_uris":{"android":"levelo://app?vid=d9684f5f-3e01-47e8-83f3-b6e8ba5ec8ad","ios":"levelo://app?vid=d9684f5f-3e01-47e8-83f3-b6e8ba5ec8ad"},"vehicle_type_id":"4","last_reported":1686459984,"current_range_meters":25600,"station_id":"ce4bh492rcd13ifvqdug","pricing_plan_id":"free"},{"bike_id":"e5e31cf0-93ae-4cfb-8a54-70eeb48c831a","system_id":"levelo_inurba_marseille","lat":43.28651,"lon":5.38657,"is_reserved":false,"is_disabled":false,"rental_uris":{"android":"levelo://app?vid=e5e31cf0-93ae-4cfb-8a54-70eeb48c831a","ios":"levelo://app?vid=e5e31cf0-93ae-4cfb-8a54-70eeb48c831a"},"vehicle_type_id":"4","last_reported":1686459984,"current_range_meters":29200,"station_id":"ce4bh492rcd13ifvqdug","pricing_plan_id":"free"},{"bike_id":"94783ff9-d63f-4314-a42f-617e764a1b17","system_id":"levelo_inurba_marseille","lat":43.28517,"lon":5.35035,"is_reserved":false,"is_disabled":false,"rental_uris":{"android":"levelo://app?vid=94783ff9-d63f-4314-a42f-617e764a1b17","ios":"levelo://app?vid=94783ff9-d63f-4314-a42f-617e764a1b17"},"vehicle_type_id":"4","last_reported":1686459984,"current_range_meters":11600,"station_id":"ce4bhbh2rcd13ifvqepg","pricing_plan_id":"free"},{"bike_id":"5934350f-9ad3-4e49-bd74-1613dabe8258","system_id":"levelo_inurba_marseille","lat":43.283324,"lon":5.377026,"is_reserved":false,"is_disabled":false,"rental_uris":{"android":"levelo://app?vid=5934350f-9ad3-4e49-bd74-1613dabe8258","ios":"levelo://app?vid=5934350f-9ad3-4e49-bd74-1613dabe8258"},"vehicle_type_id":"4","last_reported":1686459984,"current_range_meters":25200,"station_id":"ce4bha12rcd13ifvqee0","pricing_plan_id":"free"},{"bike_id":"157945e7-a5e7-46d6-81e0-3c4112c26dd6","system_id":"levelo_inurba_marseille","lat":43.323464,"lon":5.406297,"is_reserved":false,"is_disabled":false,"rental_uris":{"android":"levelo://app?vid=157945e7-a5e7-46d6-81e0-3c4112c26dd6","ios":"levelo://app?vid=157945e7-a5e7-46d6-81e0-3c4112c26dd6"},"vehicle_type_id":"4","last_reported":1686459984,"current_range_meters":30400,"station_id":"ce4bhq92rcd13ifvqhjg","pricing_plan_id":"free"},{"bike_id":"f0a3ad06-f877-4848-a800-e3e1b3371c24","system_id":"levelo_inurba_marseille","lat":43.323464,"lon":5.406297,"is_reserved":false,"is_disabled":false,"rental_uris":{"android":"levelo://app?vid=f0a3ad06-f877-4848-a800-e3e1b3371c24","ios":"levelo://app?vid=f0a3ad06-f877-4848-a800-e3e1b3371c24"},"vehicle_type_id":"4","last_reported":1686459984,"current_range_meters":31600,"station_id":"ce4bhq92rcd13ifvqhjg","pricing_plan_id":"free"},{"bike_id":"e3110171-1aa1-49f4-9236-ff0a6b2fdbe2","system_id":"levelo_inurba_marseille","lat":43.323464,"lon":5.406297,"is_reserved":false,"is_disabled":false,"rental_uris":{"android":"levelo://app?vid=e3110171-1aa1-49f4-9236-ff0a6b2fdbe2","ios":"levelo://app?vid=e3110171-1aa1-49f4-9236-ff0a6b2fdbe2"},"vehicle_type_id":"4","last_reported":1686459984,"current_range_meters":28400,"station_id":"ce4bhq92rcd13ifvqhjg","pricing_plan_id":"free"},{"bike_id":"f74e5191-5771-4c20-82f9-b577ae627053","system_id":"levelo_inurba_marseille","lat":43.323464,"lon":5.406297,"is_reserved":false,"is_disabled":false,"rental_uris":{"android":"levelo://app?vid=f74e5191-5771-4c20-82f9-b577ae627053","ios":"levelo://app?vid=f74e5191-5771-4c20-82f9-b577ae627053"},"vehicle_type_id":"4","last_reported":1686459984,"current_range_meters":31600,"station_id":"ce4bhq92rcd13ifvqhjg","pricing_plan_id":"free"},{"bike_id":"8e35b5e3-44e6-4423-8b1c-0697ca4f063c","system_id":"levelo_inurba_marseille","lat":43.323464,"lon":5.406297,"is_reserved":false,"is_disabled":false,"rental_uris":{"android":"levelo://app?vid=8e35b5e3-44e6-4423-8b1c-0697ca4f063c","ios":"levelo://app?vid=8e35b5e3-44e6-4423-8b1c-0697ca4f063c"},"vehicle_type_id":"4","last_reported":1686459984,"current_range_meters":23200,"station_id":"ce4bhq92rcd13ifvqhjg","pricing_plan_id":"free"},{"bike_id":"06cff570-236d-434b-b41a-bcb364e7356f","system_id":"levelo_inurba_marseille","lat":43.323464,"lon":5.406297,"is_reserved":false,"is_disabled":false,"rental_uris":{"android":"levelo://app?vid=06cff570-236d-434b-b41a-bcb364e7356f","ios":"levelo://app?vid=06cff570-236d-434b-b41a-bcb364e7356f"},"vehicle_type_id":"4","last_reported":1686459984,"current_range_meters":31600,"station_id":"ce4bhq92rcd13ifvqhjg","pricing_plan_id":"free"},{"bike_id":"ae232d39-b160-410f-a53c-e104a0631f2e","system_id":"levelo_inurba_marseille","lat":43.323464,"lon":5.406297,"is_reserved":false,"is_disabled":false,"rental_uris":{"android":"levelo://app?vid=ae232d39-b160-410f-a53c-e104a0631f2e","ios":"levelo://app?vid=ae232d39-b160-410f-a53c-e104a0631f2e"},"vehicle_type_id":"4","last_reported":1686459984,"current_range_meters":31200,"station_id":"ce4bhq92rcd13ifvqhjg","pricing_plan_id":"free"},{"bike_id":"bd223471-9d78-4b68-9ef0-7e6f45516bc2","system_id":"levelo_inurba_marseille","lat":43.323464,"lon":5.406297,"is_reserved":false,"is_disabled":false,"rental_uris":{"android":"levelo://app?vid=bd223471-9d78-4b68-9ef0-7e6f45516bc2","ios":"levelo://app?vid=bd223471-9d78-4b68-9ef0-7e6f45516bc2"},"vehicle_type_id":"4","last_reported":1686459984,"current_range_meters":25200,"station_id":"ce4bhq92rcd13ifvqhjg","pricing_plan_id":"free"},{"bike_id":"30333e77-7cc7-4ad5-b030-c99c7af00601","system_id":"levelo_inurba_marseille","lat":43.323464,"lon":5.406297,"is_reserved":false,"is_disabled":false,"rental_uris":{"android":"levelo://app?vid=30333e77-7cc7-4ad5-b030-c99c7af00601","ios":"levelo://app?vid=30333e77-7cc7-4ad5-b030-c99c7af00601"},"vehicle_type_id":"4","last_reported":1686459984,"current_range_meters":29600,"station_id":"ce4bhq92rcd13ifvqhjg","pricing_plan_id":"free"},{"bike_id":"7d89e3b5-958d-47f6-80fa-adc2175a1ff9","system_id":"levelo_inurba_marseille","lat":43.323464,"lon":5.406297,"is_reserved":false,"is_disabled":false,"rental_uris":{"android":"levelo://app?vid=7d89e3b5-958d-47f6-80fa-adc2175a1ff9","ios":"levelo://app?vid=7d89e3b5-958d-47f6-80fa-adc2175a1ff9"},"vehicle_type_id":"4","last_reported":1686459984,"current_range_meters":29200,"station_id":"ce4bhq92rcd13ifvqhjg","pricing_plan_id":"free"},{"bike_id":"6268d9a0-292a-4e27-838e-1c975f095b0e","system_id":"levelo_inurba_marseille","lat":43.2848,"lon":5.38435,"is_reserved":false,"is_disabled":false,"rental_uris":{"android":"levelo://app?vid=6268d9a0-292a-4e27-838e-1c975f095b0e","ios":"levelo://app?vid=6268d9a0-292a-4e27-838e-1c975f095b0e"},"vehicle_type_id":"4","last_reported":1686459984,"current_range_meters":0,"station_id":"ce4bh512rcd13ifvqe3g","pricing_plan_id":"free"},{"bike_id":"9aeb1d91-5d6c-4de6-8813-2d95c409cb0d","system_id":"levelo_inurba_marseille","lat":43.283498,"lon":5.380948,"is_reserved":false,"is_disabled":false,"rental_uris":{"android":"levelo://app?vid=9aeb1d91-5d6c-4de6-8813-2d95c409cb0d","ios":"levelo://app?vid=9aeb1d91-5d6c-4de6-8813-2d95c409cb0d"},"vehicle_type_id":"4","last_reported":1686459984,"current_range_meters":26800,"station_id":"ce4bh412rcd13ifvqdr0","pricing_plan_id":"free"},{"bike_id":"759f9f30-f4fa-40dc-8458-8994e17bf5e5","system_id":"levelo_inurba_marseille","lat":43.292724,"lon":5.401131,"is_reserved":false,"is_disabled":false,"rental_uris":{"android":"levelo://app?vid=759f9f30-f4fa-40dc-8458-8994e17bf5e5","ios":"levelo://app?vid=759f9f30-f4fa-40dc-8458-8994e17bf5e5"},"vehicle_type_id":"4","last_reported":1686459984,"current_range_meters":12000,"station_id":"ce4bh312rcd13ifvqdk0","pricing_plan_id":"free"},{"bike_id":"d5fb4a6d-fc16-41f0-b2d3-c85b719824f0","system_id":"levelo_inurba_marseille","lat":43.292724,"lon":5.401131,"is_reserved":false,"is_disabled":false,"rental_uris":{"android":"levelo://app?vid=d5fb4a6d-fc16-41f0-b2d3-c85b719824f0","ios":"levelo://app?vid=d5fb4a6d-fc16-41f0-b2d3-c85b719824f0"},"vehicle_type_id":"4","last_reported":1686459984,"current_range_meters":16400,"station_id":"ce4bh312rcd13ifvqdk0","pricing_plan_id":"free"},{"bike_id":"ae033f1d-7612-4daa-b41d-c38614e2c741","system_id":"levelo_inurba_marseille","lat":43.292724,"lon":5.401131,"is_reserved":false,"is_disabled":false,"rental_uris":{"android":"levelo://app?vid=ae033f1d-7612-4daa-b41d-c38614e2c741","ios":"levelo://app?vid=ae033f1d-7612-4daa-b41d-c38614e2c741"},"vehicle_type_id":"4","last_reported":1686459984,"current_range_meters":2800,"station_id":"ce4bh312rcd13ifvqdk0","pricing_plan_id":"free"},{"bike_id":"5d692d30-e270-4a66-b03f-039f3a99aae5","system_id":"levelo_inurba_marseille","lat":43.292724,"lon":5.401131,"is_reserved":false,"is_disabled":false,"rental_uris":{"android":"levelo://app?vid=5d692d30-e270-4a66-b03f-039f3a99aae5","ios":"levelo://app?vid=5d692d30-e270-4a66-b03f-039f3a99aae5"},