{"last_updated":1716051972,"ttl":30,"version":"2.2","data":{"bikes":[{"bike_id":"00c59acf-8097-4802-8f84-d181836fce3b","system_id":"levelo_inurba_marseille","lat":43.312239,"lon":5.368562,"is_reserved":false,"is_disabled":false,"rental_uris":{"android":"levelo://app?vid=00c59acf-8097-4802-8f84-d181836fce3b","ios":"levelo://app?vid=00c59acf-8097-4802-8f84-d181836fce3b"},"vehicle_type_id":"4","last_reported":1716051972,"current_range_meters":24800,"station_id":"ce4bgl92rcd13ifvqbq0","pricing_plan_id":"cebpf4jnsgd1na2vs0mg"},{"bike_id":"afab2cc5-130e-4bbc-976b-ed8f91749591","system_id":"levelo_inurba_marseille","lat":43.310653,"lon":5.36852,"is_reserved":false,"is_disabled":false,"rental_uris":{"android":"levelo://app?vid=afab2cc5-130e-4bbc-976b-ed8f91749591","ios":"levelo://app?vid=afab2cc5-130e-4bbc-976b-ed8f91749591"},"vehicle_type_id":"4","last_reported":1716051972,"current_range_meters":22800,"station_id":"","pricing_plan_id":"cebpf4jnsgd1na2vs0mg"},{"bike_id":"3adf0ecc-9245-4116-815c-236eff64de7d","system_id":"levelo_inurba_marseille","lat":43.309076,"lon":5.368465,"is_reserved":false,"is_disabled":false,"rental_uris":{"android":"levelo://app?vid=3adf0ecc-9245-4116-815c-236eff64de7d","ios":"levelo://app?vid=3adf0ecc-9245-4116-815c-236eff64de7d"},"vehicle_type_id":"4","last_reported":1716051972,"current_range_meters":14400,"station_id":"ce4bgn92rcd13ifvqbvg","pricing_plan_id":"cebpf4jnsgd1na2vs0mg"},{"bike_id":"e0d0eeac-58bf-48e7-8a0f-1db1aed8b806","system_id":"levelo_inurba_marseille","lat":43.309076,"lon":5.368465,"is_reserved":false,"is_disabled":false,"rental_uris":{"android":"levelo://app?vid=e0d0eeac-58bf-48e7-8a0f-1db1aed8b806","ios":"levelo://app?vid=e0d0eeac-58bf-48e7-8a0f-1db1aed8b806"},"vehicle_type_id":"4","last_reported":1716051972,"current_range_meters":800,"station_id":"ce4bgn92rcd13ifvqbvg","pricing_plan_id":"cebpf4jnsgd1na2vs0mg"},{"bike_id":"a89ed7d9-dc14-40af-9558-df06397a7239","system_id":"levelo_inurba_marseille","lat":43.309076,"lon":5.368465,"is_reserved":false,"is_disabled":false,"rental_uris":{"android":"levelo://app?vid=a89ed7d9-dc14-40af-9558-df06397a7239","ios":"levelo://app?vid=a89ed7d9-dc14-40af-9558-df06397a7239"},"vehicle_type_id":"4","last_reported":1716051972,"current_range_meters":1600,"station_id":"ce4bgn92rcd13ifvqbvg","pricing_plan_id":"cebpf4jnsgd1na2vs0mg"},{"bike_id":"855a3157-11eb-48b3-bbbe-bd525a2b3e29","system_id":"levelo_inurba_marseille","lat":43.309076,"lon":5.368465,"is_reserved":false,"is_disabled":false,"rental_uris":{"android":"levelo://app?vid=855a3157-11eb-48b3-bbbe-bd525a2b3e29","ios":"levelo://app?vid=855a3157-11eb-48b3-bbbe-bd525a2b3e29"},"vehicle_type_id":"4","last_reported":1716051972,"current_range_meters":13200,"station_id":"ce4bgn92rcd13ifvqbvg","pricing_plan_id":"cebpf4jnsgd1na2vs0mg"},{"bike_id":"0372ec57-307d-4606-828a-997285d3fb87","system_id":"levelo_inurba_marseille","lat":43.309076,"lon":5.368465,"is_reserved":false,"is_disabled":false,"rental_uris":{"android":"levelo://app?vid=0372ec57-307d-4606-828a-997285d3fb87","ios":"levelo://app?vid=0372ec57-307d-4606-828a-997285d3fb87"},"vehicle_type_id":"4","last_reported":1716051972,"current_range_meters":0,"station_id":"ce4bgn92rcd13ifvqbvg","pricing_plan_id":"cebpf4jnsgd1na2vs0mg"},{"bike_id":"12ebc174-3219-412d-ae8d-737549eea975","system_id":"levelo_inurba_marseille","lat":43.309076,"lon":5.368465,"is_reserved":false,"is_disabled":false,"rental_uris":{"android":"levelo://app?vid=12ebc174-3219-412d-ae8d-737549eea975","ios":"levelo://app?vid=12ebc174-3219-412d-ae8d-737549eea975"},"vehicle_type_id":"4","last_reported":1716051972,"current_range_meters":19600,"station_id":"ce4bgn92rcd13ifvqbvg","pricing_plan_id":"cebpf4jnsgd1na2vs0mg"},{"bike_id":"e2ed7e6c-e508-4af2-bad5-d2e091057726","system_id":"levelo_inurba_marseille","lat":43.309076,"lon":5.368465,"is_reserved":false,"is_disabled":false,"rental_uris":{"android":"levelo://app?vid=e2ed7e6c-e508-4af2-bad5-d2e091057726","ios":"levelo://app?vid=e2ed7e6c-e508-4af2-bad5-d2e091057726"},"vehicle_type_id":"4","last_reported":1716051972,"current_range_meters":0,"station_id":"ce4bgn92rcd13ifvqbvg","pricing_plan_id":"cebpf4jnsgd1na2vs0mg"},{"bike_id":"4617bea5-4c74-477d-9f09-fe2dcf6f3fcd","system_id":"levelo_inurba_marseille","lat":43.309076,"lon":5.368465,"is_reserved":false,"is_disabled":false,"rental_uris":{"android":"levelo://app?vid=4617bea5-4c74-477d-9f09-fe2dcf6f3fcd","ios":"levelo://app?vid=4617bea5-4c74-477d-9f09-fe2dcf6f3fcd"},"vehicle_type_id":"4","last_reported":1716051972,"current_range_meters":4800,"station_id":"ce4bgn92rcd13ifvqbvg","pricing_plan_id":"cebpf4jnsgd1na2vs0mg"},{"bike_id":"76c6938f-e1ae-461b-a62f-b8c4f787655e","system_id":"levelo_inurba_marseille","lat":43.309076,"lon":5.368465,"is_reserved":false,"is_disabled":false,"rental_uris":{"android":"levelo://app?vid=76c6938f-e1ae-461b-a62f-b8c4f787655e","ios":"levelo://app?vid=76c6938f-e1ae-461b-a62f-b8c4f787655e"},"vehicle_type_id":"4","last_reported":1716051972,"current_range_meters":8800,"station_id":"ce4bgn92rcd13ifvqbvg","pricing_plan_id":"cebpf4jnsgd1na2vs0mg"},{"bike_id":"afa76748-3f86-4c61-9953-1500464c8d79","system_id":"levelo_inurba_marseille","lat":43.31484,"lon":5.37306,"is_reserved":false,"is_disabled":false,"rental_uris":{"android":"levelo://app?vid=afa76748-3f86-4c61-9953-1500464c8d79","ios":"levelo://app?vid=afa76748-3f86-4c61-9953-1500464c8d79"},"vehicle_type_id":"4","last_reported":1716051972,"current_range_meters":0,"station_id":"ce4bgt12rcd13ifvqcd0","pricing_plan_id":"cebpf4jnsgd1na2vs0mg"},{"bike_id":"33da7ae9-9170-4012-b75c-a85dcb137f63","system_id":"levelo_inurba_marseille","lat":43.31492,"lon":5.37305,"is_reserved":false,"is_disabled":false,"rental_uris":{"android":"levelo://app?vid=33da7ae9-9170-4012-b75c-a85dcb137f63","ios":"levelo://app?vid=33da7ae9-9170-4012-b75c-a85dcb137f63"},"vehicle_type_id":"4","last_reported":1716051972,"current_range_meters":0,"station_id":"ce4bgt12rcd13ifvqcd0","pricing_plan_id":"cebpf4jnsgd1na2vs0mg"},{"bike_id":"68a015bf-2fe6-465d-8e26-11cce95ccd01","system_id":"levelo_inurba_marseille","lat":43.309069,"lon":5.37207,"is_reserved":false,"is_disabled":false,"rental_uris":{"android":"levelo://app?vid=68a015bf-2fe6-465d-8e26-11cce95ccd01","ios":"levelo://app?vid=68a015bf-2fe6-465d-8e26-11cce95ccd01"},"vehicle_type_id":"4","last_reported":1716051972,"current_range_meters":0,"station_id":"ce4bguh2rcd13ifvqckg","pricing_plan_id":"cebpf4jnsgd1na2vs0mg"},{"bike_id":"3ab1b37f-570d-451b-bcd6-dfbf33dc25e3","system_id":"levelo_inurba_marseille","lat":43.308926,"lon":5.372001,"is_reserved":false,"is_disabled":false,"rental_uris":{"android":"levelo://app?vid=3ab1b37f-570d-451b-bcd6-dfbf33dc25e3","ios":"levelo://app?vid=3ab1b37f-570d-451b-bcd6-dfbf33dc25e3"},"vehicle_type_id":"4","last_reported":1716051972,"current_range_meters":0,"station_id":"ce4bguh2rcd13ifvqckg","pricing_plan_id":"cebpf4jnsgd1na2vs0mg"},{"bike_id":"a277fe65-7ca8-46b0-927f-8ef2dae50fa5","system_id":"levelo_inurba_marseille","lat":43.309034,"lon":5.371783,"is_reserved":false,"is_disabled":false,"rental_uris":{"android":"levelo://app?vid=a277fe65-7ca8-46b0-927f-8ef2dae50fa5","ios":"levelo://app?vid=a277fe65-7ca8-46b0-927f-8ef2dae50fa5"},"vehicle_type_id":"4","last_reported":1716051972,"current_range_meters":2400,"station_id":"ce4bguh2rcd13ifvqckg","pricing_plan_id":"cebpf4jnsgd1na2vs0mg"},{"bike_id":"63444de0-a1bb-4e8e-ae96-7acb218fc4db","system_id":"levelo_inurba_marseille","lat":43.305319,"lon":5.367137,"is_reserved":false,"is_disabled":false,"rental_uris":{"android":"levelo://app?vid=63444de0-a1bb-4e8e-ae96-7acb218fc4db","ios":"levelo://app?vid=63444de0-a1bb-4e8e-ae96-7acb218fc4db"},"vehicle_type_id":"4","last_reported":1716051972,"current_range_meters":0,"station_id":"ce4bgrp2rcd13ifvqc9g","pricing_plan_id":"cebpf4jnsgd1na2vs0mg"},{"bike_id":"c38b9872-c1bf-4198-b858-559f571ffc03","system_id":"levelo_inurba_marseille","lat":43.30537,"lon":5.367345,"is_reserved":false,"is_disabled":false,"rental_uris":{"android":"levelo://app?vid=c38b9872-c1bf-4198-b858-559f571ffc03","ios":"levelo://app?vid=c38b9872-c1bf-4198-b858-559f571ffc03"},"vehicle_type_id":"4","last_reported":1716051972,"current_range_meters":0,"station_id":"ce4bgrp2rcd13ifvqc9g","pricing_plan_id":"cebpf4jnsgd1na2vs0mg"},{"bike_id":"2ff369ee-a0cd-4d20-b37a-9c912d273c95","system_id":"levelo_inurba_marseille","lat":43.305989,"lon":5.37225,"is_reserved":false,"is_disabled":false,"rental_uris":{"android":"levelo://app?vid=2ff369ee-a0cd-4d20-b37a-9c912d273c95","ios":"levelo://app?vid=2ff369ee-a0cd-4d20-b37a-9c912d273c95"},"vehicle_type_id":"4","last_reported":1716051972,"current_range_meters":12800,"station_id":"ce4bgqh2rcd13ifvqc4g","pricing_plan_id":"cebpf4jnsgd1na2vs0mg"},{"bike_id":"6fd9d230-d00a-418f-bf98-6dfec38949fe","system_id":"levelo_inurba_marseille","lat":43.31121,"lon":5.37765,"is_reserved":false,"is_disabled":false,"rental_uris":{"android":"levelo://app?vid=6fd9d230-d00a-418f-bf98-6dfec38949fe","ios":"levelo://app?vid=6fd9d230-d00a-418f-bf98-6dfec38949fe"},"vehicle_type_id":"4","last_reported":1716051972,"current_range_meters":0,"station_id":"ce4bgt92rcd13ifvqcg0","pricing_plan_id":"cebpf4jnsgd1na2vs0mg"},{"bike_id":"276cc8b7-0d46-4638-b7ae-504adcafca1c","system_id":"levelo_inurba_marseille","lat":43.31113,"lon":5.37767,"is_reserved":false,"is_disabled":false,"rental_uris":{"android":"levelo://app?vid=276cc8b7-0d46-4638-b7ae-504adcafca1c","ios":"levelo://app?vid=276cc8b7-0d46-4638-b7ae-504adcafca1c"},"vehicle_type_id":"4","last_reported":1716051972,"current_range_meters":0,"station_id":"ce4bgt92rcd13ifvqcg0","pricing_plan_id":"cebpf4jnsgd1na2vs0mg"},{"bike_id":"b73bb9f8-1c78-4c49-bbe2-4088b68c5caa","system_id":"levelo_inurba_marseille","lat":43.311131,"lon":5.377651,"is_reserved":false,"is_disabled":false,"rental_uris":{"android":"levelo://app?vid=b73bb9f8-1c78-4c49-bbe2-4088b68c5caa","ios":"levelo://app?vid=b73bb9f8-1c78-4c49-bbe2-4088b68c5caa"},"vehicle_type_id":"4","last_reported":1716051972,"current_range_meters":14800,"station_id":"ce4bgt92rcd13ifvqcg0","pricing_plan_id":"cebpf4jnsgd1na2vs0mg"},{"bike_id":"421dc21d-a285-4699-97c9-19b3a6539d87","system_id":"levelo_inurba_marseille","lat":43.307945,"lon":5.376487,"is_reserved":false,"is_disabled":false,"rental_uris":{"android":"levelo://app?vid=421dc21d-a285-4699-97c9-19b3a6539d87","ios":"levelo://app?vid=421dc21d-a285-4699-97c9-19b3a6539d87"},"vehicle_type_id":"4","last_reported":1716051972,"current_range_meters":800,"station_id":"ce4bgv92rcd13ifvqcq0","pricing_plan_id":"cebpf4jnsgd1na2vs0mg"},{"bike_id":"620b2f30-3508-4a2c-89b9-45384c664f66","system_id":"levelo_inurba_marseille","lat":43.307945,"lon":5.376487,"is_reserved":false,"is_disabled":false,"rental_uris":{"android":"levelo://app?vid=620b2f30-3508-4a2c-89b9-45384c664f66","ios":"levelo://app?vid=620b2f30-3508-4a2c-89b9-45384c664f66"},"vehicle_type_id":"4","last_reported":1716051972,"current_range_meters":0,"station_id":"ce4bgv92rcd13ifvqcq0","pricing_plan_id":"cebpf4jnsgd1na2vs0mg"},{"bike_id":"a97284e7-1e3e-4e11-8b58-ec5adfc008f7","system_id":"levelo_inurba_marseille","lat":43.307945,"lon":5.376487,"is_reserved":false,"is_disabled":false,"rental_uris":{"android":"levelo://app?vid=a97284e7-1e3e-4e11-8b58-ec5adfc008f7","ios":"levelo://app?vid=a97284e7-1e3e-4e11-8b58-ec5adfc008f7"},"vehicle_type_id":"4","last_reported":1716051972,"current_range_meters":0,"station_id":"ce4bgv92rcd13ifvqcq0","pricing_plan_id":"cebpf4jnsgd1na2vs0mg"},{"bike_id":"8189ce8c-9741-4509-a7b1-02488cd0068c","system_id":"levelo_inurba_marseille","lat":43.30304,"lon":5.368987,"is_reserved":false,"is_disabled":false,"rental_uris":{"android":"levelo://app?vid=8189ce8c-9741-4509-a7b1-02488cd0068c","ios":"levelo://app?vid=8189ce8c-9741-4509-a7b1-02488cd0068c"},"vehicle_type_id":"4","last_reported":1716051972,"current_range_meters":0,"station_id":"ce4bgqh2rcd13ifvqc5g","pricing_plan_id":"cebpf4jnsgd1na2vs0mg"},{"bike_id":"efea153b-a2aa-4051-aff3-e18bda1d0839","system_id":"levelo_inurba_marseille","lat":43.315289,"lon":5.380349,"is_reserved":false,"is_disabled":false,"rental_uris":{"android":"levelo://app?vid=efea153b-a2aa-4051-aff3-e18bda1d0839","ios":"levelo://app?vid=efea153b-a2aa-4051-aff3-e18bda1d0839"},"vehicle_type_id":"4","last_reported":1716051972,"current_range_meters":26800,"station_id":"ce4bhsp2rcd13ifvqi50","pricing_plan_id":"cebpf4jnsgd1na2vs0mg"},{"bike_id":"5e5bb6e0-be9a-40ac-922b-bdf90567cd70","system_id":"levelo_inurba_marseille","lat":43.308008,"lon":5.381594,"is_reserved":false,"is_disabled":false,"rental_uris":{"android":"levelo://app?vid=5e5bb6e0-be9a-40ac-922b-bdf90567cd70","ios":"levelo://app?vid=5e5bb6e0-be9a-40ac-922b-bdf90567cd70"},"vehicle_type_id":"4","last_reported":1716051972,"current_range_meters":0,"station_id":"ce4bgt12rcd13ifvqce0","pricing_plan_id":"cebpf4jnsgd1na2vs0mg"},{"bike_id":"62afac58-446f-4530-b0f1-eb9755cdd9e6","system_id":"levelo_inurba_marseille","lat":43.308012,"lon":5.381511,"is_reserved":false,"is_disabled":false,"rental_uris":{"android":"levelo://app?vid=62afac58-446f-4530-b0f1-eb9755cdd9e6","ios":"levelo://app?vid=62afac58-446f-4530-b0f1-eb9755cdd9e6"},"vehicle_type_id":"4","last_reported":1716051972,"current_range_meters":4400,"station_id":"ce4bgt12rcd13ifvqce0","pricing_plan_id":"cebpf4jnsgd1na2vs0mg"},{"bike_id":"5c284789-8ef0-49b6-ae90-947f882dae25","system_id":"levelo_inurba_marseille","lat":43.302784,"lon":5.377158,"is_reserved":false,"is_disabled":false,"rental_uris":{"android":"levelo://app?vid=5c284789-8ef0-49b6-ae90-947f882dae25","ios":"levelo://app?vid=5c284789-8ef0-49b6-ae90-947f882dae25"},"vehicle_type_id":"4","last_reported":1716051972,"current_range_meters":7200,"station_id":"ce4bguh2rcd13ifvqcj0","pricing_plan_id":"cebpf4jnsgd1na2vs0mg"},{"bike_id":"02fd381c-0ff9-47be-ae66-7c1542b05d9c","system_id":"levelo_inurba_marseille","lat":43.304606,"lon":5.379026,"is_reserved":false,"is_disabled":false,"rental_uris":{"android":"levelo://app?vid=02fd381c-0ff9-47be-ae66-7c1542b05d9c","ios":"levelo://app?vid=02fd381c-0ff9-47be-ae66-7c1542b05d9c"},"vehicle_type_id":"4","last_reported":1716051972,"current_range_meters":16800,"station_id":"ce4bgup2rcd13ifvqcn0","pricing_plan_id":"cebpf4jnsgd1na2vs0mg"},{"bike_id":"a088e7c9-30ef-44bf-9d0d-b391b1f9296a","system_id":"levelo_inurba_marseille","lat":43.324771,"lon":5.36557,"is_reserved":false,"is_disabled":false,"rental_uris":{"android":"levelo://app?vid=a088e7c9-30ef-44bf-9d0d-b391b1f9296a","ios":"levelo://app?vid=a088e7c9-30ef-44bf-9d0d-b391b1f9296a"},"vehicle_type_id":"4","last_reported":1716051972,"current_range_meters":8400,"station_id":"ce4bhs12rcd13ifvqhvg","pricing_plan_id":"cebpf4jnsgd1na2vs0mg"},{"bike_id":"e68588ad-7f92-475b-a71d-2b7d715ab678","system_id":"levelo_inurba_marseille","lat":43.324771,"lon":5.36557,"is_reserved":false,"is_disabled":false,"rental_uris":{"android":"levelo://app?vid=e68588ad-7f92-475b-a71d-2b7d715ab678","ios":"levelo://app?vid=e68588ad-7f92-475b-a71d-2b7d715ab678"},"vehicle_type_id":"4","last_reported":1716051972,"current_range_meters":5200,"station_id":"ce4bhs12rcd13ifvqhvg","pricing_plan_id":"cebpf4jnsgd1na2vs0mg"},{"bike_id":"892c2c1d-5f6c-4aab-8d33-80f5771c25a5","system_id":"levelo_inurba_marseille","lat":43.319633,"lon":5.380633,"is_reserved":false,"is_disabled":false,"rental_uris":{"android":"levelo://app?vid=892c2c1d-5f6c-4aab-8d33-80f5771c25a5","ios":"levelo://app?vid=892c2c1d-5f6c-4aab-8d33-80f5771c25a5"},"vehicle_type_id":"4","last_reported":1716051972,"current_range_meters":800,"station_id":"ce4bhr12rcd13ifvqhpg","pricing_plan_id":"cebpf4jnsgd1na2vs0mg"},{"bike_id":"72d53596-13e9-4e52-815d-1314a9d5e531","system_id":"levelo_inurba_marseille","lat":43.305364,"lon":5.384119,"is_reserved":false,"is_disabled":false,"rental_uris":{"android":"levelo://app?vid=72d53596-13e9-4e52-815d-1314a9d5e531","ios":"levelo://app?vid=72d53596-13e9-4e52-815d-1314a9d5e531"},"vehicle_type_id":"4","last_reported":1716051972,"current_range_meters":3600,"station_id":"ce4bgg92rcd13ifvqb30","pricing_plan_id":"cebpf4jnsgd1na2vs0mg"},{"bike_id":"ba096175-e7f5-48e4-b55c-2e0eeac7dae1","system_id":"levelo_inurba_marseille","lat":43.302784,"lon":5.377158,"is_reserved":false,"is_disabled":false,"rental_uris":{"android":"levelo://app?vid=ba096175-e7f5-48e4-b55c-2e0eeac7dae1","ios":"levelo://app?vid=ba096175-e7f5-48e4-b55c-2e0eeac7dae1"},"vehicle_type_id":"4","last_reported":1716051972,"current_range_meters":5200,"station_id":"ce4bguh2rcd13ifvqcj0","pricing_plan_id":"cebpf4jnsgd1na2vs0mg"},{"bike_id":"cc7be3c9-4164-40df-9755-18af165f1189","system_id":"levelo_inurba_marseille","lat":43.301429,"lon":5.37413,"is_reserved":false,"is_disabled":false,"rental_uris":{"android":"levelo://app?vid=cc7be3c9-4164-40df-9755-18af165f1189","ios":"levelo://app?vid=cc7be3c9-4164-40df-9755-18af165f1189"},"vehicle_type_id":"4","last_reported":1716051972,"current_range_meters":2000,"station_id":"ce4bgs92rcd13ifvqcc0","pricing_plan_id":"cebpf4jnsgd1na2vs0mg"},{"bike_id":"6aa0c952-ffee-43d1-ab1b-d813643a0135","system_id":"levelo_inurba_marseille","lat":43.301429,"lon":5.37413,"is_reserved":false,"is_disabled":false,"rental_uris":{"android":"levelo://app?vid=6aa0c952-ffee-43d1-ab1b-d813643a0135","ios":"levelo://app?vid=6aa0c952-ffee-43d1-ab1b-d813643a0135"},"vehicle_type_id":"4","last_reported":1716051972,"current_range_meters":5200,"station_id":"ce4bgs92rcd13ifvqcc0","pricing_plan_id":"cebpf4jnsgd1na2vs0mg"},{"bike_id":"bde13806-e952-4e9b-a7d6-55773036b758","system_id":"levelo_inurba_marseille","lat":43.313571,"lon":5.384829,"is_reserved":false,"is_disabled":false,"rental_uris":{"android":"levelo://app?vid=bde13806-e952-4e9b-a7d6-55773036b758","ios":"levelo://app?vid=bde13806-e952-4e9b-a7d6-55773036b758"},"vehicle_type_id":"4","last_reported":1716051972,"current_range_meters":22800,"station_id":"ce4bgt92rcd13ifvqcf0","pricing_plan_id":"cebpf4jnsgd1na2vs0mg"},{"bike_id":"df3ccb3b-06bd-4b51-bb2a-fc48e82a73a3","system_id":"levelo_inurba_marseille","lat":43.31366,"lon":5.38488,"is_reserved":false,"is_disabled":false,"rental_uris":{"android":"levelo://app?vid=df3ccb3b-06bd-4b51-bb2a-fc48e82a73a3","ios":"levelo://app?vid=df3ccb3b-06bd-4b51-bb2a-fc48e82a73a3"},"vehicle_type_id":"4","last_reported":1716051972,"current_range_meters":1200,"station_id":"ce4bgt92rcd13ifvqcf0","pricing_plan_id":"cebpf4jnsgd1na2vs0mg"},{"bike_id":"09629526-3850-42d5-a999-a3a71dc1af6b","system_id":"levelo_inurba_marseille","lat":43.313679,"lon":5.384906,"is_reserved":false,"is_disabled":false,"rental_uris":{"android":"levelo://app?vid=09629526-3850-42d5-a999-a3a71dc1af6b","ios":"levelo://app?vid=09629526-3850-42d5-a999-a3a71dc1af6b"},"vehicle_type_id":"4","last_reported":1716051972,"current_range_meters":0,"station_id":"","pricing_plan_id":"cebpf4jnsgd1na2vs0mg"},{"bike_id":"67fcd1e6-c1fa-4a8d-9a94-6417433ad319","system_id":"levelo_inurba_marseille","lat":43.299222,"lon":5.365554,"is_reserved":false,"is_disabled":false,"rental_uris":{"android":"levelo://app?vid=67fcd1e6-c1fa-4a8d-9a94-6417433ad319","ios":"levelo://app?vid=67fcd1e6-c1fa-4a8d-9a94-6417433ad319"},"vehicle_type_id":"4","last_reported":1716051972,"current_range_meters":0,"station_id":"ce4bgm92rcd13ifvqbr0","pricing_plan_id":"cebpf4jnsgd1na2vs0mg"},{"bike_id":"d6741b9c-3b9e-429b-bbde-e8f4f43b2469","system_id":"levelo_inurba_marseille","lat":43.29982,"lon":5.371816,"is_reserved":false,"is_disabled":false,"rental_uris":{"android":"levelo://app?vid=d6741b9c-3b9e-429b-bbde-e8f4f43b2469","ios":"levelo://app?vid=d6741b9c-3b9e-429b-bbde-e8f4f43b2469"},"vehicle_type_id":"4","last_reported":1716051972,"current_range_meters":18800,"station_id":"ce4bgr92rcd13ifvqc7g","pricing_plan_id":"cebpf4jnsgd1na2vs0mg"},{"bike_id":"93c6cf54-2bf9-4e03-aa8f-00b48588b3f3","system_id":"levelo_inurba_marseille","lat":43.299222,"lon":5.365554,"is_reserved":false,"is_disabled":false,"rental_uris":{"android":"levelo://app?vid=93c6cf54-2bf9-4e03-aa8f-00b48588b3f3","ios":"levelo://app?vid=93c6cf54-2bf9-4e03-aa8f-00b48588b3f3"},"vehicle_type_id":"4","last_reported":1716051972,"current_range_meters":7200,"station_id":"ce4bgm92rcd13ifvqbr0","pricing_plan_id":"cebpf4jnsgd1na2vs0mg"},{"bike_id":"4f25a981-042c-4c85-8d41-034107a7a009","system_id":"levelo_inurba_marseille","lat":43.299356,"lon":5.365338,"is_reserved":false,"is_disabled":false,"rental_uris":{"android":"levelo://app?vid=4f25a981-042c-4c85-8d41-034107a7a009","ios":"levelo://app?vid=4f25a981-042c-4c85-8d41-034107a7a009"},"vehicle_type_id":"4","last_reported":1716051972,"current_range_meters":0,"station_id":"ce4bgm92rcd13ifvqbr0","pricing_plan_id":"cebpf4jnsgd1na2vs0mg"},{"bike_id":"66831034-7b5f-4501-b09c-7a2287927446","system_id":"levelo_inurba_marseille","lat":43.299222,"lon":5.365554,"is_reserved":false,"is_disabled":false,"rental_uris":{"android":"levelo://app?vid=66831034-7b5f-4501-b09c-7a2287927446","ios":"levelo://app?vid=66831034-7b5f-4501-b09c-7a2287927446"},"vehicle_type_id":"4","last_reported":1716051972,"current_range_meters":0,"station_id":"ce4bgm92rcd13ifvqbr0","pricing_plan_id":"cebpf4jnsgd1na2vs0mg"},{"bike_id":"ca084c6d-32da-4396-a59c-6229a48ed0dc","system_id":"levelo_inurba_marseille","lat":43.298433,"lon":5.362774,"is_reserved":false,"is_disabled":false,"rental_uris":{"android":"levelo://app?vid=ca084c6d-32da-4396-a59c-6229a48ed0dc","ios":"levelo://app?vid=ca084c6d-32da-4396-a59c-6229a48ed0dc"},"vehicle_type_id":"4","last_reported":1716051972,"current_range_meters":18400,"station_id":"ce4bgpp2rcd13ifvqc3g","pricing_plan_id":"cebpf4jnsgd1na2vs0mg"},{"bike_id":"a98c5c17-d143-4e0e-8a0a-725e168ebc7c","system_id":"levelo_inurba_marseille","lat":43.305364,"lon":5.384119,"is_reserved":false,"is_disabled":false,"rental_uris":{"android":"levelo://app?vid=a98c5c17-d143-4e0e-8a0a-725e168ebc7c","ios":"levelo://app?vid=a98c5c17-d143-4e0e-8a0a-725e168ebc7c"},"vehicle_type_id":"4","last_reported":1716051972,"current_range_meters":2800,"station_id":"ce4bgg92rcd13ifvqb30","pricing_plan_id":"cebpf4jnsgd1na2vs0mg"},{"bike_id":"e0266401-00cf-42fe-962d-ab386455e785","system_id":"levelo_inurba_marseille","lat":43.298433,"lon":5.362774,"is_reserved":false,"is_disabled":false,"rental_uris":{"android":"levelo://app?vid=e0266401-00cf-42fe-962d-ab386455e785","ios":"levelo://app?vid=e0266401-00cf-42fe-962d-ab386455e785"},"vehicle_type_id":"4","last_reported":1716051972,"current_range_meters":1200,"station_id":"ce4bgpp2rcd13ifvqc3g","pricing_plan_id":"cebpf4jnsgd1na2vs0mg"},{"bike_id":"108931a5-925a-4af0-9977-43b26f028566","system_id":"levelo_inurba_marseille","lat":43.298433,"lon":5.362774,"is_reserved":false,"is_disabled":false,"rental_uris":{"android":"levelo://app?vid=108931a5-925a-4af0-9977-43b26f028566","ios":"levelo://app?vid=108931a5-925a-4af0-9977-43b26f028566"},"vehicle_type_id":"4","last_reported":1716051972,"current_range_meters":4800,"station_id":"ce4bgpp2rcd13ifvqc3g","pricing_plan_id":"cebpf4jnsgd1na2vs0mg"},{"bike_id":"af5134f7-e5cf-4546-b8c3-74441d26f7dc","system_id":"levelo_inurba_marseille","lat":43.29914,"lon":5.37446,"is_reserved":false,"is_disabled":false,"rental_uris":{"android":"levelo://app?vid=af5134f7-e5cf-4546-b8c3-74441d26f7dc","ios":"levelo://app?vid=af5134f7-e5cf-4546-b8c3-74441d26f7dc"},"vehicle_type_id":"4","last_reported":1716051972,"current_range_meters":5600,"station_id":"ce4bgjh2rcd13ifvqbg0","pricing_plan_id":"cebpf4jnsgd1na2vs0mg"},{"bike_id":"d0b0721b-d445-4684-8993-2fb6532cd981","system_id":"levelo_inurba_marseille","lat":43.299243,"lon":5.374807,"is_reserved":false,"is_disabled":false,"rental_uris":{"android":"levelo://app?vid=d0b0721b-d445-4684-8993-2fb6532cd981","ios":"levelo://app?vid=d0b0721b-d445-4684-8993-2fb6532cd981"},"vehicle_type_id":"4","last_reported":1716051972,"current_range_meters":4000,"station_id":"ce4bgjh2rcd13ifvqbg0","pricing_plan_id":"cebpf4jnsgd1na2vs0mg"},{"bike_id":"36182c3f-c987-43fd-8ea7-f25393973153","system_id":"levelo_inurba_marseille","lat":43.299243,"lon":5.37481,"is_reserved":false,"is_disabled":false,"rental_uris":{"android":"levelo://app?vid=36182c3f-c987-43fd-8ea7-f25393973153","ios":"levelo://app?vid=36182c3f-c987-43fd-8ea7-f25393973153"},"vehicle_type_id":"4","last_reported":1716051972,"current_range_meters":0,"station_id":"ce4bgjh2rcd13ifvqbg0","pricing_plan_id":"cebpf4jnsgd1na2vs0mg"},{"bike_id":"7e966b91-5f3f-4f7e-91ea-8354f471fa86","system_id":"levelo_inurba_marseille","lat":43.31169,"lon":5.38715,"is_reserved":false,"is_disabled":false,"rental_uris":{"android":"levelo://app?vid=7e966b91-5f3f-4f7e-91ea-8354f471fa86","ios":"levelo://app?vid=7e966b91-5f3f-4f7e-91ea-8354f471fa86"},"vehicle_type_id":"4","last_reported":1716051972,"current_range_meters":0,"station_id":"ce4bgv12rcd13ifvqcp0","pricing_plan_id":"cebpf4jnsgd1na2vs0mg"},{"bike_id":"2e9d922e-04a3-4cce-a5ac-e76f529aeac7","system_id":"levelo_inurba_marseille","lat":43.311722,"lon":5.387247,"is_reserved":false,"is_disabled":false,"rental_uris":{"android":"levelo://app?vid=2e9d922e-04a3-4cce-a5ac-e76f529aeac7","ios":"levelo://app?vid=2e9d922e-04a3-4cce-a5ac-e76f529aeac7"},"vehicle_type_id":"4","last_reported":1716051972,"current_range_meters":23200,"station_id":"ce4bgv12rcd13ifvqcp0","pricing_plan_id":"cebpf4jnsgd1na2vs0mg"},{"bike_id":"d21aafce-651e-4673-a221-a2a30aa91376","system_id":"levelo_inurba_marseille","lat":43.311722,"lon":5.387247,"is_reserved":false,"is_disabled":false,"rental_uris":{"android":"levelo://app?vid=d21aafce-651e-4673-a221-a2a30aa91376","ios":"levelo://app?vid=d21aafce-651e-4673-a221-a2a30aa91376"},"vehicle_type_id":"4","last_reported":1716051972,"current_range_meters":400,"station_id":"ce4bgv12rcd13ifvqcp0","pricing_plan_id":"cebpf4jnsgd1na2vs0mg"},{"bike_id":"606f8b43-6510-48b6-88b9-5dbbe1c44b2c","system_id":"levelo_inurba_marseille","lat":43.3022,"lon":5.38161,"is_reserved":false,"is_disabled":false,"rental_uris":{"android":"levelo://app?vid=606f8b43-6510-48b6-88b9-5dbbe1c44b2c","ios":"levelo://app?vid=606f8b43-6510-48b6-88b9-5dbbe1c44b2c"},"vehicle_type_id":"4","last_reported":1716051972,"current_range_meters":20800,"station_id":"","pricing_plan_id":"cebpf4jnsgd1na2vs0mg"},{"bike_id":"b22379ec-8777-4dcd-8c0e-9642bdad8cfd","system_id":"levelo_inurba_marseille","lat":43.297774,"lon":5.370875,"is_reserved":false,"is_disabled":false,"rental_uris":{"android":"levelo://app?vid=b22379ec-8777-4dcd-8c0e-9642bdad8cfd","ios":"levelo://app?vid=b22379ec-8777-4dcd-8c0e-9642bdad8cfd"},"vehicle_type_id":"4","last_reported":1716051972,"current_range_meters":31200,"station_id":"ce4bgop2rcd13ifvqc1g","pricing_plan_id":"cebpf4jnsgd1na2vs0mg"},{"bike_id":"e6138240-59ae-4181-9085-c413e3ee7613","system_id":"levelo_inurba_marseille","lat":43.297794,"lon":5.370888,"is_reserved":false,"is_disabled":false,"rental_uris":{"android":"levelo://app?vid=e6138240-59ae-4181-9085-c413e3ee7613","ios":"levelo://app?vid=e6138240-59ae-4181-9085-c413e3ee7613"},"vehicle_type_id":"4","last_reported":1716051972,"current_range_meters":0,"station_id":"ce4bgop2rcd13ifvqc1g","pricing_plan_id":"cebpf4jnsgd1na2vs0mg"},{"bike_id":"a78c0371-18a7-4609-8a16-1a99a180568a","system_id":"levelo_inurba_marseille","lat":43.297794,"lon":5.370888,"is_reserved":false,"is_disabled":false,"rental_uris":{"android":"levelo://app?vid=a78c0371-18a7-4609-8a16-1a99a180568a","ios":"levelo://app?vid=a78c0371-18a7-4609-8a16-1a99a180568a"},"vehicle_type_id":"4","last_reported":1716051972,"current_range_meters":30400,"station_id":"ce4bgop2rcd13ifvqc1g","pricing_plan_id":"cebpf4jnsgd1na2vs0mg"},{"bike_id":"f9cc33c9-46a9-4a70-a9fc-7d9af4961d2c","system_id":"levelo_inurba_marseille","lat":43.297794,"lon":5.370888,"is_reserved":false,"is_disabled":false,"rental_uris":{"android":"levelo://app?vid=f9cc33c9-46a9-4a70-a9fc-7d9af4961d2c","ios":"levelo://app?vid=f9cc33c9-46a9-4a70-a9fc-7d9af4961d2c"},"vehicle_type_id":"4","last_reported":1716051972,"current_range_meters":9200,"station_id":"ce4bgop2rcd13ifvqc1g","pricing_plan_id":"cebpf4jnsgd1na2vs0mg"},{"bike_id":"3c857afe-14c4-4b19-999b-3cd39d4688e6","system_id":"levelo_inurba_marseille","lat":43.297794,"lon":5.370888,"is_reserved":false,"is_disabled":false,"rental_uris":{"android":"levelo://app?vid=3c857afe-14c4-4b19-999b-3cd39d4688e6","ios":"levelo://app?vid=3c857afe-14c4-4b19-999b-3cd39d4688e6"},"vehicle_type_id":"4","last_reported":1716051972,"current_range_meters":1200,"station_id":"ce4bgop2rcd13ifvqc1g","pricing_plan_id":"cebpf4jnsgd1na2vs0mg"},{"bike_id":"2824b154-bdc4-430b-a883-5a3c2dd31feb","system_id":"levelo_inurba_marseille","lat":43.297774,"lon":5.370875,"is_reserved":false,"is_disabled":false,"rental_uris":{"android":"levelo://app?vid=2824b154-bdc4-430b-a883-5a3c2dd31feb","ios":"levelo://app?vid=2824b154-bdc4-430b-a883-5a3c2dd31feb"},"vehicle_type_id":"4","last_reported":1716051972,"current_range_meters":6800,"station_id":"ce4bgop2rcd13ifvqc1g","pricing_plan_id":"cebpf4jnsgd1na2vs0mg"},{"bike_id":"91130ec7-f216-4832-ada1-9325107d5c5f","system_id":"levelo_inurba_marseille","lat":43.29777,"lon":5.37113,"is_reserved":false,"is_disabled":false,"rental_uris":{"android":"levelo://app?vid=91130ec7-f216-4832-ada1-9325107d5c5f","ios":"levelo://app?vid=91130ec7-f216-4832-ada1-9325107d5c5f"},"vehicle_type_id":"4","last_reported":1716051972,"current_range_meters":4400,"station_id":"ce4bgop2rcd13ifvqc1g","pricing_plan_id":"cebpf4jnsgd1na2vs0mg"},{"bike_id":"42f02bb2-653e-4104-98c2-08150621867c","system_id":"levelo_inurba_marseille","lat":43.297774,"lon":5.370875,"is_reserved":false,"is_disabled":false,"rental_uris":{"android":"levelo://app?vid=42f02bb2-653e-4104-98c2-08150621867c","ios":"levelo://app?vid=42f02bb2-653e-4104-98c2-08150621867c"},"vehicle_type_id":"4","last_reported":1716051972,"current_range_meters":0,"station_id":"ce4bgop2rcd13ifvqc1g","pricing_plan_id":"cebpf4jnsgd1na2vs0mg"},{"bike_id":"9385d173-06b2-4fde-8d3d-ba7b1bec39da","system_id":"levelo_inurba_marseille","lat":43.322872,"lon":5.382756,"is_reserved":false,"is_disabled":false,"rental_uris":{"android":"levelo://app?vid=9385d173-06b2-4fde-8d3d-ba7b1bec39da","ios":"levelo://app?vid=9385d173-06b2-4fde-8d3d-ba7b1bec39da"},"vehicle_type_id":"4","last_reported":1716051972,"current_range_meters":3200,"station_id":"ce4bhr12rcd13ifvqhqg","pricing_plan_id":"cebpf4jnsgd1na2vs0mg"},{"bike_id":"4718bcba-ec2f-49ab-b7a3-234b9ccac4e6","system_id":"levelo_inurba_marseille","lat":43.29714,"lon":5.36618,"is_reserved":false,"is_disabled":false,"rental_uris":{"android":"levelo://app?vid=4718bcba-ec2f-49ab-b7a3-234b9ccac4e6","ios":"levelo://app?vid=4718bcba-ec2f-49ab-b7a3-234b9ccac4e6"},"vehicle_type_id":"4","last_reported":1716051972,"current_range_meters":1600,"station_id":"ce4bgn12rcd13ifvqbt0","pricing_plan_id":"cebpf4jnsgd1na2vs0mg"},{"bike_id":"4027342e-6bc1-479d-a1f4-047d29934e99","system_id":"levelo_inurba_marseille","lat":43.297163,"lon":5.365866,"is_reserved":false,"is_disabled":false,"rental_uris":{"android":"levelo://app?vid=4027342e-6bc1-479d-a1f4-047d29934e99","ios":"levelo://app?vid=4027342e-6bc1-479d-a1f4-047d29934e99"},"vehicle_type_id":"4","last_reported":1716051972,"current_range_meters":0,"station_id":"ce4bgn12rcd13ifvqbt0","pricing_plan_id":"cebpf4jnsgd1na2vs0mg"},{"bike_id":"47c988c2-ac3f-4ee5-ac60-07d1dea64721","system_id":"levelo_inurba_marseille","lat":43.29707,"lon":5.36611,"is_reserved":false,"is_disabled":false,"rental_uris":{"android":"levelo://app?vid=47c988c2-ac3f-4ee5-ac60-07d1dea64721","ios":"levelo://app?vid=47c988c2-ac3f-4ee5-ac60-07d1dea64721"},"vehicle_type_id":"4","last_reported":1716051972,"current_range_meters":2400,"station_id":"ce4bgn12rcd13ifvqbt0","pricing_plan_id":"cebpf4jnsgd1na2vs0mg"},{"bike_id":"bbf30718-7b3e-4279-8260-d3dd6aa42fa8","system_id":"levelo_inurba_marseille","lat":43.297057,"lon":5.366171,"is_reserved":false,"is_disabled":false,"rental_uris":{"android":"levelo://app?vid=bbf30718-7b3e-4279-8260-d3dd6aa42fa8","ios":"levelo://app?vid=bbf30718-7b3e-4279-8260-d3dd6aa42fa8"},"vehicle_type_id":"4","last_reported":1716051972,"current_range_meters":3200,"station_id":"ce4bgn12rcd13ifvqbt0","pricing_plan_id":"cebpf4jnsgd1na2vs0mg"},{"bike_id":"8d1f1b98-ef01-4b09-8366-c3f9d0d068c5","system_id":"levelo_inurba_marseille","lat":43.297053,"lon":5.366087,"is_reserved":false,"is_disabled":false,"rental_uris":{"android":"levelo://app?vid=8d1f1b98-ef01-4b09-8366-c3f9d0d068c5","ios":"levelo://app?vid=8d1f1b98-ef01-4b09-8366-c3f9d0d068c5"},"vehicle_type_id":"4","last_reported":1716051972,"current_range_meters":5200,"station_id":"ce4bgn12rcd13ifvqbt0","pricing_plan_id":"cebpf4jnsgd1na2vs0mg"},{"bike_id":"38869649-9901-4fae-b37c-170a955ff82a","system_id":"levelo_inurba_marseille","lat":43.29705,"lon":5.36605,"is_reserved":false,"is_disabled":false,"rental_uris":{"android":"levelo://app?vid=38869649-9901-4fae-b37c-170a955ff82a","ios":"levelo://app?vid=38869649-9901-4fae-b37c-170a955ff82a"},"vehicle_type_id":"4","last_reported":1716051972,"current_range_meters":3200,"station_id":"ce4bgn12rcd13ifvqbt0","pricing_plan_id":"cebpf4jnsgd1na2vs0mg"},{"bike_id":"20a219a4-15d8-4496-9559-cd12f79d5c85","system_id":"levelo_inurba_marseille","lat":43.322872,"lon":5.382756,"is_reserved":false,"is_disabled":false,"rental_uris":{"android":"levelo://app?vid=20a219a4-15d8-4496-9559-cd12f79d5c85","ios":"levelo://app?vid=20a219a4-15d8-4496-9559-cd12f79d5c85"},"vehicle_type_id":"4","last_reported":1716051972,"current_range_meters":30000,"station_id":"ce4bhr12rcd13ifvqhqg","pricing_plan_id":"cebpf4jnsgd1na2vs0mg"},{"bike_id":"6413360c-8aaf-4824-a0d7-f3dceacb7939","system_id":"levelo_inurba_marseille","lat":43.297,"lon":5.36621,"is_reserved":false,"is_disabled":false,"rental_uris":{"android":"levelo://app?vid=6413360c-8aaf-4824-a0d7-f3dceacb7939","ios":"levelo://app?vid=6413360c-8aaf-4824-a0d7-f3dceacb7939"},"vehicle_type_id":"4","last_reported":1716051972,"current_range_meters":15200,"station_id":"ce4bgn12rcd13ifvqbt0","pricing_plan_id":"cebpf4jnsgd1na2vs0mg"},{"bike_id":"e8b74b53-1f66-4822-bc9f-59e0cd63ffdc","system_id":"levelo_inurba_marseille","lat":43.29705,"lon":5.36893,"is_reserved":false,"is_disabled":false,"rental_uris":{"android":"levelo://app?vid=e8b74b53-1f66-4822-bc9f-59e0cd63ffdc","ios":"levelo://app?vid=e8b74b53-1f66-4822-bc9f-59e0cd63ffdc"},"vehicle_type_id":"4","last_reported":1716051972,"current_range_meters":400,"station_id":"","pricing_plan_id":"cebpf4jnsgd1na2vs0mg"},{"bike_id":"0fa7957b-9e65-4bf3-9e0b-f07504d800a1","system_id":"levelo_inurba_marseille","lat":43.296895,"lon":5.366254,"is_reserved":false,"is_disabled":false,"rental_uris":{"android":"levelo://app?vid=0fa7957b-9e65-4bf3-9e0b-f07504d800a1","ios":"levelo://app?vid=0fa7957b-9e65-4bf3-9e0b-f07504d800a1"},"vehicle_type_id":"4","last_reported":1716051972,"current_range_meters":2400,"station_id":"ce4bgn12rcd13ifvqbt0","pricing_plan_id":"cebpf4jnsgd1na2vs0mg"},{"bike_id":"3f15e4df-5f20-4acc-b12e-386799f4368e","system_id":"levelo_inurba_marseille","lat":43.296793,"lon":5.372185,"is_reserved":false,"is_disabled":false,"rental_uris":{"android":"levelo://app?vid=3f15e4df-5f20-4acc-b12e-386799f4368e","ios":"levelo://app?vid=3f15e4df-5f20-4acc-b12e-386799f4368e"},"vehicle_type_id":"4","last_reported":1716051972,"current_range_meters":0,"station_id":"","pricing_plan_id":"cebpf4jnsgd1na2vs0mg"},{"bike_id":"ec080f4e-f2e8-4ff3-8f34-c7426c672486","system_id":"levelo_inurba_marseille","lat":43.2968,"lon":5.37291,"is_reserved":false,"is_disabled":false,"rental_uris":{"android":"levelo://app?vid=ec080f4e-f2e8-4ff3-8f34-c7426c672486","ios":"levelo://app?vid=ec080f4e-f2e8-4ff3-8f34-c7426c672486"},"vehicle_type_id":"4","last_reported":1716051972,"current_range_meters":30800,"station_id":"ce4bgk12rcd13ifvqbj0","pricing_plan_id":"cebpf4jnsgd1na2vs0mg"},{"bike_id":"914918b3-5522-4f78-97d2-88c6276c0735","system_id":"levelo_inurba_marseille","lat":43.2968,"lon":5.37291,"is_reserved":false,"is_disabled":false,"rental_uris":{"android":"levelo://app?vid=914918b3-5522-4f78-97d2-88c6276c0735","ios":"levelo://app?vid=914918b3-5522-4f78-97d2-88c6276c0735"},"vehicle_type_id":"4","last_reported":1716051972,"current_range_meters":1200,"station_id":"ce4bgk12rcd13ifvqbj0","pricing_plan_id":"cebpf4jnsgd1na2vs0mg"},{"bike_id":"d88c8901-75df-4d25-9820-71671b8fc432","system_id":"levelo_inurba_marseille","lat":43.2968,"lon":5.37291,"is_reserved":false,"is_disabled":false,"rental_uris":{"android":"levelo://app?vid=d88c8901-75df-4d25-9820-71671b8fc432","ios":"levelo://app?vid=d88c8901-75df-4d25-9820-71671b8fc432"},"vehicle_type_id":"4","last_reported":1716051972,"current_range_meters":8400,"station_id":"ce4bgk12rcd13ifvqbj0","pricing_plan_id":"cebpf4jnsgd1na2vs0mg"},{"bike_id":"d89e3252-ba75-4ccf-b06b-c0f5b768e1a2","system_id":"levelo_inurba_marseille","lat":43.2968,"lon":5.37291,"is_reserved":false,"is_disabled":false,"rental_uris":{"android":"levelo://app?vid=d89e3252-ba75-4ccf-b06b-c0f5b768e1a2","ios":"levelo://app?vid=d89e3252-ba75-4ccf-b06b-c0f5b768e1a2"},"vehicle_type_id":"4","last_reported":1716051972,"current_range_meters":1200,"station_id":"ce4bgk12rcd13ifvqbj0","pricing_plan_id":"cebpf4jnsgd1na2vs0mg"},{"bike_id":"c0b498e0-13a8-4048-9ad1-239a98ef44f9","system_id":"levelo_inurba_marseille","lat":43.298756,"lon":5.38002,"is_reserved":false,"is_disabled":false,"rental_uris":{"android":"levelo://app?vid=c0b498e0-13a8-4048-9ad1-239a98ef44f9","ios":"levelo://app?vid=c0b498e0-13a8-4048-9ad1-239a98ef44f9"},"vehicle_type_id":"4","last_reported":1716051972,"current_range_meters":19200,"station_id":"","pricing_plan_id":"cebpf4jnsgd1na2vs0mg"},{"bike_id":"83ea9195-fc20-40b6-bb8b-75756dbe6369","system_id":"levelo_inurba_marseille","lat":43.296921,"lon":5.376579,"is_reserved":false,"is_disabled":false,"rental_uris":{"android":"levelo://app?vid=83ea9195-fc20-40b6-bb8b-75756dbe6369","ios":"levelo://app?vid=83ea9195-fc20-40b6-bb8b-75756dbe6369"},"vehicle_type_id":"4","last_reported":1716051972,"current_range_meters":7600,"station_id":"ce4bgkh2rcd13ifvqbl0","pricing_plan_id":"cebpf4jnsgd1na2vs0mg"},{"bike_id":"f9998aa9-f83f-4b4b-b6b1-5b70024f7f1b","system_id":"levelo_inurba_marseille","lat":43.309589,"lon":5.390258,"is_reserved":false,"is_disabled":false,"rental_uris":{"android":"levelo://app?vid=f9998aa9-f83f-4b4b-b6b1-5b70024f7f1b","ios":"levelo://app?vid=f9998aa9-f83f-4b4b-b6b1-5b70024f7f1b"},"vehicle_type_id":"4","last_reported":1716051972,"current_range_meters":9600,"station_id":"ce4bgup2rcd13ifvqco0","pricing_plan_id":"cebpf4jnsgd1na2vs0mg"},{"bike_id":"6c8779a2-43a3-4a2a-b4a3-da1319d6d69a","system_id":"levelo_inurba_marseille","lat":43.298964,"lon":5.381236,"is_reserved":false,"is_disabled":false,"rental_uris":{"android":"levelo://app?vid=6c8779a2-43a3-4a2a-b4a3-da1319d6d69a","ios":"levelo://app?vid=6c8779a2-43a3-4a2a-b4a3-da1319d6d69a"},"vehicle_type_id":"4","last_reported":1716051972,"current_range_meters":0,"station_id":"ce4bgj12rcd13ifvqbc0","pricing_plan_id":"cebpf4jnsgd1na2vs0mg"},{"bike_id":"7405be63-9982-4194-80ab-2a26824d6b34","system_id":"levelo_inurba_marseille","lat":43.299028,"lon":5.381509,"is_reserved":false,"is_disabled":false,"rental_uris":{"android":"levelo://app?vid=7405be63-9982-4194-80ab-2a26824d6b34","ios":"levelo://app?vid=7405be63-9982-4194-80ab-2a26824d6b34"},"vehicle_type_id":"4","last_reported":1716051972,"current_range_meters":15200,"station_id":"ce4bgj12rcd13ifvqbc0","pricing_plan_id":"cebpf4jnsgd1na2vs0mg"},{"bike_id":"5b016400-3e56-45de-bc6a-229a95106682","system_id":"levelo_inurba_marseille","lat":43.309538,"lon":5.390285,"is_reserved":false,"is_disabled":false,"rental_uris":{"android":"levelo://app?vid=5b016400-3e56-45de-bc6a-229a95106682","ios":"levelo://app?vid=5b016400-3e56-45de-bc6a-229a95106682"},"vehicle_type_id":"4","last_reported":1716051972,"current_range_meters":22000,"station_id":"ce4bgup2rcd13ifvqco0","pricing_plan_id":"cebpf4jnsgd1na2vs0mg"},{"bike_id":"13c1cd58-66e7-46f9-b7f0-333e5b1217fb","system_id":"levelo_inurba_marseille","lat":43.309589,"lon":5.390258,"is_reserved":false,"is_disabled":false,"rental_uris":{"android":"levelo://app?vid=13c1cd58-66e7-46f9-b7f0-333e5b1217fb","ios":"levelo://app?vid=13c1cd58-66e7-46f9-b7f0-333e5b1217fb"},"vehicle_type_id":"4","last_reported":1716051972,"current_range_meters":7200,"station_id":"ce4bgup2rcd13ifvqco0","pricing_plan_id":"cebpf4jnsgd1na2vs0mg"},{"bike_id":"f215be88-7222-47a0-8cb1-86cd572821e4","system_id":"levelo_inurba_marseille","lat":43.309589,"lon":5.390258,"is_reserved":false,"is_disabled":false,"rental_uris":{"android":"levelo://app?vid=f215be88-7222-47a0-8cb1-86cd572821e4","ios":"levelo://app?vid=f215be88-7222-47a0-8cb1-86cd572821e4"},"vehicle_type_id":"4","last_reported":1716051972,"current_range_meters":20800,"station_id":"ce4bgup2rcd13ifvqco0","pricing_plan_id":"cebpf4jnsgd1na2vs0mg"},{"bike_id":"04765cdf-7365-4756-a15e-ffb9eb13e54b","system_id":"levelo_inurba_marseille","lat":43.309589,"lon":5.390258,"is_reserved":false,"is_disabled":false,"rental_uris":{"android":"levelo://app?vid=04765cdf-7365-4756-a15e-ffb9eb13e54b","ios":"levelo://app?vid=04765cdf-7365-4756-a15e-ffb9eb13e54b"},"vehicle_type_id":"4","last_reported":1716051972,"current_range_meters":19200,"station_id":"ce4bgup2rcd13ifvqco0","pricing_plan_id":"cebpf4jnsgd1na2vs0mg"},{"bike_id":"12c7bac9-d8e7-4b18-befe-6d3455d2ab15","system_id":"levelo_inurba_marseille","lat":43.309589,"lon":5.390258,"is_reserved":false,"is_disabled":false,"rental_uris":{"android":"levelo://app?vid=12c7bac9-d8e7-4b18-befe-6d3455d2ab15","ios":"levelo://app?vid=12c7bac9-d8e7-4b18-befe-6d3455d2ab15"},"vehicle_type_id":"4","last_reported":1716051972,"current_range_meters":0,"station_id":"ce4bgup2rcd13ifvqco0","pricing_plan_id":"cebpf4jnsgd1na2vs0mg"},{"bike_id":"6a38a315-9f3f-4950-ba92-1140fb7b8895","system_id":"levelo_inurba_marseille","lat":43.309589,"lon":5.390258,"is_reserved":false,"is_disabled":false,"rental_uris":{"android":"levelo://app?vid=6a38a315-9f3f-4950-ba92-1140fb7b8895","ios":"levelo://app?vid=6a38a315-9f3f-4950-ba92-1140fb7b8895"},"vehicle_type_id":"4","last_reported":1716051972,"current_range_meters":7200,"station_id":"ce4bgup2rcd13ifvqco0","pricing_plan_id":"cebpf4jnsgd1na2vs0mg"},{"bike_id":"603baedf-9108-4d5c-a917-a27c83b2b9c4","system_id":"levelo_inurba_marseille","lat":43.30953,"lon":5.39033,"is_reserved":false,"is_disabled":false,"rental_uris":{"android":"levelo://app?vid=603baedf-9108-4d5c-a917-a27c83b2b9c4","ios":"levelo://app?vid=603baedf-9108-4d5c-a917-a27c83b2b9c4"},"vehicle_type_id":"4","last_reported":1716051972,"current_range_meters":12000,"station_id":"ce4bgup2rcd13ifvqco0","pricing_plan_id":"cebpf4jnsgd1na2vs0mg"},{"bike_id":"2bbce108-ef7c-4ad9-8842-4ee71b78034d","system_id":"levelo_inurba_marseille","lat":43.309589,"lon":5.390258,"is_reserved":false,"is_disabled":false,"rental_uris":{"android":"levelo://app?vid=2bbce108-ef7c-4ad9-8842-4ee71b78034d","ios":"levelo://app?vid=2bbce108-ef7c-4ad9-8842-4ee71b78034d"},"vehicle_type_id":"4","last_reported":1716051972,"current_range_meters":1200,"station_id":"ce4bgup2rcd13ifvqco0","pricing_plan_id":"cebpf4jnsgd1na2vs0mg"},{"bike_id":"2008304e-3bc9-40a1-8bc9-949bba650972","system_id":"levelo_inurba_marseille","lat":43.309589,"lon":5.390258,"is_reserved":false,"is_disabled":false,"rental_uris":{"android":"levelo://app?vid=2008304e-3bc9-40a1-8bc9-949bba650972","ios":"levelo://app?vid=2008304e-3bc9-40a1-8bc9-949bba650972"},"vehicle_type_id":"4","last_reported":1716051972,"current_range_meters":9600,"station_id":"ce4bgup2rcd13ifvqco0","pricing_plan_id":"cebpf4jnsgd1na2vs0mg"},{"bike_id":"a213dca7-ac93-426f-b416-23be39b7a346","system_id":"levelo_inurba_marseille","lat":43.30948,"lon":5.39032,"is_reserved":false,"is_disabled":false,"rental_uris":{"android":"levelo://app?vid=a213dca7-ac93-426f-b416-23be39b7a346","ios":"levelo://app?vid=a213dca7-ac93-426f-b416-23be39b7a346"},"vehicle_type_id":"4","last_reported":1716051972,"current_range_meters":800,"station_id":"ce4bgup2rcd13ifvqco0","pricing_plan_id":"cebpf4jnsgd1na2vs0mg"},{"bike_id":"d8c3c4c1-860b-4bd8-b340-d1702ddd69a7","system_id":"levelo_inurba_marseille","lat":43.309589,"lon":5.390258,"is_reserved":false,"is_disabled":false,"rental_uris":{"android":"levelo://app?vid=d8c3c4c1-860b-4bd8-b340-d1702ddd69a7","ios":"levelo://app?vid=d8c3c4c1-860b-4bd8-b340-d1702ddd69a7"},"vehicle_type_id":"4","last_reported":1716051972,"current_range_meters":9200,"station_id":"ce4bgup2rcd13ifvqco0","pricing_plan_id":"cebpf4jnsgd1na2vs0mg"},{"bike_id":"4531909b-e130-42c9-bf93-fbfff0c592cd","system_id":"levelo_inurba_marseille","lat":43.309589,"lon":5.390258,"is_reserved":false,"is_disabled":false,"rental_uris":{"android":"levelo://app?vid=4531909b-e130-42c9-bf93-fbfff0c592cd","ios":"levelo://app?vid=4531909b-e130-42c9-bf93-fbfff0c592cd"},"vehicle_type_id":"4","last_reported":1716051972,"current_range_meters":26000,"station_id":"ce4bgup2rcd13ifvqco0","pricing_plan_id":"cebpf4jnsgd1na2vs0mg"},{"bike_id":"0e0fb7a8-4704-404d-ae62-484567e117e5","system_id":"levelo_inurba_marseille","lat":43.30951,"lon":5.39037,"is_reserved":false,"is_disabled":false,"rental_uris":{"android":"levelo://app?vid=0e0fb7a8-4704-404d-ae62-484567e117e5","ios":"levelo://app?vid=0e0fb7a8-4704-404d-ae62-484567e117e5"},"vehicle_type_id":"4","last_reported":1716051972,"current_range_meters":0,"station_id":"ce4bgup2rcd13ifvqco0","pricing_plan_id":"cebpf4jnsgd1na2vs0mg"},{"bike_id":"3f4205c1-aff8-4c22-8a63-476551be5f6f","system_id":"levelo_inurba_marseille","lat":43.309589,"lon":5.390258,"is_reserved":false,"is_disabled":false,"rental_uris":{"android":"levelo://app?vid=3f4205c1-aff8-4c22-8a63-476551be5f6f","ios":"levelo://app?vid=3f4205c1-aff8-4c22-8a63-476551be5f6f"},"vehicle_type_id":"4","last_reported":1716051972,"current_range_meters":18800,"station_id":"ce4bgup2rcd13ifvqco0","pricing_plan_id":"cebpf4jnsgd1na2vs0mg"},{"bike_id":"4d0bb5e6-0474-4729-b17f-0f43ac90100a","system_id":"levelo_inurba_marseille","lat":43.302992,"lon":5.392136,"is_reserved":false,"is_disabled":false,"rental_uris":{"android":"levelo://app?vid=4d0bb5e6-0474-4729-b17f-0f43ac90100a","ios":"levelo://app?vid=4d0bb5e6-0474-4729-b17f-0f43ac90100a"},"vehicle_type_id":"4","last_reported":1716051972,"current_range_meters":800,"station_id":"ce4bgkh2rcd13ifvqbk0","pricing_plan_id":"cebpf4jnsgd1na2vs0mg"},{"bike_id":"969cdec5-5ed2-4aa4-9efa-9b8ac495c5cc","system_id":"levelo_inurba_marseille","lat":43.309589,"lon":5.390258,"is_reserved":false,"is_disabled":false,"rental_uris":{"android":"levelo://app?vid=969cdec5-5ed2-4aa4-9efa-9b8ac495c5cc","ios":"levelo://app?vid=969cdec5-5ed2-4aa4-9efa-9b8ac495c5cc"},"vehicle_type_id":"4","last_reported":1716051972,"current_range_meters":0,"station_id":"ce4bgup2rcd13ifvqco0","pricing_plan_id":"cebpf4jnsgd1na2vs0mg"},{"bike_id":"952f5bad-15af-44ab-bcde-1955343cb305","system_id":"levelo_inurba_marseille","lat":43.309589,"lon":5.390258,"is_reserved":false,"is_disabled":false,"rental_uris":{"android":"levelo://app?vid=952f5bad-15af-44ab-bcde-1955343cb305","ios":"levelo://app?vid=952f5bad-15af-44ab-bcde-1955343cb305"},"vehicle_type_id":"4","last_reported":1716051972,"current_range_meters":22400,"station_id":"ce4bgup2rcd13ifvqco0","pricing_plan_id":"cebpf4jnsgd1na2vs0mg"},{"bike_id":"cee6e171-d413-43a6-a74a-587875f34a9f","system_id":"levelo_inurba_marseille","lat":43.309589,"lon":5.390258,"is_reserved":false,"is_disabled":false,"rental_uris":{"android":"levelo://app?vid=cee6e171-d413-43a6-a74a-587875f34a9f","ios":"levelo://app?vid=cee6e171-d413-43a6-a74a-587875f34a9f"},"vehicle_type_id":"4","last_reported":1716051972,"current_range_meters":2800,"station_id":"ce4bgup2rcd13ifvqco0","pricing_plan_id":"cebpf4jnsgd1na2vs0mg"},{"bike_id":"547e23b2-e08f-41b7-a7c3-8d48345f0268","system_id":"levelo_inurba_marseille","lat":43.309589,"lon":5.390258,"is_reserved":false,"is_disabled":false,"rental_uris":{"android":"levelo://app?vid=547e23b2-e08f-41b7-a7c3-8d48345f0268","ios":"levelo://app?vid=547e23b2-e08f-41b7-a7c3-8d48345f0268"},"vehicle_type_id":"4","last_reported":1716051972,"current_range_meters":14800,"station_id":"ce4bgup2rcd13ifvqco0","pricing_plan_id":"cebpf4jnsgd1na2vs0mg"},{"bike_id":"30850a7f-ddf8-4d57-b5cb-3eccc32e6dcd","system_id":"levelo_inurba_marseille","lat":43.298037,"lon":5.381066,"is_reserved":false,"is_disabled":false,"rental_uris":{"android":"levelo://app?vid=30850a7f-ddf8-4d57-b5cb-3eccc32e6dcd","ios":"levelo://app?vid=30850a7f-ddf8-4d57-b5cb-3eccc32e6dcd"},"vehicle_type_id":"4","last_reported":1716051972,"current_range_meters":16000,"station_id":"ce4bgip2rcd13ifvqbb0","pricing_plan_id":"cebpf4jnsgd1na2vs0mg"},{"bike_id":"2bfa66a6-7882-4795-be98-ce705d0f07e3","system_id":"levelo_inurba_marseille","lat":43.317557,"lon":5.390173,"is_reserved":false,"is_disabled":false,"rental_uris":{"android":"levelo://app?vid=2bfa66a6-7882-4795-be98-ce705d0f07e3","ios":"levelo://app?vid=2bfa66a6-7882-4795-be98-ce705d0f07e3"},"vehicle_type_id":"4","last_reported":1716051972,"current_range_meters":17200,"station_id":"ce4bhqp2rcd13ifvqhng","pricing_plan_id":"cebpf4jnsgd1na2vs0mg"},{"bike_id":"79c94046-5e50-44ff-9d88-0e85b0be4dc0","system_id":"levelo_inurba_marseille","lat":43.309589,"lon":5.390258,"is_reserved":false,"is_disabled":false,"rental_uris":{"android":"levelo://app?vid=79c94046-5e50-44ff-9d88-0e85b0be4dc0","ios":"levelo://app?vid=79c94046-5e50-44ff-9d88-0e85b0be4dc0"},"vehicle_type_id":"4","last_reported":1716051972,"current_range_meters":800,"station_id":"ce4bgup2rcd13ifvqco0","pricing_plan_id":"cebpf4jnsgd1na2vs0mg"},{"bike_id":"de8a354f-15f9-47ca-a5fc-95f5e3c3cd40","system_id":"levelo_inurba_marseille","lat":43.309589,"lon":5.390258,"is_reserved":false,"is_disabled":false,"rental_uris":{"android":"levelo://app?vid=de8a354f-15f9-47ca-a5fc-95f5e3c3cd40","ios":"levelo://app?vid=de8a354f-15f9-47ca-a5fc-95f5e3c3cd40"},"vehicle_type_id":"4","last_reported":1716051972,"current_range_meters":10800,"station_id":"ce4bgup2rcd13ifvqco0","pricing_plan_id":"cebpf4jnsgd1na2vs0mg"},{"bike_id":"26ec222c-1558-4ac2-bbcb-44d566c9d894","system_id":"levelo_inurba_marseille","lat":43.295748,"lon":5.37522,"is_reserved":false,"is_disabled":false,"rental_uris":{"android":"levelo://app?vid=26ec222c-1558-4ac2-bbcb-44d566c9d894","ios":"levelo://app?vid=26ec222c-1558-4ac2-bbcb-44d566c9d894"},"vehicle_type_id":"4","last_reported":1716051972,"current_range_meters":28800,"station_id":"ce4bgh92rcd13ifvqb50","pricing_plan_id":"cebpf4jnsgd1na2vs0mg"},{"bike_id":"192892ba-3f25-428b-b63d-9edcac105d3c","system_id":"levelo_inurba_marseille","lat":43.298037,"lon":5.381066,"is_reserved":false,"is_disabled":false,"rental_uris":{"android":"levelo://app?vid=192892ba-3f25-428b-b63d-9edcac105d3c","ios":"levelo://app?vid=192892ba-3f25-428b-b63d-9edcac105d3c"},"vehicle_type_id":"4","last_reported":1716051972,"current_range_meters":26800,"station_id":"ce4bgip2rcd13ifvqbb0","pricing_plan_id":"cebpf4jnsgd1na2vs0mg"},{"bike_id":"f7c17e93-d1d5-4f2b-8965-c2f10c458843","system_id":"levelo_inurba_marseille","lat":43.299028,"lon":5.381509,"is_reserved":false,"is_disabled":false,"rental_uris":{"android":"levelo://app?vid=f7c17e93-d1d5-4f2b-8965-c2f10c458843","ios":"levelo://app?vid=f7c17e93-d1d5-4f2b-8965-c2f10c458843"},"vehicle_type_id":"4","last_reported":1716051972,"current_range_meters":12800,"station_id":"ce4bgj12rcd13ifvqbc0","pricing_plan_id":"cebpf4jnsgd1na2vs0mg"},{"bike_id":"2cfc87b6-283d-43a8-8873-00892b7772c6","system_id":"levelo_inurba_marseille","lat":43.295748,"lon":5.37522,"is_reserved":false,"is_disabled":false,"rental_uris":{"android":"levelo://app?vid=2cfc87b6-283d-43a8-8873-00892b7772c6","ios":"levelo://app?vid=2cfc87b6-283d-43a8-8873-00892b7772c6"},"vehicle_type_id":"4","last_reported":1716051972,"current_range_meters":27600,"station_id":"ce4bgh92rcd13ifvqb50","pricing_plan_id":"cebpf4jnsgd1na2vs0mg"},{"bike_id":"eb718197-e43b-4bf1-b760-8ed7b312839a","system_id":"levelo_inurba_marseille","lat":43.309589,"lon":5.390258,"is_reserved":false,"is_disabled":false,"rental_uris":{"android":"levelo://app?vid=eb718197-e43b-4bf1-b760-8ed7b312839a","ios":"levelo://app?vid=eb718197-e43b-4bf1-b760-8ed7b312839a"},"vehicle_type_id":"4","last_reported":1716051972,"current_range_meters":5200,"station_id":"ce4bgup2rcd13ifvqco0","pricing_plan_id":"cebpf4jnsgd1na2vs0mg"},{"bike_id":"eb537c0f-f8ab-4dd0-b4af-0b90f760713d","system_id":"levelo_inurba_marseille","lat":43.295748,"lon":5.37522,"is_reserved":false,"is_disabled":false,"rental_uris":{"android":"levelo://app?vid=eb537c0f-f8ab-4dd0-b4af-0b90f760713d","ios":"levelo://app?vid=eb537c0f-f8ab-4dd0-b4af-0b90f760713d"},"vehicle_type_id":"4","last_reported":1716051972,"current_range_meters":25200,"station_id":"ce4bgh92rcd13ifvqb50","pricing_plan_id":"cebpf4jnsgd1na2vs0mg"},{"bike_id":"077f2f92-d91f-4530-bffe-80191235045b","system_id":"levelo_inurba_marseille","lat":43.298037,"lon":5.381066,"is_reserved":false,"is_disabled":false,"rental_uris":{"android":"levelo://app?vid=077f2f92-d91f-4530-bffe-80191235045b","ios":"levelo://app?vid=077f2f92-d91f-4530-bffe-80191235045b"},"vehicle_type_id":"4","last_reported":1716051972,"current_range_meters":26000,"station_id":"ce4bgip2rcd13ifvqbb0","pricing_plan_id":"cebpf4jnsgd1na2vs0mg"},{"bike_id":"be9f74d5-e65f-4e7a-99f0-d8dfa60d695b","system_id":"levelo_inurba_marseille","lat":43.295748,"lon":5.37522,"is_reserved":false,"is_disabled":false,"rental_uris":{"android":"levelo://app?vid=be9f74d5-e65f-4e7a-99f0-d8dfa60d695b","ios":"levelo://app?vid=be9f74d5-e65f-4e7a-99f0-d8dfa60d695b"},"vehicle_type_id":"4","last_reported":1716051972,"current_range_meters":28800,"station_id":"ce4bgh92rcd13ifvqb50","pricing_plan_id":"cebpf4jnsgd1na2vs0mg"},{"bike_id":"ab02399d-7177-4d84-9d7e-491572dc6b1d","system_id":"levelo_inurba_marseille","lat":43.295748,"lon":5.37522,"is_reserved":false,"is_disabled":false,"rental_uris":{"android":"levelo://app?vid=ab02399d-7177-4d84-9d7e-491572dc6b1d","ios":"levelo://app?vid=ab02399d-7177-4d84-9d7e-491572dc6b1d"},"vehicle_type_id":"4","last_reported":1716051972,"current_range_meters":16800,"station_id":"ce4bgh92rcd13ifvqb50","pricing_plan_id":"cebpf4jnsgd1na2vs0mg"},{"bike_id":"b4ac62be-3886-41af-8db8-b117f741c2cd","system_id":"levelo_inurba_marseille","lat":43.297855,"lon":5.381019,"is_reserved":false,"is_disabled":false,"rental_uris":{"android":"levelo://app?vid=b4ac62be-3886-41af-8db8-b117f741c2cd","ios":"levelo://app?vid=b4ac62be-3886-41af-8db8-b117f741c2cd"},"vehicle_type_id":"4","last_reported":1716051972,"current_range_meters":1600,"station_id":"ce4bgip2rcd13ifvqbb0","pricing_plan_id":"cebpf4jnsgd1na2vs0mg"},{"bike_id":"f4e27ba1-276b-4468-95b6-08176e2bac12","system_id":"levelo_inurba_marseille","lat":43.298037,"lon":5.381066,"is_reserved":false,"is_disabled":false,"rental_uris":{"android":"levelo://app?vid=f4e27ba1-276b-4468-95b6-08176e2bac12","ios":"levelo://app?vid=f4e27ba1-276b-4468-95b6-08176e2bac12"},"vehicle_type_id":"4","last_reported":1716051972,"current_range_meters":1200,"station_id":"ce4bgip2rcd13ifvqbb0","pricing_plan_id":"cebpf4jnsgd1na2vs0mg"},{"bike_id":"2c53c392-46f8-47fa-a3e2-cde8a5ea42a3","system_id":"levelo_inurba_marseille","lat":43.304274,"lon":5.388873,"is_reserved":false,"is_disabled":false,"rental_uris":{"android":"levelo://app?vid=2c53c392-46f8-47fa-a3e2-cde8a5ea42a3","ios":"levelo://app?vid=2c53c392-46f8-47fa-a3e2-cde8a5ea42a3"},"vehicle_type_id":"4","last_reported":1716051972,"current_range_meters":20400,"station_id":"ce4bgk12rcd13ifvqbi0","pricing_plan_id":"cebpf4jnsgd1na2vs0mg"},{"bike_id":"905126c7-56e3-4fee-9bb3-54416c5036b5","system_id":"levelo_inurba_marseille","lat":43.298037,"lon":5.381066,"is_reserved":false,"is_disabled":false,"rental_uris":{"android":"levelo://app?vid=905126c7-56e3-4fee-9bb3-54416c5036b5","ios":"levelo://app?vid=905126c7-56e3-4fee-9bb3-54416c5036b5"},"vehicle_type_id":"4","last_reported":1716051972,"current_range_meters":20000,"station_id":"ce4bgip2rcd13ifvqbb0","pricing_plan_id":"cebpf4jnsgd1na2vs0mg"},{"bike_id":"efac25ce-0d91-46e8-bc13-1f1963bda548","system_id":"levelo_inurba_marseille","lat":43.298037,"lon":5.381066,"is_reserved":false,"is_disabled":false,"rental_uris":{"android":"levelo://app?vid=efac25ce-0d91-46e8-bc13-1f1963bda548","ios":"levelo://app?vid=efac25ce-0d91-46e8-bc13-1f1963bda548"},"vehicle_type_id":"4","last_reported":1716051972,"current_range_meters":25600,"station_id":"ce4bgip2rcd13ifvqbb0","pricing_plan_id":"cebpf4jnsgd1na2vs0mg"},{"bike_id":"9827ef48-3f5c-46dd-8481-d0ecb799c6a9","system_id":"levelo_inurba_marseille","lat":43.296277,"lon":5.377108,"is_reserved":false,"is_disabled":false,"rental_uris":{"android":"levelo://app?vid=9827ef48-3f5c-46dd-8481-d0ecb799c6a9","ios":"levelo://app?vid=9827ef48-3f5c-46dd-8481-d0ecb799c6a9"},"vehicle_type_id":"4","last_reported":1716051972,"current_range_meters":14000,"station_id":"ce4bgi92rcd13ifvqb90","pricing_plan_id":"cebpf4jnsgd1na2vs0mg"},{"bike_id":"4e7bfe71-7ecd-41e4-86bd-2f95026c970c","system_id":"levelo_inurba_marseille","lat":43.296263,"lon":5.377094,"is_reserved":false,"is_disabled":false,"rental_uris":{"android":"levelo://app?vid=4e7bfe71-7ecd-41e4-86bd-2f95026c970c","ios":"levelo://app?vid=4e7bfe71-7ecd-41e4-86bd-2f95026c970c"},"vehicle_type_id":"4","last_reported":1716051972,"current_range_meters":3200,"station_id":"ce4bgi92rcd13ifvqb90","pricing_plan_id":"cebpf4jnsgd1na2vs0mg"},{"bike_id":"7a634da0-1bf4-497e-90e5-e91334d6dd66","system_id":"levelo_inurba_marseille","lat":43.298037,"lon":5.381066,"is_reserved":false,"is_disabled":false,"rental_uris":{"android":"levelo://app?vid=7a634da0-1bf4-497e-90e5-e91334d6dd66","ios":"levelo://app?vid=7a634da0-1bf4-497e-90e5-e91334d6dd66"},"vehicle_type_id":"4","last_reported":1716051972,"current_range_meters":26800,"station_id":"ce4bgip2rcd13ifvqbb0","pricing_plan_id":"cebpf4jnsgd1na2vs0mg"},{"bike_id":"1fc42a62-2cff-4b07-bfa5-b7967a1c63d3","system_id":"levelo_inurba_marseille","lat":43.30402,"lon":5.38892,"is_reserved":false,"is_disabled":false,"rental_uris":{"android":"levelo://app?vid=1fc42a62-2cff-4b07-bfa5-b7967a1c63d3","ios":"levelo://app?vid=1fc42a62-2cff-4b07-bfa5-b7967a1c63d3"},"vehicle_type_id":"4","last_reported":1716051972,"current_range_meters":27200,"station_id":"ce4bgk12rcd13ifvqbi0","pricing_plan_id":"cebpf4jnsgd1na2vs0mg"},{"bike_id":"82d739f5-3cd9-4268-9b53-d84978e62f30","system_id":"levelo_inurba_marseille","lat":43.29529,"lon":5.385581,"is_reserved":false,"is_disabled":false,"rental_uris":{"android":"levelo://app?vid=82d739f5-3cd9-4268-9b53-d84978e62f30","ios":"levelo://app?vid=82d739f5-3cd9-4268-9b53-d84978e62f30"},"vehicle_type_id":"4","last_reported":1716051972,"current_range_meters":0,"station_id":"ce4bgih2rcd13ifvqba0","pricing_plan_id":"cebpf4jnsgd1na2vs0mg"},{"bike_id":"6530e8a6-ed81-4826-a051-0dc028378845","system_id":"levelo_inurba_marseille","lat":43.295317,"lon":5.374996,"is_reserved":false,"is_disabled":false,"rental_uris":{"android":"levelo://app?vid=6530e8a6-ed81-4826-a051-0dc028378845","ios":"levelo://app?vid=6530e8a6-ed81-4826-a051-0dc028378845"},"vehicle_type_id":"4","last_reported":1716051972,"current_range_meters":0,"station_id":"ce4bgkp2rcd13ifvqbmg","pricing_plan_id":"cebpf4jnsgd1na2vs0mg"},{"bike_id":"2796646f-a1d6-42e0-b1a7-5548a743537e","system_id":"levelo_inurba_marseille","lat":43.298037,"lon":5.381066,"is_reserved":false,"is_disabled":false,"rental_uris":{"android":"levelo://app?vid=2796646f-a1d6-42e0-b1a7-5548a743537e","ios":"levelo://app?vid=2796646f-a1d6-42e0-b1a7-5548a743537e"},"vehicle_type_id":"4","last_reported":1716051972,"current_range_meters":26000,"station_id":"ce4bgip2rcd13ifvqbb0","pricing_plan_id":"cebpf4jnsgd1na2vs0mg"},{"bike_id":"e4874e26-229c-4be1-bb7a-369ceccd4b6d","system_id":"levelo_inurba_marseille","lat":43.299707,"lon":5.384859,"is_reserved":false,"is_disabled":false,"rental_uris":{"android":"levelo://app?vid=e4874e26-229c-4be1-bb7a-369ceccd4b6d","ios":"levelo://app?vid=e4874e26-229c-4be1-bb7a-369ceccd4b6d"},"vehicle_type_id":"4","last_reported":1716051972,"current_range_meters":12400,"station_id":"ce4bgj92rcd13ifvqbd0","pricing_plan_id":"cebpf4jnsgd1na2vs0mg"},{"bike_id":"569b3397-57d8-40f4-a32d-59d89f0ac43c","system_id":"levelo_inurba_marseille","lat":43.295263,"lon":5.375033,"is_reserved":false,"is_disabled":false,"rental_uris":{"android":"levelo://app?vid=569b3397-57d8-40f4-a32d-59d89f0ac43c","ios":"levelo://app?vid=569b3397-57d8-40f4-a32d-59d89f0ac43c"},"vehicle_type_id":"4","last_reported":1716051972,"current_range_meters":0,"station_id":"ce4bgkp2rcd13ifvqbmg","pricing_plan_id":"cebpf4jnsgd1na2vs0mg"},{"bike_id":"a61d487a-731e-4559-871c-fac710c151dc","system_id":"levelo_inurba_marseille","lat":43.299707,"lon":5.384859,"is_reserved":false,"is_disabled":false,"rental_uris":{"android":"levelo://app?vid=a61d487a-731e-4559-871c-fac710c151dc","ios":"levelo://app?vid=a61d487a-731e-4559-871c-fac710c151dc"},"vehicle_type_id":"4","last_reported":1716051972,"current_range_meters":30000,"station_id":"ce4bgj92rcd13ifvqbd0","pricing_plan_id":"cebpf4jnsgd1na2vs0mg"},{"bike_id":"58bb2bc7-d8ca-4c70-91af-c78125faf4fa","system_id":"levelo_inurba_marseille","lat":43.299707,"lon":5.384859,"is_reserved":false,"is_disabled":false,"rental_uris":{"android":"levelo://app?vid=58bb2bc7-d8ca-4c70-91af-c78125faf4fa","ios":"levelo://app?vid=58bb2bc7-d8ca-4c70-91af-c78125faf4fa"},"vehicle_type_id":"4","last_reported":1716051972,"current_range_meters":8000,"station_id":"ce4bgj92rcd13ifvqbd0","pricing_plan_id":"cebpf4jnsgd1na2vs0mg"},{"bike_id":"fefa6d04-8b59-4b0b-8b3d-3f5809821fd6","system_id":"levelo_inurba_marseille","lat":43.299707,"lon":5.384859,"is_reserved":false,"is_disabled":false,"rental_uris":{"android":"levelo://app?vid=fefa6d04-8b59-4b0b-8b3d-3f5809821fd6","ios":"levelo://app?vid=fefa6d04-8b59-4b0b-8b3d-3f5809821fd6"},"vehicle_type_id":"4","last_reported":1716051972,"current_range_meters":400,"station_id":"ce4bgj92rcd13ifvqbd0","pricing_plan_id":"cebpf4jnsgd1na2vs0mg"},{"bike_id":"de46bdaa-3bc8-4191-a3f6-c11cf4419e9f","system_id":"levelo_inurba_marseille","lat":43.299707,"lon":5.384859,"is_reserved":false,"is_disabled":false,"rental_uris":{"android":"levelo://app?vid=de46bdaa-3bc8-4191-a3f6-c11cf4419e9f","ios":"levelo://app?vid=de46bdaa-3bc8-4191-a3f6-c11cf4419e9f"},"vehicle_type_id":"4","last_reported":1716051972,"current_range_meters":2000,"station_id":"ce4bgj92rcd13ifvqbd0","pricing_plan_id":"cebpf4jnsgd1na2vs0mg"},{"bike_id":"f99dbb5e-d793-41cd-a34b-b6b3a3c2c87d","system_id":"levelo_inurba_marseille","lat":43.299724,"lon":5.384848,"is_reserved":false,"is_disabled":false,"rental_uris":{"android":"levelo://app?vid=f99dbb5e-d793-41cd-a34b-b6b3a3c2c87d","ios":"levelo://app?vid=f99dbb5e-d793-41cd-a34b-b6b3a3c2c87d"},"vehicle_type_id":"4","last_reported":1716051972,"current_range_meters":14800,"station_id":"ce4bgj92rcd13ifvqbd0","pricing_plan_id":"cebpf4jnsgd1na2vs0mg"},{"bike_id":"a63c2bcb-4975-410b-91c4-e60c3efa3afd","system_id":"levelo_inurba_marseille","lat":43.299717,"lon":5.384845,"is_reserved":false,"is_disabled":false,"rental_uris":{"android":"levelo://app?vid=a63c2bcb-4975-410b-91c4-e60c3efa3afd","ios":"levelo://app?vid=a63c2bcb-4975-410b-91c4-e60c3efa3afd"},"vehicle_type_id":"4","last_reported":1716051972,"current_range_meters":3200,"station_id":"ce4bgj92rcd13ifvqbd0","pricing_plan_id":"cebpf4jnsgd1na2vs0mg"},{"bike_id":"4b34e2a8-7f4f-4459-b293-cdc8ef42b3b5","system_id":"levelo_inurba_marseille","lat":43.32367,"lon":5.388836,"is_reserved":false,"is_disabled":false,"rental_uris":{"android":"levelo://app?vid=4b34e2a8-7f4f-4459-b293-cdc8ef42b3b5","ios":"levelo://app?vid=4b34e2a8-7f4f-4459-b293-cdc8ef42b3b5"},"vehicle_type_id":"4","last_reported":1716051972,"current_range_meters":0,"station_id":"ce4bhqp2rcd13ifvqhog","pricing_plan_id":"cebpf4jnsgd1na2vs0mg"},{"bike_id":"48b7dc82-0fb6-4c7e-aa94-9c4959306f05","system_id":"levelo_inurba_marseille","lat":43.32367,"lon":5.388836,"is_reserved":false,"is_disabled":false,"rental_uris":{"android":"levelo://app?vid=48b7dc82-0fb6-4c7e-aa94-9c4959306f05","ios":"levelo://app?vid=48b7dc82-0fb6-4c7e-aa94-9c4959306f05"},"vehicle_type_id":"4","last_reported":1716051972,"current_range_meters":11600,"station_id":"ce4bhqp2rcd13ifvqhog","pricing_plan_id":"cebpf4jnsgd1na2vs0mg"},{"bike_id":"8a9d69ef-a7d1-4f4c-8a5a-171f02630ab8","system_id":"levelo_inurba_marseille","lat":43.32367,"lon":5.388836,"is_reserved":false,"is_disabled":false,"rental_uris":{"android":"levelo://app?vid=8a9d69ef-a7d1-4f4c-8a5a-171f02630ab8","ios":"levelo://app?vid=8a9d69ef-a7d1-4f4c-8a5a-171f02630ab8"},"vehicle_type_id":"4","last_reported":1716051972,"current_range_meters":1600,"station_id":"ce4bhqp2rcd13ifvqhog","pricing_plan_id":"cebpf4jnsgd1na2vs0mg"},{"bike_id":"48605452-56aa-4eda-9596-9db26e01f5d5","system_id":"levelo_inurba_marseille","lat":43.323158,"lon":5.389396,"is_reserved":false,"is_disabled":false,"rental_uris":{"android":"levelo://app?vid=48605452-56aa-4eda-9596-9db26e01f5d5","ios":"levelo://app?vid=48605452-56aa-4eda-9596-9db26e01f5d5"},"vehicle_type_id":"4","last_reported":1716051972,"current_range_meters":17200,"station_id":"ce4bhqp2rcd13ifvqhog","pricing_plan_id":"cebpf4jnsgd1na2vs0mg"},{"bike_id":"e7d5f2fa-17d3-4e7a-afc6-dc8d7318c657","system_id":"levelo_inurba_marseille","lat":43.29601,"lon":5.381084,"is_reserved":false,"is_disabled":false,"rental_uris":{"android":"levelo://app?vid=e7d5f2fa-17d3-4e7a-afc6-dc8d7318c657","ios":"levelo://app?vid=e7d5f2fa-17d3-4e7a-afc6-dc8d7318c657"},"vehicle_type_id":"4","last_reported":1716051972,"current_range_meters":14400,"station_id":"ce4bgl12rcd13ifvqbo0","pricing_plan_id":"cebpf4jnsgd1na2vs0mg"},{"bike_id":"8c944c12-d06f-4b94-80a3-34451e86fb9c","system_id":"levelo_inurba_marseille","lat":43.298516,"lon":5.385517,"is_reserved":false,"is_disabled":false,"rental_uris":{"android":"levelo://app?vid=8c944c12-d06f-4b94-80a3-34451e86fb9c","ios":"levelo://app?vid=8c944c12-d06f-4b94-80a3-34451e86fb9c"},"vehicle_type_id":"4","last_reported":1716051972,"current_range_meters":18000,"station_id":"","pricing_plan_id":"cebpf4jnsgd1na2vs0mg"},{"bike_id":"1d4a32ff-39b4-4081-acb8-44366ff6dd7a","system_id":"levelo_inurba_marseille","lat":43.292857,"lon":5.368762,"is_reserved":false,"is_disabled":false,"rental_uris":{"android":"levelo://app?vid=1d4a32ff-39b4-4081-acb8-44366ff6dd7a","ios":"levelo://app?vid=1d4a32ff-39b4-4081-acb8-44366ff6dd7a"},"vehicle_type_id":"4","last_reported":1716051972,"current_range_meters":9200,"station_id":"","pricing_plan_id":"cebpf4jnsgd1na2vs0mg"},{"bike_id":"9105931e-293b-469f-924a-77891f72b086","system_id":"levelo_inurba_marseille","lat":43.292821,"lon":5.368345,"is_reserved":false,"is_disabled":false,"rental_uris":{"android":"levelo://app?vid=9105931e-293b-469f-924a-77891f72b086","ios":"levelo://app?vid=9105931e-293b-469f-924a-77891f72b086"},"vehicle_type_id":"4","last_reported":1716051972,"current_range_meters":400,"station_id":"","pricing_plan_id":"cebpf4jnsgd1na2vs0mg"},{"bike_id":"edb24453-1bdf-4fed-9176-c461becd5ac3","system_id":"levelo_inurba_marseille","lat":43.2928,"lon":5.36839,"is_reserved":false,"is_disabled":false,"rental_uris":{"android":"levelo://app?vid=edb24453-1bdf-4fed-9176-c461becd5ac3","ios":"levelo://app?vid=edb24453-1bdf-4fed-9176-c461becd5ac3"},"vehicle_type_id":"4","last_reported":1716051972,"current_range_meters":0,"station_id":"","pricing_plan_id":"cebpf4jnsgd1na2vs0mg"},{"bike_id":"038fef99-2d91-421e-917f-0b90e5211714","system_id":"levelo_inurba_marseille","lat":43.29275,"lon":5.36836,"is_reserved":false,"is_disabled":false,"rental_uris":{"android":"levelo://app?vid=038fef99-2d91-421e-917f-0b90e5211714","ios":"levelo://app?vid=038fef99-2d91-421e-917f-0b90e5211714"},"vehicle_type_id":"4","last_reported":1716051972,"current_range_meters":11600,"station_id":"","pricing_plan_id":"cebpf4jnsgd1na2vs0mg"},{"bike_id":"11799a1b-d355-451c-8a19-d5e37edbdca5","system_id":"levelo_inurba_marseille","lat":43.306132,"lon":5.393277,"is_reserved":false,"is_disabled":false,"rental_uris":{"android":"levelo://app?vid=11799a1b-d355-451c-8a19-d5e37edbdca5","ios":"levelo://app?vid=11799a1b-d355-451c-8a19-d5e37edbdca5"},"vehicle_type_id":"4","last_reported":1716051972,"current_range_meters":0,"station_id":"ce4bgup2rcd13ifvqco0","pricing_plan_id":"cebpf4jnsgd1na2vs0mg"},{"bike_id":"b6710f8d-d197-4885-9c34-b452bb21464b","system_id":"levelo_inurba_marseille","lat":43.309589,"lon":5.390258,"is_reserved":false,"is_disabled":false,"rental_uris":{"android":"levelo://app?vid=b6710f8d-d197-4885-9c34-b452bb21464b","ios":"levelo://app?vid=b6710f8d-d197-4885-9c34-b452bb21464b"},"vehicle_type_id":"4","last_reported":1716051972,"current_range_meters":21600,"station_id":"ce4bgup2rcd13ifvqco0","pricing_plan_id":"cebpf4jnsgd1na2vs0mg"},{"bike_id":"31b89f58-ec2a-4163-a3bc-717ee1f2bda0","system_id":"levelo_inurba_marseille","lat":43.293009,"lon":5.374584,"is_reserved":false,"is_disabled":false,"rental_uris":{"android":"levelo://app?vid=31b89f58-ec2a-4163-a3bc-717ee1f2bda0","ios":"levelo://app?vid=31b89f58-ec2a-4163-a3bc-717ee1f2bda0"},"vehicle_type_id":"4","last_reported":1716051972,"current_range_meters":0,"station_id":"ce4bgi12rcd13ifvqb70","pricing_plan_id":"cebpf4jnsgd1na2vs0mg"},{"bike_id":"aba86e08-4d3a-47ef-9e71-1230631625ee","system_id":"levelo_inurba_marseille","lat":43.293009,"lon":5.374584,"is_reserved":false,"is_disabled":false,"rental_uris":{"android":"levelo://app?vid=aba86e08-4d3a-47ef-9e71-1230631625ee","ios":"levelo://app?vid=aba86e08-4d3a-47ef-9e71-1230631625ee"},"vehicle_type_id":"4","last_reported":1716051972,"current_range_meters":4400,"station_id":"ce4bgi12rcd13ifvqb70","pricing_plan_id":"cebpf4jnsgd1na2vs0mg"},{"bike_id":"16ee23fa-6829-4d62-b405-5a214c908576","system_id":"levelo_inurba_marseille","lat":43.305994,"lon":5.393687,"is_reserved":false,"is_disabled":false,"rental_uris":{"android":"levelo://app?vid=16ee23fa-6829-4d62-b405-5a214c908576","ios":"levelo://app?vid=16ee23fa-6829-4d62-b405-5a214c908576"},"vehicle_type_id":"4","last_reported":1716051972,"current_range_meters":5600,"station_id":"ce4bh0p2rcd13ifvqd80","pricing_plan_id":"cebpf4jnsgd1na2vs0mg"},{"bike_id":"6f72a2bd-8da8-43f7-816b-134ffaed1e71","system_id":"levelo_inurba_marseille","lat":43.293009,"lon":5.374584,"is_reserved":false,"is_disabled":false,"rental_uris":{"android":"levelo://app?vid=6f72a2bd-8da8-43f7-816b-134ffaed1e71","ios":"levelo://app?vid=6f72a2bd-8da8-43f7-816b-134ffaed1e71"},"vehicle_type_id":"4","last_reported":1716051972,"current_range_meters":4800,"station_id":"ce4bgi12rcd13ifvqb70","pricing_plan_id":"cebpf4jnsgd1na2vs0mg"},{"bike_id":"4d53c7e9-aad6-4a70-b57d-ed05fb533284","system_id":"levelo_inurba_marseille","lat":43.305994,"lon":5.393687,"is_reserved":false,"is_disabled":false,"rental_uris":{"android":"levelo://app?vid=4d53c7e9-aad6-4a70-b57d-ed05fb533284","ios":"levelo://app?vid=4d53c7e9-aad6-4a70-b57d-ed05fb533284"},"vehicle_type_id":"4","last_reported":1716051972,"current_range_meters":5200,"station_id":"ce4bh0p2rcd13ifvqd80","pricing_plan_id":"cebpf4jnsgd1na2vs0mg"},{"bike_id":"4aab47c2-ddbd-4f63-88d5-04e408c906b9","system_id":"levelo_inurba_marseille","lat":43.303083,"lon":5.392075,"is_reserved":false,"is_disabled":false,"rental_uris":{"android":"levelo://app?vid=4aab47c2-ddbd-4f63-88d5-04e408c906b9","ios":"levelo://app?vid=4aab47c2-ddbd-4f63-88d5-04e408c906b9"},"vehicle_type_id":"4","last_reported":1716051972,"current_range_meters":7200,"station_id":"ce4bgup2rcd13ifvqco0","pricing_plan_id":"cebpf4jnsgd1na2vs0mg"},{"bike_id":"916d3a55-b045-440c-b5ef-18eb4f2f3a18","system_id":"levelo_inurba_marseille","lat":43.2936,"lon":5.37835,"is_reserved":false,"is_disabled":false,"rental_uris":{"android":"levelo://app?vid=916d3a55-b045-440c-b5ef-18eb4f2f3a18","ios":"levelo://app?vid=916d3a55-b045-440c-b5ef-18eb4f2f3a18"},"vehicle_type_id":"4","last_reported":1716051972,"current_range_meters":23600,"station_id":"ce4bgjh2rcd13ifvqbf0","pricing_plan_id":"cebpf4jnsgd1na2vs0mg"},{"bike_id":"ca0efc9e-1792-4f49-9bae-fcf52357a2dc","system_id":"levelo_inurba_marseille","lat":43.293604,"lon":5.378419,"is_reserved":false,"is_disabled":false,"rental_uris":{"android":"levelo://app?vid=ca0efc9e-1792-4f49-9bae-fcf52357a2dc","ios":"levelo://app?vid=ca0efc9e-1792-4f49-9bae-fcf52357a2dc"},"vehicle_type_id":"4","last_reported":1716051972,"current_range_meters":0,"station_id":"ce4bgjh2rcd13ifvqbf0","pricing_plan_id":"cebpf4jnsgd1na2vs0mg"},{"bike_id":"b1858807-799d-422a-8c21-3ca9456b9588","system_id":"levelo_inurba_marseille","lat":43.30085,"lon":5.390856,"is_reserved":false,"is_disabled":false,"rental_uris":{"android":"levelo://app?vid=b1858807-799d-422a-8c21-3ca9456b9588","ios":"levelo://app?vid=b1858807-799d-422a-8c21-3ca9456b9588"},"vehicle_type_id":"4","last_reported":1716051972,"current_range_meters":5600,"station_id":"ce4bh192rcd13ifvqdb0","pricing_plan_id":"cebpf4jnsgd1na2vs0mg"},{"bike_id":"21b8f7be-aafe-41fb-b135-95ecd6e1bff7","system_id":"levelo_inurba_marseille","lat":43.300852,"lon":5.390859,"is_reserved":false,"is_disabled":false,"rental_uris":{"android":"levelo://app?vid=21b8f7be-aafe-41fb-b135-95ecd6e1bff7","ios":"levelo://app?vid=21b8f7be-aafe-41fb-b135-95ecd6e1bff7"},"vehicle_type_id":"4","last_reported":1716051972,"current_range_meters":400,"station_id":"ce4bh192rcd13ifvqdb0","pricing_plan_id":"cebpf4jnsgd1na2vs0mg"},{"bike_id":"71993f24-c67f-48b7-8844-424d05632f73","system_id":"levelo_inurba_marseille","lat":43.29221,"lon":5.36051,"is_reserved":false,"is_disabled":false,"rental_uris":{"android":"levelo://app?vid=71993f24-c67f-48b7-8844-424d05632f73","ios":"levelo://app?vid=71993f24-c67f-48b7-8844-424d05632f73"},"vehicle_type_id":"4","last_reported":1716051972,"current_range_meters":19600,"station_id":"ce4bhbh2rcd13ifvqeqg","pricing_plan_id":"cebpf4jnsgd1na2vs0mg"},{"bike_id":"1a65b2e9-7ad0-4ee5-83d9-0680dfe5921b","system_id":"levelo_inurba_marseille","lat":43.298764,"lon":5.388973,"is_reserved":false,"is_disabled":false,"rental_uris":{"android":"levelo://app?vid=1a65b2e9-7ad0-4ee5-83d9-0680dfe5921b","ios":"levelo://app?vid=1a65b2e9-7ad0-4ee5-83d9-0680dfe5921b"},"vehicle_type_id":"4","last_reported":1716051972,"current_range_meters":8800,"station_id":"ce4bh392rcd13ifvqdl0","pricing_plan_id":"cebpf4jnsgd1na2vs0mg"},{"bike_id":"d9148242-909f-4f03-988d-94561209186b","system_id":"levelo_inurba_marseille","lat":43.293009,"lon":5.374584,"is_reserved":false,"is_disabled":false,"rental_uris":{"android":"levelo://app?vid=d9148242-909f-4f03-988d-94561209186b","ios":"levelo://app?vid=d9148242-909f-4f03-988d-94561209186b"},"vehicle_type_id":"4","last_reported":1716051972,"current_range_meters":14000,"station_id":"ce4bgi12rcd13ifvqb70","pricing_plan_id":"cebpf4jnsgd1na2vs0mg"},{"bike_id":"d6ff462c-98ef-4c82-8f3d-dd97e6330b33","system_id":"levelo_inurba_marseille","lat":43.293467,"lon":5.379076,"is_reserved":false,"is_disabled":false,"rental_uris":{"android":"levelo://app?vid=d6ff462c-98ef-4c82-8f3d-dd97e6330b33","ios":"levelo://app?vid=d6ff462c-98ef-4c82-8f3d-dd97e6330b33"},"vehicle_type_id":"4","last_reported":1716051972,"current_range_meters":0,"station_id":"ce4bgjh2rcd13ifvqbf0","pricing_plan_id":"cebpf4jnsgd1na2vs0mg"},{"bike_id":"c2d7b3be-86c9-4802-b548-6c55000662ff","system_id":"levelo_inurba_marseille","lat":43.29179,"lon":5.3716,"is_reserved":false,"is_disabled":false,"rental_uris":{"android":"levelo://app?vid=c2d7b3be-86c9-4802-b548-6c55000662ff","ios":"levelo://app?vid=c2d7b3be-86c9-4802-b548-6c55000662ff"},"vehicle_type_id":"4","last_reported":1716051972,"current_range_meters":24800,"station_id":"ce4bha92rcd13ifvqeh0","pricing_plan_id":"cebpf4jnsgd1na2vs0mg"},{"bike_id":"1f3e7094-272b-4556-8d17-ae3505035d12","system_id":"levelo_inurba_marseille","lat":43.293009,"lon":5.374584,"is_reserved":false,"is_disabled":false,"rental_uris":{"android":"levelo://app?vid=1f3e7094-272b-4556-8d17-ae3505035d12","ios":"levelo://app?vid=1f3e7094-272b-4556-8d17-ae3505035d12"},"vehicle_type_id":"4","last_reported":1716051972,"current_range_meters":4800,"station_id":"ce4bgi12rcd13ifvqb70","pricing_plan_id":"cebpf4jnsgd1na2vs0mg"},{"bike_id":"137658bc-8465-472c-bc1e-d94249d0a3fd","system_id":"levelo_inurba_marseille","lat":43.298764,"lon":5.388973,"is_reserved":false,"is_disabled":false,"rental_uris":{"android":"levelo://app?vid=137658bc-8465-472c-bc1e-d94249d0a3fd","ios":"levelo://app?vid=137658bc-8465-472c-bc1e-d94249d0a3fd"},"vehicle_type_id":"4","last_reported":1716051972,"current_range_meters":0,"station_id":"ce4bh392rcd13ifvqdl0","pricing_plan_id":"cebpf4jnsgd1na2vs0mg"},{"bike_id":"3896fc80-8bde-49db-911c-96543a704a5a","system_id":"levelo_inurba_marseille","lat":43.29172,"lon":5.37146,"is_reserved":false,"is_disabled":false,"rental_uris":{"android":"levelo://app?vid=3896fc80-8bde-49db-911c-96543a704a5a","ios":"levelo://app?vid=3896fc80-8bde-49db-911c-96543a704a5a"},"vehicle_type_id":"4","last_reported":1716051972,"current_range_meters":0,"station_id":"ce4bha92rcd13ifvqeh0","pricing_plan_id":"cebpf4jnsgd1na2vs0mg"},{"bike_id":"cc4eb6be-3653-406f-b7c3-2ed1ddcd2979","system_id":"levelo_inurba_marseille","lat":43.291675,"lon":5.371618,"is_reserved":false,"is_disabled":false,"rental_uris":{"android":"levelo://app?vid=cc4eb6be-3653-406f-b7c3-2ed1ddcd2979","ios":"levelo://app?vid=cc4eb6be-3653-406f-b7c3-2ed1ddcd2979"},"vehicle_type_id":"4","last_reported":1716051972,"current_range_meters":0,"station_id":"ce4bha92rcd13ifvqeh0","pricing_plan_id":"cebpf4jnsgd1na2vs0mg"},{"bike_id":"147ad8e8-cd4a-40ac-8578-9d480073bb3e","system_id":"levelo_inurba_marseille","lat":43.29165,"lon":5.37158,"is_reserved":false,"is_disabled":false,"rental_uris":{"android":"levelo://app?vid=147ad8e8-cd4a-40ac-8578-9d480073bb3e","ios":"levelo://app?vid=147ad8e8-cd4a-40ac-8578-9d480073bb3e"},"vehicle_type_id":"4","last_reported":1716051972,"current_range_meters":4800,"station_id":"ce4bhbh2rcd13ifvqeqg","pricing_plan_id":"cebpf4jnsgd1na2vs0mg"},{"bike_id":"3f3156ab-5a75-4fcd-9098-d130c40e7cec","system_id":"levelo_inurba_marseille","lat":43.291671,"lon":5.371575,"is_reserved":false,"is_disabled":false,"rental_uris":{"android":"levelo://app?vid=3f3156ab-5a75-4fcd-9098-d130c40e7cec","ios":"levelo://app?vid=3f3156ab-5a75-4fcd-9098-d130c40e7cec"},"vehicle_type_id":"4","last_reported":1716051972,"current_range_meters":7200,"station_id":"ce4bha92rcd13ifvqeh0","pricing_plan_id":"cebpf4jnsgd1na2vs0mg"},{"bike_id":"5ea373d6-9f6f-4944-9b9a-541e1d1e607e","system_id":"levelo_inurba_marseille","lat":43.304296,"lon":5.397513,"is_reserved":false,"is_disabled":false,"rental_uris":{"android":"levelo://app?vid=5ea373d6-9f6f-4944-9b9a-541e1d1e607e","ios":"levelo://app?vid=5ea373d6-9f6f-4944-9b9a-541e1d1e607e"},"vehicle_type_id":"4","last_reported":1716051972,"current_range_meters":20800,"station_id":"ce4bh092rcd13ifvqd20","pricing_plan_id":"cebpf4jnsgd1na2vs0mg"},{"bike_id":"b79f973d-7aa3-40cf-b5e8-d55a479f1709","system_id":"levelo_inurba_marseille","lat":43.292005,"lon":5.357875,"is_reserved":false,"is_disabled":false,"rental_uris":{"android":"levelo://app?vid=b79f973d-7aa3-40cf-b5e8-d55a479f1709","ios":"levelo://app?vid=b79f973d-7aa3-40cf-b5e8-d55a479f1709"},"vehicle_type_id":"4","last_reported":1716051972,"current_range_meters":23600,"station_id":"ce4bhb12rcd13ifvqel0","pricing_plan_id":"cebpf4jnsgd1na2vs0mg"},{"bike_id":"b23c44de-bcf1-49ae-83aa-a7957af8c3a3","system_id":"levelo_inurba_marseille","lat":43.291994,"lon":5.357886,"is_reserved":false,"is_disabled":false,"rental_uris":{"android":"levelo://app?vid=b23c44de-bcf1-49ae-83aa-a7957af8c3a3","ios":"levelo://app?vid=b23c44de-bcf1-49ae-83aa-a7957af8c3a3"},"vehicle_type_id":"4","last_reported":1716051972,"current_range_meters":12000,"station_id":"ce4bhb12rcd13ifvqel0","pricing_plan_id":"cebpf4jnsgd1na2vs0mg"},{"bike_id":"1ddc7476-3bcf-4ace-a50c-29ede82eb5e2","system_id":"levelo_inurba_marseille","lat":43.291994,"lon":5.357886,"is_reserved":false,"is_disabled":false,"rental_uris":{"android":"levelo://app?vid=1ddc7476-3bcf-4ace-a50c-29ede82eb5e2","ios":"levelo://app?vid=1ddc7476-3bcf-4ace-a50c-29ede82eb5e2"},"vehicle_type_id":"4","last_reported":1716051972,"current_range_meters":6800,"station_id":"ce4bhb12rcd13ifvqel0","pricing_plan_id":"cebpf4jnsgd1na2vs0mg"},{"bike_id":"00193de1-f93f-4311-bc48-e12cc88bc183","system_id":"levelo_inurba_marseille","lat":43.313291,"lon":5.396838,"is_reserved":false,"is_disabled":false,"rental_uris":{"android":"levelo://app?vid=00193de1-f93f-4311-bc48-e12cc88bc183","ios":"levelo://app?vid=00193de1-f93f-4311-bc48-e12cc88bc183"},"vehicle_type_id":"4","last_reported":1716051972,"current_range_meters":12000,"station_id":"ce4bgvp2rcd13ifvqcu0","pricing_plan_id":"cebpf4jnsgd1na2vs0mg"},{"bike_id":"db16f1cd-d070-489a-950f-278e80acbff0","system_id":"levelo_inurba_marseille","lat":43.31326,"lon":5.39693,"is_reserved":false,"is_disabled":false,"rental_uris":{"android":"levelo://app?vid=db16f1cd-d070-489a-950f-278e80acbff0","ios":"levelo://app?vid=db16f1cd-d070-489a-950f-278e80acbff0"},"vehicle_type_id":"4","last_reported":1716051972,"current_range_meters":0,"station_id":"ce4bgvp2rcd13ifvqcu0","pricing_plan_id":"cebpf4jnsgd1na2vs0mg"},{"bike_id":"07834ba2-1f8d-41ce-9e5b-488f46b35754","system_id":"levelo_inurba_marseille","lat":43.309038,"lon":5.396546,"is_reserved":false,"is_disabled":false,"rental_uris":{"android":"levelo://app?vid=07834ba2-1f8d-41ce-9e5b-488f46b35754","ios":"levelo://app?vid=07834ba2-1f8d-41ce-9e5b-488f46b35754"},"vehicle_type_id":"4","last_reported":1716051972,"current_range_meters":2800,"station_id":"ce4bh012rcd13ifvqcv0","pricing_plan_id":"cebpf4jnsgd1na2vs0mg"},{"bike_id":"c6e25106-721b-4491-b620-c4ca797fa4ce","system_id":"levelo_inurba_marseille","lat":43.284793,"lon":5.384113,"is_reserved":false,"is_disabled":false,"rental_uris":{"android":"levelo://app?vid=c6e25106-721b-4491-b620-c4ca797fa4ce","ios":"levelo://app?vid=c6e25106-721b-4491-b620-c4ca797fa4ce"},"vehicle_type_id":"4","last_reported":1716051972,"current_range_meters":20400,"station_id":"ce4bh512rcd13ifvqe3g","pricing_plan_id":"cebpf4jnsgd1na2vs0mg"},{"bike_id":"6ef635bc-f06f-4731-92ab-3d5edcf1fd1f","system_id":"levelo_inurba_marseille","lat":43.29529,"lon":5.385581,"is_reserved":false,"is_disabled":false,"rental_uris":{"android":"levelo://app?vid=6ef635bc-f06f-4731-92ab-3d5edcf1fd1f","ios":"levelo://app?vid=6ef635bc-f06f-4731-92ab-3d5edcf1fd1f"},"vehicle_type_id":"4","last_reported":1716051972,"current_range_meters":16400,"station_id":"ce4bgih2rcd13ifvqba0","pricing_plan_id":"cebpf4jnsgd1na2vs0mg"},{"bike_id":"3bab4a2e-f620-4c0f-b979-811ac8645699","system_id":"levelo_inurba_marseille","lat":43.298768,"lon":5.43643,"is_reserved":false,"is_disabled":false,"rental_uris":{"android":"levelo://app?vid=3bab4a2e-f620-4c0f-b979-811ac8645699","ios":"levelo://app?vid=3bab4a2e-f620-4c0f-b979-811ac8645699"},"vehicle_type_id":"4","last_reported":1716051972,"current_range_meters":4800,"station_id":"ce4bhpp2rcd13ifvqhfg","pricing_plan_id":"cebpf4jnsgd1na2vs0mg"},{"bike_id":"8fcc95d8-9f55-4eea-9eff-4dac2e8ab321","system_id":"levelo_inurba_marseille","lat":43.290779,"lon":5.371482,"is_reserved":false,"is_disabled":false,"rental_uris":{"android":"levelo://app?vid=8fcc95d8-9f55-4eea-9eff-4dac2e8ab321","ios":"levelo://app?vid=8fcc95d8-9f55-4eea-9eff-4dac2e8ab321"},"vehicle_type_id":"4","last_reported":1716051972,"current_range_meters":15600,"station_id":"ce4bh5p2rcd13ifvqe4g","pricing_plan_id":"cebpf4jnsgd1na2vs0mg"},{"bike_id":"e77ec766-ecb6-406c-b721-1b0cae2e3277","system_id":"levelo_inurba_marseille","lat":43.290779,"lon":5.371482,"is_reserved":false,"is_disabled":false,"rental_uris":{"android":"levelo://app?vid=e77ec766-ecb6-406c-b721-1b0cae2e3277","ios":"levelo://app?vid=e77ec766-ecb6-406c-b721-1b0cae2e3277"},"vehicle_type_id":"4","last_reported":1716051972,"current_range_meters":10400,"station_id":"ce4bh5p2rcd13ifvqe4g","pricing_plan_id":"cebpf4jnsgd1na2vs0mg"},{"bike_id":"a10b4e94-a2f6-4754-aa6e-cf1ec326abce","system_id":"levelo_inurba_marseille","lat":43.290779,"lon":5.371482,"is_reserved":false,"is_disabled":false,"rental_uris":{"android":"levelo://app?vid=a10b4e94-a2f6-4754-aa6e-cf1ec326abce","ios":"levelo://app?vid=a10b4e94-a2f6-4754-aa6e-cf1ec326abce"},"vehicle_type_id":"4","last_reported":1716051972,"current_range_meters":0,"station_id":"ce4bh5p2rcd13ifvqe4g","pricing_plan_id":"cebpf4jnsgd1na2vs0mg"},{"bike_id":"bfb45156-1272-4451-894b-32c08b8a238d","system_id":"levelo_inurba_marseille","lat":43.290779,"lon":5.371482,"is_reserved":false,"is_disabled":false,"rental_uris":{"android":"levelo://app?vid=bfb45156-1272-4451-894b-32c08b8a238d","ios":"levelo://app?vid=bfb45156-1272-4451-894b-32c08b8a238d"},"vehicle_type_id":"4","last_reported":1716051972,"current_range_meters":5200,"station_id":"ce4bh5p2rcd13ifvqe4g","pricing_plan_id":"cebpf4jnsgd1na2vs0mg"},{"bike_id":"ae0709bb-3716-4572-9db7-f747d0b9dc9a","system_id":"levelo_inurba_marseille","lat":43.302008,"lon":5.394694,"is_reserved":false,"is_disabled":false,"rental_uris":{"android":"levelo://app?vid=ae0709bb-3716-4572-9db7-f747d0b9dc9a","ios":"levelo://app?vid=ae0709bb-3716-4572-9db7-f747d0b9dc9a"},"vehicle_type_id":"4","last_reported":1716051972,"current_range_meters":6000,"station_id":"ce4bh0p2rcd13ifvqd70","pricing_plan_id":"cebpf4jnsgd1na2vs0mg"},{"bike_id":"e844b326-d9cd-4167-8c35-041a230dcad3","system_id":"levelo_inurba_marseille","lat":43.302008,"lon":5.394694,"is_reserved":false,"is_disabled":false,"rental_uris":{"android":"levelo://app?vid=e844b326-d9cd-4167-8c35-041a230dcad3","ios":"levelo://app?vid=e844b326-d9cd-4167-8c35-041a230dcad3"},"vehicle_type_id":"4","last_reported":1716051972,"current_range_meters":800,"station_id":"ce4bh0p2rcd13ifvqd70","pricing_plan_id":"cebpf4jnsgd1na2vs0mg"},{"bike_id":"c1f1a4eb-c362-48c2-9ba4-faf20b5c5eb9","system_id":"levelo_inurba_marseille","lat":43.302008,"lon":5.394694,"is_reserved":false,"is_disabled":false,"rental_uris":{"android":"levelo://app?vid=c1f1a4eb-c362-48c2-9ba4-faf20b5c5eb9","ios":"levelo://app?vid=c1f1a4eb-c362-48c2-9ba4-faf20b5c5eb9"},"vehicle_type_id":"4","last_reported":1716051972,"current_range_meters":3600,"station_id":"ce4bh0p2rcd13ifvqd70","pricing_plan_id":"cebpf4jnsgd1na2vs0mg"},{"bike_id":"fbcd8e12-c3bc-45f5-9064-55a91fa1fb51","system_id":"levelo_inurba_marseille","lat":43.30225,"lon":5.39484,"is_reserved":false,"is_disabled":false,"rental_uris":{"android":"levelo://app?vid=fbcd8e12-c3bc-45f5-9064-55a91fa1fb51","ios":"levelo://app?vid=fbcd8e12-c3bc-45f5-9064-55a91fa1fb51"},"vehicle_type_id":"4","last_reported":1716051972,"current_range_meters":9200,"station_id":"","pricing_plan_id":"cebpf4jnsgd1na2vs0mg"},{"bike_id":"2a527992-2300-46fb-bbc4-2979eb22c4b8","system_id":"levelo_inurba_marseille","lat":43.290476,"lon":5.359236,"is_reserved":false,"is_disabled":false,"rental_uris":{"android":"levelo://app?vid=2a527992-2300-46fb-bbc4-2979eb22c4b8","ios":"levelo://app?vid=2a527992-2300-46fb-bbc4-2979eb22c4b8"},"vehicle_type_id":"4","last_reported":1716051972,"current_range_meters":0,"station_id":"ce4bha92rcd13ifvqeg0","pricing_plan_id":"cebpf4jnsgd1na2vs0mg"},{"bike_id":"6cfbc990-eee9-4af6-8893-a043ca3138b8","system_id":"levelo_inurba_marseille","lat":43.288497,"lon":5.393089,"is_reserved":false,"is_disabled":false,"rental_uris":{"android":"levelo://app?vid=6cfbc990-eee9-4af6-8893-a043ca3138b8","ios":"levelo://app?vid=6cfbc990-eee9-4af6-8893-a043ca3138b8"},"vehicle_type_id":"4","last_reported":1716051972,"current_range_meters":2400,"station_id":"ce4bh2p2rcd13ifvqdi0","pricing_plan_id":"cebpf4jnsgd1na2vs0mg"},{"bike_id":"17abf9cd-e487-46e6-9a45-0b710aa42065","system_id":"levelo_inurba_marseille","lat":43.290631,"lon":5.359244,"is_reserved":false,"is_disabled":false,"rental_uris":{"android":"levelo://app?vid=17abf9cd-e487-46e6-9a45-0b710aa42065","ios":"levelo://app?vid=17abf9cd-e487-46e6-9a45-0b710aa42065"},"vehicle_type_id":"4","last_reported":1716051972,"current_range_meters":26000,"station_id":"ce4bha92rcd13ifvqeg0","pricing_plan_id":"cebpf4jnsgd1na2vs0mg"},{"bike_id":"9ef76638-f3ed-49cc-881b-df32ff3edd41","system_id":"levelo_inurba_marseille","lat":43.289184,"lon":5.366408,"is_reserved":false,"is_disabled":false,"rental_uris":{"android":"levelo://app?vid=9ef76638-f3ed-49cc-881b-df32ff3edd41","ios":"levelo://app?vid=9ef76638-f3ed-49cc-881b-df32ff3edd41"},"vehicle_type_id":"4","last_reported":1716051972,"current_range_meters":2800,"station_id":"ce4bhap2rcd13ifvqek0","pricing_plan_id":"cebpf4jnsgd1na2vs0mg"},{"bike_id":"cbc7d845-86f5-4270-9ff0-289bcc18e095","system_id":"levelo_inurba_marseille","lat":43.290631,"lon":5.359244,"is_reserved":false,"is_disabled":false,"rental_uris":{"android":"levelo://app?vid=cbc7d845-86f5-4270-9ff0-289bcc18e095","ios":"levelo://app?vid=cbc7d845-86f5-4270-9ff0-289bcc18e095"},"vehicle_type_id":"4","last_reported":1716051972,"current_range_meters":25600,"station_id":"ce4bha92rcd13ifvqeg0","pricing_plan_id":"cebpf4jnsgd1na2vs0mg"},{"bike_id":"e517654d-66c1-4413-a470-9de35aa18518","system_id":"levelo_inurba_marseille","lat":43.294153,"lon":5.386305,"is_reserved":false,"is_disabled":false,"rental_uris":{"android":"levelo://app?vid=e517654d-66c1-4413-a470-9de35aa18518","ios":"levelo://app?vid=e517654d-66c1-4413-a470-9de35aa18518"},"vehicle_type_id":"4","last_reported":1716051972,"current_range_meters":6800,"station_id":"ce4bh2h2rcd13ifvqdh0","pricing_plan_id":"cebpf4jnsgd1na2vs0mg"},{"bike_id":"6c03ba63-ec39-4563-9a29-552debcb9701","system_id":"levelo_inurba_marseille","lat":43.289572,"lon":5.364437,"is_reserved":false,"is_disabled":false,"rental_uris":{"android":"levelo://app?vid=6c03ba63-ec39-4563-9a29-552debcb9701","ios":"levelo://app?vid=6c03ba63-ec39-4563-9a29-552debcb9701"},"vehicle_type_id":"4","last_reported":1716051972,"current_range_meters":0,"station_id":"ce4bhc92rcd13ifvqetg","pricing_plan_id":"cebpf4jnsgd1na2vs0mg"},{"bike_id":"98a7e647-9bf4-4795-902b-1b2e33568160","system_id":"levelo_inurba_marseille","lat":43.294153,"lon":5.386305,"is_reserved":false,"is_disabled":false,"rental_uris":{"android":"levelo://app?vid=98a7e647-9bf4-4795-902b-1b2e33568160","ios":"levelo://app?vid=98a7e647-9bf4-4795-902b-1b2e33568160"},"vehicle_type_id":"4","last_reported":1716051972,"current_range_meters":0,"station_id":"ce4bh2h2rcd13ifvqdh0","pricing_plan_id":"cebpf4jnsgd1na2vs0mg"},{"bike_id":"90c973bb-e88c-4ef7-a3eb-5d383ba7c2ab","system_id":"levelo_inurba_marseille","lat":43.28946,"lon":5.36629,"is_reserved":false,"is_disabled":false,"rental_uris":{"android":"levelo://app?vid=90c973bb-e88c-4ef7-a3eb-5d383ba7c2ab","ios":"levelo://app?vid=90c973bb-e88c-4ef7-a3eb-5d383ba7c2ab"},"vehicle_type_id":"4","last_reported":1716051972,"current_range_meters":0,"station_id":"ce4bhap2rcd13ifvqek0","pricing_plan_id":"cebpf4jnsgd1na2vs0mg"},{"bike_id":"0cc2fbb7-c028-48b5-882d-52706f863d6d","system_id":"levelo_inurba_marseille","lat":43.294162,"lon":5.386292,"is_reserved":false,"is_disabled":false,"rental_uris":{"android":"levelo://app?vid=0cc2fbb7-c028-48b5-882d-52706f863d6d","ios":"levelo://app?vid=0cc2fbb7-c028-48b5-882d-52706f863d6d"},"vehicle_type_id":"4","last_reported":1716051972,"current_range_meters":17200,"station_id":"ce4bh2h2rcd13ifvqdh0","pricing_plan_id":"cebpf4jnsgd1na2vs0mg"},{"bike_id":"7fd55a72-53ed-4ace-a390-c7962ee1a35c","system_id":"levelo_inurba_marseille","lat":43.294614,"lon":5.387088,"is_reserved":false,"is_disabled":false,"rental_uris":{"android":"levelo://app?vid=7fd55a72-53ed-4ace-a390-c7962ee1a35c","ios":"levelo://app?vid=7fd55a72-53ed-4ace-a390-c7962ee1a35c"},"vehicle_type_id":"4","last_reported":1716051972,"current_range_meters":0,"station_id":"ce4bh2h2rcd13ifvqdh0","pricing_plan_id":"cebpf4jnsgd1na2vs0mg"},{"bike_id":"405fb4cb-9de8-461a-96f8-45f279691cd2","system_id":"levelo_inurba_marseille","lat":43.289184,"lon":5.366408,"is_reserved":false,"is_disabled":false,"rental_uris":{"android":"levelo://app?vid=405fb4cb-9de8-461a-96f8-45f279691cd2","ios":"levelo://app?vid=405fb4cb-9de8-461a-96f8-45f279691cd2"},"vehicle_type_id":"4","last_reported":1716051972,"current_range_meters":17600,"station_id":"ce4bhap2rcd13ifvqek0","pricing_plan_id":"cebpf4jnsgd1na2vs0mg"},{"bike_id":"7cf742d8-c577-4eb3-829d-b109556931bd","system_id":"levelo_inurba_marseille","lat":43.289184,"lon":5.366408,"is_reserved":false,"is_disabled":false,"rental_uris":{"android":"levelo://app?vid=7cf742d8-c577-4eb3-829d-b109556931bd","ios":"levelo://app?vid=7cf742d8-c577-4eb3-829d-b109556931bd"},"vehicle_type_id":"4","last_reported":1716051972,"current_range_meters":0,"station_id":"ce4bhap2rcd13ifvqek0","pricing_plan_id":"cebpf4jnsgd1na2vs0mg"},{"bike_id":"22366688-4a24-4dc0-bdcd-5ff233f90a56","system_id":"levelo_inurba_marseille","lat":43.290268,"lon":5.375568,"is_reserved":false,"is_disabled":false,"rental_uris":{"android":"levelo://app?vid=22366688-4a24-4dc0-bdcd-5ff233f90a56","ios":"levelo://app?vid=22366688-4a24-4dc0-bdcd-5ff233f90a56"},"vehicle_type_id":"4","last_reported":1716051972,"current_range_meters":0,"station_id":"ce4bh692rcd13ifvqe90","pricing_plan_id":"cebpf4jnsgd1na2vs0mg"},{"bike_id":"f8dd078d-51d8-48f3-a5ac-29cada2a04dd","system_id":"levelo_inurba_marseille","lat":43.289184,"lon":5.366408,"is_reserved":false,"is_disabled":false,"rental_uris":{"android":"levelo://app?vid=f8dd078d-51d8-48f3-a5ac-29cada2a04dd","ios":"levelo://app?vid=f8dd078d-51d8-48f3-a5ac-29cada2a04dd"},"vehicle_type_id":"4","last_reported":1716051972,"current_range_meters":1200,"station_id":"ce4bhap2rcd13ifvqek0","pricing_plan_id":"cebpf4jnsgd1na2vs0mg"},{"bike_id":"44cf547f-f5e5-4567-94c3-5f173dc45d58","system_id":"levelo_inurba_marseille","lat":43.289184,"lon":5.366408,"is_reserved":false,"is_disabled":false,"rental_uris":{"android":"levelo://app?vid=44cf547f-f5e5-4567-94c3-5f173dc45d58","ios":"levelo://app?vid=44cf547f-f5e5-4567-94c3-5f173dc45d58"},"vehicle_type_id":"4","last_reported":1716051972,"current_range_meters":6800,"station_id":"ce4bhap2rcd13ifvqek0","pricing_plan_id":"cebpf4jnsgd1na2vs0mg"},{"bike_id":"184b156a-6f90-4c9e-84c0-29551749003a","system_id":"levelo_inurba_marseille","lat":43.28938,"lon":5.36638,"is_reserved":false,"is_disabled":false,"rental_uris":{"android":"levelo://app?vid=184b156a-6f90-4c9e-84c0-29551749003a","ios":"levelo://app?vid=184b156a-6f90-4c9e-84c0-29551749003a"},"vehicle_type_id":"4","last_reported":1716051972,"current_range_meters":6400,"station_id":"ce4bhap2rcd13ifvqek0","pricing_plan_id":"cebpf4jnsgd1na2vs0mg"},{"bike_id":"558cdd4c-0444-4d64-97ba-0816131d6342","system_id":"levelo_inurba_marseille","lat":43.289465,"lon":5.363995,"is_reserved":false,"is_disabled":false,"rental_uris":{"android":"levelo://app?vid=558cdd4c-0444-4d64-97ba-0816131d6342","ios":"levelo://app?vid=558cdd4c-0444-4d64-97ba-0816131d6342"},"vehicle_type_id":"4","last_reported":1716051972,"current_range_meters":10800,"station_id":"","pricing_plan_id":"cebpf4jnsgd1na2vs0mg"},{"bike_id":"c8302006-e908-411d-bf37-15e58ea66c0e","system_id":"levelo_inurba_marseille","lat":43.289347,"lon":5.366492,"is_reserved":false,"is_disabled":false,"rental_uris":{"android":"levelo://app?vid=c8302006-e908-411d-bf37-15e58ea66c0e","ios":"levelo://app?vid=c8302006-e908-411d-bf37-15e58ea66c0e"},"vehicle_type_id":"4","last_reported":1716051972,"current_range_meters":0,"station_id":"ce4bhap2rcd13ifvqek0","pricing_plan_id":"cebpf4jnsgd1na2vs0mg"},{"bike_id":"b20dbaa4-1672-43dc-80be-4b747ed18690","system_id":"levelo_inurba_marseille","lat":43.28934,"lon":5.36633,"is_reserved":false,"is_disabled":false,"rental_uris":{"android":"levelo://app?vid=b20dbaa4-1672-43dc-80be-4b747ed18690","ios":"levelo://app?vid=b20dbaa4-1672-43dc-80be-4b747ed18690"},"vehicle_type_id":"4","last_reported":1716051972,"current_range_meters":0,"station_id":"ce4bhap2rcd13ifvqek0","pricing_plan_id":"cebpf4jnsgd1na2vs0mg"},{"bike_id":"72e65ec1-14ed-45b1-87a3-2df2a1fa2993","system_id":"levelo_inurba_marseille","lat":43.28931,"lon":5.36628,"is_reserved":false,"is_disabled":false,"rental_uris":{"android":"levelo://app?vid=72e65ec1-14ed-45b1-87a3-2df2a1fa2993","ios":"levelo://app?vid=72e65ec1-14ed-45b1-87a3-2df2a1fa2993"},"vehicle_type_id":"4","last_reported":1716051972,"current_range_meters":4000,"station_id":"ce4bhap2rcd13ifvqek0","pricing_plan_id":"cebpf4jnsgd1na2vs0mg"},{"bike_id":"a2f0286a-7b91-4607-8c5d-803b5900f733","system_id":"levelo_inurba_marseille","lat":43.289943,"lon":5.359379,"is_reserved":false,"is_disabled":false,"rental_uris":{"android":"levelo://app?vid=a2f0286a-7b91-4607-8c5d-803b5900f733","ios":"levelo://app?vid=a2f0286a-7b91-4607-8c5d-803b5900f733"},"vehicle_type_id":"4","last_reported":1716051972,"current_range_meters":0,"station_id":"ce4bha92rcd13ifvqeg0","pricing_plan_id":"cebpf4jnsgd1na2vs0mg"},{"bike_id":"8960bc9a-2381-470d-be73-b2389096d5f8","system_id":"levelo_inurba_marseille","lat":43.289184,"lon":5.366408,"is_reserved":false,"is_disabled":false,"rental_uris":{"android":"levelo://app?vid=8960bc9a-2381-470d-be73-b2389096d5f8","ios":"levelo://app?vid=8960bc9a-2381-470d-be73-b2389096d5f8"},"vehicle_type_id":"4","last_reported":1716051972,"current_range_meters":5200,"station_id":"ce4bhap2rcd13ifvqek0","pricing_plan_id":"cebpf4jnsgd1na2vs0mg"},{"bike_id":"b33d7202-d267-4cf8-9547-6d29fba2725f","system_id":"levelo_inurba_marseille","lat":43.284793,"lon":5.384119,"is_reserved":false,"is_disabled":false,"rental_uris":{"android":"levelo://app?vid=b33d7202-d267-4cf8-9547-6d29fba2725f","ios":"levelo://app?vid=b33d7202-d267-4cf8-9547-6d29fba2725f"},"vehicle_type_id":"4","last_reported":1716051972,"current_range_meters":0,"station_id":"ce4bh512rcd13ifvqe3g","pricing_plan_id":"cebpf4jnsgd1na2vs0mg"},{"bike_id":"ece5e575-aa4b-418f-b0e8-411083fb5743","system_id":"levelo_inurba_marseille","lat":43.294153,"lon":5.386305,"is_reserved":false,"is_disabled":false,"rental_uris":{"android":"levelo://app?vid=ece5e575-aa4b-418f-b0e8-411083fb5743","ios":"levelo://app?vid=ece5e575-aa4b-418f-b0e8-411083fb5743"},"vehicle_type_id":"4","last_reported":1716051972,"current_range_meters":800,"station_id":"ce4bh2h2rcd13ifvqdh0","pricing_plan_id":"cebpf4jnsgd1na2vs0mg"},{"bike_id":"b4d6afb9-fcf9-4e57-a477-ca34fc937a9b","system_id":"levelo_inurba_marseille","lat":43.292644,"lon":5.384257,"is_reserved":false,"is_disabled":false,"rental_uris":{"android":"levelo://app?vid=b4d6afb9-fcf9-4e57-a477-ca34fc937a9b","ios":"levelo://app?vid=b4d6afb9-fcf9-4e57-a477-ca34fc937a9b"},"vehicle_type_id":"4","last_reported":1716051972,"current_range_meters":0,"station_id":"ce4bh692rcd13ifvqea0","pricing_plan_id":"cebpf4jnsgd1na2vs0mg"},{"bike_id":"6ff3101b-947a-4a22-89f1-1881ffaff761","system_id":"levelo_inurba_marseille","lat":43.304296,"lon":5.397513,"is_reserved":false,"is_disabled":false,"rental_uris":{"android":"levelo://app?vid=6ff3101b-947a-4a22-89f1-1881ffaff761","ios":"levelo://app?vid=6ff3101b-947a-4a22-89f1-1881ffaff761"},"vehicle_type_id":"4","last_reported":1716051972,"current_range_meters":18400,"station_id":"ce4bh092rcd13ifvqd20","pricing_plan_id":"cebpf4jnsgd1na2vs0mg"},{"bike_id":"ba35410b-5462-4dbe-a048-7685c34bbf4f","system_id":"levelo_inurba_marseille","lat":43.290103,"lon":5.356114,"is_reserved":false,"is_disabled":false,"rental_uris":{"android":"levelo://app?vid=ba35410b-5462-4dbe-a048-7685c34bbf4f","ios":"levelo://app?vid=ba35410b-5462-4dbe-a048-7685c34bbf4f"},"vehicle_type_id":"4","last_reported":1716051972,"current_range_meters":4000,"station_id":"ce4bhb92rcd13ifvqen0","pricing_plan_id":"cebpf4jnsgd1na2vs0mg"},{"bike_id":"51237ee2-64bb-42fa-aa4a-242df08a2488","system_id":"levelo_inurba_marseille","lat":43.290103,"lon":5.356114,"is_reserved":false,"is_disabled":false,"rental_uris":{"android":"levelo://app?vid=51237ee2-64bb-42fa-aa4a-242df08a2488","ios":"levelo://app?vid=51237ee2-64bb-42fa-aa4a-242df08a2488"},"vehicle_type_id":"4","last_reported":1716051972,"current_range_meters":22400,"station_id":"ce4bhb92rcd13ifvqen0","pricing_plan_id":"cebpf4jnsgd1na2vs0mg"},{"bike_id":"7977aeae-49c1-4e8f-b567-e7c7702c570a","system_id":"levelo_inurba_marseille","lat":43.290989,"lon":5.381326,"is_reserved":false,"is_disabled":false,"rental_uris":{"android":"levelo://app?vid=7977aeae-49c1-4e8f-b567-e7c7702c570a","ios":"levelo://app?vid=7977aeae-49c1-4e8f-b567-e7c7702c570a"},"vehicle_type_id":"4","last_reported":1716051972,"current_range_meters":2400,"station_id":"ce4bh512rcd13ifvqe2g","pricing_plan_id":"cebpf4jnsgd1na2vs0mg"},