{"last_updated":1686337468,"ttl":30,"version":"2.2","data":{"bikes":[{"bike_id":"60038ed6-274d-4d93-9894-e636e935b7ee","system_id":"levelo_inurba_marseille","lat":43.31226,"lon":5.36856,"is_reserved":false,"is_disabled":false,"rental_uris":{"android":"levelo://app?vid=60038ed6-274d-4d93-9894-e636e935b7ee","ios":"levelo://app?vid=60038ed6-274d-4d93-9894-e636e935b7ee"},"vehicle_type_id":"4","last_reported":1686337469,"current_range_meters":8400,"station_id":"ce4bgl92rcd13ifvqbq0","pricing_plan_id":"free"},{"bike_id":"f5da3c8a-78b7-41d7-a5ea-14f1e7c14bc4","system_id":"levelo_inurba_marseille","lat":43.314811,"lon":5.373103,"is_reserved":false,"is_disabled":false,"rental_uris":{"android":"levelo://app?vid=f5da3c8a-78b7-41d7-a5ea-14f1e7c14bc4","ios":"levelo://app?vid=f5da3c8a-78b7-41d7-a5ea-14f1e7c14bc4"},"vehicle_type_id":"4","last_reported":1686337469,"current_range_meters":18800,"station_id":"ce4bgt12rcd13ifvqcd0","pricing_plan_id":"free"},{"bike_id":"2dbc8303-1e1a-4d08-9dee-6babc9247d38","system_id":"levelo_inurba_marseille","lat":43.30684,"lon":5.36611,"is_reserved":false,"is_disabled":false,"rental_uris":{"android":"levelo://app?vid=2dbc8303-1e1a-4d08-9dee-6babc9247d38","ios":"levelo://app?vid=2dbc8303-1e1a-4d08-9dee-6babc9247d38"},"vehicle_type_id":"4","last_reported":1686337469,"current_range_meters":28400,"station_id":"","pricing_plan_id":"free"},{"bike_id":"726e69fe-0789-44cc-8872-aafade0684ce","system_id":"levelo_inurba_marseille","lat":43.306,"lon":5.36574,"is_reserved":false,"is_disabled":false,"rental_uris":{"android":"levelo://app?vid=726e69fe-0789-44cc-8872-aafade0684ce","ios":"levelo://app?vid=726e69fe-0789-44cc-8872-aafade0684ce"},"vehicle_type_id":"4","last_reported":1686337469,"current_range_meters":12800,"station_id":"","pricing_plan_id":"free"},{"bike_id":"c1fc5a30-622d-43fd-8360-f11bf2911ee6","system_id":"levelo_inurba_marseille","lat":43.30791,"lon":5.37392,"is_reserved":false,"is_disabled":false,"rental_uris":{"android":"levelo://app?vid=c1fc5a30-622d-43fd-8360-f11bf2911ee6","ios":"levelo://app?vid=c1fc5a30-622d-43fd-8360-f11bf2911ee6"},"vehicle_type_id":"4","last_reported":1686337469,"current_range_meters":6400,"station_id":"","pricing_plan_id":"free"},{"bike_id":"e13287f9-25c2-4ec5-8ab9-d8a96da95b66","system_id":"levelo_inurba_marseille","lat":43.31586,"lon":5.37602,"is_reserved":false,"is_disabled":false,"rental_uris":{"android":"levelo://app?vid=e13287f9-25c2-4ec5-8ab9-d8a96da95b66","ios":"levelo://app?vid=e13287f9-25c2-4ec5-8ab9-d8a96da95b66"},"vehicle_type_id":"4","last_reported":1686337469,"current_range_meters":16000,"station_id":"","pricing_plan_id":"free"},{"bike_id":"81df8f61-a184-4c73-a0f0-d2b0dd788d69","system_id":"levelo_inurba_marseille","lat":43.305989,"lon":5.37225,"is_reserved":false,"is_disabled":false,"rental_uris":{"android":"levelo://app?vid=81df8f61-a184-4c73-a0f0-d2b0dd788d69","ios":"levelo://app?vid=81df8f61-a184-4c73-a0f0-d2b0dd788d69"},"vehicle_type_id":"4","last_reported":1686337469,"current_range_meters":5600,"station_id":"ce4bgqh2rcd13ifvqc4g","pricing_plan_id":"free"},{"bike_id":"bd4d4d99-e073-4164-9391-f633e7c1b0c1","system_id":"levelo_inurba_marseille","lat":43.3112,"lon":5.3777,"is_reserved":false,"is_disabled":false,"rental_uris":{"android":"levelo://app?vid=bd4d4d99-e073-4164-9391-f633e7c1b0c1","ios":"levelo://app?vid=bd4d4d99-e073-4164-9391-f633e7c1b0c1"},"vehicle_type_id":"4","last_reported":1686337469,"current_range_meters":29600,"station_id":"ce4bgt92rcd13ifvqcg0","pricing_plan_id":"free"},{"bike_id":"c39eba22-1668-4155-9623-6478dad60f6e","system_id":"levelo_inurba_marseille","lat":43.31705,"lon":5.37742,"is_reserved":false,"is_disabled":false,"rental_uris":{"android":"levelo://app?vid=c39eba22-1668-4155-9623-6478dad60f6e","ios":"levelo://app?vid=c39eba22-1668-4155-9623-6478dad60f6e"},"vehicle_type_id":"4","last_reported":1686337469,"current_range_meters":800,"station_id":"ce4bgth2rcd13ifvqch0","pricing_plan_id":"free"},{"bike_id":"6ca7f4f0-9c0c-44fb-aa3e-979faab6c99c","system_id":"levelo_inurba_marseille","lat":43.3059,"lon":5.37464,"is_reserved":false,"is_disabled":false,"rental_uris":{"android":"levelo://app?vid=6ca7f4f0-9c0c-44fb-aa3e-979faab6c99c","ios":"levelo://app?vid=6ca7f4f0-9c0c-44fb-aa3e-979faab6c99c"},"vehicle_type_id":"4","last_reported":1686337469,"current_range_meters":31200,"station_id":"","pricing_plan_id":"free"},{"bike_id":"9e652469-cfc6-47fc-ba95-3b0f9eb840bf","system_id":"levelo_inurba_marseille","lat":43.317075,"lon":5.377367,"is_reserved":false,"is_disabled":false,"rental_uris":{"android":"levelo://app?vid=9e652469-cfc6-47fc-ba95-3b0f9eb840bf","ios":"levelo://app?vid=9e652469-cfc6-47fc-ba95-3b0f9eb840bf"},"vehicle_type_id":"4","last_reported":1686337469,"current_range_meters":16400,"station_id":"ce4bgth2rcd13ifvqch0","pricing_plan_id":"free"},{"bike_id":"ade6e3e9-ba4b-49d0-beea-f51b6bb7ef3e","system_id":"levelo_inurba_marseille","lat":43.317075,"lon":5.377367,"is_reserved":false,"is_disabled":false,"rental_uris":{"android":"levelo://app?vid=ade6e3e9-ba4b-49d0-beea-f51b6bb7ef3e","ios":"levelo://app?vid=ade6e3e9-ba4b-49d0-beea-f51b6bb7ef3e"},"vehicle_type_id":"4","last_reported":1686337469,"current_range_meters":17200,"station_id":"ce4bgth2rcd13ifvqch0","pricing_plan_id":"free"},{"bike_id":"2ba916e2-3652-4977-a635-6f19158dc571","system_id":"levelo_inurba_marseille","lat":43.317075,"lon":5.377367,"is_reserved":false,"is_disabled":false,"rental_uris":{"android":"levelo://app?vid=2ba916e2-3652-4977-a635-6f19158dc571","ios":"levelo://app?vid=2ba916e2-3652-4977-a635-6f19158dc571"},"vehicle_type_id":"4","last_reported":1686337469,"current_range_meters":22000,"station_id":"ce4bgth2rcd13ifvqch0","pricing_plan_id":"free"},{"bike_id":"4f65b353-1928-43cd-9ff5-8a61b4236bac","system_id":"levelo_inurba_marseille","lat":43.31712,"lon":5.37769,"is_reserved":false,"is_disabled":false,"rental_uris":{"android":"levelo://app?vid=4f65b353-1928-43cd-9ff5-8a61b4236bac","ios":"levelo://app?vid=4f65b353-1928-43cd-9ff5-8a61b4236bac"},"vehicle_type_id":"4","last_reported":1686337469,"current_range_meters":26800,"station_id":"ce4bgth2rcd13ifvqch0","pricing_plan_id":"free"},{"bike_id":"4269f71c-7619-4494-ab03-2529bec83bf7","system_id":"levelo_inurba_marseille","lat":43.30466,"lon":5.37895,"is_reserved":false,"is_disabled":false,"rental_uris":{"android":"levelo://app?vid=4269f71c-7619-4494-ab03-2529bec83bf7","ios":"levelo://app?vid=4269f71c-7619-4494-ab03-2529bec83bf7"},"vehicle_type_id":"4","last_reported":1686337469,"current_range_meters":12000,"station_id":"ce4bgup2rcd13ifvqcn0","pricing_plan_id":"free"},{"bike_id":"86285dc4-4a23-40b5-9d5a-6e477d7a9acb","system_id":"levelo_inurba_marseille","lat":43.299222,"lon":5.365554,"is_reserved":false,"is_disabled":false,"rental_uris":{"android":"levelo://app?vid=86285dc4-4a23-40b5-9d5a-6e477d7a9acb","ios":"levelo://app?vid=86285dc4-4a23-40b5-9d5a-6e477d7a9acb"},"vehicle_type_id":"4","last_reported":1686337469,"current_range_meters":30800,"station_id":"ce4bgm92rcd13ifvqbr0","pricing_plan_id":"free"},{"bike_id":"55ecfde1-8e71-4972-afe2-831c4bd3b3f2","system_id":"levelo_inurba_marseille","lat":43.31686,"lon":5.38241,"is_reserved":false,"is_disabled":false,"rental_uris":{"android":"levelo://app?vid=55ecfde1-8e71-4972-afe2-831c4bd3b3f2","ios":"levelo://app?vid=55ecfde1-8e71-4972-afe2-831c4bd3b3f2"},"vehicle_type_id":"4","last_reported":1686337469,"current_range_meters":28000,"station_id":"","pricing_plan_id":"free"},{"bike_id":"70f3206e-16a6-47a3-afe6-77e410f76f51","system_id":"levelo_inurba_marseille","lat":43.302784,"lon":5.377158,"is_reserved":false,"is_disabled":false,"rental_uris":{"android":"levelo://app?vid=70f3206e-16a6-47a3-afe6-77e410f76f51","ios":"levelo://app?vid=70f3206e-16a6-47a3-afe6-77e410f76f51"},"vehicle_type_id":"4","last_reported":1686337469,"current_range_meters":13200,"station_id":"ce4bguh2rcd13ifvqcj0","pricing_plan_id":"free"},{"bike_id":"9f7825f4-ffc0-4dfa-9883-b92a502e89b7","system_id":"levelo_inurba_marseille","lat":43.313571,"lon":5.384829,"is_reserved":false,"is_disabled":false,"rental_uris":{"android":"levelo://app?vid=9f7825f4-ffc0-4dfa-9883-b92a502e89b7","ios":"levelo://app?vid=9f7825f4-ffc0-4dfa-9883-b92a502e89b7"},"vehicle_type_id":"4","last_reported":1686337469,"current_range_meters":4000,"station_id":"ce4bgt92rcd13ifvqcf0","pricing_plan_id":"free"},{"bike_id":"8c7aa8bd-e21d-43c1-8307-de151e2f36ff","system_id":"levelo_inurba_marseille","lat":43.313571,"lon":5.384829,"is_reserved":false,"is_disabled":false,"rental_uris":{"android":"levelo://app?vid=8c7aa8bd-e21d-43c1-8307-de151e2f36ff","ios":"levelo://app?vid=8c7aa8bd-e21d-43c1-8307-de151e2f36ff"},"vehicle_type_id":"4","last_reported":1686337469,"current_range_meters":1600,"station_id":"ce4bgt92rcd13ifvqcf0","pricing_plan_id":"free"},{"bike_id":"e42d16ed-a0ae-4d01-8814-bc21f1f2bcaa","system_id":"levelo_inurba_marseille","lat":43.311722,"lon":5.387247,"is_reserved":false,"is_disabled":false,"rental_uris":{"android":"levelo://app?vid=e42d16ed-a0ae-4d01-8814-bc21f1f2bcaa","ios":"levelo://app?vid=e42d16ed-a0ae-4d01-8814-bc21f1f2bcaa"},"vehicle_type_id":"4","last_reported":1686337469,"current_range_meters":14000,"station_id":"ce4bgv12rcd13ifvqcp0","pricing_plan_id":"free"},{"bike_id":"2dab1f3f-06de-4915-a976-929ea12016dc","system_id":"levelo_inurba_marseille","lat":43.31166,"lon":5.38721,"is_reserved":false,"is_disabled":false,"rental_uris":{"android":"levelo://app?vid=2dab1f3f-06de-4915-a976-929ea12016dc","ios":"levelo://app?vid=2dab1f3f-06de-4915-a976-929ea12016dc"},"vehicle_type_id":"4","last_reported":1686337469,"current_range_meters":6000,"station_id":"ce4bgv12rcd13ifvqcp0","pricing_plan_id":"free"},{"bike_id":"89e06e9c-b9bd-4419-bae5-a5e180fa87a6","system_id":"levelo_inurba_marseille","lat":43.311722,"lon":5.387247,"is_reserved":false,"is_disabled":false,"rental_uris":{"android":"levelo://app?vid=89e06e9c-b9bd-4419-bae5-a5e180fa87a6","ios":"levelo://app?vid=89e06e9c-b9bd-4419-bae5-a5e180fa87a6"},"vehicle_type_id":"4","last_reported":1686337469,"current_range_meters":7200,"station_id":"ce4bgv12rcd13ifvqcp0","pricing_plan_id":"free"},{"bike_id":"0efd132a-3201-44b5-8bd5-b9d4cfee036b","system_id":"levelo_inurba_marseille","lat":43.29775,"lon":5.37001,"is_reserved":false,"is_disabled":false,"rental_uris":{"android":"levelo://app?vid=0efd132a-3201-44b5-8bd5-b9d4cfee036b","ios":"levelo://app?vid=0efd132a-3201-44b5-8bd5-b9d4cfee036b"},"vehicle_type_id":"4","last_reported":1686337469,"current_range_meters":26400,"station_id":"","pricing_plan_id":"free"},{"bike_id":"fb0e2ebf-2d8a-43fd-91af-841ab5a50091","system_id":"levelo_inurba_marseille","lat":43.297774,"lon":5.370875,"is_reserved":false,"is_disabled":false,"rental_uris":{"android":"levelo://app?vid=fb0e2ebf-2d8a-43fd-91af-841ab5a50091","ios":"levelo://app?vid=fb0e2ebf-2d8a-43fd-91af-841ab5a50091"},"vehicle_type_id":"4","last_reported":1686337469,"current_range_meters":0,"station_id":"ce4bgop2rcd13ifvqc1g","pricing_plan_id":"free"},{"bike_id":"2a7e379c-99b0-4a5d-9e8d-ed2f0964f3df","system_id":"levelo_inurba_marseille","lat":43.328235,"lon":5.366867,"is_reserved":false,"is_disabled":false,"rental_uris":{"android":"levelo://app?vid=2a7e379c-99b0-4a5d-9e8d-ed2f0964f3df","ios":"levelo://app?vid=2a7e379c-99b0-4a5d-9e8d-ed2f0964f3df"},"vehicle_type_id":"4","last_reported":1686337469,"current_range_meters":17600,"station_id":"ce4bhs92rcd13ifvqi0g","pricing_plan_id":"free"},{"bike_id":"541c717b-498b-4711-9047-c4d2d9e73ffc","system_id":"levelo_inurba_marseille","lat":43.29874,"lon":5.37661,"is_reserved":false,"is_disabled":false,"rental_uris":{"android":"levelo://app?vid=541c717b-498b-4711-9047-c4d2d9e73ffc","ios":"levelo://app?vid=541c717b-498b-4711-9047-c4d2d9e73ffc"},"vehicle_type_id":"4","last_reported":1686337469,"current_range_meters":0,"station_id":"","pricing_plan_id":"free"},{"bike_id":"651ffa0d-3fa7-43e3-af95-b8074d500363","system_id":"levelo_inurba_marseille","lat":43.29814,"lon":5.37695,"is_reserved":false,"is_disabled":false,"rental_uris":{"android":"levelo://app?vid=651ffa0d-3fa7-43e3-af95-b8074d500363","ios":"levelo://app?vid=651ffa0d-3fa7-43e3-af95-b8074d500363"},"vehicle_type_id":"4","last_reported":1686337469,"current_range_meters":15200,"station_id":"","pricing_plan_id":"free"},{"bike_id":"071937b4-a44a-47dd-88ae-e03b3d4d94a3","system_id":"levelo_inurba_marseille","lat":43.2968,"lon":5.37291,"is_reserved":false,"is_disabled":false,"rental_uris":{"android":"levelo://app?vid=071937b4-a44a-47dd-88ae-e03b3d4d94a3","ios":"levelo://app?vid=071937b4-a44a-47dd-88ae-e03b3d4d94a3"},"vehicle_type_id":"4","last_reported":1686337469,"current_range_meters":20000,"station_id":"ce4bgk12rcd13ifvqbj0","pricing_plan_id":"free"},{"bike_id":"a9da625d-f9eb-4a11-bb49-32993127257f","system_id":"levelo_inurba_marseille","lat":43.32929,"lon":5.3658,"is_reserved":false,"is_disabled":false,"rental_uris":{"android":"levelo://app?vid=a9da625d-f9eb-4a11-bb49-32993127257f","ios":"levelo://app?vid=a9da625d-f9eb-4a11-bb49-32993127257f"},"vehicle_type_id":"4","last_reported":1686337469,"current_range_meters":18000,"station_id":"","pricing_plan_id":"free"},{"bike_id":"18c6580f-9c85-4520-868a-b6b709c6cdfe","system_id":"levelo_inurba_marseille","lat":43.29654,"lon":5.37184,"is_reserved":false,"is_disabled":false,"rental_uris":{"android":"levelo://app?vid=18c6580f-9c85-4520-868a-b6b709c6cdfe","ios":"levelo://app?vid=18c6580f-9c85-4520-868a-b6b709c6cdfe"},"vehicle_type_id":"4","last_reported":1686337469,"current_range_meters":30800,"station_id":"","pricing_plan_id":"free"},{"bike_id":"a6709669-3ada-45db-b9a4-b24c666c7eb8","system_id":"levelo_inurba_marseille","lat":43.297692,"lon":5.377022,"is_reserved":false,"is_disabled":false,"rental_uris":{"android":"levelo://app?vid=a6709669-3ada-45db-b9a4-b24c666c7eb8","ios":"levelo://app?vid=a6709669-3ada-45db-b9a4-b24c666c7eb8"},"vehicle_type_id":"4","last_reported":1686337469,"current_range_meters":22800,"station_id":"ce4bgi92rcd13ifvqb90","pricing_plan_id":"free"},{"bike_id":"ea9b26c2-0d5a-4f02-a59c-c0cf5a294d6e","system_id":"levelo_inurba_marseille","lat":43.296921,"lon":5.376579,"is_reserved":false,"is_disabled":false,"rental_uris":{"android":"levelo://app?vid=ea9b26c2-0d5a-4f02-a59c-c0cf5a294d6e","ios":"levelo://app?vid=ea9b26c2-0d5a-4f02-a59c-c0cf5a294d6e"},"vehicle_type_id":"4","last_reported":1686337469,"current_range_meters":11200,"station_id":"ce4bgkh2rcd13ifvqbl0","pricing_plan_id":"free"},{"bike_id":"af2bd11a-0efd-444e-bb8b-e88cf66c96ea","system_id":"levelo_inurba_marseille","lat":43.296921,"lon":5.376579,"is_reserved":false,"is_disabled":false,"rental_uris":{"android":"levelo://app?vid=af2bd11a-0efd-444e-bb8b-e88cf66c96ea","ios":"levelo://app?vid=af2bd11a-0efd-444e-bb8b-e88cf66c96ea"},"vehicle_type_id":"4","last_reported":1686337469,"current_range_meters":0,"station_id":"ce4bgkh2rcd13ifvqbl0","pricing_plan_id":"free"},{"bike_id":"77a185cf-a027-4fd7-ac35-11d010140003","system_id":"levelo_inurba_marseille","lat":43.309589,"lon":5.390258,"is_reserved":false,"is_disabled":false,"rental_uris":{"android":"levelo://app?vid=77a185cf-a027-4fd7-ac35-11d010140003","ios":"levelo://app?vid=77a185cf-a027-4fd7-ac35-11d010140003"},"vehicle_type_id":"4","last_reported":1686337469,"current_range_meters":6800,"station_id":"ce4bgup2rcd13ifvqco0","pricing_plan_id":"free"},{"bike_id":"adc0ae02-0fe3-4322-ab53-ae761a9fb017","system_id":"levelo_inurba_marseille","lat":43.309589,"lon":5.390258,"is_reserved":false,"is_disabled":false,"rental_uris":{"android":"levelo://app?vid=adc0ae02-0fe3-4322-ab53-ae761a9fb017","ios":"levelo://app?vid=adc0ae02-0fe3-4322-ab53-ae761a9fb017"},"vehicle_type_id":"4","last_reported":1686337469,"current_range_meters":22000,"station_id":"ce4bgup2rcd13ifvqco0","pricing_plan_id":"free"},{"bike_id":"7b1d084a-771e-410d-a8bc-7655fb54c616","system_id":"levelo_inurba_marseille","lat":43.309589,"lon":5.390258,"is_reserved":false,"is_disabled":false,"rental_uris":{"android":"levelo://app?vid=7b1d084a-771e-410d-a8bc-7655fb54c616","ios":"levelo://app?vid=7b1d084a-771e-410d-a8bc-7655fb54c616"},"vehicle_type_id":"4","last_reported":1686337469,"current_range_meters":17600,"station_id":"ce4bgup2rcd13ifvqco0","pricing_plan_id":"free"},{"bike_id":"d61463c0-0ad0-40c8-b396-ae52cb427644","system_id":"levelo_inurba_marseille","lat":43.309589,"lon":5.390258,"is_reserved":false,"is_disabled":false,"rental_uris":{"android":"levelo://app?vid=d61463c0-0ad0-40c8-b396-ae52cb427644","ios":"levelo://app?vid=d61463c0-0ad0-40c8-b396-ae52cb427644"},"vehicle_type_id":"4","last_reported":1686337469,"current_range_meters":7600,"station_id":"ce4bgup2rcd13ifvqco0","pricing_plan_id":"free"},{"bike_id":"43a998b6-2379-4c51-b06c-1239212b582c","system_id":"levelo_inurba_marseille","lat":43.309589,"lon":5.390258,"is_reserved":false,"is_disabled":false,"rental_uris":{"android":"levelo://app?vid=43a998b6-2379-4c51-b06c-1239212b582c","ios":"levelo://app?vid=43a998b6-2379-4c51-b06c-1239212b582c"},"vehicle_type_id":"4","last_reported":1686337469,"current_range_meters":8400,"station_id":"ce4bgup2rcd13ifvqco0","pricing_plan_id":"free"},{"bike_id":"4fa03eff-949b-42c4-b126-eb659508a8e0","system_id":"levelo_inurba_marseille","lat":43.31759,"lon":5.39012,"is_reserved":false,"is_disabled":false,"rental_uris":{"android":"levelo://app?vid=4fa03eff-949b-42c4-b126-eb659508a8e0","ios":"levelo://app?vid=4fa03eff-949b-42c4-b126-eb659508a8e0"},"vehicle_type_id":"4","last_reported":1686337469,"current_range_meters":6000,"station_id":"ce4bhqp2rcd13ifvqhng","pricing_plan_id":"free"},{"bike_id":"6df35179-92f7-43ac-b367-d30c30dcd173","system_id":"levelo_inurba_marseille","lat":43.317557,"lon":5.390173,"is_reserved":false,"is_disabled":false,"rental_uris":{"android":"levelo://app?vid=6df35179-92f7-43ac-b367-d30c30dcd173","ios":"levelo://app?vid=6df35179-92f7-43ac-b367-d30c30dcd173"},"vehicle_type_id":"4","last_reported":1686337469,"current_range_meters":10400,"station_id":"ce4bhqp2rcd13ifvqhng","pricing_plan_id":"free"},{"bike_id":"3bc857ea-1372-4d5d-8d26-cc8e410f7e3f","system_id":"levelo_inurba_marseille","lat":43.298037,"lon":5.381066,"is_reserved":false,"is_disabled":false,"rental_uris":{"android":"levelo://app?vid=3bc857ea-1372-4d5d-8d26-cc8e410f7e3f","ios":"levelo://app?vid=3bc857ea-1372-4d5d-8d26-cc8e410f7e3f"},"vehicle_type_id":"4","last_reported":1686337469,"current_range_meters":0,"station_id":"ce4bgip2rcd13ifvqbb0","pricing_plan_id":"free"},{"bike_id":"d92e2b20-93cc-418a-87a5-32774027a82c","system_id":"levelo_inurba_marseille","lat":43.298037,"lon":5.381066,"is_reserved":false,"is_disabled":false,"rental_uris":{"android":"levelo://app?vid=d92e2b20-93cc-418a-87a5-32774027a82c","ios":"levelo://app?vid=d92e2b20-93cc-418a-87a5-32774027a82c"},"vehicle_type_id":"4","last_reported":1686337469,"current_range_meters":7600,"station_id":"ce4bgip2rcd13ifvqbb0","pricing_plan_id":"free"},{"bike_id":"9c2ba9a1-83c0-49fb-95ce-e04cad1fcb1d","system_id":"levelo_inurba_marseille","lat":43.29797,"lon":5.38107,"is_reserved":false,"is_disabled":false,"rental_uris":{"android":"levelo://app?vid=9c2ba9a1-83c0-49fb-95ce-e04cad1fcb1d","ios":"levelo://app?vid=9c2ba9a1-83c0-49fb-95ce-e04cad1fcb1d"},"vehicle_type_id":"4","last_reported":1686337469,"current_range_meters":6400,"station_id":"ce4bgip2rcd13ifvqbb0","pricing_plan_id":"free"},{"bike_id":"14fa7d93-c41f-4876-8e88-2b70bed2b127","system_id":"levelo_inurba_marseille","lat":43.30437,"lon":5.38886,"is_reserved":false,"is_disabled":false,"rental_uris":{"android":"levelo://app?vid=14fa7d93-c41f-4876-8e88-2b70bed2b127","ios":"levelo://app?vid=14fa7d93-c41f-4876-8e88-2b70bed2b127"},"vehicle_type_id":"4","last_reported":1686337469,"current_range_meters":4400,"station_id":"ce4bgk12rcd13ifvqbi0","pricing_plan_id":"free"},{"bike_id":"09996520-e86c-4a45-8fc1-1ae95ee3ba73","system_id":"levelo_inurba_marseille","lat":43.296263,"lon":5.377094,"is_reserved":false,"is_disabled":false,"rental_uris":{"android":"levelo://app?vid=09996520-e86c-4a45-8fc1-1ae95ee3ba73","ios":"levelo://app?vid=09996520-e86c-4a45-8fc1-1ae95ee3ba73"},"vehicle_type_id":"4","last_reported":1686337469,"current_range_meters":19200,"station_id":"ce4bgi92rcd13ifvqb90","pricing_plan_id":"free"},{"bike_id":"c1c2193d-677f-4384-b277-86f27d7ffb24","system_id":"levelo_inurba_marseille","lat":43.2956,"lon":5.37573,"is_reserved":false,"is_disabled":false,"rental_uris":{"android":"levelo://app?vid=c1c2193d-677f-4384-b277-86f27d7ffb24","ios":"levelo://app?vid=c1c2193d-677f-4384-b277-86f27d7ffb24"},"vehicle_type_id":"4","last_reported":1686337469,"current_range_meters":0,"station_id":"","pricing_plan_id":"free"},{"bike_id":"d9fabf3e-441d-4d02-b66e-4c0f274dd974","system_id":"levelo_inurba_marseille","lat":43.299717,"lon":5.384845,"is_reserved":false,"is_disabled":false,"rental_uris":{"android":"levelo://app?vid=d9fabf3e-441d-4d02-b66e-4c0f274dd974","ios":"levelo://app?vid=d9fabf3e-441d-4d02-b66e-4c0f274dd974"},"vehicle_type_id":"4","last_reported":1686337469,"current_range_meters":0,"station_id":"ce4bgj92rcd13ifvqbd0","pricing_plan_id":"free"},{"bike_id":"54dc3333-1abc-4b85-b5d7-423868a02276","system_id":"levelo_inurba_marseille","lat":43.29519,"lon":5.37555,"is_reserved":false,"is_disabled":false,"rental_uris":{"android":"levelo://app?vid=54dc3333-1abc-4b85-b5d7-423868a02276","ios":"levelo://app?vid=54dc3333-1abc-4b85-b5d7-423868a02276"},"vehicle_type_id":"4","last_reported":1686337469,"current_range_meters":27600,"station_id":"","pricing_plan_id":"free"},{"bike_id":"1e3bf4d3-d8fc-44ed-8bcd-b7a8bea03ed2","system_id":"levelo_inurba_marseille","lat":43.29501,"lon":5.37512,"is_reserved":false,"is_disabled":false,"rental_uris":{"android":"levelo://app?vid=1e3bf4d3-d8fc-44ed-8bcd-b7a8bea03ed2","ios":"levelo://app?vid=1e3bf4d3-d8fc-44ed-8bcd-b7a8bea03ed2"},"vehicle_type_id":"4","last_reported":1686337469,"current_range_meters":0,"station_id":"","pricing_plan_id":"free"},{"bike_id":"60d44bfd-2f59-40fc-9a5c-f52f1e67140d","system_id":"levelo_inurba_marseille","lat":43.29594,"lon":5.38098,"is_reserved":false,"is_disabled":false,"rental_uris":{"android":"levelo://app?vid=60d44bfd-2f59-40fc-9a5c-f52f1e67140d","ios":"levelo://app?vid=60d44bfd-2f59-40fc-9a5c-f52f1e67140d"},"vehicle_type_id":"4","last_reported":1686337469,"current_range_meters":23600,"station_id":"ce4bgl12rcd13ifvqbo0","pricing_plan_id":"free"},{"bike_id":"364807aa-0380-4f25-9a8e-c7332483404c","system_id":"levelo_inurba_marseille","lat":43.29305,"lon":5.37159,"is_reserved":false,"is_disabled":false,"rental_uris":{"android":"levelo://app?vid=364807aa-0380-4f25-9a8e-c7332483404c","ios":"levelo://app?vid=364807aa-0380-4f25-9a8e-c7332483404c"},"vehicle_type_id":"4","last_reported":1686337469,"current_range_meters":9600,"station_id":"ce4bgh92rcd13ifvqb40","pricing_plan_id":"free"},{"bike_id":"97965abd-2a28-4859-90ec-1bce20702e88","system_id":"levelo_inurba_marseille","lat":43.292749,"lon":5.368402,"is_reserved":false,"is_disabled":false,"rental_uris":{"android":"levelo://app?vid=97965abd-2a28-4859-90ec-1bce20702e88","ios":"levelo://app?vid=97965abd-2a28-4859-90ec-1bce20702e88"},"vehicle_type_id":"4","last_reported":1686337469,"current_range_meters":0,"station_id":"ce4bhbp2rcd13ifvqesg","pricing_plan_id":"free"},{"bike_id":"0e8e4cf8-9e5b-4c6d-a0c3-5cf3455f339e","system_id":"levelo_inurba_marseille","lat":43.305994,"lon":5.393687,"is_reserved":false,"is_disabled":false,"rental_uris":{"android":"levelo://app?vid=0e8e4cf8-9e5b-4c6d-a0c3-5cf3455f339e","ios":"levelo://app?vid=0e8e4cf8-9e5b-4c6d-a0c3-5cf3455f339e"},"vehicle_type_id":"4","last_reported":1686337469,"current_range_meters":24800,"station_id":"ce4bh0p2rcd13ifvqd80","pricing_plan_id":"free"},{"bike_id":"fd79d7e5-5d13-463a-a68d-42df5bbda33c","system_id":"levelo_inurba_marseille","lat":43.30323,"lon":5.39203,"is_reserved":false,"is_disabled":false,"rental_uris":{"android":"levelo://app?vid=fd79d7e5-5d13-463a-a68d-42df5bbda33c","ios":"levelo://app?vid=fd79d7e5-5d13-463a-a68d-42df5bbda33c"},"vehicle_type_id":"4","last_reported":1686337469,"current_range_meters":22000,"station_id":"","pricing_plan_id":"free"},{"bike_id":"e7f5d43c-8c67-4abf-99e8-301901259dae","system_id":"levelo_inurba_marseille","lat":43.302992,"lon":5.392136,"is_reserved":false,"is_disabled":false,"rental_uris":{"android":"levelo://app?vid=e7f5d43c-8c67-4abf-99e8-301901259dae","ios":"levelo://app?vid=e7f5d43c-8c67-4abf-99e8-301901259dae"},"vehicle_type_id":"4","last_reported":1686337469,"current_range_meters":3200,"station_id":"ce4bgkh2rcd13ifvqbk0","pricing_plan_id":"free"},{"bike_id":"2272a6a6-3bd3-4aae-a29b-9b965c23b69e","system_id":"levelo_inurba_marseille","lat":43.30306,"lon":5.39207,"is_reserved":false,"is_disabled":false,"rental_uris":{"android":"levelo://app?vid=2272a6a6-3bd3-4aae-a29b-9b965c23b69e","ios":"levelo://app?vid=2272a6a6-3bd3-4aae-a29b-9b965c23b69e"},"vehicle_type_id":"4","last_reported":1686337469,"current_range_meters":17600,"station_id":"ce4bgkh2rcd13ifvqbk0","pricing_plan_id":"free"},{"bike_id":"207444c9-433e-4c47-bb69-7fd0daaaac35","system_id":"levelo_inurba_marseille","lat":43.2936,"lon":5.37835,"is_reserved":false,"is_disabled":false,"rental_uris":{"android":"levelo://app?vid=207444c9-433e-4c47-bb69-7fd0daaaac35","ios":"levelo://app?vid=207444c9-433e-4c47-bb69-7fd0daaaac35"},"vehicle_type_id":"4","last_reported":1686337469,"current_range_meters":0,"station_id":"ce4bgjh2rcd13ifvqbf0","pricing_plan_id":"free"},{"bike_id":"61e4ccfd-dc98-4837-8123-2dfa5e087f42","system_id":"levelo_inurba_marseille","lat":43.293723,"lon":5.378443,"is_reserved":false,"is_disabled":false,"rental_uris":{"android":"levelo://app?vid=61e4ccfd-dc98-4837-8123-2dfa5e087f42","ios":"levelo://app?vid=61e4ccfd-dc98-4837-8123-2dfa5e087f42"},"vehicle_type_id":"4","last_reported":1686337469,"current_range_meters":6800,"station_id":"","pricing_plan_id":"free"},{"bike_id":"73af5865-9e0c-4948-a82e-1fe1afdc9616","system_id":"levelo_inurba_marseille","lat":43.302992,"lon":5.392136,"is_reserved":false,"is_disabled":false,"rental_uris":{"android":"levelo://app?vid=73af5865-9e0c-4948-a82e-1fe1afdc9616","ios":"levelo://app?vid=73af5865-9e0c-4948-a82e-1fe1afdc9616"},"vehicle_type_id":"4","last_reported":1686337469,"current_range_meters":19600,"station_id":"ce4bgkh2rcd13ifvqbk0","pricing_plan_id":"free"},{"bike_id":"c5aac148-9a02-4744-aeb6-63aae8c0a5ea","system_id":"levelo_inurba_marseille","lat":43.302992,"lon":5.392136,"is_reserved":false,"is_disabled":false,"rental_uris":{"android":"levelo://app?vid=c5aac148-9a02-4744-aeb6-63aae8c0a5ea","ios":"levelo://app?vid=c5aac148-9a02-4744-aeb6-63aae8c0a5ea"},"vehicle_type_id":"4","last_reported":1686337469,"current_range_meters":16800,"station_id":"ce4bgkh2rcd13ifvqbk0","pricing_plan_id":"free"},{"bike_id":"22b781e1-080c-4125-8a55-10e56f33db39","system_id":"levelo_inurba_marseille","lat":43.2936,"lon":5.37835,"is_reserved":false,"is_disabled":false,"rental_uris":{"android":"levelo://app?vid=22b781e1-080c-4125-8a55-10e56f33db39","ios":"levelo://app?vid=22b781e1-080c-4125-8a55-10e56f33db39"},"vehicle_type_id":"4","last_reported":1686337469,"current_range_meters":12000,"station_id":"ce4bgjh2rcd13ifvqbf0","pricing_plan_id":"free"},{"bike_id":"4a85e912-10da-4de3-9f54-c04114cbdb6d","system_id":"levelo_inurba_marseille","lat":43.2936,"lon":5.37835,"is_reserved":false,"is_disabled":false,"rental_uris":{"android":"levelo://app?vid=4a85e912-10da-4de3-9f54-c04114cbdb6d","ios":"levelo://app?vid=4a85e912-10da-4de3-9f54-c04114cbdb6d"},"vehicle_type_id":"4","last_reported":1686337469,"current_range_meters":22400,"station_id":"ce4bgjh2rcd13ifvqbf0","pricing_plan_id":"free"},{"bike_id":"a188ebf3-ff9b-437b-af1d-f3b67457cc4e","system_id":"levelo_inurba_marseille","lat":43.31325,"lon":5.396914,"is_reserved":false,"is_disabled":false,"rental_uris":{"android":"levelo://app?vid=a188ebf3-ff9b-437b-af1d-f3b67457cc4e","ios":"levelo://app?vid=a188ebf3-ff9b-437b-af1d-f3b67457cc4e"},"vehicle_type_id":"4","last_reported":1686337469,"current_range_meters":0,"station_id":"ce4bgvp2rcd13ifvqcu0","pricing_plan_id":"free"},{"bike_id":"14751a88-fc72-4e09-8c35-98f5087be2b2","system_id":"levelo_inurba_marseille","lat":43.309038,"lon":5.396546,"is_reserved":false,"is_disabled":false,"rental_uris":{"android":"levelo://app?vid=14751a88-fc72-4e09-8c35-98f5087be2b2","ios":"levelo://app?vid=14751a88-fc72-4e09-8c35-98f5087be2b2"},"vehicle_type_id":"4","last_reported":1686337469,"current_range_meters":15600,"station_id":"ce4bh012rcd13ifvqcv0","pricing_plan_id":"free"},{"bike_id":"1cb2aee9-62d1-4d97-8846-9e7f3f217d50","system_id":"levelo_inurba_marseille","lat":43.29529,"lon":5.385581,"is_reserved":false,"is_disabled":false,"rental_uris":{"android":"levelo://app?vid=1cb2aee9-62d1-4d97-8846-9e7f3f217d50","ios":"levelo://app?vid=1cb2aee9-62d1-4d97-8846-9e7f3f217d50"},"vehicle_type_id":"4","last_reported":1686337469,"current_range_meters":6800,"station_id":"ce4bgih2rcd13ifvqba0","pricing_plan_id":"free"},{"bike_id":"f657b254-803b-4ba6-a47b-f33ceb4c3e00","system_id":"levelo_inurba_marseille","lat":43.29529,"lon":5.385581,"is_reserved":false,"is_disabled":false,"rental_uris":{"android":"levelo://app?vid=f657b254-803b-4ba6-a47b-f33ceb4c3e00","ios":"levelo://app?vid=f657b254-803b-4ba6-a47b-f33ceb4c3e00"},"vehicle_type_id":"4","last_reported":1686337469,"current_range_meters":3600,"station_id":"ce4bgih2rcd13ifvqba0","pricing_plan_id":"free"},{"bike_id":"72cacdc0-c59c-4fe5-b232-b72fc130afad","system_id":"levelo_inurba_marseille","lat":43.29529,"lon":5.385581,"is_reserved":false,"is_disabled":false,"rental_uris":{"android":"levelo://app?vid=72cacdc0-c59c-4fe5-b232-b72fc130afad","ios":"levelo://app?vid=72cacdc0-c59c-4fe5-b232-b72fc130afad"},"vehicle_type_id":"4","last_reported":1686337469,"current_range_meters":1600,"station_id":"ce4bgih2rcd13ifvqba0","pricing_plan_id":"free"},{"bike_id":"d9bda104-0a5a-48ba-aa45-05dbfede1732","system_id":"levelo_inurba_marseille","lat":43.29529,"lon":5.385581,"is_reserved":false,"is_disabled":false,"rental_uris":{"android":"levelo://app?vid=d9bda104-0a5a-48ba-aa45-05dbfede1732","ios":"levelo://app?vid=d9bda104-0a5a-48ba-aa45-05dbfede1732"},"vehicle_type_id":"4","last_reported":1686337469,"current_range_meters":17200,"station_id":"ce4bgih2rcd13ifvqba0","pricing_plan_id":"free"},{"bike_id":"a20f97d4-85e6-4257-b19c-c174f5178706","system_id":"levelo_inurba_marseille","lat":43.29455,"lon":5.38611,"is_reserved":false,"is_disabled":false,"rental_uris":{"android":"levelo://app?vid=a20f97d4-85e6-4257-b19c-c174f5178706","ios":"levelo://app?vid=a20f97d4-85e6-4257-b19c-c174f5178706"},"vehicle_type_id":"4","last_reported":1686337469,"current_range_meters":22400,"station_id":"","pricing_plan_id":"free"},{"bike_id":"4c52c12c-c08b-427d-a388-41c2eeb84930","system_id":"levelo_inurba_marseille","lat":43.29057,"lon":5.37575,"is_reserved":false,"is_disabled":false,"rental_uris":{"android":"levelo://app?vid=4c52c12c-c08b-427d-a388-41c2eeb84930","ios":"levelo://app?vid=4c52c12c-c08b-427d-a388-41c2eeb84930"},"vehicle_type_id":"4","last_reported":1686337469,"current_range_meters":15600,"station_id":"ce4bhm12rcd13ifvqgkg","pricing_plan_id":"free"},{"bike_id":"eae3ec69-5b2f-4318-b047-20449a58fea7","system_id":"levelo_inurba_marseille","lat":43.294162,"lon":5.386292,"is_reserved":false,"is_disabled":false,"rental_uris":{"android":"levelo://app?vid=eae3ec69-5b2f-4318-b047-20449a58fea7","ios":"levelo://app?vid=eae3ec69-5b2f-4318-b047-20449a58fea7"},"vehicle_type_id":"4","last_reported":1686337469,"current_range_meters":2800,"station_id":"ce4bh2h2rcd13ifvqdh0","pricing_plan_id":"free"},{"bike_id":"6d10d541-0347-434e-9ba4-ea9c9cc5df07","system_id":"levelo_inurba_marseille","lat":43.289184,"lon":5.366408,"is_reserved":false,"is_disabled":false,"rental_uris":{"android":"levelo://app?vid=6d10d541-0347-434e-9ba4-ea9c9cc5df07","ios":"levelo://app?vid=6d10d541-0347-434e-9ba4-ea9c9cc5df07"},"vehicle_type_id":"4","last_reported":1686337469,"current_range_meters":10400,"station_id":"ce4bhap2rcd13ifvqek0","pricing_plan_id":"free"},{"bike_id":"801b3fb7-fb06-453b-b632-47589713ebd4","system_id":"levelo_inurba_marseille","lat":43.29278,"lon":5.38442,"is_reserved":false,"is_disabled":false,"rental_uris":{"android":"levelo://app?vid=801b3fb7-fb06-453b-b632-47589713ebd4","ios":"levelo://app?vid=801b3fb7-fb06-453b-b632-47589713ebd4"},"vehicle_type_id":"4","last_reported":1686337469,"current_range_meters":27600,"station_id":"ce4bh692rcd13ifvqea0","pricing_plan_id":"free"},{"bike_id":"379e8845-5c4d-43f0-80de-3a11dbb9242f","system_id":"levelo_inurba_marseille","lat":43.304274,"lon":5.397513,"is_reserved":false,"is_disabled":false,"rental_uris":{"android":"levelo://app?vid=379e8845-5c4d-43f0-80de-3a11dbb9242f","ios":"levelo://app?vid=379e8845-5c4d-43f0-80de-3a11dbb9242f"},"vehicle_type_id":"4","last_reported":1686337469,"current_range_meters":21200,"station_id":"ce4bh092rcd13ifvqd20","pricing_plan_id":"free"},{"bike_id":"eebb0572-4916-4105-a791-7d74572be411","system_id":"levelo_inurba_marseille","lat":43.290103,"lon":5.356114,"is_reserved":false,"is_disabled":false,"rental_uris":{"android":"levelo://app?vid=eebb0572-4916-4105-a791-7d74572be411","ios":"levelo://app?vid=eebb0572-4916-4105-a791-7d74572be411"},"vehicle_type_id":"4","last_reported":1686337469,"current_range_meters":8000,"station_id":"ce4bhb92rcd13ifvqen0","pricing_plan_id":"free"},{"bike_id":"43e37850-b551-45f3-8321-19c4109a0d02","system_id":"levelo_inurba_marseille","lat":43.290995,"lon":5.381361,"is_reserved":false,"is_disabled":false,"rental_uris":{"android":"levelo://app?vid=43e37850-b551-45f3-8321-19c4109a0d02","ios":"levelo://app?vid=43e37850-b551-45f3-8321-19c4109a0d02"},"vehicle_type_id":"4","last_reported":1686337469,"current_range_meters":14400,"station_id":"ce4bh512rcd13ifvqe2g","pricing_plan_id":"free"},{"bike_id":"f938d0dd-3f2a-4b18-9df6-83c4486d82d0","system_id":"levelo_inurba_marseille","lat":43.297815,"lon":5.393548,"is_reserved":false,"is_disabled":false,"rental_uris":{"android":"levelo://app?vid=f938d0dd-3f2a-4b18-9df6-83c4486d82d0","ios":"levelo://app?vid=f938d0dd-3f2a-4b18-9df6-83c4486d82d0"},"vehicle_type_id":"4","last_reported":1686337469,"current_range_meters":19200,"station_id":"chh1huq6cuj3fo74tm60","pricing_plan_id":"free"},{"bike_id":"0a36e64b-b9a0-4a0d-a1a9-2864c93ff3e1","system_id":"levelo_inurba_marseille","lat":43.28849,"lon":5.3586,"is_reserved":false,"is_disabled":false,"rental_uris":{"android":"levelo://app?vid=0a36e64b-b9a0-4a0d-a1a9-2864c93ff3e1","ios":"levelo://app?vid=0a36e64b-b9a0-4a0d-a1a9-2864c93ff3e1"},"vehicle_type_id":"4","last_reported":1686337469,"current_range_meters":7600,"station_id":"ce4bhb12rcd13ifvqem0","pricing_plan_id":"free"},{"bike_id":"41b78713-3d6d-4146-b802-8caf7ade560c","system_id":"levelo_inurba_marseille","lat":43.28856,"lon":5.358371,"is_reserved":false,"is_disabled":false,"rental_uris":{"android":"levelo://app?vid=41b78713-3d6d-4146-b802-8caf7ade560c","ios":"levelo://app?vid=41b78713-3d6d-4146-b802-8caf7ade560c"},"vehicle_type_id":"4","last_reported":1686337469,"current_range_meters":32000,"station_id":"ce4bhb12rcd13ifvqem0","pricing_plan_id":"free"},{"bike_id":"d7c3caa6-c814-4793-b96f-228fbbb5b677","system_id":"levelo_inurba_marseille","lat":43.309371,"lon":5.401449,"is_reserved":false,"is_disabled":false,"rental_uris":{"android":"levelo://app?vid=d7c3caa6-c814-4793-b96f-228fbbb5b677","ios":"levelo://app?vid=d7c3caa6-c814-4793-b96f-228fbbb5b677"},"vehicle_type_id":"4","last_reported":1686337469,"current_range_meters":26800,"station_id":"ce4bgvp2rcd13ifvqct0","pricing_plan_id":"free"},{"bike_id":"0d4d90af-01ce-4ca7-968e-bf6e6a485e04","system_id":"levelo_inurba_marseille","lat":43.309371,"lon":5.401449,"is_reserved":false,"is_disabled":false,"rental_uris":{"android":"levelo://app?vid=0d4d90af-01ce-4ca7-968e-bf6e6a485e04","ios":"levelo://app?vid=0d4d90af-01ce-4ca7-968e-bf6e6a485e04"},"vehicle_type_id":"4","last_reported":1686337469,"current_range_meters":11200,"station_id":"ce4bgvp2rcd13ifvqct0","pricing_plan_id":"free"},{"bike_id":"265c0905-166c-408b-8d33-95a8e86424e1","system_id":"levelo_inurba_marseille","lat":43.337582,"lon":5.374483,"is_reserved":false,"is_disabled":false,"rental_uris":{"android":"levelo://app?vid=265c0905-166c-408b-8d33-95a8e86424e1","ios":"levelo://app?vid=265c0905-166c-408b-8d33-95a8e86424e1"},"vehicle_type_id":"4","last_reported":1686337469,"current_range_meters":19200,"station_id":"","pricing_plan_id":"free"},{"bike_id":"d301ca72-dcaa-4189-9498-b196a70ef7b2","system_id":"levelo_inurba_marseille","lat":43.30474,"lon":5.40016,"is_reserved":false,"is_disabled":false,"rental_uris":{"android":"levelo://app?vid=d301ca72-dcaa-4189-9498-b196a70ef7b2","ios":"levelo://app?vid=d301ca72-dcaa-4189-9498-b196a70ef7b2"},"vehicle_type_id":"4","last_reported":1686337469,"current_range_meters":29200,"station_id":"","pricing_plan_id":"free"},{"bike_id":"fb041ec1-b611-46eb-9d8b-3229cfb3396a","system_id":"levelo_inurba_marseille","lat":43.33768,"lon":5.37459,"is_reserved":false,"is_disabled":false,"rental_uris":{"android":"levelo://app?vid=fb041ec1-b611-46eb-9d8b-3229cfb3396a","ios":"levelo://app?vid=fb041ec1-b611-46eb-9d8b-3229cfb3396a"},"vehicle_type_id":"4","last_reported":1686337469,"current_range_meters":26400,"station_id":"","pricing_plan_id":"free"},{"bike_id":"c22ffb7d-f100-4ce3-8690-e8c799e1b3d0","system_id":"levelo_inurba_marseille","lat":43.30642,"lon":5.401031,"is_reserved":false,"is_disabled":false,"rental_uris":{"android":"levelo://app?vid=c22ffb7d-f100-4ce3-8690-e8c799e1b3d0","ios":"levelo://app?vid=c22ffb7d-f100-4ce3-8690-e8c799e1b3d0"},"vehicle_type_id":"4","last_reported":1686337469,"current_range_meters":18800,"station_id":"ce4bh112rcd13ifvqda0","pricing_plan_id":"free"},{"bike_id":"cb1bdc4b-c39d-485b-91af-6029a68a3476","system_id":"levelo_inurba_marseille","lat":43.30397,"lon":5.40069,"is_reserved":false,"is_disabled":false,"rental_uris":{"android":"levelo://app?vid=cb1bdc4b-c39d-485b-91af-6029a68a3476","ios":"levelo://app?vid=cb1bdc4b-c39d-485b-91af-6029a68a3476"},"vehicle_type_id":"4","last_reported":1686337469,"current_range_meters":24800,"station_id":"","pricing_plan_id":"free"},{"bike_id":"34913dfb-96f8-4de8-a089-918a5f36a0d9","system_id":"levelo_inurba_marseille","lat":43.302759,"lon":5.400793,"is_reserved":false,"is_disabled":false,"rental_uris":{"android":"levelo://app?vid=34913dfb-96f8-4de8-a089-918a5f36a0d9","ios":"levelo://app?vid=34913dfb-96f8-4de8-a089-918a5f36a0d9"},"vehicle_type_id":"4","last_reported":1686337469,"current_range_meters":27200,"station_id":"ce4bgvh2rcd13ifvqcs0","pricing_plan_id":"free"},{"bike_id":"1256bcc1-9128-4b1b-b9fc-595a47717be7","system_id":"levelo_inurba_marseille","lat":43.302759,"lon":5.400793,"is_reserved":false,"is_disabled":false,"rental_uris":{"android":"levelo://app?vid=1256bcc1-9128-4b1b-b9fc-595a47717be7","ios":"levelo://app?vid=1256bcc1-9128-4b1b-b9fc-595a47717be7"},"vehicle_type_id":"4","last_reported":1686337469,"current_range_meters":5200,"station_id":"ce4bgvh2rcd13ifvqcs0","pricing_plan_id":"free"},{"bike_id":"cbe1443f-edd4-41c6-a086-89cc5023660b","system_id":"levelo_inurba_marseille","lat":43.286039,"lon":5.370679,"is_reserved":false,"is_disabled":false,"rental_uris":{"android":"levelo://app?vid=cbe1443f-edd4-41c6-a086-89cc5023660b","ios":"levelo://app?vid=cbe1443f-edd4-41c6-a086-89cc5023660b"},"vehicle_type_id":"4","last_reported":1686337469,"current_range_meters":31200,"station_id":"ce4bht12rcd13ifvqi60","pricing_plan_id":"free"},{"bike_id":"6853ea80-78f9-4825-8105-002e10c67b8f","system_id":"levelo_inurba_marseille","lat":43.31647,"lon":5.40435,"is_reserved":false,"is_disabled":false,"rental_uris":{"android":"levelo://app?vid=6853ea80-78f9-4825-8105-002e10c67b8f","ios":"levelo://app?vid=6853ea80-78f9-4825-8105-002e10c67b8f"},"vehicle_type_id":"4","last_reported":1686337469,"current_range_meters":22800,"station_id":"ce4bh012rcd13ifvqd00","pricing_plan_id":"free"},{"bike_id":"74944186-8211-4aad-808f-2079db5992bf","system_id":"levelo_inurba_marseille","lat":43.31634,"lon":5.40441,"is_reserved":false,"is_disabled":false,"rental_uris":{"android":"levelo://app?vid=74944186-8211-4aad-808f-2079db5992bf","ios":"levelo://app?vid=74944186-8211-4aad-808f-2079db5992bf"},"vehicle_type_id":"4","last_reported":1686337469,"current_range_meters":22800,"station_id":"ce4bh012rcd13ifvqd00","pricing_plan_id":"free"},{"bike_id":"2821ae05-0066-4f87-805c-6225d63692d3","system_id":"levelo_inurba_marseille","lat":43.284534,"lon":5.358662,"is_reserved":false,"is_disabled":false,"rental_uris":{"android":"levelo://app?vid=2821ae05-0066-4f87-805c-6225d63692d3","ios":"levelo://app?vid=2821ae05-0066-4f87-805c-6225d63692d3"},"vehicle_type_id":"4","last_reported":1686337469,"current_range_meters":0,"station_id":"ce4bhah2rcd13ifvqei0","pricing_plan_id":"free"},{"bike_id":"17e12ab8-cfe5-4a2e-bd38-cab2415dd777","system_id":"levelo_inurba_marseille","lat":43.284534,"lon":5.358662,"is_reserved":false,"is_disabled":false,"rental_uris":{"android":"levelo://app?vid=17e12ab8-cfe5-4a2e-bd38-cab2415dd777","ios":"levelo://app?vid=17e12ab8-cfe5-4a2e-bd38-cab2415dd777"},"vehicle_type_id":"4","last_reported":1686337469,"current_range_meters":5200,"station_id":"ce4bhah2rcd13ifvqei0","pricing_plan_id":"free"},{"bike_id":"6d5badbe-615b-4f40-9f59-961e92cb46b7","system_id":"levelo_inurba_marseille","lat":43.284534,"lon":5.358662,"is_reserved":false,"is_disabled":false,"rental_uris":{"android":"levelo://app?vid=6d5badbe-615b-4f40-9f59-961e92cb46b7","ios":"levelo://app?vid=6d5badbe-615b-4f40-9f59-961e92cb46b7"},"vehicle_type_id":"4","last_reported":1686337469,"current_range_meters":12800,"station_id":"ce4bhah2rcd13ifvqei0","pricing_plan_id":"free"},{"bike_id":"4c2ee824-0d55-4739-b822-0c0fb0f83dd7","system_id":"levelo_inurba_marseille","lat":43.28453,"lon":5.35899,"is_reserved":false,"is_disabled":false,"rental_uris":{"android":"levelo://app?vid=4c2ee824-0d55-4739-b822-0c0fb0f83dd7","ios":"levelo://app?vid=4c2ee824-0d55-4739-b822-0c0fb0f83dd7"},"vehicle_type_id":"4","last_reported":1686337469,"current_range_meters":1200,"station_id":"ce4bhah2rcd13ifvqei0","pricing_plan_id":"free"},{"bike_id":"dc674f98-ead5-497f-8556-14bdb219efdb","system_id":"levelo_inurba_marseille","lat":43.28615,"lon":5.35103,"is_reserved":false,"is_disabled":false,"rental_uris":{"android":"levelo://app?vid=dc674f98-ead5-497f-8556-14bdb219efdb","ios":"levelo://app?vid=dc674f98-ead5-497f-8556-14bdb219efdb"},"vehicle_type_id":"4","last_reported":1686337469,"current_range_meters":0,"station_id":"","pricing_plan_id":"free"},{"bike_id":"97d47575-7750-4666-a3b0-fc979c93e4bc","system_id":"levelo_inurba_marseille","lat":43.29763,"lon":5.40107,"is_reserved":false,"is_disabled":false,"rental_uris":{"android":"levelo://app?vid=97d47575-7750-4666-a3b0-fc979c93e4bc","ios":"levelo://app?vid=97d47575-7750-4666-a3b0-fc979c93e4bc"},"vehicle_type_id":"4","last_reported":1686337469,"current_range_meters":9200,"station_id":"","pricing_plan_id":"free"},{"bike_id":"e5eb7ebf-4ce3-418a-a92b-d5a3a3aad590","system_id":"levelo_inurba_marseille","lat":43.295713,"lon":5.399639,"is_reserved":false,"is_disabled":false,"rental_uris":{"android":"levelo://app?vid=e5eb7ebf-4ce3-418a-a92b-d5a3a3aad590","ios":"levelo://app?vid=e5eb7ebf-4ce3-418a-a92b-d5a3a3aad590"},"vehicle_type_id":"4","last_reported":1686337469,"current_range_meters":24800,"station_id":"ce4bh312rcd13ifvqdj0","pricing_plan_id":"free"},{"bike_id":"3423a91f-8292-4e16-87ea-e5916ea9585c","system_id":"levelo_inurba_marseille","lat":43.28641,"lon":5.38562,"is_reserved":false,"is_disabled":false,"rental_uris":{"android":"levelo://app?vid=3423a91f-8292-4e16-87ea-e5916ea9585c","ios":"levelo://app?vid=3423a91f-8292-4e16-87ea-e5916ea9585c"},"vehicle_type_id":"4","last_reported":1686337469,"current_range_meters":3200,"station_id":"","pricing_plan_id":"free"},{"bike_id":"d4cf23ec-abb2-4b5d-9b45-bf290637bc5e","system_id":"levelo_inurba_marseille","lat":43.286595,"lon":5.386795,"is_reserved":false,"is_disabled":false,"rental_uris":{"android":"levelo://app?vid=d4cf23ec-abb2-4b5d-9b45-bf290637bc5e","ios":"levelo://app?vid=d4cf23ec-abb2-4b5d-9b45-bf290637bc5e"},"vehicle_type_id":"4","last_reported":1686337469,"current_range_meters":3600,"station_id":"ce4bh492rcd13ifvqdug","pricing_plan_id":"free"},{"bike_id":"5766f043-1b46-4586-bc66-c80c202b3377","system_id":"levelo_inurba_marseille","lat":43.286595,"lon":5.386795,"is_reserved":false,"is_disabled":false,"rental_uris":{"android":"levelo://app?vid=5766f043-1b46-4586-bc66-c80c202b3377","ios":"levelo://app?vid=5766f043-1b46-4586-bc66-c80c202b3377"},"vehicle_type_id":"4","last_reported":1686337469,"current_range_meters":8400,"station_id":"ce4bh492rcd13ifvqdug","pricing_plan_id":"free"},{"bike_id":"6e08ee4b-a220-4241-b314-cf83dcd8de74","system_id":"levelo_inurba_marseille","lat":43.323464,"lon":5.406297,"is_reserved":false,"is_disabled":false,"rental_uris":{"android":"levelo://app?vid=6e08ee4b-a220-4241-b314-cf83dcd8de74","ios":"levelo://app?vid=6e08ee4b-a220-4241-b314-cf83dcd8de74"},"vehicle_type_id":"4","last_reported":1686337469,"current_range_meters":26400,"station_id":"ce4bhq92rcd13ifvqhjg","pricing_plan_id":"free"},{"bike_id":"4d401518-90bf-459f-8e92-1ab0c42a1dda","system_id":"levelo_inurba_marseille","lat":43.323464,"lon":5.406297,"is_reserved":false,"is_disabled":false,"rental_uris":{"android":"levelo://app?vid=4d401518-90bf-459f-8e92-1ab0c42a1dda","ios":"levelo://app?vid=4d401518-90bf-459f-8e92-1ab0c42a1dda"},"vehicle_type_id":"4","last_reported":1686337469,"current_range_meters":18000,"station_id":"ce4bhq92rcd13ifvqhjg","pricing_plan_id":"free"},{"bike_id":"6bf636eb-4301-4688-82ef-9efd8d93c418","system_id":"levelo_inurba_marseille","lat":43.323464,"lon":5.406297,"is_reserved":false,"is_disabled":false,"rental_uris":{"android":"levelo://app?vid=6bf636eb-4301-4688-82ef-9efd8d93c418","ios":"levelo://app?vid=6bf636eb-4301-4688-82ef-9efd8d93c418"},"vehicle_type_id":"4","last_reported":1686337469,"current_range_meters":31600,"station_id":"ce4bhq92rcd13ifvqhjg","pricing_plan_id":"free"},{"bike_id":"4ba20453-31de-4115-ac71-aad53c16ef43","system_id":"levelo_inurba_marseille","lat":43.323464,"lon":5.406297,"is_reserved":false,"is_disabled":false,"rental_uris":{"android":"levelo://app?vid=4ba20453-31de-4115-ac71-aad53c16ef43","ios":"levelo://app?vid=4ba20453-31de-4115-ac71-aad53c16ef43"},"vehicle_type_id":"4","last_reported":1686337469,"current_range_meters":30000,"station_id":"ce4bhq92rcd13ifvqhjg","pricing_plan_id":"free"},{"bike_id":"03811b4e-95e1-4340-ab34-a5c7faa96891","system_id":"levelo_inurba_marseille","lat":43.323464,"lon":5.406297,"is_reserved":false,"is_disabled":false,"rental_uris":{"android":"levelo://app?vid=03811b4e-95e1-4340-ab34-a5c7faa96891","ios":"levelo://app?vid=03811b4e-95e1-4340-ab34-a5c7faa96891"},"vehicle_type_id":"4","last_reported":1686337469,"current_range_meters":15200,"station_id":"ce4bhq92rcd13ifvqhjg","pricing_plan_id":"free"},{"bike_id":"664960d4-4a99-4775-a29d-ad121a6c6787","system_id":"levelo_inurba_marseille","lat":43.32266,"lon":5.40659,"is_reserved":false,"is_disabled":false,"rental_uris":{"android":"levelo://app?vid=664960d4-4a99-4775-a29d-ad121a6c6787","ios":"levelo://app?vid=664960d4-4a99-4775-a29d-ad121a6c6787"},"vehicle_type_id":"4","last_reported":1686337469,"current_range_meters":30800,"station_id":"","pricing_plan_id":"free"},{"bike_id":"cc95bffc-1cfb-46fd-95e2-68612aeecf38","system_id":"levelo_inurba_marseille","lat":43.32261,"lon":5.40679,"is_reserved":false,"is_disabled":false,"rental_uris":{"android":"levelo://app?vid=cc95bffc-1cfb-46fd-95e2-68612aeecf38","ios":"levelo://app?vid=cc95bffc-1cfb-46fd-95e2-68612aeecf38"},"vehicle_type_id":"4","last_reported":1686337469,"current_range_meters":14400,"station_id":"","pricing_plan_id":"free"},{"bike_id":"1e0db54e-7228-413f-bc35-f63fc8ac6e4d","system_id":"levelo_inurba_marseille","lat":43.28847,"lon":5.39299,"is_reserved":false,"is_disabled":false,"rental_uris":{"android":"levelo://app?vid=1e0db54e-7228-413f-bc35-f63fc8ac6e4d","ios":"levelo://app?vid=1e0db54e-7228-413f-bc35-f63fc8ac6e4d"},"vehicle_type_id":"4","last_reported":1686337469,"current_range_meters":400,"station_id":"ce4bh2p2rcd13ifvqdi0","pricing_plan_id":"free"},{"bike_id":"ad0ea0b1-604c-4718-a0f1-bac40e35758d","system_id":"levelo_inurba_marseille","lat":43.28448,"lon":5.34971,"is_reserved":false,"is_disabled":false,"rental_uris":{"android":"levelo://app?vid=ad0ea0b1-604c-4718-a0f1-bac40e35758d","ios":"levelo://app?vid=ad0ea0b1-604c-4718-a0f1-bac40e35758d"},"vehicle_type_id":"4","last_reported":1686337469,"current_range_meters":31200,"station_id":"ce4bhbh2rcd13ifvqepg","pricing_plan_id":"free"},{"bike_id":"037cdf0c-5b42-46f9-a236-7f3ef4588645","system_id":"levelo_inurba_marseille","lat":43.284323,"lon":5.349974,"is_reserved":false,"is_disabled":false,"rental_uris":{"android":"levelo://app?vid=037cdf0c-5b42-46f9-a236-7f3ef4588645","ios":"levelo://app?vid=037cdf0c-5b42-46f9-a236-7f3ef4588645"},"vehicle_type_id":"4","last_reported":1686337469,"current_range_meters":15600,"station_id":"ce4bhbh2rcd13ifvqepg","pricing_plan_id":"free"},{"bike_id":"b8a28ac5-3d5f-4c58-9f67-f5dc06dc2891","system_id":"levelo_inurba_marseille","lat":43.284219,"lon":5.3497,"is_reserved":false,"is_disabled":false,"rental_uris":{"android":"levelo://app?vid=b8a28ac5-3d5f-4c58-9f67-f5dc06dc2891","ios":"levelo://app?vid=b8a28ac5-3d5f-4c58-9f67-f5dc06dc2891"},"vehicle_type_id":"4","last_reported":1686337469,"current_range_meters":31600,"station_id":"ce4bhbh2rcd13ifvqepg","pricing_plan_id":"free"},{"bike_id":"b108d02f-daa3-47ff-b105-345743f8c1a7","system_id":"levelo_inurba_marseille","lat":43.284219,"lon":5.3497,"is_reserved":false,"is_disabled":false,"rental_uris":{"android":"levelo://app?vid=b108d02f-daa3-47ff-b105-345743f8c1a7","ios":"levelo://app?vid=b108d02f-daa3-47ff-b105-345743f8c1a7"},"vehicle_type_id":"4","last_reported":1686337469,"current_range_meters":31600,"station_id":"ce4bhbh2rcd13ifvqepg","pricing_plan_id":"free"},{"bike_id":"5d54966b-e807-452f-91ea-88bdb06e889f","system_id":"levelo_inurba_marseille","lat":43.28421,"lon":5.34991,"is_reserved":false,"is_disabled":false,"rental_uris":{"android":"levelo://app?vid=5d54966b-e807-452f-91ea-88bdb06e889f","ios":"levelo://app?vid=5d54966b-e807-452f-91ea-88bdb06e889f"},"vehicle_type_id":"4","last_reported":1686337469,"current_range_meters":30800,"station_id":"ce4bhbh2rcd13ifvqepg","pricing_plan_id":"free"},{"bike_id":"a902a14a-9d77-49a9-aad6-25115782d54a","system_id":"levelo_inurba_marseille","lat":43.28421,"lon":5.34991,"is_reserved":false,"is_disabled":false,"rental_uris":{"android":"levelo://app?vid=a902a14a-9d77-49a9-aad6-25115782d54a","ios":"levelo://app?vid=a902a14a-9d77-49a9-aad6-25115782d54a"},"vehicle_type_id":"4","last_reported":1686337469,"current_range_meters":31200,"station_id":"ce4bhbh2rcd13ifvqepg","pricing_plan_id":"free"},{"bike_id":"0b10baf9-65dd-4426-bc01-03e4d77e606a","system_id":"levelo_inurba_marseille","lat":43.28421,"lon":5.3499,"is_reserved":false,"is_disabled":false,"rental_uris":{"android":"levelo://app?vid=0b10baf9-65dd-4426-bc01-03e4d77e606a","ios":"levelo://app?vid=0b10baf9-65dd-4426-bc01-03e4d77e606a"},"vehicle_type_id":"4","last_reported":1686337469,"current_range_meters":16000,"station_id":"ce4bhbh2rcd13ifvqepg","pricing_plan_id":"free"},{"bike_id":"68410771-8899-4c7f-a21f-dae825c46828","system_id":"levelo_inurba_marseille","lat":43.284219,"lon":5.3497,"is_reserved":false,"is_disabled":false,"rental_uris":{"android":"levelo://app?vid=68410771-8899-4c7f-a21f-dae825c46828","ios":"levelo://app?vid=68410771-8899-4c7f-a21f-dae825c46828"},"vehicle_type_id":"4","last_reported":1686337469,"current_range_meters":25200,"station_id":"ce4bhbh2rcd13ifvqepg","pricing_plan_id":"free"},{"bike_id":"7177fa40-9cd3-4847-846a-17e1ba7fa401","system_id":"levelo_inurba_marseille","lat":43.28424,"lon":5.34979,"is_reserved":false,"is_disabled":false,"rental_uris":{"android":"levelo://app?vid=7177fa40-9cd3-4847-846a-17e1ba7fa401","ios":"levelo://app?vid=7177fa40-9cd3-4847-846a-17e1ba7fa401"},"vehicle_type_id":"4","last_reported":1686337469,"current_range_meters":31200,"station_id":"ce4bhbh2rcd13ifvqepg","pricing_plan_id":"free"},{"bike_id":"0c170866-1a8d-4fcb-bba1-ee28884e252a","system_id":"levelo_inurba_marseille","lat":43.28418,"lon":5.34994,"is_reserved":false,"is_disabled":false,"rental_uris":{"android":"levelo://app?vid=0c170866-1a8d-4fcb-bba1-ee28884e252a","ios":"levelo://app?vid=0c170866-1a8d-4fcb-bba1-ee28884e252a"},"vehicle_type_id":"4","last_reported":1686337469,"current_range_meters":26400,"station_id":"ce4bhbh2rcd13ifvqepg","pricing_plan_id":"free"},{"bike_id":"6bb79123-69b6-49d4-a97b-d33377d3666b","system_id":"levelo_inurba_marseille","lat":43.28416,"lon":5.34996,"is_reserved":false,"is_disabled":false,"rental_uris":{"android":"levelo://app?vid=6bb79123-69b6-49d4-a97b-d33377d3666b","ios":"levelo://app?vid=6bb79123-69b6-49d4-a97b-d33377d3666b"},"vehicle_type_id":"4","last_reported":1686337469,"current_range_meters":31200,"station_id":"ce4bhbh2rcd13ifvqepg","pricing_plan_id":"free"},{"bike_id":"163ae5f0-8f65-4623-9060-6d4e7d1dadeb","system_id":"levelo_inurba_marseille","lat":43.284219,"lon":5.3497,"is_reserved":false,"is_disabled":false,"rental_uris":{"android":"levelo://app?vid=163ae5f0-8f65-4623-9060-6d4e7d1dadeb","ios":"levelo://app?vid=163ae5f0-8f65-4623-9060-6d4e7d1dadeb"},"vehicle_type_id":"4","last_reported":1686337469,"current_range_meters":15200,"station_id":"ce4bhbh2rcd13ifvqepg","pricing_plan_id":"free"},{"bike_id":"ae232d39-b160-410f-a53c-e104a0631f2e","system_id":"levelo_inurba_marseille","lat":43.32416,"lon":5.40674,"is_reserved":false,"is_disabled":false,"rental_uris":{"android":"levelo://app?vid=ae232d39-b160-410f-a53c-e104a0631f2e","ios":"levelo://app?vid=ae232d39-b160-410f-a53c-e104a0631f2e"},"vehicle_type_id":"4","last_reported":1686337469,"current_range_meters":19600,"station_id":"","pricing_plan_id":"free"},{"bike_id":"9bf040a0-f0bc-4ee1-972b-57cf50438af7","system_id":"levelo_inurba_marseille","lat":43.28416,"lon":5.34993,"is_reserved":false,"is_disabled":false,"rental_uris":{"android":"levelo://app?vid=9bf040a0-f0bc-4ee1-972b-57cf50438af7","ios":"levelo://app?vid=9bf040a0-f0bc-4ee1-972b-57cf50438af7"},"vehicle_type_id":"4","last_reported":1686337469,"current_range_meters":1600,"station_id":"ce4bhbh2rcd13ifvqepg","pricing_plan_id":"free"},{"bike_id":"8c77225d-4097-400c-87af-3c56204c3935","system_id":"levelo_inurba_marseille","lat":43.28414,"lon":5.34998,"is_reserved":false,"is_disabled":false,"rental_uris":{"android":"levelo://app?vid=8c77225d-4097-400c-87af-3c56204c3935","ios":"levelo://app?vid=8c77225d-4097-400c-87af-3c56204c3935"},"vehicle_type_id":"4","last_reported":1686337469,"current_range_meters":31200,"station_id":"ce4bhbh2rcd13ifvqepg","pricing_plan_id":"free"},{"bike_id":"bed44ac4-ddc9-42b9-bf83-89748cb8569c","system_id":"levelo_inurba_marseille","lat":43.28416,"lon":5.3499,"is_reserved":false,"is_disabled":false,"rental_uris":{"android":"levelo://app?vid=bed44ac4-ddc9-42b9-bf83-89748cb8569c","ios":"levelo://app?vid=bed44ac4-ddc9-42b9-bf83-89748cb8569c"},"vehicle_type_id":"4","last_reported":1686337469,"current_range_meters":24400,"station_id":"ce4bhbh2rcd13ifvqepg","pricing_plan_id":"free"},{"bike_id":"8f2bffe9-6205-41db-a010-dacc4f8f867f","system_id":"levelo_inurba_marseille","lat":43.284219,"lon":5.3497,"is_reserved":false,"is_disabled":false,"rental_uris":{"android":"levelo://app?vid=8f2bffe9-6205-41db-a010-dacc4f8f867f","ios":"levelo://app?vid=8f2bffe9-6205-41db-a010-dacc4f8f867f"},"vehicle_type_id":"4","last_reported":1686337469,"current_range_meters":31600,"station_id":"ce4bhbh2rcd13ifvqepg","pricing_plan_id":"free"},{"bike_id":"03dae932-383b-46e0-bc07-ede5dd6d804c","system_id":"levelo_inurba_marseille","lat":43.284219,"lon":5.3497,"is_reserved":false,"is_disabled":false,"rental_uris":{"android":"levelo://app?vid=03dae932-383b-46e0-bc07-ede5dd6d804c","ios":"levelo://app?vid=03dae932-383b-46e0-bc07-ede5dd6d804c"},"vehicle_type_id":"4","last_reported":1686337469,"current_range_meters":17200,"station_id":"ce4bhbh2rcd13ifvqepg","pricing_plan_id":"free"},{"bike_id":"1b266f8a-469e-44cd-a69a-58702ef605c9","system_id":"levelo_inurba_marseille","lat":43.28415,"lon":5.3499,"is_reserved":false,"is_disabled":false,"rental_uris":{"android":"levelo://app?vid=1b266f8a-469e-44cd-a69a-58702ef605c9","ios":"levelo://app?vid=1b266f8a-469e-44cd-a69a-58702ef605c9"},"vehicle_type_id":"4","last_reported":1686337469,"current_range_meters":31200,"station_id":"ce4bhbh2rcd13ifvqepg","pricing_plan_id":"free"},{"bike_id":"b9c80af8-d1e4-4cd7-af3e-c16892bd233d","system_id":"levelo_inurba_marseille","lat":43.28414,"lon":5.34991,"is_reserved":false,"is_disabled":false,"rental_uris":{"android":"levelo://app?vid=b9c80af8-d1e4-4cd7-af3e-c16892bd233d","ios":"levelo://app?vid=b9c80af8-d1e4-4cd7-af3e-c16892bd233d"},"vehicle_type_id":"4","last_reported":1686337469,"current_range_meters":31200,"station_id":"ce4bhbh2rcd13ifvqepg","pricing_plan_id":"free"},{"bike_id":"9e09532a-c6db-40de-ba7c-3fddb829bfdf","system_id":"levelo_inurba_marseille","lat":43.28414,"lon":5.34989,"is_reserved":false,"is_disabled":false,"rental_uris":{"android":"levelo://app?vid=9e09532a-c6db-40de-ba7c-3fddb829bfdf","ios":"levelo://app?vid=9e09532a-c6db-40de-ba7c-3fddb829bfdf"},"vehicle_type_id":"4","last_reported":1686337469,"current_range_meters":24800,"station_id":"ce4bhbh2rcd13ifvqepg","pricing_plan_id":"free"},{"bike_id":"b737c48e-2f80-4a4b-aa33-38ce72f8fc1f","system_id":"levelo_inurba_marseille","lat":43.284219,"lon":5.3497,"is_reserved":false,"is_disabled":false,"rental_uris":{"android":"levelo://app?vid=b737c48e-2f80-4a4b-aa33-38ce72f8fc1f","ios":"levelo://app?vid=b737c48e-2f80-4a4b-aa33-38ce72f8fc1f"},"vehicle_type_id":"4","last_reported":1686337469,"current_range_meters":15600,"station_id":"ce4bhbh2rcd13ifvqepg","pricing_plan_id":"free"},{"bike_id":"343679c7-58ba-406f-8348-a19cffd068bd","system_id":"levelo_inurba_marseille","lat":43.28412,"lon":5.34991,"is_reserved":false,"is_disabled":false,"rental_uris":{"android":"levelo://app?vid=343679c7-58ba-406f-8348-a19cffd068bd","ios":"levelo://app?vid=343679c7-58ba-406f-8348-a19cffd068bd"},"vehicle_type_id":"4","last_reported":1686337469,"current_range_meters":12000,"station_id":"ce4bhbh2rcd13ifvqepg","pricing_plan_id":"free"},{"bike_id":"37960ab7-c028-4b49-b9a5-3e39e99e1390","system_id":"levelo_inurba_marseille","lat":43.284219,"lon":5.3497,"is_reserved":false,"is_disabled":false,"rental_uris":{"android":"levelo://app?vid=37960ab7-c028-4b49-b9a5-3e39e99e1390","ios":"levelo://app?vid=37960ab7-c028-4b49-b9a5-3e39e99e1390"},"vehicle_type_id":"4","last_reported":1686337469,"current_range_meters":25200,"station_id":"ce4bhbh2rcd13ifvqepg","pricing_plan_id":"free"},{"bike_id":"3c39d389-9576-4b1b-9ef6-ddac1fd8d4d7","system_id":"levelo_inurba_marseille","lat":43.28413,"lon":5.34987,"is_reserved":false,"is_disabled":false,"rental_uris":{"android":"levelo://app?vid=3c39d389-9576-4b1b-9ef6-ddac1fd8d4d7","ios":"levelo://app?vid=3c39d389-9576-4b1b-9ef6-ddac1fd8d4d7"},"vehicle_type_id":"4","last_reported":1686337469,"current_range_meters":31200,"station_id":"ce4bhbh2rcd13ifvqepg","pricing_plan_id":"free"},{"bike_id":"d864dafa-90c9-48de-a3be-65fe8bd4b1a4","system_id":"levelo_inurba_marseille","lat":43.2841,"lon":5.34995,"is_reserved":false,"is_disabled":false,"rental_uris":{"android":"levelo://app?vid=d864dafa-90c9-48de-a3be-65fe8bd4b1a4","ios":"levelo://app?vid=d864dafa-90c9-48de-a3be-65fe8bd4b1a4"},"vehicle_type_id":"4","last_reported":1686337469,"current_range_meters":14400,"station_id":"ce4bhbh2rcd13ifvqepg","pricing_plan_id":"free"},{"bike_id":"50151d80-29cc-4799-bd7f-610653f80128","system_id":"levelo_inurba_marseille","lat":43.28412,"lon":5.34987,"is_reserved":false,"is_disabled":false,"rental_uris":{"android":"levelo://app?vid=50151d80-29cc-4799-bd7f-610653f80128","ios":"levelo://app?vid=50151d80-29cc-4799-bd7f-610653f80128"},"vehicle_type_id":"4","last_reported":1686337469,"current_range_meters":29200,"station_id":"ce4bhbh2rcd13ifvqepg","pricing_plan_id":"free"},{"bike_id":"6992a703-09be-432d-9367-0dc46c3394b3","system_id":"levelo_inurba_marseille","lat":43.2841,"lon":5.34988,"is_reserved":false,"is_disabled":false,"rental_uris":{"android":"levelo://app?vid=6992a703-09be-432d-9367-0dc46c3394b3","ios":"levelo://app?vid=6992a703-09be-432d-9367-0dc46c3394b3"},"vehicle_type_id":"4","last_reported":1686337469,"current_range_meters":19200,"station_id":"ce4bhbh2rcd13ifvqepg","pricing_plan_id":"free"},{"bike_id":"8a3cc172-5b63-4c86-bfb9-49cd5058ddcc","system_id":"levelo_inurba_marseille","lat":43.28412,"lon":5.34978,"is_reserved":false,"is_disabled":false,"rental_uris":{"android":"levelo://app?vid=8a3cc172-5b63-4c86-bfb9-49cd5058ddcc","ios":"levelo://app?vid=8a3cc172-5b63-4c86-bfb9-49cd5058ddcc"},"vehicle_type_id":"4","last_reported":1686337469,"current_range_meters":21200,"station_id":"ce4bhbh2rcd13ifvqepg","pricing_plan_id":"free"},{"bike_id":"e120fd93-b715-4d31-a8b5-fbec6c2b0c5b","system_id":"levelo_inurba_marseille","lat":43.28269,"lon":5.35086,"is_reserved":false,"is_disabled":false,"rental_uris":{"android":"levelo://app?vid=e120fd93-b715-4d31-a8b5-fbec6c2b0c5b","ios":"levelo://app?vid=e120fd93-b715-4d31-a8b5-fbec6c2b0c5b"},"vehicle_type_id":"4","last_reported":1686337469,"current_range_meters":23200,"station_id":"","pricing_plan_id":"free"},{"bike_id":"51b9ea56-2b0b-4725-9d17-22f812421e12","system_id":"levelo_inurba_marseille","lat":43.28274,"lon":5.35068,"is_reserved":false,"is_disabled":false,"rental_uris":{"android":"levelo://app?vid=51b9ea56-2b0b-4725-9d17-22f812421e12","ios":"levelo://app?vid=51b9ea56-2b0b-4725-9d17-22f812421e12"},"vehicle_type_id":"4","last_reported":1686337469,"current_range_meters":29200,"station_id":"ce4bhbp2rcd13ifvqerg","pricing_plan_id":"free"},{"bike_id":"a34e2d51-5bca-47b7-b072-ea9243692246","system_id":"levelo_inurba_marseille","lat":43.28277,"lon":5.35057,"is_reserved":false,"is_disabled":false,"rental_uris":{"android":"levelo://app?vid=a34e2d51-5bca-47b7-b072-ea9243692246","ios":"levelo://app?vid=a34e2d51-5bca-47b7-b072-ea9243692246"},"vehicle_type_id":"4","last_reported":1686337469,"current_range_meters":4400,"station_id":"ce4bhbp2rcd13ifvqerg","pricing_plan_id":"free"},{"bike_id":"56741381-d6d1-44c0-a15c-8b38fdba6073","system_id":"levelo_inurba_marseille","lat":43.2827,"lon":5.35081,"is_reserved":false,"is_disabled":false,"rental_uris":{"android":"levelo://app?vid=56741381-d6d1-44c0-a15c-8b38fdba6073","ios":"levelo://app?vid=56741381-d6d1-44c0-a15c-8b38fdba6073"},"vehicle_type_id":"4","last_reported":1686337469,"current_range_meters":10800,"station_id":"ce4bhbp2rcd13ifvqerg","pricing_plan_id":"free"},{"bike_id":"57b453b0-a31e-464b-a1e3-921fff929963","system_id":"levelo_inurba_marseille","lat":43.28268,"lon":5.35086,"is_reserved":false,"is_disabled":false,"rental_uris":{"android":"levelo://app?vid=57b453b0-a31e-464b-a1e3-921fff929963","ios":"levelo://app?vid=57b453b0-a31e-464b-a1e3-921fff929963"},"vehicle_type_id":"4","last_reported":1686337469,"current_range_meters":21200,"station_id":"ce4bhbp2rcd13ifvqerg","pricing_plan_id":"free"},{"bike_id":"1e6fbe93-fc62-42fd-ae36-b9d52ea596dc","system_id":"levelo_inurba_marseille","lat":43.282757,"lon":5.350536,"is_reserved":false,"is_disabled":false,"rental_uris":{"android":"levelo://app?vid=1e6fbe93-fc62-42fd-ae36-b9d52ea596dc","ios":"levelo://app?vid=1e6fbe93-fc62-42fd-ae36-b9d52ea596dc"},"vehicle_type_id":"4","last_reported":1686337469,"current_range_meters":18400,"station_id":"ce4bhbp2rcd13ifvqerg","pricing_plan_id":"free"},{"bike_id":"0f1a26cf-52a7-40b3-91a8-8d319af11250","system_id":"levelo_inurba_marseille","lat":43.28267,"lon":5.35079,"is_reserved":false,"is_disabled":false,"rental_uris":{"android":"levelo://app?vid=0f1a26cf-52a7-40b3-91a8-8d319af11250","ios":"levelo://app?vid=0f1a26cf-52a7-40b3-91a8-8d319af11250"},"vehicle_type_id":"4","last_reported":1686337469,"current_range_meters":16000,"station_id":"ce4bhbp2rcd13ifvqerg","pricing_plan_id":"free"},{"bike_id":"4351f800-4ab2-4e7f-9acc-87a053fb9116","system_id":"levelo_inurba_marseille","lat":43.28266,"lon":5.3508,"is_reserved":false,"is_disabled":false,"rental_uris":{"android":"levelo://app?vid=4351f800-4ab2-4e7f-9acc-87a053fb9116","ios":"levelo://app?vid=4351f800-4ab2-4e7f-9acc-87a053fb9116"},"vehicle_type_id":"4","last_reported":1686337469,"current_range_meters":31200,"station_id":"","pricing_plan_id":"free"},{"bike_id":"221ecf92-592b-4d36-b11a-185cc6d70d38","system_id":"levelo_inurba_marseille","lat":43.28267,"lon":5.35076,"is_reserved":false,"is_disabled":false,"rental_uris":{"android":"levelo://app?vid=221ecf92-592b-4d36-b11a-185cc6d70d38","ios":"levelo://app?vid=221ecf92-592b-4d36-b11a-185cc6d70d38"},"vehicle_type_id":"4","last_reported":1686337469,"current_range_meters":28000,"station_id":"ce4bhbp2rcd13ifvqerg","pricing_plan_id":"free"},{"bike_id":"8ceb4e05-8231-452c-8a86-e262e257e33e","system_id":"levelo_inurba_marseille","lat":43.28267,"lon":5.35075,"is_reserved":false,"is_disabled":false,"rental_uris":{"android":"levelo://app?vid=8ceb4e05-8231-452c-8a86-e262e257e33e","ios":"levelo://app?vid=8ceb4e05-8231-452c-8a86-e262e257e33e"},"vehicle_type_id":"4","last_reported":1686337469,"current_range_meters":30400,"station_id":"ce4bhbp2rcd13ifvqerg","pricing_plan_id":"free"},{"bike_id":"08161a14-7a77-4540-975f-a83f67bf7f19","system_id":"levelo_inurba_marseille","lat":43.28265,"lon":5.35081,"is_reserved":false,"is_disabled":false,"rental_uris":{"android":"levelo://app?vid=08161a14-7a77-4540-975f-a83f67bf7f19","ios":"levelo://app?vid=08161a14-7a77-4540-975f-a83f67bf7f19"},"vehicle_type_id":"4","last_reported":1686337469,"current_range_meters":15600,"station_id":"ce4bhbp2rcd13ifvqerg","pricing_plan_id":"free"},{"bike_id":"d9115747-b40a-4fdf-a0aa-4b8f25605f49","system_id":"levelo_inurba_marseille","lat":43.28265,"lon":5.3508,"is_reserved":false,"is_disabled":false,"rental_uris":{"android":"levelo://app?vid=d9115747-b40a-4fdf-a0aa-4b8f25605f49","ios":"levelo://app?vid=d9115747-b40a-4fdf-a0aa-4b8f25605f49"},"vehicle_type_id":"4","last_reported":1686337469,"current_range_meters":17600,"station_id":"ce4bhbp2rcd13ifvqerg","pricing_plan_id":"free"},{"bike_id":"8416b3c1-7fda-4d0c-b1d2-3fc57818f277","system_id":"levelo_inurba_marseille","lat":43.282698,"lon":5.35063,"is_reserved":false,"is_disabled":false,"rental_uris":{"android":"levelo://app?vid=8416b3c1-7fda-4d0c-b1d2-3fc57818f277","ios":"levelo://app?vid=8416b3c1-7fda-4d0c-b1d2-3fc57818f277"},"vehicle_type_id":"4","last_reported":1686337469,"current_range_meters":14800,"station_id":"ce4bhbp2rcd13ifvqerg","pricing_plan_id":"free"},{"bike_id":"8fd42be3-f5b7-4d6f-875a-06e0df7110fe","system_id":"levelo_inurba_marseille","lat":43.28264,"lon":5.35083,"is_reserved":false,"is_disabled":false,"rental_uris":{"android":"levelo://app?vid=8fd42be3-f5b7-4d6f-875a-06e0df7110fe","ios":"levelo://app?vid=8fd42be3-f5b7-4d6f-875a-06e0df7110fe"},"vehicle_type_id":"4","last_reported":1686337469,"current_range_meters":12400,"station_id":"ce4bhbp2rcd13ifvqerg","pricing_plan_id":"free"},{"bike_id":"d5f82bcf-0883-4721-9fb8-92a79407f0d5","system_id":"levelo_inurba_marseille","lat":43.2827,"lon":5.35061,"is_reserved":false,"is_disabled":false,"rental_uris":{"android":"levelo://app?vid=d5f82bcf-0883-4721-9fb8-92a79407f0d5","ios":"levelo://app?vid=d5f82bcf-0883-4721-9fb8-92a79407f0d5"},"vehicle_type_id":"4","last_reported":1686337469,"current_range_meters":31200,"station_id":"ce4bhbp2rcd13ifvqerg","pricing_plan_id":"free"},{"bike_id":"0565134f-f589-4acb-b3e9-1ec13b941ef9","system_id":"levelo_inurba_marseille","lat":43.28264,"lon":5.35078,"is_reserved":false,"is_disabled":false,"rental_uris":{"android":"levelo://app?vid=0565134f-f589-4acb-b3e9-1ec13b941ef9","ios":"levelo://app?vid=0565134f-f589-4acb-b3e9-1ec13b941ef9"},"vehicle_type_id":"4","last_reported":1686337469,"current_range_meters":29200,"station_id":"","pricing_plan_id":"free"},{"bike_id":"d66fda5c-d60e-4e69-be3b-e47ef2082406","system_id":"levelo_inurba_marseille","lat":43.28266,"lon":5.3507,"is_reserved":false,"is_disabled":false,"rental_uris":{"android":"levelo://app?vid=d66fda5c-d60e-4e69-be3b-e47ef2082406","ios":"levelo://app?vid=d66fda5c-d60e-4e69-be3b-e47ef2082406"},"vehicle_type_id":"4","last_reported":1686337469,"current_range_meters":5200,"station_id":"ce4bhbp2rcd13ifvqerg","pricing_plan_id":"free"},{"bike_id":"dbf2cdcb-8e5a-4fd9-9da9-f60e8119f263","system_id":"levelo_inurba_marseille","lat":43.282754,"lon":5.350519,"is_reserved":false,"is_disabled":false,"rental_uris":{"android":"levelo://app?vid=dbf2cdcb-8e5a-4fd9-9da9-f60e8119f263","ios":"levelo://app?vid=dbf2cdcb-8e5a-4fd9-9da9-f60e8119f263"},"vehicle_type_id":"4","last_reported":1686337469,"current_range_meters":20000,"station_id":"ce4bhbp2rcd13ifvqerg","pricing_plan_id":"free"},{"bike_id":"733b9f79-ab67-4d8a-9535-4ea41cc15d3e","system_id":"levelo_inurba_marseille","lat":43.28264,"lon":5.35073,"is_reserved":false,"is_disabled":false,"rental_uris":{"android":"levelo://app?vid=733b9f79-ab67-4d8a-9535-4ea41cc15d3e","ios":"levelo://app?vid=733b9f79-ab67-4d8a-9535-4ea41cc15d3e"},"vehicle_type_id":"4","last_reported":1686337469,"current_range_meters":15200,"station_id":"ce4bhbp2rcd13ifvqerg","pricing_plan_id":"free"},{"bike_id":"50159f6c-a245-4b01-8024-c97bd649f777","system_id":"levelo_inurba_marseille","lat":43.28264,"lon":5.35072,"is_reserved":false,"is_disabled":false,"rental_uris":{"android":"levelo://app?vid=50159f6c-a245-4b01-8024-c97bd649f777","ios":"levelo://app?vid=50159f6c-a245-4b01-8024-c97bd649f777"},"vehicle_type_id":"4","last_reported":1686337469,"current_range_meters":31200,"station_id":"ce4bhbp2rcd13ifvqerg","pricing_plan_id":"free"},{"bike_id":"243e2362-c51b-4557-bad8-9d1b8cda0213","system_id":"levelo_inurba_marseille","lat":43.28046,"lon":5.36938,"is_reserved":false,"is_disabled":false,"rental_uris":{"android":"levelo://app?vid=243e2362-c51b-4557-bad8-9d1b8cda0213","ios":"levelo://app?vid=243e2362-c51b-4557-bad8-9d1b8cda0213"},"vehicle_type_id":"4","last_reported":1686337469,"current_range_meters":29600,"station_id":"ce4bha12rcd13ifvqef0","pricing_plan_id":"free"},{"bike_id":"454120ee-a235-4935-996b-362045b0900f","system_id":"levelo_inurba_marseille","lat":43.28263,"lon":5.35071,"is_reserved":false,"is_disabled":false,"rental_uris":{"android":"levelo://app?vid=454120ee-a235-4935-996b-362045b0900f","ios":"levelo://app?vid=454120ee-a235-4935-996b-362045b0900f"},"vehicle_type_id":"4","last_reported":1686337469,"current_range_meters":30800,"station_id":"ce4bhbp2rcd13ifvqerg","pricing_plan_id":"free"},{"bike_id":"f9843750-2e6d-4bd1-89a4-6ac95cd967b3","system_id":"levelo_inurba_marseille","lat":43.28267,"lon":5.350557,"is_reserved":false,"is_disabled":false,"rental_uris":{"android":"levelo://app?vid=f9843750-2e6d-4bd1-89a4-6ac95cd967b3","ios":"levelo://app?vid=f9843750-2e6d-4bd1-89a4-6ac95cd967b3"},"vehicle_type_id":"4","last_reported":1686337469,"current_range_meters":4800,"station_id":"ce4bhbp2rcd13ifvqerg","pricing_plan_id":"free"},{"bike_id":"6f4e6d7e-b379-4674-8361-3d632c4cd27e","system_id":"levelo_inurba_marseille","lat":43.28261,"lon":5.35072,"is_reserved":false,"is_disabled":false,"rental_uris":{"android":"levelo://app?vid=6f4e6d7e-b379-4674-8361-3d632c4cd27e","ios":"levelo://app?vid=6f4e6d7e-b379-4674-8361-3d632c4cd27e"},"vehicle_type_id":"4","last_reported":1686337469,"current_range_meters":20000,"station_id":"ce4bhbp2rcd13ifvqerg","pricing_plan_id":"free"},{"bike_id":"f3c18b5e-9e78-442c-a5a0-94f195673e15","system_id":"levelo_inurba_marseille","lat":43.282659,"lon":5.350549,"is_reserved":false,"is_disabled":false,"rental_uris":{"android":"levelo://app?vid=f3c18b5e-9e78-442c-a5a0-94f195673e15","ios":"levelo://app?vid=f3c18b5e-9e78-442c-a5a0-94f195673e15"},"vehicle_type_id":"4","last_reported":1686337469,"current_range_meters":31200,"station_id":"ce4bhbp2rcd13ifvqerg","pricing_plan_id":"free"},{"bike_id":"7d5661cb-8cac-4b6b-b576-c9e2831beb49","system_id":"levelo_inurba_marseille","lat":43.27923,"lon":5.37266,"is_reserved":false,"is_disabled":false,"rental_uris":{"android":"levelo://app?vid=7d5661cb-8cac-4b6b-b576-c9e2831beb49","ios":"levelo://app?vid=7d5661cb-8cac-4b6b-b576-c9e2831beb49"},"vehicle_type_id":"4","last_reported":1686337469,"current_range_meters":17200,"station_id":"","pricing_plan_id":"free"},{"bike_id":"b535629e-dcf9-4daf-8d92-f688db4ac72c","system_id":"levelo_inurba_marseille","lat":43.326605,"lon":5.409903,"is_reserved":false,"is_disabled":false,"rental_uris":{"android":"levelo://app?vid=b535629e-dcf9-4daf-8d92-f688db4ac72c","ios":"levelo://app?vid=b535629e-dcf9-4daf-8d92-f688db4ac72c"},"vehicle_type_id":"4","last_reported":1686337469,"current_range_meters":2000,"station_id":"ce4bhpp2rcd13ifvqhgg","pricing_plan_id":"free"},{"bike_id":"d90de182-a879-468a-af44-072bd2400e9e","system_id":"levelo_inurba_marseille","lat":43.326605,"lon":5.409903,"is_reserved":false,"is_disabled":false,"rental_uris":{"android":"levelo://app?vid=d90de182-a879-468a-af44-072bd2400e9e","ios":"levelo://app?vid=d90de182-a879-468a-af44-072bd2400e9e"},"vehicle_type_id":"4","last_reported":1686337469,"current_range_meters":6800,"station_id":"ce4bhpp2rcd13ifvqhgg","pricing_plan_id":"free"},{"bike_id":"573f1c5f-d996-45d6-b2fc-6c08a180af99","system_id":"levelo_inurba_marseille","lat":43.326605,"lon":5.409903,"is_reserved":false,"is_disabled":false,"rental_uris":{"android":"levelo://app?vid=573f1c5f-d996-45d6-b2fc-6c08a180af99","ios":"levelo://app?vid=573f1c5f-d996-45d6-b2fc-6c08a180af99"},"vehicle_type_id":"4","last_reported":1686337469,"current_range_meters":20400,"station_id":"ce4bhpp2rcd13ifvqhgg","pricing_plan_id":"free"},{"bike_id":"bde9587a-cb8e-43ee-bfa2-b8e734194db2","system_id":"levelo_inurba_marseille","lat":43.27904,"lon":5.38013,"is_reserved":false,"is_disabled":false,"rental_uris":{"android":"levelo://app?vid=bde9587a-cb8e-43ee-bfa2-b8e734194db2","ios":"levelo://app?vid=bde9587a-cb8e-43ee-bfa2-b8e734194db2"},"vehicle_type_id":"4","last_reported":1686337469,"current_range_meters":8800,"station_id":"","pricing_plan_id":"free"},{"bike_id":"fadb2181-ec14-4d0f-a838-5bc93e8b9c4f","system_id":"levelo_inurba_marseille","lat":43.27896,"lon":5.3802,"is_reserved":false,"is_disabled":false,"rental_uris":{"android":"levelo://app?vid=fadb2181-ec14-4d0f-a838-5bc93e8b9c4f","ios":"levelo://app?vid=fadb2181-ec14-4d0f-a838-5bc93e8b9c4f"},"vehicle_type_id":"4","last_reported":1686337469,"current_range_meters":0,"station_id":"","pricing_plan_id":"free"},{"bike_id":"227a855b-a09a-4601-92b4-17d56339322a","system_id":"levelo_inurba_marseille","lat":43.3161,"lon":5.4156,"is_reserved":false,"is_disabled":false,"rental_uris":{"android":"levelo://app?vid=227a855b-a09a-4601-92b4-17d56339322a","ios":"levelo://app?vid=227a855b-a09a-4601-92b4-17d56339322a"},"vehicle_type_id":"4","last_reported":1686337469,"current_range_meters":30400,"station_id":"ce4bhp92rcd13ifvqhbg","pricing_plan_id":"free"},{"bike_id":"1ebc9a44-ccbe-4956-8d9e-7a1b81e38101","system_id":"levelo_inurba_marseille","lat":43.299577,"lon":5.413277,"is_reserved":false,"is_disabled":false,"rental_uris":{"android":"levelo://app?vid=1ebc9a44-ccbe-4956-8d9e-7a1b81e38101","ios":"levelo://app?vid=1ebc9a44-ccbe-4956-8d9e-7a1b81e38101"},"vehicle_type_id":"4","last_reported":1686337469,"current_range_meters":4800,"station_id":"ce4bhp12rcd13ifvqh9g","pricing_plan_id":"free"},{"bike_id":"4b4b3af5-3b19-42a2-8202-4d2861d020ef","system_id":"levelo_inurba_marseille","lat":43.32052,"lon":5.41548,"is_reserved":false,"is_disabled":false,"rental_uris":{"android":"levelo://app?vid=4b4b3af5-3b19-42a2-8202-4d2861d020ef","ios":"levelo://app?vid=4b4b3af5-3b19-42a2-8202-4d2861d020ef"},"vehicle_type_id":"4","last_reported":1686337469,"current_range_meters":12800,"station_id":"","pricing_plan_id":"free"},{"bike_id":"85c49e00-f7be-4e5e-808e-9de223aa05a8","system_id":"levelo_inurba_marseille","lat":43.279742,"lon":5.38744,"is_reserved":false,"is_disabled":false,"rental_uris":{"android":"levelo://app?vid=85c49e00-f7be-4e5e-808e-9de223aa05a8","ios":"levelo://app?vid=85c49e00-f7be-4e5e-808e-9de223aa05a8"},"vehicle_type_id":"4","last_reported":1686337469,"current_range_meters":2000,"station_id":"ce4bhg12rcd13ifvqf80","pricing_plan_id":"free"},{"bike_id":"8bae052b-3edc-4345-85b1-d116189b7c89","system_id":"levelo_inurba_marseille","lat":43.32099,"lon":5.41576,"is_reserved":false,"is_disabled":false,"rental_uris":{"android":"levelo://app?vid=8bae052b-3edc-4345-85b1-d116189b7c89","ios":"levelo://app?vid=8bae052b-3edc-4345-85b1-d116189b7c89"},"vehicle_type_id":"4","last_reported":1686337469,"current_range_meters":16800,"station_id":"","pricing_plan_id":"free"},{"bike_id":"72a1be52-c3c0-4fb2-8daa-674e27ce05f5","system_id":"levelo_inurba_marseille","lat":43.27618,"lon":5.361009,"is_reserved":false,"is_disabled":false,"rental_uris":{"android":"levelo://app?vid=72a1be52-c3c0-4fb2-8daa-674e27ce05f5","ios":"levelo://app?vid=72a1be52-c3c0-4fb2-8daa-674e27ce05f5"},"vehicle_type_id":"4","last_reported":1686337469,"current_range_meters":25600,"station_id":"ce4bgj92rcd13ifvqbe0","pricing_plan_id":"free"},{"bike_id":"a8a38973-a006-4c50-84ef-2232e99c8c95","system_id":"levelo_inurba_marseille","lat":43.27617,"lon":5.36113,"is_reserved":false,"is_disabled":false,"rental_uris":{"android":"levelo://app?vid=a8a38973-a006-4c50-84ef-2232e99c8c95","ios":"levelo://app?vid=a8a38973-a006-4c50-84ef-2232e99c8c95"},"vehicle_type_id":"4","last_reported":1686337469,"current_range_meters":12000,"station_id":"ce4bgj92rcd13ifvqbe0","pricing_plan_id":"free"},{"bike_id":"7cf4fa4b-cd28-4ccc-a43d-cf876716833d","system_id":"levelo_inurba_marseille","lat":43.280784,"lon":5.396622,"is_reserved":false,"is_disabled":false,"rental_uris":{"android":"levelo://app?vid=7cf4fa4b-cd28-4ccc-a43d-cf876716833d","ios":"levelo://app?vid=7cf4fa4b-cd28-4ccc-a43d-cf876716833d"},"vehicle_type_id":"4","last_reported":1686337469,"current_range_meters":17600,"station_id":"ce4bho12rcd13ifvqh2g","pricing_plan_id":"free"},{"bike_id":"3aebdf1b-9858-4c42-96f5-51928964cc88","system_id":"levelo_inurba_marseille","lat":43.280784,"lon":5.396622,"is_reserved":false,"is_disabled":false,"rental_uris":{"android":"levelo://app?vid=3aebdf1b-9858-4c42-96f5-51928964cc88","ios":"levelo://app?vid=3aebdf1b-9858-4c42-96f5-51928964cc88"},"vehicle_type_id":"4","last_reported":1686337469,"current_range_meters":10000,"station_id":"ce4bho12rcd13ifvqh2g","pricing_plan_id":"free"},{"bike_id":"2765d7ce-8954-4c1f-9cba-58f2174ba613","system_id":"levelo_inurba_marseille","lat":43.3035,"lon":5.418706,"is_reserved":false,"is_disabled":false,"rental_uris":{"android":"levelo://app?vid=2765d7ce-8954-4c1f-9cba-58f2174ba613","ios":"levelo://app?vid=2765d7ce-8954-4c1f-9cba-58f2174ba613"},"vehicle_type_id":"4","last_reported":1686337469,"current_range_meters":27600,"station_id":"","pricing_plan_id":"free"},{"bike_id":"4de75686-0ea7-4106-aa70-df815cfae7c6","system_id":"levelo_inurba_marseille","lat":43.303837,"lon":5.418724,"is_reserved":false,"is_disabled":false,"rental_uris":{"android":"levelo://app?vid=4de75686-0ea7-4106-aa70-df815cfae7c6","ios":"levelo://app?vid=4de75686-0ea7-4106-aa70-df815cfae7c6"},"vehicle_type_id":"4","last_reported":1686337469,"current_range_meters":8400,"station_id":"ce4bhop2rcd13ifvqh7g","pricing_plan_id":"free"},{"bike_id":"824c0e81-fcf0-4b9d-89c6-aa16a29c6ac8","system_id":"levelo_inurba_marseille","lat":43.303837,"lon":5.418724,"is_reserved":false,"is_disabled":false,"rental_uris":{"android":"levelo://app?vid=824c0e81-fcf0-4b9d-89c6-aa16a29c6ac8","ios":"levelo://app?vid=824c0e81-fcf0-4b9d-89c6-aa16a29c6ac8"},"vehicle_type_id":"4","last_reported":1686337469,"current_range_meters":7600,"station_id":"ce4bhop2rcd13ifvqh7g","pricing_plan_id":"free"},{"bike_id":"6f1d03f2-0956-4a2e-9415-0f46bb73f620","system_id":"levelo_inurba_marseille","lat":43.273613,"lon":5.362705,"is_reserved":false,"is_disabled":false,"rental_uris":{"android":"levelo://app?vid=6f1d03f2-0956-4a2e-9415-0f46bb73f620","ios":"levelo://app?vid=6f1d03f2-0956-4a2e-9415-0f46bb73f620"},"vehicle_type_id":"4","last_reported":1686337469,"current_range_meters":22400,"station_id":"ce4bhbh2rcd13ifvqeo0","pricing_plan_id":"free"},{"bike_id":"20d8f05f-0a05-4dc2-bd10-d55b9fcd9cd4","system_id":"levelo_inurba_marseille","lat":43.273613,"lon":5.362705,"is_reserved":false,"is_disabled":false,"rental_uris":{"android":"levelo://app?vid=20d8f05f-0a05-4dc2-bd10-d55b9fcd9cd4","ios":"levelo://app?vid=20d8f05f-0a05-4dc2-bd10-d55b9fcd9cd4"},"vehicle_type_id":"4","last_reported":1686337469,"current_range_meters":26400,"station_id":"ce4bhbh2rcd13ifvqeo0","pricing_plan_id":"free"},{"bike_id":"f9f9d6f5-2269-4dc6-a5ba-8d02a6127ff5","system_id":"levelo_inurba_marseille","lat":43.273613,"lon":5.362705,"is_reserved":false,"is_disabled":false,"rental_uris":{"android":"levelo://app?vid=f9f9d6f5-2269-4dc6-a5ba-8d02a6127ff5","ios":"levelo://app?vid=f9f9d6f5-2269-4dc6-a5ba-8d02a6127ff5"},"vehicle_type_id":"4","last_reported":1686337469,"current_range_meters":12000,"station_id":"ce4bhbh2rcd13ifvqeo0","pricing_plan_id":"free"},{"bike_id":"12b0ac7d-fd2e-4293-9a16-ffd9a892ac83","system_id":"levelo_inurba_marseille","lat":43.273613,"lon":5.362705,"is_reserved":false,"is_disabled":false,"rental_uris":{"android":"levelo://app?vid=12b0ac7d-fd2e-4293-9a16-ffd9a892ac83","ios":"levelo://app?vid=12b0ac7d-fd2e-4293-9a16-ffd9a892ac83"},"vehicle_type_id":"4","last_reported":1686337469,"current_range_meters":13200,"station_id":"ce4bhbh2rcd13ifvqeo0","pricing_plan_id":"free"},{"bike_id":"dcfbec1f-8b2a-4266-8426-50158dd45510","system_id":"levelo_inurba_marseille","lat":43.273613,"lon":5.362705,"is_reserved":false,"is_disabled":false,"rental_uris":{"android":"levelo://app?vid=dcfbec1f-8b2a-4266-8426-50158dd45510","ios":"levelo://app?vid=dcfbec1f-8b2a-4266-8426-50158dd45510"},"vehicle_type_id":"4","last_reported":1686337469,"current_range_meters":30800,"station_id":"ce4bhbh2rcd13ifvqeo0","pricing_plan_id":"free"},{"bike_id":"ffcd4fae-f80e-4275-a860-b1dba0238272","system_id":"levelo_inurba_marseille","lat":43.273609,"lon":5.362708,"is_reserved":false,"is_disabled":false,"rental_uris":{"android":"levelo://app?vid=ffcd4fae-f80e-4275-a860-b1dba0238272","ios":"levelo://app?vid=ffcd4fae-f80e-4275-a860-b1dba0238272"},"vehicle_type_id":"4","last_reported":1686337469,"current_range_meters":28400,"station_id":"ce4bhbh2rcd13ifvqeo0","pricing_plan_id":"free"},{"bike_id":"f92e8ad1-543b-439a-9574-3b57db5a80f1","system_id":"levelo_inurba_marseille","lat":43.276771,"lon":5.388799,"is_reserved":false,"is_disabled":false,"rental_uris":{"android":"levelo://app?vid=f92e8ad1-543b-439a-9574-3b57db5a80f1","ios":"levelo://app?vid=f92e8ad1-543b-439a-9574-3b57db5a80f1"},"vehicle_type_id":"4","last_reported":1686337469,"current_range_meters":800,"station_id":"ce4bhi12rcd13ifvqfo0","pricing_plan_id":"free"},{"bike_id":"39606827-11ad-47dc-8236-73587abc5dca","system_id":"levelo_inurba_marseille","lat":43.317121,"lon":5.423936,"is_reserved":false,"is_disabled":false,"rental_uris":{"android":"levelo://app?vid=39606827-11ad-47dc-8236-73587abc5dca","ios":"levelo://app?vid=39606827-11ad-47dc-8236-73587abc5dca"},"vehicle_type_id":"4","last_reported":1686337469,"current_range_meters":25200,"station_id":"ce4bhp92rcd13ifvqhbg","pricing_plan_id":"free"},{"bike_id":"9c61151b-6b89-4fa2-99f3-dcffb0c2ef60","system_id":"levelo_inurba_marseille","lat":43.273125,"lon":5.390731,"is_reserved":false,"is_disabled":false,"rental_uris":{"android":"levelo://app?vid=9c61151b-6b89-4fa2-99f3-dcffb0c2ef60","ios":"levelo://app?vid=9c61151b-6b89-4fa2-99f3-dcffb0c2ef60"},"vehicle_type_id":"4","last_reported":1686337469,"current_range_meters":0,"station_id":"ce4bhgp2rcd13ifvqfe0","pricing_plan_id":"free"},{"bike_id":"abe87988-874d-40c6-941a-24f2ba9bc0b2","system_id":"levelo_inurba_marseille","lat":43.304088,"lon":5.425388,"is_reserved":false,"is_disabled":false,"rental_uris":{"android":"levelo://app?vid=abe87988-874d-40c6-941a-24f2ba9bc0b2","ios":"levelo://app?vid=abe87988-874d-40c6-941a-24f2ba9bc0b2"},"vehicle_type_id":"4","last_reported":1686337469,"current_range_meters":3200,"station_id":"ce4bhoh2rcd13ifvqh6g","pricing_plan_id":"free"},{"bike_id":"eee76058-de34-4cc1-90de-8eea701e5b87","system_id":"levelo_inurba_marseille","lat":43.295523,"lon":5.422926,"is_reserved":false,"is_disabled":false,"rental_uris":{"android":"levelo://app?vid=eee76058-de34-4cc1-90de-8eea701e5b87","ios":"levelo://app?vid=eee76058-de34-4cc1-90de-8eea701e5b87"},"vehicle_type_id":"4","last_reported":1686337469,"current_range_meters":0,"station_id":"ce4bhph2rcd13ifvqhdg","pricing_plan_id":"free"},{"bike_id":"f96cca47-d10c-4298-baa2-7962625164f6","system_id":"levelo_inurba_marseille","lat":43.295523,"lon":5.422926,"is_reserved":false,"is_disabled":false,"rental_uris":{"android":"levelo://app?vid=f96cca47-d10c-4298-baa2-7962625164f6","ios":"levelo://app?vid=f96cca47-d10c-4298-baa2-7962625164f6"},"vehicle_type_id":"4","last_reported":1686337469,"current_range_meters":24800,"station_id":"ce4bhph2rcd13ifvqhdg","pricing_plan_id":"free"},{"bike_id":"919079bd-2211-4225-8b3e-d7eecbc5ec68","system_id":"levelo_inurba_marseille","lat":43.278128,"lon":5.407195,"is_reserved":false,"is_disabled":false,"rental_uris":{"android":"levelo://app?vid=919079bd-2211-4225-8b3e-d7eecbc5ec68","ios":"levelo://app?vid=919079bd-2211-4225-8b3e-d7eecbc5ec68"},"vehicle_type_id":"4","last_reported":1686337469,"current_range_meters":17200,"station_id":"ce4bhnh2rcd13ifvqgtg","pricing_plan_id":"free"},{"bike_id":"1ef5534b-26c3-416d-929a-434053efe694","system_id":"levelo_inurba_marseille","lat":43.269467,"lon":5.386439,"is_reserved":false,"is_disabled":false,"rental_uris":{"android":"levelo://app?vid=1ef5534b-26c3-416d-929a-434053efe694","ios":"levelo://app?vid=1ef5534b-26c3-416d-929a-434053efe694"},"vehicle_type_id":"4","last_reported":1686337469,"current_range_meters":26000,"station_id":"ce4bhh92rcd13ifvqfh0","pricing_plan_id":"free"},{"bike_id":"fca59586-d0b5-45ae-af4c-e83c1c9ea780","system_id":"levelo_inurba_marseille","lat":43.27989,"lon":5.41655,"is_reserved":false,"is_disabled":false,"rental_uris":{"android":"levelo://app?vid=fca59586-d0b5-45ae-af4c-e83c1c9ea780","ios":"levelo://app?vid=fca59586-d0b5-45ae-af4c-e83c1c9ea780"},"vehicle_type_id":"4","last_reported":1686337469,"current_range_meters":24000,"station_id":"ce4bho12rcd13ifvqh1g","pricing_plan_id":"free"},{"bike_id":"850ecec4-d555-456f-af8f-e40082e13f5b","system_id":"levelo_inurba_marseille","lat":43.27996,"lon":5.416624,"is_reserved":false,"is_disabled":false,"rental_uris":{"android":"levelo://app?vid=850ecec4-d555-456f-af8f-e40082e13f5b","ios":"levelo://app?vid=850ecec4-d555-456f-af8f-e40082e13f5b"},"vehicle_type_id":"4","last_reported":1686337469,"current_range_meters":10000,"station_id":"ce4bho12rcd13ifvqh1g","pricing_plan_id":"free"},{"bike_id":"693aef29-afbf-4a06-99c9-8dbe3c3feece","system_id":"levelo_inurba_marseille","lat":43.27984,"lon":5.41677,"is_reserved":false,"is_disabled":false,"rental_uris":{"android":"levelo://app?vid=693aef29-afbf-4a06-99c9-8dbe3c3feece","ios":"levelo://app?vid=693aef29-afbf-4a06-99c9-8dbe3c3feece"},"vehicle_type_id":"4","last_reported":1686337469,"current_range_meters":6400,"station_id":"ce4bho12rcd13ifvqh1g","pricing_plan_id":"free"},{"bike_id":"8bf0292f-f2d2-4d34-a713-b8fa2f2cb62d","system_id":"levelo_inurba_marseille","lat":43.27982,"lon":5.41681,"is_reserved":false,"is_disabled":false,"rental_uris":{"android":"levelo://app?vid=8bf0292f-f2d2-4d34-a713-b8fa2f2cb62d","ios":"levelo://app?vid=8bf0292f-f2d2-4d34-a713-b8fa2f2cb62d"},"vehicle_type_id":"4","last_reported":1686337469,"current_range_meters":31200,"station_id":"ce4bho12rcd13ifvqh1g","pricing_plan_id":"free"},{"bike_id":"e953f6d5-e2d2-4d2d-874c-3f10c9f85b89","system_id":"levelo_inurba_marseille","lat":43.27978,"lon":5.41688,"is_reserved":false,"is_disabled":false,"rental_uris":{"android":"levelo://app?vid=e953f6d5-e2d2-4d2d-874c-3f10c9f85b89","ios":"levelo://app?vid=e953f6d5-e2d2-4d2d-874c-3f10c9f85b89"},"vehicle_type_id":"4","last_reported":1686337469,"current_range_meters":2400,"station_id":"ce4bho12rcd13ifvqh1g","pricing_plan_id":"free"},{"bike_id":"05c2d3eb-9cce-470f-a70c-f9875e36b6d4","system_id":"levelo_inurba_marseille","lat":43.30804,"lon":5.43521,"is_reserved":false,"is_disabled":false,"rental_uris":{"android":"levelo://app?vid=05c2d3eb-9cce-470f-a70c-f9875e36b6d4","ios":"levelo://app?vid=05c2d3eb-9cce-470f-a70c-f9875e36b6d4"},"vehicle_type_id":"4","last_reported":1686337469,"current_range_meters":21600,"station_id":"","pricing_plan_id":"free"},{"bike_id":"655bf626-a123-4eac-ac81-ddfda0f31e12","system_id":"levelo_inurba_marseille","lat":43.30797,"lon":5.435278,"is_reserved":false,"is_disabled":false,"rental_uris":{"android":"levelo://app?vid=655bf626-a123-4eac-ac81-ddfda0f31e12","ios":"levelo://app?vid=655bf626-a123-4eac-ac81-ddfda0f31e12"},"vehicle_type_id":"4","last_reported":1686337469,"current_range_meters":6400,"station_id":"","pricing_plan_id":"free"},{"bike_id":"c56886e7-1c07-4e4e-8d95-1bfcba15fecf","system_id":"levelo_inurba_marseille","lat":43.30799,"lon":5.4353,"is_reserved":false,"is_disabled":false,"rental_uris":{"android":"levelo://app?vid=c56886e7-1c07-4e4e-8d95-1bfcba15fecf","ios":"levelo://app?vid=c56886e7-1c07-4e4e-8d95-1bfcba15fecf"},"vehicle_type_id":"4","last_reported":1686337469,"current_range_meters":0,"station_id":"","pricing_plan_id":"free"},{"bike_id":"6fa328aa-c69a-454f-b296-9345f0075f86","system_id":"levelo_inurba_marseille","lat":43.26563,"lon":5.39016,"is_reserved":false,"is_disabled":false,"rental_uris":{"android":"levelo://app?vid=6fa328aa-c69a-454f-b296-9345f0075f86","ios":"levelo://app?vid=6fa328aa-c69a-454f-b296-9345f0075f86"},"vehicle_type_id":"4","last_reported":1686337469,"current_range_meters":2400,"station_id":"ce4bhe12rcd13ifvqf30","pricing_plan_id":"free"},{"bike_id":"b0f82b0d-4254-4710-af92-1b2e9f397767","system_id":"levelo_inurba_marseille","lat":43.26234,"lon":5.37046,"is_reserved":false,"is_disabled":false,"rental_uris":{"android":"levelo://app?vid=b0f82b0d-4254-4710-af92-1b2e9f397767","ios":"levelo://app?vid=b0f82b0d-4254-4710-af92-1b2e9f397767"},"vehicle_type_id":"4","last_reported":1686337469,"current_range_meters":19600,"station_id":"","pricing_plan_id":"free"},{"bike_id":"5012d532-9890-4aa3-a032-26205495d89c","system_id":"levelo_inurba_marseille","lat":43.26184,"lon":5.37443,"is_reserved":false,"is_disabled":false,"rental_uris":{"android":"levelo://app?vid=5012d532-9890-4aa3-a032-26205495d89c","ios":"levelo://app?vid=5012d532-9890-4aa3-a032-26205495d89c"},"vehicle_type_id":"4","last_reported":1686337469,"current_range_meters":28000,"station_id":"ce4bhgp2rcd13ifvqfc0","pricing_plan_id":"free"},{"bike_id":"2c9dcd33-6ced-4cfa-b37a-4f7dffac9d30","system_id":"levelo_inurba_marseille","lat":43.31715,"lon":5.43705,"is_reserved":false,"is_disabled":false,"rental_uris":{"android":"levelo://app?vid=2c9dcd33-6ced-4cfa-b37a-4f7dffac9d30","ios":"levelo://app?vid=2c9dcd33-6ced-4cfa-b37a-4f7dffac9d30"},"vehicle_type_id":"4","last_reported":1686337469,"current_range_meters":6800,"station_id":"ce4bhp92rcd13ifvqhcg","pricing_plan_id":"free"},{"bike_id":"82075856-20a0-4cbf-8f0e-505e74a7dd87","system_id":"levelo_inurba_marseille","lat":43.26201,"lon":5.37921,"is_reserved":false,"is_disabled":false,"rental_uris":{"android":"levelo://app?vid=82075856-20a0-4cbf-8f0e-505e74a7dd87","ios":"levelo://app?vid=82075856-20a0-4cbf-8f0e-505e74a7dd87"},"vehicle_type_id":"4","last_reported":1686337469,"current_range_meters":26400,"station_id":"ce4bhjp2rcd13ifvqg90","pricing_plan_id":"free"},{"bike_id":"6e00c283-2ccc-4be3-b592-16fd2b9a3378","system_id":"levelo_inurba_marseille","lat":43.271368,"lon":5.40928,"is_reserved":false,"is_disabled":false,"rental_uris":{"android":"levelo://app?vid=6e00c283-2ccc-4be3-b592-16fd2b9a3378","ios":"levelo://app?vid=6e00c283-2ccc-4be3-b592-16fd2b9a3378"},"vehicle_type_id":"4","last_reported":1686337469,"current_range_meters":31600,"station_id":"ce4bhl12rcd13ifvqgf0","pricing_plan_id":"free"},{"bike_id":"471c41a0-63fa-498e-9337-7974069e5358","system_id":"levelo_inurba_marseille","lat":43.271368,"lon":5.40928,"is_reserved":false,"is_disabled":false,"rental_uris":{"android":"levelo://app?vid=471c41a0-63fa-498e-9337-7974069e5358","ios":"levelo://app?vid=471c41a0-63fa-498e-9337-7974069e5358"},"vehicle_type_id":"4","last_reported":1686337469,"current_range_meters":31600,"station_id":"ce4bhl12rcd13ifvqgf0","pricing_plan_id":"free"},{"bike_id":"0042a6c6-d535-4bf1-bf8b-4b77fa5b69b0","system_id":"levelo_inurba_marseille","lat":43.271368,"lon":5.40928,"is_reserved":false,"is_disabled":false,"rental_uris":{"android":"levelo://app?vid=0042a6c6-d535-4bf1-bf8b-4b77fa5b69b0","ios":"levelo://app?vid=0042a6c6-d535-4bf1-bf8b-4b77fa5b69b0"},"vehicle_type_id":"4","last_reported":1686337469,"current_range_meters":30400,"station_id":"ce4bhl12rcd13ifvqgf0","pricing_plan_id":"free"},{"bike_id":"a4ba3521-c1f6-4db5-9d06-53ff40682113","system_id":"levelo_inurba_marseille","lat":43.27171,"lon":5.40984,"is_reserved":false,"is_disabled":false,"rental_uris":{"android":"levelo://app?vid=a4ba3521-c1f6-4db5-9d06-53ff40682113","ios":"levelo://app?vid=a4ba3521-c1f6-4db5-9d06-53ff40682113"},"vehicle_type_id":"4","last_reported":1686337469,"current_range_meters":30800,"station_id":"","pricing_plan_id":"free"},{"bike_id":"71e64fa4-2d0d-4426-b80f-e3c1cdcdc86b","system_id":"levelo_inurba_marseille","lat":43.271368,"lon":5.40928,"is_reserved":false,"is_disabled":false,"rental_uris":{"android":"levelo://app?vid=71e64fa4-2d0d-4426-b80f-e3c1cdcdc86b","ios":"levelo://app?vid=71e64fa4-2d0d-4426-b80f-e3c1cdcdc86b"},"vehicle_type_id":"4","last_reported":1686337469,"current_range_meters":22000,"station_id":"ce4bhl12rcd13ifvqgf0","pricing_plan_id":"free"},{"bike_id":"75f934fa-3b52-494d-ae6a-173bcd0c3992","system_id":"levelo_inurba_marseille","lat":43.26102,"lon":5.37525,"is_reserved":false,"is_disabled":false,"rental_uris":{"android":"levelo://app?vid=75f934fa-3b52-494d-ae6a-173bcd0c3992","ios":"levelo://app?vid=75f934fa-3b52-494d-ae6a-173bcd0c3992"},"vehicle_type_id":"4","last_reported":1686337469,"current_range_meters":21200,"station_id":"","pricing_plan_id":"free"},{"bike_id":"c04608c0-fc84-4f4b-afbd-3829a1715daa","system_id":"levelo_inurba_marseille","lat":43.298768,"lon":5.43643,"is_reserved":false,"is_disabled":false,"rental_uris":{"android":"levelo://app?vid=c04608c0-fc84-4f4b-afbd-3829a1715daa","ios":"levelo://app?vid=c04608c0-fc84-4f4b-afbd-3829a1715daa"},"vehicle_type_id":"4","last_reported":1686337469,"current_range_meters":24400,"station_id":"ce4bhpp2rcd13ifvqhfg","pricing_plan_id":"free"},{"bike_id":"0abd466f-ae7a-4789-a218-e3b2c168a2b3","system_id":"levelo_inurba_marseille","lat":43.25961,"lon":5.3755,"is_reserved":false,"is_disabled":false,"rental_uris":{"android":"levelo://app?vid=0abd466f-ae7a-4789-a218-e3b2c168a2b3","ios":"levelo://app?vid=0abd466f-ae7a-4789-a218-e3b2c168a2b3"},"vehicle_type_id":"4","last_reported":1686337469,"current_range_meters":5200,"station_id":"","pricing_plan_id":"free"},{"bike_id":"ff039fde-6b19-431f-8cfd-93995238e238","system_id":"levelo_inurba_marseille","lat":43.26216,"lon":5.39173,"is_reserved":false,"is_disabled":false,"rental_uris":{"android":"levelo://app?vid=ff039fde-6b19-431f-8cfd-93995238e238","ios":"levelo://app?vid=ff039fde-6b19-431f-8cfd-93995238e238"},"vehicle_type_id":"4","last_reported":1686337469,"current_range_meters":6800,"station_id":"","pricing_plan_id":"free"},{"bike_id":"d166e575-4fba-4be7-a777-a4e96e113335","system_id":"levelo_inurba_marseille","lat":43.26102,"lon":5.38751,"is_reserved":false,"is_disabled":false,"rental_uris":{"android":"levelo://app?vid=d166e575-4fba-4be7-a777-a4e96e113335","ios":"levelo://app?vid=d166e575-4fba-4be7-a777-a4e96e113335"},"vehicle_type_id":"4","last_reported":1686337469,"current_range_meters":12400,"station_id":"","pricing_plan_id":"free"},{"bike_id":"a183a5ef-8450-4f24-88bc-0c4cf3b7b587","system_id":"levelo_inurba_marseille","lat":43.26058,"lon":5.394,"is_reserved":false,"is_disabled":false,"rental_uris":{"android":"levelo://app?vid=a183a5ef-8450-4f24-88bc-0c4cf3b7b587","ios":"levelo://app?vid=a183a5ef-8450-4f24-88bc-0c4cf3b7b587"},"vehicle_type_id":"4","last_reported":1686337469,"current_range_meters":17600,"station_id":"ce4bhh92rcd13ifvqfj0","pricing_plan_id":"free"},{"bike_id":"1d34637b-a82a-4638-876a-d2fee8476a35","system_id":"levelo_inurba_marseille","lat":43.309076,"lon":5.368465,"is_reserved":false,"is_disabled":false,"rental_uris":{"android":"levelo://app?vid=1d34637b-a82a-4638-876a-d2fee8476a35","ios":"levelo://app?vid=1d34637b-a82a-4638-876a-d2fee8476a35"},"vehicle_type_id":"4","last_reported":1686337469,"current_range_meters":4000,"station_id":"ce4bgn92rcd13ifvqbvg","pricing_plan_id":"free"},{"bike_id":"f2ff348f-3903-4181-bec2-39646fb54bb9","system_id":"levelo_inurba_marseille","lat":43.260909,"lon":5.397591,"is_reserved":false,"is_disabled":false,"rental_uris":{"android":"levelo://app?vid=f2ff348f-3903-4181-bec2-39646fb54bb9","ios":"levelo://app?vid=f2ff348f-3903-4181-bec2-39646fb54bb9"},"vehicle_type_id":"4","last_reported":1686337469,"current_range_meters":20000,"station_id":"ce4bhi12rcd13ifvqfq0","pricing_plan_id":"free"},{"bike_id":"c142518b-d20d-4590-9855-2703036eb01e","system_id":"levelo_inurba_marseille","lat":43.255756,"lon":5.382303,"is_reserved":false,"is_disabled":false,"rental_uris":{"android":"levelo://app?vid=c142518b-d20d-4590-9855-2703036eb01e","ios":"levelo://app?vid=c142518b-d20d-4590-9855-2703036eb01e"},"vehicle_type_id":"4","last_reported":1686337469,"current_range_meters":8800,"station_id":"ce4bhih2rcd13ifvqfs0","pricing_plan_id":"free"},{"bike_id":"b4dd1d36-8957-48b6-8ea1-7be4d5cd7c12","system_id":"levelo_inurba_marseille","lat":43.255756,"lon":5.382303,"is_reserved":false,"is_disabled":false,"rental_uris":{"android":"levelo://app?vid=b4dd1d36-8957-48b6-8ea1-7be4d5cd7c12","ios":"levelo://app?vid=b4dd1d36-8957-48b6-8ea1-7be4d5cd7c12"},"vehicle_type_id":"4","last_reported":1686337469,"current_range_meters":31200,"station_id":"ce4bhih2rcd13ifvqfs0","pricing_plan_id":"free"},{"bike_id":"a781a343-b241-4f95-ab3c-8b2df648c6cb","system_id":"levelo_inurba_marseille","lat":43.33312,"lon":5.44167,"is_reserved":false,"is_disabled":false,"rental_uris":{"android":"levelo://app?vid=a781a343-b241-4f95-ab3c-8b2df648c6cb","ios":"levelo://app?vid=a781a343-b241-4f95-ab3c-8b2df648c6cb"},"vehicle_type_id":"4","last_reported":1686337469,"current_range_meters":8800,"station_id":"","pricing_plan_id":"free"},{"bike_id":"82d862d4-2e04-4036-84aa-f3937a789ab9","system_id":"levelo_inurba_marseille","lat":43.254947,"lon":5.376454,"is_reserved":false,"is_disabled":false,"rental_uris":{"android":"levelo://app?vid=82d862d4-2e04-4036-84aa-f3937a789ab9","ios":"levelo://app?vid=82d862d4-2e04-4036-84aa-f3937a789ab9"},"vehicle_type_id":"4","last_reported":1686337469,"current_range_meters":26400,"station_id":"ce4bhh12rcd13ifvqff0","pricing_plan_id":"free"},{"bike_id":"12a5d4bd-4484-4542-99cf-f713ac69b3c1","system_id":"levelo_inurba_marseille","lat":43.270721,"lon":5.422764,"is_reserved":false,"is_disabled":false,"rental_uris":{"android":"levelo://app?vid=12a5d4bd-4484-4542-99cf-f713ac69b3c1","ios":"levelo://app?vid=12a5d4bd-4484-4542-99cf-f713ac69b3c1"},"vehicle_type_id":"4","last_reported":1686337469,"current_range_meters":9600,"station_id":"ce4bhk92rcd13ifvqgb0","pricing_plan_id":"free"},{"bike_id":"614bc1c9-f8b2-4edd-a2b0-1382586e6229","system_id":"levelo_inurba_marseille","lat":43.270721,"lon":5.422764,"is_reserved":false,"is_disabled":false,"rental_uris":{"android":"levelo://app?vid=614bc1c9-f8b2-4edd-a2b0-1382586e6229","ios":"levelo://app?vid=614bc1c9-f8b2-4edd-a2b0-1382586e6229"},"vehicle_type_id":"4","last_reported":1686337469,"current_range_meters":4400,"station_id":"ce4bhk92rcd13ifvqgb0","pricing_plan_id":"free"},