{"last_updated":1768666314,"ttl":60,"version":"2.2","data":{"bikes":[{"bike_id":"6c799928-5678-4860-b373-45c9c864dbd1","system_id":"levelo_inurba_marseille","lat":43.259476,"lon":5.408756,"is_reserved":false,"is_disabled":false,"rental_uris":{"android":"levelo://app?vid=6c799928-5678-4860-b373-45c9c864dbd1","ios":"levelo://app?vid=6c799928-5678-4860-b373-45c9c864dbd1"},"vehicle_type_id":"4","last_reported":1768666315,"current_range_meters":2800,"station_id":"","pricing_plan_id":"cebpf4jnsgd1na2vs0mg"},{"bike_id":"bce7016a-598e-4954-b898-4fea8863ec74","system_id":"levelo_inurba_marseille","lat":43.2949,"lon":5.37388,"is_reserved":false,"is_disabled":false,"rental_uris":{"android":"levelo://app?vid=bce7016a-598e-4954-b898-4fea8863ec74","ios":"levelo://app?vid=bce7016a-598e-4954-b898-4fea8863ec74"},"vehicle_type_id":"4","last_reported":1768666315,"current_range_meters":2800,"station_id":"","pricing_plan_id":"cebpf4jnsgd1na2vs0mg"},{"bike_id":"aeabdd3d-d468-427d-9b96-f8ea9ce00240","system_id":"levelo_inurba_marseille","lat":43.28969,"lon":5.3785,"is_reserved":false,"is_disabled":false,"rental_uris":{"android":"levelo://app?vid=aeabdd3d-d468-427d-9b96-f8ea9ce00240","ios":"levelo://app?vid=aeabdd3d-d468-427d-9b96-f8ea9ce00240"},"vehicle_type_id":"4","last_reported":1768666315,"current_range_meters":2800,"station_id":"ce4bh9p2rcd13ifvqed0","pricing_plan_id":"cebpf4jnsgd1na2vs0mg"},{"bike_id":"01da237b-a914-4a81-b422-77384677ffda","system_id":"levelo_inurba_marseille","lat":43.27187,"lon":5.40943,"is_reserved":false,"is_disabled":false,"rental_uris":{"android":"levelo://app?vid=01da237b-a914-4a81-b422-77384677ffda","ios":"levelo://app?vid=01da237b-a914-4a81-b422-77384677ffda"},"vehicle_type_id":"4","last_reported":1768666315,"current_range_meters":2800,"station_id":"ce4bhl12rcd13ifvqgf0","pricing_plan_id":"cebpf4jnsgd1na2vs0mg"},{"bike_id":"207b5515-35eb-4d63-85c9-160faec91b3c","system_id":"levelo_inurba_marseille","lat":43.29572,"lon":5.3998,"is_reserved":false,"is_disabled":false,"rental_uris":{"android":"levelo://app?vid=207b5515-35eb-4d63-85c9-160faec91b3c","ios":"levelo://app?vid=207b5515-35eb-4d63-85c9-160faec91b3c"},"vehicle_type_id":"4","last_reported":1768666315,"current_range_meters":2800,"station_id":"ce4bh312rcd13ifvqdj0","pricing_plan_id":"cebpf4jnsgd1na2vs0mg"},{"bike_id":"867fd4de-d203-4c7c-9844-b2ea52c3d0ef","system_id":"levelo_inurba_marseille","lat":43.2515,"lon":5.39514,"is_reserved":false,"is_disabled":false,"rental_uris":{"android":"levelo://app?vid=867fd4de-d203-4c7c-9844-b2ea52c3d0ef","ios":"levelo://app?vid=867fd4de-d203-4c7c-9844-b2ea52c3d0ef"},"vehicle_type_id":"4","last_reported":1768666315,"current_range_meters":2800,"station_id":"","pricing_plan_id":"cebpf4jnsgd1na2vs0mg"},{"bike_id":"a1ce7ca3-56c7-402e-a0a5-8c554fdda857","system_id":"levelo_inurba_marseille","lat":43.29839,"lon":5.37585,"is_reserved":false,"is_disabled":false,"rental_uris":{"android":"levelo://app?vid=a1ce7ca3-56c7-402e-a0a5-8c554fdda857","ios":"levelo://app?vid=a1ce7ca3-56c7-402e-a0a5-8c554fdda857"},"vehicle_type_id":"4","last_reported":1768666315,"current_range_meters":2800,"station_id":"","pricing_plan_id":"cebpf4jnsgd1na2vs0mg"},{"bike_id":"518794d4-3db0-4df2-a7d8-4054c0646750","system_id":"levelo_inurba_marseille","lat":43.28281,"lon":5.3509,"is_reserved":false,"is_disabled":false,"rental_uris":{"android":"levelo://app?vid=518794d4-3db0-4df2-a7d8-4054c0646750","ios":"levelo://app?vid=518794d4-3db0-4df2-a7d8-4054c0646750"},"vehicle_type_id":"4","last_reported":1768666315,"current_range_meters":2800,"station_id":"ce4bhbp2rcd13ifvqerg","pricing_plan_id":"cebpf4jnsgd1na2vs0mg"},{"bike_id":"c213175e-76cb-4571-b781-3891be5ded63","system_id":"levelo_inurba_marseille","lat":43.2378,"lon":5.36595,"is_reserved":false,"is_disabled":false,"rental_uris":{"android":"levelo://app?vid=c213175e-76cb-4571-b781-3891be5ded63","ios":"levelo://app?vid=c213175e-76cb-4571-b781-3891be5ded63"},"vehicle_type_id":"4","last_reported":1768666315,"current_range_meters":2800,"station_id":"st_d3nk18o9ro0c73en2l3g","pricing_plan_id":"cebpf4jnsgd1na2vs0mg"},{"bike_id":"b62e2e4f-8d17-40db-9aeb-d34b261b865e","system_id":"levelo_inurba_marseille","lat":43.23189,"lon":5.35555,"is_reserved":false,"is_disabled":false,"rental_uris":{"android":"levelo://app?vid=b62e2e4f-8d17-40db-9aeb-d34b261b865e","ios":"levelo://app?vid=b62e2e4f-8d17-40db-9aeb-d34b261b865e"},"vehicle_type_id":"4","last_reported":1768666315,"current_range_meters":3200,"station_id":"ce4bhu92rcd13ifvqi70","pricing_plan_id":"cebpf4jnsgd1na2vs0mg"},{"bike_id":"0105de79-43a8-4de9-af65-6d3d110a6400","system_id":"levelo_inurba_marseille","lat":43.241749,"lon":5.397287,"is_reserved":false,"is_disabled":false,"rental_uris":{"android":"levelo://app?vid=0105de79-43a8-4de9-af65-6d3d110a6400","ios":"levelo://app?vid=0105de79-43a8-4de9-af65-6d3d110a6400"},"vehicle_type_id":"4","last_reported":1768666315,"current_range_meters":3200,"station_id":"ce4bhn12rcd13ifvqgpg","pricing_plan_id":"cebpf4jnsgd1na2vs0mg"},{"bike_id":"d0d1d698-a748-4849-a68c-b2045ed71aae","system_id":"levelo_inurba_marseille","lat":43.25125,"lon":5.4033,"is_reserved":false,"is_disabled":false,"rental_uris":{"android":"levelo://app?vid=d0d1d698-a748-4849-a68c-b2045ed71aae","ios":"levelo://app?vid=d0d1d698-a748-4849-a68c-b2045ed71aae"},"vehicle_type_id":"4","last_reported":1768666315,"current_range_meters":3200,"station_id":"ce4bhlh2rcd13ifvqgig","pricing_plan_id":"cebpf4jnsgd1na2vs0mg"},{"bike_id":"e67306f2-91be-4bbd-b4f1-9cc45e01c0f5","system_id":"levelo_inurba_marseille","lat":43.32361,"lon":5.36756,"is_reserved":false,"is_disabled":false,"rental_uris":{"android":"levelo://app?vid=e67306f2-91be-4bbd-b4f1-9cc45e01c0f5","ios":"levelo://app?vid=e67306f2-91be-4bbd-b4f1-9cc45e01c0f5"},"vehicle_type_id":"4","last_reported":1768666315,"current_range_meters":3200,"station_id":"ce4bhsh2rcd13ifvqi2g","pricing_plan_id":"cebpf4jnsgd1na2vs0mg"},{"bike_id":"744e766d-6cf3-40d3-9efc-3dc33d883636","system_id":"levelo_inurba_marseille","lat":43.25585,"lon":5.38231,"is_reserved":false,"is_disabled":false,"rental_uris":{"android":"levelo://app?vid=744e766d-6cf3-40d3-9efc-3dc33d883636","ios":"levelo://app?vid=744e766d-6cf3-40d3-9efc-3dc33d883636"},"vehicle_type_id":"4","last_reported":1768666315,"current_range_meters":3200,"station_id":"ce4bhih2rcd13ifvqfs0","pricing_plan_id":"cebpf4jnsgd1na2vs0mg"},{"bike_id":"0c8e6400-5132-4fc8-bc0c-deb5c809d02f","system_id":"levelo_inurba_marseille","lat":43.225517,"lon":5.416265,"is_reserved":false,"is_disabled":false,"rental_uris":{"android":"levelo://app?vid=0c8e6400-5132-4fc8-bc0c-deb5c809d02f","ios":"levelo://app?vid=0c8e6400-5132-4fc8-bc0c-deb5c809d02f"},"vehicle_type_id":"4","last_reported":1768666315,"current_range_meters":3200,"station_id":"st_d2o4gvlbi1j2169b742g","pricing_plan_id":"cebpf4jnsgd1na2vs0mg"},{"bike_id":"c93295d4-3196-445e-9eef-17e591656b20","system_id":"levelo_inurba_marseille","lat":43.27801,"lon":5.40701,"is_reserved":false,"is_disabled":false,"rental_uris":{"android":"levelo://app?vid=c93295d4-3196-445e-9eef-17e591656b20","ios":"levelo://app?vid=c93295d4-3196-445e-9eef-17e591656b20"},"vehicle_type_id":"4","last_reported":1768666315,"current_range_meters":3200,"station_id":"ce4bhnh2rcd13ifvqgtg","pricing_plan_id":"cebpf4jnsgd1na2vs0mg"},{"bike_id":"1d62d340-4bc5-43ff-b71d-77a560282cf5","system_id":"levelo_inurba_marseille","lat":43.29186,"lon":5.37152,"is_reserved":false,"is_disabled":false,"rental_uris":{"android":"levelo://app?vid=1d62d340-4bc5-43ff-b71d-77a560282cf5","ios":"levelo://app?vid=1d62d340-4bc5-43ff-b71d-77a560282cf5"},"vehicle_type_id":"4","last_reported":1768666315,"current_range_meters":3600,"station_id":"ce4bha92rcd13ifvqeh0","pricing_plan_id":"cebpf4jnsgd1na2vs0mg"},{"bike_id":"d33c4686-5198-484f-838c-ba899c30f6f6","system_id":"levelo_inurba_marseille","lat":43.27848,"lon":5.40688,"is_reserved":false,"is_disabled":false,"rental_uris":{"android":"levelo://app?vid=d33c4686-5198-484f-838c-ba899c30f6f6","ios":"levelo://app?vid=d33c4686-5198-484f-838c-ba899c30f6f6"},"vehicle_type_id":"4","last_reported":1768666315,"current_range_meters":3600,"station_id":"ce4bhnh2rcd13ifvqgtg","pricing_plan_id":"cebpf4jnsgd1na2vs0mg"},{"bike_id":"16638cac-8704-4fd9-8eb0-e1cc23016459","system_id":"levelo_inurba_marseille","lat":43.27071,"lon":5.42282,"is_reserved":false,"is_disabled":false,"rental_uris":{"android":"levelo://app?vid=16638cac-8704-4fd9-8eb0-e1cc23016459","ios":"levelo://app?vid=16638cac-8704-4fd9-8eb0-e1cc23016459"},"vehicle_type_id":"4","last_reported":1768666315,"current_range_meters":3600,"station_id":"ce4bhk92rcd13ifvqgb0","pricing_plan_id":"cebpf4jnsgd1na2vs0mg"},{"bike_id":"7bf645d4-598a-49a6-9e76-cf9acf0ff953","system_id":"levelo_inurba_marseille","lat":43.31479,"lon":5.37306,"is_reserved":false,"is_disabled":false,"rental_uris":{"android":"levelo://app?vid=7bf645d4-598a-49a6-9e76-cf9acf0ff953","ios":"levelo://app?vid=7bf645d4-598a-49a6-9e76-cf9acf0ff953"},"vehicle_type_id":"4","last_reported":1768666315,"current_range_meters":3600,"station_id":"ce4bgt12rcd13ifvqcd0","pricing_plan_id":"cebpf4jnsgd1na2vs0mg"},{"bike_id":"c5b263d0-4a5a-4a28-bca9-83b543d6c239","system_id":"levelo_inurba_marseille","lat":43.3361,"lon":5.41042,"is_reserved":false,"is_disabled":false,"rental_uris":{"android":"levelo://app?vid=c5b263d0-4a5a-4a28-bca9-83b543d6c239","ios":"levelo://app?vid=c5b263d0-4a5a-4a28-bca9-83b543d6c239"},"vehicle_type_id":"4","last_reported":1768666315,"current_range_meters":3600,"station_id":"ce4bhqh2rcd13ifvqhmg","pricing_plan_id":"cebpf4jnsgd1na2vs0mg"},{"bike_id":"4c330636-b4ee-4a81-8afe-c3deb704dc18","system_id":"levelo_inurba_marseille","lat":43.23971,"lon":5.36622,"is_reserved":false,"is_disabled":false,"rental_uris":{"android":"levelo://app?vid=4c330636-b4ee-4a81-8afe-c3deb704dc18","ios":"levelo://app?vid=4c330636-b4ee-4a81-8afe-c3deb704dc18"},"vehicle_type_id":"4","last_reported":1768666315,"current_range_meters":3600,"station_id":"ce4bhi12rcd13ifvqfp0","pricing_plan_id":"cebpf4jnsgd1na2vs0mg"},{"bike_id":"b45e3786-f240-418c-8d2f-00029fe91c40","system_id":"levelo_inurba_marseille","lat":43.28458,"lon":5.38788,"is_reserved":false,"is_disabled":false,"rental_uris":{"android":"levelo://app?vid=b45e3786-f240-418c-8d2f-00029fe91c40","ios":"levelo://app?vid=b45e3786-f240-418c-8d2f-00029fe91c40"},"vehicle_type_id":"4","last_reported":1768666315,"current_range_meters":3600,"station_id":"","pricing_plan_id":"cebpf4jnsgd1na2vs0mg"},{"bike_id":"421cacd8-e947-4afd-a144-abf07645a343","system_id":"levelo_inurba_marseille","lat":43.337444,"lon":5.374475,"is_reserved":false,"is_disabled":false,"rental_uris":{"android":"levelo://app?vid=421cacd8-e947-4afd-a144-abf07645a343","ios":"levelo://app?vid=421cacd8-e947-4afd-a144-abf07645a343"},"vehicle_type_id":"4","last_reported":1768666315,"current_range_meters":4000,"station_id":"","pricing_plan_id":"cebpf4jnsgd1na2vs0mg"},{"bike_id":"a2063c8d-f51c-4170-b956-f1a16f6c2585","system_id":"levelo_inurba_marseille","lat":43.24992,"lon":5.389483,"is_reserved":false,"is_disabled":false,"rental_uris":{"android":"levelo://app?vid=a2063c8d-f51c-4170-b956-f1a16f6c2585","ios":"levelo://app?vid=a2063c8d-f51c-4170-b956-f1a16f6c2585"},"vehicle_type_id":"4","last_reported":1768666315,"current_range_meters":4000,"station_id":"ce4bhgp2rcd13ifvqfd0","pricing_plan_id":"cebpf4jnsgd1na2vs0mg"},{"bike_id":"ba9bdd60-8783-488b-8cfb-fc8487a21be8","system_id":"levelo_inurba_marseille","lat":43.23782,"lon":5.3659,"is_reserved":false,"is_disabled":false,"rental_uris":{"android":"levelo://app?vid=ba9bdd60-8783-488b-8cfb-fc8487a21be8","ios":"levelo://app?vid=ba9bdd60-8783-488b-8cfb-fc8487a21be8"},"vehicle_type_id":"4","last_reported":1768666315,"current_range_meters":4000,"station_id":"st_d3nk18o9ro0c73en2l3g","pricing_plan_id":"cebpf4jnsgd1na2vs0mg"},{"bike_id":"fa772604-5343-4874-a9f9-6fae0b9aaa0e","system_id":"levelo_inurba_marseille","lat":43.24583,"lon":5.39946,"is_reserved":false,"is_disabled":false,"rental_uris":{"android":"levelo://app?vid=fa772604-5343-4874-a9f9-6fae0b9aaa0e","ios":"levelo://app?vid=fa772604-5343-4874-a9f9-6fae0b9aaa0e"},"vehicle_type_id":"4","last_reported":1768666315,"current_range_meters":4000,"station_id":"","pricing_plan_id":"cebpf4jnsgd1na2vs0mg"},{"bike_id":"2d5dd310-71b3-4045-bb8d-eab9f4179d84","system_id":"levelo_inurba_marseille","lat":43.28855,"lon":5.35847,"is_reserved":false,"is_disabled":false,"rental_uris":{"android":"levelo://app?vid=2d5dd310-71b3-4045-bb8d-eab9f4179d84","ios":"levelo://app?vid=2d5dd310-71b3-4045-bb8d-eab9f4179d84"},"vehicle_type_id":"4","last_reported":1768666315,"current_range_meters":4000,"station_id":"ce4bhb12rcd13ifvqem0","pricing_plan_id":"cebpf4jnsgd1na2vs0mg"},{"bike_id":"94517a82-5de4-4de0-9b1a-410b8cc8733b","system_id":"levelo_inurba_marseille","lat":43.26576,"lon":5.39034,"is_reserved":false,"is_disabled":false,"rental_uris":{"android":"levelo://app?vid=94517a82-5de4-4de0-9b1a-410b8cc8733b","ios":"levelo://app?vid=94517a82-5de4-4de0-9b1a-410b8cc8733b"},"vehicle_type_id":"4","last_reported":1768666315,"current_range_meters":4000,"station_id":"ce4bhe12rcd13ifvqf30","pricing_plan_id":"cebpf4jnsgd1na2vs0mg"},{"bike_id":"2790cdc7-bca1-42ca-abec-6c9518a9590b","system_id":"levelo_inurba_marseille","lat":43.31286,"lon":5.40118,"is_reserved":false,"is_disabled":false,"rental_uris":{"android":"levelo://app?vid=2790cdc7-bca1-42ca-abec-6c9518a9590b","ios":"levelo://app?vid=2790cdc7-bca1-42ca-abec-6c9518a9590b"},"vehicle_type_id":"4","last_reported":1768666315,"current_range_meters":4000,"station_id":"ce4bh092rcd13ifvqd30","pricing_plan_id":"cebpf4jnsgd1na2vs0mg"},{"bike_id":"3b3b81ef-94e2-42e9-99e5-1204cf977676","system_id":"levelo_inurba_marseille","lat":43.24471,"lon":5.42551,"is_reserved":false,"is_disabled":false,"rental_uris":{"android":"levelo://app?vid=3b3b81ef-94e2-42e9-99e5-1204cf977676","ios":"levelo://app?vid=3b3b81ef-94e2-42e9-99e5-1204cf977676"},"vehicle_type_id":"4","last_reported":1768666315,"current_range_meters":4400,"station_id":"st_d4a3vfp97mjs738cd8kg","pricing_plan_id":"cebpf4jnsgd1na2vs0mg"},{"bike_id":"b4934a75-3915-4745-b5e8-737580184f4e","system_id":"levelo_inurba_marseille","lat":43.30131,"lon":5.37421,"is_reserved":false,"is_disabled":false,"rental_uris":{"android":"levelo://app?vid=b4934a75-3915-4745-b5e8-737580184f4e","ios":"levelo://app?vid=b4934a75-3915-4745-b5e8-737580184f4e"},"vehicle_type_id":"4","last_reported":1768666315,"current_range_meters":4400,"station_id":"ce4bgs92rcd13ifvqcc0","pricing_plan_id":"cebpf4jnsgd1na2vs0mg"},{"bike_id":"74fcd7d3-9f7b-4290-bead-f1a65f4d8b6e","system_id":"levelo_inurba_marseille","lat":43.26558,"lon":5.40324,"is_reserved":false,"is_disabled":false,"rental_uris":{"android":"levelo://app?vid=74fcd7d3-9f7b-4290-bead-f1a65f4d8b6e","ios":"levelo://app?vid=74fcd7d3-9f7b-4290-bead-f1a65f4d8b6e"},"vehicle_type_id":"4","last_reported":1768666315,"current_range_meters":4400,"station_id":"ce4bhmp2rcd13ifvqgng","pricing_plan_id":"cebpf4jnsgd1na2vs0mg"},{"bike_id":"259e16f3-f42b-4c94-b807-56950596c4de","system_id":"levelo_inurba_marseille","lat":43.27994,"lon":5.41654,"is_reserved":false,"is_disabled":false,"rental_uris":{"android":"levelo://app?vid=259e16f3-f42b-4c94-b807-56950596c4de","ios":"levelo://app?vid=259e16f3-f42b-4c94-b807-56950596c4de"},"vehicle_type_id":"4","last_reported":1768666315,"current_range_meters":4400,"station_id":"ce4bho12rcd13ifvqh1g","pricing_plan_id":"cebpf4jnsgd1na2vs0mg"},{"bike_id":"74738459-f5c8-42b7-a0cf-be65cd3b10ef","system_id":"levelo_inurba_marseille","lat":43.29753,"lon":5.37649,"is_reserved":false,"is_disabled":false,"rental_uris":{"android":"levelo://app?vid=74738459-f5c8-42b7-a0cf-be65cd3b10ef","ios":"levelo://app?vid=74738459-f5c8-42b7-a0cf-be65cd3b10ef"},"vehicle_type_id":"4","last_reported":1768666315,"current_range_meters":4800,"station_id":"ce4bgkh2rcd13ifvqbl0","pricing_plan_id":"cebpf4jnsgd1na2vs0mg"},{"bike_id":"cb322bd5-780f-4976-ac84-7f70ca124770","system_id":"levelo_inurba_marseille","lat":43.24164,"lon":5.3639,"is_reserved":false,"is_disabled":false,"rental_uris":{"android":"levelo://app?vid=cb322bd5-780f-4976-ac84-7f70ca124770","ios":"levelo://app?vid=cb322bd5-780f-4976-ac84-7f70ca124770"},"vehicle_type_id":"4","last_reported":1768666315,"current_range_meters":4800,"station_id":"cpo36qri1sfpv3e86is0","pricing_plan_id":"cebpf4jnsgd1na2vs0mg"},{"bike_id":"3dbff9a3-65f5-40fd-903b-92dcc92f12e5","system_id":"levelo_inurba_marseille","lat":43.28488,"lon":5.38554,"is_reserved":false,"is_disabled":false,"rental_uris":{"android":"levelo://app?vid=3dbff9a3-65f5-40fd-903b-92dcc92f12e5","ios":"levelo://app?vid=3dbff9a3-65f5-40fd-903b-92dcc92f12e5"},"vehicle_type_id":"4","last_reported":1768666315,"current_range_meters":4800,"station_id":"ce4bh8p2rcd13ifvqeb0","pricing_plan_id":"cebpf4jnsgd1na2vs0mg"},{"bike_id":"caadb93f-4999-4bfb-ae90-074389f79e1a","system_id":"levelo_inurba_marseille","lat":43.24396,"lon":5.37065,"is_reserved":false,"is_disabled":false,"rental_uris":{"android":"levelo://app?vid=caadb93f-4999-4bfb-ae90-074389f79e1a","ios":"levelo://app?vid=caadb93f-4999-4bfb-ae90-074389f79e1a"},"vehicle_type_id":"4","last_reported":1768666315,"current_range_meters":4800,"station_id":"ce4bhhh2rcd13ifvqfk0","pricing_plan_id":"cebpf4jnsgd1na2vs0mg"},{"bike_id":"4d4dbef2-787f-4e6c-a9d2-398aa9c2095e","system_id":"levelo_inurba_marseille","lat":43.28535,"lon":5.44099,"is_reserved":false,"is_disabled":false,"rental_uris":{"android":"levelo://app?vid=4d4dbef2-787f-4e6c-a9d2-398aa9c2095e","ios":"levelo://app?vid=4d4dbef2-787f-4e6c-a9d2-398aa9c2095e"},"vehicle_type_id":"4","last_reported":1768666315,"current_range_meters":5600,"station_id":"st_d3j3df2ikq2c7380ej80","pricing_plan_id":"cebpf4jnsgd1na2vs0mg"},{"bike_id":"513ed6c4-8623-44b6-ada8-0b1c7c1ff00d","system_id":"levelo_inurba_marseille","lat":43.29834,"lon":5.37648,"is_reserved":false,"is_disabled":false,"rental_uris":{"android":"levelo://app?vid=513ed6c4-8623-44b6-ada8-0b1c7c1ff00d","ios":"levelo://app?vid=513ed6c4-8623-44b6-ada8-0b1c7c1ff00d"},"vehicle_type_id":"4","last_reported":1768666315,"current_range_meters":5600,"station_id":"","pricing_plan_id":"cebpf4jnsgd1na2vs0mg"},{"bike_id":"d9b3719e-715f-4911-9b10-43a12a517142","system_id":"levelo_inurba_marseille","lat":43.30316,"lon":5.36892,"is_reserved":false,"is_disabled":false,"rental_uris":{"android":"levelo://app?vid=d9b3719e-715f-4911-9b10-43a12a517142","ios":"levelo://app?vid=d9b3719e-715f-4911-9b10-43a12a517142"},"vehicle_type_id":"4","last_reported":1768666315,"current_range_meters":5600,"station_id":"ce4bgqh2rcd13ifvqc5g","pricing_plan_id":"cebpf4jnsgd1na2vs0mg"},{"bike_id":"9bd06173-2df2-4cf8-88f1-c9b0ab68c3a4","system_id":"levelo_inurba_marseille","lat":43.3013,"lon":5.43123,"is_reserved":false,"is_disabled":false,"rental_uris":{"android":"levelo://app?vid=9bd06173-2df2-4cf8-88f1-c9b0ab68c3a4","ios":"levelo://app?vid=9bd06173-2df2-4cf8-88f1-c9b0ab68c3a4"},"vehicle_type_id":"4","last_reported":1768666315,"current_range_meters":5600,"station_id":"st_d3js3co5814s73ftftug","pricing_plan_id":"cebpf4jnsgd1na2vs0mg"},{"bike_id":"ac863133-1003-4992-8ead-e17fcb8c6569","system_id":"levelo_inurba_marseille","lat":43.30326,"lon":5.369023,"is_reserved":false,"is_disabled":false,"rental_uris":{"android":"levelo://app?vid=ac863133-1003-4992-8ead-e17fcb8c6569","ios":"levelo://app?vid=ac863133-1003-4992-8ead-e17fcb8c6569"},"vehicle_type_id":"4","last_reported":1768666315,"current_range_meters":5600,"station_id":"ce4bgqh2rcd13ifvqc5g","pricing_plan_id":"cebpf4jnsgd1na2vs0mg"},{"bike_id":"b69265fb-d1b5-426f-ba4a-3e52351b5ff6","system_id":"levelo_inurba_marseille","lat":43.30454,"lon":5.37917,"is_reserved":false,"is_disabled":false,"rental_uris":{"android":"levelo://app?vid=b69265fb-d1b5-426f-ba4a-3e52351b5ff6","ios":"levelo://app?vid=b69265fb-d1b5-426f-ba4a-3e52351b5ff6"},"vehicle_type_id":"4","last_reported":1768666315,"current_range_meters":5600,"station_id":"ce4bgup2rcd13ifvqcn0","pricing_plan_id":"cebpf4jnsgd1na2vs0mg"},{"bike_id":"bf3c9612-0590-462d-87a5-0987166375b2","system_id":"levelo_inurba_marseille","lat":43.23982,"lon":5.36591,"is_reserved":false,"is_disabled":true,"rental_uris":{"android":"levelo://app?vid=bf3c9612-0590-462d-87a5-0987166375b2","ios":"levelo://app?vid=bf3c9612-0590-462d-87a5-0987166375b2"},"vehicle_type_id":"4","last_reported":1768666315,"current_range_meters":5600,"station_id":"ce4bhi12rcd13ifvqfp0","pricing_plan_id":"cebpf4jnsgd1na2vs0mg"},{"bike_id":"06743496-56ca-4ffb-9554-da7929f3016c","system_id":"levelo_inurba_marseille","lat":43.24466,"lon":5.42534,"is_reserved":false,"is_disabled":false,"rental_uris":{"android":"levelo://app?vid=06743496-56ca-4ffb-9554-da7929f3016c","ios":"levelo://app?vid=06743496-56ca-4ffb-9554-da7929f3016c"},"vehicle_type_id":"4","last_reported":1768666315,"current_range_meters":5600,"station_id":"st_d4a3vfp97mjs738cd8kg","pricing_plan_id":"cebpf4jnsgd1na2vs0mg"},{"bike_id":"374f7257-cfcd-4f34-8a16-ba578db8b7e2","system_id":"levelo_inurba_marseille","lat":43.24458,"lon":5.42508,"is_reserved":false,"is_disabled":false,"rental_uris":{"android":"levelo://app?vid=374f7257-cfcd-4f34-8a16-ba578db8b7e2","ios":"levelo://app?vid=374f7257-cfcd-4f34-8a16-ba578db8b7e2"},"vehicle_type_id":"4","last_reported":1768666315,"current_range_meters":5600,"station_id":"st_d4a3vfp97mjs738cd8kg","pricing_plan_id":"cebpf4jnsgd1na2vs0mg"},{"bike_id":"081dca07-e8a6-423f-95f0-96bcbec61c3d","system_id":"levelo_inurba_marseille","lat":43.252615,"lon":5.380148,"is_reserved":false,"is_disabled":false,"rental_uris":{"android":"levelo://app?vid=081dca07-e8a6-423f-95f0-96bcbec61c3d","ios":"levelo://app?vid=081dca07-e8a6-423f-95f0-96bcbec61c3d"},"vehicle_type_id":"4","last_reported":1768666315,"current_range_meters":5600,"station_id":"","pricing_plan_id":"cebpf4jnsgd1na2vs0mg"},{"bike_id":"387cac01-478d-46a0-9365-934a472f3159","system_id":"levelo_inurba_marseille","lat":43.31983,"lon":5.38155,"is_reserved":false,"is_disabled":false,"rental_uris":{"android":"levelo://app?vid=387cac01-478d-46a0-9365-934a472f3159","ios":"levelo://app?vid=387cac01-478d-46a0-9365-934a472f3159"},"vehicle_type_id":"4","last_reported":1768666315,"current_range_meters":5600,"station_id":"ce4bhr12rcd13ifvqhpg","pricing_plan_id":"cebpf4jnsgd1na2vs0mg"},{"bike_id":"3bb4f388-8d72-48f0-ac2d-95655c4ae4df","system_id":"levelo_inurba_marseille","lat":43.24473,"lon":5.42543,"is_reserved":false,"is_disabled":false,"rental_uris":{"android":"levelo://app?vid=3bb4f388-8d72-48f0-ac2d-95655c4ae4df","ios":"levelo://app?vid=3bb4f388-8d72-48f0-ac2d-95655c4ae4df"},"vehicle_type_id":"4","last_reported":1768666315,"current_range_meters":6000,"station_id":"st_d4a3vfp97mjs738cd8kg","pricing_plan_id":"cebpf4jnsgd1na2vs0mg"},{"bike_id":"d7fec106-a822-40a1-9726-d3dbb83623ce","system_id":"levelo_inurba_marseille","lat":43.29967,"lon":5.38494,"is_reserved":false,"is_disabled":false,"rental_uris":{"android":"levelo://app?vid=d7fec106-a822-40a1-9726-d3dbb83623ce","ios":"levelo://app?vid=d7fec106-a822-40a1-9726-d3dbb83623ce"},"vehicle_type_id":"4","last_reported":1768666315,"current_range_meters":6000,"station_id":"ce4bgj92rcd13ifvqbd0","pricing_plan_id":"cebpf4jnsgd1na2vs0mg"},{"bike_id":"73a3c0b5-f835-4f44-b397-85dfcc3abc54","system_id":"levelo_inurba_marseille","lat":43.29604,"lon":5.36983,"is_reserved":false,"is_disabled":false,"rental_uris":{"android":"levelo://app?vid=73a3c0b5-f835-4f44-b397-85dfcc3abc54","ios":"levelo://app?vid=73a3c0b5-f835-4f44-b397-85dfcc3abc54"},"vehicle_type_id":"4","last_reported":1768666315,"current_range_meters":6000,"station_id":"","pricing_plan_id":"cebpf4jnsgd1na2vs0mg"},{"bike_id":"576a061d-1fb4-476f-a84f-2ef395c324f6","system_id":"levelo_inurba_marseille","lat":43.25519,"lon":5.37642,"is_reserved":false,"is_disabled":false,"rental_uris":{"android":"levelo://app?vid=576a061d-1fb4-476f-a84f-2ef395c324f6","ios":"levelo://app?vid=576a061d-1fb4-476f-a84f-2ef395c324f6"},"vehicle_type_id":"4","last_reported":1768666315,"current_range_meters":6000,"station_id":"ce4bhh12rcd13ifvqff0","pricing_plan_id":"cebpf4jnsgd1na2vs0mg"},{"bike_id":"774b84a0-c703-4237-9f10-64c60f4e53c2","system_id":"levelo_inurba_marseille","lat":43.24948,"lon":5.40497,"is_reserved":false,"is_disabled":false,"rental_uris":{"android":"levelo://app?vid=774b84a0-c703-4237-9f10-64c60f4e53c2","ios":"levelo://app?vid=774b84a0-c703-4237-9f10-64c60f4e53c2"},"vehicle_type_id":"4","last_reported":1768666315,"current_range_meters":6000,"station_id":"st_d2ngiaodas8pm72gd1h0","pricing_plan_id":"cebpf4jnsgd1na2vs0mg"},{"bike_id":"2884a157-ed74-454f-99c1-09a0d4a1cc47","system_id":"levelo_inurba_marseille","lat":43.2721,"lon":5.39176,"is_reserved":false,"is_disabled":false,"rental_uris":{"android":"levelo://app?vid=2884a157-ed74-454f-99c1-09a0d4a1cc47","ios":"levelo://app?vid=2884a157-ed74-454f-99c1-09a0d4a1cc47"},"vehicle_type_id":"4","last_reported":1768666315,"current_range_meters":6400,"station_id":"ce4bhhp2rcd13ifvqfm0","pricing_plan_id":"cebpf4jnsgd1na2vs0mg"},{"bike_id":"8f760374-21f0-4253-84ba-1b13ff2db21a","system_id":"levelo_inurba_marseille","lat":43.28921,"lon":5.36409,"is_reserved":false,"is_disabled":false,"rental_uris":{"android":"levelo://app?vid=8f760374-21f0-4253-84ba-1b13ff2db21a","ios":"levelo://app?vid=8f760374-21f0-4253-84ba-1b13ff2db21a"},"vehicle_type_id":"4","last_reported":1768666315,"current_range_meters":6400,"station_id":"ce4bhc92rcd13ifvqetg","pricing_plan_id":"cebpf4jnsgd1na2vs0mg"},{"bike_id":"0c0b8ba8-547c-4fd0-9d44-2152f5f1b2fc","system_id":"levelo_inurba_marseille","lat":43.31111,"lon":5.37772,"is_reserved":false,"is_disabled":false,"rental_uris":{"android":"levelo://app?vid=0c0b8ba8-547c-4fd0-9d44-2152f5f1b2fc","ios":"levelo://app?vid=0c0b8ba8-547c-4fd0-9d44-2152f5f1b2fc"},"vehicle_type_id":"4","last_reported":1768666315,"current_range_meters":6400,"station_id":"ce4bgt92rcd13ifvqcg0","pricing_plan_id":"cebpf4jnsgd1na2vs0mg"},{"bike_id":"b8fb7601-ace6-43b8-9e6a-578923b35eae","system_id":"levelo_inurba_marseille","lat":43.2927,"lon":5.36853,"is_reserved":false,"is_disabled":false,"rental_uris":{"android":"levelo://app?vid=b8fb7601-ace6-43b8-9e6a-578923b35eae","ios":"levelo://app?vid=b8fb7601-ace6-43b8-9e6a-578923b35eae"},"vehicle_type_id":"4","last_reported":1768666315,"current_range_meters":6400,"station_id":"ce4bhbp2rcd13ifvqesg","pricing_plan_id":"cebpf4jnsgd1na2vs0mg"},{"bike_id":"82b87168-267f-432c-a609-70f7b40ac901","system_id":"levelo_inurba_marseille","lat":43.27726,"lon":5.40776,"is_reserved":false,"is_disabled":false,"rental_uris":{"android":"levelo://app?vid=82b87168-267f-432c-a609-70f7b40ac901","ios":"levelo://app?vid=82b87168-267f-432c-a609-70f7b40ac901"},"vehicle_type_id":"4","last_reported":1768666315,"current_range_meters":6400,"station_id":"","pricing_plan_id":"cebpf4jnsgd1na2vs0mg"},{"bike_id":"d5e35d21-1683-45b4-8efc-60fb9397d5ab","system_id":"levelo_inurba_marseille","lat":43.310552,"lon":5.386423,"is_reserved":false,"is_disabled":false,"rental_uris":{"android":"levelo://app?vid=d5e35d21-1683-45b4-8efc-60fb9397d5ab","ios":"levelo://app?vid=d5e35d21-1683-45b4-8efc-60fb9397d5ab"},"vehicle_type_id":"4","last_reported":1768666315,"current_range_meters":6400,"station_id":"","pricing_plan_id":"cebpf4jnsgd1na2vs0mg"},{"bike_id":"50864526-ae8d-4c3f-9ca3-0d358a720c04","system_id":"levelo_inurba_marseille","lat":43.29585,"lon":5.37512,"is_reserved":false,"is_disabled":false,"rental_uris":{"android":"levelo://app?vid=50864526-ae8d-4c3f-9ca3-0d358a720c04","ios":"levelo://app?vid=50864526-ae8d-4c3f-9ca3-0d358a720c04"},"vehicle_type_id":"4","last_reported":1768666315,"current_range_meters":6400,"station_id":"ce4bgh92rcd13ifvqb50","pricing_plan_id":"cebpf4jnsgd1na2vs0mg"},{"bike_id":"fb2fffbc-7dc0-4e60-8575-8873b6e17203","system_id":"levelo_inurba_marseille","lat":43.272,"lon":5.3919,"is_reserved":false,"is_disabled":false,"rental_uris":{"android":"levelo://app?vid=fb2fffbc-7dc0-4e60-8575-8873b6e17203","ios":"levelo://app?vid=fb2fffbc-7dc0-4e60-8575-8873b6e17203"},"vehicle_type_id":"4","last_reported":1768666315,"current_range_meters":6400,"station_id":"ce4bhhp2rcd13ifvqfm0","pricing_plan_id":"cebpf4jnsgd1na2vs0mg"},{"bike_id":"7aa7b70e-bd64-4087-92d9-febcd20f703f","system_id":"levelo_inurba_marseille","lat":43.29801,"lon":5.38101,"is_reserved":false,"is_disabled":false,"rental_uris":{"android":"levelo://app?vid=7aa7b70e-bd64-4087-92d9-febcd20f703f","ios":"levelo://app?vid=7aa7b70e-bd64-4087-92d9-febcd20f703f"},"vehicle_type_id":"4","last_reported":1768666315,"current_range_meters":6400,"station_id":"ce4bgip2rcd13ifvqbb0","pricing_plan_id":"cebpf4jnsgd1na2vs0mg"},{"bike_id":"40c9616c-92d9-4b6c-a682-eeaa5a3fea06","system_id":"levelo_inurba_marseille","lat":43.24388,"lon":5.37064,"is_reserved":false,"is_disabled":false,"rental_uris":{"android":"levelo://app?vid=40c9616c-92d9-4b6c-a682-eeaa5a3fea06","ios":"levelo://app?vid=40c9616c-92d9-4b6c-a682-eeaa5a3fea06"},"vehicle_type_id":"4","last_reported":1768666315,"current_range_meters":6400,"station_id":"ce4bhhh2rcd13ifvqfk0","pricing_plan_id":"cebpf4jnsgd1na2vs0mg"},{"bike_id":"43a030e0-0f6a-4fec-9711-6a41858e80af","system_id":"levelo_inurba_marseille","lat":43.28993,"lon":5.39016,"is_reserved":false,"is_disabled":false,"rental_uris":{"android":"levelo://app?vid=43a030e0-0f6a-4fec-9711-6a41858e80af","ios":"levelo://app?vid=43a030e0-0f6a-4fec-9711-6a41858e80af"},"vehicle_type_id":"4","last_reported":1768666315,"current_range_meters":6400,"station_id":"","pricing_plan_id":"cebpf4jnsgd1na2vs0mg"},{"bike_id":"b5d67ffe-eaa4-4106-b565-a864660becc6","system_id":"levelo_inurba_marseille","lat":43.23192,"lon":5.35558,"is_reserved":false,"is_disabled":false,"rental_uris":{"android":"levelo://app?vid=b5d67ffe-eaa4-4106-b565-a864660becc6","ios":"levelo://app?vid=b5d67ffe-eaa4-4106-b565-a864660becc6"},"vehicle_type_id":"4","last_reported":1768666315,"current_range_meters":6800,"station_id":"ce4bhu92rcd13ifvqi70","pricing_plan_id":"cebpf4jnsgd1na2vs0mg"},{"bike_id":"12973c53-3c4b-4eeb-9bcf-3e724fe32df6","system_id":"levelo_inurba_marseille","lat":43.28183,"lon":5.40445,"is_reserved":false,"is_disabled":false,"rental_uris":{"android":"levelo://app?vid=12973c53-3c4b-4eeb-9bcf-3e724fe32df6","ios":"levelo://app?vid=12973c53-3c4b-4eeb-9bcf-3e724fe32df6"},"vehicle_type_id":"4","last_reported":1768666315,"current_range_meters":6800,"station_id":"","pricing_plan_id":"cebpf4jnsgd1na2vs0mg"},{"bike_id":"46806932-3cfa-4ebe-af4a-3467d6c21a46","system_id":"levelo_inurba_marseille","lat":43.2783,"lon":5.40693,"is_reserved":false,"is_disabled":false,"rental_uris":{"android":"levelo://app?vid=46806932-3cfa-4ebe-af4a-3467d6c21a46","ios":"levelo://app?vid=46806932-3cfa-4ebe-af4a-3467d6c21a46"},"vehicle_type_id":"4","last_reported":1768666315,"current_range_meters":6800,"station_id":"ce4bhnh2rcd13ifvqgtg","pricing_plan_id":"cebpf4jnsgd1na2vs0mg"},{"bike_id":"ab96d693-0de6-43f1-85b1-d62380e9052b","system_id":"levelo_inurba_marseille","lat":43.279869,"lon":5.399656,"is_reserved":false,"is_disabled":false,"rental_uris":{"android":"levelo://app?vid=ab96d693-0de6-43f1-85b1-d62380e9052b","ios":"levelo://app?vid=ab96d693-0de6-43f1-85b1-d62380e9052b"},"vehicle_type_id":"4","last_reported":1768666315,"current_range_meters":6800,"station_id":"ce4bho92rcd13ifvqh4g","pricing_plan_id":"cebpf4jnsgd1na2vs0mg"},{"bike_id":"0dba0e67-842b-483d-b59d-db38abdb659c","system_id":"levelo_inurba_marseille","lat":43.25874,"lon":5.3989,"is_reserved":false,"is_disabled":false,"rental_uris":{"android":"levelo://app?vid=0dba0e67-842b-483d-b59d-db38abdb659c","ios":"levelo://app?vid=0dba0e67-842b-483d-b59d-db38abdb659c"},"vehicle_type_id":"4","last_reported":1768666315,"current_range_meters":6800,"station_id":"ce4bhl92rcd13ifvqghg","pricing_plan_id":"cebpf4jnsgd1na2vs0mg"},{"bike_id":"afc89dfe-d073-418a-80ae-5c9d03e25273","system_id":"levelo_inurba_marseille","lat":43.29755,"lon":5.427832,"is_reserved":false,"is_disabled":false,"rental_uris":{"android":"levelo://app?vid=afc89dfe-d073-418a-80ae-5c9d03e25273","ios":"levelo://app?vid=afc89dfe-d073-418a-80ae-5c9d03e25273"},"vehicle_type_id":"4","last_reported":1768666315,"current_range_meters":6800,"station_id":"st_d3md5207bmas73dh9klg","pricing_plan_id":"cebpf4jnsgd1na2vs0mg"},{"bike_id":"b99c8a93-fdcf-4884-b9c3-af61ba2c4a81","system_id":"levelo_inurba_marseille","lat":43.303053,"lon":5.392122,"is_reserved":false,"is_disabled":false,"rental_uris":{"android":"levelo://app?vid=b99c8a93-fdcf-4884-b9c3-af61ba2c4a81","ios":"levelo://app?vid=b99c8a93-fdcf-4884-b9c3-af61ba2c4a81"},"vehicle_type_id":"4","last_reported":1768666315,"current_range_meters":6800,"station_id":"ce4bgkh2rcd13ifvqbk0","pricing_plan_id":"cebpf4jnsgd1na2vs0mg"},{"bike_id":"679928a0-9557-4ac3-bf06-e1537b58e506","system_id":"levelo_inurba_marseille","lat":43.29309,"lon":5.37165,"is_reserved":false,"is_disabled":false,"rental_uris":{"android":"levelo://app?vid=679928a0-9557-4ac3-bf06-e1537b58e506","ios":"levelo://app?vid=679928a0-9557-4ac3-bf06-e1537b58e506"},"vehicle_type_id":"4","last_reported":1768666315,"current_range_meters":6800,"station_id":"ce4bgh92rcd13ifvqb40","pricing_plan_id":"cebpf4jnsgd1na2vs0mg"},{"bike_id":"3f283e9d-cfec-473f-a806-f862000a513c","system_id":"levelo_inurba_marseille","lat":43.24405,"lon":5.37017,"is_reserved":false,"is_disabled":false,"rental_uris":{"android":"levelo://app?vid=3f283e9d-cfec-473f-a806-f862000a513c","ios":"levelo://app?vid=3f283e9d-cfec-473f-a806-f862000a513c"},"vehicle_type_id":"4","last_reported":1768666315,"current_range_meters":6800,"station_id":"ce4bhhh2rcd13ifvqfk0","pricing_plan_id":"cebpf4jnsgd1na2vs0mg"},{"bike_id":"64616ddc-02fc-4fa3-a96e-55f8d46496f1","system_id":"levelo_inurba_marseille","lat":43.32108,"lon":5.36782,"is_reserved":false,"is_disabled":false,"rental_uris":{"android":"levelo://app?vid=64616ddc-02fc-4fa3-a96e-55f8d46496f1","ios":"levelo://app?vid=64616ddc-02fc-4fa3-a96e-55f8d46496f1"},"vehicle_type_id":"4","last_reported":1768666315,"current_range_meters":6800,"station_id":"ce4bhrh2rcd13ifvqhug","pricing_plan_id":"cebpf4jnsgd1na2vs0mg"},{"bike_id":"4884e3b4-8b53-43b4-90a8-716c16790211","system_id":"levelo_inurba_marseille","lat":43.32386,"lon":5.36745,"is_reserved":false,"is_disabled":false,"rental_uris":{"android":"levelo://app?vid=4884e3b4-8b53-43b4-90a8-716c16790211","ios":"levelo://app?vid=4884e3b4-8b53-43b4-90a8-716c16790211"},"vehicle_type_id":"4","last_reported":1768666315,"current_range_meters":6800,"station_id":"","pricing_plan_id":"cebpf4jnsgd1na2vs0mg"},{"bike_id":"252a01eb-733e-461c-bfde-ad296dc94be6","system_id":"levelo_inurba_marseille","lat":43.3061,"lon":5.3751,"is_reserved":false,"is_disabled":false,"rental_uris":{"android":"levelo://app?vid=252a01eb-733e-461c-bfde-ad296dc94be6","ios":"levelo://app?vid=252a01eb-733e-461c-bfde-ad296dc94be6"},"vehicle_type_id":"4","last_reported":1768666315,"current_range_meters":6800,"station_id":"","pricing_plan_id":"cebpf4jnsgd1na2vs0mg"},{"bike_id":"53883162-a32e-45f2-a25b-e71336c68327","system_id":"levelo_inurba_marseille","lat":43.24165,"lon":5.36399,"is_reserved":false,"is_disabled":false,"rental_uris":{"android":"levelo://app?vid=53883162-a32e-45f2-a25b-e71336c68327","ios":"levelo://app?vid=53883162-a32e-45f2-a25b-e71336c68327"},"vehicle_type_id":"4","last_reported":1768666315,"current_range_meters":6800,"station_id":"cpo36qri1sfpv3e86is0","pricing_plan_id":"cebpf4jnsgd1na2vs0mg"},{"bike_id":"2340445d-9199-48cf-83f4-7309507be9a4","system_id":"levelo_inurba_marseille","lat":43.24468,"lon":5.42545,"is_reserved":false,"is_disabled":false,"rental_uris":{"android":"levelo://app?vid=2340445d-9199-48cf-83f4-7309507be9a4","ios":"levelo://app?vid=2340445d-9199-48cf-83f4-7309507be9a4"},"vehicle_type_id":"4","last_reported":1768666315,"current_range_meters":6800,"station_id":"st_d4a3vfp97mjs738cd8kg","pricing_plan_id":"cebpf4jnsgd1na2vs0mg"},{"bike_id":"74a1e1f8-bb34-4287-aa1b-9f0b4e610f1e","system_id":"levelo_inurba_marseille","lat":43.308455,"lon":5.374825,"is_reserved":false,"is_disabled":false,"rental_uris":{"android":"levelo://app?vid=74a1e1f8-bb34-4287-aa1b-9f0b4e610f1e","ios":"levelo://app?vid=74a1e1f8-bb34-4287-aa1b-9f0b4e610f1e"},"vehicle_type_id":"4","last_reported":1768666315,"current_range_meters":6800,"station_id":"","pricing_plan_id":"cebpf4jnsgd1na2vs0mg"},{"bike_id":"12bdf3a8-c528-41e9-b4f5-8f4e12b00830","system_id":"levelo_inurba_marseille","lat":43.25329,"lon":5.42168,"is_reserved":false,"is_disabled":false,"rental_uris":{"android":"levelo://app?vid=12bdf3a8-c528-41e9-b4f5-8f4e12b00830","ios":"levelo://app?vid=12bdf3a8-c528-41e9-b4f5-8f4e12b00830"},"vehicle_type_id":"4","last_reported":1768666315,"current_range_meters":6800,"station_id":"st_d2m65c5bi1j21697t3ng","pricing_plan_id":"cebpf4jnsgd1na2vs0mg"},{"bike_id":"e91e3903-60f1-4c5a-bc80-d327c473e2e7","system_id":"levelo_inurba_marseille","lat":43.25501,"lon":5.37658,"is_reserved":false,"is_disabled":false,"rental_uris":{"android":"levelo://app?vid=e91e3903-60f1-4c5a-bc80-d327c473e2e7","ios":"levelo://app?vid=e91e3903-60f1-4c5a-bc80-d327c473e2e7"},"vehicle_type_id":"4","last_reported":1768666315,"current_range_meters":6800,"station_id":"ce4bhh12rcd13ifvqff0","pricing_plan_id":"cebpf4jnsgd1na2vs0mg"},{"bike_id":"3a36667a-93a2-47e6-8728-e382036e6f88","system_id":"levelo_inurba_marseille","lat":43.21777,"lon":5.34559,"is_reserved":false,"is_disabled":false,"rental_uris":{"android":"levelo://app?vid=3a36667a-93a2-47e6-8728-e382036e6f88","ios":"levelo://app?vid=3a36667a-93a2-47e6-8728-e382036e6f88"},"vehicle_type_id":"4","last_reported":1768666315,"current_range_meters":6800,"station_id":"","pricing_plan_id":"cebpf4jnsgd1na2vs0mg"},{"bike_id":"dfa72997-bdba-48f4-a1d1-63ff5130518c","system_id":"levelo_inurba_marseille","lat":43.323456,"lon":5.367329,"is_reserved":false,"is_disabled":false,"rental_uris":{"android":"levelo://app?vid=dfa72997-bdba-48f4-a1d1-63ff5130518c","ios":"levelo://app?vid=dfa72997-bdba-48f4-a1d1-63ff5130518c"},"vehicle_type_id":"4","last_reported":1768666315,"current_range_meters":7200,"station_id":"","pricing_plan_id":"cebpf4jnsgd1na2vs0mg"},{"bike_id":"5046767e-783a-4712-8e13-08b5e3357478","system_id":"levelo_inurba_marseille","lat":43.26559,"lon":5.40329,"is_reserved":false,"is_disabled":false,"rental_uris":{"android":"levelo://app?vid=5046767e-783a-4712-8e13-08b5e3357478","ios":"levelo://app?vid=5046767e-783a-4712-8e13-08b5e3357478"},"vehicle_type_id":"4","last_reported":1768666315,"current_range_meters":7200,"station_id":"ce4bhmp2rcd13ifvqgng","pricing_plan_id":"cebpf4jnsgd1na2vs0mg"},{"bike_id":"8a9933e9-1ba0-42bc-9dfa-198447433b99","system_id":"levelo_inurba_marseille","lat":43.26066,"lon":5.39378,"is_reserved":false,"is_disabled":false,"rental_uris":{"android":"levelo://app?vid=8a9933e9-1ba0-42bc-9dfa-198447433b99","ios":"levelo://app?vid=8a9933e9-1ba0-42bc-9dfa-198447433b99"},"vehicle_type_id":"4","last_reported":1768666315,"current_range_meters":7200,"station_id":"ce4bhh92rcd13ifvqfj0","pricing_plan_id":"cebpf4jnsgd1na2vs0mg"},{"bike_id":"40d3dc88-0f80-474c-b9b5-fa3b55d5a0df","system_id":"levelo_inurba_marseille","lat":43.28532,"lon":5.44096,"is_reserved":false,"is_disabled":false,"rental_uris":{"android":"levelo://app?vid=40d3dc88-0f80-474c-b9b5-fa3b55d5a0df","ios":"levelo://app?vid=40d3dc88-0f80-474c-b9b5-fa3b55d5a0df"},"vehicle_type_id":"4","last_reported":1768666315,"current_range_meters":7200,"station_id":"st_d3j3df2ikq2c7380ej80","pricing_plan_id":"cebpf4jnsgd1na2vs0mg"},{"bike_id":"2b145973-3802-427d-9998-97f195dc402b","system_id":"levelo_inurba_marseille","lat":43.2318,"lon":5.35571,"is_reserved":false,"is_disabled":false,"rental_uris":{"android":"levelo://app?vid=2b145973-3802-427d-9998-97f195dc402b","ios":"levelo://app?vid=2b145973-3802-427d-9998-97f195dc402b"},"vehicle_type_id":"4","last_reported":1768666315,"current_range_meters":7200,"station_id":"ce4bhu92rcd13ifvqi70","pricing_plan_id":"cebpf4jnsgd1na2vs0mg"},{"bike_id":"9eebbdd3-6b60-49ba-99c6-4343c77db13f","system_id":"levelo_inurba_marseille","lat":43.28838,"lon":5.39318,"is_reserved":false,"is_disabled":false,"rental_uris":{"android":"levelo://app?vid=9eebbdd3-6b60-49ba-99c6-4343c77db13f","ios":"levelo://app?vid=9eebbdd3-6b60-49ba-99c6-4343c77db13f"},"vehicle_type_id":"4","last_reported":1768666315,"current_range_meters":7200,"station_id":"ce4bh2p2rcd13ifvqdi0","pricing_plan_id":"cebpf4jnsgd1na2vs0mg"},{"bike_id":"bd9c4f9b-d8b4-4c19-a282-e7f16c61f7b6","system_id":"levelo_inurba_marseille","lat":43.321011,"lon":5.367759,"is_reserved":false,"is_disabled":false,"rental_uris":{"android":"levelo://app?vid=bd9c4f9b-d8b4-4c19-a282-e7f16c61f7b6","ios":"levelo://app?vid=bd9c4f9b-d8b4-4c19-a282-e7f16c61f7b6"},"vehicle_type_id":"4","last_reported":1768666315,"current_range_meters":7200,"station_id":"ce4bhrh2rcd13ifvqhug","pricing_plan_id":"cebpf4jnsgd1na2vs0mg"},{"bike_id":"7faf58eb-ee03-481a-9f28-1064e829d8e1","system_id":"levelo_inurba_marseille","lat":43.297585,"lon":5.42782,"is_reserved":false,"is_disabled":false,"rental_uris":{"android":"levelo://app?vid=7faf58eb-ee03-481a-9f28-1064e829d8e1","ios":"levelo://app?vid=7faf58eb-ee03-481a-9f28-1064e829d8e1"},"vehicle_type_id":"4","last_reported":1768666315,"current_range_meters":7200,"station_id":"st_d3md5207bmas73dh9klg","pricing_plan_id":"cebpf4jnsgd1na2vs0mg"},{"bike_id":"68018387-d697-48d0-a3d2-cdb5f9b7db3e","system_id":"levelo_inurba_marseille","lat":43.28457,"lon":5.38395,"is_reserved":false,"is_disabled":false,"rental_uris":{"android":"levelo://app?vid=68018387-d697-48d0-a3d2-cdb5f9b7db3e","ios":"levelo://app?vid=68018387-d697-48d0-a3d2-cdb5f9b7db3e"},"vehicle_type_id":"4","last_reported":1768666315,"current_range_meters":7200,"station_id":"ce4bh512rcd13ifvqe3g","pricing_plan_id":"cebpf4jnsgd1na2vs0mg"},{"bike_id":"6eff15cd-6911-4811-ab66-16b4fe73008b","system_id":"levelo_inurba_marseille","lat":43.29618,"lon":5.37722,"is_reserved":false,"is_disabled":false,"rental_uris":{"android":"levelo://app?vid=6eff15cd-6911-4811-ab66-16b4fe73008b","ios":"levelo://app?vid=6eff15cd-6911-4811-ab66-16b4fe73008b"},"vehicle_type_id":"4","last_reported":1768666315,"current_range_meters":7200,"station_id":"ce4bgi92rcd13ifvqb90","pricing_plan_id":"cebpf4jnsgd1na2vs0mg"},{"bike_id":"a30e2ceb-741c-4e9b-b1b0-07d5c72b0c1c","system_id":"levelo_inurba_marseille","lat":43.24809,"lon":5.37446,"is_reserved":false,"is_disabled":false,"rental_uris":{"android":"levelo://app?vid=a30e2ceb-741c-4e9b-b1b0-07d5c72b0c1c","ios":"levelo://app?vid=a30e2ceb-741c-4e9b-b1b0-07d5c72b0c1c"},"vehicle_type_id":"4","last_reported":1768666315,"current_range_meters":7200,"station_id":"ce4bhgh2rcd13ifvqfb0","pricing_plan_id":"cebpf4jnsgd1na2vs0mg"},{"bike_id":"2675671c-3881-46f8-8b37-e9cc96a4dbb9","system_id":"levelo_inurba_marseille","lat":43.29812,"lon":5.37595,"is_reserved":false,"is_disabled":false,"rental_uris":{"android":"levelo://app?vid=2675671c-3881-46f8-8b37-e9cc96a4dbb9","ios":"levelo://app?vid=2675671c-3881-46f8-8b37-e9cc96a4dbb9"},"vehicle_type_id":"4","last_reported":1768666315,"current_range_meters":7200,"station_id":"","pricing_plan_id":"cebpf4jnsgd1na2vs0mg"},{"bike_id":"5aa30aed-60f4-49f0-acb0-60dbf1c82497","system_id":"levelo_inurba_marseille","lat":43.27203,"lon":5.39181,"is_reserved":false,"is_disabled":false,"rental_uris":{"android":"levelo://app?vid=5aa30aed-60f4-49f0-acb0-60dbf1c82497","ios":"levelo://app?vid=5aa30aed-60f4-49f0-acb0-60dbf1c82497"},"vehicle_type_id":"4","last_reported":1768666315,"current_range_meters":7200,"station_id":"ce4bhhp2rcd13ifvqfm0","pricing_plan_id":"cebpf4jnsgd1na2vs0mg"},{"bike_id":"43c20123-2f5c-4e60-a32f-3cd15ab35167","system_id":"levelo_inurba_marseille","lat":43.26794,"lon":5.40228,"is_reserved":false,"is_disabled":false,"rental_uris":{"android":"levelo://app?vid=43c20123-2f5c-4e60-a32f-3cd15ab35167","ios":"levelo://app?vid=43c20123-2f5c-4e60-a32f-3cd15ab35167"},"vehicle_type_id":"4","last_reported":1768666315,"current_range_meters":7200,"station_id":"ce501612rcd8frsf0b60","pricing_plan_id":"cebpf4jnsgd1na2vs0mg"},{"bike_id":"31db7ea7-009d-4c4c-92ea-064bec2d7696","system_id":"levelo_inurba_marseille","lat":43.28107,"lon":5.37835,"is_reserved":false,"is_disabled":false,"rental_uris":{"android":"levelo://app?vid=31db7ea7-009d-4c4c-92ea-064bec2d7696","ios":"levelo://app?vid=31db7ea7-009d-4c4c-92ea-064bec2d7696"},"vehicle_type_id":"4","last_reported":1768666315,"current_range_meters":7200,"station_id":"ce4bha12rcd13ifvqee0","pricing_plan_id":"cebpf4jnsgd1na2vs0mg"},{"bike_id":"49ecf593-a1c9-4420-b6f0-bea038ba7420","system_id":"levelo_inurba_marseille","lat":43.312829,"lon":5.379099,"is_reserved":false,"is_disabled":false,"rental_uris":{"android":"levelo://app?vid=49ecf593-a1c9-4420-b6f0-bea038ba7420","ios":"levelo://app?vid=49ecf593-a1c9-4420-b6f0-bea038ba7420"},"vehicle_type_id":"4","last_reported":1768666315,"current_range_meters":7200,"station_id":"","pricing_plan_id":"cebpf4jnsgd1na2vs0mg"},{"bike_id":"7176f1ca-8b5e-490b-a2c6-30442fad6105","system_id":"levelo_inurba_marseille","lat":43.28534,"lon":5.44095,"is_reserved":false,"is_disabled":false,"rental_uris":{"android":"levelo://app?vid=7176f1ca-8b5e-490b-a2c6-30442fad6105","ios":"levelo://app?vid=7176f1ca-8b5e-490b-a2c6-30442fad6105"},"vehicle_type_id":"4","last_reported":1768666315,"current_range_meters":7200,"station_id":"st_d3j3df2ikq2c7380ej80","pricing_plan_id":"cebpf4jnsgd1na2vs0mg"},{"bike_id":"f0a83361-5351-404b-ab85-c3162bb75598","system_id":"levelo_inurba_marseille","lat":43.23194,"lon":5.35547,"is_reserved":false,"is_disabled":false,"rental_uris":{"android":"levelo://app?vid=f0a83361-5351-404b-ab85-c3162bb75598","ios":"levelo://app?vid=f0a83361-5351-404b-ab85-c3162bb75598"},"vehicle_type_id":"4","last_reported":1768666315,"current_range_meters":7200,"station_id":"ce4bhu92rcd13ifvqi70","pricing_plan_id":"cebpf4jnsgd1na2vs0mg"},{"bike_id":"8f8609cc-4bee-4b38-9c52-16a11c3995e3","system_id":"levelo_inurba_marseille","lat":43.2551,"lon":5.37656,"is_reserved":false,"is_disabled":false,"rental_uris":{"android":"levelo://app?vid=8f8609cc-4bee-4b38-9c52-16a11c3995e3","ios":"levelo://app?vid=8f8609cc-4bee-4b38-9c52-16a11c3995e3"},"vehicle_type_id":"4","last_reported":1768666315,"current_range_meters":7200,"station_id":"ce4bhh12rcd13ifvqff0","pricing_plan_id":"cebpf4jnsgd1na2vs0mg"},{"bike_id":"77240f57-c3d7-434d-914a-c85f067de709","system_id":"levelo_inurba_marseille","lat":43.2953,"lon":5.39041,"is_reserved":false,"is_disabled":false,"rental_uris":{"android":"levelo://app?vid=77240f57-c3d7-434d-914a-c85f067de709","ios":"levelo://app?vid=77240f57-c3d7-434d-914a-c85f067de709"},"vehicle_type_id":"4","last_reported":1768666315,"current_range_meters":7200,"station_id":"ce4bh3p2rcd13ifvqdp0","pricing_plan_id":"cebpf4jnsgd1na2vs0mg"},{"bike_id":"b61188c0-9590-46e5-be62-ff02194516dc","system_id":"levelo_inurba_marseille","lat":43.32499,"lon":5.3831,"is_reserved":false,"is_disabled":false,"rental_uris":{"android":"levelo://app?vid=b61188c0-9590-46e5-be62-ff02194516dc","ios":"levelo://app?vid=b61188c0-9590-46e5-be62-ff02194516dc"},"vehicle_type_id":"4","last_reported":1768666315,"current_range_meters":7200,"station_id":"st_d4asgbiv49dc73anf9m0","pricing_plan_id":"cebpf4jnsgd1na2vs0mg"},{"bike_id":"f3d775a3-f599-439d-bd34-f2266ddda566","system_id":"levelo_inurba_marseille","lat":43.32367,"lon":5.36767,"is_reserved":false,"is_disabled":false,"rental_uris":{"android":"levelo://app?vid=f3d775a3-f599-439d-bd34-f2266ddda566","ios":"levelo://app?vid=f3d775a3-f599-439d-bd34-f2266ddda566"},"vehicle_type_id":"4","last_reported":1768666315,"current_range_meters":7200,"station_id":"ce4bhsh2rcd13ifvqi2g","pricing_plan_id":"cebpf4jnsgd1na2vs0mg"},{"bike_id":"b7e2b8f3-5662-4d61-999a-a797df9e3721","system_id":"levelo_inurba_marseille","lat":43.246627,"lon":5.381628,"is_reserved":false,"is_disabled":false,"rental_uris":{"android":"levelo://app?vid=b7e2b8f3-5662-4d61-999a-a797df9e3721","ios":"levelo://app?vid=b7e2b8f3-5662-4d61-999a-a797df9e3721"},"vehicle_type_id":"4","last_reported":1768666315,"current_range_meters":7200,"station_id":"ce4bhih2rcd13ifvqfr0","pricing_plan_id":"cebpf4jnsgd1na2vs0mg"},{"bike_id":"65067ab4-c95e-4dfb-b958-94e50a035330","system_id":"levelo_inurba_marseille","lat":43.31377,"lon":5.385,"is_reserved":false,"is_disabled":false,"rental_uris":{"android":"levelo://app?vid=65067ab4-c95e-4dfb-b958-94e50a035330","ios":"levelo://app?vid=65067ab4-c95e-4dfb-b958-94e50a035330"},"vehicle_type_id":"4","last_reported":1768666315,"current_range_meters":8000,"station_id":"ce4bgt92rcd13ifvqcf0","pricing_plan_id":"cebpf4jnsgd1na2vs0mg"},{"bike_id":"ff2d3e5a-0e52-4f3a-ad99-d57d4a209ef1","system_id":"levelo_inurba_marseille","lat":43.30201,"lon":5.37348,"is_reserved":false,"is_disabled":false,"rental_uris":{"android":"levelo://app?vid=ff2d3e5a-0e52-4f3a-ad99-d57d4a209ef1","ios":"levelo://app?vid=ff2d3e5a-0e52-4f3a-ad99-d57d4a209ef1"},"vehicle_type_id":"4","last_reported":1768666315,"current_range_meters":8000,"station_id":"","pricing_plan_id":"cebpf4jnsgd1na2vs0mg"},{"bike_id":"f7d8d0a7-ff05-4fe9-8539-a36ed90daeaf","system_id":"levelo_inurba_marseille","lat":43.25823,"lon":5.39417,"is_reserved":false,"is_disabled":false,"rental_uris":{"android":"levelo://app?vid=f7d8d0a7-ff05-4fe9-8539-a36ed90daeaf","ios":"levelo://app?vid=f7d8d0a7-ff05-4fe9-8539-a36ed90daeaf"},"vehicle_type_id":"4","last_reported":1768666315,"current_range_meters":8000,"station_id":"ce4bhip2rcd13ifvqft0","pricing_plan_id":"cebpf4jnsgd1na2vs0mg"},{"bike_id":"9f9ee95b-a709-468f-875a-8cf12fad1678","system_id":"levelo_inurba_marseille","lat":43.3014,"lon":5.37407,"is_reserved":false,"is_disabled":false,"rental_uris":{"android":"levelo://app?vid=9f9ee95b-a709-468f-875a-8cf12fad1678","ios":"levelo://app?vid=9f9ee95b-a709-468f-875a-8cf12fad1678"},"vehicle_type_id":"4","last_reported":1768666315,"current_range_meters":8000,"station_id":"ce4bgs92rcd13ifvqcc0","pricing_plan_id":"cebpf4jnsgd1na2vs0mg"},{"bike_id":"bb07dfed-85dc-4af8-8fd2-5ea8c9b12b59","system_id":"levelo_inurba_marseille","lat":43.2558,"lon":5.38219,"is_reserved":false,"is_disabled":false,"rental_uris":{"android":"levelo://app?vid=bb07dfed-85dc-4af8-8fd2-5ea8c9b12b59","ios":"levelo://app?vid=bb07dfed-85dc-4af8-8fd2-5ea8c9b12b59"},"vehicle_type_id":"4","last_reported":1768666315,"current_range_meters":8000,"station_id":"ce4bhih2rcd13ifvqfs0","pricing_plan_id":"cebpf4jnsgd1na2vs0mg"},{"bike_id":"e6872936-d756-4b20-b25b-25e2aeef4bd8","system_id":"levelo_inurba_marseille","lat":43.23187,"lon":5.35556,"is_reserved":false,"is_disabled":false,"rental_uris":{"android":"levelo://app?vid=e6872936-d756-4b20-b25b-25e2aeef4bd8","ios":"levelo://app?vid=e6872936-d756-4b20-b25b-25e2aeef4bd8"},"vehicle_type_id":"4","last_reported":1768666315,"current_range_meters":8000,"station_id":"ce4bhu92rcd13ifvqi70","pricing_plan_id":"cebpf4jnsgd1na2vs0mg"},{"bike_id":"dbba0a0b-4a48-431c-b93f-cc7a9adf711d","system_id":"levelo_inurba_marseille","lat":43.29797,"lon":5.38094,"is_reserved":false,"is_disabled":true,"rental_uris":{"android":"levelo://app?vid=dbba0a0b-4a48-431c-b93f-cc7a9adf711d","ios":"levelo://app?vid=dbba0a0b-4a48-431c-b93f-cc7a9adf711d"},"vehicle_type_id":"4","last_reported":1768666315,"current_range_meters":8000,"station_id":"ce4bgip2rcd13ifvqbb0","pricing_plan_id":"cebpf4jnsgd1na2vs0mg"},{"bike_id":"8efafb2a-7a78-4ffb-873a-ee8b3cbdfdbd","system_id":"levelo_inurba_marseille","lat":43.26375,"lon":5.41091,"is_reserved":false,"is_disabled":true,"rental_uris":{"android":"levelo://app?vid=8efafb2a-7a78-4ffb-873a-ee8b3cbdfdbd","ios":"levelo://app?vid=8efafb2a-7a78-4ffb-873a-ee8b3cbdfdbd"},"vehicle_type_id":"4","last_reported":1768666315,"current_range_meters":8000,"station_id":"","pricing_plan_id":"cebpf4jnsgd1na2vs0mg"},{"bike_id":"937d90e0-a5db-43d2-9364-92db8adcffb4","system_id":"levelo_inurba_marseille","lat":43.25334,"lon":5.42178,"is_reserved":false,"is_disabled":false,"rental_uris":{"android":"levelo://app?vid=937d90e0-a5db-43d2-9364-92db8adcffb4","ios":"levelo://app?vid=937d90e0-a5db-43d2-9364-92db8adcffb4"},"vehicle_type_id":"4","last_reported":1768666315,"current_range_meters":8000,"station_id":"st_d2m65c5bi1j21697t3ng","pricing_plan_id":"cebpf4jnsgd1na2vs0mg"},{"bike_id":"2a5a3e25-d115-4865-9217-12f5237a0224","system_id":"levelo_inurba_marseille","lat":43.253393,"lon":5.421756,"is_reserved":false,"is_disabled":false,"rental_uris":{"android":"levelo://app?vid=2a5a3e25-d115-4865-9217-12f5237a0224","ios":"levelo://app?vid=2a5a3e25-d115-4865-9217-12f5237a0224"},"vehicle_type_id":"4","last_reported":1768666315,"current_range_meters":8000,"station_id":"st_d2m65c5bi1j21697t3ng","pricing_plan_id":"cebpf4jnsgd1na2vs0mg"},{"bike_id":"40ef2b08-6f50-4337-a6a9-703c9dbbe073","system_id":"levelo_inurba_marseille","lat":43.33608,"lon":5.40944,"is_reserved":false,"is_disabled":false,"rental_uris":{"android":"levelo://app?vid=40ef2b08-6f50-4337-a6a9-703c9dbbe073","ios":"levelo://app?vid=40ef2b08-6f50-4337-a6a9-703c9dbbe073"},"vehicle_type_id":"4","last_reported":1768666315,"current_range_meters":8400,"station_id":"","pricing_plan_id":"cebpf4jnsgd1na2vs0mg"},{"bike_id":"2e59ab37-51b4-434c-9efd-dbfcceedd362","system_id":"levelo_inurba_marseille","lat":43.32367,"lon":5.36714,"is_reserved":false,"is_disabled":false,"rental_uris":{"android":"levelo://app?vid=2e59ab37-51b4-434c-9efd-dbfcceedd362","ios":"levelo://app?vid=2e59ab37-51b4-434c-9efd-dbfcceedd362"},"vehicle_type_id":"4","last_reported":1768666315,"current_range_meters":8400,"station_id":"","pricing_plan_id":"cebpf4jnsgd1na2vs0mg"},{"bike_id":"00f4d446-9b60-4cef-bd0b-8d64e443fec2","system_id":"levelo_inurba_marseille","lat":43.25126,"lon":5.40339,"is_reserved":false,"is_disabled":false,"rental_uris":{"android":"levelo://app?vid=00f4d446-9b60-4cef-bd0b-8d64e443fec2","ios":"levelo://app?vid=00f4d446-9b60-4cef-bd0b-8d64e443fec2"},"vehicle_type_id":"4","last_reported":1768666315,"current_range_meters":8400,"station_id":"ce4bhlh2rcd13ifvqgig","pricing_plan_id":"cebpf4jnsgd1na2vs0mg"},{"bike_id":"bf210f90-84da-4e17-b3c6-1f0dbf2464c6","system_id":"levelo_inurba_marseille","lat":43.27942,"lon":5.41028,"is_reserved":false,"is_disabled":false,"rental_uris":{"android":"levelo://app?vid=bf210f90-84da-4e17-b3c6-1f0dbf2464c6","ios":"levelo://app?vid=bf210f90-84da-4e17-b3c6-1f0dbf2464c6"},"vehicle_type_id":"4","last_reported":1768666315,"current_range_meters":8400,"station_id":"ce4bhnp2rcd13ifvqh0g","pricing_plan_id":"cebpf4jnsgd1na2vs0mg"},{"bike_id":"878dde24-bede-4e19-ae02-67a59c493306","system_id":"levelo_inurba_marseille","lat":43.27959,"lon":5.41044,"is_reserved":false,"is_disabled":false,"rental_uris":{"android":"levelo://app?vid=878dde24-bede-4e19-ae02-67a59c493306","ios":"levelo://app?vid=878dde24-bede-4e19-ae02-67a59c493306"},"vehicle_type_id":"4","last_reported":1768666315,"current_range_meters":8400,"station_id":"ce4bhnp2rcd13ifvqh0g","pricing_plan_id":"cebpf4jnsgd1na2vs0mg"},{"bike_id":"de890674-a00b-4313-ae9c-0f8495e4953e","system_id":"levelo_inurba_marseille","lat":43.282755,"lon":5.350588,"is_reserved":false,"is_disabled":false,"rental_uris":{"android":"levelo://app?vid=de890674-a00b-4313-ae9c-0f8495e4953e","ios":"levelo://app?vid=de890674-a00b-4313-ae9c-0f8495e4953e"},"vehicle_type_id":"4","last_reported":1768666315,"current_range_meters":8400,"station_id":"ce4bhbp2rcd13ifvqerg","pricing_plan_id":"cebpf4jnsgd1na2vs0mg"},{"bike_id":"acaa042e-c501-42e4-aaa9-5e42ce2c0a67","system_id":"levelo_inurba_marseille","lat":43.280697,"lon":5.388057,"is_reserved":false,"is_disabled":false,"rental_uris":{"android":"levelo://app?vid=acaa042e-c501-42e4-aaa9-5e42ce2c0a67","ios":"levelo://app?vid=acaa042e-c501-42e4-aaa9-5e42ce2c0a67"},"vehicle_type_id":"4","last_reported":1768666315,"current_range_meters":8400,"station_id":"","pricing_plan_id":"cebpf4jnsgd1na2vs0mg"},{"bike_id":"923a293c-cb5e-4620-acad-ddc8186290d8","system_id":"levelo_inurba_marseille","lat":43.24656,"lon":5.38875,"is_reserved":false,"is_disabled":false,"rental_uris":{"android":"levelo://app?vid=923a293c-cb5e-4620-acad-ddc8186290d8","ios":"levelo://app?vid=923a293c-cb5e-4620-acad-ddc8186290d8"},"vehicle_type_id":"4","last_reported":1768666315,"current_range_meters":8400,"station_id":"ce4bhg12rcd13ifvqf60","pricing_plan_id":"cebpf4jnsgd1na2vs0mg"},{"bike_id":"61291781-3e80-48db-810b-09397984c4f4","system_id":"levelo_inurba_marseille","lat":43.24175,"lon":5.39736,"is_reserved":false,"is_disabled":false,"rental_uris":{"android":"levelo://app?vid=61291781-3e80-48db-810b-09397984c4f4","ios":"levelo://app?vid=61291781-3e80-48db-810b-09397984c4f4"},"vehicle_type_id":"4","last_reported":1768666315,"current_range_meters":8400,"station_id":"ce4bhn12rcd13ifvqgpg","pricing_plan_id":"cebpf4jnsgd1na2vs0mg"},{"bike_id":"2b278e89-f0a1-458c-9497-a0c60846c295","system_id":"levelo_inurba_marseille","lat":43.21752,"lon":5.34605,"is_reserved":false,"is_disabled":false,"rental_uris":{"android":"levelo://app?vid=2b278e89-f0a1-458c-9497-a0c60846c295","ios":"levelo://app?vid=2b278e89-f0a1-458c-9497-a0c60846c295"},"vehicle_type_id":"4","last_reported":1768666315,"current_range_meters":8400,"station_id":"st_cvj6r9ubvosntc0bgbag","pricing_plan_id":"cebpf4jnsgd1na2vs0mg"},{"bike_id":"3de79ba5-6bdb-408d-95bd-3f4b9c83991c","system_id":"levelo_inurba_marseille","lat":43.295117,"lon":5.379042,"is_reserved":false,"is_disabled":false,"rental_uris":{"android":"levelo://app?vid=3de79ba5-6bdb-408d-95bd-3f4b9c83991c","ios":"levelo://app?vid=3de79ba5-6bdb-408d-95bd-3f4b9c83991c"},"vehicle_type_id":"4","last_reported":1768666315,"current_range_meters":8400,"station_id":"","pricing_plan_id":"cebpf4jnsgd1na2vs0mg"},{"bike_id":"ddef4d4f-5883-4484-bc03-0df24418699a","system_id":"levelo_inurba_marseille","lat":43.21747,"lon":5.34611,"is_reserved":false,"is_disabled":false,"rental_uris":{"android":"levelo://app?vid=ddef4d4f-5883-4484-bc03-0df24418699a","ios":"levelo://app?vid=ddef4d4f-5883-4484-bc03-0df24418699a"},"vehicle_type_id":"4","last_reported":1768666315,"current_range_meters":8400,"station_id":"st_cvj6r9ubvosntc0bgbag","pricing_plan_id":"cebpf4jnsgd1na2vs0mg"},{"bike_id":"24fd007e-1bb4-4653-974d-a1e9e478c87f","system_id":"levelo_inurba_marseille","lat":43.24184,"lon":5.3638,"is_reserved":false,"is_disabled":false,"rental_uris":{"android":"levelo://app?vid=24fd007e-1bb4-4653-974d-a1e9e478c87f","ios":"levelo://app?vid=24fd007e-1bb4-4653-974d-a1e9e478c87f"},"vehicle_type_id":"4","last_reported":1768666315,"current_range_meters":8400,"station_id":"cpo36qri1sfpv3e86is0","pricing_plan_id":"cebpf4jnsgd1na2vs0mg"},{"bike_id":"4a28ef74-056c-4568-bfa3-e40f0a491bda","system_id":"levelo_inurba_marseille","lat":43.25471,"lon":5.37654,"is_reserved":false,"is_disabled":false,"rental_uris":{"android":"levelo://app?vid=4a28ef74-056c-4568-bfa3-e40f0a491bda","ios":"levelo://app?vid=4a28ef74-056c-4568-bfa3-e40f0a491bda"},"vehicle_type_id":"4","last_reported":1768666315,"current_range_meters":8400,"station_id":"ce4bhh12rcd13ifvqff0","pricing_plan_id":"cebpf4jnsgd1na2vs0mg"},{"bike_id":"168fb7c0-bb3d-4dc2-b81c-95a7d644950b","system_id":"levelo_inurba_marseille","lat":43.2812,"lon":5.42653,"is_reserved":false,"is_disabled":false,"rental_uris":{"android":"levelo://app?vid=168fb7c0-bb3d-4dc2-b81c-95a7d644950b","ios":"levelo://app?vid=168fb7c0-bb3d-4dc2-b81c-95a7d644950b"},"vehicle_type_id":"4","last_reported":1768666315,"current_range_meters":8400,"station_id":"ce4bhnh2rcd13ifvqgug","pricing_plan_id":"cebpf4jnsgd1na2vs0mg"},{"bike_id":"0cbe0826-bfc8-412b-bcf3-f638ab93256c","system_id":"levelo_inurba_marseille","lat":43.28482,"lon":5.48403,"is_reserved":false,"is_disabled":false,"rental_uris":{"android":"levelo://app?vid=0cbe0826-bfc8-412b-bcf3-f638ab93256c","ios":"levelo://app?vid=0cbe0826-bfc8-412b-bcf3-f638ab93256c"},"vehicle_type_id":"4","last_reported":1768666315,"current_range_meters":8400,"station_id":"","pricing_plan_id":"cebpf4jnsgd1na2vs0mg"},{"bike_id":"b72edf83-0dcb-4a5d-b17e-81637d24626b","system_id":"levelo_inurba_marseille","lat":43.30917,"lon":5.36881,"is_reserved":false,"is_disabled":false,"rental_uris":{"android":"levelo://app?vid=b72edf83-0dcb-4a5d-b17e-81637d24626b","ios":"levelo://app?vid=b72edf83-0dcb-4a5d-b17e-81637d24626b"},"vehicle_type_id":"4","last_reported":1768666315,"current_range_meters":8800,"station_id":"ce4bgn92rcd13ifvqbvg","pricing_plan_id":"cebpf4jnsgd1na2vs0mg"},{"bike_id":"ef3f1e70-32c3-4923-9ca7-95ec1e3cefa1","system_id":"levelo_inurba_marseille","lat":43.28205,"lon":5.38139,"is_reserved":false,"is_disabled":false,"rental_uris":{"android":"levelo://app?vid=ef3f1e70-32c3-4923-9ca7-95ec1e3cefa1","ios":"levelo://app?vid=ef3f1e70-32c3-4923-9ca7-95ec1e3cefa1"},"vehicle_type_id":"4","last_reported":1768666315,"current_range_meters":8800,"station_id":"","pricing_plan_id":"cebpf4jnsgd1na2vs0mg"},{"bike_id":"e2e30f7e-0b8f-44c1-be4d-c3ca3d98f7fd","system_id":"levelo_inurba_marseille","lat":43.30473,"lon":5.37911,"is_reserved":false,"is_disabled":false,"rental_uris":{"android":"levelo://app?vid=e2e30f7e-0b8f-44c1-be4d-c3ca3d98f7fd","ios":"levelo://app?vid=e2e30f7e-0b8f-44c1-be4d-c3ca3d98f7fd"},"vehicle_type_id":"4","last_reported":1768666315,"current_range_meters":8800,"station_id":"ce4bgup2rcd13ifvqcn0","pricing_plan_id":"cebpf4jnsgd1na2vs0mg"},{"bike_id":"3edcb619-e140-4ca7-af08-f551c6a288f3","system_id":"levelo_inurba_marseille","lat":43.2849,"lon":5.48381,"is_reserved":false,"is_disabled":false,"rental_uris":{"android":"levelo://app?vid=3edcb619-e140-4ca7-af08-f551c6a288f3","ios":"levelo://app?vid=3edcb619-e140-4ca7-af08-f551c6a288f3"},"vehicle_type_id":"4","last_reported":1768666315,"current_range_meters":8800,"station_id":"","pricing_plan_id":"cebpf4jnsgd1na2vs0mg"},{"bike_id":"7eded3b1-4745-4b4d-b80d-d88da3addd51","system_id":"levelo_inurba_marseille","lat":43.27612,"lon":5.36116,"is_reserved":false,"is_disabled":false,"rental_uris":{"android":"levelo://app?vid=7eded3b1-4745-4b4d-b80d-d88da3addd51","ios":"levelo://app?vid=7eded3b1-4745-4b4d-b80d-d88da3addd51"},"vehicle_type_id":"4","last_reported":1768666315,"current_range_meters":8800,"station_id":"ce4bgj92rcd13ifvqbe0","pricing_plan_id":"cebpf4jnsgd1na2vs0mg"},{"bike_id":"aec78a62-6e5d-409d-8248-259d8204ee4a","system_id":"levelo_inurba_marseille","lat":43.29197,"lon":5.39328,"is_reserved":false,"is_disabled":false,"rental_uris":{"android":"levelo://app?vid=aec78a62-6e5d-409d-8248-259d8204ee4a","ios":"levelo://app?vid=aec78a62-6e5d-409d-8248-259d8204ee4a"},"vehicle_type_id":"4","last_reported":1768666315,"current_range_meters":8800,"station_id":"ce4bh192rcd13ifvqdd0","pricing_plan_id":"cebpf4jnsgd1na2vs0mg"},{"bike_id":"34c66c70-d3e2-4b84-b84c-2f238c05e82f","system_id":"levelo_inurba_marseille","lat":43.32351,"lon":5.36739,"is_reserved":false,"is_disabled":false,"rental_uris":{"android":"levelo://app?vid=34c66c70-d3e2-4b84-b84c-2f238c05e82f","ios":"levelo://app?vid=34c66c70-d3e2-4b84-b84c-2f238c05e82f"},"vehicle_type_id":"4","last_reported":1768666315,"current_range_meters":8800,"station_id":"ce4bhsh2rcd13ifvqi2g","pricing_plan_id":"cebpf4jnsgd1na2vs0mg"},{"bike_id":"6ac2129d-800c-41e6-9811-cc59d8b826dc","system_id":"levelo_inurba_marseille","lat":43.28521,"lon":5.44167,"is_reserved":false,"is_disabled":false,"rental_uris":{"android":"levelo://app?vid=6ac2129d-800c-41e6-9811-cc59d8b826dc","ios":"levelo://app?vid=6ac2129d-800c-41e6-9811-cc59d8b826dc"},"vehicle_type_id":"4","last_reported":1768666315,"current_range_meters":8800,"station_id":"","pricing_plan_id":"cebpf4jnsgd1na2vs0mg"},{"bike_id":"dc2a51a7-64f4-4158-b84a-2791d926c053","system_id":"levelo_inurba_marseille","lat":43.31302,"lon":5.38185,"is_reserved":false,"is_disabled":false,"rental_uris":{"android":"levelo://app?vid=dc2a51a7-64f4-4158-b84a-2791d926c053","ios":"levelo://app?vid=dc2a51a7-64f4-4158-b84a-2791d926c053"},"vehicle_type_id":"4","last_reported":1768666315,"current_range_meters":8800,"station_id":"","pricing_plan_id":"cebpf4jnsgd1na2vs0mg"},{"bike_id":"263f1128-467e-4f61-b6b4-edae61a09b6f","system_id":"levelo_inurba_marseille","lat":43.281,"lon":5.37848,"is_reserved":false,"is_disabled":false,"rental_uris":{"android":"levelo://app?vid=263f1128-467e-4f61-b6b4-edae61a09b6f","ios":"levelo://app?vid=263f1128-467e-4f61-b6b4-edae61a09b6f"},"vehicle_type_id":"4","last_reported":1768666315,"current_range_meters":8800,"station_id":"ce4bha12rcd13ifvqee0","pricing_plan_id":"cebpf4jnsgd1na2vs0mg"},{"bike_id":"21fd45ec-3ea3-46cd-b2be-783cf5a92f21","system_id":"levelo_inurba_marseille","lat":43.2949,"lon":5.43272,"is_reserved":false,"is_disabled":false,"rental_uris":{"android":"levelo://app?vid=21fd45ec-3ea3-46cd-b2be-783cf5a92f21","ios":"levelo://app?vid=21fd45ec-3ea3-46cd-b2be-783cf5a92f21"},"vehicle_type_id":"4","last_reported":1768666315,"current_range_meters":8800,"station_id":"st_d3j5ugp08ojc73fj9d10","pricing_plan_id":"cebpf4jnsgd1na2vs0mg"},{"bike_id":"59908df7-a301-4624-ad72-8e10f9564c6e","system_id":"levelo_inurba_marseille","lat":43.31275,"lon":5.40167,"is_reserved":false,"is_disabled":false,"rental_uris":{"android":"levelo://app?vid=59908df7-a301-4624-ad72-8e10f9564c6e","ios":"levelo://app?vid=59908df7-a301-4624-ad72-8e10f9564c6e"},"vehicle_type_id":"4","last_reported":1768666315,"current_range_meters":8800,"station_id":"ce4bh092rcd13ifvqd30","pricing_plan_id":"cebpf4jnsgd1na2vs0mg"},{"bike_id":"e7214ada-a28a-4f98-a0df-b615cdc95b49","system_id":"levelo_inurba_marseille","lat":43.246615,"lon":5.381539,"is_reserved":false,"is_disabled":false,"rental_uris":{"android":"levelo://app?vid=e7214ada-a28a-4f98-a0df-b615cdc95b49","ios":"levelo://app?vid=e7214ada-a28a-4f98-a0df-b615cdc95b49"},"vehicle_type_id":"4","last_reported":1768666315,"current_range_meters":8800,"station_id":"ce4bhih2rcd13ifvqfr0","pricing_plan_id":"cebpf4jnsgd1na2vs0mg"},{"bike_id":"791cb4d0-546f-4f96-b131-34cd64d89ad7","system_id":"levelo_inurba_marseille","lat":43.2815,"lon":5.42646,"is_reserved":false,"is_disabled":false,"rental_uris":{"android":"levelo://app?vid=791cb4d0-546f-4f96-b131-34cd64d89ad7","ios":"levelo://app?vid=791cb4d0-546f-4f96-b131-34cd64d89ad7"},"vehicle_type_id":"4","last_reported":1768666315,"current_range_meters":8800,"station_id":"ce4bhnh2rcd13ifvqgug","pricing_plan_id":"cebpf4jnsgd1na2vs0mg"},{"bike_id":"d1ddeb92-ffae-470b-ad93-50908d2d91a7","system_id":"levelo_inurba_marseille","lat":43.34112,"lon":5.40949,"is_reserved":false,"is_disabled":false,"rental_uris":{"android":"levelo://app?vid=d1ddeb92-ffae-470b-ad93-50908d2d91a7","ios":"levelo://app?vid=d1ddeb92-ffae-470b-ad93-50908d2d91a7"},"vehicle_type_id":"4","last_reported":1768666315,"current_range_meters":8800,"station_id":"ce4bhqh2rcd13ifvqhlg","pricing_plan_id":"cebpf4jnsgd1na2vs0mg"},{"bike_id":"bcda77ef-d425-4420-9325-feb91e21d37e","system_id":"levelo_inurba_marseille","lat":43.28485,"lon":5.48379,"is_reserved":false,"is_disabled":false,"rental_uris":{"android":"levelo://app?vid=bcda77ef-d425-4420-9325-feb91e21d37e","ios":"levelo://app?vid=bcda77ef-d425-4420-9325-feb91e21d37e"},"vehicle_type_id":"4","last_reported":1768666315,"current_range_meters":8800,"station_id":"","pricing_plan_id":"cebpf4jnsgd1na2vs0mg"},{"bike_id":"aedcb933-8534-43a8-86ab-d9a83fef5872","system_id":"levelo_inurba_marseille","lat":43.31368,"lon":5.385031,"is_reserved":false,"is_disabled":false,"rental_uris":{"android":"levelo://app?vid=aedcb933-8534-43a8-86ab-d9a83fef5872","ios":"levelo://app?vid=aedcb933-8534-43a8-86ab-d9a83fef5872"},"vehicle_type_id":"4","last_reported":1768666315,"current_range_meters":8800,"station_id":"ce4bgt92rcd13ifvqcf0","pricing_plan_id":"cebpf4jnsgd1na2vs0mg"},{"bike_id":"9271202c-ac33-4e20-a909-7ef90d7a11c4","system_id":"levelo_inurba_marseille","lat":43.30617,"lon":5.37622,"is_reserved":false,"is_disabled":false,"rental_uris":{"android":"levelo://app?vid=9271202c-ac33-4e20-a909-7ef90d7a11c4","ios":"levelo://app?vid=9271202c-ac33-4e20-a909-7ef90d7a11c4"},"vehicle_type_id":"4","last_reported":1768666315,"current_range_meters":8800,"station_id":"","pricing_plan_id":"cebpf4jnsgd1na2vs0mg"},{"bike_id":"463320f5-e892-41ba-802c-8be01b12e869","system_id":"levelo_inurba_marseille","lat":43.2294,"lon":5.35374,"is_reserved":false,"is_disabled":false,"rental_uris":{"android":"levelo://app?vid=463320f5-e892-41ba-802c-8be01b12e869","ios":"levelo://app?vid=463320f5-e892-41ba-802c-8be01b12e869"},"vehicle_type_id":"4","last_reported":1768666315,"current_range_meters":8800,"station_id":"cpo3532slgdg3j2ikp40","pricing_plan_id":"cebpf4jnsgd1na2vs0mg"},{"bike_id":"0cdf86fa-1d6f-4140-aa62-b930ff22d688","system_id":"levelo_inurba_marseille","lat":43.25332,"lon":5.42181,"is_reserved":false,"is_disabled":false,"rental_uris":{"android":"levelo://app?vid=0cdf86fa-1d6f-4140-aa62-b930ff22d688","ios":"levelo://app?vid=0cdf86fa-1d6f-4140-aa62-b930ff22d688"},"vehicle_type_id":"4","last_reported":1768666315,"current_range_meters":9200,"station_id":"st_d2m65c5bi1j21697t3ng","pricing_plan_id":"cebpf4jnsgd1na2vs0mg"},{"bike_id":"2fa7b407-6340-4fb7-b9f7-523ee592e1a0","system_id":"levelo_inurba_marseille","lat":43.25589,"lon":5.38228,"is_reserved":false,"is_disabled":false,"rental_uris":{"android":"levelo://app?vid=2fa7b407-6340-4fb7-b9f7-523ee592e1a0","ios":"levelo://app?vid=2fa7b407-6340-4fb7-b9f7-523ee592e1a0"},"vehicle_type_id":"4","last_reported":1768666315,"current_range_meters":9200,"station_id":"ce4bhih2rcd13ifvqfs0","pricing_plan_id":"cebpf4jnsgd1na2vs0mg"},{"bike_id":"6116392c-6b86-47a5-bcc7-c95cae236d34","system_id":"levelo_inurba_marseille","lat":43.27788,"lon":5.40727,"is_reserved":false,"is_disabled":false,"rental_uris":{"android":"levelo://app?vid=6116392c-6b86-47a5-bcc7-c95cae236d34","ios":"levelo://app?vid=6116392c-6b86-47a5-bcc7-c95cae236d34"},"vehicle_type_id":"4","last_reported":1768666315,"current_range_meters":9200,"station_id":"ce4bhnh2rcd13ifvqgtg","pricing_plan_id":"cebpf4jnsgd1na2vs0mg"},{"bike_id":"e2f44a6e-a3c9-4120-8dae-09410b69fbfe","system_id":"levelo_inurba_marseille","lat":43.30539,"lon":5.36674,"is_reserved":false,"is_disabled":false,"rental_uris":{"android":"levelo://app?vid=e2f44a6e-a3c9-4120-8dae-09410b69fbfe","ios":"levelo://app?vid=e2f44a6e-a3c9-4120-8dae-09410b69fbfe"},"vehicle_type_id":"4","last_reported":1768666315,"current_range_meters":9200,"station_id":"ce4bgrp2rcd13ifvqc9g","pricing_plan_id":"cebpf4jnsgd1na2vs0mg"},{"bike_id":"07bb76d4-422a-4c87-90ad-e08ace96a760","system_id":"levelo_inurba_marseille","lat":43.24416,"lon":5.40069,"is_reserved":false,"is_disabled":false,"rental_uris":{"android":"levelo://app?vid=07bb76d4-422a-4c87-90ad-e08ace96a760","ios":"levelo://app?vid=07bb76d4-422a-4c87-90ad-e08ace96a760"},"vehicle_type_id":"4","last_reported":1768666315,"current_range_meters":9200,"station_id":"","pricing_plan_id":"cebpf4jnsgd1na2vs0mg"},{"bike_id":"df1c1fb5-42af-49b5-91cb-44f332fdf3bf","system_id":"levelo_inurba_marseille","lat":43.28519,"lon":5.44115,"is_reserved":false,"is_disabled":false,"rental_uris":{"android":"levelo://app?vid=df1c1fb5-42af-49b5-91cb-44f332fdf3bf","ios":"levelo://app?vid=df1c1fb5-42af-49b5-91cb-44f332fdf3bf"},"vehicle_type_id":"4","last_reported":1768666315,"current_range_meters":9200,"station_id":"st_d3j3df2ikq2c7380ej80","pricing_plan_id":"cebpf4jnsgd1na2vs0mg"},{"bike_id":"9faf4369-99d5-42a9-9b6c-b610c461485b","system_id":"levelo_inurba_marseille","lat":43.24407,"lon":5.37028,"is_reserved":false,"is_disabled":false,"rental_uris":{"android":"levelo://app?vid=9faf4369-99d5-42a9-9b6c-b610c461485b","ios":"levelo://app?vid=9faf4369-99d5-42a9-9b6c-b610c461485b"},"vehicle_type_id":"4","last_reported":1768666315,"current_range_meters":9200,"station_id":"ce4bhhh2rcd13ifvqfk0","pricing_plan_id":"cebpf4jnsgd1na2vs0mg"},{"bike_id":"8de8b54d-ad44-4bfe-b86e-f06e0a2ec0cd","system_id":"levelo_inurba_marseille","lat":43.315819,"lon":5.379215,"is_reserved":false,"is_disabled":false,"rental_uris":{"android":"levelo://app?vid=8de8b54d-ad44-4bfe-b86e-f06e0a2ec0cd","ios":"levelo://app?vid=8de8b54d-ad44-4bfe-b86e-f06e0a2ec0cd"},"vehicle_type_id":"4","last_reported":1768666315,"current_range_meters":9200,"station_id":"","pricing_plan_id":"cebpf4jnsgd1na2vs0mg"},{"bike_id":"d3ef2411-121c-4c1a-96ea-e165aa553cce","system_id":"levelo_inurba_marseille","lat":43.25494,"lon":5.37661,"is_reserved":false,"is_disabled":false,"rental_uris":{"android":"levelo://app?vid=d3ef2411-121c-4c1a-96ea-e165aa553cce","ios":"levelo://app?vid=d3ef2411-121c-4c1a-96ea-e165aa553cce"},"vehicle_type_id":"4","last_reported":1768666315,"current_range_meters":9200,"station_id":"ce4bhh12rcd13ifvqff0","pricing_plan_id":"cebpf4jnsgd1na2vs0mg"},{"bike_id":"c55653aa-3b40-49b8-ab2e-4981db381d01","system_id":"levelo_inurba_marseille","lat":43.27983,"lon":5.41657,"is_reserved":false,"is_disabled":false,"rental_uris":{"android":"levelo://app?vid=c55653aa-3b40-49b8-ab2e-4981db381d01","ios":"levelo://app?vid=c55653aa-3b40-49b8-ab2e-4981db381d01"},"vehicle_type_id":"4","last_reported":1768666315,"current_range_meters":9600,"station_id":"ce4bho12rcd13ifvqh1g","pricing_plan_id":"cebpf4jnsgd1na2vs0mg"},{"bike_id":"4946eb11-667b-4be5-bc35-6aa618cf8bcb","system_id":"levelo_inurba_marseille","lat":43.22555,"lon":5.41632,"is_reserved":false,"is_disabled":false,"rental_uris":{"android":"levelo://app?vid=4946eb11-667b-4be5-bc35-6aa618cf8bcb","ios":"levelo://app?vid=4946eb11-667b-4be5-bc35-6aa618cf8bcb"},"vehicle_type_id":"4","last_reported":1768666315,"current_range_meters":9600,"station_id":"st_d2o4gvlbi1j2169b742g","pricing_plan_id":"cebpf4jnsgd1na2vs0mg"},{"bike_id":"e6d75ad0-5dbc-41cc-851c-daab63b696b1","system_id":"levelo_inurba_marseille","lat":43.29041,"lon":5.3755,"is_reserved":false,"is_disabled":false,"rental_uris":{"android":"levelo://app?vid=e6d75ad0-5dbc-41cc-851c-daab63b696b1","ios":"levelo://app?vid=e6d75ad0-5dbc-41cc-851c-daab63b696b1"},"vehicle_type_id":"4","last_reported":1768666315,"current_range_meters":9600,"station_id":"ce4bh692rcd13ifvqe90","pricing_plan_id":"cebpf4jnsgd1na2vs0mg"},{"bike_id":"0525c6b7-4a00-417a-ac16-49b1063ff2f0","system_id":"levelo_inurba_marseille","lat":43.30152,"lon":5.38083,"is_reserved":false,"is_disabled":false,"rental_uris":{"android":"levelo://app?vid=0525c6b7-4a00-417a-ac16-49b1063ff2f0","ios":"levelo://app?vid=0525c6b7-4a00-417a-ac16-49b1063ff2f0"},"vehicle_type_id":"4","last_reported":1768666315,"current_range_meters":9600,"station_id":"ce4bgjp2rcd13ifvqbh0","pricing_plan_id":"cebpf4jnsgd1na2vs0mg"},{"bike_id":"84759154-9b6c-43c5-b12d-6b3ea6a629e0","system_id":"levelo_inurba_marseille","lat":43.30559,"lon":5.36525,"is_reserved":false,"is_disabled":false,"rental_uris":{"android":"levelo://app?vid=84759154-9b6c-43c5-b12d-6b3ea6a629e0","ios":"levelo://app?vid=84759154-9b6c-43c5-b12d-6b3ea6a629e0"},"vehicle_type_id":"4","last_reported":1768666315,"current_range_meters":9600,"station_id":"ce4bgs12rcd13ifvqcag","pricing_plan_id":"cebpf4jnsgd1na2vs0mg"},{"bike_id":"39f21520-d6d3-4ad0-be99-c2b4a275640f","system_id":"levelo_inurba_marseille","lat":43.30419,"lon":5.41258,"is_reserved":false,"is_disabled":false,"rental_uris":{"android":"levelo://app?vid=39f21520-d6d3-4ad0-be99-c2b4a275640f","ios":"levelo://app?vid=39f21520-d6d3-4ad0-be99-c2b4a275640f"},"vehicle_type_id":"4","last_reported":1768666315,"current_range_meters":9600,"station_id":"ce4bhop2rcd13ifvqh8g","pricing_plan_id":"cebpf4jnsgd1na2vs0mg"},{"bike_id":"848b23ea-2c41-462c-8a29-ee9c18139e8c","system_id":"levelo_inurba_marseille","lat":43.31226,"lon":5.36896,"is_reserved":false,"is_disabled":false,"rental_uris":{"android":"levelo://app?vid=848b23ea-2c41-462c-8a29-ee9c18139e8c","ios":"levelo://app?vid=848b23ea-2c41-462c-8a29-ee9c18139e8c"},"vehicle_type_id":"4","last_reported":1768666315,"current_range_meters":9600,"station_id":"ce4bgl92rcd13ifvqbq0","pricing_plan_id":"cebpf4jnsgd1na2vs0mg"},{"bike_id":"5ee2bfc8-b82e-45fd-8d4d-9cf770c36d55","system_id":"levelo_inurba_marseille","lat":43.241683,"lon":5.363979,"is_reserved":false,"is_disabled":false,"rental_uris":{"android":"levelo://app?vid=5ee2bfc8-b82e-45fd-8d4d-9cf770c36d55","ios":"levelo://app?vid=5ee2bfc8-b82e-45fd-8d4d-9cf770c36d55"},"vehicle_type_id":"4","last_reported":1768666315,"current_range_meters":9600,"station_id":"cpo36qri1sfpv3e86is0","pricing_plan_id":"cebpf4jnsgd1na2vs0mg"},{"bike_id":"41fc3c60-9f72-4b43-8ced-80730bf555c4","system_id":"levelo_inurba_marseille","lat":43.298799,"lon":5.389149,"is_reserved":false,"is_disabled":false,"rental_uris":{"android":"levelo://app?vid=41fc3c60-9f72-4b43-8ced-80730bf555c4","ios":"levelo://app?vid=41fc3c60-9f72-4b43-8ced-80730bf555c4"},"vehicle_type_id":"4","last_reported":1768666315,"current_range_meters":9600,"station_id":"ce4bh392rcd13ifvqdl0","pricing_plan_id":"cebpf4jnsgd1na2vs0mg"},{"bike_id":"aa15a51a-9791-4194-8067-5640d12a247c","system_id":"levelo_inurba_marseille","lat":43.24168,"lon":5.364066,"is_reserved":false,"is_disabled":false,"rental_uris":{"android":"levelo://app?vid=aa15a51a-9791-4194-8067-5640d12a247c","ios":"levelo://app?vid=aa15a51a-9791-4194-8067-5640d12a247c"},"vehicle_type_id":"4","last_reported":1768666315,"current_range_meters":9600,"station_id":"cpo36qri1sfpv3e86is0","pricing_plan_id":"cebpf4jnsgd1na2vs0mg"},{"bike_id":"4a28a0a5-92a3-4f41-871e-f75bf8fb68f3","system_id":"levelo_inurba_marseille","lat":43.3038,"lon":5.40978,"is_reserved":false,"is_disabled":false,"rental_uris":{"android":"levelo://app?vid=4a28a0a5-92a3-4f41-871e-f75bf8fb68f3","ios":"levelo://app?vid=4a28a0a5-92a3-4f41-871e-f75bf8fb68f3"},"vehicle_type_id":"4","last_reported":1768666315,"current_range_meters":9600,"station_id":"","pricing_plan_id":"cebpf4jnsgd1na2vs0mg"},{"bike_id":"4e6fefb6-1d6d-4159-8f32-f4ab5cc98ccb","system_id":"levelo_inurba_marseille","lat":43.23195,"lon":5.35544,"is_reserved":false,"is_disabled":false,"rental_uris":{"android":"levelo://app?vid=4e6fefb6-1d6d-4159-8f32-f4ab5cc98ccb","ios":"levelo://app?vid=4e6fefb6-1d6d-4159-8f32-f4ab5cc98ccb"},"vehicle_type_id":"4","last_reported":1768666315,"current_range_meters":9600,"station_id":"ce4bhu92rcd13ifvqi70","pricing_plan_id":"cebpf4jnsgd1na2vs0mg"},{"bike_id":"8554da11-4194-4500-a15a-11ea80c8ee1a","system_id":"levelo_inurba_marseille","lat":43.26246,"lon":5.37448,"is_reserved":false,"is_disabled":false,"rental_uris":{"android":"levelo://app?vid=8554da11-4194-4500-a15a-11ea80c8ee1a","ios":"levelo://app?vid=8554da11-4194-4500-a15a-11ea80c8ee1a"},"vehicle_type_id":"4","last_reported":1768666315,"current_range_meters":10000,"station_id":"","pricing_plan_id":"cebpf4jnsgd1na2vs0mg"},{"bike_id":"0f5ec0cb-2c86-4f19-8ccc-6a28af6617aa","system_id":"levelo_inurba_marseille","lat":43.29038,"lon":5.39968,"is_reserved":false,"is_disabled":false,"rental_uris":{"android":"levelo://app?vid=0f5ec0cb-2c86-4f19-8ccc-6a28af6617aa","ios":"levelo://app?vid=0f5ec0cb-2c86-4f19-8ccc-6a28af6617aa"},"vehicle_type_id":"4","last_reported":1768666315,"current_range_meters":10000,"station_id":"ce4bh392rcd13ifvqdm0","pricing_plan_id":"cebpf4jnsgd1na2vs0mg"},{"bike_id":"1ec247ef-5ae2-4481-a8f1-83d49de262d8","system_id":"levelo_inurba_marseille","lat":43.255809,"lon":5.38246,"is_reserved":false,"is_disabled":false,"rental_uris":{"android":"levelo://app?vid=1ec247ef-5ae2-4481-a8f1-83d49de262d8","ios":"levelo://app?vid=1ec247ef-5ae2-4481-a8f1-83d49de262d8"},"vehicle_type_id":"4","last_reported":1768666315,"current_range_meters":10000,"station_id":"ce4bhih2rcd13ifvqfs0","pricing_plan_id":"cebpf4jnsgd1na2vs0mg"},{"bike_id":"d93446c8-bfaf-4bae-aed5-b74b91cd7228","system_id":"levelo_inurba_marseille","lat":43.28435,"lon":5.39205,"is_reserved":false,"is_disabled":false,"rental_uris":{"android":"levelo://app?vid=d93446c8-bfaf-4bae-aed5-b74b91cd7228","ios":"levelo://app?vid=d93446c8-bfaf-4bae-aed5-b74b91cd7228"},"vehicle_type_id":"4","last_reported":1768666315,"current_range_meters":10000,"station_id":"ce4bhoh2rcd13ifvqh5g","pricing_plan_id":"cebpf4jnsgd1na2vs0mg"},{"bike_id":"dffb0331-828b-49cd-9908-65276347947a","system_id":"levelo_inurba_marseille","lat":43.29606,"lon":5.37721,"is_reserved":false,"is_disabled":false,"rental_uris":{"android":"levelo://app?vid=dffb0331-828b-49cd-9908-65276347947a","ios":"levelo://app?vid=dffb0331-828b-49cd-9908-65276347947a"},"vehicle_type_id":"4","last_reported":1768666315,"current_range_meters":10000,"station_id":"ce4bgi92rcd13ifvqb90","pricing_plan_id":"cebpf4jnsgd1na2vs0mg"},{"bike_id":"d311ffc7-6d26-41ec-96e5-fc35ec52cdc7","system_id":"levelo_inurba_marseille","lat":43.32357,"lon":5.3673,"is_reserved":false,"is_disabled":false,"rental_uris":{"android":"levelo://app?vid=d311ffc7-6d26-41ec-96e5-fc35ec52cdc7","ios":"levelo://app?vid=d311ffc7-6d26-41ec-96e5-fc35ec52cdc7"},"vehicle_type_id":"4","last_reported":1768666315,"current_range_meters":10000,"station_id":"ce4bhsh2rcd13ifvqi2g","pricing_plan_id":"cebpf4jnsgd1na2vs0mg"},{"bike_id":"735f9e0e-9077-4568-9909-73d3fe14dc0f","system_id":"levelo_inurba_marseille","lat":43.25132,"lon":5.40333,"is_reserved":false,"is_disabled":false,"rental_uris":{"android":"levelo://app?vid=735f9e0e-9077-4568-9909-73d3fe14dc0f","ios":"levelo://app?vid=735f9e0e-9077-4568-9909-73d3fe14dc0f"},"vehicle_type_id":"4","last_reported":1768666315,"current_range_meters":10000,"station_id":"ce4bhlh2rcd13ifvqgig","pricing_plan_id":"cebpf4jnsgd1na2vs0mg"},{"bike_id":"3320b44f-28ee-4e99-ab1b-4906eed292fe","system_id":"levelo_inurba_marseille","lat":43.31482,"lon":5.37269,"is_reserved":false,"is_disabled":false,"rental_uris":{"android":"levelo://app?vid=3320b44f-28ee-4e99-ab1b-4906eed292fe","ios":"levelo://app?vid=3320b44f-28ee-4e99-ab1b-4906eed292fe"},"vehicle_type_id":"4","last_reported":1768666315,"current_range_meters":10000,"station_id":"ce4bgt12rcd13ifvqcd0","pricing_plan_id":"cebpf4jnsgd1na2vs0mg"},{"bike_id":"456964b3-8950-4d5b-a285-c21511960b94","system_id":"levelo_inurba_marseille","lat":43.30924,"lon":5.40146,"is_reserved":false,"is_disabled":false,"rental_uris":{"android":"levelo://app?vid=456964b3-8950-4d5b-a285-c21511960b94","ios":"levelo://app?vid=456964b3-8950-4d5b-a285-c21511960b94"},"vehicle_type_id":"4","last_reported":1768666315,"current_range_meters":10000,"station_id":"ce4bgvp2rcd13ifvqct0","pricing_plan_id":"cebpf4jnsgd1na2vs0mg"},{"bike_id":"724da048-f937-4446-a0b2-3f881c76c59a","system_id":"levelo_inurba_marseille","lat":43.281532,"lon":5.426403,"is_reserved":false,"is_disabled":false,"rental_uris":{"android":"levelo://app?vid=724da048-f937-4446-a0b2-3f881c76c59a","ios":"levelo://app?vid=724da048-f937-4446-a0b2-3f881c76c59a"},"vehicle_type_id":"4","last_reported":1768666315,"current_range_meters":10000,"station_id":"ce4bhnh2rcd13ifvqgug","pricing_plan_id":"cebpf4jnsgd1na2vs0mg"},{"bike_id":"02ab98c5-1cd1-4d33-a034-5f5e1f65b38a","system_id":"levelo_inurba_marseille","lat":43.28488,"lon":5.48382,"is_reserved":false,"is_disabled":false,"rental_uris":{"android":"levelo://app?vid=02ab98c5-1cd1-4d33-a034-5f5e1f65b38a","ios":"levelo://app?vid=02ab98c5-1cd1-4d33-a034-5f5e1f65b38a"},"vehicle_type_id":"4","last_reported":1768666315,"current_range_meters":10000,"station_id":"","pricing_plan_id":"cebpf4jnsgd1na2vs0mg"},{"bike_id":"bf443dfe-f19a-49ca-ab0a-ace202cd3776","system_id":"levelo_inurba_marseille","lat":43.30169,"lon":5.37417,"is_reserved":false,"is_disabled":false,"rental_uris":{"android":"levelo://app?vid=bf443dfe-f19a-49ca-ab0a-ace202cd3776","ios":"levelo://app?vid=bf443dfe-f19a-49ca-ab0a-ace202cd3776"},"vehicle_type_id":"4","last_reported":1768666315,"current_range_meters":10000,"station_id":"ce4bgs92rcd13ifvqcc0","pricing_plan_id":"cebpf4jnsgd1na2vs0mg"},{"bike_id":"39f1c09a-b59e-418c-a7a7-324edbd26b6b","system_id":"levelo_inurba_marseille","lat":43.299711,"lon":5.384896,"is_reserved":false,"is_disabled":false,"rental_uris":{"android":"levelo://app?vid=39f1c09a-b59e-418c-a7a7-324edbd26b6b","ios":"levelo://app?vid=39f1c09a-b59e-418c-a7a7-324edbd26b6b"},"vehicle_type_id":"4","last_reported":1768666315,"current_range_meters":10000,"station_id":"ce4bh012rcd13ifvqd10","pricing_plan_id":"cebpf4jnsgd1na2vs0mg"},{"bike_id":"ea5e8155-59dc-4950-bbbd-3878dd238067","system_id":"levelo_inurba_marseille","lat":43.27319,"lon":5.39097,"is_reserved":false,"is_disabled":false,"rental_uris":{"android":"levelo://app?vid=ea5e8155-59dc-4950-bbbd-3878dd238067","ios":"levelo://app?vid=ea5e8155-59dc-4950-bbbd-3878dd238067"},"vehicle_type_id":"4","last_reported":1768666315,"current_range_meters":10000,"station_id":"ce4bhgp2rcd13ifvqfe0","pricing_plan_id":"cebpf4jnsgd1na2vs0mg"},{"bike_id":"6571c642-58c5-4ed4-8f85-2d23879ef9cc","system_id":"levelo_inurba_marseille","lat":43.24943,"lon":5.40488,"is_reserved":false,"is_disabled":false,"rental_uris":{"android":"levelo://app?vid=6571c642-58c5-4ed4-8f85-2d23879ef9cc","ios":"levelo://app?vid=6571c642-58c5-4ed4-8f85-2d23879ef9cc"},"vehicle_type_id":"4","last_reported":1768666315,"current_range_meters":10000,"station_id":"st_d2ngiaodas8pm72gd1h0","pricing_plan_id":"cebpf4jnsgd1na2vs0mg"},{"bike_id":"bb74209e-c6a8-44ea-96c7-046161e5ebb1","system_id":"levelo_inurba_marseille","lat":43.22933,"lon":5.35374,"is_reserved":false,"is_disabled":false,"rental_uris":{"android":"levelo://app?vid=bb74209e-c6a8-44ea-96c7-046161e5ebb1","ios":"levelo://app?vid=bb74209e-c6a8-44ea-96c7-046161e5ebb1"},"vehicle_type_id":"4","last_reported":1768666315,"current_range_meters":10000,"station_id":"cpo3532slgdg3j2ikp40","pricing_plan_id":"cebpf4jnsgd1na2vs0mg"},{"bike_id":"34c0cb23-2234-42f8-a3e0-d661304c9874","system_id":"levelo_inurba_marseille","lat":43.2848,"lon":5.38415,"is_reserved":false,"is_disabled":false,"rental_uris":{"android":"levelo://app?vid=34c0cb23-2234-42f8-a3e0-d661304c9874","ios":"levelo://app?vid=34c0cb23-2234-42f8-a3e0-d661304c9874"},"vehicle_type_id":"4","last_reported":1768666315,"current_range_meters":10000,"station_id":"ce4bh512rcd13ifvqe3g","pricing_plan_id":"cebpf4jnsgd1na2vs0mg"},{"bike_id":"a8f5c21d-88da-440c-b956-bd918d0088fd","system_id":"levelo_inurba_marseille","lat":43.23211,"lon":5.35557,"is_reserved":false,"is_disabled":false,"rental_uris":{"android":"levelo://app?vid=a8f5c21d-88da-440c-b956-bd918d0088fd","ios":"levelo://app?vid=a8f5c21d-88da-440c-b956-bd918d0088fd"},"vehicle_type_id":"4","last_reported":1768666315,"current_range_meters":10800,"station_id":"ce4bhu92rcd13ifvqi70","pricing_plan_id":"cebpf4jnsgd1na2vs0mg"},{"bike_id":"90ae9b61-bd04-438f-aa50-b55b97b5816a","system_id":"levelo_inurba_marseille","lat":43.21745,"lon":5.34615,"is_reserved":false,"is_disabled":false,"rental_uris":{"android":"levelo://app?vid=90ae9b61-bd04-438f-aa50-b55b97b5816a","ios":"levelo://app?vid=90ae9b61-bd04-438f-aa50-b55b97b5816a"},"vehicle_type_id":"4","last_reported":1768666315,"current_range_meters":10800,"station_id":"","pricing_plan_id":"cebpf4jnsgd1na2vs0mg"},{"bike_id":"3b7e17bf-173a-4a4c-8fcf-ba8671333d50","system_id":"levelo_inurba_marseille","lat":43.24712,"lon":5.37422,"is_reserved":false,"is_disabled":false,"rental_uris":{"android":"levelo://app?vid=3b7e17bf-173a-4a4c-8fcf-ba8671333d50","ios":"levelo://app?vid=3b7e17bf-173a-4a4c-8fcf-ba8671333d50"},"vehicle_type_id":"4","last_reported":1768666315,"current_range_meters":10800,"station_id":"","pricing_plan_id":"cebpf4jnsgd1na2vs0mg"},{"bike_id":"3c0db938-bad2-48de-97d0-01d781736ce6","system_id":"levelo_inurba_marseille","lat":43.28145,"lon":5.4265,"is_reserved":false,"is_disabled":false,"rental_uris":{"android":"levelo://app?vid=3c0db938-bad2-48de-97d0-01d781736ce6","ios":"levelo://app?vid=3c0db938-bad2-48de-97d0-01d781736ce6"},"vehicle_type_id":"4","last_reported":1768666315,"current_range_meters":10800,"station_id":"ce4bhnh2rcd13ifvqgug","pricing_plan_id":"cebpf4jnsgd1na2vs0mg"},{"bike_id":"4bbdb4cb-745d-42a2-9ef8-6bac8c04e71a","system_id":"levelo_inurba_marseille","lat":43.31364,"lon":5.38493,"is_reserved":false,"is_disabled":false,"rental_uris":{"android":"levelo://app?vid=4bbdb4cb-745d-42a2-9ef8-6bac8c04e71a","ios":"levelo://app?vid=4bbdb4cb-745d-42a2-9ef8-6bac8c04e71a"},"vehicle_type_id":"4","last_reported":1768666315,"current_range_meters":10800,"station_id":"ce4bgt92rcd13ifvqcf0","pricing_plan_id":"cebpf4jnsgd1na2vs0mg"},{"bike_id":"b66b6016-624c-4562-9d10-aef2e9e42742","system_id":"levelo_inurba_marseille","lat":43.29279,"lon":5.3683,"is_reserved":false,"is_disabled":false,"rental_uris":{"android":"levelo://app?vid=b66b6016-624c-4562-9d10-aef2e9e42742","ios":"levelo://app?vid=b66b6016-624c-4562-9d10-aef2e9e42742"},"vehicle_type_id":"4","last_reported":1768666315,"current_range_meters":10800,"station_id":"ce4bhbp2rcd13ifvqesg","pricing_plan_id":"cebpf4jnsgd1na2vs0mg"},{"bike_id":"458b86b1-af07-4017-adae-6b0797bf4c6a","system_id":"levelo_inurba_marseille","lat":43.24482,"lon":5.42542,"is_reserved":false,"is_disabled":false,"rental_uris":{"android":"levelo://app?vid=458b86b1-af07-4017-adae-6b0797bf4c6a","ios":"levelo://app?vid=458b86b1-af07-4017-adae-6b0797bf4c6a"},"vehicle_type_id":"4","last_reported":1768666315,"current_range_meters":10800,"station_id":"st_d4a3vfp97mjs738cd8kg","pricing_plan_id":"cebpf4jnsgd1na2vs0mg"},{"bike_id":"84241c97-901a-4437-9050-53f77eb7d9ab","system_id":"levelo_inurba_marseille","lat":43.26548,"lon":5.37313,"is_reserved":false,"is_disabled":false,"rental_uris":{"android":"levelo://app?vid=84241c97-901a-4437-9050-53f77eb7d9ab","ios":"levelo://app?vid=84241c97-901a-4437-9050-53f77eb7d9ab"},"vehicle_type_id":"4","last_reported":1768666315,"current_range_meters":11200,"station_id":"ce4bhg12rcd13ifvqf70","pricing_plan_id":"cebpf4jnsgd1na2vs0mg"},{"bike_id":"45bb7221-e7aa-41a9-b651-ce7642ffb4d6","system_id":"levelo_inurba_marseille","lat":43.27814,"lon":5.40714,"is_reserved":false,"is_disabled":false,"rental_uris":{"android":"levelo://app?vid=45bb7221-e7aa-41a9-b651-ce7642ffb4d6","ios":"levelo://app?vid=45bb7221-e7aa-41a9-b651-ce7642ffb4d6"},"vehicle_type_id":"4","last_reported":1768666315,"current_range_meters":11200,"station_id":"ce4bhnh2rcd13ifvqgtg","pricing_plan_id":"cebpf4jnsgd1na2vs0mg"},{"bike_id":"624c3f9e-b4bf-4a59-a9f9-4a8609207ccf","system_id":"levelo_inurba_marseille","lat":43.3149,"lon":5.37281,"is_reserved":false,"is_disabled":false,"rental_uris":{"android":"levelo://app?vid=624c3f9e-b4bf-4a59-a9f9-4a8609207ccf","ios":"levelo://app?vid=624c3f9e-b4bf-4a59-a9f9-4a8609207ccf"},"vehicle_type_id":"4","last_reported":1768666315,"current_range_meters":11200,"station_id":"ce4bgt12rcd13ifvqcd0","pricing_plan_id":"cebpf4jnsgd1na2vs0mg"},{"bike_id":"650dcff2-c463-4769-9908-dcf7246837a7","system_id":"levelo_inurba_marseille","lat":43.27172,"lon":5.40991,"is_reserved":false,"is_disabled":false,"rental_uris":{"android":"levelo://app?vid=650dcff2-c463-4769-9908-dcf7246837a7","ios":"levelo://app?vid=650dcff2-c463-4769-9908-dcf7246837a7"},"vehicle_type_id":"4","last_reported":1768666315,"current_range_meters":11200,"station_id":"ce4bhl12rcd13ifvqgf0","pricing_plan_id":"cebpf4jnsgd1na2vs0mg"},{"bike_id":"24160edd-d39f-4289-876a-e9144f93a2c6","system_id":"levelo_inurba_marseille","lat":43.3235,"lon":5.36738,"is_reserved":false,"is_disabled":false,"rental_uris":{"android":"levelo://app?vid=24160edd-d39f-4289-876a-e9144f93a2c6","ios":"levelo://app?vid=24160edd-d39f-4289-876a-e9144f93a2c6"},"vehicle_type_id":"4","last_reported":1768666315,"current_range_meters":11200,"station_id":"ce4bhsh2rcd13ifvqi2g","pricing_plan_id":"cebpf4jnsgd1na2vs0mg"},{"bike_id":"dac4e9c6-bd2f-46f7-9729-271636caee24","system_id":"levelo_inurba_marseille","lat":43.31178,"lon":5.38701,"is_reserved":false,"is_disabled":false,"rental_uris":{"android":"levelo://app?vid=dac4e9c6-bd2f-46f7-9729-271636caee24","ios":"levelo://app?vid=dac4e9c6-bd2f-46f7-9729-271636caee24"},"vehicle_type_id":"4","last_reported":1768666315,"current_range_meters":11200,"station_id":"ce4bgv12rcd13ifvqcp0","pricing_plan_id":"cebpf4jnsgd1na2vs0mg"},{"bike_id":"70d0fae7-0ba5-4e48-9968-20fa9e1d9bb9","system_id":"levelo_inurba_marseille","lat":43.28469,"lon":5.38406,"is_reserved":false,"is_disabled":false,"rental_uris":{"android":"levelo://app?vid=70d0fae7-0ba5-4e48-9968-20fa9e1d9bb9","ios":"levelo://app?vid=70d0fae7-0ba5-4e48-9968-20fa9e1d9bb9"},"vehicle_type_id":"4","last_reported":1768666315,"current_range_meters":11200,"station_id":"ce4bh512rcd13ifvqe3g","pricing_plan_id":"cebpf4jnsgd1na2vs0mg"},{"bike_id":"03c53ee3-b1e1-4281-a6d5-599aa67418ac","system_id":"levelo_inurba_marseille","lat":43.26913,"lon":5.4032,"is_reserved":false,"is_disabled":false,"rental_uris":{"android":"levelo://app?vid=03c53ee3-b1e1-4281-a6d5-599aa67418ac","ios":"levelo://app?vid=03c53ee3-b1e1-4281-a6d5-599aa67418ac"},"vehicle_type_id":"4","last_reported":1768666315,"current_range_meters":11200,"station_id":"","pricing_plan_id":"cebpf4jnsgd1na2vs0mg"},{"bike_id":"7ea6943f-80eb-4abd-ba6b-118fe6d80db9","system_id":"levelo_inurba_marseille","lat":43.30943,"lon":5.4014,"is_reserved":false,"is_disabled":false,"rental_uris":{"android":"levelo://app?vid=7ea6943f-80eb-4abd-ba6b-118fe6d80db9","ios":"levelo://app?vid=7ea6943f-80eb-4abd-ba6b-118fe6d80db9"},"vehicle_type_id":"4","last_reported":1768666315,"current_range_meters":11200,"station_id":"ce4bgvp2rcd13ifvqct0","pricing_plan_id":"cebpf4jnsgd1na2vs0mg"},{"bike_id":"3553ebd2-ef95-4bb7-84ad-90fc7f46a51f","system_id":"levelo_inurba_marseille","lat":43.30535,"lon":5.36545,"is_reserved":false,"is_disabled":false,"rental_uris":{"android":"levelo://app?vid=3553ebd2-ef95-4bb7-84ad-90fc7f46a51f","ios":"levelo://app?vid=3553ebd2-ef95-4bb7-84ad-90fc7f46a51f"},"vehicle_type_id":"4","last_reported":1768666315,"current_range_meters":11200,"station_id":"ce4bgs12rcd13ifvqcag","pricing_plan_id":"cebpf4jnsgd1na2vs0mg"},{"bike_id":"09e25ee8-a531-433f-be0d-b2a929700dbd","system_id":"levelo_inurba_marseille","lat":43.27209,"lon":5.39188,"is_reserved":false,"is_disabled":false,"rental_uris":{"android":"levelo://app?vid=09e25ee8-a531-433f-be0d-b2a929700dbd","ios":"levelo://app?vid=09e25ee8-a531-433f-be0d-b2a929700dbd"},"vehicle_type_id":"4","last_reported":1768666315,"current_range_meters":11200,"station_id":"ce4bhhp2rcd13ifvqfm0","pricing_plan_id":"cebpf4jnsgd1na2vs0mg"},{"bike_id":"e4673345-b12b-41a6-851b-d8e241ebb64e","system_id":"levelo_inurba_marseille","lat":43.24956,"lon":5.40482,"is_reserved":false,"is_disabled":false,"rental_uris":{"android":"levelo://app?vid=e4673345-b12b-41a6-851b-d8e241ebb64e","ios":"levelo://app?vid=e4673345-b12b-41a6-851b-d8e241ebb64e"},"vehicle_type_id":"4","last_reported":1768666315,"current_range_meters":11200,"station_id":"st_d2ngiaodas8pm72gd1h0","pricing_plan_id":"cebpf4jnsgd1na2vs0mg"},{"bike_id":"d61d55f2-38b3-47bf-8db3-dd8829f32d8f","system_id":"levelo_inurba_marseille","lat":43.28539,"lon":5.44094,"is_reserved":false,"is_disabled":false,"rental_uris":{"android":"levelo://app?vid=d61d55f2-38b3-47bf-8db3-dd8829f32d8f","ios":"levelo://app?vid=d61d55f2-38b3-47bf-8db3-dd8829f32d8f"},"vehicle_type_id":"4","last_reported":1768666315,"current_range_meters":11200,"station_id":"st_d3j3df2ikq2c7380ej80","pricing_plan_id":"cebpf4jnsgd1na2vs0mg"},{"bike_id":"09105b5f-3c1b-4262-b05c-2ed28916e5be","system_id":"levelo_inurba_marseille","lat":43.25333,"lon":5.42187,"is_reserved":false,"is_disabled":false,"rental_uris":{"android":"levelo://app?vid=09105b5f-3c1b-4262-b05c-2ed28916e5be","ios":"levelo://app?vid=09105b5f-3c1b-4262-b05c-2ed28916e5be"},"vehicle_type_id":"4","last_reported":1768666315,"current_range_meters":11600,"station_id":"st_d2m65c5bi1j21697t3ng","pricing_plan_id":"cebpf4jnsgd1na2vs0mg"},{"bike_id":"7e098391-022d-4fa0-8447-c2eb22ef45d6","system_id":"levelo_inurba_marseille","lat":43.29363,"lon":5.37854,"is_reserved":false,"is_disabled":false,"rental_uris":{"android":"levelo://app?vid=7e098391-022d-4fa0-8447-c2eb22ef45d6","ios":"levelo://app?vid=7e098391-022d-4fa0-8447-c2eb22ef45d6"},"vehicle_type_id":"4","last_reported":1768666315,"current_range_meters":11600,"station_id":"ce4bgjh2rcd13ifvqbf0","pricing_plan_id":"cebpf4jnsgd1na2vs0mg"},{"bike_id":"99eb7f6e-7d47-4fe7-a5ad-44af0b5818fb","system_id":"levelo_inurba_marseille","lat":43.24096,"lon":5.39691,"is_reserved":false,"is_disabled":false,"rental_uris":{"android":"levelo://app?vid=99eb7f6e-7d47-4fe7-a5ad-44af0b5818fb","ios":"levelo://app?vid=99eb7f6e-7d47-4fe7-a5ad-44af0b5818fb"},"vehicle_type_id":"4","last_reported":1768666315,"current_range_meters":11600,"station_id":"","pricing_plan_id":"cebpf4jnsgd1na2vs0mg"},{"bike_id":"2a347ed8-2eea-4ab0-aa28-b6464c142e48","system_id":"levelo_inurba_marseille","lat":43.303803,"lon":5.425026,"is_reserved":false,"is_disabled":false,"rental_uris":{"android":"levelo://app?vid=2a347ed8-2eea-4ab0-aa28-b6464c142e48","ios":"levelo://app?vid=2a347ed8-2eea-4ab0-aa28-b6464c142e48"},"vehicle_type_id":"4","last_reported":1768666315,"current_range_meters":11600,"station_id":"ce4bhoh2rcd13ifvqh6g","pricing_plan_id":"cebpf4jnsgd1na2vs0mg"},{"bike_id":"f9650e24-8048-44b3-9275-13d881c210a3","system_id":"levelo_inurba_marseille","lat":43.30289,"lon":5.37685,"is_reserved":false,"is_disabled":false,"rental_uris":{"android":"levelo://app?vid=f9650e24-8048-44b3-9275-13d881c210a3","ios":"levelo://app?vid=f9650e24-8048-44b3-9275-13d881c210a3"},"vehicle_type_id":"4","last_reported":1768666315,"current_range_meters":11600,"station_id":"ce4bguh2rcd13ifvqcj0","pricing_plan_id":"cebpf4jnsgd1na2vs0mg"},{"bike_id":"f3000290-72f4-4397-aea0-7a93c697aaf7","system_id":"levelo_inurba_marseille","lat":43.336084,"lon":5.410412,"is_reserved":false,"is_disabled":false,"rental_uris":{"android":"levelo://app?vid=f3000290-72f4-4397-aea0-7a93c697aaf7","ios":"levelo://app?vid=f3000290-72f4-4397-aea0-7a93c697aaf7"},"vehicle_type_id":"4","last_reported":1768666315,"current_range_meters":11600,"station_id":"","pricing_plan_id":"cebpf4jnsgd1na2vs0mg"},{"bike_id":"65615fec-e0d9-4e7f-a822-d547f08bfcb4","system_id":"levelo_inurba_marseille","lat":43.28857,"lon":5.35842,"is_reserved":false,"is_disabled":false,"rental_uris":{"android":"levelo://app?vid=65615fec-e0d9-4e7f-a822-d547f08bfcb4","ios":"levelo://app?vid=65615fec-e0d9-4e7f-a822-d547f08bfcb4"},"vehicle_type_id":"4","last_reported":1768666315,"current_range_meters":11600,"station_id":"ce4bhb12rcd13ifvqem0","pricing_plan_id":"cebpf4jnsgd1na2vs0mg"},{"bike_id":"3928816a-2e53-4c5b-9a17-5ff1a917b32c","system_id":"levelo_inurba_marseille","lat":43.25857,"lon":5.39896,"is_reserved":false,"is_disabled":false,"rental_uris":{"android":"levelo://app?vid=3928816a-2e53-4c5b-9a17-5ff1a917b32c","ios":"levelo://app?vid=3928816a-2e53-4c5b-9a17-5ff1a917b32c"},"vehicle_type_id":"4","last_reported":1768666315,"current_range_meters":11600,"station_id":"ce4bhl92rcd13ifvqghg","pricing_plan_id":"cebpf4jnsgd1na2vs0mg"},{"bike_id":"b46a6444-77b9-4d61-90e6-ef095eade99b","system_id":"levelo_inurba_marseille","lat":43.28864,"lon":5.4251,"is_reserved":false,"is_disabled":false,"rental_uris":{"android":"levelo://app?vid=b46a6444-77b9-4d61-90e6-ef095eade99b","ios":"levelo://app?vid=b46a6444-77b9-4d61-90e6-ef095eade99b"},"vehicle_type_id":"4","last_reported":1768666315,"current_range_meters":11600,"station_id":"st_d3b462108ojc7389ooeg","pricing_plan_id":"cebpf4jnsgd1na2vs0mg"},{"bike_id":"544bcdbb-4ade-4e28-8d58-bd0ce6c900eb","system_id":"levelo_inurba_marseille","lat":43.25332,"lon":5.42163,"is_reserved":false,"is_disabled":false,"rental_uris":{"android":"levelo://app?vid=544bcdbb-4ade-4e28-8d58-bd0ce6c900eb","ios":"levelo://app?vid=544bcdbb-4ade-4e28-8d58-bd0ce6c900eb"},"vehicle_type_id":"4","last_reported":1768666315,"current_range_meters":11600,"station_id":"st_d2m65c5bi1j21697t3ng","pricing_plan_id":"cebpf4jnsgd1na2vs0mg"},{"bike_id":"1aef13a9-44af-4f7b-8a13-583992af7beb","system_id":"levelo_inurba_marseille","lat":43.30483,"lon":5.36495,"is_reserved":false,"is_disabled":false,"rental_uris":{"android":"levelo://app?vid=1aef13a9-44af-4f7b-8a13-583992af7beb","ios":"levelo://app?vid=1aef13a9-44af-4f7b-8a13-583992af7beb"},"vehicle_type_id":"4","last_reported":1768666315,"current_range_meters":12000,"station_id":"","pricing_plan_id":"cebpf4jnsgd1na2vs0mg"},{"bike_id":"5eb6351f-00ee-4020-b88c-dbf9b3c321a1","system_id":"levelo_inurba_marseille","lat":43.28158,"lon":5.42633,"is_reserved":false,"is_disabled":false,"rental_uris":{"android":"levelo://app?vid=5eb6351f-00ee-4020-b88c-dbf9b3c321a1","ios":"levelo://app?vid=5eb6351f-00ee-4020-b88c-dbf9b3c321a1"},