{"last_updated":1738332501,"ttl":60,"version":"2.2","data":{"bikes":[{"bike_id":"31270426-539a-44d7-942e-c2e16893d54c","system_id":"levelo_inurba_marseille","lat":43.29598,"lon":5.37506,"is_reserved":false,"is_disabled":false,"rental_uris":{"android":"levelo://app?vid=31270426-539a-44d7-942e-c2e16893d54c","ios":"levelo://app?vid=31270426-539a-44d7-942e-c2e16893d54c"},"vehicle_type_id":"4","last_reported":1738332501,"current_range_meters":36800,"station_id":"ce4bgh92rcd13ifvqb50","pricing_plan_id":"cebpf4jnsgd1na2vs0mg"},{"bike_id":"93094f84-a713-481d-aa11-d90ef6294f04","system_id":"levelo_inurba_marseille","lat":43.32023,"lon":5.41558,"is_reserved":false,"is_disabled":false,"rental_uris":{"android":"levelo://app?vid=93094f84-a713-481d-aa11-d90ef6294f04","ios":"levelo://app?vid=93094f84-a713-481d-aa11-d90ef6294f04"},"vehicle_type_id":"4","last_reported":1738332501,"current_range_meters":32800,"station_id":"ce4bhq92rcd13ifvqhkg","pricing_plan_id":"cebpf4jnsgd1na2vs0mg"},{"bike_id":"9ddcbbf4-a411-4ab3-b0fe-303403a8515c","system_id":"levelo_inurba_marseille","lat":43.25731,"lon":5.41093,"is_reserved":false,"is_disabled":false,"rental_uris":{"android":"levelo://app?vid=9ddcbbf4-a411-4ab3-b0fe-303403a8515c","ios":"levelo://app?vid=9ddcbbf4-a411-4ab3-b0fe-303403a8515c"},"vehicle_type_id":"4","last_reported":1738332501,"current_range_meters":38400,"station_id":"ce4bhkp2rcd13ifvqgd0","pricing_plan_id":"cebpf4jnsgd1na2vs0mg"},{"bike_id":"28f1df08-84bc-4288-a243-7aa95d68415d","system_id":"levelo_inurba_marseille","lat":43.29166,"lon":5.37155,"is_reserved":false,"is_disabled":false,"rental_uris":{"android":"levelo://app?vid=28f1df08-84bc-4288-a243-7aa95d68415d","ios":"levelo://app?vid=28f1df08-84bc-4288-a243-7aa95d68415d"},"vehicle_type_id":"4","last_reported":1738332501,"current_range_meters":38000,"station_id":"ce4bha92rcd13ifvqeh0","pricing_plan_id":"cebpf4jnsgd1na2vs0mg"},{"bike_id":"bfbf96da-1704-4968-bb0e-94bbee8e9471","system_id":"levelo_inurba_marseille","lat":43.30925,"lon":5.40141,"is_reserved":false,"is_disabled":false,"rental_uris":{"android":"levelo://app?vid=bfbf96da-1704-4968-bb0e-94bbee8e9471","ios":"levelo://app?vid=bfbf96da-1704-4968-bb0e-94bbee8e9471"},"vehicle_type_id":"4","last_reported":1738332501,"current_range_meters":34800,"station_id":"ce4bgvp2rcd13ifvqct0","pricing_plan_id":"cebpf4jnsgd1na2vs0mg"},{"bike_id":"76f77e28-c071-4cc7-af8e-15772cec19ca","system_id":"levelo_inurba_marseille","lat":43.24398,"lon":5.37018,"is_reserved":false,"is_disabled":false,"rental_uris":{"android":"levelo://app?vid=76f77e28-c071-4cc7-af8e-15772cec19ca","ios":"levelo://app?vid=76f77e28-c071-4cc7-af8e-15772cec19ca"},"vehicle_type_id":"4","last_reported":1738332501,"current_range_meters":39200,"station_id":"ce4bhhh2rcd13ifvqfk0","pricing_plan_id":"cebpf4jnsgd1na2vs0mg"},{"bike_id":"f7f8117f-03ef-415e-85c6-2eeaf165e4f2","system_id":"levelo_inurba_marseille","lat":43.26255,"lon":5.40462,"is_reserved":false,"is_disabled":true,"rental_uris":{"android":"levelo://app?vid=f7f8117f-03ef-415e-85c6-2eeaf165e4f2","ios":"levelo://app?vid=f7f8117f-03ef-415e-85c6-2eeaf165e4f2"},"vehicle_type_id":"4","last_reported":1738332501,"current_range_meters":22400,"station_id":"ce4bhmh2rcd13ifvqgmg","pricing_plan_id":"cebpf4jnsgd1na2vs0mg"},{"bike_id":"7b61bdc1-2ee3-4ec3-b08e-2898c6be8e11","system_id":"levelo_inurba_marseille","lat":43.32655,"lon":5.40987,"is_reserved":false,"is_disabled":false,"rental_uris":{"android":"levelo://app?vid=7b61bdc1-2ee3-4ec3-b08e-2898c6be8e11","ios":"levelo://app?vid=7b61bdc1-2ee3-4ec3-b08e-2898c6be8e11"},"vehicle_type_id":"4","last_reported":1738332501,"current_range_meters":20400,"station_id":"ce4bhpp2rcd13ifvqhgg","pricing_plan_id":"cebpf4jnsgd1na2vs0mg"},{"bike_id":"e3bd597c-c7e5-4110-a93b-4281c14b2f12","system_id":"levelo_inurba_marseille","lat":43.26572,"lon":5.38996,"is_reserved":false,"is_disabled":false,"rental_uris":{"android":"levelo://app?vid=e3bd597c-c7e5-4110-a93b-4281c14b2f12","ios":"levelo://app?vid=e3bd597c-c7e5-4110-a93b-4281c14b2f12"},"vehicle_type_id":"4","last_reported":1738332501,"current_range_meters":24000,"station_id":"ce4bhe12rcd13ifvqf30","pricing_plan_id":"cebpf4jnsgd1na2vs0mg"},{"bike_id":"d2f395e1-e127-4ad6-82b8-ac587e8025a7","system_id":"levelo_inurba_marseille","lat":43.32061,"lon":5.41588,"is_reserved":false,"is_disabled":false,"rental_uris":{"android":"levelo://app?vid=d2f395e1-e127-4ad6-82b8-ac587e8025a7","ios":"levelo://app?vid=d2f395e1-e127-4ad6-82b8-ac587e8025a7"},"vehicle_type_id":"4","last_reported":1738332501,"current_range_meters":26000,"station_id":"ce4bhq92rcd13ifvqhkg","pricing_plan_id":"cebpf4jnsgd1na2vs0mg"},{"bike_id":"89eda692-da43-4a5b-950d-b8757af653c4","system_id":"levelo_inurba_marseille","lat":43.31362,"lon":5.38486,"is_reserved":false,"is_disabled":false,"rental_uris":{"android":"levelo://app?vid=89eda692-da43-4a5b-950d-b8757af653c4","ios":"levelo://app?vid=89eda692-da43-4a5b-950d-b8757af653c4"},"vehicle_type_id":"4","last_reported":1738332501,"current_range_meters":32000,"station_id":"ce4bgt92rcd13ifvqcf0","pricing_plan_id":"cebpf4jnsgd1na2vs0mg"},{"bike_id":"be6f9b9a-9741-4ef5-ad55-f59a822a7487","system_id":"levelo_inurba_marseille","lat":43.27204,"lon":5.39176,"is_reserved":false,"is_disabled":false,"rental_uris":{"android":"levelo://app?vid=be6f9b9a-9741-4ef5-ad55-f59a822a7487","ios":"levelo://app?vid=be6f9b9a-9741-4ef5-ad55-f59a822a7487"},"vehicle_type_id":"4","last_reported":1738332501,"current_range_meters":5600,"station_id":"ce4bhhp2rcd13ifvqfm0","pricing_plan_id":"cebpf4jnsgd1na2vs0mg"},{"bike_id":"8126c25c-c3a2-4cdd-a2e4-d380d215e724","system_id":"levelo_inurba_marseille","lat":43.26802,"lon":5.40277,"is_reserved":false,"is_disabled":false,"rental_uris":{"android":"levelo://app?vid=8126c25c-c3a2-4cdd-a2e4-d380d215e724","ios":"levelo://app?vid=8126c25c-c3a2-4cdd-a2e4-d380d215e724"},"vehicle_type_id":"4","last_reported":1738332501,"current_range_meters":32000,"station_id":"ce501612rcd8frsf0b60","pricing_plan_id":"cebpf4jnsgd1na2vs0mg"},{"bike_id":"38b52a77-99dd-4b73-a475-aff18892ee78","system_id":"levelo_inurba_marseille","lat":43.2586,"lon":5.399,"is_reserved":false,"is_disabled":false,"rental_uris":{"android":"levelo://app?vid=38b52a77-99dd-4b73-a475-aff18892ee78","ios":"levelo://app?vid=38b52a77-99dd-4b73-a475-aff18892ee78"},"vehicle_type_id":"4","last_reported":1738332501,"current_range_meters":20000,"station_id":"ce4bhl92rcd13ifvqghg","pricing_plan_id":"cebpf4jnsgd1na2vs0mg"},{"bike_id":"9587a62c-e3a6-48e1-995a-1d9253f38c24","system_id":"levelo_inurba_marseille","lat":43.31493,"lon":5.37297,"is_reserved":false,"is_disabled":false,"rental_uris":{"android":"levelo://app?vid=9587a62c-e3a6-48e1-995a-1d9253f38c24","ios":"levelo://app?vid=9587a62c-e3a6-48e1-995a-1d9253f38c24"},"vehicle_type_id":"4","last_reported":1738332501,"current_range_meters":20400,"station_id":"ce4bgt12rcd13ifvqcd0","pricing_plan_id":"cebpf4jnsgd1na2vs0mg"},{"bike_id":"534c086f-4419-4511-a4ca-a912a0401085","system_id":"levelo_inurba_marseille","lat":43.25863,"lon":5.39896,"is_reserved":false,"is_disabled":true,"rental_uris":{"android":"levelo://app?vid=534c086f-4419-4511-a4ca-a912a0401085","ios":"levelo://app?vid=534c086f-4419-4511-a4ca-a912a0401085"},"vehicle_type_id":"4","last_reported":1738332501,"current_range_meters":0,"station_id":"ce4bhl92rcd13ifvqghg","pricing_plan_id":"cebpf4jnsgd1na2vs0mg"},{"bike_id":"6de811c6-50e6-4e2b-8b21-f20c18788d32","system_id":"levelo_inurba_marseille","lat":43.29881,"lon":5.36444,"is_reserved":false,"is_disabled":false,"rental_uris":{"android":"levelo://app?vid=6de811c6-50e6-4e2b-8b21-f20c18788d32","ios":"levelo://app?vid=6de811c6-50e6-4e2b-8b21-f20c18788d32"},"vehicle_type_id":"4","last_reported":1738332501,"current_range_meters":38800,"station_id":"ce4bgpp2rcd13ifvqc3g","pricing_plan_id":"cebpf4jnsgd1na2vs0mg"},{"bike_id":"1fbf3f20-0930-4b85-8900-561217e5a0eb","system_id":"levelo_inurba_marseille","lat":43.30422,"lon":5.41269,"is_reserved":false,"is_disabled":false,"rental_uris":{"android":"levelo://app?vid=1fbf3f20-0930-4b85-8900-561217e5a0eb","ios":"levelo://app?vid=1fbf3f20-0930-4b85-8900-561217e5a0eb"},"vehicle_type_id":"4","last_reported":1738332501,"current_range_meters":28000,"station_id":"ce4bhop2rcd13ifvqh8g","pricing_plan_id":"cebpf4jnsgd1na2vs0mg"},{"bike_id":"0ed8a6c6-eadb-4bd0-a58f-0b8be240ba0c","system_id":"levelo_inurba_marseille","lat":43.27834,"lon":5.40708,"is_reserved":false,"is_disabled":false,"rental_uris":{"android":"levelo://app?vid=0ed8a6c6-eadb-4bd0-a58f-0b8be240ba0c","ios":"levelo://app?vid=0ed8a6c6-eadb-4bd0-a58f-0b8be240ba0c"},"vehicle_type_id":"4","last_reported":1738332501,"current_range_meters":26000,"station_id":"ce4bhnh2rcd13ifvqgtg","pricing_plan_id":"cebpf4jnsgd1na2vs0mg"},{"bike_id":"d7489050-7cbc-4b72-bc44-51a019b07289","system_id":"levelo_inurba_marseille","lat":43.25579,"lon":5.38242,"is_reserved":false,"is_disabled":true,"rental_uris":{"android":"levelo://app?vid=d7489050-7cbc-4b72-bc44-51a019b07289","ios":"levelo://app?vid=d7489050-7cbc-4b72-bc44-51a019b07289"},"vehicle_type_id":"4","last_reported":1738332501,"current_range_meters":1600,"station_id":"ce4bhih2rcd13ifvqfs0","pricing_plan_id":"cebpf4jnsgd1na2vs0mg"},{"bike_id":"cbcd0c47-1961-43d5-84c3-acb7a6d17496","system_id":"levelo_inurba_marseille","lat":43.231813,"lon":5.399885,"is_reserved":false,"is_disabled":false,"rental_uris":{"android":"levelo://app?vid=cbcd0c47-1961-43d5-84c3-acb7a6d17496","ios":"levelo://app?vid=cbcd0c47-1961-43d5-84c3-acb7a6d17496"},"vehicle_type_id":"4","last_reported":1738332501,"current_range_meters":24400,"station_id":"ce4bhn12rcd13ifvqgqg","pricing_plan_id":"cebpf4jnsgd1na2vs0mg"},{"bike_id":"befe1838-b5eb-4db0-aeea-9ea02214eae7","system_id":"levelo_inurba_marseille","lat":43.25083,"lon":5.39507,"is_reserved":false,"is_disabled":false,"rental_uris":{"android":"levelo://app?vid=befe1838-b5eb-4db0-aeea-9ea02214eae7","ios":"levelo://app?vid=befe1838-b5eb-4db0-aeea-9ea02214eae7"},"vehicle_type_id":"4","last_reported":1738332501,"current_range_meters":33200,"station_id":"ce4bhm12rcd13ifvqgkg","pricing_plan_id":"cebpf4jnsgd1na2vs0mg"},{"bike_id":"a2c2f7f6-53e1-41aa-a1bb-36c8d98a1715","system_id":"levelo_inurba_marseille","lat":43.27814,"lon":5.40721,"is_reserved":false,"is_disabled":false,"rental_uris":{"android":"levelo://app?vid=a2c2f7f6-53e1-41aa-a1bb-36c8d98a1715","ios":"levelo://app?vid=a2c2f7f6-53e1-41aa-a1bb-36c8d98a1715"},"vehicle_type_id":"4","last_reported":1738332501,"current_range_meters":38800,"station_id":"ce4bhnh2rcd13ifvqgtg","pricing_plan_id":"cebpf4jnsgd1na2vs0mg"},{"bike_id":"ab0ec696-ce2c-4f7f-a964-2e9c9f313854","system_id":"levelo_inurba_marseille","lat":43.23963,"lon":5.36634,"is_reserved":false,"is_disabled":false,"rental_uris":{"android":"levelo://app?vid=ab0ec696-ce2c-4f7f-a964-2e9c9f313854","ios":"levelo://app?vid=ab0ec696-ce2c-4f7f-a964-2e9c9f313854"},"vehicle_type_id":"4","last_reported":1738332501,"current_range_meters":28400,"station_id":"ce4bhi12rcd13ifvqfp0","pricing_plan_id":"cebpf4jnsgd1na2vs0mg"},{"bike_id":"23f78061-2e6e-4c05-812e-55ea5a69a776","system_id":"levelo_inurba_marseille","lat":43.29247,"lon":5.40914,"is_reserved":false,"is_disabled":true,"rental_uris":{"android":"levelo://app?vid=23f78061-2e6e-4c05-812e-55ea5a69a776","ios":"levelo://app?vid=23f78061-2e6e-4c05-812e-55ea5a69a776"},"vehicle_type_id":"4","last_reported":1738332501,"current_range_meters":800,"station_id":"ce4bh192rcd13ifvqdc0","pricing_plan_id":"cebpf4jnsgd1na2vs0mg"},{"bike_id":"e99c90aa-e079-42e2-a963-1534829ba9c7","system_id":"levelo_inurba_marseille","lat":43.26231,"lon":5.37518,"is_reserved":false,"is_disabled":false,"rental_uris":{"android":"levelo://app?vid=e99c90aa-e079-42e2-a963-1534829ba9c7","ios":"levelo://app?vid=e99c90aa-e079-42e2-a963-1534829ba9c7"},"vehicle_type_id":"4","last_reported":1738332501,"current_range_meters":31200,"station_id":"ce4bhgp2rcd13ifvqfc0","pricing_plan_id":"cebpf4jnsgd1na2vs0mg"},{"bike_id":"5a8949fc-eed8-49a6-b976-62341b8ff21e","system_id":"levelo_inurba_marseille","lat":43.279819,"lon":5.387082,"is_reserved":false,"is_disabled":true,"rental_uris":{"android":"levelo://app?vid=5a8949fc-eed8-49a6-b976-62341b8ff21e","ios":"levelo://app?vid=5a8949fc-eed8-49a6-b976-62341b8ff21e"},"vehicle_type_id":"4","last_reported":1738332501,"current_range_meters":0,"station_id":"ce4bhg12rcd13ifvqf80","pricing_plan_id":"cebpf4jnsgd1na2vs0mg"},{"bike_id":"472815ce-dd78-4e4c-82e8-cea31da48d22","system_id":"levelo_inurba_marseille","lat":43.33725,"lon":5.39182,"is_reserved":false,"is_disabled":false,"rental_uris":{"android":"levelo://app?vid=472815ce-dd78-4e4c-82e8-cea31da48d22","ios":"levelo://app?vid=472815ce-dd78-4e4c-82e8-cea31da48d22"},"vehicle_type_id":"4","last_reported":1738332501,"current_range_meters":38800,"station_id":"ce4bhr92rcd13ifvqhsg","pricing_plan_id":"cebpf4jnsgd1na2vs0mg"},{"bike_id":"cc47836a-b908-432f-8e0e-2f793407f141","system_id":"levelo_inurba_marseille","lat":43.22922,"lon":5.35374,"is_reserved":false,"is_disabled":false,"rental_uris":{"android":"levelo://app?vid=cc47836a-b908-432f-8e0e-2f793407f141","ios":"levelo://app?vid=cc47836a-b908-432f-8e0e-2f793407f141"},"vehicle_type_id":"4","last_reported":1738332501,"current_range_meters":10000,"station_id":"cpo3532slgdg3j2ikp40","pricing_plan_id":"cebpf4jnsgd1na2vs0mg"},{"bike_id":"8afc2c50-0a84-4419-920c-4c9e866e0114","system_id":"levelo_inurba_marseille","lat":43.29839,"lon":5.36268,"is_reserved":false,"is_disabled":false,"rental_uris":{"android":"levelo://app?vid=8afc2c50-0a84-4419-920c-4c9e866e0114","ios":"levelo://app?vid=8afc2c50-0a84-4419-920c-4c9e866e0114"},"vehicle_type_id":"4","last_reported":1738332501,"current_range_meters":36400,"station_id":"ce4bgpp2rcd13ifvqc3g","pricing_plan_id":"cebpf4jnsgd1na2vs0mg"},{"bike_id":"f80287fc-a2f4-4c37-8f2b-cadf84efecb2","system_id":"levelo_inurba_marseille","lat":43.29558,"lon":5.42274,"is_reserved":false,"is_disabled":false,"rental_uris":{"android":"levelo://app?vid=f80287fc-a2f4-4c37-8f2b-cadf84efecb2","ios":"levelo://app?vid=f80287fc-a2f4-4c37-8f2b-cadf84efecb2"},"vehicle_type_id":"4","last_reported":1738332501,"current_range_meters":29600,"station_id":"ce4bhph2rcd13ifvqhdg","pricing_plan_id":"cebpf4jnsgd1na2vs0mg"},{"bike_id":"657d640f-ca48-46ab-b1c8-746da554ff64","system_id":"levelo_inurba_marseille","lat":43.30548,"lon":5.36548,"is_reserved":false,"is_disabled":false,"rental_uris":{"android":"levelo://app?vid=657d640f-ca48-46ab-b1c8-746da554ff64","ios":"levelo://app?vid=657d640f-ca48-46ab-b1c8-746da554ff64"},"vehicle_type_id":"4","last_reported":1738332501,"current_range_meters":33600,"station_id":"ce4bgs12rcd13ifvqcag","pricing_plan_id":"cebpf4jnsgd1na2vs0mg"},{"bike_id":"f6afaadc-8a64-4520-9e68-285b035334db","system_id":"levelo_inurba_marseille","lat":43.30566,"lon":5.36702,"is_reserved":false,"is_disabled":false,"rental_uris":{"android":"levelo://app?vid=f6afaadc-8a64-4520-9e68-285b035334db","ios":"levelo://app?vid=f6afaadc-8a64-4520-9e68-285b035334db"},"vehicle_type_id":"4","last_reported":1738332501,"current_range_meters":38800,"station_id":"ce4bgrp2rcd13ifvqc9g","pricing_plan_id":"cebpf4jnsgd1na2vs0mg"},{"bike_id":"3506206d-f2e7-43f6-8376-78965d88c4f1","system_id":"levelo_inurba_marseille","lat":43.24168,"lon":5.39738,"is_reserved":false,"is_disabled":false,"rental_uris":{"android":"levelo://app?vid=3506206d-f2e7-43f6-8376-78965d88c4f1","ios":"levelo://app?vid=3506206d-f2e7-43f6-8376-78965d88c4f1"},"vehicle_type_id":"4","last_reported":1738332501,"current_range_meters":25600,"station_id":"ce4bhn12rcd13ifvqgpg","pricing_plan_id":"cebpf4jnsgd1na2vs0mg"},{"bike_id":"e70f035b-bd3b-4e63-bb7a-2edb3163686b","system_id":"levelo_inurba_marseille","lat":43.27188,"lon":5.4099,"is_reserved":false,"is_disabled":false,"rental_uris":{"android":"levelo://app?vid=e70f035b-bd3b-4e63-bb7a-2edb3163686b","ios":"levelo://app?vid=e70f035b-bd3b-4e63-bb7a-2edb3163686b"},"vehicle_type_id":"4","last_reported":1738332501,"current_range_meters":24400,"station_id":"ce4bhl12rcd13ifvqgf0","pricing_plan_id":"cebpf4jnsgd1na2vs0mg"},{"bike_id":"7fbc607b-e12b-47bd-a53f-1c18ac62adfd","system_id":"levelo_inurba_marseille","lat":43.27815,"lon":5.40719,"is_reserved":false,"is_disabled":false,"rental_uris":{"android":"levelo://app?vid=7fbc607b-e12b-47bd-a53f-1c18ac62adfd","ios":"levelo://app?vid=7fbc607b-e12b-47bd-a53f-1c18ac62adfd"},"vehicle_type_id":"4","last_reported":1738332501,"current_range_meters":33200,"station_id":"ce4bhnh2rcd13ifvqgtg","pricing_plan_id":"cebpf4jnsgd1na2vs0mg"},{"bike_id":"735cf356-6ca7-4c83-bf25-d301ccde8042","system_id":"levelo_inurba_marseille","lat":43.27183,"lon":5.40953,"is_reserved":false,"is_disabled":false,"rental_uris":{"android":"levelo://app?vid=735cf356-6ca7-4c83-bf25-d301ccde8042","ios":"levelo://app?vid=735cf356-6ca7-4c83-bf25-d301ccde8042"},"vehicle_type_id":"4","last_reported":1738332501,"current_range_meters":26000,"station_id":"ce4bhl12rcd13ifvqgf0","pricing_plan_id":"cebpf4jnsgd1na2vs0mg"},{"bike_id":"f34fcd93-0f66-400a-8f07-aa08bfa23861","system_id":"levelo_inurba_marseille","lat":43.25958,"lon":5.40884,"is_reserved":false,"is_disabled":false,"rental_uris":{"android":"levelo://app?vid=f34fcd93-0f66-400a-8f07-aa08bfa23861","ios":"levelo://app?vid=f34fcd93-0f66-400a-8f07-aa08bfa23861"},"vehicle_type_id":"4","last_reported":1738332501,"current_range_meters":38000,"station_id":"ce4bhm92rcd13ifvqglg","pricing_plan_id":"cebpf4jnsgd1na2vs0mg"},{"bike_id":"db7f3b10-3249-4ef1-b2d2-417c75340e93","system_id":"levelo_inurba_marseille","lat":43.26801,"lon":5.40261,"is_reserved":false,"is_disabled":false,"rental_uris":{"android":"levelo://app?vid=db7f3b10-3249-4ef1-b2d2-417c75340e93","ios":"levelo://app?vid=db7f3b10-3249-4ef1-b2d2-417c75340e93"},"vehicle_type_id":"4","last_reported":1738332501,"current_range_meters":38000,"station_id":"ce501612rcd8frsf0b60","pricing_plan_id":"cebpf4jnsgd1na2vs0mg"},{"bike_id":"606053f9-3da2-4594-b4df-8e24b5fa812c","system_id":"levelo_inurba_marseille","lat":43.26935,"lon":5.40254,"is_reserved":false,"is_disabled":false,"rental_uris":{"android":"levelo://app?vid=606053f9-3da2-4594-b4df-8e24b5fa812c","ios":"levelo://app?vid=606053f9-3da2-4594-b4df-8e24b5fa812c"},"vehicle_type_id":"4","last_reported":1738332501,"current_range_meters":37600,"station_id":"cjm6bp8fraef2m0cb0m0","pricing_plan_id":"cebpf4jnsgd1na2vs0mg"},{"bike_id":"0b0615a4-2ced-4b55-b9bc-ede4d343349e","system_id":"levelo_inurba_marseille","lat":43.24385,"lon":5.37061,"is_reserved":false,"is_disabled":false,"rental_uris":{"android":"levelo://app?vid=0b0615a4-2ced-4b55-b9bc-ede4d343349e","ios":"levelo://app?vid=0b0615a4-2ced-4b55-b9bc-ede4d343349e"},"vehicle_type_id":"4","last_reported":1738332501,"current_range_meters":16800,"station_id":"ce4bhhh2rcd13ifvqfk0","pricing_plan_id":"cebpf4jnsgd1na2vs0mg"},{"bike_id":"7bf0b083-5d7a-408e-adaa-18c38cfadd6e","system_id":"levelo_inurba_marseille","lat":43.22938,"lon":5.35383,"is_reserved":false,"is_disabled":false,"rental_uris":{"android":"levelo://app?vid=7bf0b083-5d7a-408e-adaa-18c38cfadd6e","ios":"levelo://app?vid=7bf0b083-5d7a-408e-adaa-18c38cfadd6e"},"vehicle_type_id":"4","last_reported":1738332501,"current_range_meters":11600,"station_id":"cpo3532slgdg3j2ikp40","pricing_plan_id":"cebpf4jnsgd1na2vs0mg"},{"bike_id":"99a79458-de57-4296-9f87-bc8b7db7912d","system_id":"levelo_inurba_marseille","lat":43.26925,"lon":5.38913,"is_reserved":false,"is_disabled":false,"rental_uris":{"android":"levelo://app?vid=99a79458-de57-4296-9f87-bc8b7db7912d","ios":"levelo://app?vid=99a79458-de57-4296-9f87-bc8b7db7912d"},"vehicle_type_id":"4","last_reported":1738332501,"current_range_meters":17200,"station_id":"ce4bhhh2rcd13ifvqfl0","pricing_plan_id":"cebpf4jnsgd1na2vs0mg"},{"bike_id":"db14cd8a-5ba9-45f6-b197-f717b13b5230","system_id":"levelo_inurba_marseille","lat":43.29846,"lon":5.36279,"is_reserved":false,"is_disabled":false,"rental_uris":{"android":"levelo://app?vid=db14cd8a-5ba9-45f6-b197-f717b13b5230","ios":"levelo://app?vid=db14cd8a-5ba9-45f6-b197-f717b13b5230"},"vehicle_type_id":"4","last_reported":1738332501,"current_range_meters":38800,"station_id":"ce4bgpp2rcd13ifvqc3g","pricing_plan_id":"cebpf4jnsgd1na2vs0mg"},{"bike_id":"808232f1-e991-4dd8-8765-6f4f5aba4517","system_id":"levelo_inurba_marseille","lat":43.33602,"lon":5.4101,"is_reserved":false,"is_disabled":true,"rental_uris":{"android":"levelo://app?vid=808232f1-e991-4dd8-8765-6f4f5aba4517","ios":"levelo://app?vid=808232f1-e991-4dd8-8765-6f4f5aba4517"},"vehicle_type_id":"4","last_reported":1738332501,"current_range_meters":0,"station_id":"ce4bhqh2rcd13ifvqhmg","pricing_plan_id":"cebpf4jnsgd1na2vs0mg"},{"bike_id":"cb2664cc-12ec-4d60-a531-da306a62bb75","system_id":"levelo_inurba_marseille","lat":43.27933,"lon":5.41051,"is_reserved":false,"is_disabled":false,"rental_uris":{"android":"levelo://app?vid=cb2664cc-12ec-4d60-a531-da306a62bb75","ios":"levelo://app?vid=cb2664cc-12ec-4d60-a531-da306a62bb75"},"vehicle_type_id":"4","last_reported":1738332501,"current_range_meters":11200,"station_id":"ce4bhnp2rcd13ifvqh0g","pricing_plan_id":"cebpf4jnsgd1na2vs0mg"},{"bike_id":"10d31094-e8d4-4e9d-bf6f-3c654bea52c2","system_id":"levelo_inurba_marseille","lat":43.281659,"lon":5.426469,"is_reserved":false,"is_disabled":false,"rental_uris":{"android":"levelo://app?vid=10d31094-e8d4-4e9d-bf6f-3c654bea52c2","ios":"levelo://app?vid=10d31094-e8d4-4e9d-bf6f-3c654bea52c2"},"vehicle_type_id":"4","last_reported":1738332501,"current_range_meters":4800,"station_id":"ce4bhnh2rcd13ifvqgug","pricing_plan_id":"cebpf4jnsgd1na2vs0mg"},{"bike_id":"d5895da0-06d1-42f3-8f05-199bd8a5d01e","system_id":"levelo_inurba_marseille","lat":43.24996,"lon":5.38942,"is_reserved":false,"is_disabled":false,"rental_uris":{"android":"levelo://app?vid=d5895da0-06d1-42f3-8f05-199bd8a5d01e","ios":"levelo://app?vid=d5895da0-06d1-42f3-8f05-199bd8a5d01e"},"vehicle_type_id":"4","last_reported":1738332501,"current_range_meters":22000,"station_id":"ce4bhgp2rcd13ifvqfd0","pricing_plan_id":"cebpf4jnsgd1na2vs0mg"},{"bike_id":"1b9bb238-24bd-477e-abe6-0d8bcb5c7a29","system_id":"levelo_inurba_marseille","lat":43.28944,"lon":5.38395,"is_reserved":false,"is_disabled":false,"rental_uris":{"android":"levelo://app?vid=1b9bb238-24bd-477e-abe6-0d8bcb5c7a29","ios":"levelo://app?vid=1b9bb238-24bd-477e-abe6-0d8bcb5c7a29"},"vehicle_type_id":"4","last_reported":1738332501,"current_range_meters":32800,"station_id":"ce4bh612rcd13ifvqe6g","pricing_plan_id":"cebpf4jnsgd1na2vs0mg"},{"bike_id":"9f7cbc3c-6e0b-4442-8c70-64c0b2a1452e","system_id":"levelo_inurba_marseille","lat":43.23058,"lon":5.35492,"is_reserved":false,"is_disabled":false,"rental_uris":{"android":"levelo://app?vid=9f7cbc3c-6e0b-4442-8c70-64c0b2a1452e","ios":"levelo://app?vid=9f7cbc3c-6e0b-4442-8c70-64c0b2a1452e"},"vehicle_type_id":"4","last_reported":1738332501,"current_range_meters":8000,"station_id":"cpo3342slgdg3j2ifvpg","pricing_plan_id":"cebpf4jnsgd1na2vs0mg"},{"bike_id":"c8a3a0ed-dff2-4f3c-87dc-2e6b47b1ad28","system_id":"levelo_inurba_marseille","lat":43.337444,"lon":5.374475,"is_reserved":false,"is_disabled":true,"rental_uris":{"android":"levelo://app?vid=c8a3a0ed-dff2-4f3c-87dc-2e6b47b1ad28","ios":"levelo://app?vid=c8a3a0ed-dff2-4f3c-87dc-2e6b47b1ad28"},"vehicle_type_id":"4","last_reported":1738332501,"current_range_meters":0,"station_id":"","pricing_plan_id":"cebpf4jnsgd1na2vs0mg"},{"bike_id":"f89539a6-095e-4e2d-8340-7b530ec63361","system_id":"levelo_inurba_marseille","lat":43.28939,"lon":5.36637,"is_reserved":false,"is_disabled":false,"rental_uris":{"android":"levelo://app?vid=f89539a6-095e-4e2d-8340-7b530ec63361","ios":"levelo://app?vid=f89539a6-095e-4e2d-8340-7b530ec63361"},"vehicle_type_id":"4","last_reported":1738332501,"current_range_meters":18800,"station_id":"ce4bhap2rcd13ifvqek0","pricing_plan_id":"cebpf4jnsgd1na2vs0mg"},{"bike_id":"4cf5b6ad-2c0a-43a3-9562-fb0a239b26a7","system_id":"levelo_inurba_marseille","lat":43.2986,"lon":5.39735,"is_reserved":false,"is_disabled":false,"rental_uris":{"android":"levelo://app?vid=4cf5b6ad-2c0a-43a3-9562-fb0a239b26a7","ios":"levelo://app?vid=4cf5b6ad-2c0a-43a3-9562-fb0a239b26a7"},"vehicle_type_id":"4","last_reported":1738332501,"current_range_meters":35200,"station_id":"ce4bh0h2rcd13ifvqd50","pricing_plan_id":"cebpf4jnsgd1na2vs0mg"},{"bike_id":"eb48afdb-ba97-4aa3-9096-4c80d97eb772","system_id":"levelo_inurba_marseille","lat":43.258614,"lon":5.398969,"is_reserved":false,"is_disabled":false,"rental_uris":{"android":"levelo://app?vid=eb48afdb-ba97-4aa3-9096-4c80d97eb772","ios":"levelo://app?vid=eb48afdb-ba97-4aa3-9096-4c80d97eb772"},"vehicle_type_id":"4","last_reported":1738332501,"current_range_meters":37600,"station_id":"ce4bhl92rcd13ifvqghg","pricing_plan_id":"cebpf4jnsgd1na2vs0mg"},{"bike_id":"7247902a-635d-4f06-9cf7-f11e089c2d38","system_id":"levelo_inurba_marseille","lat":43.26945,"lon":5.40248,"is_reserved":false,"is_disabled":false,"rental_uris":{"android":"levelo://app?vid=7247902a-635d-4f06-9cf7-f11e089c2d38","ios":"levelo://app?vid=7247902a-635d-4f06-9cf7-f11e089c2d38"},"vehicle_type_id":"4","last_reported":1738332501,"current_range_meters":37600,"station_id":"cjm6bp8fraef2m0cb0m0","pricing_plan_id":"cebpf4jnsgd1na2vs0mg"},{"bike_id":"b9dfdd12-ed8d-4873-9fc8-0a1849f2020b","system_id":"levelo_inurba_marseille","lat":43.26811,"lon":5.40243,"is_reserved":false,"is_disabled":false,"rental_uris":{"android":"levelo://app?vid=b9dfdd12-ed8d-4873-9fc8-0a1849f2020b","ios":"levelo://app?vid=b9dfdd12-ed8d-4873-9fc8-0a1849f2020b"},"vehicle_type_id":"4","last_reported":1738332501,"current_range_meters":38800,"station_id":"ce501612rcd8frsf0b60","pricing_plan_id":"cebpf4jnsgd1na2vs0mg"},{"bike_id":"78e1bc18-d7b0-4aef-8fa5-842bfface35a","system_id":"levelo_inurba_marseille","lat":43.26684,"lon":5.38263,"is_reserved":false,"is_disabled":false,"rental_uris":{"android":"levelo://app?vid=78e1bc18-d7b0-4aef-8fa5-842bfface35a","ios":"levelo://app?vid=78e1bc18-d7b0-4aef-8fa5-842bfface35a"},"vehicle_type_id":"4","last_reported":1738332501,"current_range_meters":38800,"station_id":"ce4bhg92rcd13ifvqf90","pricing_plan_id":"cebpf4jnsgd1na2vs0mg"},{"bike_id":"90394fde-9bd5-4f98-b24e-2ccaeea0ffdc","system_id":"levelo_inurba_marseille","lat":43.27815,"lon":5.40712,"is_reserved":false,"is_disabled":false,"rental_uris":{"android":"levelo://app?vid=90394fde-9bd5-4f98-b24e-2ccaeea0ffdc","ios":"levelo://app?vid=90394fde-9bd5-4f98-b24e-2ccaeea0ffdc"},"vehicle_type_id":"4","last_reported":1738332501,"current_range_meters":28000,"station_id":"ce4bhnh2rcd13ifvqgtg","pricing_plan_id":"cebpf4jnsgd1na2vs0mg"},{"bike_id":"32802d31-82e5-49aa-928e-45336ddb5e58","system_id":"levelo_inurba_marseille","lat":43.25006,"lon":5.3894,"is_reserved":false,"is_disabled":false,"rental_uris":{"android":"levelo://app?vid=32802d31-82e5-49aa-928e-45336ddb5e58","ios":"levelo://app?vid=32802d31-82e5-49aa-928e-45336ddb5e58"},"vehicle_type_id":"4","last_reported":1738332501,"current_range_meters":39200,"station_id":"ce4bhgp2rcd13ifvqfd0","pricing_plan_id":"cebpf4jnsgd1na2vs0mg"},{"bike_id":"d06240a3-8895-42e8-9212-5c068d44e9d2","system_id":"levelo_inurba_marseille","lat":43.28618,"lon":5.35111,"is_reserved":false,"is_disabled":false,"rental_uris":{"android":"levelo://app?vid=d06240a3-8895-42e8-9212-5c068d44e9d2","ios":"levelo://app?vid=d06240a3-8895-42e8-9212-5c068d44e9d2"},"vehicle_type_id":"4","last_reported":1738332501,"current_range_meters":26000,"station_id":"ce4bhch2rcd13ifvqeug","pricing_plan_id":"cebpf4jnsgd1na2vs0mg"},{"bike_id":"eb74d691-c4bd-4a11-a4e4-127630105a8b","system_id":"levelo_inurba_marseille","lat":43.301343,"lon":5.374137,"is_reserved":false,"is_disabled":false,"rental_uris":{"android":"levelo://app?vid=eb74d691-c4bd-4a11-a4e4-127630105a8b","ios":"levelo://app?vid=eb74d691-c4bd-4a11-a4e4-127630105a8b"},"vehicle_type_id":"4","last_reported":1738332501,"current_range_meters":28000,"station_id":"ce4bgs92rcd13ifvqcc0","pricing_plan_id":"cebpf4jnsgd1na2vs0mg"},{"bike_id":"a730ad96-1643-4b28-8bdb-7f33f046a999","system_id":"levelo_inurba_marseille","lat":43.30126,"lon":5.37429,"is_reserved":false,"is_disabled":false,"rental_uris":{"android":"levelo://app?vid=a730ad96-1643-4b28-8bdb-7f33f046a999","ios":"levelo://app?vid=a730ad96-1643-4b28-8bdb-7f33f046a999"},"vehicle_type_id":"4","last_reported":1738332501,"current_range_meters":39200,"station_id":"ce4bgs92rcd13ifvqcc0","pricing_plan_id":"cebpf4jnsgd1na2vs0mg"},{"bike_id":"a7e1bb12-c60b-445a-9547-4b41c03d5f68","system_id":"levelo_inurba_marseille","lat":43.28154,"lon":5.42651,"is_reserved":false,"is_disabled":true,"rental_uris":{"android":"levelo://app?vid=a7e1bb12-c60b-445a-9547-4b41c03d5f68","ios":"levelo://app?vid=a7e1bb12-c60b-445a-9547-4b41c03d5f68"},"vehicle_type_id":"4","last_reported":1738332501,"current_range_meters":0,"station_id":"ce4bhnh2rcd13ifvqgug","pricing_plan_id":"cebpf4jnsgd1na2vs0mg"},{"bike_id":"00c0b55e-3da8-4657-b8f9-2b266599e408","system_id":"levelo_inurba_marseille","lat":43.28918,"lon":5.36389,"is_reserved":false,"is_disabled":false,"rental_uris":{"android":"levelo://app?vid=00c0b55e-3da8-4657-b8f9-2b266599e408","ios":"levelo://app?vid=00c0b55e-3da8-4657-b8f9-2b266599e408"},"vehicle_type_id":"4","last_reported":1738332501,"current_range_meters":38800,"station_id":"ce4bhc92rcd13ifvqetg","pricing_plan_id":"cebpf4jnsgd1na2vs0mg"},{"bike_id":"038191cd-2a1e-4308-bce4-7eb51d092d06","system_id":"levelo_inurba_marseille","lat":43.30713,"lon":5.37398,"is_reserved":false,"is_disabled":false,"rental_uris":{"android":"levelo://app?vid=038191cd-2a1e-4308-bce4-7eb51d092d06","ios":"levelo://app?vid=038191cd-2a1e-4308-bce4-7eb51d092d06"},"vehicle_type_id":"4","last_reported":1738332501,"current_range_meters":18800,"station_id":"","pricing_plan_id":"cebpf4jnsgd1na2vs0mg"},{"bike_id":"38ba238d-3393-4136-a6bf-a50b17e460b3","system_id":"levelo_inurba_marseille","lat":43.31484,"lon":5.37274,"is_reserved":false,"is_disabled":false,"rental_uris":{"android":"levelo://app?vid=38ba238d-3393-4136-a6bf-a50b17e460b3","ios":"levelo://app?vid=38ba238d-3393-4136-a6bf-a50b17e460b3"},"vehicle_type_id":"4","last_reported":1738332501,"current_range_meters":11200,"station_id":"ce4bgt12rcd13ifvqcd0","pricing_plan_id":"cebpf4jnsgd1na2vs0mg"},{"bike_id":"a36de8bd-2e3e-4fb2-8780-295adcb078f0","system_id":"levelo_inurba_marseille","lat":43.26561,"lon":5.37276,"is_reserved":false,"is_disabled":false,"rental_uris":{"android":"levelo://app?vid=a36de8bd-2e3e-4fb2-8780-295adcb078f0","ios":"levelo://app?vid=a36de8bd-2e3e-4fb2-8780-295adcb078f0"},"vehicle_type_id":"4","last_reported":1738332501,"current_range_meters":32400,"station_id":"ce4bhg12rcd13ifvqf70","pricing_plan_id":"cebpf4jnsgd1na2vs0mg"},{"bike_id":"9838cc78-2b53-49d3-ae13-82df62c4fd64","system_id":"levelo_inurba_marseille","lat":43.28412,"lon":5.40934,"is_reserved":false,"is_disabled":true,"rental_uris":{"android":"levelo://app?vid=9838cc78-2b53-49d3-ae13-82df62c4fd64","ios":"levelo://app?vid=9838cc78-2b53-49d3-ae13-82df62c4fd64"},"vehicle_type_id":"4","last_reported":1738332501,"current_range_meters":0,"station_id":"","pricing_plan_id":"cebpf4jnsgd1na2vs0mg"},{"bike_id":"89b42613-6540-4f9b-be12-b035b7ac50e4","system_id":"levelo_inurba_marseille","lat":43.31325,"lon":5.39697,"is_reserved":false,"is_disabled":false,"rental_uris":{"android":"levelo://app?vid=89b42613-6540-4f9b-be12-b035b7ac50e4","ios":"levelo://app?vid=89b42613-6540-4f9b-be12-b035b7ac50e4"},"vehicle_type_id":"4","last_reported":1738332501,"current_range_meters":32400,"station_id":"ce4bgvp2rcd13ifvqcu0","pricing_plan_id":"cebpf4jnsgd1na2vs0mg"},{"bike_id":"5ce6b42a-5d43-4d16-b34c-0410affa1292","system_id":"levelo_inurba_marseille","lat":43.30141,"lon":5.37417,"is_reserved":false,"is_disabled":false,"rental_uris":{"android":"levelo://app?vid=5ce6b42a-5d43-4d16-b34c-0410affa1292","ios":"levelo://app?vid=5ce6b42a-5d43-4d16-b34c-0410affa1292"},"vehicle_type_id":"4","last_reported":1738332501,"current_range_meters":34000,"station_id":"ce4bgs92rcd13ifvqcc0","pricing_plan_id":"cebpf4jnsgd1na2vs0mg"},{"bike_id":"a6b336c6-34d6-4b26-bccf-abefa3771ff1","system_id":"levelo_inurba_marseille","lat":43.23163,"lon":5.43718,"is_reserved":false,"is_disabled":false,"rental_uris":{"android":"levelo://app?vid=a6b336c6-34d6-4b26-bccf-abefa3771ff1","ios":"levelo://app?vid=a6b336c6-34d6-4b26-bccf-abefa3771ff1"},"vehicle_type_id":"4","last_reported":1738332501,"current_range_meters":39200,"station_id":"ce4bhmp2rcd13ifvqgog","pricing_plan_id":"cebpf4jnsgd1na2vs0mg"},{"bike_id":"ce71f224-d435-464d-a5fc-98c270b16b1d","system_id":"levelo_inurba_marseille","lat":43.29039,"lon":5.37628,"is_reserved":false,"is_disabled":false,"rental_uris":{"android":"levelo://app?vid=ce71f224-d435-464d-a5fc-98c270b16b1d","ios":"levelo://app?vid=ce71f224-d435-464d-a5fc-98c270b16b1d"},"vehicle_type_id":"4","last_reported":1738332501,"current_range_meters":24000,"station_id":"ce4bh692rcd13ifvqe90","pricing_plan_id":"cebpf4jnsgd1na2vs0mg"},{"bike_id":"471eca08-401e-4a75-bc9a-3f015ab502d6","system_id":"levelo_inurba_marseille","lat":43.29561,"lon":5.42277,"is_reserved":false,"is_disabled":false,"rental_uris":{"android":"levelo://app?vid=471eca08-401e-4a75-bc9a-3f015ab502d6","ios":"levelo://app?vid=471eca08-401e-4a75-bc9a-3f015ab502d6"},"vehicle_type_id":"4","last_reported":1738332501,"current_range_meters":38800,"station_id":"ce4bhph2rcd13ifvqhdg","pricing_plan_id":"cebpf4jnsgd1na2vs0mg"},{"bike_id":"4bbfab15-7f28-4fb2-9ec3-f938420ec585","system_id":"levelo_inurba_marseille","lat":43.23207,"lon":5.39985,"is_reserved":false,"is_disabled":false,"rental_uris":{"android":"levelo://app?vid=4bbfab15-7f28-4fb2-9ec3-f938420ec585","ios":"levelo://app?vid=4bbfab15-7f28-4fb2-9ec3-f938420ec585"},"vehicle_type_id":"4","last_reported":1738332501,"current_range_meters":14000,"station_id":"ce4bhn12rcd13ifvqgqg","pricing_plan_id":"cebpf4jnsgd1na2vs0mg"},{"bike_id":"3d3683d0-6fa2-4625-8b79-882bbb185c30","system_id":"levelo_inurba_marseille","lat":43.32303,"lon":5.3827,"is_reserved":false,"is_disabled":false,"rental_uris":{"android":"levelo://app?vid=3d3683d0-6fa2-4625-8b79-882bbb185c30","ios":"levelo://app?vid=3d3683d0-6fa2-4625-8b79-882bbb185c30"},"vehicle_type_id":"4","last_reported":1738332501,"current_range_meters":28000,"station_id":"ce4bhr12rcd13ifvqhqg","pricing_plan_id":"cebpf4jnsgd1na2vs0mg"},{"bike_id":"ad81921c-60b2-4219-864c-95e11d18e554","system_id":"levelo_inurba_marseille","lat":43.28618,"lon":5.37057,"is_reserved":false,"is_disabled":false,"rental_uris":{"android":"levelo://app?vid=ad81921c-60b2-4219-864c-95e11d18e554","ios":"levelo://app?vid=ad81921c-60b2-4219-864c-95e11d18e554"},"vehicle_type_id":"4","last_reported":1738332501,"current_range_meters":32000,"station_id":"ce4bht12rcd13ifvqi60","pricing_plan_id":"cebpf4jnsgd1na2vs0mg"},{"bike_id":"e28ef4b1-156f-4c62-898f-9a0754569c89","system_id":"levelo_inurba_marseille","lat":43.30155,"lon":5.38092,"is_reserved":false,"is_disabled":false,"rental_uris":{"android":"levelo://app?vid=e28ef4b1-156f-4c62-898f-9a0754569c89","ios":"levelo://app?vid=e28ef4b1-156f-4c62-898f-9a0754569c89"},"vehicle_type_id":"4","last_reported":1738332501,"current_range_meters":32000,"station_id":"ce4bgjp2rcd13ifvqbh0","pricing_plan_id":"cebpf4jnsgd1na2vs0mg"},{"bike_id":"976a519e-e041-4be0-a8ce-cf32f3f91c5d","system_id":"levelo_inurba_marseille","lat":43.30552,"lon":5.3669,"is_reserved":false,"is_disabled":false,"rental_uris":{"android":"levelo://app?vid=976a519e-e041-4be0-a8ce-cf32f3f91c5d","ios":"levelo://app?vid=976a519e-e041-4be0-a8ce-cf32f3f91c5d"},"vehicle_type_id":"4","last_reported":1738332501,"current_range_meters":38000,"station_id":"ce4bgrp2rcd13ifvqc9g","pricing_plan_id":"cebpf4jnsgd1na2vs0mg"},{"bike_id":"2075b347-2b77-4bfa-bb4b-bf833dcc8261","system_id":"levelo_inurba_marseille","lat":43.32057,"lon":5.41548,"is_reserved":false,"is_disabled":false,"rental_uris":{"android":"levelo://app?vid=2075b347-2b77-4bfa-bb4b-bf833dcc8261","ios":"levelo://app?vid=2075b347-2b77-4bfa-bb4b-bf833dcc8261"},"vehicle_type_id":"4","last_reported":1738332501,"current_range_meters":19600,"station_id":"ce4bhq92rcd13ifvqhkg","pricing_plan_id":"cebpf4jnsgd1na2vs0mg"},{"bike_id":"6e6e45f2-e416-4f48-9ebc-6a73a2332ac9","system_id":"levelo_inurba_marseille","lat":43.29522,"lon":5.39052,"is_reserved":false,"is_disabled":false,"rental_uris":{"android":"levelo://app?vid=6e6e45f2-e416-4f48-9ebc-6a73a2332ac9","ios":"levelo://app?vid=6e6e45f2-e416-4f48-9ebc-6a73a2332ac9"},"vehicle_type_id":"4","last_reported":1738332501,"current_range_meters":38800,"station_id":"ce4bh3p2rcd13ifvqdp0","pricing_plan_id":"cebpf4jnsgd1na2vs0mg"},{"bike_id":"f875e245-6ec8-4e5f-94bc-96f5e491b3d3","system_id":"levelo_inurba_marseille","lat":43.32057,"lon":5.41584,"is_reserved":false,"is_disabled":false,"rental_uris":{"android":"levelo://app?vid=f875e245-6ec8-4e5f-94bc-96f5e491b3d3","ios":"levelo://app?vid=f875e245-6ec8-4e5f-94bc-96f5e491b3d3"},"vehicle_type_id":"4","last_reported":1738332501,"current_range_meters":39200,"station_id":"ce4bhq92rcd13ifvqhkg","pricing_plan_id":"cebpf4jnsgd1na2vs0mg"},{"bike_id":"d8714100-85e1-4aa3-a078-e70c3aaec69a","system_id":"levelo_inurba_marseille","lat":43.31074,"lon":5.38353,"is_reserved":false,"is_disabled":false,"rental_uris":{"android":"levelo://app?vid=d8714100-85e1-4aa3-a078-e70c3aaec69a","ios":"levelo://app?vid=d8714100-85e1-4aa3-a078-e70c3aaec69a"},"vehicle_type_id":"4","last_reported":1738332501,"current_range_meters":18800,"station_id":"ce4bgv92rcd13ifvqcr0","pricing_plan_id":"cebpf4jnsgd1na2vs0mg"},{"bike_id":"d979d8d2-ec65-47af-9229-e4270aab279a","system_id":"levelo_inurba_marseille","lat":43.23071,"lon":5.3551,"is_reserved":false,"is_disabled":false,"rental_uris":{"android":"levelo://app?vid=d979d8d2-ec65-47af-9229-e4270aab279a","ios":"levelo://app?vid=d979d8d2-ec65-47af-9229-e4270aab279a"},"vehicle_type_id":"4","last_reported":1738332501,"current_range_meters":9200,"station_id":"cpo3342slgdg3j2ifvpg","pricing_plan_id":"cebpf4jnsgd1na2vs0mg"},{"bike_id":"f10d9b40-8520-41ee-b039-cd6e7d066065","system_id":"levelo_inurba_marseille","lat":43.262302,"lon":5.374586,"is_reserved":false,"is_disabled":false,"rental_uris":{"android":"levelo://app?vid=f10d9b40-8520-41ee-b039-cd6e7d066065","ios":"levelo://app?vid=f10d9b40-8520-41ee-b039-cd6e7d066065"},"vehicle_type_id":"4","last_reported":1738332501,"current_range_meters":32800,"station_id":"ce4bhgp2rcd13ifvqfc0","pricing_plan_id":"cebpf4jnsgd1na2vs0mg"},{"bike_id":"e1df6ee3-a290-4061-9294-c516d93ff87a","system_id":"levelo_inurba_marseille","lat":43.30327,"lon":5.40426,"is_reserved":false,"is_disabled":false,"rental_uris":{"android":"levelo://app?vid=e1df6ee3-a290-4061-9294-c516d93ff87a","ios":"levelo://app?vid=e1df6ee3-a290-4061-9294-c516d93ff87a"},"vehicle_type_id":"4","last_reported":1738332501,"current_range_meters":27600,"station_id":"ce4bh012rcd13ifvqd10","pricing_plan_id":"cebpf4jnsgd1na2vs0mg"},{"bike_id":"8f982301-5907-46b6-b1e8-1b8abf5c682a","system_id":"levelo_inurba_marseille","lat":43.26197,"lon":5.37452,"is_reserved":false,"is_disabled":false,"rental_uris":{"android":"levelo://app?vid=8f982301-5907-46b6-b1e8-1b8abf5c682a","ios":"levelo://app?vid=8f982301-5907-46b6-b1e8-1b8abf5c682a"},"vehicle_type_id":"4","last_reported":1738332501,"current_range_meters":39200,"station_id":"ce4bhgp2rcd13ifvqfc0","pricing_plan_id":"cebpf4jnsgd1na2vs0mg"},{"bike_id":"efe7056c-0b9c-4a4c-83d6-452434e2f890","system_id":"levelo_inurba_marseille","lat":43.269384,"lon":5.38919,"is_reserved":false,"is_disabled":false,"rental_uris":{"android":"levelo://app?vid=efe7056c-0b9c-4a4c-83d6-452434e2f890","ios":"levelo://app?vid=efe7056c-0b9c-4a4c-83d6-452434e2f890"},"vehicle_type_id":"4","last_reported":1738332501,"current_range_meters":22800,"station_id":"ce4bhhh2rcd13ifvqfl0","pricing_plan_id":"cebpf4jnsgd1na2vs0mg"},{"bike_id":"7d6260ec-6d8c-4d5b-8950-1a493871014c","system_id":"levelo_inurba_marseille","lat":43.29904,"lon":5.43703,"is_reserved":false,"is_disabled":false,"rental_uris":{"android":"levelo://app?vid=7d6260ec-6d8c-4d5b-8950-1a493871014c","ios":"levelo://app?vid=7d6260ec-6d8c-4d5b-8950-1a493871014c"},"vehicle_type_id":"4","last_reported":1738332501,"current_range_meters":30000,"station_id":"","pricing_plan_id":"cebpf4jnsgd1na2vs0mg"},{"bike_id":"50e5196c-96ef-4847-a071-9e67c646b56f","system_id":"levelo_inurba_marseille","lat":43.28259,"lon":5.35076,"is_reserved":false,"is_disabled":false,"rental_uris":{"android":"levelo://app?vid=50e5196c-96ef-4847-a071-9e67c646b56f","ios":"levelo://app?vid=50e5196c-96ef-4847-a071-9e67c646b56f"},"vehicle_type_id":"4","last_reported":1738332501,"current_range_meters":9200,"station_id":"ce4bhbp2rcd13ifvqerg","pricing_plan_id":"cebpf4jnsgd1na2vs0mg"},{"bike_id":"4288a232-ae1a-4a0e-b7e1-97ede851d38b","system_id":"levelo_inurba_marseille","lat":43.2694,"lon":5.40259,"is_reserved":false,"is_disabled":false,"rental_uris":{"android":"levelo://app?vid=4288a232-ae1a-4a0e-b7e1-97ede851d38b","ios":"levelo://app?vid=4288a232-ae1a-4a0e-b7e1-97ede851d38b"},"vehicle_type_id":"4","last_reported":1738332501,"current_range_meters":23200,"station_id":"cjm6bp8fraef2m0cb0m0","pricing_plan_id":"cebpf4jnsgd1na2vs0mg"},{"bike_id":"cbd8e521-170f-40de-8051-a654a0ce8f65","system_id":"levelo_inurba_marseille","lat":43.2894,"lon":5.36637,"is_reserved":false,"is_disabled":false,"rental_uris":{"android":"levelo://app?vid=cbd8e521-170f-40de-8051-a654a0ce8f65","ios":"levelo://app?vid=cbd8e521-170f-40de-8051-a654a0ce8f65"},"vehicle_type_id":"4","last_reported":1738332501,"current_range_meters":38000,"station_id":"ce4bhap2rcd13ifvqek0","pricing_plan_id":"cebpf4jnsgd1na2vs0mg"},{"bike_id":"5b2c6512-6eed-41b4-b9a7-6aad2122c352","system_id":"levelo_inurba_marseille","lat":43.28468,"lon":5.35889,"is_reserved":false,"is_disabled":false,"rental_uris":{"android":"levelo://app?vid=5b2c6512-6eed-41b4-b9a7-6aad2122c352","ios":"levelo://app?vid=5b2c6512-6eed-41b4-b9a7-6aad2122c352"},"vehicle_type_id":"4","last_reported":1738332501,"current_range_meters":20400,"station_id":"ce4bhah2rcd13ifvqei0","pricing_plan_id":"cebpf4jnsgd1na2vs0mg"},{"bike_id":"396d2bf0-6b5f-403b-bacf-9deaab552e51","system_id":"levelo_inurba_marseille","lat":43.23963,"lon":5.36628,"is_reserved":false,"is_disabled":false,"rental_uris":{"android":"levelo://app?vid=396d2bf0-6b5f-403b-bacf-9deaab552e51","ios":"levelo://app?vid=396d2bf0-6b5f-403b-bacf-9deaab552e51"},"vehicle_type_id":"4","last_reported":1738332501,"current_range_meters":12400,"station_id":"ce4bhi12rcd13ifvqfp0","pricing_plan_id":"cebpf4jnsgd1na2vs0mg"},{"bike_id":"d8b1c3f9-ff6e-4179-8423-4ba0d2a2af0e","system_id":"levelo_inurba_marseille","lat":43.33719,"lon":5.39188,"is_reserved":false,"is_disabled":false,"rental_uris":{"android":"levelo://app?vid=d8b1c3f9-ff6e-4179-8423-4ba0d2a2af0e","ios":"levelo://app?vid=d8b1c3f9-ff6e-4179-8423-4ba0d2a2af0e"},"vehicle_type_id":"4","last_reported":1738332501,"current_range_meters":38800,"station_id":"ce4bhr92rcd13ifvqhsg","pricing_plan_id":"cebpf4jnsgd1na2vs0mg"},{"bike_id":"b542ddbc-0bc2-4617-b278-31868294449b","system_id":"levelo_inurba_marseille","lat":43.26775,"lon":5.39417,"is_reserved":false,"is_disabled":false,"rental_uris":{"android":"levelo://app?vid=b542ddbc-0bc2-4617-b278-31868294449b","ios":"levelo://app?vid=b542ddbc-0bc2-4617-b278-31868294449b"},"vehicle_type_id":"4","last_reported":1738332501,"current_range_meters":14400,"station_id":"ce4bhh12rcd13ifvqfg0","pricing_plan_id":"cebpf4jnsgd1na2vs0mg"},{"bike_id":"c2a7538d-9792-4147-80f4-5faa64dad93d","system_id":"levelo_inurba_marseille","lat":43.31253,"lon":5.36852,"is_reserved":false,"is_disabled":false,"rental_uris":{"android":"levelo://app?vid=c2a7538d-9792-4147-80f4-5faa64dad93d","ios":"levelo://app?vid=c2a7538d-9792-4147-80f4-5faa64dad93d"},"vehicle_type_id":"4","last_reported":1738332501,"current_range_meters":38800,"station_id":"ce4bgl92rcd13ifvqbq0","pricing_plan_id":"cebpf4jnsgd1na2vs0mg"},{"bike_id":"eec498a5-6736-43ac-a18c-794c1e771032","system_id":"levelo_inurba_marseille","lat":43.29717,"lon":5.37698,"is_reserved":false,"is_disabled":false,"rental_uris":{"android":"levelo://app?vid=eec498a5-6736-43ac-a18c-794c1e771032","ios":"levelo://app?vid=eec498a5-6736-43ac-a18c-794c1e771032"},"vehicle_type_id":"4","last_reported":1738332501,"current_range_meters":36400,"station_id":"ce4bgkh2rcd13ifvqbl0","pricing_plan_id":"cebpf4jnsgd1na2vs0mg"},{"bike_id":"37a316fb-b3fd-47c4-b337-ae3ed2613770","system_id":"levelo_inurba_marseille","lat":43.25858,"lon":5.39921,"is_reserved":false,"is_disabled":false,"rental_uris":{"android":"levelo://app?vid=37a316fb-b3fd-47c4-b337-ae3ed2613770","ios":"levelo://app?vid=37a316fb-b3fd-47c4-b337-ae3ed2613770"},"vehicle_type_id":"4","last_reported":1738332501,"current_range_meters":38800,"station_id":"ce4bhl92rcd13ifvqghg","pricing_plan_id":"cebpf4jnsgd1na2vs0mg"},{"bike_id":"f086b070-9af2-4a12-baa6-4f5148d2f614","system_id":"levelo_inurba_marseille","lat":43.27817,"lon":5.40709,"is_reserved":false,"is_disabled":false,"rental_uris":{"android":"levelo://app?vid=f086b070-9af2-4a12-baa6-4f5148d2f614","ios":"levelo://app?vid=f086b070-9af2-4a12-baa6-4f5148d2f614"},"vehicle_type_id":"4","last_reported":1738332501,"current_range_meters":20000,"station_id":"ce4bhnh2rcd13ifvqgtg","pricing_plan_id":"cebpf4jnsgd1na2vs0mg"},{"bike_id":"f1531728-b8ea-45f6-b10e-94dd52db4db3","system_id":"levelo_inurba_marseille","lat":43.3133,"lon":5.39695,"is_reserved":false,"is_disabled":false,"rental_uris":{"android":"levelo://app?vid=f1531728-b8ea-45f6-b10e-94dd52db4db3","ios":"levelo://app?vid=f1531728-b8ea-45f6-b10e-94dd52db4db3"},"vehicle_type_id":"4","last_reported":1738332501,"current_range_meters":39200,"station_id":"ce4bgvp2rcd13ifvqcu0","pricing_plan_id":"cebpf4jnsgd1na2vs0mg"},{"bike_id":"97720b80-9b73-412f-b364-307a0f334978","system_id":"levelo_inurba_marseille","lat":43.26771,"lon":5.3939,"is_reserved":false,"is_disabled":false,"rental_uris":{"android":"levelo://app?vid=97720b80-9b73-412f-b364-307a0f334978","ios":"levelo://app?vid=97720b80-9b73-412f-b364-307a0f334978"},"vehicle_type_id":"4","last_reported":1738332501,"current_range_meters":10000,"station_id":"ce4bhh12rcd13ifvqfg0","pricing_plan_id":"cebpf4jnsgd1na2vs0mg"},{"bike_id":"01a8d7dc-50a9-4946-9c2b-ae219c7eea47","system_id":"levelo_inurba_marseille","lat":43.29081,"lon":5.3813,"is_reserved":false,"is_disabled":false,"rental_uris":{"android":"levelo://app?vid=01a8d7dc-50a9-4946-9c2b-ae219c7eea47","ios":"levelo://app?vid=01a8d7dc-50a9-4946-9c2b-ae219c7eea47"},"vehicle_type_id":"4","last_reported":1738332501,"current_range_meters":38000,"station_id":"ce4bh512rcd13ifvqe2g","pricing_plan_id":"cebpf4jnsgd1na2vs0mg"},{"bike_id":"f3706c35-c945-427a-a545-04ffbfd6aff8","system_id":"levelo_inurba_marseille","lat":43.29798,"lon":5.40407,"is_reserved":false,"is_disabled":false,"rental_uris":{"android":"levelo://app?vid=f3706c35-c945-427a-a545-04ffbfd6aff8","ios":"levelo://app?vid=f3706c35-c945-427a-a545-04ffbfd6aff8"},"vehicle_type_id":"4","last_reported":1738332501,"current_range_meters":17600,"station_id":"ce4bh112rcd13ifvqd90","pricing_plan_id":"cebpf4jnsgd1na2vs0mg"},{"bike_id":"ee2f7bfb-3705-464e-83a9-c7d8ae9c26d7","system_id":"levelo_inurba_marseille","lat":43.302785,"lon":5.36896,"is_reserved":false,"is_disabled":false,"rental_uris":{"android":"levelo://app?vid=ee2f7bfb-3705-464e-83a9-c7d8ae9c26d7","ios":"levelo://app?vid=ee2f7bfb-3705-464e-83a9-c7d8ae9c26d7"},"vehicle_type_id":"4","last_reported":1738332501,"current_range_meters":19200,"station_id":"ce4bgqh2rcd13ifvqc5g","pricing_plan_id":"cebpf4jnsgd1na2vs0mg"},{"bike_id":"64da5886-583b-417b-8e64-4a744c925343","system_id":"levelo_inurba_marseille","lat":43.29273,"lon":5.36838,"is_reserved":false,"is_disabled":false,"rental_uris":{"android":"levelo://app?vid=64da5886-583b-417b-8e64-4a744c925343","ios":"levelo://app?vid=64da5886-583b-417b-8e64-4a744c925343"},"vehicle_type_id":"4","last_reported":1738332501,"current_range_meters":24400,"station_id":"ce4bhbp2rcd13ifvqesg","pricing_plan_id":"cebpf4jnsgd1na2vs0mg"},{"bike_id":"bcabc7a5-73e4-4d8b-97a7-c7fbdca65bfb","system_id":"levelo_inurba_marseille","lat":43.31331,"lon":5.39699,"is_reserved":false,"is_disabled":false,"rental_uris":{"android":"levelo://app?vid=bcabc7a5-73e4-4d8b-97a7-c7fbdca65bfb","ios":"levelo://app?vid=bcabc7a5-73e4-4d8b-97a7-c7fbdca65bfb"},"vehicle_type_id":"4","last_reported":1738332501,"current_range_meters":24400,"station_id":"ce4bgvp2rcd13ifvqcu0","pricing_plan_id":"cebpf4jnsgd1na2vs0mg"},{"bike_id":"116e9faa-6bf9-4b8b-afdb-42e6306382f8","system_id":"levelo_inurba_marseille","lat":43.25935,"lon":5.40879,"is_reserved":false,"is_disabled":false,"rental_uris":{"android":"levelo://app?vid=116e9faa-6bf9-4b8b-afdb-42e6306382f8","ios":"levelo://app?vid=116e9faa-6bf9-4b8b-afdb-42e6306382f8"},"vehicle_type_id":"4","last_reported":1738332501,"current_range_meters":8800,"station_id":"ce4bhm92rcd13ifvqglg","pricing_plan_id":"cebpf4jnsgd1na2vs0mg"},{"bike_id":"fa007fe0-3dc1-405c-9d10-9879e2200643","system_id":"levelo_inurba_marseille","lat":43.32338,"lon":5.40624,"is_reserved":false,"is_disabled":false,"rental_uris":{"android":"levelo://app?vid=fa007fe0-3dc1-405c-9d10-9879e2200643","ios":"levelo://app?vid=fa007fe0-3dc1-405c-9d10-9879e2200643"},"vehicle_type_id":"4","last_reported":1738332501,"current_range_meters":24000,"station_id":"ce4bhq92rcd13ifvqhjg","pricing_plan_id":"cebpf4jnsgd1na2vs0mg"},{"bike_id":"47ffcb31-3f82-4750-8909-8425d573ce30","system_id":"levelo_inurba_marseille","lat":43.27213,"lon":5.39186,"is_reserved":false,"is_disabled":false,"rental_uris":{"android":"levelo://app?vid=47ffcb31-3f82-4750-8909-8425d573ce30","ios":"levelo://app?vid=47ffcb31-3f82-4750-8909-8425d573ce30"},"vehicle_type_id":"4","last_reported":1738332501,"current_range_meters":19200,"station_id":"ce4bhhp2rcd13ifvqfm0","pricing_plan_id":"cebpf4jnsgd1na2vs0mg"},{"bike_id":"e88eb1f3-8ae0-45d5-b478-7fa0e88e8228","system_id":"levelo_inurba_marseille","lat":43.32277,"lon":5.38263,"is_reserved":false,"is_disabled":false,"rental_uris":{"android":"levelo://app?vid=e88eb1f3-8ae0-45d5-b478-7fa0e88e8228","ios":"levelo://app?vid=e88eb1f3-8ae0-45d5-b478-7fa0e88e8228"},"vehicle_type_id":"4","last_reported":1738332501,"current_range_meters":38000,"station_id":"ce4bhr12rcd13ifvqhqg","pricing_plan_id":"cebpf4jnsgd1na2vs0mg"},{"bike_id":"6fd983bf-2229-4fda-9095-8042b3083b17","system_id":"levelo_inurba_marseille","lat":43.29027,"lon":5.37553,"is_reserved":false,"is_disabled":false,"rental_uris":{"android":"levelo://app?vid=6fd983bf-2229-4fda-9095-8042b3083b17","ios":"levelo://app?vid=6fd983bf-2229-4fda-9095-8042b3083b17"},"vehicle_type_id":"4","last_reported":1738332501,"current_range_meters":38800,"station_id":"ce4bh692rcd13ifvqe90","pricing_plan_id":"cebpf4jnsgd1na2vs0mg"},{"bike_id":"39fda13f-0f56-4d84-bd3a-f99078c8032f","system_id":"levelo_inurba_marseille","lat":43.298606,"lon":5.36282,"is_reserved":false,"is_disabled":false,"rental_uris":{"android":"levelo://app?vid=39fda13f-0f56-4d84-bd3a-f99078c8032f","ios":"levelo://app?vid=39fda13f-0f56-4d84-bd3a-f99078c8032f"},"vehicle_type_id":"4","last_reported":1738332501,"current_range_meters":38800,"station_id":"ce4bgpp2rcd13ifvqc3g","pricing_plan_id":"cebpf4jnsgd1na2vs0mg"},{"bike_id":"de857b7b-69c4-4d3b-962e-598034e80069","system_id":"levelo_inurba_marseille","lat":43.28968,"lon":5.37821,"is_reserved":false,"is_disabled":false,"rental_uris":{"android":"levelo://app?vid=de857b7b-69c4-4d3b-962e-598034e80069","ios":"levelo://app?vid=de857b7b-69c4-4d3b-962e-598034e80069"},"vehicle_type_id":"4","last_reported":1738332501,"current_range_meters":36400,"station_id":"ce4bh9p2rcd13ifvqed0","pricing_plan_id":"cebpf4jnsgd1na2vs0mg"},{"bike_id":"37101305-81e7-4338-a6ae-a670d165d143","system_id":"levelo_inurba_marseille","lat":43.27204,"lon":5.39184,"is_reserved":false,"is_disabled":false,"rental_uris":{"android":"levelo://app?vid=37101305-81e7-4338-a6ae-a670d165d143","ios":"levelo://app?vid=37101305-81e7-4338-a6ae-a670d165d143"},"vehicle_type_id":"4","last_reported":1738332501,"current_range_meters":23200,"station_id":"ce4bhhp2rcd13ifvqfm0","pricing_plan_id":"cebpf4jnsgd1na2vs0mg"},{"bike_id":"91f481b3-84ce-4cf7-944f-1b494608c070","system_id":"levelo_inurba_marseille","lat":43.26058,"lon":5.39397,"is_reserved":false,"is_disabled":false,"rental_uris":{"android":"levelo://app?vid=91f481b3-84ce-4cf7-944f-1b494608c070","ios":"levelo://app?vid=91f481b3-84ce-4cf7-944f-1b494608c070"},"vehicle_type_id":"4","last_reported":1738332501,"current_range_meters":37600,"station_id":"ce4bhh92rcd13ifvqfj0","pricing_plan_id":"cebpf4jnsgd1na2vs0mg"},{"bike_id":"64cc8768-bd97-4948-ab7a-b158c90df482","system_id":"levelo_inurba_marseille","lat":43.31689,"lon":5.40475,"is_reserved":false,"is_disabled":true,"rental_uris":{"android":"levelo://app?vid=64cc8768-bd97-4948-ab7a-b158c90df482","ios":"levelo://app?vid=64cc8768-bd97-4948-ab7a-b158c90df482"},"vehicle_type_id":"4","last_reported":1738332501,"current_range_meters":16800,"station_id":"ce4bh012rcd13ifvqd00","pricing_plan_id":"cebpf4jnsgd1na2vs0mg"},{"bike_id":"b264bcc4-dfb8-42b2-b861-820c0ddb02ad","system_id":"levelo_inurba_marseille","lat":43.30958,"lon":5.39064,"is_reserved":false,"is_disabled":false,"rental_uris":{"android":"levelo://app?vid=b264bcc4-dfb8-42b2-b861-820c0ddb02ad","ios":"levelo://app?vid=b264bcc4-dfb8-42b2-b861-820c0ddb02ad"},"vehicle_type_id":"4","last_reported":1738332501,"current_range_meters":38400,"station_id":"ce4bgup2rcd13ifvqco0","pricing_plan_id":"cebpf4jnsgd1na2vs0mg"},{"bike_id":"0b13a75e-73fd-43f9-b985-cb7a75c57a04","system_id":"levelo_inurba_marseille","lat":43.27379,"lon":5.36246,"is_reserved":false,"is_disabled":false,"rental_uris":{"android":"levelo://app?vid=0b13a75e-73fd-43f9-b985-cb7a75c57a04","ios":"levelo://app?vid=0b13a75e-73fd-43f9-b985-cb7a75c57a04"},"vehicle_type_id":"4","last_reported":1738332501,"current_range_meters":10800,"station_id":"ce4bhbh2rcd13ifvqeo0","pricing_plan_id":"cebpf4jnsgd1na2vs0mg"},{"bike_id":"ea88bc52-0141-4150-8478-5a41838844ef","system_id":"levelo_inurba_marseille","lat":43.30438,"lon":5.37131,"is_reserved":false,"is_disabled":false,"rental_uris":{"android":"levelo://app?vid=ea88bc52-0141-4150-8478-5a41838844ef","ios":"levelo://app?vid=ea88bc52-0141-4150-8478-5a41838844ef"},"vehicle_type_id":"4","last_reported":1738332501,"current_range_meters":38400,"station_id":"","pricing_plan_id":"cebpf4jnsgd1na2vs0mg"},{"bike_id":"e76772ad-4d7b-4743-aa72-133535f3d9df","system_id":"levelo_inurba_marseille","lat":43.296239,"lon":5.377045,"is_reserved":false,"is_disabled":true,"rental_uris":{"android":"levelo://app?vid=e76772ad-4d7b-4743-aa72-133535f3d9df","ios":"levelo://app?vid=e76772ad-4d7b-4743-aa72-133535f3d9df"},"vehicle_type_id":"4","last_reported":1738332501,"current_range_meters":0,"station_id":"","pricing_plan_id":"cebpf4jnsgd1na2vs0mg"},{"bike_id":"bbd9f5df-03c1-4998-810f-64b402aa9000","system_id":"levelo_inurba_marseille","lat":43.27967,"lon":5.38711,"is_reserved":false,"is_disabled":false,"rental_uris":{"android":"levelo://app?vid=bbd9f5df-03c1-4998-810f-64b402aa9000","ios":"levelo://app?vid=bbd9f5df-03c1-4998-810f-64b402aa9000"},"vehicle_type_id":"4","last_reported":1738332501,"current_range_meters":39200,"station_id":"ce4bhg12rcd13ifvqf80","pricing_plan_id":"cebpf4jnsgd1na2vs0mg"},{"bike_id":"ab2c796a-c23b-4a3a-9534-777b873d6a05","system_id":"levelo_inurba_marseille","lat":43.24176,"lon":5.36409,"is_reserved":false,"is_disabled":false,"rental_uris":{"android":"levelo://app?vid=ab2c796a-c23b-4a3a-9534-777b873d6a05","ios":"levelo://app?vid=ab2c796a-c23b-4a3a-9534-777b873d6a05"},"vehicle_type_id":"4","last_reported":1738332501,"current_range_meters":36800,"station_id":"cpo36qri1sfpv3e86is0","pricing_plan_id":"cebpf4jnsgd1na2vs0mg"},{"bike_id":"58feef8f-17b5-470d-8151-c7a13f0dbe24","system_id":"levelo_inurba_marseille","lat":43.28329,"lon":5.3726,"is_reserved":false,"is_disabled":true,"rental_uris":{"android":"levelo://app?vid=58feef8f-17b5-470d-8151-c7a13f0dbe24","ios":"levelo://app?vid=58feef8f-17b5-470d-8151-c7a13f0dbe24"},"vehicle_type_id":"4","last_reported":1738332501,"current_range_meters":800,"station_id":"ce4bh412rcd13ifvqds0","pricing_plan_id":"cebpf4jnsgd1na2vs0mg"},{"bike_id":"9bfb3bca-0d21-44b9-a0d0-eca905133ea5","system_id":"levelo_inurba_marseille","lat":43.25138,"lon":5.40331,"is_reserved":false,"is_disabled":false,"rental_uris":{"android":"levelo://app?vid=9bfb3bca-0d21-44b9-a0d0-eca905133ea5","ios":"levelo://app?vid=9bfb3bca-0d21-44b9-a0d0-eca905133ea5"},"vehicle_type_id":"4","last_reported":1738332501,"current_range_meters":31200,"station_id":"ce4bhlh2rcd13ifvqgig","pricing_plan_id":"cebpf4jnsgd1na2vs0mg"},{"bike_id":"d83b63d7-f5b8-44c0-908b-360bd27ceb89","system_id":"levelo_inurba_marseille","lat":43.27201,"lon":5.39216,"is_reserved":false,"is_disabled":false,"rental_uris":{"android":"levelo://app?vid=d83b63d7-f5b8-44c0-908b-360bd27ceb89","ios":"levelo://app?vid=d83b63d7-f5b8-44c0-908b-360bd27ceb89"},"vehicle_type_id":"4","last_reported":1738332501,"current_range_meters":39200,"station_id":"ce4bhhp2rcd13ifvqfm0","pricing_plan_id":"cebpf4jnsgd1na2vs0mg"},{"bike_id":"d7123e37-9e59-427b-b913-7dc09c78c039","system_id":"levelo_inurba_marseille","lat":43.28727,"lon":5.39989,"is_reserved":false,"is_disabled":false,"rental_uris":{"android":"levelo://app?vid=d7123e37-9e59-427b-b913-7dc09c78c039","ios":"levelo://app?vid=d7123e37-9e59-427b-b913-7dc09c78c039"},"vehicle_type_id":"4","last_reported":1738332501,"current_range_meters":18800,"station_id":"ce4bho92rcd13ifvqh3g","pricing_plan_id":"cebpf4jnsgd1na2vs0mg"},{"bike_id":"b3f9d40e-c6c3-4e70-a1cf-be32056d433c","system_id":"levelo_inurba_marseille","lat":43.24394,"lon":5.37054,"is_reserved":false,"is_disabled":false,"rental_uris":{"android":"levelo://app?vid=b3f9d40e-c6c3-4e70-a1cf-be32056d433c","ios":"levelo://app?vid=b3f9d40e-c6c3-4e70-a1cf-be32056d433c"},"vehicle_type_id":"4","last_reported":1738332501,"current_range_meters":31200,"station_id":"ce4bhhh2rcd13ifvqfk0","pricing_plan_id":"cebpf4jnsgd1na2vs0mg"},{"bike_id":"fc2dee61-6a5e-41ce-a75c-e2029dcb39bc","system_id":"levelo_inurba_marseille","lat":43.26557,"lon":5.3729,"is_reserved":false,"is_disabled":false,"rental_uris":{"android":"levelo://app?vid=fc2dee61-6a5e-41ce-a75c-e2029dcb39bc","ios":"levelo://app?vid=fc2dee61-6a5e-41ce-a75c-e2029dcb39bc"},"vehicle_type_id":"4","last_reported":1738332501,"current_range_meters":13600,"station_id":"ce4bhg12rcd13ifvqf70","pricing_plan_id":"cebpf4jnsgd1na2vs0mg"},{"bike_id":"866e1aac-afb3-42bc-97ef-69d419e0b0e0","system_id":"levelo_inurba_marseille","lat":43.30544,"lon":5.36539,"is_reserved":false,"is_disabled":false,"rental_uris":{"android":"levelo://app?vid=866e1aac-afb3-42bc-97ef-69d419e0b0e0","ios":"levelo://app?vid=866e1aac-afb3-42bc-97ef-69d419e0b0e0"},"vehicle_type_id":"4","last_reported":1738332501,"current_range_meters":28000,"station_id":"ce4bgs12rcd13ifvqcag","pricing_plan_id":"cebpf4jnsgd1na2vs0mg"},{"bike_id":"9e339c3c-213c-4c74-b9a0-6668fa8e92c3","system_id":"levelo_inurba_marseille","lat":43.29273,"lon":5.36857,"is_reserved":false,"is_disabled":false,"rental_uris":{"android":"levelo://app?vid=9e339c3c-213c-4c74-b9a0-6668fa8e92c3","ios":"levelo://app?vid=9e339c3c-213c-4c74-b9a0-6668fa8e92c3"},"vehicle_type_id":"4","last_reported":1738332501,"current_range_meters":32800,"station_id":"ce4bhbp2rcd13ifvqesg","pricing_plan_id":"cebpf4jnsgd1na2vs0mg"},{"bike_id":"6495d327-1755-40f7-a8d7-5c825451b09b","system_id":"levelo_inurba_marseille","lat":43.27072,"lon":5.42284,"is_reserved":false,"is_disabled":false,"rental_uris":{"android":"levelo://app?vid=6495d327-1755-40f7-a8d7-5c825451b09b","ios":"levelo://app?vid=6495d327-1755-40f7-a8d7-5c825451b09b"},"vehicle_type_id":"4","last_reported":1738332501,"current_range_meters":6800,"station_id":"ce4bhk92rcd13ifvqgb0","pricing_plan_id":"cebpf4jnsgd1na2vs0mg"},{"bike_id":"e8e1f7c6-d773-4c38-bfcc-4a6d773355ce","system_id":"levelo_inurba_marseille","lat":43.22948,"lon":5.35385,"is_reserved":false,"is_disabled":false,"rental_uris":{"android":"levelo://app?vid=e8e1f7c6-d773-4c38-bfcc-4a6d773355ce","ios":"levelo://app?vid=e8e1f7c6-d773-4c38-bfcc-4a6d773355ce"},"vehicle_type_id":"4","last_reported":1738332501,"current_range_meters":39200,"station_id":"cpo3532slgdg3j2ikp40","pricing_plan_id":"cebpf4jnsgd1na2vs0mg"},{"bike_id":"98f8e47d-584f-4f3e-b424-822b5fda866a","system_id":"levelo_inurba_marseille","lat":43.24179,"lon":5.3972,"is_reserved":false,"is_disabled":false,"rental_uris":{"android":"levelo://app?vid=98f8e47d-584f-4f3e-b424-822b5fda866a","ios":"levelo://app?vid=98f8e47d-584f-4f3e-b424-822b5fda866a"},"vehicle_type_id":"4","last_reported":1738332501,"current_range_meters":22800,"station_id":"ce4bhn12rcd13ifvqgpg","pricing_plan_id":"cebpf4jnsgd1na2vs0mg"},{"bike_id":"394c09c8-a5ce-4221-82ff-80800718ab85","system_id":"levelo_inurba_marseille","lat":43.29331,"lon":5.37159,"is_reserved":false,"is_disabled":false,"rental_uris":{"android":"levelo://app?vid=394c09c8-a5ce-4221-82ff-80800718ab85","ios":"levelo://app?vid=394c09c8-a5ce-4221-82ff-80800718ab85"},"vehicle_type_id":"4","last_reported":1738332501,"current_range_meters":37600,"station_id":"ce4bgh92rcd13ifvqb40","pricing_plan_id":"cebpf4jnsgd1na2vs0mg"},{"bike_id":"3d3b7b90-c713-4e85-b130-74fe3c6a6733","system_id":"levelo_inurba_marseille","lat":43.26192,"lon":5.37456,"is_reserved":false,"is_disabled":false,"rental_uris":{"android":"levelo://app?vid=3d3b7b90-c713-4e85-b130-74fe3c6a6733","ios":"levelo://app?vid=3d3b7b90-c713-4e85-b130-74fe3c6a6733"},"vehicle_type_id":"4","last_reported":1738332501,"current_range_meters":29600,"station_id":"ce4bhgp2rcd13ifvqfc0","pricing_plan_id":"cebpf4jnsgd1na2vs0mg"},{"bike_id":"888770a9-8e73-4700-ad4a-e18595403e5b","system_id":"levelo_inurba_marseille","lat":43.25585,"lon":5.3827,"is_reserved":false,"is_disabled":false,"rental_uris":{"android":"levelo://app?vid=888770a9-8e73-4700-ad4a-e18595403e5b","ios":"levelo://app?vid=888770a9-8e73-4700-ad4a-e18595403e5b"},"vehicle_type_id":"4","last_reported":1738332501,"current_range_meters":10800,"station_id":"ce4bhih2rcd13ifvqfs0","pricing_plan_id":"cebpf4jnsgd1na2vs0mg"},{"bike_id":"e9c40b8c-a67c-4bd3-acca-2d60fbd89f4b","system_id":"levelo_inurba_marseille","lat":43.30305,"lon":5.3692,"is_reserved":false,"is_disabled":false,"rental_uris":{"android":"levelo://app?vid=e9c40b8c-a67c-4bd3-acca-2d60fbd89f4b","ios":"levelo://app?vid=e9c40b8c-a67c-4bd3-acca-2d60fbd89f4b"},"vehicle_type_id":"4","last_reported":1738332501,"current_range_meters":38800,"station_id":"ce4bgqh2rcd13ifvqc5g","pricing_plan_id":"cebpf4jnsgd1na2vs0mg"},{"bike_id":"e3d8a223-fb6b-449d-8e45-ad3295748cda","system_id":"levelo_inurba_marseille","lat":43.29578,"lon":5.38138,"is_reserved":false,"is_disabled":false,"rental_uris":{"android":"levelo://app?vid=e3d8a223-fb6b-449d-8e45-ad3295748cda","ios":"levelo://app?vid=e3d8a223-fb6b-449d-8e45-ad3295748cda"},"vehicle_type_id":"4","last_reported":1738332501,"current_range_meters":34800,"station_id":"ce4bgl12rcd13ifvqbo0","pricing_plan_id":"cebpf4jnsgd1na2vs0mg"},{"bike_id":"15a4cde9-9176-4b0a-baea-7f4f797bb1d5","system_id":"levelo_inurba_marseille","lat":43.30185,"lon":5.36608,"is_reserved":false,"is_disabled":false,"rental_uris":{"android":"levelo://app?vid=15a4cde9-9176-4b0a-baea-7f4f797bb1d5","ios":"levelo://app?vid=15a4cde9-9176-4b0a-baea-7f4f797bb1d5"},"vehicle_type_id":"4","last_reported":1738332501,"current_range_meters":36400,"station_id":"ce4bgrh2rcd13ifvqc8g","pricing_plan_id":"cebpf4jnsgd1na2vs0mg"},{"bike_id":"60335d1b-4a92-46bd-8eca-dffb02768c78","system_id":"levelo_inurba_marseille","lat":43.249976,"lon":5.38935,"is_reserved":false,"is_disabled":false,"rental_uris":{"android":"levelo://app?vid=60335d1b-4a92-46bd-8eca-dffb02768c78","ios":"levelo://app?vid=60335d1b-4a92-46bd-8eca-dffb02768c78"},"vehicle_type_id":"4","last_reported":1738332501,"current_range_meters":16000,"station_id":"ce4bhgp2rcd13ifvqfd0","pricing_plan_id":"cebpf4jnsgd1na2vs0mg"},{"bike_id":"60911234-26e8-4f42-acbb-88b4c360ca2e","system_id":"levelo_inurba_marseille","lat":43.250029,"lon":5.389291,"is_reserved":false,"is_disabled":false,"rental_uris":{"android":"levelo://app?vid=60911234-26e8-4f42-acbb-88b4c360ca2e","ios":"levelo://app?vid=60911234-26e8-4f42-acbb-88b4c360ca2e"},"vehicle_type_id":"4","last_reported":1738332501,"current_range_meters":30800,"station_id":"ce4bhgp2rcd13ifvqfd0","pricing_plan_id":"cebpf4jnsgd1na2vs0mg"},{"bike_id":"093c8b06-fbb3-4475-8115-69d3af51a857","system_id":"levelo_inurba_marseille","lat":43.30563,"lon":5.38418,"is_reserved":false,"is_disabled":false,"rental_uris":{"android":"levelo://app?vid=093c8b06-fbb3-4475-8115-69d3af51a857","ios":"levelo://app?vid=093c8b06-fbb3-4475-8115-69d3af51a857"},"vehicle_type_id":"4","last_reported":1738332501,"current_range_meters":38800,"station_id":"ce4bgg92rcd13ifvqb30","pricing_plan_id":"cebpf4jnsgd1na2vs0mg"},{"bike_id":"070218cf-5f55-4a87-b307-d0bbb1caf6f4","system_id":"levelo_inurba_marseille","lat":43.23197,"lon":5.39982,"is_reserved":false,"is_disabled":false,"rental_uris":{"android":"levelo://app?vid=070218cf-5f55-4a87-b307-d0bbb1caf6f4","ios":"levelo://app?vid=070218cf-5f55-4a87-b307-d0bbb1caf6f4"},"vehicle_type_id":"4","last_reported":1738332501,"current_range_meters":38800,"station_id":"ce4bhn12rcd13ifvqgqg","pricing_plan_id":"cebpf4jnsgd1na2vs0mg"},{"bike_id":"ce27dd8c-aaf1-4b5a-b307-aa8a4daf0be9","system_id":"levelo_inurba_marseille","lat":43.29802,"lon":5.38092,"is_reserved":false,"is_disabled":false,"rental_uris":{"android":"levelo://app?vid=ce27dd8c-aaf1-4b5a-b307-aa8a4daf0be9","ios":"levelo://app?vid=ce27dd8c-aaf1-4b5a-b307-aa8a4daf0be9"},"vehicle_type_id":"4","last_reported":1738332501,"current_range_meters":39200,"station_id":"ce4bgip2rcd13ifvqbb0","pricing_plan_id":"cebpf4jnsgd1na2vs0mg"},{"bike_id":"c807c779-0643-465e-a199-4981bf054e67","system_id":"levelo_inurba_marseille","lat":43.29603,"lon":5.37695,"is_reserved":false,"is_disabled":false,"rental_uris":{"android":"levelo://app?vid=c807c779-0643-465e-a199-4981bf054e67","ios":"levelo://app?vid=c807c779-0643-465e-a199-4981bf054e67"},"vehicle_type_id":"4","last_reported":1738332501,"current_range_meters":38800,"station_id":"ce4bgi92rcd13ifvqb90","pricing_plan_id":"cebpf4jnsgd1na2vs0mg"},{"bike_id":"71f34f72-d3b7-46a5-9bd4-1fe057b3152f","system_id":"levelo_inurba_marseille","lat":43.2293,"lon":5.35366,"is_reserved":false,"is_disabled":false,"rental_uris":{"android":"levelo://app?vid=71f34f72-d3b7-46a5-9bd4-1fe057b3152f","ios":"levelo://app?vid=71f34f72-d3b7-46a5-9bd4-1fe057b3152f"},"vehicle_type_id":"4","last_reported":1738332501,"current_range_meters":39200,"station_id":"cpo3532slgdg3j2ikp40","pricing_plan_id":"cebpf4jnsgd1na2vs0mg"},{"bike_id":"d0b3a083-2e3b-419d-a1e0-e5cd48dcb568","system_id":"levelo_inurba_marseille","lat":43.30772,"lon":5.37609,"is_reserved":false,"is_disabled":false,"rental_uris":{"android":"levelo://app?vid=d0b3a083-2e3b-419d-a1e0-e5cd48dcb568","ios":"levelo://app?vid=d0b3a083-2e3b-419d-a1e0-e5cd48dcb568"},"vehicle_type_id":"4","last_reported":1738332501,"current_range_meters":34800,"station_id":"ce4bgv92rcd13ifvqcq0","pricing_plan_id":"cebpf4jnsgd1na2vs0mg"},{"bike_id":"20029bdd-9f9c-4ff9-86e4-5ba6ed30f46a","system_id":"levelo_inurba_marseille","lat":43.23148,"lon":5.43705,"is_reserved":false,"is_disabled":true,"rental_uris":{"android":"levelo://app?vid=20029bdd-9f9c-4ff9-86e4-5ba6ed30f46a","ios":"levelo://app?vid=20029bdd-9f9c-4ff9-86e4-5ba6ed30f46a"},"vehicle_type_id":"4","last_reported":1738332501,"current_range_meters":0,"station_id":"ce4bhmp2rcd13ifvqgog","pricing_plan_id":"cebpf4jnsgd1na2vs0mg"},{"bike_id":"9a420f87-7d7e-4781-b326-9c09400ca210","system_id":"levelo_inurba_marseille","lat":43.26205,"lon":5.37463,"is_reserved":false,"is_disabled":false,"rental_uris":{"android":"levelo://app?vid=9a420f87-7d7e-4781-b326-9c09400ca210","ios":"levelo://app?vid=9a420f87-7d7e-4781-b326-9c09400ca210"},"vehicle_type_id":"4","last_reported":1738332501,"current_range_meters":38800,"station_id":"ce4bhgp2rcd13ifvqfc0","pricing_plan_id":"cebpf4jnsgd1na2vs0mg"},{"bike_id":"3d4b3e0a-4326-4344-bb72-09251a157a11","system_id":"levelo_inurba_marseille","lat":43.30552,"lon":5.3654,"is_reserved":false,"is_disabled":true,"rental_uris":{"android":"levelo://app?vid=3d4b3e0a-4326-4344-bb72-09251a157a11","ios":"levelo://app?vid=3d4b3e0a-4326-4344-bb72-09251a157a11"},"vehicle_type_id":"4","last_reported":1738332501,"current_range_meters":32800,"station_id":"ce4bgs12rcd13ifvqcag","pricing_plan_id":"cebpf4jnsgd1na2vs0mg"},{"bike_id":"f259c60b-7ccd-4f59-b54b-010f7b46aeda","system_id":"levelo_inurba_marseille","lat":43.29251,"lon":5.38441,"is_reserved":false,"is_disabled":false,"rental_uris":{"android":"levelo://app?vid=f259c60b-7ccd-4f59-b54b-010f7b46aeda","ios":"levelo://app?vid=f259c60b-7ccd-4f59-b54b-010f7b46aeda"},"vehicle_type_id":"4","last_reported":1738332501,"current_range_meters":38400,"station_id":"ce4bh692rcd13ifvqea0","pricing_plan_id":"cebpf4jnsgd1na2vs0mg"},{"bike_id":"c7b7d5dc-fcd4-4974-ac80-02e658adb2bb","system_id":"levelo_inurba_marseille","lat":43.30172,"lon":5.38077,"is_reserved":false,"is_disabled":false,"rental_uris":{"android":"levelo://app?vid=c7b7d5dc-fcd4-4974-ac80-02e658adb2bb","ios":"levelo://app?vid=c7b7d5dc-fcd4-4974-ac80-02e658adb2bb"},"vehicle_type_id":"4","last_reported":1738332501,"current_range_meters":38400,"station_id":"ce4bgjp2rcd13ifvqbh0","pricing_plan_id":"cebpf4jnsgd1na2vs0mg"},{"bike_id":"b7c67c9d-20bb-496a-a0df-618401506efd","system_id":"levelo_inurba_marseille","lat":43.30153,"lon":5.38079,"is_reserved":false,"is_disabled":false,"rental_uris":{"android":"levelo://app?vid=b7c67c9d-20bb-496a-a0df-618401506efd","ios":"levelo://app?vid=b7c67c9d-20bb-496a-a0df-618401506efd"},"vehicle_type_id":"4","last_reported":1738332501,"current_range_meters":38400,"station_id":"ce4bgjp2rcd13ifvqbh0","pricing_plan_id":"cebpf4jnsgd1na2vs0mg"},{"bike_id":"e31fc100-24d2-41f5-b723-e966060816c5","system_id":"levelo_inurba_marseille","lat":43.30552,"lon":5.38439,"is_reserved":false,"is_disabled":false,"rental_uris":{"android":"levelo://app?vid=e31fc100-24d2-41f5-b723-e966060816c5","ios":"levelo://app?vid=e31fc100-24d2-41f5-b723-e966060816c5"},"vehicle_type_id":"4","last_reported":1738332501,"current_range_meters":38800,"station_id":"ce4bgg92rcd13ifvqb30","pricing_plan_id":"cebpf4jnsgd1na2vs0mg"},{"bike_id":"05865aae-e7aa-4436-809a-640be4d9286b","system_id":"levelo_inurba_marseille","lat":43.30194,"lon":5.38114,"is_reserved":false,"is_disabled":false,"rental_uris":{"android":"levelo://app?vid=05865aae-e7aa-4436-809a-640be4d9286b","ios":"levelo://app?vid=05865aae-e7aa-4436-809a-640be4d9286b"},"vehicle_type_id":"4","last_reported":1738332501,"current_range_meters":28000,"station_id":"","pricing_plan_id":"cebpf4jnsgd1na2vs0mg"},{"bike_id":"491407c5-a175-44f0-86fc-0f4ccadf82e3","system_id":"levelo_inurba_marseille","lat":43.337444,"lon":5.374475,"is_reserved":false,"is_disabled":true,"rental_uris":{"android":"levelo://app?vid=491407c5-a175-44f0-86fc-0f4ccadf82e3","ios":"levelo://app?vid=491407c5-a175-44f0-86fc-0f4ccadf82e3"},"vehicle_type_id":"4","last_reported":1738332501,"current_range_meters":0,"station_id":"","pricing_plan_id":"cebpf4jnsgd1na2vs0mg"},{"bike_id":"45fd4a2a-a5dc-4b7e-962f-4641aedb60dd","system_id":"levelo_inurba_marseille","lat":43.27996,"lon":5.41667,"is_reserved":false,"is_disabled":false,"rental_uris":{"android":"levelo://app?vid=45fd4a2a-a5dc-4b7e-962f-4641aedb60dd","ios":"levelo://app?vid=45fd4a2a-a5dc-4b7e-962f-4641aedb60dd"},"vehicle_type_id":"4","last_reported":1738332501,"current_range_meters":38800,"station_id":"ce4bho12rcd13ifvqh1g","pricing_plan_id":"cebpf4jnsgd1na2vs0mg"},{"bike_id":"1e2757ee-0eae-44ad-91cf-f612260ef51a","system_id":"levelo_inurba_marseille","lat":43.31768,"lon":5.3899,"is_reserved":false,"is_disabled":false,"rental_uris":{"android":"levelo://app?vid=1e2757ee-0eae-44ad-91cf-f612260ef51a","ios":"levelo://app?vid=1e2757ee-0eae-44ad-91cf-f612260ef51a"},"vehicle_type_id":"4","last_reported":1738332501,"current_range_meters":27200,"station_id":"ce4bhqp2rcd13ifvqhng","pricing_plan_id":"cebpf4jnsgd1na2vs0mg"},{"bike_id":"e0fa973b-ae15-4def-bc19-0522b966aa01","system_id":"levelo_inurba_marseille","lat":43.29024,"lon":5.38639,"is_reserved":false,"is_disabled":false,"rental_uris":{"android":"levelo://app?vid=e0fa973b-ae15-4def-bc19-0522b966aa01","ios":"levelo://app?vid=e0fa973b-ae15-4def-bc19-0522b966aa01"},"vehicle_type_id":"4","last_reported":1738332501,"current_range_meters":28000,"station_id":"ce4bh4p2rcd13ifvqe0g","pricing_plan_id":"cebpf4jnsgd1na2vs0mg"},{"bike_id":"85dc79fa-7cfe-486f-bd44-df0298578b4f","system_id":"levelo_inurba_marseille","lat":43.29587,"lon":5.36746,"is_reserved":false,"is_disabled":false,"rental_uris":{"android":"levelo://app?vid=85dc79fa-7cfe-486f-bd44-df0298578b4f","ios":"levelo://app?vid=85dc79fa-7cfe-486f-bd44-df0298578b4f"},"vehicle_type_id":"4","last_reported":1738332501,"current_range_meters":38800,"station_id":"ce4bgph2rcd13ifvqc2g","pricing_plan_id":"cebpf4jnsgd1na2vs0mg"},{"bike_id":"95aee25f-5c57-4ea4-ae9b-fd75ffb2acea","system_id":"levelo_inurba_marseille","lat":43.23198,"lon":5.39955,"is_reserved":false,"is_disabled":false,"rental_uris":{"android":"levelo://app?vid=95aee25f-5c57-4ea4-ae9b-fd75ffb2acea","ios":"levelo://app?vid=95aee25f-5c57-4ea4-ae9b-fd75ffb2acea"},"vehicle_type_id":"4","last_reported":1738332501,"current_range_meters":30800,"station_id":"ce4bhn12rcd13ifvqgqg","pricing_plan_id":"cebpf4jnsgd1na2vs0mg"},{"bike_id":"528fe304-774b-4f5e-99b0-3a6df52f7bd5","system_id":"levelo_inurba_marseille","lat":43.26944,"lon":5.40254,"is_reserved":false,"is_disabled":false,"rental_uris":{"android":"levelo://app?vid=528fe304-774b-4f5e-99b0-3a6df52f7bd5","ios":"levelo://app?vid=528fe304-774b-4f5e-99b0-3a6df52f7bd5"},"vehicle_type_id":"4","last_reported":1738332501,"current_range_meters":24800,"station_id":"cjm6bp8fraef2m0cb0m0","pricing_plan_id":"cebpf4jnsgd1na2vs0mg"},{"bike_id":"0f7c70b6-5d6b-46fa-8bd3-5f07fec357ba","system_id":"levelo_inurba_marseille","lat":43.29977,"lon":5.37161,"is_reserved":false,"is_disabled":false,"rental_uris":{"android":"levelo://app?vid=0f7c70b6-5d6b-46fa-8bd3-5f07fec357ba","ios":"levelo://app?vid=0f7c70b6-5d6b-46fa-8bd3-5f07fec357ba"},"vehicle_type_id":"4","last_reported":1738332501,"current_range_meters":28400,"station_id":"ce4bgr92rcd13ifvqc7g","pricing_plan_id":"cebpf4jnsgd1na2vs0mg"},{"bike_id":"c29efa44-984d-4c76-ab5f-60fe4a87f1bb","system_id":"levelo_inurba_marseille","lat":43.26694,"lon":5.38275,"is_reserved":false,"is_disabled":false,"rental_uris":{"android":"levelo://app?vid=c29efa44-984d-4c76-ab5f-60fe4a87f1bb","ios":"levelo://app?vid=c29efa44-984d-4c76-ab5f-60fe4a87f1bb"},"vehicle_type_id":"4","last_reported":1738332501,"current_range_meters":38000,"station_id":"ce4bhg92rcd13ifvqf90","pricing_plan_id":"cebpf4jnsgd1na2vs0mg"},{"bike_id":"83670237-1169-4d86-80d0-7c6422f4f267","system_id":"levelo_inurba_marseille","lat":43.28937,"lon":5.36387,"is_reserved":false,"is_disabled":false,"rental_uris":{"android":"levelo://app?vid=83670237-1169-4d86-80d0-7c6422f4f267","ios":"levelo://app?vid=83670237-1169-4d86-80d0-7c6422f4f267"},"vehicle_type_id":"4","last_reported":1738332501,"current_range_meters":32800,"station_id":"ce4bhc92rcd13ifvqetg","pricing_plan_id":"cebpf4jnsgd1na2vs0mg"},{"bike_id":"02355433-2fc1-4a2f-b570-8375aef7b29c","system_id":"levelo_inurba_marseille","lat":43.32034,"lon":5.41565,"is_reserved":false,"is_disabled":false,"rental_uris":{"android":"levelo://app?vid=02355433-2fc1-4a2f-b570-8375aef7b29c","ios":"levelo://app?vid=02355433-2fc1-4a2f-b570-8375aef7b29c"},"vehicle_type_id":"4","last_reported":1738332501,"current_range_meters":25200,"station_id":"ce4bhq92rcd13ifvqhkg","pricing_plan_id":"cebpf4jnsgd1na2vs0mg"},{"bike_id":"433b5f4b-2daa-4fc0-8782-e47238d8b13b","system_id":"levelo_inurba_marseille","lat":43.3128,"lon":5.4016,"is_reserved":false,"is_disabled":false,"rental_uris":{"android":"levelo://app?vid=433b5f4b-2daa-4fc0-8782-e47238d8b13b","ios":"levelo://app?vid=433b5f4b-2daa-4fc0-8782-e47238d8b13b"},"vehicle_type_id":"4","last_reported":1738332501,"current_range_meters":16400,"station_id":"ce4bh092rcd13ifvqd30","pricing_plan_id":"cebpf4jnsgd1na2vs0mg"},{"bike_id":"6725a974-636a-4cad-bf4d-273395199ad4","system_id":"levelo_inurba_marseille","lat":43.33728,"lon":5.39179,"is_reserved":false,"is_disabled":false,"rental_uris":{"android":"levelo://app?vid=6725a974-636a-4cad-bf4d-273395199ad4","ios":"levelo://app?vid=6725a974-636a-4cad-bf4d-273395199ad4"},"vehicle_type_id":"4","last_reported":1738332501,"current_range_meters":24800,"station_id":"","pricing_plan_id":"cebpf4jnsgd1na2vs0mg"},{"bike_id":"e36db202-a0c5-4337-b881-dbba49b15e2b","system_id":"levelo_inurba_marseille","lat":43.2396,"lon":5.3664,"is_reserved":false,"is_disabled":false,"rental_uris":{"android":"levelo://app?vid=e36db202-a0c5-4337-b881-dbba49b15e2b","ios":"levelo://app?vid=e36db202-a0c5-4337-b881-dbba49b15e2b"},"vehicle_type_id":"4","last_reported":1738332501,"current_range_meters":20000,"station_id":"ce4bhi12rcd13ifvqfp0","pricing_plan_id":"cebpf4jnsgd1na2vs0mg"},{"bike_id":"bd8a828d-e634-4034-9cac-55889d5bbfa5","system_id":"levelo_inurba_marseille","lat":43.28155,"lon":5.42636,"is_reserved":false,"is_disabled":false,"rental_uris":{"android":"levelo://app?vid=bd8a828d-e634-4034-9cac-55889d5bbfa5","ios":"levelo://app?vid=bd8a828d-e634-4034-9cac-55889d5bbfa5"},"vehicle_type_id":"4","last_reported":1738332501,"current_range_meters":26000,"station_id":"ce4bhnh2rcd13ifvqgug","pricing_plan_id":"cebpf4jnsgd1na2vs0mg"},{"bike_id":"877d586a-7b22-4970-99b0-f8bdbeec674b","system_id":"levelo_inurba_marseille","lat":43.29604,"lon":5.37704,"is_reserved":false,"is_disabled":false,"rental_uris":{"android":"levelo://app?vid=877d586a-7b22-4970-99b0-f8bdbeec674b","ios":"levelo://app?vid=877d586a-7b22-4970-99b0-f8bdbeec674b"},"vehicle_type_id":"4","last_reported":1738332501,"current_range_meters":38000,"station_id":"ce4bgi92rcd13ifvqb90","pricing_plan_id":"cebpf4jnsgd1na2vs0mg"},{"bike_id":"56869ed2-b4d6-4fdb-aff2-8c618baecdc1","system_id":"levelo_inurba_marseille","lat":43.31081,"lon":5.42431,"is_reserved":false,"is_disabled":false,"rental_uris":{"android":"levelo://app?vid=56869ed2-b4d6-4fdb-aff2-8c618baecdc1","ios":"levelo://app?vid=56869ed2-b4d6-4fdb-aff2-8c618baecdc1"},"vehicle_type_id":"4","last_reported":1738332501,"current_range_meters":38000,"station_id":"ce4bhp92rcd13ifvqhag","pricing_plan_id":"cebpf4jnsgd1na2vs0mg"},{"bike_id":"f9d35a32-65b2-4842-bd83-8cbe10324274","system_id":"levelo_inurba_marseille","lat":43.28633,"lon":5.35103,"is_reserved":false,"is_disabled":false,"rental_uris":{"android":"levelo://app?vid=f9d35a32-65b2-4842-bd83-8cbe10324274","ios":"levelo://app?vid=f9d35a32-65b2-4842-bd83-8cbe10324274"},"vehicle_type_id":"4","last_reported":1738332501,"current_range_meters":12400,"station_id":"ce4bhch2rcd13ifvqeug","pricing_plan_id":"cebpf4jnsgd1na2vs0mg"},{"bike_id":"e737d6b4-980a-4244-b0b6-85b0751595d1","system_id":"levelo_inurba_marseille","lat":43.32065,"lon":5.41546,"is_reserved":false,"is_disabled":false,"rental_uris":{"android":"levelo://app?vid=e737d6b4-980a-4244-b0b6-85b0751595d1","ios":"levelo://app?vid=e737d6b4-980a-4244-b0b6-85b0751595d1"},"vehicle_type_id":"4","last_reported":1738332501,"current_range_meters":36000,"station_id":"ce4bhq92rcd13ifvqhkg","pricing_plan_id":"cebpf4jnsgd1na2vs0mg"},{"bike_id":"9d402fed-0d7f-4c33-ae87-1f54a7a1f2d1","system_id":"levelo_inurba_marseille","lat":43.26947,"lon":5.3888,"is_reserved":false,"is_disabled":false,"rental_uris":{"android":"levelo://app?vid=9d402fed-0d7f-4c33-ae87-1f54a7a1f2d1","ios":"levelo://app?vid=9d402fed-0d7f-4c33-ae87-1f54a7a1f2d1"},"vehicle_type_id":"4","last_reported":1738332501,"current_range_meters":20000,"station_id":"ce4bhhh2rcd13ifvqfl0","pricing_plan_id":"cebpf4jnsgd1na2vs0mg"},{"bike_id":"41ccd695-6882-4df4-b7d5-4da52627149f","system_id":"levelo_inurba_marseille","lat":43.24404,"lon":5.37057,"is_reserved":false,"is_disabled":false,"rental_uris":{"android":"levelo://app?vid=41ccd695-6882-4df4-b7d5-4da52627149f","ios":"levelo://app?vid=41ccd695-6882-4df4-b7d5-4da52627149f"},"vehicle_type_id":"4","last_reported":1738332501,"current_range_meters":27200,"station_id":"ce4bhhh2rcd13ifvqfk0","pricing_plan_id":"cebpf4jnsgd1na2vs0mg"},{"bike_id":"404f616a-0dd1-4b8b-840a-ab91d61147dd","system_id":"levelo_inurba_marseille","lat":43.28665,"lon":5.38675,"is_reserved":false,"is_disabled":false,"rental_uris":{"android":"levelo://app?vid=404f616a-0dd1-4b8b-840a-ab91d61147dd","ios":"levelo://app?vid=404f616a-0dd1-4b8b-840a-ab91d61147dd"},"vehicle_type_id":"4","last_reported":1738332501,"current_range_meters":17200,"station_id":"ce4bh492rcd13ifvqdug","pricing_plan_id":"cebpf4jnsgd1na2vs0mg"},{"bike_id":"5cbdbab0-67fc-4efc-a893-43bc49c7a99f","system_id":"levelo_inurba_marseille","lat":43.26496,"lon":5.39549,"is_reserved":false,"is_disabled":false,"rental_uris":{"android":"levelo://app?vid=5cbdbab0-67fc-4efc-a893-43bc49c7a99f","ios":"levelo://app?vid=5cbdbab0-67fc-4efc-a893-43bc49c7a99f"},"vehicle_type_id":"4","last_reported":1738332501,"current_range_meters":37600,"station_id":"ce4bhi12rcd13ifvqfq0","pricing_plan_id":"cebpf4jnsgd1na2vs0mg"},{"bike_id":"759c4a02-5987-4b3a-a60a-471843eb4b79","system_id":"levelo_inurba_marseille","lat":43.25125,"lon":5.4033,"is_reserved":false,"is_disabled":false,"rental_uris":{"android":"levelo://app?vid=759c4a02-5987-4b3a-a60a-471843eb4b79","ios":"levelo://app?vid=759c4a02-5987-4b3a-a60a-471843eb4b79"},"vehicle_type_id":"4","last_reported":1738332501,"current_range_meters":30800,"station_id":"ce4bhlh2rcd13ifvqgig","pricing_plan_id":"cebpf4jnsgd1na2vs0mg"},{"bike_id":"ad3cdf25-9963-4fac-b030-f249efcede1b","system_id":"levelo_inurba_marseille","lat":43.24382,"lon":5.37059,"is_reserved":false,"is_disabled":false,"rental_uris":{"android":"levelo://app?vid=ad3cdf25-9963-4fac-b030-f249efcede1b","ios":"levelo://app?vid=ad3cdf25-9963-4fac-b030-f249efcede1b"},"vehicle_type_id":"4","last_reported":1738332501,"current_range_meters":39200,"station_id":"ce4bhhh2rcd13ifvqfk0","pricing_plan_id":"cebpf4jnsgd1na2vs0mg"},{"bike_id":"0ed39a79-e831-4aa5-ab3f-13a3ae3a3ee8","system_id":"levelo_inurba_marseille","lat":43.30544,"lon":5.36521,"is_reserved":false,"is_disabled":false,"rental_uris":{"android":"levelo://app?vid=0ed39a79-e831-4aa5-ab3f-13a3ae3a3ee8","ios":"levelo://app?vid=0ed39a79-e831-4aa5-ab3f-13a3ae3a3ee8"},"vehicle_type_id":"4","last_reported":1738332501,"current_range_meters":3600,"station_id":"ce4bgs12rcd13ifvqcag","pricing_plan_id":"cebpf4jnsgd1na2vs0mg"},{"bike_id":"56d6b97f-30a2-4c2a-8be6-a12a9fc19507","system_id":"levelo_inurba_marseille","lat":43.31765,"lon":5.39024,"is_reserved":false,"is_disabled":false,"rental_uris":{"android":"levelo://app?vid=56d6b97f-30a2-4c2a-8be6-a12a9fc19507","ios":"levelo://app?vid=56d6b97f-30a2-4c2a-8be6-a12a9fc19507"},"vehicle_type_id":"4","last_reported":1738332501,"current_range_meters":13600,"station_id":"ce4bhqp2rcd13ifvqhng","pricing_plan_id":"cebpf4jnsgd1na2vs0mg"},{"bike_id":"d2a61873-58f7-4bc8-abeb-3ce8c1c55c8d","system_id":"levelo_inurba_marseille","lat":43.27176,"lon":5.40988,"is_reserved":false,"is_disabled":false,"rental_uris":{"android":"levelo://app?vid=d2a61873-58f7-4bc8-abeb-3ce8c1c55c8d","ios":"levelo://app?vid=d2a61873-58f7-4bc8-abeb-3ce8c1c55c8d"},"vehicle_type_id":"4","last_reported":1738332501,"current_range_meters":12000,"station_id":"ce4bhl12rcd13ifvqgf0","pricing_plan_id":"cebpf4jnsgd1na2vs0mg"},{"bike_id":"886f5647-6d96-4407-a6ba-a2c7bb81b7c4","system_id":"levelo_inurba_marseille","lat":43.27918,"lon":5.3958,"is_reserved":false,"is_disabled":false,"rental_uris":{"android":"levelo://app?vid=886f5647-6d96-4407-a6ba-a2c7bb81b7c4","ios":"levelo://app?vid=886f5647-6d96-4407-a6ba-a2c7bb81b7c4"},"vehicle_type_id":"4","last_reported":1738332501,"current_range_meters":9600,"station_id":"ce4bhf92rcd13ifvqf40","pricing_plan_id":"cebpf4jnsgd1na2vs0mg"},{"bike_id":"b61407a7-d93a-47a9-ae07-fdf92f9b0164","system_id":"levelo_inurba_marseille","lat":43.27623,"lon":5.36106,"is_reserved":false,"is_disabled":true,"rental_uris":{"android":"levelo://app?vid=b61407a7-d93a-47a9-ae07-fdf92f9b0164","ios":"levelo://app?vid=b61407a7-d93a-47a9-ae07-fdf92f9b0164"},"vehicle_type_id":"4","last_reported":1738332501,"current_range_meters":1600,"station_id":"ce4bgj92rcd13ifvqbe0","pricing_plan_id":"cebpf4jnsgd1na2vs0mg"},{"bike_id":"762df4da-1b73-47f9-917a-6eaccc4e896e","system_id":"levelo_inurba_marseille","lat":43.28275,"lon":5.35065,"is_reserved":false,"is_disabled":false,"rental_uris":{"android":"levelo://app?vid=762df4da-1b73-47f9-917a-6eaccc4e896e","ios":"levelo://app?vid=762df4da-1b73-47f9-917a-6eaccc4e896e"},"vehicle_type_id":"4","last_reported":1738332501,"current_range_meters":30800,"station_id":"ce4bhbp2rcd13ifvqerg","pricing_plan_id":"cebpf4jnsgd1na2vs0mg"},{"bike_id":"05265015-6848-4037-b276-857fb0dc3427","system_id":"levelo_inurba_marseille","lat":43.25865,"lon":5.39893,"is_reserved":false,"is_disabled":false,"rental_uris":{"android":"levelo://app?vid=05265015-6848-4037-b276-857fb0dc3427","ios":"levelo://app?vid=05265015-6848-4037-b276-857fb0dc3427"},"vehicle_type_id":"4","last_reported":1738332501,"current_range_meters":17200,"station_id":"ce4bhl92rcd13ifvqghg","pricing_plan_id":"cebpf4jnsgd1na2vs0mg"},{"bike_id":"cfbb5204-c0e4-43d6-b3e4-9696e0ec11e8","system_id":"levelo_inurba_marseille","lat":43.25086,"lon":5.39517,"is_reserved":false,"is_disabled":false,"rental_uris":{"android":"levelo://app?vid=cfbb5204-c0e4-43d6-b3e4-9696e0ec11e8","ios":"levelo://app?vid=cfbb5204-c0e4-43d6-b3e4-9696e0ec11e8"},"vehicle_type_id":"4","last_reported":1738332501,"current_range_meters":10800,"station_id":"ce4bhm12rcd13ifvqgkg","pricing_plan_id":"cebpf4jnsgd1na2vs0mg"},{"bike_id":"8382186f-0d25-40e6-beca-2632cc8590f2","system_id":"levelo_inurba_marseille","lat":43.29553,"lon":5.42284,"is_reserved":false,"is_disabled":false,"rental_uris":{"android":"levelo://app?vid=8382186f-0d25-40e6-beca-2632cc8590f2","ios":"levelo://app?vid=8382186f-0d25-40e6-beca-2632cc8590f2"},"vehicle_type_id":"4","last_reported":1738332501,"current_range_meters":39200,"station_id":"ce4bhph2rcd13ifvqhdg","pricing_plan_id":"cebpf4jnsgd1na2vs0mg"},{"bike_id":"96caf13d-4c9d-4188-87b8-598aebcea853","system_id":"levelo_inurba_marseille","lat":43.30524,"lon":5.36732,"is_reserved":false,"is_disabled":false,"rental_uris":{"android":"levelo://app?vid=96caf13d-4c9d-4188-87b8-598aebcea853","ios":"levelo://app?vid=96caf13d-4c9d-4188-87b8-598aebcea853"},"vehicle_type_id":"4","last_reported":1738332501,"current_range_meters":28000,"station_id":"ce4bgrp2rcd13ifvqc9g","pricing_plan_id":"cebpf4jnsgd1na2vs0mg"},{"bike_id":"e9e646f1-5c56-4fe2-adeb-d8c12f304f71","system_id":"levelo_inurba_marseille","lat":43.28928,"lon":5.36385,"is_reserved":false,"is_disabled":false,"rental_uris":{"android":"levelo://app?vid=e9e646f1-5c56-4fe2-adeb-d8c12f304f71","ios":"levelo://app?vid=e9e646f1-5c56-4fe2-adeb-d8c12f304f71"},"vehicle_type_id":"4","last_reported":1738332501,"current_range_meters":39200,"station_id":"ce4bhc92rcd13ifvqetg","pricing_plan_id":"cebpf4jnsgd1na2vs0mg"},{"bike_id":"6a3cbb9f-8663-4702-ab2f-57714697fccd","system_id":"levelo_inurba_marseille","lat":43.30141,"lon":5.37415,"is_reserved":false,"is_disabled":false,"rental_uris":{"android":"levelo://app?vid=6a3cbb9f-8663-4702-ab2f-57714697fccd","ios":"levelo://app?vid=6a3cbb9f-8663-4702-ab2f-57714697fccd"},"vehicle_type_id":"4","last_reported":1738332501,"current_range_meters":28400,"station_id":"ce4bgs92rcd13ifvqcc0","pricing_plan_id":"cebpf4jnsgd1na2vs0mg"},{"bike_id":"c5d83d2c-bbec-46e8-9c7c-458ad16298ea","system_id":"levelo_inurba_marseille","lat":43.29024,"lon":5.38123,"is_reserved":false,"is_disabled":false,"rental_uris":{"android":"levelo://app?vid=c5d83d2c-bbec-46e8-9c7c-458ad16298ea","ios":"levelo://app?vid=c5d83d2c-bbec-46e8-9c7c-458ad16298ea"},"vehicle_type_id":"4","last_reported":1738332501,"current_range_meters":38800,"station_id":"ce4bh4p2rcd13ifvqe1g","pricing_plan_id":"cebpf4jnsgd1na2vs0mg"},{"bike_id":"6cbf0a4e-38d6-47e5-9674-7835ff03a77f","system_id":"levelo_inurba_marseille","lat":43.29938,"lon":5.36544,"is_reserved":false,"is_disabled":false,"rental_uris":{"android":"levelo://app?vid=6cbf0a4e-38d6-47e5-9674-7835ff03a77f","ios":"levelo://app?vid=6cbf0a4e-38d6-47e5-9674-7835ff03a77f"},"vehicle_type_id":"4","last_reported":1738332501,"current_range_meters":24000,"station_id":"ce4bgm92rcd13ifvqbr0","pricing_plan_id":"cebpf4jnsgd1na2vs0mg"},{"bike_id":"4d15f71f-c704-4752-b9bb-fafdbf31d431","system_id":"levelo_inurba_marseille","lat":43.3015,"lon":5.38094,"is_reserved":false,"is_disabled":false,"rental_uris":{"android":"levelo://app?vid=4d15f71f-c704-4752-b9bb-fafdbf31d431","ios":"levelo://app?vid=4d15f71f-c704-4752-b9bb-fafdbf31d431"},"vehicle_type_id":"4","last_reported":1738332501,"current_range_meters":13600,"station_id":"ce4bgjp2rcd13ifvqbh0","pricing_plan_id":"cebpf4jnsgd1na2vs0mg"},{"bike_id":"32d9a329-7366-4eb8-8d55-73b5c99c70c3","system_id":"levelo_inurba_marseille","lat":43.23198,"lon":5.3554,"is_reserved":false,"is_disabled":false,"rental_uris":{"android":"levelo://app?vid=32d9a329-7366-4eb8-8d55-73b5c99c70c3","ios":"levelo://app?vid=32d9a329-7366-4eb8-8d55-73b5c99c70c3"},"vehicle_type_id":"4","last_reported":1738332501,"current_range_meters":38800,"station_id":"ce4bhu92rcd13ifvqi70","pricing_plan_id":"cebpf4jnsgd1na2vs0mg"},{"bike_id":"0a2fd205-d616-4064-aa75-d4d529957d90","system_id":"levelo_inurba_marseille","lat":43.23057,"lon":5.35467,"is_reserved":false,"is_disabled":false,"rental_uris":{"android":"levelo://app?vid=0a2fd205-d616-4064-aa75-d4d529957d90","ios":"levelo://app?vid=0a2fd205-d616-4064-aa75-d4d529957d90"},"vehicle_type_id":"4","last_reported":1738332501,"current_range_meters":20800,"station_id":"cpo3342slgdg3j2ifvpg","pricing_plan_id":"cebpf4jnsgd1na2vs0mg"},{"bike_id":"89683d19-781c-417e-9313-9a312d64d945","system_id":"levelo_inurba_marseille","lat":43.28421,"lon":5.34988,"is_reserved":false,"is_disabled":false,"rental_uris":{"android":"levelo://app?vid=89683d19-781c-417e-9313-9a312d64d945","ios":"levelo://app?vid=89683d19-781c-417e-9313-9a312d64d945"},"vehicle_type_id":"4","last_reported":1738332501,"current_range_meters":37600,"station_id":"ce4bhbh2rcd13ifvqepg","pricing_plan_id":"cebpf4jnsgd1na2vs0mg"},{"bike_id":"851692c4-6ece-4a71-ba19-f442921d2278","system_id":"levelo_inurba_marseille","lat":43.29894,"lon":5.43671,"is_reserved":false,"is_disabled":false,"rental_uris":{"android":"levelo://app?vid=851692c4-6ece-4a71-ba19-f442921d2278","ios":"levelo://app?vid=851692c4-6ece-4a71-ba19-f442921d2278"},"vehicle_type_id":"4","last_reported":1738332501,"current_range_meters":38000,"station_id":"ce4bhpp2rcd13ifvqhfg","pricing_plan_id":"cebpf4jnsgd1na2vs0mg"},{"bike_id":"36e3a682-dd00-4474-89d9-bbaf36706a41","system_id":"levelo_inurba_marseille","lat":43.27996,"lon":5.40023,"is_reserved":false,"is_disabled":false,"rental_uris":{"android":"levelo://app?vid=36e3a682-dd00-4474-89d9-bbaf36706a41","ios":"levelo://app?vid=36e3a682-dd00-4474-89d9-bbaf36706a41"},"vehicle_type_id":"4","last_reported":1738332501,"current_range_meters":25200,"station_id":"ce4bho92rcd13ifvqh4g","pricing_plan_id":"cebpf4jnsgd1na2vs0mg"},{"bike_id":"b62bce59-39a6-4b0a-8e3e-dcc4b5666d60","system_id":"levelo_inurba_marseille","lat":43.31336,"lon":5.39709,"is_reserved":false,"is_disabled":false,"rental_uris":{"android":"levelo://app?vid=b62bce59-39a6-4b0a-8e3e-dcc4b5666d60","ios":"levelo://app?vid=b62bce59-39a6-4b0a-8e3e-dcc4b5666d60"},"vehicle_type_id":"4","last_reported":1738332501,"current_range_meters":33200,"station_id":"ce4bgvp2rcd13ifvqcu0","pricing_plan_id":"cebpf4jnsgd1na2vs0mg"},{"bike_id":"2dcea597-6175-45f7-be3e-2ee0705f08d3","system_id":"levelo_inurba_marseille","lat":43.26932,"lon":5.38906,"is_reserved":false,"is_disabled":false,"rental_uris":{"android":"levelo://app?vid=2dcea597-6175-45f7-be3e-2ee0705f08d3","ios":"levelo://app?vid=2dcea597-6175-45f7-be3e-2ee0705f08d3"},"vehicle_type_id":"4","last_reported":1738332501,"current_range_meters":39200,"station_id":"ce4bhhh2rcd13ifvqfl0","pricing_plan_id":"cebpf4jnsgd1na2vs0mg"},{"bike_id":"803e03d8-7d2e-4feb-ac46-774902d16dee","system_id":"levelo_inurba_marseille","lat":43.33759,"lon":5.37451,"is_reserved":false,"is_disabled":true,"rental_uris":{"android":"levelo://app?vid=803e03d8-7d2e-4feb-ac46-774902d16dee","ios":"levelo://app?vid=803e03d8-7d2e-4feb-ac46-774902d16dee"},"vehicle_type_id":"4","last_reported":1738332501,"current_range_meters":37600,"station_id":"","pricing_plan_id":"cebpf4jnsgd1na2vs0mg"},{"bike_id":"baa29b07-c929-4791-93f4-403cf3c9ae74","system_id":"levelo_inurba_marseille","lat":43.29927,"lon":5.37466,"is_reserved":false,"is_disabled":false,"rental_uris":{"android":"levelo://app?vid=baa29b07-c929-4791-93f4-403cf3c9ae74","ios":"levelo://app?vid=baa29b07-c929-4791-93f4-403cf3c9ae74"},"vehicle_type_id":"4","last_reported":1738332501,"current_range_meters":17600,"station_id":"ce4bgjh2rcd13ifvqbg0","pricing_plan_id":"cebpf4jnsgd1na2vs0mg"},{"bike_id":"22083a2b-9022-47de-87d2-5448dffec6fa","system_id":"levelo_inurba_marseille","lat":43.297678,"lon":5.380964,"is_reserved":false,"is_disabled":false,"rental_uris":{"android":"levelo://app?vid=22083a2b-9022-47de-87d2-5448dffec6fa","ios":"levelo://app?vid=22083a2b-9022-47de-87d2-5448dffec6fa"},"vehicle_type_id":"4","last_reported":1738332501,"current_range_meters":8800,"station_id":"ce4bgip2rcd13ifvqbb0","pricing_plan_id":"cebpf4jnsgd1na2vs0mg"},{"bike_id":"65fe0418-918a-4c00-b6b6-69da8e180eb2","system_id":"levelo_inurba_marseille","lat":43.30925,"lon":5.40148,"is_reserved":false,"is_disabled":false,"rental_uris":{"android":"levelo://app?vid=65fe0418-918a-4c00-b6b6-69da8e180eb2","ios":"levelo://app?vid=65fe0418-918a-4c00-b6b6-69da8e180eb2"},"vehicle_type_id":"4","last_reported":1738332501,"current_range_meters":13600,"station_id":"ce4bgvp2rcd13ifvqct0","pricing_plan_id":"cebpf4jnsgd1na2vs0mg"},{"bike_id":"51cdb94b-2c55-4885-8973-5bf0f611e4b7","system_id":"levelo_inurba_marseille","lat":43.29728,"lon":5.37693,"is_reserved":false,"is_disabled":false,"rental_uris":{"android":"levelo://app?vid=51cdb94b-2c55-4885-8973-5bf0f611e4b7","ios":"levelo://app?vid=51cdb94b-2c55-4885-8973-5bf0f611e4b7"},"vehicle_type_id":"4","last_reported":1738332501,"current_range_meters":36000,"station_id":"ce4bgkh2rcd13ifvqbl0","pricing_plan_id":"cebpf4jnsgd1na2vs0mg"},{"bike_id":"dc573196-33ef-4275-9d66-f58d3ad63513","system_id":"levelo_inurba_marseille","lat":43.27069,"lon":5.42266,"is_reserved":false,"is_disabled":false,"rental_uris":{"android":"levelo://app?vid=dc573196-33ef-4275-9d66-f58d3ad63513","ios":"levelo://app?vid=dc573196-33ef-4275-9d66-f58d3ad63513"},"vehicle_type_id":"4","last_reported":1738332501,"current_range_meters":9600,"station_id":"ce4bhk92rcd13ifvqgb0","pricing_plan_id":"cebpf4jnsgd1na2vs0mg"},{"bike_id":"f0014efe-59be-4c6a-b455-e28e23b4487f","system_id":"levelo_inurba_marseille","lat":43.27816,"lon":5.40718,"is_reserved":false,"is_disabled":false,"rental_uris":{"android":"levelo://app?vid=f0014efe-59be-4c6a-b455-e28e23b4487f","ios":"levelo://app?vid=f0014efe-59be-4c6a-b455-e28e23b4487f"},"vehicle_type_id":"4","last_reported":1738332501,"current_range_meters":30000,"station_id":"ce4bhnh2rcd13ifvqgtg","pricing_plan_id":"cebpf4jnsgd1na2vs0mg"},{"bike_id":"1f3960cd-eea7-4117-a4b8-926e34aacb5c","system_id":"levelo_inurba_marseille","lat":43.28601,"lon":5.37057,"is_reserved":false,"is_disabled":true,"rental_uris":{"android":"levelo://app?vid=1f3960cd-eea7-4117-a4b8-926e34aacb5c","ios":"levelo://app?vid=1f3960cd-eea7-4117-a4b8-926e34aacb5c"},"vehicle_type_id":"4","last_reported":1738332501,"current_range_meters":19200,"station_id":"ce4bht12rcd13ifvqi60","pricing_plan_id":"cebpf4jnsgd1na2vs0mg"},{"bike_id":"6337d338-3511-4993-ada0-12102998e834","system_id":"levelo_inurba_marseille","lat":43.23079,"lon":5.35504,"is_reserved":false,"is_disabled":false,"rental_uris":{"android":"levelo://app?vid=6337d338-3511-4993-ada0-12102998e834","ios":"levelo://app?vid=6337d338-3511-4993-ada0-12102998e834"},"vehicle_type_id":"4","last_reported":1738332501,"current_range_meters":15200,"station_id":"cpo3342slgdg3j2ifvpg","pricing_plan_id":"cebpf4jnsgd1na2vs0mg"},{"bike_id":"fe003c8d-49c9-48fb-b04d-8f90aac5a3e9","system_id":"levelo_inurba_marseille","lat":43.24999,"lon":5.38936,"is_reserved":false,"is_disabled":false,"rental_uris":{"android":"levelo://app?vid=fe003c8d-49c9-48fb-b04d-8f90aac5a3e9","ios":"levelo://app?vid=fe003c8d-49c9-48fb-b04d-8f90aac5a3e9"},"vehicle_type_id":"4","last_reported":1738332501,"current_range_meters":34800,"station_id":"ce4bhgp2rcd13ifvqfd0","pricing_plan_id":"cebpf4jnsgd1na2vs0mg"},{"bike_id":"eed99389-efed-4784-98ba-57cc4212058c","system_id":"levelo_inurba_marseille","lat":43.24631,"lon":5.38774,"is_reserved":false,"is_disabled":false,"rental_uris":{"android":"levelo://app?vid=eed99389-efed-4784-98ba-57cc4212058c","ios":"levelo://app?vid=eed99389-efed-4784-98ba-57cc4212058c"},"vehicle_type_id":"4","last_reported":1738332501,"current_range_meters":28400,"station_id":"ce4bhlp2rcd13ifvqgjg","pricing_plan_id":"cebpf4jnsgd1na2vs0mg"},{"bike_id":"37766b3f-cbcb-444a-a1d7-e4f66144d5ac","system_id":"levelo_inurba_marseille","lat":43.30154,"lon":5.38092,"is_reserved":false,"is_disabled":false,"rental_uris":{"android":"levelo://app?vid=37766b3f-cbcb-444a-a1d7-e4f66144d5ac","ios":"levelo://app?vid=37766b3f-cbcb-444a-a1d7-e4f66144d5ac"},"vehicle_type_id":"4","last_reported":1738332501,"current_range_meters":38800,"station_id":"ce4bgjp2rcd13ifvqbh0","pricing_plan_id":"cebpf4jnsgd1na2vs0mg"},{"bike_id":"3e06e3df-52c1-4111-856b-f1a8184ab824","system_id":"levelo_inurba_marseille","lat":43.27813,"lon":5.40714,"is_reserved":false,"is_disabled":false,"rental_uris":{"android":"levelo://app?vid=3e06e3df-52c1-4111-856b-f1a8184ab824","ios":"levelo://app?vid=3e06e3df-52c1-4111-856b-f1a8184ab824"},"vehicle_type_id":"4","last_reported":1738332501,"current_range_meters":27600,"station_id":"ce4bhnh2rcd13ifvqgtg","pricing_plan_id":"cebpf4jnsgd1na2vs0mg"},{"bike_id":"d994d4a0-0318-4f4e-9986-d94426f50c25","system_id":"levelo_inurba_marseille","lat":43.26208,"lon":5.37444,"is_reserved":false,"is_disabled":false,"rental_uris":{"android":"levelo://app?vid=d994d4a0-0318-4f4e-9986-d94426f50c25","ios":"levelo://app?vid=d994d4a0-0318-4f4e-9986-d94426f50c25"},"vehicle_type_id":"4","last_reported":1738332501,"current_range_meters":38800,"station_id":"ce4bhgp2rcd13ifvqfc0","pricing_plan_id":"cebpf4jnsgd1na2vs0mg"},{"bike_id":"dbf33dd9-e631-47ec-b090-aae2633d2c98","system_id":"levelo_inurba_marseille","lat":43.29853,"lon":5.36293,"is_reserved":false,"is_disabled":false,"rental_uris":{"android":"levelo://app?vid=dbf33dd9-e631-47ec-b090-aae2633d2c98","ios":"levelo://app?vid=dbf33dd9-e631-47ec-b090-aae2633d2c98"},"vehicle_type_id":"4","last_reported":1738332501,"current_range_meters":38800,"station_id":"ce4bgpp2rcd13ifvqc3g","pricing_plan_id":"cebpf4jnsgd1na2vs0mg"},{"bike_id":"9900f1a4-6fec-4768-9689-365d0e3a621d","system_id":"levelo_inurba_marseille","lat":43.23192,"lon":5.39977,"is_reserved":false,"is_disabled":false,"rental_uris":{"android":"levelo://app?vid=9900f1a4-6fec-4768-9689-365d0e3a621d","ios":"levelo://app?vid=9900f1a4-6fec-4768-9689-365d0e3a621d"},"vehicle_type_id":"4","last_reported":1738332501,"current_range_meters":39200,"station_id":"ce4bhn12rcd13ifvqgqg","pricing_plan_id":"cebpf4jnsgd1na2vs0mg"},{"bike_id":"4537fc7e-9c3b-4c59-873f-fdf096c03778","system_id":"levelo_inurba_marseille","lat":43.28665,"lon":5.36352,"is_reserved":false,"is_disabled":false,"rental_uris":{"android":"levelo://app?vid=4537fc7e-9c3b-4c59-873f-fdf096c03778","ios":"levelo://app?vid=4537fc7e-9c3b-4c59-873f-fdf096c03778"},"vehicle_type_id":"4","last_reported":1738332501,"current_range_meters":12400,"station_id":"ce4bhah2rcd13ifvqej0","pricing_plan_id":"cebpf4jnsgd1na2vs0mg"},