{"last_updated":1704111170,"ttl":30,"version":"2.2","data":{"bikes":[{"bike_id":"ba3aba46-f07f-46b5-a5d6-23b5891b61b4","system_id":"levelo_inurba_marseille","lat":43.31341,"lon":5.367098,"is_reserved":false,"is_disabled":false,"rental_uris":{"android":"levelo://app?vid=ba3aba46-f07f-46b5-a5d6-23b5891b61b4","ios":"levelo://app?vid=ba3aba46-f07f-46b5-a5d6-23b5891b61b4"},"vehicle_type_id":"4","last_reported":1704111170,"current_range_meters":24400,"station_id":"ce4bgr92rcd13ifvqc6g","pricing_plan_id":"free"},{"bike_id":"19681d20-0e94-4d95-bd6e-75843e212133","system_id":"levelo_inurba_marseille","lat":43.313391,"lon":5.36706,"is_reserved":false,"is_disabled":false,"rental_uris":{"android":"levelo://app?vid=19681d20-0e94-4d95-bd6e-75843e212133","ios":"levelo://app?vid=19681d20-0e94-4d95-bd6e-75843e212133"},"vehicle_type_id":"4","last_reported":1704111170,"current_range_meters":29600,"station_id":"ce4bgr92rcd13ifvqc6g","pricing_plan_id":"free"},{"bike_id":"1862bd8e-99d5-4a12-9621-aed23de87e43","system_id":"levelo_inurba_marseille","lat":43.31341,"lon":5.367098,"is_reserved":false,"is_disabled":false,"rental_uris":{"android":"levelo://app?vid=1862bd8e-99d5-4a12-9621-aed23de87e43","ios":"levelo://app?vid=1862bd8e-99d5-4a12-9621-aed23de87e43"},"vehicle_type_id":"4","last_reported":1704111170,"current_range_meters":31600,"station_id":"ce4bgr92rcd13ifvqc6g","pricing_plan_id":"free"},{"bike_id":"3d0c4403-5c9c-41f7-b424-8f0b0b359a4c","system_id":"levelo_inurba_marseille","lat":43.31341,"lon":5.367098,"is_reserved":false,"is_disabled":false,"rental_uris":{"android":"levelo://app?vid=3d0c4403-5c9c-41f7-b424-8f0b0b359a4c","ios":"levelo://app?vid=3d0c4403-5c9c-41f7-b424-8f0b0b359a4c"},"vehicle_type_id":"4","last_reported":1704111170,"current_range_meters":20800,"station_id":"ce4bgr92rcd13ifvqc6g","pricing_plan_id":"free"},{"bike_id":"3bbb99a6-6792-4d4b-9365-1a426cbfd232","system_id":"levelo_inurba_marseille","lat":43.312239,"lon":5.368562,"is_reserved":false,"is_disabled":false,"rental_uris":{"android":"levelo://app?vid=3bbb99a6-6792-4d4b-9365-1a426cbfd232","ios":"levelo://app?vid=3bbb99a6-6792-4d4b-9365-1a426cbfd232"},"vehicle_type_id":"4","last_reported":1704111170,"current_range_meters":20000,"station_id":"ce4bgl92rcd13ifvqbq0","pricing_plan_id":"free"},{"bike_id":"ca1a2f80-c148-4275-9e43-15a4b219baf7","system_id":"levelo_inurba_marseille","lat":43.312239,"lon":5.368562,"is_reserved":false,"is_disabled":false,"rental_uris":{"android":"levelo://app?vid=ca1a2f80-c148-4275-9e43-15a4b219baf7","ios":"levelo://app?vid=ca1a2f80-c148-4275-9e43-15a4b219baf7"},"vehicle_type_id":"4","last_reported":1704111170,"current_range_meters":27200,"station_id":"ce4bgl92rcd13ifvqbq0","pricing_plan_id":"free"},{"bike_id":"affd8422-1e8f-435e-9c76-83a90c1e8401","system_id":"levelo_inurba_marseille","lat":43.309076,"lon":5.368465,"is_reserved":false,"is_disabled":false,"rental_uris":{"android":"levelo://app?vid=affd8422-1e8f-435e-9c76-83a90c1e8401","ios":"levelo://app?vid=affd8422-1e8f-435e-9c76-83a90c1e8401"},"vehicle_type_id":"4","last_reported":1704111170,"current_range_meters":17600,"station_id":"ce4bgn92rcd13ifvqbvg","pricing_plan_id":"free"},{"bike_id":"db6a9a99-bb38-42a2-90d2-f9ffe179c9df","system_id":"levelo_inurba_marseille","lat":43.309076,"lon":5.368465,"is_reserved":false,"is_disabled":false,"rental_uris":{"android":"levelo://app?vid=db6a9a99-bb38-42a2-90d2-f9ffe179c9df","ios":"levelo://app?vid=db6a9a99-bb38-42a2-90d2-f9ffe179c9df"},"vehicle_type_id":"4","last_reported":1704111170,"current_range_meters":24400,"station_id":"ce4bgn92rcd13ifvqbvg","pricing_plan_id":"free"},{"bike_id":"c8db761f-a274-4a11-905d-fd913fd3fbe4","system_id":"levelo_inurba_marseille","lat":43.309039,"lon":5.371797,"is_reserved":false,"is_disabled":false,"rental_uris":{"android":"levelo://app?vid=c8db761f-a274-4a11-905d-fd913fd3fbe4","ios":"levelo://app?vid=c8db761f-a274-4a11-905d-fd913fd3fbe4"},"vehicle_type_id":"4","last_reported":1704111170,"current_range_meters":28400,"station_id":"ce4bguh2rcd13ifvqckg","pricing_plan_id":"free"},{"bike_id":"42450fe8-f2b8-4fb9-b545-2a9a74f93631","system_id":"levelo_inurba_marseille","lat":43.30547,"lon":5.36696,"is_reserved":false,"is_disabled":false,"rental_uris":{"android":"levelo://app?vid=42450fe8-f2b8-4fb9-b545-2a9a74f93631","ios":"levelo://app?vid=42450fe8-f2b8-4fb9-b545-2a9a74f93631"},"vehicle_type_id":"4","last_reported":1704111170,"current_range_meters":30800,"station_id":"ce4bgrp2rcd13ifvqc9g","pricing_plan_id":"free"},{"bike_id":"6cc10ba3-514e-4b87-b859-081a0f2df958","system_id":"levelo_inurba_marseille","lat":43.305706,"lon":5.365654,"is_reserved":false,"is_disabled":false,"rental_uris":{"android":"levelo://app?vid=6cc10ba3-514e-4b87-b859-081a0f2df958","ios":"levelo://app?vid=6cc10ba3-514e-4b87-b859-081a0f2df958"},"vehicle_type_id":"4","last_reported":1704111170,"current_range_meters":23600,"station_id":"ce4bgs12rcd13ifvqcag","pricing_plan_id":"free"},{"bike_id":"0b0374b1-b960-44fa-bee2-e7a2095e4b4a","system_id":"levelo_inurba_marseille","lat":43.305989,"lon":5.37225,"is_reserved":false,"is_disabled":false,"rental_uris":{"android":"levelo://app?vid=0b0374b1-b960-44fa-bee2-e7a2095e4b4a","ios":"levelo://app?vid=0b0374b1-b960-44fa-bee2-e7a2095e4b4a"},"vehicle_type_id":"4","last_reported":1704111170,"current_range_meters":20000,"station_id":"ce4bgqh2rcd13ifvqc4g","pricing_plan_id":"free"},{"bike_id":"5a35c6dd-93b2-49f7-9a6e-ea28ee09d459","system_id":"levelo_inurba_marseille","lat":43.311131,"lon":5.377651,"is_reserved":false,"is_disabled":false,"rental_uris":{"android":"levelo://app?vid=5a35c6dd-93b2-49f7-9a6e-ea28ee09d459","ios":"levelo://app?vid=5a35c6dd-93b2-49f7-9a6e-ea28ee09d459"},"vehicle_type_id":"4","last_reported":1704111170,"current_range_meters":23600,"station_id":"ce4bgt92rcd13ifvqcg0","pricing_plan_id":"free"},{"bike_id":"d14979d8-4199-447e-94f6-8c249d32fc0b","system_id":"levelo_inurba_marseille","lat":43.311131,"lon":5.377651,"is_reserved":false,"is_disabled":false,"rental_uris":{"android":"levelo://app?vid=d14979d8-4199-447e-94f6-8c249d32fc0b","ios":"levelo://app?vid=d14979d8-4199-447e-94f6-8c249d32fc0b"},"vehicle_type_id":"4","last_reported":1704111170,"current_range_meters":26400,"station_id":"ce4bgt92rcd13ifvqcg0","pricing_plan_id":"free"},{"bike_id":"9451d24f-7015-4199-b8d9-627c07123d10","system_id":"levelo_inurba_marseille","lat":43.305989,"lon":5.37225,"is_reserved":false,"is_disabled":false,"rental_uris":{"android":"levelo://app?vid=9451d24f-7015-4199-b8d9-627c07123d10","ios":"levelo://app?vid=9451d24f-7015-4199-b8d9-627c07123d10"},"vehicle_type_id":"4","last_reported":1704111170,"current_range_meters":14400,"station_id":"ce4bgqh2rcd13ifvqc4g","pricing_plan_id":"free"},{"bike_id":"25af9e1c-886c-4f64-92f2-5ca68e46ae4a","system_id":"levelo_inurba_marseille","lat":43.31722,"lon":5.37668,"is_reserved":false,"is_disabled":false,"rental_uris":{"android":"levelo://app?vid=25af9e1c-886c-4f64-92f2-5ca68e46ae4a","ios":"levelo://app?vid=25af9e1c-886c-4f64-92f2-5ca68e46ae4a"},"vehicle_type_id":"4","last_reported":1704111170,"current_range_meters":18400,"station_id":"","pricing_plan_id":"free"},{"bike_id":"64a93320-b6f7-4f00-82e1-5c71938933c4","system_id":"levelo_inurba_marseille","lat":43.31648,"lon":5.37786,"is_reserved":false,"is_disabled":false,"rental_uris":{"android":"levelo://app?vid=64a93320-b6f7-4f00-82e1-5c71938933c4","ios":"levelo://app?vid=64a93320-b6f7-4f00-82e1-5c71938933c4"},"vehicle_type_id":"4","last_reported":1704111170,"current_range_meters":19200,"station_id":"","pricing_plan_id":"free"},{"bike_id":"c750d365-3247-411d-836f-4d697ad14eb9","system_id":"levelo_inurba_marseille","lat":43.317075,"lon":5.377367,"is_reserved":false,"is_disabled":false,"rental_uris":{"android":"levelo://app?vid=c750d365-3247-411d-836f-4d697ad14eb9","ios":"levelo://app?vid=c750d365-3247-411d-836f-4d697ad14eb9"},"vehicle_type_id":"4","last_reported":1704111170,"current_range_meters":25200,"station_id":"ce4bgth2rcd13ifvqch0","pricing_plan_id":"free"},{"bike_id":"f9629841-191f-476b-93cd-f6e8fe2a1929","system_id":"levelo_inurba_marseille","lat":43.30304,"lon":5.368987,"is_reserved":false,"is_disabled":false,"rental_uris":{"android":"levelo://app?vid=f9629841-191f-476b-93cd-f6e8fe2a1929","ios":"levelo://app?vid=f9629841-191f-476b-93cd-f6e8fe2a1929"},"vehicle_type_id":"4","last_reported":1704111170,"current_range_meters":23600,"station_id":"ce4bgqh2rcd13ifvqc5g","pricing_plan_id":"free"},{"bike_id":"2eee3bee-8a58-4598-b69c-08fea2289695","system_id":"levelo_inurba_marseille","lat":43.315293,"lon":5.380349,"is_reserved":false,"is_disabled":false,"rental_uris":{"android":"levelo://app?vid=2eee3bee-8a58-4598-b69c-08fea2289695","ios":"levelo://app?vid=2eee3bee-8a58-4598-b69c-08fea2289695"},"vehicle_type_id":"4","last_reported":1704111170,"current_range_meters":400,"station_id":"ce4bhsp2rcd13ifvqi50","pricing_plan_id":"free"},{"bike_id":"a5291874-f635-43ed-9c4e-b592f5564ee1","system_id":"levelo_inurba_marseille","lat":43.328371,"lon":5.366912,"is_reserved":false,"is_disabled":false,"rental_uris":{"android":"levelo://app?vid=a5291874-f635-43ed-9c4e-b592f5564ee1","ios":"levelo://app?vid=a5291874-f635-43ed-9c4e-b592f5564ee1"},"vehicle_type_id":"4","last_reported":1704111170,"current_range_meters":5200,"station_id":"ce4bhs92rcd13ifvqi0g","pricing_plan_id":"free"},{"bike_id":"dffc2115-7fb4-446b-a125-f242d4063b8a","system_id":"levelo_inurba_marseille","lat":43.304708,"lon":5.379039,"is_reserved":false,"is_disabled":false,"rental_uris":{"android":"levelo://app?vid=dffc2115-7fb4-446b-a125-f242d4063b8a","ios":"levelo://app?vid=dffc2115-7fb4-446b-a125-f242d4063b8a"},"vehicle_type_id":"4","last_reported":1704111170,"current_range_meters":14800,"station_id":"","pricing_plan_id":"free"},{"bike_id":"79f0d8a4-334f-4f3c-a8df-bf0b7ddfd4c9","system_id":"levelo_inurba_marseille","lat":43.32477,"lon":5.3656,"is_reserved":false,"is_disabled":false,"rental_uris":{"android":"levelo://app?vid=79f0d8a4-334f-4f3c-a8df-bf0b7ddfd4c9","ios":"levelo://app?vid=79f0d8a4-334f-4f3c-a8df-bf0b7ddfd4c9"},"vehicle_type_id":"4","last_reported":1704111170,"current_range_meters":6800,"station_id":"ce4bhs12rcd13ifvqhvg","pricing_plan_id":"free"},{"bike_id":"37654fee-c31e-4e93-a13c-b8fb11c15bab","system_id":"levelo_inurba_marseille","lat":43.302798,"lon":5.37701,"is_reserved":false,"is_disabled":false,"rental_uris":{"android":"levelo://app?vid=37654fee-c31e-4e93-a13c-b8fb11c15bab","ios":"levelo://app?vid=37654fee-c31e-4e93-a13c-b8fb11c15bab"},"vehicle_type_id":"4","last_reported":1704111170,"current_range_meters":29600,"station_id":"ce4bguh2rcd13ifvqcj0","pricing_plan_id":"free"},{"bike_id":"92ee0dcb-b929-4f63-994f-6a3bf0d92887","system_id":"levelo_inurba_marseille","lat":43.302756,"lon":5.376938,"is_reserved":false,"is_disabled":false,"rental_uris":{"android":"levelo://app?vid=92ee0dcb-b929-4f63-994f-6a3bf0d92887","ios":"levelo://app?vid=92ee0dcb-b929-4f63-994f-6a3bf0d92887"},"vehicle_type_id":"4","last_reported":1704111170,"current_range_meters":20000,"station_id":"ce4bguh2rcd13ifvqcj0","pricing_plan_id":"free"},{"bike_id":"12cc3e03-e48b-4f30-bfc9-f1b37a6da005","system_id":"levelo_inurba_marseille","lat":43.302786,"lon":5.377039,"is_reserved":false,"is_disabled":false,"rental_uris":{"android":"levelo://app?vid=12cc3e03-e48b-4f30-bfc9-f1b37a6da005","ios":"levelo://app?vid=12cc3e03-e48b-4f30-bfc9-f1b37a6da005"},"vehicle_type_id":"4","last_reported":1704111170,"current_range_meters":30800,"station_id":"ce4bguh2rcd13ifvqcj0","pricing_plan_id":"free"},{"bike_id":"cfb2809c-3c47-4f5c-8162-b420c80fc7f2","system_id":"levelo_inurba_marseille","lat":43.301429,"lon":5.37413,"is_reserved":false,"is_disabled":false,"rental_uris":{"android":"levelo://app?vid=cfb2809c-3c47-4f5c-8162-b420c80fc7f2","ios":"levelo://app?vid=cfb2809c-3c47-4f5c-8162-b420c80fc7f2"},"vehicle_type_id":"4","last_reported":1704111170,"current_range_meters":26000,"station_id":"ce4bgs92rcd13ifvqcc0","pricing_plan_id":"free"},{"bike_id":"f1c4a9f6-f95e-4244-be32-9b3daec9f8d4","system_id":"levelo_inurba_marseille","lat":43.319935,"lon":5.381699,"is_reserved":false,"is_disabled":false,"rental_uris":{"android":"levelo://app?vid=f1c4a9f6-f95e-4244-be32-9b3daec9f8d4","ios":"levelo://app?vid=f1c4a9f6-f95e-4244-be32-9b3daec9f8d4"},"vehicle_type_id":"4","last_reported":1704111170,"current_range_meters":25600,"station_id":"ce4bhr12rcd13ifvqhpg","pricing_plan_id":"free"},{"bike_id":"e5fdbe24-fe46-4af2-9a3a-16bfaf243f2f","system_id":"levelo_inurba_marseille","lat":43.299724,"lon":5.371829,"is_reserved":false,"is_disabled":false,"rental_uris":{"android":"levelo://app?vid=e5fdbe24-fe46-4af2-9a3a-16bfaf243f2f","ios":"levelo://app?vid=e5fdbe24-fe46-4af2-9a3a-16bfaf243f2f"},"vehicle_type_id":"4","last_reported":1704111170,"current_range_meters":25600,"station_id":"ce4bgr92rcd13ifvqc7g","pricing_plan_id":"free"},{"bike_id":"5a7b6f71-2a1a-475e-9087-fdbf7ac8818b","system_id":"levelo_inurba_marseille","lat":43.29994,"lon":5.37442,"is_reserved":false,"is_disabled":false,"rental_uris":{"android":"levelo://app?vid=5a7b6f71-2a1a-475e-9087-fdbf7ac8818b","ios":"levelo://app?vid=5a7b6f71-2a1a-475e-9087-fdbf7ac8818b"},"vehicle_type_id":"4","last_reported":1704111170,"current_range_meters":22800,"station_id":"","pricing_plan_id":"free"},{"bike_id":"75116664-0108-485b-877c-91ce4714764a","system_id":"levelo_inurba_marseille","lat":43.299243,"lon":5.374807,"is_reserved":false,"is_disabled":false,"rental_uris":{"android":"levelo://app?vid=75116664-0108-485b-877c-91ce4714764a","ios":"levelo://app?vid=75116664-0108-485b-877c-91ce4714764a"},"vehicle_type_id":"4","last_reported":1704111170,"current_range_meters":26800,"station_id":"ce4bgjh2rcd13ifvqbg0","pricing_plan_id":"free"},{"bike_id":"d74f3ebb-2771-4f19-a937-4335e4f8c706","system_id":"levelo_inurba_marseille","lat":43.31178,"lon":5.38714,"is_reserved":false,"is_disabled":false,"rental_uris":{"android":"levelo://app?vid=d74f3ebb-2771-4f19-a937-4335e4f8c706","ios":"levelo://app?vid=d74f3ebb-2771-4f19-a937-4335e4f8c706"},"vehicle_type_id":"4","last_reported":1704111170,"current_range_meters":24800,"station_id":"ce4bgv12rcd13ifvqcp0","pricing_plan_id":"free"},{"bike_id":"bc74dd64-9f2a-400f-8fe1-ceec180ced1d","system_id":"levelo_inurba_marseille","lat":43.299243,"lon":5.37481,"is_reserved":false,"is_disabled":false,"rental_uris":{"android":"levelo://app?vid=bc74dd64-9f2a-400f-8fe1-ceec180ced1d","ios":"levelo://app?vid=bc74dd64-9f2a-400f-8fe1-ceec180ced1d"},"vehicle_type_id":"4","last_reported":1704111170,"current_range_meters":23600,"station_id":"ce4bgjh2rcd13ifvqbg0","pricing_plan_id":"free"},{"bike_id":"ae1a334f-34c4-413e-b897-8b7e99b8f031","system_id":"levelo_inurba_marseille","lat":43.322872,"lon":5.382756,"is_reserved":false,"is_disabled":false,"rental_uris":{"android":"levelo://app?vid=ae1a334f-34c4-413e-b897-8b7e99b8f031","ios":"levelo://app?vid=ae1a334f-34c4-413e-b897-8b7e99b8f031"},"vehicle_type_id":"4","last_reported":1704111170,"current_range_meters":30000,"station_id":"ce4bhr12rcd13ifvqhqg","pricing_plan_id":"free"},{"bike_id":"7dacb968-7456-46f9-98a4-1c1aa118f5e2","system_id":"levelo_inurba_marseille","lat":43.322822,"lon":5.382716,"is_reserved":false,"is_disabled":false,"rental_uris":{"android":"levelo://app?vid=7dacb968-7456-46f9-98a4-1c1aa118f5e2","ios":"levelo://app?vid=7dacb968-7456-46f9-98a4-1c1aa118f5e2"},"vehicle_type_id":"4","last_reported":1704111170,"current_range_meters":21600,"station_id":"ce4bhr12rcd13ifvqhqg","pricing_plan_id":"free"},{"bike_id":"7892f7ad-391a-4b01-9629-9863c77731a1","system_id":"levelo_inurba_marseille","lat":43.32288,"lon":5.38273,"is_reserved":false,"is_disabled":false,"rental_uris":{"android":"levelo://app?vid=7892f7ad-391a-4b01-9629-9863c77731a1","ios":"levelo://app?vid=7892f7ad-391a-4b01-9629-9863c77731a1"},"vehicle_type_id":"4","last_reported":1704111170,"current_range_meters":30400,"station_id":"ce4bhr12rcd13ifvqhqg","pricing_plan_id":"free"},{"bike_id":"a814d147-e775-45a2-b5cb-60efdd10d17b","system_id":"levelo_inurba_marseille","lat":43.322872,"lon":5.382756,"is_reserved":false,"is_disabled":false,"rental_uris":{"android":"levelo://app?vid=a814d147-e775-45a2-b5cb-60efdd10d17b","ios":"levelo://app?vid=a814d147-e775-45a2-b5cb-60efdd10d17b"},"vehicle_type_id":"4","last_reported":1704111170,"current_range_meters":31200,"station_id":"ce4bhr12rcd13ifvqhqg","pricing_plan_id":"free"},{"bike_id":"ea7074d7-b7c9-4941-82c2-dff391bae9cb","system_id":"levelo_inurba_marseille","lat":43.32816,"lon":5.36691,"is_reserved":false,"is_disabled":false,"rental_uris":{"android":"levelo://app?vid=ea7074d7-b7c9-4941-82c2-dff391bae9cb","ios":"levelo://app?vid=ea7074d7-b7c9-4941-82c2-dff391bae9cb"},"vehicle_type_id":"4","last_reported":1704111170,"current_range_meters":20800,"station_id":"ce4bhs92rcd13ifvqi0g","pricing_plan_id":"free"},{"bike_id":"a677cd10-a09b-4b2e-bffd-45b05d2c9229","system_id":"levelo_inurba_marseille","lat":43.32823,"lon":5.36677,"is_reserved":false,"is_disabled":false,"rental_uris":{"android":"levelo://app?vid=a677cd10-a09b-4b2e-bffd-45b05d2c9229","ios":"levelo://app?vid=a677cd10-a09b-4b2e-bffd-45b05d2c9229"},"vehicle_type_id":"4","last_reported":1704111170,"current_range_meters":8400,"station_id":"ce4bhs92rcd13ifvqi0g","pricing_plan_id":"free"},{"bike_id":"3406ac08-144e-419c-8a8c-9c89910b5b78","system_id":"levelo_inurba_marseille","lat":43.328248,"lon":5.36683,"is_reserved":false,"is_disabled":false,"rental_uris":{"android":"levelo://app?vid=3406ac08-144e-419c-8a8c-9c89910b5b78","ios":"levelo://app?vid=3406ac08-144e-419c-8a8c-9c89910b5b78"},"vehicle_type_id":"4","last_reported":1704111170,"current_range_meters":22800,"station_id":"ce4bhs92rcd13ifvqi0g","pricing_plan_id":"free"},{"bike_id":"904f83aa-e9ab-401d-84c1-9edfed82b884","system_id":"levelo_inurba_marseille","lat":43.32829,"lon":5.36683,"is_reserved":false,"is_disabled":false,"rental_uris":{"android":"levelo://app?vid=904f83aa-e9ab-401d-84c1-9edfed82b884","ios":"levelo://app?vid=904f83aa-e9ab-401d-84c1-9edfed82b884"},"vehicle_type_id":"4","last_reported":1704111170,"current_range_meters":18400,"station_id":"ce4bhs92rcd13ifvqi0g","pricing_plan_id":"free"},{"bike_id":"8233d320-3015-483d-9317-9f5ea8045c87","system_id":"levelo_inurba_marseille","lat":43.3283,"lon":5.36692,"is_reserved":false,"is_disabled":false,"rental_uris":{"android":"levelo://app?vid=8233d320-3015-483d-9317-9f5ea8045c87","ios":"levelo://app?vid=8233d320-3015-483d-9317-9f5ea8045c87"},"vehicle_type_id":"4","last_reported":1704111170,"current_range_meters":7200,"station_id":"ce4bhs92rcd13ifvqi0g","pricing_plan_id":"free"},{"bike_id":"370cccf7-c9ba-46c2-819b-c8e8cacc4c21","system_id":"levelo_inurba_marseille","lat":43.3277,"lon":5.37458,"is_reserved":false,"is_disabled":false,"rental_uris":{"android":"levelo://app?vid=370cccf7-c9ba-46c2-819b-c8e8cacc4c21","ios":"levelo://app?vid=370cccf7-c9ba-46c2-819b-c8e8cacc4c21"},"vehicle_type_id":"4","last_reported":1704111170,"current_range_meters":12800,"station_id":"","pricing_plan_id":"free"},{"bike_id":"449e9906-109c-453f-9f02-a8a720e972c3","system_id":"levelo_inurba_marseille","lat":43.2968,"lon":5.37291,"is_reserved":false,"is_disabled":false,"rental_uris":{"android":"levelo://app?vid=449e9906-109c-453f-9f02-a8a720e972c3","ios":"levelo://app?vid=449e9906-109c-453f-9f02-a8a720e972c3"},"vehicle_type_id":"4","last_reported":1704111170,"current_range_meters":28400,"station_id":"ce4bgk12rcd13ifvqbj0","pricing_plan_id":"free"},{"bike_id":"921b424d-ad0d-4c7a-9d74-66e3a49bfa19","system_id":"levelo_inurba_marseille","lat":43.32934,"lon":5.36612,"is_reserved":false,"is_disabled":false,"rental_uris":{"android":"levelo://app?vid=921b424d-ad0d-4c7a-9d74-66e3a49bfa19","ios":"levelo://app?vid=921b424d-ad0d-4c7a-9d74-66e3a49bfa19"},"vehicle_type_id":"4","last_reported":1704111170,"current_range_meters":0,"station_id":"","pricing_plan_id":"free"},{"bike_id":"3bdafdd5-7b9f-4cae-b43f-b23f2936a045","system_id":"levelo_inurba_marseille","lat":43.298037,"lon":5.381066,"is_reserved":false,"is_disabled":false,"rental_uris":{"android":"levelo://app?vid=3bdafdd5-7b9f-4cae-b43f-b23f2936a045","ios":"levelo://app?vid=3bdafdd5-7b9f-4cae-b43f-b23f2936a045"},"vehicle_type_id":"4","last_reported":1704111170,"current_range_meters":22800,"station_id":"ce4bgip2rcd13ifvqbb0","pricing_plan_id":"free"},{"bike_id":"5816ddf2-131c-4bbb-8948-0faebf1e74d9","system_id":"levelo_inurba_marseille","lat":43.295748,"lon":5.37522,"is_reserved":false,"is_disabled":false,"rental_uris":{"android":"levelo://app?vid=5816ddf2-131c-4bbb-8948-0faebf1e74d9","ios":"levelo://app?vid=5816ddf2-131c-4bbb-8948-0faebf1e74d9"},"vehicle_type_id":"4","last_reported":1704111170,"current_range_meters":19200,"station_id":"ce4bgh92rcd13ifvqb50","pricing_plan_id":"free"},{"bike_id":"8a13bdb4-d184-45c7-ba7f-8bf4abf60718","system_id":"levelo_inurba_marseille","lat":43.29624,"lon":5.3771,"is_reserved":false,"is_disabled":false,"rental_uris":{"android":"levelo://app?vid=8a13bdb4-d184-45c7-ba7f-8bf4abf60718","ios":"levelo://app?vid=8a13bdb4-d184-45c7-ba7f-8bf4abf60718"},"vehicle_type_id":"4","last_reported":1704111170,"current_range_meters":24800,"station_id":"ce4bgip2rcd13ifvqbb0","pricing_plan_id":"free"},{"bike_id":"d60802d6-4f47-444a-b234-883690eec05b","system_id":"levelo_inurba_marseille","lat":43.33062,"lon":5.3627,"is_reserved":false,"is_disabled":false,"rental_uris":{"android":"levelo://app?vid=d60802d6-4f47-444a-b234-883690eec05b","ios":"levelo://app?vid=d60802d6-4f47-444a-b234-883690eec05b"},"vehicle_type_id":"4","last_reported":1704111170,"current_range_meters":19600,"station_id":"","pricing_plan_id":"free"},{"bike_id":"2b9b2813-8ff2-4878-b40b-8f86bd1b4642","system_id":"levelo_inurba_marseille","lat":43.304274,"lon":5.388873,"is_reserved":false,"is_disabled":false,"rental_uris":{"android":"levelo://app?vid=2b9b2813-8ff2-4878-b40b-8f86bd1b4642","ios":"levelo://app?vid=2b9b2813-8ff2-4878-b40b-8f86bd1b4642"},"vehicle_type_id":"4","last_reported":1704111170,"current_range_meters":23600,"station_id":"ce4bgk12rcd13ifvqbi0","pricing_plan_id":"free"},{"bike_id":"b11f03eb-c644-43ee-9448-5f25598d7061","system_id":"levelo_inurba_marseille","lat":43.299724,"lon":5.384848,"is_reserved":false,"is_disabled":false,"rental_uris":{"android":"levelo://app?vid=b11f03eb-c644-43ee-9448-5f25598d7061","ios":"levelo://app?vid=b11f03eb-c644-43ee-9448-5f25598d7061"},"vehicle_type_id":"4","last_reported":1704111170,"current_range_meters":22800,"station_id":"ce4bgj92rcd13ifvqbd0","pricing_plan_id":"free"},{"bike_id":"7119845d-00aa-4d9f-be8c-fc97d41f1380","system_id":"levelo_inurba_marseille","lat":43.297594,"lon":5.381134,"is_reserved":false,"is_disabled":false,"rental_uris":{"android":"levelo://app?vid=7119845d-00aa-4d9f-be8c-fc97d41f1380","ios":"levelo://app?vid=7119845d-00aa-4d9f-be8c-fc97d41f1380"},"vehicle_type_id":"4","last_reported":1704111170,"current_range_meters":8000,"station_id":"ce4bgip2rcd13ifvqbb0","pricing_plan_id":"free"},{"bike_id":"52ca1f68-2f57-4372-828c-e259e66b8926","system_id":"levelo_inurba_marseille","lat":43.299707,"lon":5.384859,"is_reserved":false,"is_disabled":false,"rental_uris":{"android":"levelo://app?vid=52ca1f68-2f57-4372-828c-e259e66b8926","ios":"levelo://app?vid=52ca1f68-2f57-4372-828c-e259e66b8926"},"vehicle_type_id":"4","last_reported":1704111170,"current_range_meters":27600,"station_id":"ce4bgj92rcd13ifvqbd0","pricing_plan_id":"free"},{"bike_id":"76faf817-3d72-4301-b0a4-c7d472f50204","system_id":"levelo_inurba_marseille","lat":43.299717,"lon":5.384845,"is_reserved":false,"is_disabled":false,"rental_uris":{"android":"levelo://app?vid=76faf817-3d72-4301-b0a4-c7d472f50204","ios":"levelo://app?vid=76faf817-3d72-4301-b0a4-c7d472f50204"},"vehicle_type_id":"4","last_reported":1704111170,"current_range_meters":26800,"station_id":"ce4bgj92rcd13ifvqbd0","pricing_plan_id":"free"},{"bike_id":"15def8e5-5827-40f2-9ed4-b79e7a12fdae","system_id":"levelo_inurba_marseille","lat":43.2997,"lon":5.38495,"is_reserved":false,"is_disabled":false,"rental_uris":{"android":"levelo://app?vid=15def8e5-5827-40f2-9ed4-b79e7a12fdae","ios":"levelo://app?vid=15def8e5-5827-40f2-9ed4-b79e7a12fdae"},"vehicle_type_id":"4","last_reported":1704111170,"current_range_meters":29600,"station_id":"ce4bgj92rcd13ifvqbd0","pricing_plan_id":"free"},{"bike_id":"749bf9c0-9dcb-4a39-bb77-f00fa57b5e9b","system_id":"levelo_inurba_marseille","lat":43.299724,"lon":5.384848,"is_reserved":false,"is_disabled":false,"rental_uris":{"android":"levelo://app?vid=749bf9c0-9dcb-4a39-bb77-f00fa57b5e9b","ios":"levelo://app?vid=749bf9c0-9dcb-4a39-bb77-f00fa57b5e9b"},"vehicle_type_id":"4","last_reported":1704111170,"current_range_meters":22000,"station_id":"ce4bgj92rcd13ifvqbd0","pricing_plan_id":"free"},{"bike_id":"545ffa0b-32c2-45c2-b00c-94e9432aecc7","system_id":"levelo_inurba_marseille","lat":43.32367,"lon":5.388836,"is_reserved":false,"is_disabled":false,"rental_uris":{"android":"levelo://app?vid=545ffa0b-32c2-45c2-b00c-94e9432aecc7","ios":"levelo://app?vid=545ffa0b-32c2-45c2-b00c-94e9432aecc7"},"vehicle_type_id":"4","last_reported":1704111170,"current_range_meters":30000,"station_id":"ce4bhqp2rcd13ifvqhog","pricing_plan_id":"free"},{"bike_id":"fbe9cf4d-5756-4294-b6ea-069aba55d2fb","system_id":"levelo_inurba_marseille","lat":43.32367,"lon":5.388836,"is_reserved":false,"is_disabled":false,"rental_uris":{"android":"levelo://app?vid=fbe9cf4d-5756-4294-b6ea-069aba55d2fb","ios":"levelo://app?vid=fbe9cf4d-5756-4294-b6ea-069aba55d2fb"},"vehicle_type_id":"4","last_reported":1704111170,"current_range_meters":30400,"station_id":"ce4bhqp2rcd13ifvqhog","pricing_plan_id":"free"},{"bike_id":"07430c97-abb4-4377-bebc-af5d4937173b","system_id":"levelo_inurba_marseille","lat":43.293009,"lon":5.374584,"is_reserved":false,"is_disabled":false,"rental_uris":{"android":"levelo://app?vid=07430c97-abb4-4377-bebc-af5d4937173b","ios":"levelo://app?vid=07430c97-abb4-4377-bebc-af5d4937173b"},"vehicle_type_id":"4","last_reported":1704111170,"current_range_meters":26000,"station_id":"ce4bgi12rcd13ifvqb70","pricing_plan_id":"free"},{"bike_id":"eb78a0ba-df56-4fee-a74b-9305069262ae","system_id":"levelo_inurba_marseille","lat":43.293009,"lon":5.374584,"is_reserved":false,"is_disabled":false,"rental_uris":{"android":"levelo://app?vid=eb78a0ba-df56-4fee-a74b-9305069262ae","ios":"levelo://app?vid=eb78a0ba-df56-4fee-a74b-9305069262ae"},"vehicle_type_id":"4","last_reported":1704111170,"current_range_meters":28000,"station_id":"ce4bgi12rcd13ifvqb70","pricing_plan_id":"free"},{"bike_id":"044725cd-7e51-447b-8f52-120027858a3c","system_id":"levelo_inurba_marseille","lat":43.292311,"lon":5.360731,"is_reserved":false,"is_disabled":false,"rental_uris":{"android":"levelo://app?vid=044725cd-7e51-447b-8f52-120027858a3c","ios":"levelo://app?vid=044725cd-7e51-447b-8f52-120027858a3c"},"vehicle_type_id":"4","last_reported":1704111170,"current_range_meters":29200,"station_id":"ce4bhbh2rcd13ifvqeqg","pricing_plan_id":"free"},{"bike_id":"37fe2d3e-64ec-4343-9a43-a2091b55a401","system_id":"levelo_inurba_marseille","lat":43.309047,"lon":5.396551,"is_reserved":false,"is_disabled":false,"rental_uris":{"android":"levelo://app?vid=37fe2d3e-64ec-4343-9a43-a2091b55a401","ios":"levelo://app?vid=37fe2d3e-64ec-4343-9a43-a2091b55a401"},"vehicle_type_id":"4","last_reported":1704111170,"current_range_meters":29200,"station_id":"ce4bh012rcd13ifvqcv0","pricing_plan_id":"free"},{"bike_id":"6f5f96e8-53cb-4943-bb66-758664911add","system_id":"levelo_inurba_marseille","lat":43.291994,"lon":5.357886,"is_reserved":false,"is_disabled":false,"rental_uris":{"android":"levelo://app?vid=6f5f96e8-53cb-4943-bb66-758664911add","ios":"levelo://app?vid=6f5f96e8-53cb-4943-bb66-758664911add"},"vehicle_type_id":"4","last_reported":1704111170,"current_range_meters":28400,"station_id":"ce4bhb12rcd13ifvqel0","pricing_plan_id":"free"},{"bike_id":"4b2ba33c-7cdc-4277-b145-13f7259e024e","system_id":"levelo_inurba_marseille","lat":43.291994,"lon":5.357886,"is_reserved":false,"is_disabled":false,"rental_uris":{"android":"levelo://app?vid=4b2ba33c-7cdc-4277-b145-13f7259e024e","ios":"levelo://app?vid=4b2ba33c-7cdc-4277-b145-13f7259e024e"},"vehicle_type_id":"4","last_reported":1704111170,"current_range_meters":23600,"station_id":"ce4bhb12rcd13ifvqel0","pricing_plan_id":"free"},{"bike_id":"668942d6-33c2-433a-a4c3-8da233302454","system_id":"levelo_inurba_marseille","lat":43.313291,"lon":5.396838,"is_reserved":false,"is_disabled":false,"rental_uris":{"android":"levelo://app?vid=668942d6-33c2-433a-a4c3-8da233302454","ios":"levelo://app?vid=668942d6-33c2-433a-a4c3-8da233302454"},"vehicle_type_id":"4","last_reported":1704111170,"current_range_meters":30400,"station_id":"ce4bgvp2rcd13ifvqcu0","pricing_plan_id":"free"},{"bike_id":"a017887a-f1da-48b1-a85d-7ecfd165c79e","system_id":"levelo_inurba_marseille","lat":43.313291,"lon":5.396838,"is_reserved":false,"is_disabled":false,"rental_uris":{"android":"levelo://app?vid=a017887a-f1da-48b1-a85d-7ecfd165c79e","ios":"levelo://app?vid=a017887a-f1da-48b1-a85d-7ecfd165c79e"},"vehicle_type_id":"4","last_reported":1704111170,"current_range_meters":26800,"station_id":"ce4bgvp2rcd13ifvqcu0","pricing_plan_id":"free"},{"bike_id":"397295c0-4b25-474c-934c-2891ea19fd2a","system_id":"levelo_inurba_marseille","lat":43.309038,"lon":5.396546,"is_reserved":false,"is_disabled":false,"rental_uris":{"android":"levelo://app?vid=397295c0-4b25-474c-934c-2891ea19fd2a","ios":"levelo://app?vid=397295c0-4b25-474c-934c-2891ea19fd2a"},"vehicle_type_id":"4","last_reported":1704111170,"current_range_meters":27200,"station_id":"ce4bh012rcd13ifvqcv0","pricing_plan_id":"free"},{"bike_id":"9500b11f-4e9f-4d94-bad7-d2dc797e64a3","system_id":"levelo_inurba_marseille","lat":43.29529,"lon":5.385581,"is_reserved":false,"is_disabled":false,"rental_uris":{"android":"levelo://app?vid=9500b11f-4e9f-4d94-bad7-d2dc797e64a3","ios":"levelo://app?vid=9500b11f-4e9f-4d94-bad7-d2dc797e64a3"},"vehicle_type_id":"4","last_reported":1704111170,"current_range_meters":5200,"station_id":"ce4bgih2rcd13ifvqba0","pricing_plan_id":"free"},{"bike_id":"d9a4e6ab-0c3d-435b-979f-d7621f418bdf","system_id":"levelo_inurba_marseille","lat":43.29529,"lon":5.385581,"is_reserved":false,"is_disabled":false,"rental_uris":{"android":"levelo://app?vid=d9a4e6ab-0c3d-435b-979f-d7621f418bdf","ios":"levelo://app?vid=d9a4e6ab-0c3d-435b-979f-d7621f418bdf"},"vehicle_type_id":"4","last_reported":1704111170,"current_range_meters":27600,"station_id":"ce4bgih2rcd13ifvqba0","pricing_plan_id":"free"},{"bike_id":"4e17e0af-22d7-45ec-843e-ee6f90370642","system_id":"levelo_inurba_marseille","lat":43.29529,"lon":5.385581,"is_reserved":false,"is_disabled":false,"rental_uris":{"android":"levelo://app?vid=4e17e0af-22d7-45ec-843e-ee6f90370642","ios":"levelo://app?vid=4e17e0af-22d7-45ec-843e-ee6f90370642"},"vehicle_type_id":"4","last_reported":1704111170,"current_range_meters":3600,"station_id":"ce4bgih2rcd13ifvqba0","pricing_plan_id":"free"},{"bike_id":"8478cc48-4067-4a10-9d31-abf9d9a8bdfc","system_id":"levelo_inurba_marseille","lat":43.290327,"lon":5.375711,"is_reserved":false,"is_disabled":false,"rental_uris":{"android":"levelo://app?vid=8478cc48-4067-4a10-9d31-abf9d9a8bdfc","ios":"levelo://app?vid=8478cc48-4067-4a10-9d31-abf9d9a8bdfc"},"vehicle_type_id":"4","last_reported":1704111170,"current_range_meters":18000,"station_id":"ce4bh692rcd13ifvqe90","pricing_plan_id":"free"},{"bike_id":"6ee8803b-597d-42e7-9bec-2c12eaa9430a","system_id":"levelo_inurba_marseille","lat":43.289468,"lon":5.363719,"is_reserved":false,"is_disabled":false,"rental_uris":{"android":"levelo://app?vid=6ee8803b-597d-42e7-9bec-2c12eaa9430a","ios":"levelo://app?vid=6ee8803b-597d-42e7-9bec-2c12eaa9430a"},"vehicle_type_id":"4","last_reported":1704111170,"current_range_meters":14800,"station_id":"ce4bhc92rcd13ifvqetg","pricing_plan_id":"free"},{"bike_id":"86975884-0664-4fde-b6c1-a748935146a4","system_id":"levelo_inurba_marseille","lat":43.289184,"lon":5.366408,"is_reserved":false,"is_disabled":false,"rental_uris":{"android":"levelo://app?vid=86975884-0664-4fde-b6c1-a748935146a4","ios":"levelo://app?vid=86975884-0664-4fde-b6c1-a748935146a4"},"vehicle_type_id":"4","last_reported":1704111170,"current_range_meters":28000,"station_id":"ce4bhap2rcd13ifvqek0","pricing_plan_id":"free"},{"bike_id":"6af5d335-5cd1-4585-a6f0-a6e99c645196","system_id":"levelo_inurba_marseille","lat":43.289468,"lon":5.363719,"is_reserved":false,"is_disabled":false,"rental_uris":{"android":"levelo://app?vid=6af5d335-5cd1-4585-a6f0-a6e99c645196","ios":"levelo://app?vid=6af5d335-5cd1-4585-a6f0-a6e99c645196"},"vehicle_type_id":"4","last_reported":1704111170,"current_range_meters":30000,"station_id":"ce4bhc92rcd13ifvqetg","pricing_plan_id":"free"},{"bike_id":"3ec93305-46eb-4588-8c26-1292854c3503","system_id":"levelo_inurba_marseille","lat":43.304274,"lon":5.397513,"is_reserved":false,"is_disabled":false,"rental_uris":{"android":"levelo://app?vid=3ec93305-46eb-4588-8c26-1292854c3503","ios":"levelo://app?vid=3ec93305-46eb-4588-8c26-1292854c3503"},"vehicle_type_id":"4","last_reported":1704111170,"current_range_meters":18800,"station_id":"ce4bh092rcd13ifvqd20","pricing_plan_id":"free"},{"bike_id":"df7848f8-31ab-473f-9a21-20a54afe0084","system_id":"levelo_inurba_marseille","lat":43.304283,"lon":5.397488,"is_reserved":false,"is_disabled":false,"rental_uris":{"android":"levelo://app?vid=df7848f8-31ab-473f-9a21-20a54afe0084","ios":"levelo://app?vid=df7848f8-31ab-473f-9a21-20a54afe0084"},"vehicle_type_id":"4","last_reported":1704111170,"current_range_meters":11600,"station_id":"","pricing_plan_id":"free"},{"bike_id":"83924cb9-becf-4825-87a7-2ba5eab64d0a","system_id":"levelo_inurba_marseille","lat":43.304296,"lon":5.397513,"is_reserved":false,"is_disabled":false,"rental_uris":{"android":"levelo://app?vid=83924cb9-becf-4825-87a7-2ba5eab64d0a","ios":"levelo://app?vid=83924cb9-becf-4825-87a7-2ba5eab64d0a"},"vehicle_type_id":"4","last_reported":1704111170,"current_range_meters":2000,"station_id":"ce4bh092rcd13ifvqd20","pricing_plan_id":"free"},{"bike_id":"16bae2f7-15f9-4697-ac44-9830a4ba88b3","system_id":"levelo_inurba_marseille","lat":43.290062,"lon":5.356158,"is_reserved":false,"is_disabled":false,"rental_uris":{"android":"levelo://app?vid=16bae2f7-15f9-4697-ac44-9830a4ba88b3","ios":"levelo://app?vid=16bae2f7-15f9-4697-ac44-9830a4ba88b3"},"vehicle_type_id":"4","last_reported":1704111170,"current_range_meters":21600,"station_id":"ce4bhb92rcd13ifvqen0","pricing_plan_id":"free"},{"bike_id":"85d8f827-c38e-4df5-892c-08e850ce0512","system_id":"levelo_inurba_marseille","lat":43.29006,"lon":5.3561,"is_reserved":false,"is_disabled":false,"rental_uris":{"android":"levelo://app?vid=85d8f827-c38e-4df5-892c-08e850ce0512","ios":"levelo://app?vid=85d8f827-c38e-4df5-892c-08e850ce0512"},"vehicle_type_id":"4","last_reported":1704111170,"current_range_meters":17200,"station_id":"ce4bhb92rcd13ifvqen0","pricing_plan_id":"free"},{"bike_id":"20695783-8fd4-4b7e-aa24-76c9bc3bdb21","system_id":"levelo_inurba_marseille","lat":43.290104,"lon":5.356111,"is_reserved":false,"is_disabled":false,"rental_uris":{"android":"levelo://app?vid=20695783-8fd4-4b7e-aa24-76c9bc3bdb21","ios":"levelo://app?vid=20695783-8fd4-4b7e-aa24-76c9bc3bdb21"},"vehicle_type_id":"4","last_reported":1704111170,"current_range_meters":29200,"station_id":"ce4bhb92rcd13ifvqen0","pricing_plan_id":"free"},{"bike_id":"5e01559c-9114-49ec-be0b-dc022f9c1977","system_id":"levelo_inurba_marseille","lat":43.290104,"lon":5.356111,"is_reserved":false,"is_disabled":false,"rental_uris":{"android":"levelo://app?vid=5e01559c-9114-49ec-be0b-dc022f9c1977","ios":"levelo://app?vid=5e01559c-9114-49ec-be0b-dc022f9c1977"},"vehicle_type_id":"4","last_reported":1704111170,"current_range_meters":1600,"station_id":"ce4bhb92rcd13ifvqen0","pricing_plan_id":"free"},{"bike_id":"94d8789c-55ea-4a1e-a489-21ae34df69d9","system_id":"levelo_inurba_marseille","lat":43.290104,"lon":5.356111,"is_reserved":false,"is_disabled":false,"rental_uris":{"android":"levelo://app?vid=94d8789c-55ea-4a1e-a489-21ae34df69d9","ios":"levelo://app?vid=94d8789c-55ea-4a1e-a489-21ae34df69d9"},"vehicle_type_id":"4","last_reported":1704111170,"current_range_meters":24000,"station_id":"ce4bhb92rcd13ifvqen0","pricing_plan_id":"free"},{"bike_id":"b6641d3e-43a5-4762-ae6b-10c06b65f887","system_id":"levelo_inurba_marseille","lat":43.28998,"lon":5.35607,"is_reserved":false,"is_disabled":false,"rental_uris":{"android":"levelo://app?vid=b6641d3e-43a5-4762-ae6b-10c06b65f887","ios":"levelo://app?vid=b6641d3e-43a5-4762-ae6b-10c06b65f887"},"vehicle_type_id":"4","last_reported":1704111170,"current_range_meters":13200,"station_id":"ce4bhb92rcd13ifvqen0","pricing_plan_id":"free"},{"bike_id":"9de38b8e-bfb8-408f-99ee-846a1bce6dbf","system_id":"levelo_inurba_marseille","lat":43.290995,"lon":5.381361,"is_reserved":false,"is_disabled":false,"rental_uris":{"android":"levelo://app?vid=9de38b8e-bfb8-408f-99ee-846a1bce6dbf","ios":"levelo://app?vid=9de38b8e-bfb8-408f-99ee-846a1bce6dbf"},"vehicle_type_id":"4","last_reported":1704111170,"current_range_meters":28000,"station_id":"ce4bh512rcd13ifvqe2g","pricing_plan_id":"free"},{"bike_id":"fdfb70d8-9890-422e-9251-12e030bcfb72","system_id":"levelo_inurba_marseille","lat":43.330442,"lon":5.389148,"is_reserved":false,"is_disabled":false,"rental_uris":{"android":"levelo://app?vid=fdfb70d8-9890-422e-9251-12e030bcfb72","ios":"levelo://app?vid=fdfb70d8-9890-422e-9251-12e030bcfb72"},"vehicle_type_id":"4","last_reported":1704111170,"current_range_meters":18000,"station_id":"ce4bhr92rcd13ifvqhrg","pricing_plan_id":"free"},{"bike_id":"13d41c86-d361-4b17-ae49-6b5491dd4e85","system_id":"levelo_inurba_marseille","lat":43.330442,"lon":5.389148,"is_reserved":false,"is_disabled":false,"rental_uris":{"android":"levelo://app?vid=13d41c86-d361-4b17-ae49-6b5491dd4e85","ios":"levelo://app?vid=13d41c86-d361-4b17-ae49-6b5491dd4e85"},"vehicle_type_id":"4","last_reported":1704111170,"current_range_meters":29200,"station_id":"ce4bhr92rcd13ifvqhrg","pricing_plan_id":"free"},{"bike_id":"7d3f0707-26fc-41d0-8f63-88674e57e19c","system_id":"levelo_inurba_marseille","lat":43.330442,"lon":5.389148,"is_reserved":false,"is_disabled":false,"rental_uris":{"android":"levelo://app?vid=7d3f0707-26fc-41d0-8f63-88674e57e19c","ios":"levelo://app?vid=7d3f0707-26fc-41d0-8f63-88674e57e19c"},"vehicle_type_id":"4","last_reported":1704111170,"current_range_meters":11600,"station_id":"ce4bhr92rcd13ifvqhrg","pricing_plan_id":"free"},{"bike_id":"983ae15b-e6ac-4e63-857d-b1c023399b7b","system_id":"levelo_inurba_marseille","lat":43.330442,"lon":5.389148,"is_reserved":false,"is_disabled":false,"rental_uris":{"android":"levelo://app?vid=983ae15b-e6ac-4e63-857d-b1c023399b7b","ios":"levelo://app?vid=983ae15b-e6ac-4e63-857d-b1c023399b7b"},"vehicle_type_id":"4","last_reported":1704111170,"current_range_meters":28000,"station_id":"ce4bhr92rcd13ifvqhrg","pricing_plan_id":"free"},{"bike_id":"4281d230-8c6f-4d78-8148-9d01f308b6c9","system_id":"levelo_inurba_marseille","lat":43.303837,"lon":5.418724,"is_reserved":false,"is_disabled":false,"rental_uris":{"android":"levelo://app?vid=4281d230-8c6f-4d78-8148-9d01f308b6c9","ios":"levelo://app?vid=4281d230-8c6f-4d78-8148-9d01f308b6c9"},"vehicle_type_id":"4","last_reported":1704111170,"current_range_meters":22000,"station_id":"ce4bhop2rcd13ifvqh7g","pricing_plan_id":"free"},{"bike_id":"847fd9f7-26a3-4e89-b060-88498a4c5875","system_id":"levelo_inurba_marseille","lat":43.312609,"lon":5.401662,"is_reserved":false,"is_disabled":false,"rental_uris":{"android":"levelo://app?vid=847fd9f7-26a3-4e89-b060-88498a4c5875","ios":"levelo://app?vid=847fd9f7-26a3-4e89-b060-88498a4c5875"},"vehicle_type_id":"4","last_reported":1704111170,"current_range_meters":0,"station_id":"ce4bh092rcd13ifvqd30","pricing_plan_id":"free"},{"bike_id":"0a4ff4c2-5407-45a7-8bd8-681bae981765","system_id":"levelo_inurba_marseille","lat":43.312609,"lon":5.401662,"is_reserved":false,"is_disabled":false,"rental_uris":{"android":"levelo://app?vid=0a4ff4c2-5407-45a7-8bd8-681bae981765","ios":"levelo://app?vid=0a4ff4c2-5407-45a7-8bd8-681bae981765"},"vehicle_type_id":"4","last_reported":1704111170,"current_range_meters":0,"station_id":"ce4bh092rcd13ifvqd30","pricing_plan_id":"free"},{"bike_id":"d628ee32-1c50-4c11-9b99-9f24a97552ff","system_id":"levelo_inurba_marseille","lat":43.309371,"lon":5.401449,"is_reserved":false,"is_disabled":false,"rental_uris":{"android":"levelo://app?vid=d628ee32-1c50-4c11-9b99-9f24a97552ff","ios":"levelo://app?vid=d628ee32-1c50-4c11-9b99-9f24a97552ff"},"vehicle_type_id":"4","last_reported":1704111170,"current_range_meters":22800,"station_id":"ce4bgvp2rcd13ifvqct0","pricing_plan_id":"free"},{"bike_id":"ad16626a-eded-4ccd-8a7d-60418570e591","system_id":"levelo_inurba_marseille","lat":43.309371,"lon":5.401449,"is_reserved":false,"is_disabled":false,"rental_uris":{"android":"levelo://app?vid=ad16626a-eded-4ccd-8a7d-60418570e591","ios":"levelo://app?vid=ad16626a-eded-4ccd-8a7d-60418570e591"},"vehicle_type_id":"4","last_reported":1704111170,"current_range_meters":28400,"station_id":"ce4bgvp2rcd13ifvqct0","pricing_plan_id":"free"},{"bike_id":"92e5d8a7-160b-4e54-9c3c-01cd3744aeb2","system_id":"levelo_inurba_marseille","lat":43.30932,"lon":5.40148,"is_reserved":false,"is_disabled":false,"rental_uris":{"android":"levelo://app?vid=92e5d8a7-160b-4e54-9c3c-01cd3744aeb2","ios":"levelo://app?vid=92e5d8a7-160b-4e54-9c3c-01cd3744aeb2"},"vehicle_type_id":"4","last_reported":1704111170,"current_range_meters":20400,"station_id":"ce4bgvp2rcd13ifvqct0","pricing_plan_id":"free"},{"bike_id":"04220ef2-7980-465f-935d-e8cf2350c8d1","system_id":"levelo_inurba_marseille","lat":43.309371,"lon":5.401449,"is_reserved":false,"is_disabled":false,"rental_uris":{"android":"levelo://app?vid=04220ef2-7980-465f-935d-e8cf2350c8d1","ios":"levelo://app?vid=04220ef2-7980-465f-935d-e8cf2350c8d1"},"vehicle_type_id":"4","last_reported":1704111170,"current_range_meters":10800,"station_id":"ce4bgvp2rcd13ifvqct0","pricing_plan_id":"free"},{"bike_id":"e1742b51-d317-4863-8020-72970a9a6de0","system_id":"levelo_inurba_marseille","lat":43.309371,"lon":5.401449,"is_reserved":false,"is_disabled":false,"rental_uris":{"android":"levelo://app?vid=e1742b51-d317-4863-8020-72970a9a6de0","ios":"levelo://app?vid=e1742b51-d317-4863-8020-72970a9a6de0"},"vehicle_type_id":"4","last_reported":1704111170,"current_range_meters":17600,"station_id":"ce4bgvp2rcd13ifvqct0","pricing_plan_id":"free"},{"bike_id":"1e6cd83d-4fe0-4cdc-947a-8662212d826a","system_id":"levelo_inurba_marseille","lat":43.312609,"lon":5.401662,"is_reserved":false,"is_disabled":false,"rental_uris":{"android":"levelo://app?vid=1e6cd83d-4fe0-4cdc-947a-8662212d826a","ios":"levelo://app?vid=1e6cd83d-4fe0-4cdc-947a-8662212d826a"},"vehicle_type_id":"4","last_reported":1704111170,"current_range_meters":12800,"station_id":"ce4bh092rcd13ifvqd30","pricing_plan_id":"free"},{"bike_id":"f09fffb6-ee31-429c-a7ad-f797d27668ca","system_id":"levelo_inurba_marseille","lat":43.309371,"lon":5.401449,"is_reserved":false,"is_disabled":false,"rental_uris":{"android":"levelo://app?vid=f09fffb6-ee31-429c-a7ad-f797d27668ca","ios":"levelo://app?vid=f09fffb6-ee31-429c-a7ad-f797d27668ca"},"vehicle_type_id":"4","last_reported":1704111170,"current_range_meters":28400,"station_id":"ce4bgvp2rcd13ifvqct0","pricing_plan_id":"free"},{"bike_id":"5292914b-ac67-4d83-9706-276b66d94ec1","system_id":"levelo_inurba_marseille","lat":43.28778,"lon":5.35947,"is_reserved":false,"is_disabled":false,"rental_uris":{"android":"levelo://app?vid=5292914b-ac67-4d83-9706-276b66d94ec1","ios":"levelo://app?vid=5292914b-ac67-4d83-9706-276b66d94ec1"},"vehicle_type_id":"4","last_reported":1704111170,"current_range_meters":14400,"station_id":"","pricing_plan_id":"free"},{"bike_id":"89dd9197-2497-4f84-a4cf-354b380ecc1e","system_id":"levelo_inurba_marseille","lat":43.28727,"lon":5.36078,"is_reserved":false,"is_disabled":false,"rental_uris":{"android":"levelo://app?vid=89dd9197-2497-4f84-a4cf-354b380ecc1e","ios":"levelo://app?vid=89dd9197-2497-4f84-a4cf-354b380ecc1e"},"vehicle_type_id":"4","last_reported":1704111170,"current_range_meters":22400,"station_id":"cki0cbj6b192h4jlfktg","pricing_plan_id":"free"},{"bike_id":"b6daf894-4dc3-484f-861c-954249acfd63","system_id":"levelo_inurba_marseille","lat":43.298681,"lon":5.397225,"is_reserved":false,"is_disabled":false,"rental_uris":{"android":"levelo://app?vid=b6daf894-4dc3-484f-861c-954249acfd63","ios":"levelo://app?vid=b6daf894-4dc3-484f-861c-954249acfd63"},"vehicle_type_id":"4","last_reported":1704111170,"current_range_meters":9600,"station_id":"ce4bh0h2rcd13ifvqd50","pricing_plan_id":"free"},{"bike_id":"75276524-dd11-47e8-942b-2def2558221a","system_id":"levelo_inurba_marseille","lat":43.295196,"lon":5.39397,"is_reserved":false,"is_disabled":false,"rental_uris":{"android":"levelo://app?vid=75276524-dd11-47e8-942b-2def2558221a","ios":"levelo://app?vid=75276524-dd11-47e8-942b-2def2558221a"},"vehicle_type_id":"4","last_reported":1704111170,"current_range_meters":14000,"station_id":"ce4bh292rcd13ifvqdf0","pricing_plan_id":"free"},{"bike_id":"12eb869d-7aa7-49cd-b610-46ac47dafd6d","system_id":"levelo_inurba_marseille","lat":43.286961,"lon":5.373785,"is_reserved":false,"is_disabled":false,"rental_uris":{"android":"levelo://app?vid=12eb869d-7aa7-49cd-b610-46ac47dafd6d","ios":"levelo://app?vid=12eb869d-7aa7-49cd-b610-46ac47dafd6d"},"vehicle_type_id":"4","last_reported":1704111170,"current_range_meters":26400,"station_id":"ce4bh3p2rcd13ifvqdq0","pricing_plan_id":"free"},{"bike_id":"f182ad30-578d-439a-b895-037c49f93cbb","system_id":"levelo_inurba_marseille","lat":43.28039,"lon":5.369297,"is_reserved":false,"is_disabled":false,"rental_uris":{"android":"levelo://app?vid=f182ad30-578d-439a-b895-037c49f93cbb","ios":"levelo://app?vid=f182ad30-578d-439a-b895-037c49f93cbb"},"vehicle_type_id":"4","last_reported":1704111170,"current_range_meters":28000,"station_id":"ce4bha12rcd13ifvqef0","pricing_plan_id":"free"},{"bike_id":"133140b9-2d9b-44d4-927b-6b4e2588f628","system_id":"levelo_inurba_marseille","lat":43.298681,"lon":5.397225,"is_reserved":false,"is_disabled":false,"rental_uris":{"android":"levelo://app?vid=133140b9-2d9b-44d4-927b-6b4e2588f628","ios":"levelo://app?vid=133140b9-2d9b-44d4-927b-6b4e2588f628"},"vehicle_type_id":"4","last_reported":1704111170,"current_range_meters":28000,"station_id":"ce4bh0h2rcd13ifvqd50","pricing_plan_id":"free"},{"bike_id":"a32f45e5-7b35-4e4c-b435-e11c51b0e22a","system_id":"levelo_inurba_marseille","lat":43.284214,"lon":5.349706,"is_reserved":false,"is_disabled":false,"rental_uris":{"android":"levelo://app?vid=a32f45e5-7b35-4e4c-b435-e11c51b0e22a","ios":"levelo://app?vid=a32f45e5-7b35-4e4c-b435-e11c51b0e22a"},"vehicle_type_id":"4","last_reported":1704111170,"current_range_meters":18400,"station_id":"ce4bhbh2rcd13ifvqepg","pricing_plan_id":"free"},{"bike_id":"ad2cc45f-cb4a-45a1-9c67-d3ff29739959","system_id":"levelo_inurba_marseille","lat":43.316828,"lon":5.404723,"is_reserved":false,"is_disabled":false,"rental_uris":{"android":"levelo://app?vid=ad2cc45f-cb4a-45a1-9c67-d3ff29739959","ios":"levelo://app?vid=ad2cc45f-cb4a-45a1-9c67-d3ff29739959"},"vehicle_type_id":"4","last_reported":1704111170,"current_range_meters":12400,"station_id":"ce4bh012rcd13ifvqd00","pricing_plan_id":"free"},{"bike_id":"d930b0ca-d3fb-48ad-b868-352f25b73513","system_id":"levelo_inurba_marseille","lat":43.316821,"lon":5.404737,"is_reserved":false,"is_disabled":false,"rental_uris":{"android":"levelo://app?vid=d930b0ca-d3fb-48ad-b868-352f25b73513","ios":"levelo://app?vid=d930b0ca-d3fb-48ad-b868-352f25b73513"},"vehicle_type_id":"4","last_reported":1704111170,"current_range_meters":0,"station_id":"ce4bh012rcd13ifvqd00","pricing_plan_id":"free"},{"bike_id":"5a04d507-8919-4dc3-a7b6-de5b848a6c92","system_id":"levelo_inurba_marseille","lat":43.316828,"lon":5.404723,"is_reserved":false,"is_disabled":false,"rental_uris":{"android":"levelo://app?vid=5a04d507-8919-4dc3-a7b6-de5b848a6c92","ios":"levelo://app?vid=5a04d507-8919-4dc3-a7b6-de5b848a6c92"},"vehicle_type_id":"4","last_reported":1704111170,"current_range_meters":27600,"station_id":"ce4bh012rcd13ifvqd00","pricing_plan_id":"free"},{"bike_id":"8272a1c9-c7e2-485f-955e-bb5f21ba103b","system_id":"levelo_inurba_marseille","lat":43.291994,"lon":5.392907,"is_reserved":false,"is_disabled":false,"rental_uris":{"android":"levelo://app?vid=8272a1c9-c7e2-485f-955e-bb5f21ba103b","ios":"levelo://app?vid=8272a1c9-c7e2-485f-955e-bb5f21ba103b"},"vehicle_type_id":"4","last_reported":1704111170,"current_range_meters":29600,"station_id":"ce4bh192rcd13ifvqdd0","pricing_plan_id":"free"},{"bike_id":"ae0fd938-f7c5-4c2b-a600-cbfe2628e765","system_id":"levelo_inurba_marseille","lat":43.291977,"lon":5.393301,"is_reserved":false,"is_disabled":false,"rental_uris":{"android":"levelo://app?vid=ae0fd938-f7c5-4c2b-a600-cbfe2628e765","ios":"levelo://app?vid=ae0fd938-f7c5-4c2b-a600-cbfe2628e765"},"vehicle_type_id":"4","last_reported":1704111170,"current_range_meters":25600,"station_id":"ce4bh192rcd13ifvqdd0","pricing_plan_id":"free"},{"bike_id":"483053b6-4b08-4692-aee4-bfd1846d4d3d","system_id":"levelo_inurba_marseille","lat":43.286348,"lon":5.352578,"is_reserved":false,"is_disabled":false,"rental_uris":{"android":"levelo://app?vid=483053b6-4b08-4692-aee4-bfd1846d4d3d","ios":"levelo://app?vid=483053b6-4b08-4692-aee4-bfd1846d4d3d"},"vehicle_type_id":"4","last_reported":1704111170,"current_range_meters":24400,"station_id":"ce4bhch2rcd13ifvqeug","pricing_plan_id":"free"},{"bike_id":"7dc6404b-2b50-4a94-a377-55851a18adf7","system_id":"levelo_inurba_marseille","lat":43.284534,"lon":5.358662,"is_reserved":false,"is_disabled":false,"rental_uris":{"android":"levelo://app?vid=7dc6404b-2b50-4a94-a377-55851a18adf7","ios":"levelo://app?vid=7dc6404b-2b50-4a94-a377-55851a18adf7"},"vehicle_type_id":"4","last_reported":1704111170,"current_range_meters":6800,"station_id":"ce4bhah2rcd13ifvqei0","pricing_plan_id":"free"},{"bike_id":"f4337a0f-4a4a-4cda-96c6-4ae1e00eca85","system_id":"levelo_inurba_marseille","lat":43.284538,"lon":5.358657,"is_reserved":false,"is_disabled":false,"rental_uris":{"android":"levelo://app?vid=f4337a0f-4a4a-4cda-96c6-4ae1e00eca85","ios":"levelo://app?vid=f4337a0f-4a4a-4cda-96c6-4ae1e00eca85"},"vehicle_type_id":"4","last_reported":1704111170,"current_range_meters":24400,"station_id":"ce4bhah2rcd13ifvqei0","pricing_plan_id":"free"},{"bike_id":"5b773cda-79f7-4fb5-ba58-152543e8d999","system_id":"levelo_inurba_marseille","lat":43.294314,"lon":5.397498,"is_reserved":false,"is_disabled":false,"rental_uris":{"android":"levelo://app?vid=5b773cda-79f7-4fb5-ba58-152543e8d999","ios":"levelo://app?vid=5b773cda-79f7-4fb5-ba58-152543e8d999"},"vehicle_type_id":"4","last_reported":1704111170,"current_range_meters":27600,"station_id":"ce4bh3h2rcd13ifvqdo0","pricing_plan_id":"free"},{"bike_id":"6d6fe783-1222-4da5-8869-6556a448e627","system_id":"levelo_inurba_marseille","lat":43.285856,"lon":5.350771,"is_reserved":false,"is_disabled":false,"rental_uris":{"android":"levelo://app?vid=6d6fe783-1222-4da5-8869-6556a448e627","ios":"levelo://app?vid=6d6fe783-1222-4da5-8869-6556a448e627"},"vehicle_type_id":"4","last_reported":1704111170,"current_range_meters":30400,"station_id":"ce4bhch2rcd13ifvqeug","pricing_plan_id":"free"},{"bike_id":"cb2ee55a-ee57-41e5-b85f-bae49a78399d","system_id":"levelo_inurba_marseille","lat":43.28614,"lon":5.351,"is_reserved":false,"is_disabled":false,"rental_uris":{"android":"levelo://app?vid=cb2ee55a-ee57-41e5-b85f-bae49a78399d","ios":"levelo://app?vid=cb2ee55a-ee57-41e5-b85f-bae49a78399d"},"vehicle_type_id":"4","last_reported":1704111170,"current_range_meters":20800,"station_id":"ce4bhch2rcd13ifvqeug","pricing_plan_id":"free"},{"bike_id":"9712f9d9-d7ea-4e92-a7aa-c97565ad50a6","system_id":"levelo_inurba_marseille","lat":43.28613,"lon":5.35099,"is_reserved":false,"is_disabled":false,"rental_uris":{"android":"levelo://app?vid=9712f9d9-d7ea-4e92-a7aa-c97565ad50a6","ios":"levelo://app?vid=9712f9d9-d7ea-4e92-a7aa-c97565ad50a6"},"vehicle_type_id":"4","last_reported":1704111170,"current_range_meters":24000,"station_id":"ce4bhch2rcd13ifvqeug","pricing_plan_id":"free"},{"bike_id":"3ebce117-dcb3-4440-b9ce-07470832ba75","system_id":"levelo_inurba_marseille","lat":43.28611,"lon":5.35103,"is_reserved":false,"is_disabled":false,"rental_uris":{"android":"levelo://app?vid=3ebce117-dcb3-4440-b9ce-07470832ba75","ios":"levelo://app?vid=3ebce117-dcb3-4440-b9ce-07470832ba75"},"vehicle_type_id":"4","last_reported":1704111170,"current_range_meters":800,"station_id":"ce4bhch2rcd13ifvqeug","pricing_plan_id":"free"},{"bike_id":"c183a73d-a524-4337-b676-43f7789a3af5","system_id":"levelo_inurba_marseille","lat":43.284096,"lon":5.375177,"is_reserved":false,"is_disabled":false,"rental_uris":{"android":"levelo://app?vid=c183a73d-a524-4337-b676-43f7789a3af5","ios":"levelo://app?vid=c183a73d-a524-4337-b676-43f7789a3af5"},"vehicle_type_id":"4","last_reported":1704111170,"current_range_meters":29200,"station_id":"ce4bh412rcd13ifvqds0","pricing_plan_id":"free"},{"bike_id":"1104ccd1-9157-49ab-841b-de621b8c2554","system_id":"levelo_inurba_marseille","lat":43.2867,"lon":5.386645,"is_reserved":false,"is_disabled":false,"rental_uris":{"android":"levelo://app?vid=1104ccd1-9157-49ab-841b-de621b8c2554","ios":"levelo://app?vid=1104ccd1-9157-49ab-841b-de621b8c2554"},"vehicle_type_id":"4","last_reported":1704111170,"current_range_meters":13600,"station_id":"ce4bh492rcd13ifvqdug","pricing_plan_id":"free"},{"bike_id":"8af6642b-e526-4770-8a06-6b115e68c32b","system_id":"levelo_inurba_marseille","lat":43.33728,"lon":5.39177,"is_reserved":false,"is_disabled":false,"rental_uris":{"android":"levelo://app?vid=8af6642b-e526-4770-8a06-6b115e68c32b","ios":"levelo://app?vid=8af6642b-e526-4770-8a06-6b115e68c32b"},"vehicle_type_id":"4","last_reported":1704111170,"current_range_meters":25200,"station_id":"ce4bhr92rcd13ifvqhsg","pricing_plan_id":"free"},{"bike_id":"1860c054-e673-4084-804e-8832a59aeb53","system_id":"levelo_inurba_marseille","lat":43.337168,"lon":5.391825,"is_reserved":false,"is_disabled":false,"rental_uris":{"android":"levelo://app?vid=1860c054-e673-4084-804e-8832a59aeb53","ios":"levelo://app?vid=1860c054-e673-4084-804e-8832a59aeb53"},"vehicle_type_id":"4","last_reported":1704111170,"current_range_meters":28800,"station_id":"ce4bhr92rcd13ifvqhsg","pricing_plan_id":"free"},{"bike_id":"9c89ccbb-1205-42f3-9670-7f7c8e469aa6","system_id":"levelo_inurba_marseille","lat":43.323464,"lon":5.406297,"is_reserved":false,"is_disabled":false,"rental_uris":{"android":"levelo://app?vid=9c89ccbb-1205-42f3-9670-7f7c8e469aa6","ios":"levelo://app?vid=9c89ccbb-1205-42f3-9670-7f7c8e469aa6"},"vehicle_type_id":"4","last_reported":1704111170,"current_range_meters":28000,"station_id":"ce4bhq92rcd13ifvqhjg","pricing_plan_id":"free"},{"bike_id":"7283ba34-aeaf-487c-98e5-077d9474815d","system_id":"levelo_inurba_marseille","lat":43.284793,"lon":5.384113,"is_reserved":false,"is_disabled":false,"rental_uris":{"android":"levelo://app?vid=7283ba34-aeaf-487c-98e5-077d9474815d","ios":"levelo://app?vid=7283ba34-aeaf-487c-98e5-077d9474815d"},"vehicle_type_id":"4","last_reported":1704111170,"current_range_meters":24000,"station_id":"ce4bh512rcd13ifvqe3g","pricing_plan_id":"free"},{"bike_id":"cd40f12f-969d-4461-bb26-5730689c65fa","system_id":"levelo_inurba_marseille","lat":43.297946,"lon":5.404063,"is_reserved":false,"is_disabled":false,"rental_uris":{"android":"levelo://app?vid=cd40f12f-969d-4461-bb26-5730689c65fa","ios":"levelo://app?vid=cd40f12f-969d-4461-bb26-5730689c65fa"},"vehicle_type_id":"4","last_reported":1704111170,"current_range_meters":27600,"station_id":"ce4bh112rcd13ifvqd90","pricing_plan_id":"free"},{"bike_id":"73baccf2-2f35-40cb-b44e-6d50cd41c007","system_id":"levelo_inurba_marseille","lat":43.29795,"lon":5.404086,"is_reserved":false,"is_disabled":false,"rental_uris":{"android":"levelo://app?vid=73baccf2-2f35-40cb-b44e-6d50cd41c007","ios":"levelo://app?vid=73baccf2-2f35-40cb-b44e-6d50cd41c007"},"vehicle_type_id":"4","last_reported":1704111170,"current_range_meters":22800,"station_id":"ce4bh112rcd13ifvqd90","pricing_plan_id":"free"},{"bike_id":"4d596014-02c1-43ee-b3e0-efc2b6f1b029","system_id":"levelo_inurba_marseille","lat":43.275625,"lon":5.384392,"is_reserved":false,"is_disabled":false,"rental_uris":{"android":"levelo://app?vid=4d596014-02c1-43ee-b3e0-efc2b6f1b029","ios":"levelo://app?vid=4d596014-02c1-43ee-b3e0-efc2b6f1b029"},"vehicle_type_id":"4","last_reported":1704111170,"current_range_meters":20800,"station_id":"ce4bhh92rcd13ifvqfi0","pricing_plan_id":"free"},{"bike_id":"e66eb6ab-0946-4702-a509-720e5946a983","system_id":"levelo_inurba_marseille","lat":43.284219,"lon":5.3497,"is_reserved":false,"is_disabled":false,"rental_uris":{"android":"levelo://app?vid=e66eb6ab-0946-4702-a509-720e5946a983","ios":"levelo://app?vid=e66eb6ab-0946-4702-a509-720e5946a983"},"vehicle_type_id":"4","last_reported":1704111170,"current_range_meters":18000,"station_id":"ce4bhbh2rcd13ifvqepg","pricing_plan_id":"free"},{"bike_id":"07ce3283-9bab-40bf-8b26-72b3cfef7452","system_id":"levelo_inurba_marseille","lat":43.284219,"lon":5.3497,"is_reserved":false,"is_disabled":false,"rental_uris":{"android":"levelo://app?vid=07ce3283-9bab-40bf-8b26-72b3cfef7452","ios":"levelo://app?vid=07ce3283-9bab-40bf-8b26-72b3cfef7452"},"vehicle_type_id":"4","last_reported":1704111170,"current_range_meters":31600,"station_id":"ce4bhbh2rcd13ifvqepg","pricing_plan_id":"free"},{"bike_id":"fddd2611-feab-4620-876b-52cc1e62e134","system_id":"levelo_inurba_marseille","lat":43.284219,"lon":5.3497,"is_reserved":false,"is_disabled":false,"rental_uris":{"android":"levelo://app?vid=fddd2611-feab-4620-876b-52cc1e62e134","ios":"levelo://app?vid=fddd2611-feab-4620-876b-52cc1e62e134"},"vehicle_type_id":"4","last_reported":1704111170,"current_range_meters":31600,"station_id":"ce4bhbh2rcd13ifvqepg","pricing_plan_id":"free"},{"bike_id":"815df7b1-eb70-49f9-9b93-bdef005a1639","system_id":"levelo_inurba_marseille","lat":43.284219,"lon":5.3497,"is_reserved":false,"is_disabled":false,"rental_uris":{"android":"levelo://app?vid=815df7b1-eb70-49f9-9b93-bdef005a1639","ios":"levelo://app?vid=815df7b1-eb70-49f9-9b93-bdef005a1639"},"vehicle_type_id":"4","last_reported":1704111170,"current_range_meters":30800,"station_id":"ce4bhbh2rcd13ifvqepg","pricing_plan_id":"free"},{"bike_id":"d731d671-a3f5-4243-ac4b-1201edd40e88","system_id":"levelo_inurba_marseille","lat":43.284217,"lon":5.349697,"is_reserved":false,"is_disabled":false,"rental_uris":{"android":"levelo://app?vid=d731d671-a3f5-4243-ac4b-1201edd40e88","ios":"levelo://app?vid=d731d671-a3f5-4243-ac4b-1201edd40e88"},"vehicle_type_id":"4","last_reported":1704111170,"current_range_meters":31600,"station_id":"ce4bhbh2rcd13ifvqepg","pricing_plan_id":"free"},{"bike_id":"0d0d6d12-5006-40f2-9232-de7ce4d5f763","system_id":"levelo_inurba_marseille","lat":43.284217,"lon":5.349697,"is_reserved":false,"is_disabled":false,"rental_uris":{"android":"levelo://app?vid=0d0d6d12-5006-40f2-9232-de7ce4d5f763","ios":"levelo://app?vid=0d0d6d12-5006-40f2-9232-de7ce4d5f763"},"vehicle_type_id":"4","last_reported":1704111170,"current_range_meters":16800,"station_id":"ce4bhbh2rcd13ifvqepg","pricing_plan_id":"free"},{"bike_id":"646f152a-6108-4f1a-bc21-03e8b0c7192d","system_id":"levelo_inurba_marseille","lat":43.284217,"lon":5.349697,"is_reserved":false,"is_disabled":false,"rental_uris":{"android":"levelo://app?vid=646f152a-6108-4f1a-bc21-03e8b0c7192d","ios":"levelo://app?vid=646f152a-6108-4f1a-bc21-03e8b0c7192d"},"vehicle_type_id":"4","last_reported":1704111170,"current_range_meters":27200,"station_id":"ce4bhbh2rcd13ifvqepg","pricing_plan_id":"free"},{"bike_id":"3a1044d1-2076-4898-a7a7-eaca9090fada","system_id":"levelo_inurba_marseille","lat":43.284219,"lon":5.3497,"is_reserved":false,"is_disabled":false,"rental_uris":{"android":"levelo://app?vid=3a1044d1-2076-4898-a7a7-eaca9090fada","ios":"levelo://app?vid=3a1044d1-2076-4898-a7a7-eaca9090fada"},"vehicle_type_id":"4","last_reported":1704111170,"current_range_meters":24800,"station_id":"ce4bhbh2rcd13ifvqepg","pricing_plan_id":"free"},{"bike_id":"42453d5c-7409-4c34-978a-bda9a64c32f1","system_id":"levelo_inurba_marseille","lat":43.284219,"lon":5.3497,"is_reserved":false,"is_disabled":false,"rental_uris":{"android":"levelo://app?vid=42453d5c-7409-4c34-978a-bda9a64c32f1","ios":"levelo://app?vid=42453d5c-7409-4c34-978a-bda9a64c32f1"},"vehicle_type_id":"4","last_reported":1704111170,"current_range_meters":22800,"station_id":"ce4bhbh2rcd13ifvqepg","pricing_plan_id":"free"},{"bike_id":"bf484915-3c31-461f-a9d2-7ffde0d90705","system_id":"levelo_inurba_marseille","lat":43.284217,"lon":5.349697,"is_reserved":false,"is_disabled":false,"rental_uris":{"android":"levelo://app?vid=bf484915-3c31-461f-a9d2-7ffde0d90705","ios":"levelo://app?vid=bf484915-3c31-461f-a9d2-7ffde0d90705"},"vehicle_type_id":"4","last_reported":1704111170,"current_range_meters":20000,"station_id":"ce4bhbh2rcd13ifvqepg","pricing_plan_id":"free"},{"bike_id":"fdaed254-768f-4eb1-882a-539209c05fd1","system_id":"levelo_inurba_marseille","lat":43.284219,"lon":5.3497,"is_reserved":false,"is_disabled":false,"rental_uris":{"android":"levelo://app?vid=fdaed254-768f-4eb1-882a-539209c05fd1","ios":"levelo://app?vid=fdaed254-768f-4eb1-882a-539209c05fd1"},"vehicle_type_id":"4","last_reported":1704111170,"current_range_meters":22800,"station_id":"ce4bhbh2rcd13ifvqepg","pricing_plan_id":"free"},{"bike_id":"c4842957-daa2-4150-9acd-bbbe2df74d61","system_id":"levelo_inurba_marseille","lat":43.28414,"lon":5.34989,"is_reserved":false,"is_disabled":false,"rental_uris":{"android":"levelo://app?vid=c4842957-daa2-4150-9acd-bbbe2df74d61","ios":"levelo://app?vid=c4842957-daa2-4150-9acd-bbbe2df74d61"},"vehicle_type_id":"4","last_reported":1704111170,"current_range_meters":23200,"station_id":"ce4bhbh2rcd13ifvqepg","pricing_plan_id":"free"},{"bike_id":"d9965515-48a6-4806-8535-fe401326a8ef","system_id":"levelo_inurba_marseille","lat":43.289363,"lon":5.396322,"is_reserved":false,"is_disabled":false,"rental_uris":{"android":"levelo://app?vid=d9965515-48a6-4806-8535-fe401326a8ef","ios":"levelo://app?vid=d9965515-48a6-4806-8535-fe401326a8ef"},"vehicle_type_id":"4","last_reported":1704111170,"current_range_meters":18400,"station_id":"ce4bh3h2rcd13ifvqdn0","pricing_plan_id":"free"},{"bike_id":"0e6a5223-be83-4b35-9f82-cfa0e4e2eec5","system_id":"levelo_inurba_marseille","lat":43.282754,"lon":5.350519,"is_reserved":false,"is_disabled":false,"rental_uris":{"android":"levelo://app?vid=0e6a5223-be83-4b35-9f82-cfa0e4e2eec5","ios":"levelo://app?vid=0e6a5223-be83-4b35-9f82-cfa0e4e2eec5"},"vehicle_type_id":"4","last_reported":1704111170,"current_range_meters":31200,"station_id":"ce4bhbp2rcd13ifvqerg","pricing_plan_id":"free"},{"bike_id":"c20779b9-7757-4192-8380-00e6cdf94e68","system_id":"levelo_inurba_marseille","lat":43.282754,"lon":5.350519,"is_reserved":false,"is_disabled":false,"rental_uris":{"android":"levelo://app?vid=c20779b9-7757-4192-8380-00e6cdf94e68","ios":"levelo://app?vid=c20779b9-7757-4192-8380-00e6cdf94e68"},"vehicle_type_id":"4","last_reported":1704111170,"current_range_meters":22800,"station_id":"ce4bhbp2rcd13ifvqerg","pricing_plan_id":"free"},{"bike_id":"bdf49905-920b-42a7-b34a-4afd69b8e0b3","system_id":"levelo_inurba_marseille","lat":43.28271,"lon":5.35065,"is_reserved":false,"is_disabled":false,"rental_uris":{"android":"levelo://app?vid=bdf49905-920b-42a7-b34a-4afd69b8e0b3","ios":"levelo://app?vid=bdf49905-920b-42a7-b34a-4afd69b8e0b3"},"vehicle_type_id":"4","last_reported":1704111170,"current_range_meters":15600,"station_id":"ce4bhbp2rcd13ifvqerg","pricing_plan_id":"free"},{"bike_id":"f4884c1b-f4e0-4b9e-9213-acaac34cf8a3","system_id":"levelo_inurba_marseille","lat":43.282754,"lon":5.350519,"is_reserved":false,"is_disabled":false,"rental_uris":{"android":"levelo://app?vid=f4884c1b-f4e0-4b9e-9213-acaac34cf8a3","ios":"levelo://app?vid=f4884c1b-f4e0-4b9e-9213-acaac34cf8a3"},"vehicle_type_id":"4","last_reported":1704111170,"current_range_meters":29200,"station_id":"ce4bhbp2rcd13ifvqerg","pricing_plan_id":"free"},{"bike_id":"f0477094-9d85-4d3d-ad96-97b7c1e4a1b0","system_id":"levelo_inurba_marseille","lat":43.282744,"lon":5.350533,"is_reserved":false,"is_disabled":false,"rental_uris":{"android":"levelo://app?vid=f0477094-9d85-4d3d-ad96-97b7c1e4a1b0","ios":"levelo://app?vid=f0477094-9d85-4d3d-ad96-97b7c1e4a1b0"},"vehicle_type_id":"4","last_reported":1704111170,"current_range_meters":14800,"station_id":"ce4bhbp2rcd13ifvqerg","pricing_plan_id":"free"},{"bike_id":"e20d39bc-3df4-49ac-bcdc-b6153f10612a","system_id":"levelo_inurba_marseille","lat":43.282744,"lon":5.350533,"is_reserved":false,"is_disabled":false,"rental_uris":{"android":"levelo://app?vid=e20d39bc-3df4-49ac-bcdc-b6153f10612a","ios":"levelo://app?vid=e20d39bc-3df4-49ac-bcdc-b6153f10612a"},"vehicle_type_id":"4","last_reported":1704111170,"current_range_meters":9200,"station_id":"ce4bhbp2rcd13ifvqerg","pricing_plan_id":"free"},{"bike_id":"ad6bc810-2050-4c8d-8f5c-57d54e20be3d","system_id":"levelo_inurba_marseille","lat":43.282744,"lon":5.350533,"is_reserved":false,"is_disabled":false,"rental_uris":{"android":"levelo://app?vid=ad6bc810-2050-4c8d-8f5c-57d54e20be3d","ios":"levelo://app?vid=ad6bc810-2050-4c8d-8f5c-57d54e20be3d"},"vehicle_type_id":"4","last_reported":1704111170,"current_range_meters":7200,"station_id":"ce4bhbp2rcd13ifvqerg","pricing_plan_id":"free"},{"bike_id":"784d0d32-a607-4226-b336-1b61e44b43e3","system_id":"levelo_inurba_marseille","lat":43.28036,"lon":5.369396,"is_reserved":false,"is_disabled":false,"rental_uris":{"android":"levelo://app?vid=784d0d32-a607-4226-b336-1b61e44b43e3","ios":"levelo://app?vid=784d0d32-a607-4226-b336-1b61e44b43e3"},"vehicle_type_id":"4","last_reported":1704111170,"current_range_meters":29600,"station_id":"ce4bha12rcd13ifvqef0","pricing_plan_id":"free"},{"bike_id":"478ea88e-c405-403d-a627-8dfc8e2d7cbc","system_id":"levelo_inurba_marseille","lat":43.280321,"lon":5.369433,"is_reserved":false,"is_disabled":false,"rental_uris":{"android":"levelo://app?vid=478ea88e-c405-403d-a627-8dfc8e2d7cbc","ios":"levelo://app?vid=478ea88e-c405-403d-a627-8dfc8e2d7cbc"},"vehicle_type_id":"4","last_reported":1704111170,"current_range_meters":30800,"station_id":"ce4bha12rcd13ifvqef0","pricing_plan_id":"free"},{"bike_id":"d44eda0b-0f63-4d7c-9c13-e6a878faef2e","system_id":"levelo_inurba_marseille","lat":43.281044,"lon":5.378308,"is_reserved":false,"is_disabled":false,"rental_uris":{"android":"levelo://app?vid=d44eda0b-0f63-4d7c-9c13-e6a878faef2e","ios":"levelo://app?vid=d44eda0b-0f63-4d7c-9c13-e6a878faef2e"},"vehicle_type_id":"4","last_reported":1704111170,"current_range_meters":30800,"station_id":"ce4bha12rcd13ifvqee0","pricing_plan_id":"free"},{"bike_id":"1775e623-9bc6-45e9-a21c-7a4b20597c0d","system_id":"levelo_inurba_marseille","lat":43.296263,"lon":5.40601,"is_reserved":false,"is_disabled":false,"rental_uris":{"android":"levelo://app?vid=1775e623-9bc6-45e9-a21c-7a4b20597c0d","ios":"levelo://app?vid=1775e623-9bc6-45e9-a21c-7a4b20597c0d"},"vehicle_type_id":"4","last_reported":1704111170,"current_range_meters":26000,"station_id":"ce4bh0h2rcd13ifvqd60","pricing_plan_id":"free"},{"bike_id":"1512302e-351f-423d-a8ea-8afa450eda32","system_id":"levelo_inurba_marseille","lat":43.28573,"lon":5.394992,"is_reserved":false,"is_disabled":false,"rental_uris":{"android":"levelo://app?vid=1512302e-351f-423d-a8ea-8afa450eda32","ios":"levelo://app?vid=1512302e-351f-423d-a8ea-8afa450eda32"},"vehicle_type_id":"4","last_reported":1704111170,"current_range_meters":26800,"station_id":"ce4bh292rcd13ifvqdg0","pricing_plan_id":"free"},{"bike_id":"f9b0a9c8-24c1-4156-a225-5ec62d466306","system_id":"levelo_inurba_marseille","lat":43.326605,"lon":5.409903,"is_reserved":false,"is_disabled":false,"rental_uris":{"android":"levelo://app?vid=f9b0a9c8-24c1-4156-a225-5ec62d466306","ios":"levelo://app?vid=f9b0a9c8-24c1-4156-a225-5ec62d466306"},"vehicle_type_id":"4","last_reported":1704111170,"current_range_meters":31200,"station_id":"ce4bhpp2rcd13ifvqhgg","pricing_plan_id":"free"},{"bike_id":"a5c78c94-ab80-4491-a55e-a6986d3c83d7","system_id":"levelo_inurba_marseille","lat":43.32662,"lon":5.40994,"is_reserved":false,"is_disabled":false,"rental_uris":{"android":"levelo://app?vid=a5c78c94-ab80-4491-a55e-a6986d3c83d7","ios":"levelo://app?vid=a5c78c94-ab80-4491-a55e-a6986d3c83d7"},"vehicle_type_id":"4","last_reported":1704111170,"current_range_meters":24400,"station_id":"ce4bhpp2rcd13ifvqhgg","pricing_plan_id":"free"},{"bike_id":"f37004f1-f5d0-4a8a-8150-3b1d320dc36d","system_id":"levelo_inurba_marseille","lat":43.310785,"lon":5.424305,"is_reserved":false,"is_disabled":false,"rental_uris":{"android":"levelo://app?vid=f37004f1-f5d0-4a8a-8150-3b1d320dc36d","ios":"levelo://app?vid=f37004f1-f5d0-4a8a-8150-3b1d320dc36d"},"vehicle_type_id":"4","last_reported":1704111170,"current_range_meters":31200,"station_id":"ce4bhp92rcd13ifvqhag","pricing_plan_id":"free"},{"bike_id":"f563e24c-50a7-4d61-87ca-a61665f61479","system_id":"levelo_inurba_marseille","lat":43.320045,"lon":5.415048,"is_reserved":false,"is_disabled":false,"rental_uris":{"android":"levelo://app?vid=f563e24c-50a7-4d61-87ca-a61665f61479","ios":"levelo://app?vid=f563e24c-50a7-4d61-87ca-a61665f61479"},"vehicle_type_id":"4","last_reported":1704111170,"current_range_meters":28400,"station_id":"ce4bhq92rcd13ifvqhkg","pricing_plan_id":"free"},{"bike_id":"a67fdae9-54e4-47f0-911d-8e3d27673a24","system_id":"levelo_inurba_marseille","lat":43.292571,"lon":5.409107,"is_reserved":false,"is_disabled":false,"rental_uris":{"android":"levelo://app?vid=a67fdae9-54e4-47f0-911d-8e3d27673a24","ios":"levelo://app?vid=a67fdae9-54e4-47f0-911d-8e3d27673a24"},"vehicle_type_id":"4","last_reported":1704111170,"current_range_meters":17200,"station_id":"ce4bh192rcd13ifvqdc0","pricing_plan_id":"free"},{"bike_id":"d7b74a6d-0877-49d9-9407-79f632a404ca","system_id":"levelo_inurba_marseille","lat":43.27618,"lon":5.361009,"is_reserved":false,"is_disabled":false,"rental_uris":{"android":"levelo://app?vid=d7b74a6d-0877-49d9-9407-79f632a404ca","ios":"levelo://app?vid=d7b74a6d-0877-49d9-9407-79f632a404ca"},"vehicle_type_id":"4","last_reported":1704111170,"current_range_meters":30400,"station_id":"ce4bgj92rcd13ifvqbe0","pricing_plan_id":"free"},{"bike_id":"c058b825-6b65-409c-8371-7d381cccaa9f","system_id":"levelo_inurba_marseille","lat":43.276179,"lon":5.361009,"is_reserved":false,"is_disabled":false,"rental_uris":{"android":"levelo://app?vid=c058b825-6b65-409c-8371-7d381cccaa9f","ios":"levelo://app?vid=c058b825-6b65-409c-8371-7d381cccaa9f"},"vehicle_type_id":"4","last_reported":1704111170,"current_range_meters":22000,"station_id":"ce4bgj92rcd13ifvqbe0","pricing_plan_id":"free"},{"bike_id":"52710c2c-e727-4072-b4b3-43bca13f4228","system_id":"levelo_inurba_marseille","lat":43.280784,"lon":5.396622,"is_reserved":false,"is_disabled":false,"rental_uris":{"android":"levelo://app?vid=52710c2c-e727-4072-b4b3-43bca13f4228","ios":"levelo://app?vid=52710c2c-e727-4072-b4b3-43bca13f4228"},"vehicle_type_id":"4","last_reported":1704111170,"current_range_meters":23200,"station_id":"ce4bho12rcd13ifvqh2g","pricing_plan_id":"free"},{"bike_id":"e1838f9f-299f-437d-abd8-4f286644fe17","system_id":"levelo_inurba_marseille","lat":43.280784,"lon":5.396622,"is_reserved":false,"is_disabled":false,"rental_uris":{"android":"levelo://app?vid=e1838f9f-299f-437d-abd8-4f286644fe17","ios":"levelo://app?vid=e1838f9f-299f-437d-abd8-4f286644fe17"},"vehicle_type_id":"4","last_reported":1704111170,"current_range_meters":26400,"station_id":"ce4bho12rcd13ifvqh2g","pricing_plan_id":"free"},{"bike_id":"3d32c085-ee83-47ce-925c-01b64e6beb31","system_id":"levelo_inurba_marseille","lat":43.280784,"lon":5.396622,"is_reserved":false,"is_disabled":false,"rental_uris":{"android":"levelo://app?vid=3d32c085-ee83-47ce-925c-01b64e6beb31","ios":"levelo://app?vid=3d32c085-ee83-47ce-925c-01b64e6beb31"},"vehicle_type_id":"4","last_reported":1704111170,"current_range_meters":2400,"station_id":"ce4bho12rcd13ifvqh2g","pricing_plan_id":"free"},{"bike_id":"be3ec271-7530-4ff6-b953-1818862c2710","system_id":"levelo_inurba_marseille","lat":43.303837,"lon":5.418724,"is_reserved":false,"is_disabled":false,"rental_uris":{"android":"levelo://app?vid=be3ec271-7530-4ff6-b953-1818862c2710","ios":"levelo://app?vid=be3ec271-7530-4ff6-b953-1818862c2710"},"vehicle_type_id":"4","last_reported":1704111170,"current_range_meters":29200,"station_id":"ce4bhop2rcd13ifvqh7g","pricing_plan_id":"free"},{"bike_id":"34daea28-8992-4678-a245-7adf6c2df2f0","system_id":"levelo_inurba_marseille","lat":43.278401,"lon":5.392152,"is_reserved":false,"is_disabled":false,"rental_uris":{"android":"levelo://app?vid=34daea28-8992-4678-a245-7adf6c2df2f0","ios":"levelo://app?vid=34daea28-8992-4678-a245-7adf6c2df2f0"},"vehicle_type_id":"4","last_reported":1704111170,"current_range_meters":27200,"station_id":"ce4bhjp2rcd13ifvqga0","pricing_plan_id":"free"},{"bike_id":"368ee7d7-ca1c-486e-8d04-99e33067d674","system_id":"levelo_inurba_marseille","lat":43.278399,"lon":5.392139,"is_reserved":false,"is_disabled":false,"rental_uris":{"android":"levelo://app?vid=368ee7d7-ca1c-486e-8d04-99e33067d674","ios":"levelo://app?vid=368ee7d7-ca1c-486e-8d04-99e33067d674"},"vehicle_type_id":"4","last_reported":1704111170,"current_range_meters":26000,"station_id":"ce4bhjp2rcd13ifvqga0","pricing_plan_id":"free"},{"bike_id":"4717b55e-7de6-48c5-9744-3b221756249e","system_id":"levelo_inurba_marseille","lat":43.273613,"lon":5.362705,"is_reserved":false,"is_disabled":false,"rental_uris":{"android":"levelo://app?vid=4717b55e-7de6-48c5-9744-3b221756249e","ios":"levelo://app?vid=4717b55e-7de6-48c5-9744-3b221756249e"},"vehicle_type_id":"4","last_reported":1704111170,"current_range_meters":24000,"station_id":"ce4bhbh2rcd13ifvqeo0","pricing_plan_id":"free"},{"bike_id":"85d6f171-1d30-4ed4-bea5-79afe59ea88c","system_id":"levelo_inurba_marseille","lat":43.273613,"lon":5.362705,"is_reserved":false,"is_disabled":false,"rental_uris":{"android":"levelo://app?vid=85d6f171-1d30-4ed4-bea5-79afe59ea88c","ios":"levelo://app?vid=85d6f171-1d30-4ed4-bea5-79afe59ea88c"},"vehicle_type_id":"4","last_reported":1704111170,"current_range_meters":19600,"station_id":"ce4bhbh2rcd13ifvqeo0","pricing_plan_id":"free"},{"bike_id":"44fea3e7-1f36-4452-9530-2d42c71f56e8","system_id":"levelo_inurba_marseille","lat":43.273609,"lon":5.362708,"is_reserved":false,"is_disabled":false,"rental_uris":{"android":"levelo://app?vid=44fea3e7-1f36-4452-9530-2d42c71f56e8","ios":"levelo://app?vid=44fea3e7-1f36-4452-9530-2d42c71f56e8"},"vehicle_type_id":"4","last_reported":1704111170,"current_range_meters":30800,"station_id":"ce4bhbh2rcd13ifvqeo0","pricing_plan_id":"free"},{"bike_id":"824ef797-2a4e-4785-bf6d-29e20bce20dc","system_id":"levelo_inurba_marseille","lat":43.273613,"lon":5.362705,"is_reserved":false,"is_disabled":false,"rental_uris":{"android":"levelo://app?vid=824ef797-2a4e-4785-bf6d-29e20bce20dc","ios":"levelo://app?vid=824ef797-2a4e-4785-bf6d-29e20bce20dc"},"vehicle_type_id":"4","last_reported":1704111170,"current_range_meters":31200,"station_id":"ce4bhbh2rcd13ifvqeo0","pricing_plan_id":"free"},{"bike_id":"6062380a-6af2-4bc6-9057-30fe66edd11a","system_id":"levelo_inurba_marseille","lat":43.275625,"lon":5.384392,"is_reserved":false,"is_disabled":false,"rental_uris":{"android":"levelo://app?vid=6062380a-6af2-4bc6-9057-30fe66edd11a","ios":"levelo://app?vid=6062380a-6af2-4bc6-9057-30fe66edd11a"},"vehicle_type_id":"4","last_reported":1704111170,"current_range_meters":24800,"station_id":"ce4bhh92rcd13ifvqfi0","pricing_plan_id":"free"},{"bike_id":"4d05d184-fbc7-459b-9155-c27fc2b76dab","system_id":"levelo_inurba_marseille","lat":43.340804,"lon":5.410219,"is_reserved":false,"is_disabled":false,"rental_uris":{"android":"levelo://app?vid=4d05d184-fbc7-459b-9155-c27fc2b76dab","ios":"levelo://app?vid=4d05d184-fbc7-459b-9155-c27fc2b76dab"},"vehicle_type_id":"4","last_reported":1704111170,"current_range_meters":24400,"station_id":"ce4bhqh2rcd13ifvqhlg","pricing_plan_id":"free"},{"bike_id":"8588751c-146b-43e8-9cef-4436cc04a621","system_id":"levelo_inurba_marseille","lat":43.275625,"lon":5.384392,"is_reserved":false,"is_disabled":false,"rental_uris":{"android":"levelo://app?vid=8588751c-146b-43e8-9cef-4436cc04a621","ios":"levelo://app?vid=8588751c-146b-43e8-9cef-4436cc04a621"},"vehicle_type_id":"4","last_reported":1704111170,"current_range_meters":27600,"station_id":"ce4bhh92rcd13ifvqfi0","pricing_plan_id":"free"},{"bike_id":"c1da2d7b-2fe7-40a6-b00c-a21222b0cf31","system_id":"levelo_inurba_marseille","lat":43.336134,"lon":5.410341,"is_reserved":false,"is_disabled":false,"rental_uris":{"android":"levelo://app?vid=c1da2d7b-2fe7-40a6-b00c-a21222b0cf31","ios":"levelo://app?vid=c1da2d7b-2fe7-40a6-b00c-a21222b0cf31"},"vehicle_type_id":"4","last_reported":1704111170,"current_range_meters":29600,"station_id":"ce4bhqh2rcd13ifvqhmg","pricing_plan_id":"free"},{"bike_id":"d28334e4-340b-403b-a4f9-6cf4990a38be","system_id":"levelo_inurba_marseille","lat":43.276771,"lon":5.388799,"is_reserved":false,"is_disabled":false,"rental_uris":{"android":"levelo://app?vid=d28334e4-340b-403b-a4f9-6cf4990a38be","ios":"levelo://app?vid=d28334e4-340b-403b-a4f9-6cf4990a38be"},"vehicle_type_id":"4","last_reported":1704111170,"current_range_meters":22800,"station_id":"ce4bhi12rcd13ifvqfo0","pricing_plan_id":"free"},{"bike_id":"838e390a-0d2f-44c2-87a4-d40aabcd8ccc","system_id":"levelo_inurba_marseille","lat":43.27671,"lon":5.389198,"is_reserved":false,"is_disabled":false,"rental_uris":{"android":"levelo://app?vid=838e390a-0d2f-44c2-87a4-d40aabcd8ccc","ios":"levelo://app?vid=838e390a-0d2f-44c2-87a4-d40aabcd8ccc"},"vehicle_type_id":"4","last_reported":1704111170,"current_range_meters":1200,"station_id":"","pricing_plan_id":"free"},{"bike_id":"695c0159-63c9-498b-b8b6-c06c7181baea","system_id":"levelo_inurba_marseille","lat":43.279087,"lon":5.380114,"is_reserved":false,"is_disabled":false,"rental_uris":{"android":"levelo://app?vid=695c0159-63c9-498b-b8b6-c06c7181baea","ios":"levelo://app?vid=695c0159-63c9-498b-b8b6-c06c7181baea"},"vehicle_type_id":"4","last_reported":1704111170,"current_range_meters":19600,"station_id":"ce4bhf92rcd13ifvqf50","pricing_plan_id":"free"},{"bike_id":"ad8ead7b-2150-462d-9ff1-f4303c6e32bd","system_id":"levelo_inurba_marseille","lat":43.279952,"lon":5.400085,"is_reserved":false,"is_disabled":false,"rental_uris":{"android":"levelo://app?vid=ad8ead7b-2150-462d-9ff1-f4303c6e32bd","ios":"levelo://app?vid=ad8ead7b-2150-462d-9ff1-f4303c6e32bd"},"vehicle_type_id":"4","last_reported":1704111170,"current_range_meters":25600,"station_id":"ce4bho92rcd13ifvqh4g","pricing_plan_id":"free"},{"bike_id":"6d8357cf-a4df-44f6-b181-945d6cbf9532","system_id":"levelo_inurba_marseille","lat":43.317121,"lon":5.423936,"is_reserved":false,"is_disabled":false,"rental_uris":{"android":"levelo://app?vid=6d8357cf-a4df-44f6-b181-945d6cbf9532","ios":"levelo://app?vid=6d8357cf-a4df-44f6-b181-945d6cbf9532"},"vehicle_type_id":"4","last_reported":1704111170,"current_range_meters":27200,"station_id":"ce4bhp92rcd13ifvqhbg","pricing_plan_id":"free"},{"bike_id":"16d24595-10c5-408c-9283-99caef16f39e","system_id":"levelo_inurba_marseille","lat":43.317121,"lon":5.423936,"is_reserved":false,"is_disabled":false,"rental_uris":{"android":"levelo://app?vid=16d24595-10c5-408c-9283-99caef16f39e","ios":"levelo://app?vid=16d24595-10c5-408c-9283-99caef16f39e"},"vehicle_type_id":"4","last_reported":1704111170,"current_range_meters":27200,"station_id":"ce4bhp92rcd13ifvqhbg","pricing_plan_id":"free"},{"bike_id":"926e2c6a-f6fc-4efb-862c-83f5befd1c16","system_id":"levelo_inurba_marseille","lat":43.29553,"lon":5.42276,"is_reserved":false,"is_disabled":false,"rental_uris":{"android":"levelo://app?vid=926e2c6a-f6fc-4efb-862c-83f5befd1c16","ios":"levelo://app?vid=926e2c6a-f6fc-4efb-862c-83f5befd1c16"},"vehicle_type_id":"4","last_reported":1704111170,"current_range_meters":30000,"station_id":"ce4bhph2rcd13ifvqhdg","pricing_plan_id":"free"},{"bike_id":"a6ae6745-cc2a-4641-91d5-cd1a5dfadc84","system_id":"levelo_inurba_marseille","lat":43.295511,"lon":5.422926,"is_reserved":false,"is_disabled":false,"rental_uris":{"android":"levelo://app?vid=a6ae6745-cc2a-4641-91d5-cd1a5dfadc84","ios":"levelo://app?vid=a6ae6745-cc2a-4641-91d5-cd1a5dfadc84"},"vehicle_type_id":"4","last_reported":1704111170,"current_range_meters":31200,"station_id":"ce4bhph2rcd13ifvqhdg","pricing_plan_id":"free"},{"bike_id":"306afd85-beb4-4f6c-b611-066e0436e9ba","system_id":"levelo_inurba_marseille","lat":43.29551,"lon":5.422843,"is_reserved":false,"is_disabled":false,"rental_uris":{"android":"levelo://app?vid=306afd85-beb4-4f6c-b611-066e0436e9ba","ios":"levelo://app?vid=306afd85-beb4-4f6c-b611-066e0436e9ba"},"vehicle_type_id":"4","last_reported":1704111170,"current_range_meters":30400,"station_id":"ce4bhph2rcd13ifvqhdg","pricing_plan_id":"free"},{"bike_id":"d548d66b-88c9-49f9-867c-e26df10c9510","system_id":"levelo_inurba_marseille","lat":43.29553,"lon":5.42286,"is_reserved":false,"is_disabled":false,"rental_uris":{"android":"levelo://app?vid=d548d66b-88c9-49f9-867c-e26df10c9510","ios":"levelo://app?vid=d548d66b-88c9-49f9-867c-e26df10c9510"},"vehicle_type_id":"4","last_reported":1704111170,"current_range_meters":28400,"station_id":"ce4bhph2rcd13ifvqhdg","pricing_plan_id":"free"},{"bike_id":"41f15171-621f-4954-97a7-d6a2b2f50acc","system_id":"levelo_inurba_marseille","lat":43.295523,"lon":5.422926,"is_reserved":false,"is_disabled":false,"rental_uris":{"android":"levelo://app?vid=41f15171-621f-4954-97a7-d6a2b2f50acc","ios":"levelo://app?vid=41f15171-621f-4954-97a7-d6a2b2f50acc"},"vehicle_type_id":"4","last_reported":1704111170,"current_range_meters":14800,"station_id":"ce4bhph2rcd13ifvqhdg","pricing_plan_id":"free"},{"bike_id":"4d76732f-7782-421c-8602-040de5e6efea","system_id":"levelo_inurba_marseille","lat":43.295511,"lon":5.422926,"is_reserved":false,"is_disabled":false,"rental_uris":{"android":"levelo://app?vid=4d76732f-7782-421c-8602-040de5e6efea","ios":"levelo://app?vid=4d76732f-7782-421c-8602-040de5e6efea"},"vehicle_type_id":"4","last_reported":1704111170,"current_range_meters":26400,"station_id":"ce4bhph2rcd13ifvqhdg","pricing_plan_id":"free"},{"bike_id":"49ed539d-a525-408e-a3e9-48585140e904","system_id":"levelo_inurba_marseille","lat":43.27809,"lon":5.40706,"is_reserved":false,"is_disabled":false,"rental_uris":{"android":"levelo://app?vid=49ed539d-a525-408e-a3e9-48585140e904","ios":"levelo://app?vid=49ed539d-a525-408e-a3e9-48585140e904"},"vehicle_type_id":"4","last_reported":1704111170,"current_range_meters":31200,"station_id":"ce4bhnh2rcd13ifvqgtg","pricing_plan_id":"free"},{"bike_id":"5a56cf51-2f32-419b-81fd-bc35c7d8ef9d","system_id":"levelo_inurba_marseille","lat":43.269467,"lon":5.386439,"is_reserved":false,"is_disabled":false,"rental_uris":{"android":"levelo://app?vid=5a56cf51-2f32-419b-81fd-bc35c7d8ef9d","ios":"levelo://app?vid=5a56cf51-2f32-419b-81fd-bc35c7d8ef9d"},"vehicle_type_id":"4","last_reported":1704111170,"current_range_meters":26800,"station_id":"ce4bhh92rcd13ifvqfh0","pricing_plan_id":"free"},{"bike_id":"0f431921-4dd9-4037-a211-457cf805d9f2","system_id":"levelo_inurba_marseille","lat":43.279465,"lon":5.410561,"is_reserved":false,"is_disabled":false,"rental_uris":{"android":"levelo://app?vid=0f431921-4dd9-4037-a211-457cf805d9f2","ios":"levelo://app?vid=0f431921-4dd9-4037-a211-457cf805d9f2"},"vehicle_type_id":"4","last_reported":1704111170,"current_range_meters":26000,"station_id":"ce4bhnp2rcd13ifvqh0g","pricing_plan_id":"free"},{"bike_id":"031d7772-c9eb-4e2a-956d-cd97fb947278","system_id":"levelo_inurba_marseille","lat":43.265714,"lon":5.372891,"is_reserved":false,"is_disabled":false,"rental_uris":{"android":"levelo://app?vid=031d7772-c9eb-4e2a-956d-cd97fb947278","ios":"levelo://app?vid=031d7772-c9eb-4e2a-956d-cd97fb947278"},"vehicle_type_id":"4","last_reported":1704111170,"current_range_meters":28800,"station_id":"ce4bhg12rcd13ifvqf70","pricing_plan_id":"free"},{"bike_id":"4e7b82a4-f271-4a72-bdbd-460d1cfbd58d","system_id":"levelo_inurba_marseille","lat":43.27181,"lon":5.404997,"is_reserved":false,"is_disabled":false,"rental_uris":{"android":"levelo://app?vid=4e7b82a4-f271-4a72-bdbd-460d1cfbd58d","ios":"levelo://app?vid=4e7b82a4-f271-4a72-bdbd-460d1cfbd58d"},"vehicle_type_id":"4","last_reported":1704111170,"current_range_meters":10800,"station_id":"","pricing_plan_id":"free"},{"bike_id":"353266c9-4dc1-46fc-83ab-945e5609db18","system_id":"levelo_inurba_marseille","lat":43.278128,"lon":5.407195,"is_reserved":false,"is_disabled":false,"rental_uris":{"android":"levelo://app?vid=353266c9-4dc1-46fc-83ab-945e5609db18","ios":"levelo://app?vid=353266c9-4dc1-46fc-83ab-945e5609db18"},"vehicle_type_id":"4","last_reported":1704111170,"current_range_meters":22000,"station_id":"ce4bhnh2rcd13ifvqgtg","pricing_plan_id":"free"},{"bike_id":"3ed4222d-3eb5-439b-8911-728f19db683e","system_id":"levelo_inurba_marseille","lat":43.308051,"lon":5.43527,"is_reserved":false,"is_disabled":false,"rental_uris":{"android":"levelo://app?vid=3ed4222d-3eb5-439b-8911-728f19db683e","ios":"levelo://app?vid=3ed4222d-3eb5-439b-8911-728f19db683e"},"vehicle_type_id":"4","last_reported":1704111170,"current_range_meters":26800,"station_id":"ce4bhph2rcd13ifvqheg","pricing_plan_id":"free"},{"bike_id":"9ac33b84-00e2-4b9d-9fa8-2e1ec3262473","system_id":"levelo_inurba_marseille","lat":43.265571,"lon":5.390032,"is_reserved":false,"is_disabled":false,"rental_uris":{"android":"levelo://app?vid=9ac33b84-00e2-4b9d-9fa8-2e1ec3262473","ios":"levelo://app?vid=9ac33b84-00e2-4b9d-9fa8-2e1ec3262473"},"vehicle_type_id":"4","last_reported":1704111170,"current_range_meters":29600,"station_id":"ce4bhe12rcd13ifvqf30","pricing_plan_id":"free"},{"bike_id":"5c61e93a-703d-4666-948a-839c6fe7737a","system_id":"levelo_inurba_marseille","lat":43.26949,"lon":5.40262,"is_reserved":false,"is_disabled":false,"rental_uris":{"android":"levelo://app?vid=5c61e93a-703d-4666-948a-839c6fe7737a","ios":"levelo://app?vid=5c61e93a-703d-4666-948a-839c6fe7737a"},"vehicle_type_id":"4","last_reported":1704111170,"current_range_meters":3200,"station_id":"cjm6bp8fraef2m0cb0m0","pricing_plan_id":"free"},{"bike_id":"dac5ea74-92f7-462e-b536-31f322bb01c0","system_id":"levelo_inurba_marseille","lat":43.331893,"lon":5.431791,"is_reserved":false,"is_disabled":false,"rental_uris":{"android":"levelo://app?vid=dac5ea74-92f7-462e-b536-31f322bb01c0","ios":"levelo://app?vid=dac5ea74-92f7-462e-b536-31f322bb01c0"},"vehicle_type_id":"4","last_reported":1704111170,"current_range_meters":7600,"station_id":"","pricing_plan_id":"free"},{"bike_id":"1462c9a7-3d14-4dd6-82f9-e9bb21b1f3dc","system_id":"levelo_inurba_marseille","lat":43.317104,"lon":5.436818,"is_reserved":false,"is_disabled":false,"rental_uris":{"android":"levelo://app?vid=1462c9a7-3d14-4dd6-82f9-e9bb21b1f3dc","ios":"levelo://app?vid=1462c9a7-3d14-4dd6-82f9-e9bb21b1f3dc"},"vehicle_type_id":"4","last_reported":1704111170,"current_range_meters":24000,"station_id":"ce4bhp92rcd13ifvqhcg","pricing_plan_id":"free"},{"bike_id":"4bbbd039-3087-47fa-b15e-65010d7e615b","system_id":"levelo_inurba_marseille","lat":43.261782,"lon":5.374515,"is_reserved":false,"is_disabled":false,"rental_uris":{"android":"levelo://app?vid=4bbbd039-3087-47fa-b15e-65010d7e615b","ios":"levelo://app?vid=4bbbd039-3087-47fa-b15e-65010d7e615b"},"vehicle_type_id":"4","last_reported":1704111170,"current_range_meters":27200,"station_id":"ce4bhgp2rcd13ifvqfc0","pricing_plan_id":"free"},{"bike_id":"8c7df74b-a509-49f1-af95-b0a69adf8f56","system_id":"levelo_inurba_marseille","lat":43.317104,"lon":5.436818,"is_reserved":false,"is_disabled":false,"rental_uris":{"android":"levelo://app?vid=8c7df74b-a509-49f1-af95-b0a69adf8f56","ios":"levelo://app?vid=8c7df74b-a509-49f1-af95-b0a69adf8f56"},"vehicle_type_id":"4","last_reported":1704111170,"current_range_meters":30400,"station_id":"ce4bhp92rcd13ifvqhcg","pricing_plan_id":"free"},{"bike_id":"09f009bd-9e78-4a83-b2bb-05fc1c2bb7eb","system_id":"levelo_inurba_marseille","lat":43.317104,"lon":5.436818,"is_reserved":false,"is_disabled":false,"rental_uris":{"android":"levelo://app?vid=09f009bd-9e78-4a83-b2bb-05fc1c2bb7eb","ios":"levelo://app?vid=09f009bd-9e78-4a83-b2bb-05fc1c2bb7eb"},"vehicle_type_id":"4","last_reported":1704111170,"current_range_meters":31200,"station_id":"ce4bhp92rcd13ifvqhcg","pricing_plan_id":"free"},{"bike_id":"24a8f553-12c1-4d7b-acf9-7cb382e5158b","system_id":"levelo_inurba_marseille","lat":43.26802,"lon":5.40265,"is_reserved":false,"is_disabled":false,"rental_uris":{"android":"levelo://app?vid=24a8f553-12c1-4d7b-acf9-7cb382e5158b","ios":"levelo://app?vid=24a8f553-12c1-4d7b-acf9-7cb382e5158b"},"vehicle_type_id":"4","last_reported":1704111170,"current_range_meters":26400,"station_id":"ce501612rcd8frsf0b60","pricing_plan_id":"free"},{"bike_id":"f5032094-5583-4fd1-bb41-231f39fc3875","system_id":"levelo_inurba_marseille","lat":43.2651,"lon":5.39469,"is_reserved":false,"is_disabled":false,"rental_uris":{"android":"levelo://app?vid=f5032094-5583-4fd1-bb41-231f39fc3875","ios":"levelo://app?vid=f5032094-5583-4fd1-bb41-231f39fc3875"},"vehicle_type_id":"4","last_reported":1704111170,"current_range_meters":24000,"station_id":"ce4bhi12rcd13ifvqfq0","pricing_plan_id":"free"},{"bike_id":"f359195f-f069-42a0-b818-68741f0dae01","system_id":"levelo_inurba_marseille","lat":43.298768,"lon":5.43643,"is_reserved":false,"is_disabled":false,"rental_uris":{"android":"levelo://app?vid=f359195f-f069-42a0-b818-68741f0dae01","ios":"levelo://app?vid=f359195f-f069-42a0-b818-68741f0dae01"},"vehicle_type_id":"4","last_reported":1704111170,"current_range_meters":30000,"station_id":"ce4bhpp2rcd13ifvqhfg","pricing_plan_id":"free"},{"bike_id":"2aef17d2-5e1a-42db-a1a2-eebc4e3d678f","system_id":"levelo_inurba_marseille","lat":43.298768,"lon":5.43643,"is_reserved":false,"is_disabled":false,"rental_uris":{"android":"levelo://app?vid=2aef17d2-5e1a-42db-a1a2-eebc4e3d678f","ios":"levelo://app?vid=2aef17d2-5e1a-42db-a1a2-eebc4e3d678f"},"vehicle_type_id":"4","last_reported":1704111170,"current_range_meters":9600,"station_id":"ce4bhpp2rcd13ifvqhfg","pricing_plan_id":"free"},{"bike_id":"ec17f12b-76f2-4e38-bdf0-2f3dcd905333","system_id":"levelo_inurba_marseille","lat":43.298768,"lon":5.43643,"is_reserved":false,"is_disabled":false,"rental_uris":{"android":"levelo://app?vid=ec17f12b-76f2-4e38-bdf0-2f3dcd905333","ios":"levelo://app?vid=ec17f12b-76f2-4e38-bdf0-2f3dcd905333"},"vehicle_type_id":"4","last_reported":1704111170,"current_range_meters":28400,"station_id":"ce4bhpp2rcd13ifvqhfg","pricing_plan_id":"free"},{"bike_id":"dda21801-10b9-40bf-a4ac-2f0969f2cfef","system_id":"levelo_inurba_marseille","lat":43.26024,"lon":5.37554,"is_reserved":false,"is_disabled":false,"rental_uris":{"android":"levelo://app?vid=dda21801-10b9-40bf-a4ac-2f0969f2cfef","ios":"levelo://app?vid=dda21801-10b9-40bf-a4ac-2f0969f2cfef"},"vehicle_type_id":"4","last_reported":1704111170,"current_range_meters":16000,"station_id":"ce4bhgh2rcd13ifvqfa0","pricing_plan_id":"free"},{"bike_id":"51b307ad-3e03-4c88-8cbb-3669bbc8a1ad","system_id":"levelo_inurba_marseille","lat":43.281548,"lon":5.42643,"is_reserved":false,"is_disabled":false,"rental_uris":{"android":"levelo://app?vid=51b307ad-3e03-4c88-8cbb-3669bbc8a1ad","ios":"levelo://app?vid=51b307ad-3e03-4c88-8cbb-3669bbc8a1ad"},"vehicle_type_id":"4","last_reported":1704111170,"current_range_meters":31600,"station_id":"ce4bhnh2rcd13ifvqgug","pricing_plan_id":"free"},{"bike_id":"e32e8b2f-227a-41f1-a651-f92b4e26dae8","system_id":"levelo_inurba_marseille","lat":43.281548,"lon":5.42643,"is_reserved":false,"is_disabled":false,"rental_uris":{"android":"levelo://app?vid=e32e8b2f-227a-41f1-a651-f92b4e26dae8","ios":"levelo://app?vid=e32e8b2f-227a-41f1-a651-f92b4e26dae8"},"vehicle_type_id":"4","last_reported":1704111170,"current_range_meters":400,"station_id":"ce4bhnh2rcd13ifvqgug","pricing_plan_id":"free"},{"bike_id":"5a04ea17-eb41-4e08-b828-ac0858829f65","system_id":"levelo_inurba_marseille","lat":43.281548,"lon":5.42643,"is_reserved":false,"is_disabled":false,"rental_uris":{"android":"levelo://app?vid=5a04ea17-eb41-4e08-b828-ac0858829f65","ios":"levelo://app?vid=5a04ea17-eb41-4e08-b828-ac0858829f65"},"vehicle_type_id":"4","last_reported":1704111170,"current_range_meters":19200,"station_id":"ce4bhnh2rcd13ifvqgug","pricing_plan_id":"free"},{"bike_id":"239866bf-d593-439b-8f00-008a123dffd7","system_id":"levelo_inurba_marseille","lat":43.281548,"lon":5.42643,"is_reserved":false,"is_disabled":false,"rental_uris":{"android":"levelo://app?vid=239866bf-d593-439b-8f00-008a123dffd7","ios":"levelo://app?vid=239866bf-d593-439b-8f00-008a123dffd7"},"vehicle_type_id":"4","last_reported":1704111170,"current_range_meters":31600,"station_id":"ce4bhnh2rcd13ifvqgug","pricing_plan_id":"free"},{"bike_id":"20f457aa-21b0-4254-bd2f-8b6f31ce302e","system_id":"levelo_inurba_marseille","lat":43.281548,"lon":5.42643,"is_reserved":false,"is_disabled":false,"rental_uris":{"android":"levelo://app?vid=20f457aa-21b0-4254-bd2f-8b6f31ce302e","ios":"levelo://app?vid=20f457aa-21b0-4254-bd2f-8b6f31ce302e"},"vehicle_type_id":"4","last_reported":1704111170,"current_range_meters":31200,"station_id":"ce4bhnh2rcd13ifvqgug","pricing_plan_id":"free"},{"bike_id":"dd2ae354-b374-4e9f-a915-275627cc27df","system_id":"levelo_inurba_marseille","lat":43.281548,"lon":5.42643,"is_reserved":false,"is_disabled":false,"rental_uris":{"android":"levelo://app?vid=dd2ae354-b374-4e9f-a915-275627cc27df","ios":"levelo://app?vid=dd2ae354-b374-4e9f-a915-275627cc27df"},"vehicle_type_id":"4","last_reported":1704111170,"current_range_meters":27200,"station_id":"ce4bhnh2rcd13ifvqgug","pricing_plan_id":"free"},{"bike_id":"cbacfc50-ef99-4401-a564-38d281228e5a","system_id":"levelo_inurba_marseille","lat":43.2607,"lon":5.393983,"is_reserved":false,"is_disabled":false,"rental_uris":{"android":"levelo://app?vid=cbacfc50-ef99-4401-a564-38d281228e5a","ios":"levelo://app?vid=cbacfc50-ef99-4401-a564-38d281228e5a"},"vehicle_type_id":"4","last_reported":1704111170,"current_range_meters":31200,"station_id":"ce4bhh92rcd13ifvqfj0","pricing_plan_id":"free"},{"bike_id":"a06ec287-2a56-41b0-9658-83b9e37bbbe8","system_id":"levelo_inurba_marseille","lat":43.275028,"lon":5.424534,"is_reserved":false,"is_disabled":false,"rental_uris":{"android":"levelo://app?vid=a06ec287-2a56-41b0-9658-83b9e37bbbe8","ios":"levelo://app?vid=a06ec287-2a56-41b0-9658-83b9e37bbbe8"},"vehicle_type_id":"4","last_reported":1704111170,"current_range_meters":31200,"station_id":"ce4bhn92rcd13ifvqgrg","pricing_plan_id":"free"},{"bike_id":"40746230-382b-4393-8e4d-68729ea53248","system_id":"levelo_inurba_marseille","lat":43.275028,"lon":5.424534,"is_reserved":false,"is_disabled":false,"rental_uris":{"android":"levelo://app?vid=40746230-382b-4393-8e4d-68729ea53248","ios":"levelo://app?vid=40746230-382b-4393-8e4d-68729ea53248"},"vehicle_type_id":"4","last_reported":1704111170,"current_range_meters":22400,"station_id":"ce4bhn92rcd13ifvqgrg","pricing_plan_id":"free"},{"bike_id":"9179f49f-3670-4ecd-bc3e-4f831f422d67","system_id":"levelo_inurba_marseille","lat":43.27495,"lon":5.42458,"is_reserved":false,"is_disabled":false,"rental_uris":{"android":"levelo://app?vid=9179f49f-3670-4ecd-bc3e-4f831f422d67","ios":"levelo://app?vid=9179f49f-3670-4ecd-bc3e-4f831f422d67"},"vehicle_type_id":"4","last_reported":1704111170,"current_range_meters":3600,"station_id":"ce4bhn92rcd13ifvqgrg","pricing_plan_id":"free"},{"bike_id":"bda89174-3cab-44c1-874d-f33cf9bd1902","system_id":"levelo_inurba_marseille","lat":43.275028,"lon":5.424534,"is_reserved":false,"is_disabled":false,"rental_uris":{"android":"levelo://app?vid=bda89174-3cab-44c1-874d-f33cf9bd1902","ios":"levelo://app?vid=bda89174-3cab-44c1-874d-f33cf9bd1902"},"vehicle_type_id":"4","last_reported":1704111170,"current_range_meters":17600,"station_id":"ce4bhn92rcd13ifvqgrg","pricing_plan_id":"free"},{"bike_id":"c3b597f8-0e69-4c23-be26-e5b458587bee","system_id":"levelo_inurba_marseille","lat":43.27492,"lon":5.42476,"is_reserved":false,"is_disabled":false,"rental_uris":{"android":"levelo://app?vid=c3b597f8-0e69-4c23-be26-e5b458587bee","ios":"levelo://app?vid=c3b597f8-0e69-4c23-be26-e5b458587bee"},"vehicle_type_id":"4","last_reported":1704111170,"current_range_meters":30800,"station_id":"ce4bhn92rcd13ifvqgrg","pricing_plan_id":"free"},{"bike_id":"706d616b-ffc4-4dc4-aa8b-904d40551f60","system_id":"levelo_inurba_marseille","lat":43.258224,"lon":5.394369,"is_reserved":false,"is_disabled":false,"rental_uris":{"android":"levelo://app?vid=706d616b-ffc4-4dc4-aa8b-904d40551f60","ios":"levelo://app?vid=706d616b-ffc4-4dc4-aa8b-904d40551f60"},"vehicle_type_id":"4","last_reported":1704111170,"current_range_meters":29200,"station_id":"ce4bhip2rcd13ifvqft0","pricing_plan_id":"free"},{"bike_id":"9f9fc9e3-003f-466b-b0b0-9f277700d7a9","system_id":"levelo_inurba_marseille","lat":43.254945,"lon":5.376454,"is_reserved":false,"is_disabled":false,"rental_uris":{"android":"levelo://app?vid=9f9fc9e3-003f-466b-b0b0-9f277700d7a9","ios":"levelo://app?vid=9f9fc9e3-003f-466b-b0b0-9f277700d7a9"},"vehicle_type_id":"4","last_reported":1704111170,"current_range_meters":31200,"station_id":"ce4bhh12rcd13ifvqff0","pricing_plan_id":"free"},{"bike_id":"a3e8c01b-d6c1-4bf2-b91a-0855381df5c2","system_id":"levelo_inurba_marseille","lat":43.254947,"lon":5.376454,"is_reserved":false,"is_disabled":false,"rental_uris":{"android":"levelo://app?vid=a3e8c01b-d6c1-4bf2-b91a-0855381df5c2","ios":"levelo://app?vid=a3e8c01b-d6c1-4bf2-b91a-0855381df5c2"},"vehicle_type_id":"4","last_reported":1704111170,"current_range_meters":30400,"station_id":"ce4bhh12rcd13ifvqff0","pricing_plan_id":"free"},{"bike_id":"27fa6420-090a-43d7-9c49-eb8ea7c474aa","system_id":"levelo_inurba_marseille","lat":43.254947,"lon":5.376454,"is_reserved":false,"is_disabled":false,"rental_uris":{"android":"levelo://app?vid=27fa6420-090a-43d7-9c49-eb8ea7c474aa","ios":"levelo://app?vid=27fa6420-090a-43d7-9c49-eb8ea7c474aa"},"vehicle_type_id":"4","last_reported":1704111170,"current_range_meters":24800,"station_id":"ce4bhh12rcd13ifvqff0","pricing_plan_id":"free"},{"bike_id":"4bbf704a-b8c4-4e3a-80fa-a0fbb9a3e98e","system_id":"levelo_inurba_marseille","lat":43.254947,"lon":5.376454,"is_reserved":false,"is_disabled":false,"rental_uris":{"android":"levelo://app?vid=4bbf704a-b8c4-4e3a-80fa-a0fbb9a3e98e","ios":"levelo://app?vid=4bbf704a-b8c4-4e3a-80fa-a0fbb9a3e98e"},"vehicle_type_id":"4","last_reported":1704111170,"current_range_meters":28800,"station_id":"ce4bhh12rcd13ifvqff0","pricing_plan_id":"free"},{"bike_id":"5788762e-9472-46a7-8231-ae83009faa18","system_id":"levelo_inurba_marseille","lat":43.270721,"lon":5.422764,"is_reserved":false,"is_disabled":false,"rental_uris":{"android":"levelo://app?vid=5788762e-9472-46a7-8231-ae83009faa18","ios":"levelo://app?vid=5788762e-9472-46a7-8231-ae83009faa18"},"vehicle_type_id":"4","last_reported":1704111170,"current_range_meters":31600,"station_id":"ce4bhk92rcd13ifvqgb0","pricing_plan_id":"free"},{"bike_id":"597c3e50-ede6-4e86-b038-61fe611b12c7","system_id":"levelo_inurba_marseille","lat":43.270721,"lon":5.422764,"is_reserved":false,"is_disabled":false,"rental_uris":{"android":"levelo://app?vid=597c3e50-ede6-4e86-b038-61fe611b12c7","ios":"levelo://app?vid=597c3e50-ede6-4e86-b038-61fe611b12c7"},"vehicle_type_id":"4","last_reported":1704111170,"current_range_meters":28800,"station_id":"ce4bhk92rcd13ifvqgb0","pricing_plan_id":"free"},{"bike_id":"490aff17-67d0-4e9d-b330-a788b54cebad","system_id":"levelo_inurba_marseille","lat":43.258658,"lon":5.398935,"is_reserved":false,"is_disabled":false,"rental_uris":{"android":"levelo://app?vid=490aff17-67d0-4e9d-b330-a788b54cebad","ios":"levelo://app?vid=490aff17-67d0-4e9d-b330-a788b54cebad"},"vehicle_type_id":"4","last_reported":1704111170,"current_range_meters":28000,"station_id":"ce4bhl92rcd13ifvqghg","pricing_plan_id":"free"},