{"last_updated":1680192548,"ttl":30,"version":"2.2","data":{"bikes":[{"bike_id":"2883880b-ea3d-46ed-bf65-a2ae61a89013","system_id":"levelo_inurba_marseille","lat":43.31221,"lon":5.36858,"is_reserved":false,"is_disabled":false,"rental_uris":{"android":"levelo://app?vid=2883880b-ea3d-46ed-bf65-a2ae61a89013","ios":"levelo://app?vid=2883880b-ea3d-46ed-bf65-a2ae61a89013"},"vehicle_type_id":"4","last_reported":1680192549,"current_range_meters":17600,"station_id":"ce4bgl92rcd13ifvqbq0","pricing_plan_id":"free"},{"bike_id":"29f2a451-8a62-44a1-bf0f-2a61fc873472","system_id":"levelo_inurba_marseille","lat":43.314811,"lon":5.373103,"is_reserved":false,"is_disabled":false,"rental_uris":{"android":"levelo://app?vid=29f2a451-8a62-44a1-bf0f-2a61fc873472","ios":"levelo://app?vid=29f2a451-8a62-44a1-bf0f-2a61fc873472"},"vehicle_type_id":"4","last_reported":1680192549,"current_range_meters":2800,"station_id":"ce4bgt12rcd13ifvqcd0","pricing_plan_id":"free"},{"bike_id":"60650b41-1bd5-4e04-a37f-a54e93aaa525","system_id":"levelo_inurba_marseille","lat":43.314811,"lon":5.373104,"is_reserved":false,"is_disabled":false,"rental_uris":{"android":"levelo://app?vid=60650b41-1bd5-4e04-a37f-a54e93aaa525","ios":"levelo://app?vid=60650b41-1bd5-4e04-a37f-a54e93aaa525"},"vehicle_type_id":"4","last_reported":1680192549,"current_range_meters":0,"station_id":"ce4bgt12rcd13ifvqcd0","pricing_plan_id":"free"},{"bike_id":"f087595a-0b37-41c2-b193-0e3206786b8c","system_id":"levelo_inurba_marseille","lat":43.305989,"lon":5.37225,"is_reserved":false,"is_disabled":false,"rental_uris":{"android":"levelo://app?vid=f087595a-0b37-41c2-b193-0e3206786b8c","ios":"levelo://app?vid=f087595a-0b37-41c2-b193-0e3206786b8c"},"vehicle_type_id":"4","last_reported":1680192549,"current_range_meters":2400,"station_id":"ce4bgqh2rcd13ifvqc4g","pricing_plan_id":"free"},{"bike_id":"78708cac-3f2c-4f4e-8577-3c1ba7dbe05f","system_id":"levelo_inurba_marseille","lat":43.32123,"lon":5.36776,"is_reserved":false,"is_disabled":false,"rental_uris":{"android":"levelo://app?vid=78708cac-3f2c-4f4e-8577-3c1ba7dbe05f","ios":"levelo://app?vid=78708cac-3f2c-4f4e-8577-3c1ba7dbe05f"},"vehicle_type_id":"4","last_reported":1680192549,"current_range_meters":10800,"station_id":"","pricing_plan_id":"free"},{"bike_id":"84e62c1a-2460-4451-83c8-5c42c44d2f35","system_id":"levelo_inurba_marseille","lat":43.31353,"lon":5.38262,"is_reserved":false,"is_disabled":false,"rental_uris":{"android":"levelo://app?vid=84e62c1a-2460-4451-83c8-5c42c44d2f35","ios":"levelo://app?vid=84e62c1a-2460-4451-83c8-5c42c44d2f35"},"vehicle_type_id":"4","last_reported":1680192549,"current_range_meters":18800,"station_id":"","pricing_plan_id":"free"},{"bike_id":"fa4de76a-2f53-4a3a-8d83-6587c719d78a","system_id":"levelo_inurba_marseille","lat":43.30806,"lon":5.38139,"is_reserved":false,"is_disabled":false,"rental_uris":{"android":"levelo://app?vid=fa4de76a-2f53-4a3a-8d83-6587c719d78a","ios":"levelo://app?vid=fa4de76a-2f53-4a3a-8d83-6587c719d78a"},"vehicle_type_id":"4","last_reported":1680192549,"current_range_meters":30400,"station_id":"ce4bgt12rcd13ifvqce0","pricing_plan_id":"free"},{"bike_id":"45b147fa-d56b-47ed-ba66-99d0d2fa1599","system_id":"levelo_inurba_marseille","lat":43.31367,"lon":5.38325,"is_reserved":false,"is_disabled":false,"rental_uris":{"android":"levelo://app?vid=45b147fa-d56b-47ed-ba66-99d0d2fa1599","ios":"levelo://app?vid=45b147fa-d56b-47ed-ba66-99d0d2fa1599"},"vehicle_type_id":"4","last_reported":1680192549,"current_range_meters":24400,"station_id":"","pricing_plan_id":"free"},{"bike_id":"070840b1-619a-42f1-a8d1-aad71ae7acb5","system_id":"levelo_inurba_marseille","lat":43.299094,"lon":5.365415,"is_reserved":false,"is_disabled":false,"rental_uris":{"android":"levelo://app?vid=070840b1-619a-42f1-a8d1-aad71ae7acb5","ios":"levelo://app?vid=070840b1-619a-42f1-a8d1-aad71ae7acb5"},"vehicle_type_id":"4","last_reported":1680192549,"current_range_meters":8000,"station_id":"ce4bgm92rcd13ifvqbr0","pricing_plan_id":"free"},{"bike_id":"c1acbd9b-5c1d-4a2a-a1c3-cc6477231e70","system_id":"levelo_inurba_marseille","lat":43.304606,"lon":5.379026,"is_reserved":false,"is_disabled":false,"rental_uris":{"android":"levelo://app?vid=c1acbd9b-5c1d-4a2a-a1c3-cc6477231e70","ios":"levelo://app?vid=c1acbd9b-5c1d-4a2a-a1c3-cc6477231e70"},"vehicle_type_id":"4","last_reported":1680192549,"current_range_meters":15600,"station_id":"ce4bgup2rcd13ifvqcn0","pricing_plan_id":"free"},{"bike_id":"3fe37b45-9d2d-4481-8638-4f60ec93bba6","system_id":"levelo_inurba_marseille","lat":43.30077,"lon":5.36506,"is_reserved":false,"is_disabled":false,"rental_uris":{"android":"levelo://app?vid=3fe37b45-9d2d-4481-8638-4f60ec93bba6","ios":"levelo://app?vid=3fe37b45-9d2d-4481-8638-4f60ec93bba6"},"vehicle_type_id":"4","last_reported":1680192549,"current_range_meters":15200,"station_id":"","pricing_plan_id":"free"},{"bike_id":"5a759364-92c7-4c3b-9356-9cbebbaac85f","system_id":"levelo_inurba_marseille","lat":43.30143,"lon":5.37413,"is_reserved":false,"is_disabled":false,"rental_uris":{"android":"levelo://app?vid=5a759364-92c7-4c3b-9356-9cbebbaac85f","ios":"levelo://app?vid=5a759364-92c7-4c3b-9356-9cbebbaac85f"},"vehicle_type_id":"4","last_reported":1680192549,"current_range_meters":13200,"station_id":"ce4bgs92rcd13ifvqcc0","pricing_plan_id":"free"},{"bike_id":"813465e8-446f-43dd-9081-04c1313a2495","system_id":"levelo_inurba_marseille","lat":43.31368,"lon":5.38496,"is_reserved":false,"is_disabled":false,"rental_uris":{"android":"levelo://app?vid=813465e8-446f-43dd-9081-04c1313a2495","ios":"levelo://app?vid=813465e8-446f-43dd-9081-04c1313a2495"},"vehicle_type_id":"4","last_reported":1680192549,"current_range_meters":5200,"station_id":"ce4bgt92rcd13ifvqcf0","pricing_plan_id":"free"},{"bike_id":"f8e20c65-4e8c-4bb6-81c8-bb497daa0a02","system_id":"levelo_inurba_marseille","lat":43.298433,"lon":5.362774,"is_reserved":false,"is_disabled":false,"rental_uris":{"android":"levelo://app?vid=f8e20c65-4e8c-4bb6-81c8-bb497daa0a02","ios":"levelo://app?vid=f8e20c65-4e8c-4bb6-81c8-bb497daa0a02"},"vehicle_type_id":"4","last_reported":1680192549,"current_range_meters":31200,"station_id":"ce4bgpp2rcd13ifvqc3g","pricing_plan_id":"free"},{"bike_id":"7486644b-cfbe-4da4-a8a7-94c6541002c4","system_id":"levelo_inurba_marseille","lat":43.298433,"lon":5.362774,"is_reserved":false,"is_disabled":false,"rental_uris":{"android":"levelo://app?vid=7486644b-cfbe-4da4-a8a7-94c6541002c4","ios":"levelo://app?vid=7486644b-cfbe-4da4-a8a7-94c6541002c4"},"vehicle_type_id":"4","last_reported":1680192549,"current_range_meters":0,"station_id":"ce4bgpp2rcd13ifvqc3g","pricing_plan_id":"free"},{"bike_id":"5da60541-dc7a-47f5-a6dc-65244a5f6f65","system_id":"levelo_inurba_marseille","lat":43.311722,"lon":5.387247,"is_reserved":false,"is_disabled":false,"rental_uris":{"android":"levelo://app?vid=5da60541-dc7a-47f5-a6dc-65244a5f6f65","ios":"levelo://app?vid=5da60541-dc7a-47f5-a6dc-65244a5f6f65"},"vehicle_type_id":"4","last_reported":1680192549,"current_range_meters":0,"station_id":"ce4bgv12rcd13ifvqcp0","pricing_plan_id":"free"},{"bike_id":"44b8936a-3870-4fe0-a00b-64b8092585ad","system_id":"levelo_inurba_marseille","lat":43.311722,"lon":5.387247,"is_reserved":false,"is_disabled":false,"rental_uris":{"android":"levelo://app?vid=44b8936a-3870-4fe0-a00b-64b8092585ad","ios":"levelo://app?vid=44b8936a-3870-4fe0-a00b-64b8092585ad"},"vehicle_type_id":"4","last_reported":1680192549,"current_range_meters":0,"station_id":"ce4bgv12rcd13ifvqcp0","pricing_plan_id":"free"},{"bike_id":"26c659d8-6fd6-4ab3-8407-0f3fd247c564","system_id":"levelo_inurba_marseille","lat":43.297774,"lon":5.370875,"is_reserved":false,"is_disabled":false,"rental_uris":{"android":"levelo://app?vid=26c659d8-6fd6-4ab3-8407-0f3fd247c564","ios":"levelo://app?vid=26c659d8-6fd6-4ab3-8407-0f3fd247c564"},"vehicle_type_id":"4","last_reported":1680192549,"current_range_meters":0,"station_id":"ce4bgop2rcd13ifvqc1g","pricing_plan_id":"free"},{"bike_id":"c162b089-0679-49df-846b-2c600d6d1b80","system_id":"levelo_inurba_marseille","lat":43.328371,"lon":5.366912,"is_reserved":false,"is_disabled":false,"rental_uris":{"android":"levelo://app?vid=c162b089-0679-49df-846b-2c600d6d1b80","ios":"levelo://app?vid=c162b089-0679-49df-846b-2c600d6d1b80"},"vehicle_type_id":"4","last_reported":1680192549,"current_range_meters":1600,"station_id":"ce4bhs92rcd13ifvqi0g","pricing_plan_id":"free"},{"bike_id":"be569c02-bbf1-4edc-a13e-2442e6afdac4","system_id":"levelo_inurba_marseille","lat":43.328371,"lon":5.366912,"is_reserved":false,"is_disabled":false,"rental_uris":{"android":"levelo://app?vid=be569c02-bbf1-4edc-a13e-2442e6afdac4","ios":"levelo://app?vid=be569c02-bbf1-4edc-a13e-2442e6afdac4"},"vehicle_type_id":"4","last_reported":1680192549,"current_range_meters":22800,"station_id":"ce4bhs92rcd13ifvqi0g","pricing_plan_id":"free"},{"bike_id":"bb5edb5b-f87e-4ee4-bb75-414225b8a52a","system_id":"levelo_inurba_marseille","lat":43.31761,"lon":5.39015,"is_reserved":false,"is_disabled":false,"rental_uris":{"android":"levelo://app?vid=bb5edb5b-f87e-4ee4-bb75-414225b8a52a","ios":"levelo://app?vid=bb5edb5b-f87e-4ee4-bb75-414225b8a52a"},"vehicle_type_id":"4","last_reported":1680192549,"current_range_meters":13200,"station_id":"ce4bhqp2rcd13ifvqhng","pricing_plan_id":"free"},{"bike_id":"afed16a3-79e3-421a-88aa-39cde604d2ca","system_id":"levelo_inurba_marseille","lat":43.31761,"lon":5.39017,"is_reserved":false,"is_disabled":false,"rental_uris":{"android":"levelo://app?vid=afed16a3-79e3-421a-88aa-39cde604d2ca","ios":"levelo://app?vid=afed16a3-79e3-421a-88aa-39cde604d2ca"},"vehicle_type_id":"4","last_reported":1680192549,"current_range_meters":8800,"station_id":"ce4bhqp2rcd13ifvqhng","pricing_plan_id":"free"},{"bike_id":"a0b6b3fe-c3ac-4ea4-9e89-68fda6a0d88d","system_id":"levelo_inurba_marseille","lat":43.32351,"lon":5.38661,"is_reserved":false,"is_disabled":false,"rental_uris":{"android":"levelo://app?vid=a0b6b3fe-c3ac-4ea4-9e89-68fda6a0d88d","ios":"levelo://app?vid=a0b6b3fe-c3ac-4ea4-9e89-68fda6a0d88d"},"vehicle_type_id":"4","last_reported":1680192549,"current_range_meters":23200,"station_id":"","pricing_plan_id":"free"},{"bike_id":"3c5a1583-fd12-481e-8b57-6c1495206fac","system_id":"levelo_inurba_marseille","lat":43.29575,"lon":5.3752,"is_reserved":false,"is_disabled":false,"rental_uris":{"android":"levelo://app?vid=3c5a1583-fd12-481e-8b57-6c1495206fac","ios":"levelo://app?vid=3c5a1583-fd12-481e-8b57-6c1495206fac"},"vehicle_type_id":"4","last_reported":1680192549,"current_range_meters":13200,"station_id":"ce4bgh92rcd13ifvqb50","pricing_plan_id":"free"},{"bike_id":"f773ae5a-e60a-432a-a5a9-62b7c00e1874","system_id":"levelo_inurba_marseille","lat":43.30024,"lon":5.38851,"is_reserved":false,"is_disabled":false,"rental_uris":{"android":"levelo://app?vid=f773ae5a-e60a-432a-a5a9-62b7c00e1874","ios":"levelo://app?vid=f773ae5a-e60a-432a-a5a9-62b7c00e1874"},"vehicle_type_id":"4","last_reported":1680192549,"current_range_meters":0,"station_id":"","pricing_plan_id":"free"},{"bike_id":"541db5a0-8107-4158-a6ad-d38c085f5bbd","system_id":"levelo_inurba_marseille","lat":43.293009,"lon":5.374584,"is_reserved":false,"is_disabled":false,"rental_uris":{"android":"levelo://app?vid=541db5a0-8107-4158-a6ad-d38c085f5bbd","ios":"levelo://app?vid=541db5a0-8107-4158-a6ad-d38c085f5bbd"},"vehicle_type_id":"4","last_reported":1680192549,"current_range_meters":13600,"station_id":"ce4bgi12rcd13ifvqb70","pricing_plan_id":"free"},{"bike_id":"47a9afba-c983-48c8-a453-0f1a7d89f589","system_id":"levelo_inurba_marseille","lat":43.305994,"lon":5.393687,"is_reserved":false,"is_disabled":false,"rental_uris":{"android":"levelo://app?vid=47a9afba-c983-48c8-a453-0f1a7d89f589","ios":"levelo://app?vid=47a9afba-c983-48c8-a453-0f1a7d89f589"},"vehicle_type_id":"4","last_reported":1680192549,"current_range_meters":0,"station_id":"ce4bh0p2rcd13ifvqd80","pricing_plan_id":"free"},{"bike_id":"7ea941a7-c114-42a1-97ef-30429495358d","system_id":"levelo_inurba_marseille","lat":43.305994,"lon":5.393687,"is_reserved":false,"is_disabled":false,"rental_uris":{"android":"levelo://app?vid=7ea941a7-c114-42a1-97ef-30429495358d","ios":"levelo://app?vid=7ea941a7-c114-42a1-97ef-30429495358d"},"vehicle_type_id":"4","last_reported":1680192549,"current_range_meters":0,"station_id":"ce4bh0p2rcd13ifvqd80","pricing_plan_id":"free"},{"bike_id":"19ca75c3-c624-455b-9448-e8dc390c6aee","system_id":"levelo_inurba_marseille","lat":43.305994,"lon":5.393687,"is_reserved":false,"is_disabled":false,"rental_uris":{"android":"levelo://app?vid=19ca75c3-c624-455b-9448-e8dc390c6aee","ios":"levelo://app?vid=19ca75c3-c624-455b-9448-e8dc390c6aee"},"vehicle_type_id":"4","last_reported":1680192549,"current_range_meters":0,"station_id":"ce4bh0p2rcd13ifvqd80","pricing_plan_id":"free"},{"bike_id":"7041cb78-02e4-4e2d-8b19-00f9721070f3","system_id":"levelo_inurba_marseille","lat":43.298764,"lon":5.388973,"is_reserved":false,"is_disabled":false,"rental_uris":{"android":"levelo://app?vid=7041cb78-02e4-4e2d-8b19-00f9721070f3","ios":"levelo://app?vid=7041cb78-02e4-4e2d-8b19-00f9721070f3"},"vehicle_type_id":"4","last_reported":1680192549,"current_range_meters":0,"station_id":"ce4bh392rcd13ifvqdl0","pricing_plan_id":"free"},{"bike_id":"4215bb44-10b5-4b54-92d9-cf5d77b6fef4","system_id":"levelo_inurba_marseille","lat":43.2936,"lon":5.37835,"is_reserved":false,"is_disabled":false,"rental_uris":{"android":"levelo://app?vid=4215bb44-10b5-4b54-92d9-cf5d77b6fef4","ios":"levelo://app?vid=4215bb44-10b5-4b54-92d9-cf5d77b6fef4"},"vehicle_type_id":"4","last_reported":1680192549,"current_range_meters":0,"station_id":"ce4bgjh2rcd13ifvqbf0","pricing_plan_id":"free"},{"bike_id":"b34a7d3a-43dc-413e-884c-2f1cc87c2898","system_id":"levelo_inurba_marseille","lat":43.313291,"lon":5.396838,"is_reserved":false,"is_disabled":false,"rental_uris":{"android":"levelo://app?vid=b34a7d3a-43dc-413e-884c-2f1cc87c2898","ios":"levelo://app?vid=b34a7d3a-43dc-413e-884c-2f1cc87c2898"},"vehicle_type_id":"4","last_reported":1680192549,"current_range_meters":0,"station_id":"ce4bgvp2rcd13ifvqcu0","pricing_plan_id":"free"},{"bike_id":"e0d1ebdb-19df-42ad-a733-0c99e49b8b61","system_id":"levelo_inurba_marseille","lat":43.313291,"lon":5.396838,"is_reserved":false,"is_disabled":false,"rental_uris":{"android":"levelo://app?vid=e0d1ebdb-19df-42ad-a733-0c99e49b8b61","ios":"levelo://app?vid=e0d1ebdb-19df-42ad-a733-0c99e49b8b61"},"vehicle_type_id":"4","last_reported":1680192549,"current_range_meters":11600,"station_id":"ce4bgvp2rcd13ifvqcu0","pricing_plan_id":"free"},{"bike_id":"bf481538-2fbf-4903-84e0-e225e36a10e5","system_id":"levelo_inurba_marseille","lat":43.29529,"lon":5.385581,"is_reserved":false,"is_disabled":false,"rental_uris":{"android":"levelo://app?vid=bf481538-2fbf-4903-84e0-e225e36a10e5","ios":"levelo://app?vid=bf481538-2fbf-4903-84e0-e225e36a10e5"},"vehicle_type_id":"4","last_reported":1680192549,"current_range_meters":0,"station_id":"ce4bgih2rcd13ifvqba0","pricing_plan_id":"free"},{"bike_id":"e8822598-c2cf-4c9f-9c98-62498899b3b7","system_id":"levelo_inurba_marseille","lat":43.302008,"lon":5.394694,"is_reserved":false,"is_disabled":false,"rental_uris":{"android":"levelo://app?vid=e8822598-c2cf-4c9f-9c98-62498899b3b7","ios":"levelo://app?vid=e8822598-c2cf-4c9f-9c98-62498899b3b7"},"vehicle_type_id":"4","last_reported":1680192549,"current_range_meters":0,"station_id":"ce4bh0p2rcd13ifvqd70","pricing_plan_id":"free"},{"bike_id":"e9901672-b62d-4368-972b-30693364c1fc","system_id":"levelo_inurba_marseille","lat":43.30685,"lon":5.39741,"is_reserved":false,"is_disabled":false,"rental_uris":{"android":"levelo://app?vid=e9901672-b62d-4368-972b-30693364c1fc","ios":"levelo://app?vid=e9901672-b62d-4368-972b-30693364c1fc"},"vehicle_type_id":"4","last_reported":1680192549,"current_range_meters":0,"station_id":"","pricing_plan_id":"free"},{"bike_id":"6037824f-9d01-435f-9317-13ad45f8751c","system_id":"levelo_inurba_marseille","lat":43.294153,"lon":5.386305,"is_reserved":false,"is_disabled":false,"rental_uris":{"android":"levelo://app?vid=6037824f-9d01-435f-9317-13ad45f8751c","ios":"levelo://app?vid=6037824f-9d01-435f-9317-13ad45f8751c"},"vehicle_type_id":"4","last_reported":1680192549,"current_range_meters":13200,"station_id":"ce4bh2h2rcd13ifvqdh0","pricing_plan_id":"free"},{"bike_id":"85a7217b-a800-45a9-af72-b52ad9f6907e","system_id":"levelo_inurba_marseille","lat":43.294162,"lon":5.386292,"is_reserved":false,"is_disabled":false,"rental_uris":{"android":"levelo://app?vid=85a7217b-a800-45a9-af72-b52ad9f6907e","ios":"levelo://app?vid=85a7217b-a800-45a9-af72-b52ad9f6907e"},"vehicle_type_id":"4","last_reported":1680192549,"current_range_meters":0,"station_id":"ce4bh2h2rcd13ifvqdh0","pricing_plan_id":"free"},{"bike_id":"a1ca957c-db7a-4c74-a5bc-e23972cb9035","system_id":"levelo_inurba_marseille","lat":43.294162,"lon":5.386292,"is_reserved":false,"is_disabled":false,"rental_uris":{"android":"levelo://app?vid=a1ca957c-db7a-4c74-a5bc-e23972cb9035","ios":"levelo://app?vid=a1ca957c-db7a-4c74-a5bc-e23972cb9035"},"vehicle_type_id":"4","last_reported":1680192549,"current_range_meters":800,"station_id":"ce4bh2h2rcd13ifvqdh0","pricing_plan_id":"free"},{"bike_id":"2d600daf-48ac-428c-be0d-c62c8a909b45","system_id":"levelo_inurba_marseille","lat":43.30423,"lon":5.39753,"is_reserved":false,"is_disabled":false,"rental_uris":{"android":"levelo://app?vid=2d600daf-48ac-428c-be0d-c62c8a909b45","ios":"levelo://app?vid=2d600daf-48ac-428c-be0d-c62c8a909b45"},"vehicle_type_id":"4","last_reported":1680192549,"current_range_meters":3600,"station_id":"","pricing_plan_id":"free"},{"bike_id":"046f0ec7-20e4-4e72-9eb2-806c7f23e417","system_id":"levelo_inurba_marseille","lat":43.330442,"lon":5.389148,"is_reserved":false,"is_disabled":false,"rental_uris":{"android":"levelo://app?vid=046f0ec7-20e4-4e72-9eb2-806c7f23e417","ios":"levelo://app?vid=046f0ec7-20e4-4e72-9eb2-806c7f23e417"},"vehicle_type_id":"4","last_reported":1680192549,"current_range_meters":0,"station_id":"ce4bhr92rcd13ifvqhrg","pricing_plan_id":"free"},{"bike_id":"383729ae-b439-4ecf-953a-a1bbe21bf184","system_id":"levelo_inurba_marseille","lat":43.33043,"lon":5.38917,"is_reserved":false,"is_disabled":false,"rental_uris":{"android":"levelo://app?vid=383729ae-b439-4ecf-953a-a1bbe21bf184","ios":"levelo://app?vid=383729ae-b439-4ecf-953a-a1bbe21bf184"},"vehicle_type_id":"4","last_reported":1680192549,"current_range_meters":0,"station_id":"ce4bhr92rcd13ifvqhrg","pricing_plan_id":"free"},{"bike_id":"a78ab97a-765b-4b16-944b-9a74a4a6975d","system_id":"levelo_inurba_marseille","lat":43.33044,"lon":5.38917,"is_reserved":false,"is_disabled":false,"rental_uris":{"android":"levelo://app?vid=a78ab97a-765b-4b16-944b-9a74a4a6975d","ios":"levelo://app?vid=a78ab97a-765b-4b16-944b-9a74a4a6975d"},"vehicle_type_id":"4","last_reported":1680192549,"current_range_meters":19600,"station_id":"ce4bhr92rcd13ifvqhrg","pricing_plan_id":"free"},{"bike_id":"b3b9b6c0-8ecc-4443-b230-b5b2895c0b10","system_id":"levelo_inurba_marseille","lat":43.33043,"lon":5.38919,"is_reserved":false,"is_disabled":false,"rental_uris":{"android":"levelo://app?vid=b3b9b6c0-8ecc-4443-b230-b5b2895c0b10","ios":"levelo://app?vid=b3b9b6c0-8ecc-4443-b230-b5b2895c0b10"},"vehicle_type_id":"4","last_reported":1680192549,"current_range_meters":20400,"station_id":"","pricing_plan_id":"free"},{"bike_id":"3c26a7c0-a43c-4b4d-8140-216dfe58b76a","system_id":"levelo_inurba_marseille","lat":43.33041,"lon":5.38922,"is_reserved":false,"is_disabled":false,"rental_uris":{"android":"levelo://app?vid=3c26a7c0-a43c-4b4d-8140-216dfe58b76a","ios":"levelo://app?vid=3c26a7c0-a43c-4b4d-8140-216dfe58b76a"},"vehicle_type_id":"4","last_reported":1680192549,"current_range_meters":14400,"station_id":"ce4bhr92rcd13ifvqhrg","pricing_plan_id":"free"},{"bike_id":"84fc9305-171f-4ef9-bb40-e4da8ae50dde","system_id":"levelo_inurba_marseille","lat":43.33042,"lon":5.38922,"is_reserved":false,"is_disabled":false,"rental_uris":{"android":"levelo://app?vid=84fc9305-171f-4ef9-bb40-e4da8ae50dde","ios":"levelo://app?vid=84fc9305-171f-4ef9-bb40-e4da8ae50dde"},"vehicle_type_id":"4","last_reported":1680192549,"current_range_meters":26000,"station_id":"ce4bhr92rcd13ifvqhrg","pricing_plan_id":"free"},{"bike_id":"b0899fcf-bf15-4179-be8e-fa4081dc5132","system_id":"levelo_inurba_marseille","lat":43.33044,"lon":5.38919,"is_reserved":false,"is_disabled":false,"rental_uris":{"android":"levelo://app?vid=b0899fcf-bf15-4179-be8e-fa4081dc5132","ios":"levelo://app?vid=b0899fcf-bf15-4179-be8e-fa4081dc5132"},"vehicle_type_id":"4","last_reported":1680192549,"current_range_meters":3200,"station_id":"ce4bhr92rcd13ifvqhrg","pricing_plan_id":"free"},{"bike_id":"b7f7da00-ffe1-482d-8a95-d5f979da115d","system_id":"levelo_inurba_marseille","lat":43.330442,"lon":5.389148,"is_reserved":false,"is_disabled":false,"rental_uris":{"android":"levelo://app?vid=b7f7da00-ffe1-482d-8a95-d5f979da115d","ios":"levelo://app?vid=b7f7da00-ffe1-482d-8a95-d5f979da115d"},"vehicle_type_id":"4","last_reported":1680192549,"current_range_meters":1600,"station_id":"ce4bhr92rcd13ifvqhrg","pricing_plan_id":"free"},{"bike_id":"02363ca1-2ff7-4d38-9487-83de0663eff0","system_id":"levelo_inurba_marseille","lat":43.330442,"lon":5.389148,"is_reserved":false,"is_disabled":false,"rental_uris":{"android":"levelo://app?vid=02363ca1-2ff7-4d38-9487-83de0663eff0","ios":"levelo://app?vid=02363ca1-2ff7-4d38-9487-83de0663eff0"},"vehicle_type_id":"4","last_reported":1680192549,"current_range_meters":8000,"station_id":"ce4bhr92rcd13ifvqhrg","pricing_plan_id":"free"},{"bike_id":"e414d4e1-0e32-48b2-a861-6208ac0066e7","system_id":"levelo_inurba_marseille","lat":43.288935,"lon":5.361244,"is_reserved":false,"is_disabled":false,"rental_uris":{"android":"levelo://app?vid=e414d4e1-0e32-48b2-a861-6208ac0066e7","ios":"levelo://app?vid=e414d4e1-0e32-48b2-a861-6208ac0066e7"},"vehicle_type_id":"4","last_reported":1680192549,"current_range_meters":0,"station_id":"","pricing_plan_id":"free"},{"bike_id":"5a7e8467-6a48-4a4e-870f-cb71e67f9410","system_id":"levelo_inurba_marseille","lat":43.2953,"lon":5.39036,"is_reserved":false,"is_disabled":false,"rental_uris":{"android":"levelo://app?vid=5a7e8467-6a48-4a4e-870f-cb71e67f9410","ios":"levelo://app?vid=5a7e8467-6a48-4a4e-870f-cb71e67f9410"},"vehicle_type_id":"4","last_reported":1680192549,"current_range_meters":0,"station_id":"ce4bh3p2rcd13ifvqdp0","pricing_plan_id":"free"},{"bike_id":"d5c80345-9752-4c5b-a446-e48285e22a61","system_id":"levelo_inurba_marseille","lat":43.33755,"lon":5.37451,"is_reserved":false,"is_disabled":false,"rental_uris":{"android":"levelo://app?vid=d5c80345-9752-4c5b-a446-e48285e22a61","ios":"levelo://app?vid=d5c80345-9752-4c5b-a446-e48285e22a61"},"vehicle_type_id":"4","last_reported":1680192549,"current_range_meters":23600,"station_id":"","pricing_plan_id":"free"},{"bike_id":"7ea5c5d1-1599-49e2-821e-335cd8dda03b","system_id":"levelo_inurba_marseille","lat":43.33769,"lon":5.37449,"is_reserved":false,"is_disabled":false,"rental_uris":{"android":"levelo://app?vid=7ea5c5d1-1599-49e2-821e-335cd8dda03b","ios":"levelo://app?vid=7ea5c5d1-1599-49e2-821e-335cd8dda03b"},"vehicle_type_id":"4","last_reported":1680192549,"current_range_meters":0,"station_id":"","pricing_plan_id":"free"},{"bike_id":"b1b9ae55-61e5-4772-918f-472ac637b40d","system_id":"levelo_inurba_marseille","lat":43.301117,"lon":5.398795,"is_reserved":false,"is_disabled":false,"rental_uris":{"android":"levelo://app?vid=b1b9ae55-61e5-4772-918f-472ac637b40d","ios":"levelo://app?vid=b1b9ae55-61e5-4772-918f-472ac637b40d"},"vehicle_type_id":"4","last_reported":1680192549,"current_range_meters":7600,"station_id":"ce4bh0h2rcd13ifvqd40","pricing_plan_id":"free"},{"bike_id":"8b2e9a83-6ab7-4b25-8375-6f6b1966d84a","system_id":"levelo_inurba_marseille","lat":43.298681,"lon":5.397225,"is_reserved":false,"is_disabled":false,"rental_uris":{"android":"levelo://app?vid=8b2e9a83-6ab7-4b25-8375-6f6b1966d84a","ios":"levelo://app?vid=8b2e9a83-6ab7-4b25-8375-6f6b1966d84a"},"vehicle_type_id":"4","last_reported":1680192549,"current_range_meters":0,"station_id":"ce4bh0h2rcd13ifvqd50","pricing_plan_id":"free"},{"bike_id":"a9981d0b-cc33-4fd3-ba29-bdc03bba0a64","system_id":"levelo_inurba_marseille","lat":43.295196,"lon":5.39397,"is_reserved":false,"is_disabled":false,"rental_uris":{"android":"levelo://app?vid=a9981d0b-cc33-4fd3-ba29-bdc03bba0a64","ios":"levelo://app?vid=a9981d0b-cc33-4fd3-ba29-bdc03bba0a64"},"vehicle_type_id":"4","last_reported":1680192549,"current_range_meters":400,"station_id":"ce4bh292rcd13ifvqdf0","pricing_plan_id":"free"},{"bike_id":"01379693-07a8-4ce6-b7d5-5d373022d966","system_id":"levelo_inurba_marseille","lat":43.28613,"lon":5.37065,"is_reserved":false,"is_disabled":false,"rental_uris":{"android":"levelo://app?vid=01379693-07a8-4ce6-b7d5-5d373022d966","ios":"levelo://app?vid=01379693-07a8-4ce6-b7d5-5d373022d966"},"vehicle_type_id":"4","last_reported":1680192549,"current_range_meters":18800,"station_id":"ce4bht12rcd13ifvqi60","pricing_plan_id":"free"},{"bike_id":"89391c40-1a01-4513-b22f-5009bb6dc939","system_id":"levelo_inurba_marseille","lat":43.28462,"lon":5.35889,"is_reserved":false,"is_disabled":false,"rental_uris":{"android":"levelo://app?vid=89391c40-1a01-4513-b22f-5009bb6dc939","ios":"levelo://app?vid=89391c40-1a01-4513-b22f-5009bb6dc939"},"vehicle_type_id":"4","last_reported":1680192549,"current_range_meters":0,"station_id":"ce4bhah2rcd13ifvqei0","pricing_plan_id":"free"},{"bike_id":"90792502-7c62-4e7e-a005-43ed89446547","system_id":"levelo_inurba_marseille","lat":43.28461,"lon":5.35894,"is_reserved":false,"is_disabled":false,"rental_uris":{"android":"levelo://app?vid=90792502-7c62-4e7e-a005-43ed89446547","ios":"levelo://app?vid=90792502-7c62-4e7e-a005-43ed89446547"},"vehicle_type_id":"4","last_reported":1680192549,"current_range_meters":2400,"station_id":"ce4bhah2rcd13ifvqei0","pricing_plan_id":"free"},{"bike_id":"56b2cdcf-f78c-446a-add9-96f3646f91b6","system_id":"levelo_inurba_marseille","lat":43.284534,"lon":5.358662,"is_reserved":false,"is_disabled":false,"rental_uris":{"android":"levelo://app?vid=56b2cdcf-f78c-446a-add9-96f3646f91b6","ios":"levelo://app?vid=56b2cdcf-f78c-446a-add9-96f3646f91b6"},"vehicle_type_id":"4","last_reported":1680192549,"current_range_meters":20800,"station_id":"ce4bhah2rcd13ifvqei0","pricing_plan_id":"free"},{"bike_id":"4001514d-066b-40c6-8beb-542556b73272","system_id":"levelo_inurba_marseille","lat":43.33721,"lon":5.39182,"is_reserved":false,"is_disabled":false,"rental_uris":{"android":"levelo://app?vid=4001514d-066b-40c6-8beb-542556b73272","ios":"levelo://app?vid=4001514d-066b-40c6-8beb-542556b73272"},"vehicle_type_id":"4","last_reported":1680192549,"current_range_meters":0,"station_id":"ce4bhr92rcd13ifvqhsg","pricing_plan_id":"free"},{"bike_id":"84b0b5ef-2b8e-4217-817b-b96848a1528d","system_id":"levelo_inurba_marseille","lat":43.32337,"lon":5.40625,"is_reserved":false,"is_disabled":false,"rental_uris":{"android":"levelo://app?vid=84b0b5ef-2b8e-4217-817b-b96848a1528d","ios":"levelo://app?vid=84b0b5ef-2b8e-4217-817b-b96848a1528d"},"vehicle_type_id":"4","last_reported":1680192549,"current_range_meters":4800,"station_id":"ce4bhq92rcd13ifvqhjg","pricing_plan_id":"free"},{"bike_id":"449a3434-f828-4747-853c-28c6b66c8762","system_id":"levelo_inurba_marseille","lat":43.288501,"lon":5.393087,"is_reserved":false,"is_disabled":false,"rental_uris":{"android":"levelo://app?vid=449a3434-f828-4747-853c-28c6b66c8762","ios":"levelo://app?vid=449a3434-f828-4747-853c-28c6b66c8762"},"vehicle_type_id":"4","last_reported":1680192549,"current_range_meters":29200,"station_id":"ce4bh2p2rcd13ifvqdi0","pricing_plan_id":"free"},{"bike_id":"aca336b5-5696-43f5-81e2-51ccd304a912","system_id":"levelo_inurba_marseille","lat":43.288501,"lon":5.393087,"is_reserved":false,"is_disabled":false,"rental_uris":{"android":"levelo://app?vid=aca336b5-5696-43f5-81e2-51ccd304a912","ios":"levelo://app?vid=aca336b5-5696-43f5-81e2-51ccd304a912"},"vehicle_type_id":"4","last_reported":1680192549,"current_range_meters":31200,"station_id":"ce4bh2p2rcd13ifvqdi0","pricing_plan_id":"free"},{"bike_id":"888fabae-2d55-405b-8f95-681212ffd878","system_id":"levelo_inurba_marseille","lat":43.288501,"lon":5.393087,"is_reserved":false,"is_disabled":false,"rental_uris":{"android":"levelo://app?vid=888fabae-2d55-405b-8f95-681212ffd878","ios":"levelo://app?vid=888fabae-2d55-405b-8f95-681212ffd878"},"vehicle_type_id":"4","last_reported":1680192549,"current_range_meters":27600,"station_id":"ce4bh2p2rcd13ifvqdi0","pricing_plan_id":"free"},{"bike_id":"f8a7a1b5-7faf-4282-a071-a7c62ac4100e","system_id":"levelo_inurba_marseille","lat":43.292724,"lon":5.401131,"is_reserved":false,"is_disabled":false,"rental_uris":{"android":"levelo://app?vid=f8a7a1b5-7faf-4282-a071-a7c62ac4100e","ios":"levelo://app?vid=f8a7a1b5-7faf-4282-a071-a7c62ac4100e"},"vehicle_type_id":"4","last_reported":1680192549,"current_range_meters":0,"station_id":"ce4bh312rcd13ifvqdk0","pricing_plan_id":"free"},{"bike_id":"5732f31c-3c1f-44b0-8119-d7d88caf7e66","system_id":"levelo_inurba_marseille","lat":43.28035,"lon":5.36954,"is_reserved":false,"is_disabled":false,"rental_uris":{"android":"levelo://app?vid=5732f31c-3c1f-44b0-8119-d7d88caf7e66","ios":"levelo://app?vid=5732f31c-3c1f-44b0-8119-d7d88caf7e66"},"vehicle_type_id":"4","last_reported":1680192549,"current_range_meters":0,"station_id":"ce4bha12rcd13ifvqef0","pricing_plan_id":"free"},{"bike_id":"9a7c0d3f-fc0e-402e-908a-b923510d3d48","system_id":"levelo_inurba_marseille","lat":43.280382,"lon":5.369291,"is_reserved":false,"is_disabled":false,"rental_uris":{"android":"levelo://app?vid=9a7c0d3f-fc0e-402e-908a-b923510d3d48","ios":"levelo://app?vid=9a7c0d3f-fc0e-402e-908a-b923510d3d48"},"vehicle_type_id":"4","last_reported":1680192549,"current_range_meters":13200,"station_id":"ce4bha12rcd13ifvqef0","pricing_plan_id":"free"},{"bike_id":"3043156c-27ff-485e-8af1-9eb9b52ea674","system_id":"levelo_inurba_marseille","lat":43.290412,"lon":5.399633,"is_reserved":false,"is_disabled":false,"rental_uris":{"android":"levelo://app?vid=3043156c-27ff-485e-8af1-9eb9b52ea674","ios":"levelo://app?vid=3043156c-27ff-485e-8af1-9eb9b52ea674"},"vehicle_type_id":"4","last_reported":1680192549,"current_range_meters":31200,"station_id":"ce4bh392rcd13ifvqdm0","pricing_plan_id":"free"},{"bike_id":"e9e4a264-2b6c-4741-aa93-422fc1346682","system_id":"levelo_inurba_marseille","lat":43.2963,"lon":5.40596,"is_reserved":false,"is_disabled":false,"rental_uris":{"android":"levelo://app?vid=e9e4a264-2b6c-4741-aa93-422fc1346682","ios":"levelo://app?vid=e9e4a264-2b6c-4741-aa93-422fc1346682"},"vehicle_type_id":"4","last_reported":1680192549,"current_range_meters":1600,"station_id":"ce4bh0h2rcd13ifvqd60","pricing_plan_id":"free"},{"bike_id":"f79032f1-19ec-4e82-bbc7-798c7b49dfa3","system_id":"levelo_inurba_marseille","lat":43.284462,"lon":5.392121,"is_reserved":false,"is_disabled":false,"rental_uris":{"android":"levelo://app?vid=f79032f1-19ec-4e82-bbc7-798c7b49dfa3","ios":"levelo://app?vid=f79032f1-19ec-4e82-bbc7-798c7b49dfa3"},"vehicle_type_id":"4","last_reported":1680192549,"current_range_meters":800,"station_id":"ce4bhoh2rcd13ifvqh5g","pricing_plan_id":"free"},{"bike_id":"37ae0608-a5ed-4351-828d-6ee8b8d7ddde","system_id":"levelo_inurba_marseille","lat":43.30424,"lon":5.41289,"is_reserved":false,"is_disabled":false,"rental_uris":{"android":"levelo://app?vid=37ae0608-a5ed-4351-828d-6ee8b8d7ddde","ios":"levelo://app?vid=37ae0608-a5ed-4351-828d-6ee8b8d7ddde"},"vehicle_type_id":"4","last_reported":1680192549,"current_range_meters":4800,"station_id":"ce4bhop2rcd13ifvqh8g","pricing_plan_id":"free"},{"bike_id":"0191cca1-fb7d-45b7-964e-d401546ff2c8","system_id":"levelo_inurba_marseille","lat":43.304188,"lon":5.412904,"is_reserved":false,"is_disabled":false,"rental_uris":{"android":"levelo://app?vid=0191cca1-fb7d-45b7-964e-d401546ff2c8","ios":"levelo://app?vid=0191cca1-fb7d-45b7-964e-d401546ff2c8"},"vehicle_type_id":"4","last_reported":1680192549,"current_range_meters":17200,"station_id":"ce4bhop2rcd13ifvqh8g","pricing_plan_id":"free"},{"bike_id":"13490b76-c779-42ee-82c1-dc23f8413544","system_id":"levelo_inurba_marseille","lat":43.304302,"lon":5.413588,"is_reserved":false,"is_disabled":false,"rental_uris":{"android":"levelo://app?vid=13490b76-c779-42ee-82c1-dc23f8413544","ios":"levelo://app?vid=13490b76-c779-42ee-82c1-dc23f8413544"},"vehicle_type_id":"4","last_reported":1680192549,"current_range_meters":18000,"station_id":"ce4bhph2rcd13ifvqheg","pricing_plan_id":"free"},{"bike_id":"c40dbb54-c978-46db-8860-12ce6901f675","system_id":"levelo_inurba_marseille","lat":43.27908,"lon":5.38011,"is_reserved":false,"is_disabled":false,"rental_uris":{"android":"levelo://app?vid=c40dbb54-c978-46db-8860-12ce6901f675","ios":"levelo://app?vid=c40dbb54-c978-46db-8860-12ce6901f675"},"vehicle_type_id":"4","last_reported":1680192549,"current_range_meters":10000,"station_id":"","pricing_plan_id":"free"},{"bike_id":"ab9216b0-d46d-48f9-b160-789d8922fdb7","system_id":"levelo_inurba_marseille","lat":43.320045,"lon":5.415048,"is_reserved":false,"is_disabled":false,"rental_uris":{"android":"levelo://app?vid=ab9216b0-d46d-48f9-b160-789d8922fdb7","ios":"levelo://app?vid=ab9216b0-d46d-48f9-b160-789d8922fdb7"},"vehicle_type_id":"4","last_reported":1680192549,"current_range_meters":9200,"station_id":"ce4bhq92rcd13ifvqhkg","pricing_plan_id":"free"},{"bike_id":"58e30fc5-b413-4ee3-acf8-c35f9fabeaaa","system_id":"levelo_inurba_marseille","lat":43.320045,"lon":5.415048,"is_reserved":false,"is_disabled":false,"rental_uris":{"android":"levelo://app?vid=58e30fc5-b413-4ee3-acf8-c35f9fabeaaa","ios":"levelo://app?vid=58e30fc5-b413-4ee3-acf8-c35f9fabeaaa"},"vehicle_type_id":"4","last_reported":1680192549,"current_range_meters":800,"station_id":"ce4bhq92rcd13ifvqhkg","pricing_plan_id":"free"},{"bike_id":"1811f871-c03b-45f5-bc6c-f038e2d33b2d","system_id":"levelo_inurba_marseille","lat":43.292571,"lon":5.409107,"is_reserved":false,"is_disabled":false,"rental_uris":{"android":"levelo://app?vid=1811f871-c03b-45f5-bc6c-f038e2d33b2d","ios":"levelo://app?vid=1811f871-c03b-45f5-bc6c-f038e2d33b2d"},"vehicle_type_id":"4","last_reported":1680192549,"current_range_meters":29200,"station_id":"ce4bh192rcd13ifvqdc0","pricing_plan_id":"free"},{"bike_id":"0d984373-8f08-4498-99dc-bde9318b9e5a","system_id":"levelo_inurba_marseille","lat":43.32541,"lon":5.41427,"is_reserved":false,"is_disabled":false,"rental_uris":{"android":"levelo://app?vid=0d984373-8f08-4498-99dc-bde9318b9e5a","ios":"levelo://app?vid=0d984373-8f08-4498-99dc-bde9318b9e5a"},"vehicle_type_id":"4","last_reported":1680192549,"current_range_meters":9200,"station_id":"ce4bhq12rcd13ifvqhhg","pricing_plan_id":"free"},{"bike_id":"ed6047da-dcfe-4b03-a429-54f6d4477288","system_id":"levelo_inurba_marseille","lat":43.27616,"lon":5.36118,"is_reserved":false,"is_disabled":false,"rental_uris":{"android":"levelo://app?vid=ed6047da-dcfe-4b03-a429-54f6d4477288","ios":"levelo://app?vid=ed6047da-dcfe-4b03-a429-54f6d4477288"},"vehicle_type_id":"4","last_reported":1680192549,"current_range_meters":7600,"station_id":"ce4bgj92rcd13ifvqbe0","pricing_plan_id":"free"},{"bike_id":"42afc95d-80c7-4cbf-ba6f-9a325a9373f2","system_id":"levelo_inurba_marseille","lat":43.28085,"lon":5.39655,"is_reserved":false,"is_disabled":false,"rental_uris":{"android":"levelo://app?vid=42afc95d-80c7-4cbf-ba6f-9a325a9373f2","ios":"levelo://app?vid=42afc95d-80c7-4cbf-ba6f-9a325a9373f2"},"vehicle_type_id":"4","last_reported":1680192549,"current_range_meters":25600,"station_id":"ce4bho12rcd13ifvqh2g","pricing_plan_id":"free"},{"bike_id":"b4127888-4e59-4eb5-abc8-c5cfc6a85ec9","system_id":"levelo_inurba_marseille","lat":43.28081,"lon":5.39661,"is_reserved":false,"is_disabled":false,"rental_uris":{"android":"levelo://app?vid=b4127888-4e59-4eb5-abc8-c5cfc6a85ec9","ios":"levelo://app?vid=b4127888-4e59-4eb5-abc8-c5cfc6a85ec9"},"vehicle_type_id":"4","last_reported":1680192549,"current_range_meters":14000,"station_id":"ce4bho12rcd13ifvqh2g","pricing_plan_id":"free"},{"bike_id":"87fd28a5-d2e4-475c-b64e-458fe181f69c","system_id":"levelo_inurba_marseille","lat":43.280784,"lon":5.396622,"is_reserved":false,"is_disabled":false,"rental_uris":{"android":"levelo://app?vid=87fd28a5-d2e4-475c-b64e-458fe181f69c","ios":"levelo://app?vid=87fd28a5-d2e4-475c-b64e-458fe181f69c"},"vehicle_type_id":"4","last_reported":1680192549,"current_range_meters":11600,"station_id":"ce4bho12rcd13ifvqh2g","pricing_plan_id":"free"},{"bike_id":"f914d334-cd5e-4eb6-99da-74fd1030d3c3","system_id":"levelo_inurba_marseille","lat":43.280784,"lon":5.396622,"is_reserved":false,"is_disabled":false,"rental_uris":{"android":"levelo://app?vid=f914d334-cd5e-4eb6-99da-74fd1030d3c3","ios":"levelo://app?vid=f914d334-cd5e-4eb6-99da-74fd1030d3c3"},"vehicle_type_id":"4","last_reported":1680192549,"current_range_meters":6800,"station_id":"ce4bho12rcd13ifvqh2g","pricing_plan_id":"free"},{"bike_id":"1ac11bb5-e6cb-4d9f-9cf5-23076e2c9d9d","system_id":"levelo_inurba_marseille","lat":43.280784,"lon":5.396622,"is_reserved":false,"is_disabled":false,"rental_uris":{"android":"levelo://app?vid=1ac11bb5-e6cb-4d9f-9cf5-23076e2c9d9d","ios":"levelo://app?vid=1ac11bb5-e6cb-4d9f-9cf5-23076e2c9d9d"},"vehicle_type_id":"4","last_reported":1680192549,"current_range_meters":19600,"station_id":"ce4bho12rcd13ifvqh2g","pricing_plan_id":"free"},{"bike_id":"76a2c5f5-4918-4660-9834-cf4652771d52","system_id":"levelo_inurba_marseille","lat":43.273613,"lon":5.362705,"is_reserved":false,"is_disabled":false,"rental_uris":{"android":"levelo://app?vid=76a2c5f5-4918-4660-9834-cf4652771d52","ios":"levelo://app?vid=76a2c5f5-4918-4660-9834-cf4652771d52"},"vehicle_type_id":"4","last_reported":1680192549,"current_range_meters":31200,"station_id":"ce4bhbh2rcd13ifvqeo0","pricing_plan_id":"free"},{"bike_id":"956ba6d4-93c6-43f5-acc3-58eba458fe1d","system_id":"levelo_inurba_marseille","lat":43.273613,"lon":5.362705,"is_reserved":false,"is_disabled":false,"rental_uris":{"android":"levelo://app?vid=956ba6d4-93c6-43f5-acc3-58eba458fe1d","ios":"levelo://app?vid=956ba6d4-93c6-43f5-acc3-58eba458fe1d"},"vehicle_type_id":"4","last_reported":1680192549,"current_range_meters":31200,"station_id":"ce4bhbh2rcd13ifvqeo0","pricing_plan_id":"free"},{"bike_id":"e7ba63d1-7e12-4e47-b5e9-ed7cb2fda432","system_id":"levelo_inurba_marseille","lat":43.273613,"lon":5.362705,"is_reserved":false,"is_disabled":false,"rental_uris":{"android":"levelo://app?vid=e7ba63d1-7e12-4e47-b5e9-ed7cb2fda432","ios":"levelo://app?vid=e7ba63d1-7e12-4e47-b5e9-ed7cb2fda432"},"vehicle_type_id":"4","last_reported":1680192549,"current_range_meters":23200,"station_id":"ce4bhbh2rcd13ifvqeo0","pricing_plan_id":"free"},{"bike_id":"e17e510d-7a4b-4823-b56e-1bdfa3259c15","system_id":"levelo_inurba_marseille","lat":43.273609,"lon":5.362708,"is_reserved":false,"is_disabled":false,"rental_uris":{"android":"levelo://app?vid=e17e510d-7a4b-4823-b56e-1bdfa3259c15","ios":"levelo://app?vid=e17e510d-7a4b-4823-b56e-1bdfa3259c15"},"vehicle_type_id":"4","last_reported":1680192549,"current_range_meters":31200,"station_id":"ce4bhbh2rcd13ifvqeo0","pricing_plan_id":"free"},{"bike_id":"459d2cb7-c398-45db-831d-8051f49c5681","system_id":"levelo_inurba_marseille","lat":43.273609,"lon":5.362708,"is_reserved":false,"is_disabled":false,"rental_uris":{"android":"levelo://app?vid=459d2cb7-c398-45db-831d-8051f49c5681","ios":"levelo://app?vid=459d2cb7-c398-45db-831d-8051f49c5681"},"vehicle_type_id":"4","last_reported":1680192549,"current_range_meters":400,"station_id":"ce4bhbh2rcd13ifvqeo0","pricing_plan_id":"free"},{"bike_id":"321d34b9-bd2a-47bf-9307-f812c1f25ac5","system_id":"levelo_inurba_marseille","lat":43.33612,"lon":5.410321,"is_reserved":false,"is_disabled":false,"rental_uris":{"android":"levelo://app?vid=321d34b9-bd2a-47bf-9307-f812c1f25ac5","ios":"levelo://app?vid=321d34b9-bd2a-47bf-9307-f812c1f25ac5"},"vehicle_type_id":"4","last_reported":1680192549,"current_range_meters":2400,"station_id":"ce4bhqh2rcd13ifvqhmg","pricing_plan_id":"free"},{"bike_id":"7506187a-413a-4660-9abf-ae4734554b63","system_id":"levelo_inurba_marseille","lat":43.317121,"lon":5.423936,"is_reserved":false,"is_disabled":false,"rental_uris":{"android":"levelo://app?vid=7506187a-413a-4660-9abf-ae4734554b63","ios":"levelo://app?vid=7506187a-413a-4660-9abf-ae4734554b63"},"vehicle_type_id":"4","last_reported":1680192549,"current_range_meters":1200,"station_id":"ce4bhp92rcd13ifvqhbg","pricing_plan_id":"free"},{"bike_id":"41bc78d7-b793-4722-99a6-98a269e822d5","system_id":"levelo_inurba_marseille","lat":43.295523,"lon":5.422926,"is_reserved":false,"is_disabled":false,"rental_uris":{"android":"levelo://app?vid=41bc78d7-b793-4722-99a6-98a269e822d5","ios":"levelo://app?vid=41bc78d7-b793-4722-99a6-98a269e822d5"},"vehicle_type_id":"4","last_reported":1680192549,"current_range_meters":2800,"station_id":"ce4bhph2rcd13ifvqhdg","pricing_plan_id":"free"},{"bike_id":"91227eb2-5732-4660-8269-f26411cc6704","system_id":"levelo_inurba_marseille","lat":43.295511,"lon":5.422926,"is_reserved":false,"is_disabled":false,"rental_uris":{"android":"levelo://app?vid=91227eb2-5732-4660-8269-f26411cc6704","ios":"levelo://app?vid=91227eb2-5732-4660-8269-f26411cc6704"},"vehicle_type_id":"4","last_reported":1680192549,"current_range_meters":0,"station_id":"ce4bhph2rcd13ifvqhdg","pricing_plan_id":"free"},{"bike_id":"2c4e69e8-922a-4002-9d7d-4d4864a15e31","system_id":"levelo_inurba_marseille","lat":43.278128,"lon":5.407195,"is_reserved":false,"is_disabled":false,"rental_uris":{"android":"levelo://app?vid=2c4e69e8-922a-4002-9d7d-4d4864a15e31","ios":"levelo://app?vid=2c4e69e8-922a-4002-9d7d-4d4864a15e31"},"vehicle_type_id":"4","last_reported":1680192549,"current_range_meters":0,"station_id":"ce4bhnh2rcd13ifvqgtg","pricing_plan_id":"free"},{"bike_id":"48d3e434-999f-4b7c-a1a8-08e18270eac8","system_id":"levelo_inurba_marseille","lat":43.32552,"lon":5.42688,"is_reserved":false,"is_disabled":false,"rental_uris":{"android":"levelo://app?vid=48d3e434-999f-4b7c-a1a8-08e18270eac8","ios":"levelo://app?vid=48d3e434-999f-4b7c-a1a8-08e18270eac8"},"vehicle_type_id":"4","last_reported":1680192549,"current_range_meters":20400,"station_id":"","pricing_plan_id":"free"},{"bike_id":"00af3b7b-6029-49a0-b0f5-a3222d5c4489","system_id":"levelo_inurba_marseille","lat":43.33795,"lon":5.42115,"is_reserved":false,"is_disabled":false,"rental_uris":{"android":"levelo://app?vid=00af3b7b-6029-49a0-b0f5-a3222d5c4489","ios":"levelo://app?vid=00af3b7b-6029-49a0-b0f5-a3222d5c4489"},"vehicle_type_id":"4","last_reported":1680192549,"current_range_meters":3200,"station_id":"","pricing_plan_id":"free"},{"bike_id":"8e895d84-bd09-4f2d-a032-8e37f91c41c9","system_id":"levelo_inurba_marseille","lat":43.265714,"lon":5.372891,"is_reserved":false,"is_disabled":false,"rental_uris":{"android":"levelo://app?vid=8e895d84-bd09-4f2d-a032-8e37f91c41c9","ios":"levelo://app?vid=8e895d84-bd09-4f2d-a032-8e37f91c41c9"},"vehicle_type_id":"4","last_reported":1680192549,"current_range_meters":25600,"station_id":"ce4bhg12rcd13ifvqf70","pricing_plan_id":"free"},{"bike_id":"51f405f0-ae78-45df-9e88-5bea12512cc6","system_id":"levelo_inurba_marseille","lat":43.265714,"lon":5.372891,"is_reserved":false,"is_disabled":false,"rental_uris":{"android":"levelo://app?vid=51f405f0-ae78-45df-9e88-5bea12512cc6","ios":"levelo://app?vid=51f405f0-ae78-45df-9e88-5bea12512cc6"},"vehicle_type_id":"4","last_reported":1680192549,"current_range_meters":27600,"station_id":"ce4bhg12rcd13ifvqf70","pricing_plan_id":"free"},{"bike_id":"3f48d300-3a5a-4762-9c3c-e5bfe6052062","system_id":"levelo_inurba_marseille","lat":43.28315,"lon":5.42336,"is_reserved":false,"is_disabled":false,"rental_uris":{"android":"levelo://app?vid=3f48d300-3a5a-4762-9c3c-e5bfe6052062","ios":"levelo://app?vid=3f48d300-3a5a-4762-9c3c-e5bfe6052062"},"vehicle_type_id":"4","last_reported":1680192549,"current_range_meters":0,"station_id":"","pricing_plan_id":"free"},{"bike_id":"c8ea8206-901a-488c-ac4b-8b1e01485d14","system_id":"levelo_inurba_marseille","lat":43.331864,"lon":5.431794,"is_reserved":false,"is_disabled":false,"rental_uris":{"android":"levelo://app?vid=c8ea8206-901a-488c-ac4b-8b1e01485d14","ios":"levelo://app?vid=c8ea8206-901a-488c-ac4b-8b1e01485d14"},"vehicle_type_id":"4","last_reported":1680192549,"current_range_meters":0,"station_id":"","pricing_plan_id":"free"},{"bike_id":"874c6b42-2972-40da-a0ee-81ad300045ca","system_id":"levelo_inurba_marseille","lat":43.26197,"lon":5.37448,"is_reserved":false,"is_disabled":false,"rental_uris":{"android":"levelo://app?vid=874c6b42-2972-40da-a0ee-81ad300045ca","ios":"levelo://app?vid=874c6b42-2972-40da-a0ee-81ad300045ca"},"vehicle_type_id":"4","last_reported":1680192549,"current_range_meters":4000,"station_id":"ce4bhgp2rcd13ifvqfc0","pricing_plan_id":"free"},{"bike_id":"63ceb30f-d61d-45e3-91c6-7d892a839014","system_id":"levelo_inurba_marseille","lat":43.267959,"lon":5.402687,"is_reserved":false,"is_disabled":false,"rental_uris":{"android":"levelo://app?vid=63ceb30f-d61d-45e3-91c6-7d892a839014","ios":"levelo://app?vid=63ceb30f-d61d-45e3-91c6-7d892a839014"},"vehicle_type_id":"4","last_reported":1680192549,"current_range_meters":0,"station_id":"ce501612rcd8frsf0b60","pricing_plan_id":"free"},{"bike_id":"a2745274-d0de-4086-aeb5-931a1214c7f7","system_id":"levelo_inurba_marseille","lat":43.267959,"lon":5.402687,"is_reserved":false,"is_disabled":false,"rental_uris":{"android":"levelo://app?vid=a2745274-d0de-4086-aeb5-931a1214c7f7","ios":"levelo://app?vid=a2745274-d0de-4086-aeb5-931a1214c7f7"},"vehicle_type_id":"4","last_reported":1680192549,"current_range_meters":4000,"station_id":"ce501612rcd8frsf0b60","pricing_plan_id":"free"},{"bike_id":"63652c41-153d-4bb2-a0c5-c5cb489f3380","system_id":"levelo_inurba_marseille","lat":43.298768,"lon":5.43643,"is_reserved":false,"is_disabled":false,"rental_uris":{"android":"levelo://app?vid=63652c41-153d-4bb2-a0c5-c5cb489f3380","ios":"levelo://app?vid=63652c41-153d-4bb2-a0c5-c5cb489f3380"},"vehicle_type_id":"4","last_reported":1680192549,"current_range_meters":23600,"station_id":"ce4bhpp2rcd13ifvqhfg","pricing_plan_id":"free"},{"bike_id":"e0a59e9e-7c6c-43f7-9ad6-7e9bb01c4493","system_id":"levelo_inurba_marseille","lat":43.298768,"lon":5.43643,"is_reserved":false,"is_disabled":false,"rental_uris":{"android":"levelo://app?vid=e0a59e9e-7c6c-43f7-9ad6-7e9bb01c4493","ios":"levelo://app?vid=e0a59e9e-7c6c-43f7-9ad6-7e9bb01c4493"},"vehicle_type_id":"4","last_reported":1680192549,"current_range_meters":0,"station_id":"ce4bhpp2rcd13ifvqhfg","pricing_plan_id":"free"},{"bike_id":"77a99b46-4b3f-49b0-a515-5ddb37e0aa26","system_id":"levelo_inurba_marseille","lat":43.26852,"lon":5.4067,"is_reserved":false,"is_disabled":false,"rental_uris":{"android":"levelo://app?vid=77a99b46-4b3f-49b0-a515-5ddb37e0aa26","ios":"levelo://app?vid=77a99b46-4b3f-49b0-a515-5ddb37e0aa26"},"vehicle_type_id":"4","last_reported":1680192549,"current_range_meters":0,"station_id":"","pricing_plan_id":"free"},{"bike_id":"867619a6-bdc8-401f-840f-c91db4a98a18","system_id":"levelo_inurba_marseille","lat":43.2607,"lon":5.393983,"is_reserved":false,"is_disabled":false,"rental_uris":{"android":"levelo://app?vid=867619a6-bdc8-401f-840f-c91db4a98a18","ios":"levelo://app?vid=867619a6-bdc8-401f-840f-c91db4a98a18"},"vehicle_type_id":"4","last_reported":1680192549,"current_range_meters":12000,"station_id":"ce4bhh92rcd13ifvqfj0","pricing_plan_id":"free"},{"bike_id":"5d8bb688-322a-490c-8025-17e6ae4d9bf5","system_id":"levelo_inurba_marseille","lat":43.2607,"lon":5.393983,"is_reserved":false,"is_disabled":false,"rental_uris":{"android":"levelo://app?vid=5d8bb688-322a-490c-8025-17e6ae4d9bf5","ios":"levelo://app?vid=5d8bb688-322a-490c-8025-17e6ae4d9bf5"},"vehicle_type_id":"4","last_reported":1680192549,"current_range_meters":9600,"station_id":"ce4bhh92rcd13ifvqfj0","pricing_plan_id":"free"},{"bike_id":"a93ab714-bb09-437c-bad3-fa93435ffa0c","system_id":"levelo_inurba_marseille","lat":43.260912,"lon":5.397584,"is_reserved":false,"is_disabled":false,"rental_uris":{"android":"levelo://app?vid=a93ab714-bb09-437c-bad3-fa93435ffa0c","ios":"levelo://app?vid=a93ab714-bb09-437c-bad3-fa93435ffa0c"},"vehicle_type_id":"4","last_reported":1680192549,"current_range_meters":0,"station_id":"ce4bhi12rcd13ifvqfq0","pricing_plan_id":"free"},{"bike_id":"39c3e335-599e-4767-96e9-fcb0bddad4d7","system_id":"levelo_inurba_marseille","lat":43.255756,"lon":5.382303,"is_reserved":false,"is_disabled":false,"rental_uris":{"android":"levelo://app?vid=39c3e335-599e-4767-96e9-fcb0bddad4d7","ios":"levelo://app?vid=39c3e335-599e-4767-96e9-fcb0bddad4d7"},"vehicle_type_id":"4","last_reported":1680192549,"current_range_meters":400,"station_id":"ce4bhih2rcd13ifvqfs0","pricing_plan_id":"free"},{"bike_id":"1d7157de-31aa-4c6f-88f2-2b3192ecbbaf","system_id":"levelo_inurba_marseille","lat":43.255756,"lon":5.382303,"is_reserved":false,"is_disabled":false,"rental_uris":{"android":"levelo://app?vid=1d7157de-31aa-4c6f-88f2-2b3192ecbbaf","ios":"levelo://app?vid=1d7157de-31aa-4c6f-88f2-2b3192ecbbaf"},"vehicle_type_id":"4","last_reported":1680192549,"current_range_meters":16400,"station_id":"ce4bhih2rcd13ifvqfs0","pricing_plan_id":"free"},{"bike_id":"6d047652-0f97-4d06-82d6-9fe2cfdf1afa","system_id":"levelo_inurba_marseille","lat":43.254947,"lon":5.376454,"is_reserved":false,"is_disabled":false,"rental_uris":{"android":"levelo://app?vid=6d047652-0f97-4d06-82d6-9fe2cfdf1afa","ios":"levelo://app?vid=6d047652-0f97-4d06-82d6-9fe2cfdf1afa"},"vehicle_type_id":"4","last_reported":1680192549,"current_range_meters":0,"station_id":"ce4bhh12rcd13ifvqff0","pricing_plan_id":"free"},{"bike_id":"f6f06edf-d3d2-42a9-a93c-eb9aed63d59f","system_id":"levelo_inurba_marseille","lat":43.258658,"lon":5.398935,"is_reserved":false,"is_disabled":false,"rental_uris":{"android":"levelo://app?vid=f6f06edf-d3d2-42a9-a93c-eb9aed63d59f","ios":"levelo://app?vid=f6f06edf-d3d2-42a9-a93c-eb9aed63d59f"},"vehicle_type_id":"4","last_reported":1680192549,"current_range_meters":14000,"station_id":"ce4bhl92rcd13ifvqghg","pricing_plan_id":"free"},{"bike_id":"2553e504-d446-41c6-b318-5052bc8255c8","system_id":"levelo_inurba_marseille","lat":43.28725,"lon":5.44687,"is_reserved":false,"is_disabled":false,"rental_uris":{"android":"levelo://app?vid=2553e504-d446-41c6-b318-5052bc8255c8","ios":"levelo://app?vid=2553e504-d446-41c6-b318-5052bc8255c8"},"vehicle_type_id":"4","last_reported":1680192549,"current_range_meters":20800,"station_id":"","pricing_plan_id":"free"},{"bike_id":"4b18f28b-242d-4cb8-b149-0cee5fa7820e","system_id":"levelo_inurba_marseille","lat":43.24693,"lon":5.382096,"is_reserved":false,"is_disabled":false,"rental_uris":{"android":"levelo://app?vid=4b18f28b-242d-4cb8-b149-0cee5fa7820e","ios":"levelo://app?vid=4b18f28b-242d-4cb8-b149-0cee5fa7820e"},"vehicle_type_id":"4","last_reported":1680192549,"current_range_meters":3200,"station_id":"ce4bhih2rcd13ifvqfr0","pricing_plan_id":"free"},{"bike_id":"35763ab6-71a6-4433-8a39-66c0f304c746","system_id":"levelo_inurba_marseille","lat":43.25102,"lon":5.403214,"is_reserved":false,"is_disabled":false,"rental_uris":{"android":"levelo://app?vid=35763ab6-71a6-4433-8a39-66c0f304c746","ios":"levelo://app?vid=35763ab6-71a6-4433-8a39-66c0f304c746"},"vehicle_type_id":"4","last_reported":1680192549,"current_range_meters":15600,"station_id":"ce4bhlh2rcd13ifvqgig","pricing_plan_id":"free"},{"bike_id":"2555ab46-5eea-4ea4-aaa8-a9721dbfabdb","system_id":"levelo_inurba_marseille","lat":43.24693,"lon":5.382096,"is_reserved":false,"is_disabled":false,"rental_uris":{"android":"levelo://app?vid=2555ab46-5eea-4ea4-aaa8-a9721dbfabdb","ios":"levelo://app?vid=2555ab46-5eea-4ea4-aaa8-a9721dbfabdb"},"vehicle_type_id":"4","last_reported":1680192549,"current_range_meters":14000,"station_id":"ce4bhih2rcd13ifvqfr0","pricing_plan_id":"free"},{"bike_id":"cf3176ca-6c42-4457-9bbd-660f56627b39","system_id":"levelo_inurba_marseille","lat":43.243884,"lon":5.370736,"is_reserved":false,"is_disabled":false,"rental_uris":{"android":"levelo://app?vid=cf3176ca-6c42-4457-9bbd-660f56627b39","ios":"levelo://app?vid=cf3176ca-6c42-4457-9bbd-660f56627b39"},"vehicle_type_id":"4","last_reported":1680192549,"current_range_meters":13600,"station_id":"ce4bhhh2rcd13ifvqfk0","pricing_plan_id":"free"},{"bike_id":"e4caf6f1-ecba-4709-b0de-8f7d508caddb","system_id":"levelo_inurba_marseille","lat":43.239588,"lon":5.366238,"is_reserved":false,"is_disabled":false,"rental_uris":{"android":"levelo://app?vid=e4caf6f1-ecba-4709-b0de-8f7d508caddb","ios":"levelo://app?vid=e4caf6f1-ecba-4709-b0de-8f7d508caddb"},"vehicle_type_id":"4","last_reported":1680192549,"current_range_meters":27600,"station_id":"ce4bhi12rcd13ifvqfp0","pricing_plan_id":"free"},{"bike_id":"d401b0ee-cd1b-4e95-a36d-a11295349b6e","system_id":"levelo_inurba_marseille","lat":43.239588,"lon":5.366238,"is_reserved":false,"is_disabled":false,"rental_uris":{"android":"levelo://app?vid=d401b0ee-cd1b-4e95-a36d-a11295349b6e","ios":"levelo://app?vid=d401b0ee-cd1b-4e95-a36d-a11295349b6e"},"vehicle_type_id":"4","last_reported":1680192549,"current_range_meters":400,"station_id":"ce4bhi12rcd13ifvqfp0","pricing_plan_id":"free"},{"bike_id":"c5be67f4-c338-4049-84bd-424f54878256","system_id":"levelo_inurba_marseille","lat":43.239588,"lon":5.366238,"is_reserved":false,"is_disabled":false,"rental_uris":{"android":"levelo://app?vid=c5be67f4-c338-4049-84bd-424f54878256","ios":"levelo://app?vid=c5be67f4-c338-4049-84bd-424f54878256"},"vehicle_type_id":"4","last_reported":1680192549,"current_range_meters":9600,"station_id":"ce4bhi12rcd13ifvqfp0","pricing_plan_id":"free"},{"bike_id":"392f49c2-6a25-4c10-bbe9-30b088c9399f","system_id":"levelo_inurba_marseille","lat":43.239588,"lon":5.366238,"is_reserved":false,"is_disabled":false,"rental_uris":{"android":"levelo://app?vid=392f49c2-6a25-4c10-bbe9-30b088c9399f","ios":"levelo://app?vid=392f49c2-6a25-4c10-bbe9-30b088c9399f"},"vehicle_type_id":"4","last_reported":1680192549,"current_range_meters":31200,"station_id":"ce4bhi12rcd13ifvqfp0","pricing_plan_id":"free"},{"bike_id":"a9d03b0f-ccae-4caa-8668-c0bd74848087","system_id":"levelo_inurba_marseille","lat":43.239588,"lon":5.366238,"is_reserved":false,"is_disabled":false,"rental_uris":{"android":"levelo://app?vid=a9d03b0f-ccae-4caa-8668-c0bd74848087","ios":"levelo://app?vid=a9d03b0f-ccae-4caa-8668-c0bd74848087"},"vehicle_type_id":"4","last_reported":1680192549,"current_range_meters":28800,"station_id":"ce4bhi12rcd13ifvqfp0","pricing_plan_id":"free"},{"bike_id":"c5f91c9d-db0b-4bf1-b67a-089319f4913a","system_id":"levelo_inurba_marseille","lat":43.241782,"lon":5.397264,"is_reserved":false,"is_disabled":false,"rental_uris":{"android":"levelo://app?vid=c5f91c9d-db0b-4bf1-b67a-089319f4913a","ios":"levelo://app?vid=c5f91c9d-db0b-4bf1-b67a-089319f4913a"},"vehicle_type_id":"4","last_reported":1680192549,"current_range_meters":16400,"station_id":"ce4bhn12rcd13ifvqgpg","pricing_plan_id":"free"},{"bike_id":"e7b530a9-a474-4c94-ba4c-e04b35db7de1","system_id":"levelo_inurba_marseille","lat":43.241782,"lon":5.397264,"is_reserved":false,"is_disabled":false,"rental_uris":{"android":"levelo://app?vid=e7b530a9-a474-4c94-ba4c-e04b35db7de1","ios":"levelo://app?vid=e7b530a9-a474-4c94-ba4c-e04b35db7de1"},"vehicle_type_id":"4","last_reported":1680192549,"current_range_meters":0,"station_id":"ce4bhn12rcd13ifvqgpg","pricing_plan_id":"free"},{"bike_id":"d73f260e-82d5-47ab-9911-2bcc745ab7a8","system_id":"levelo_inurba_marseille","lat":43.231923,"lon":5.355545,"is_reserved":false,"is_disabled":false,"rental_uris":{"android":"levelo://app?vid=d73f260e-82d5-47ab-9911-2bcc745ab7a8","ios":"levelo://app?vid=d73f260e-82d5-47ab-9911-2bcc745ab7a8"},"vehicle_type_id":"4","last_reported":1680192549,"current_range_meters":18400,"station_id":"ce4bhu92rcd13ifvqi70","pricing_plan_id":"free"}]}}