{"last_updated":1752208112,"ttl":60,"version":"2.2","data":{"bikes":[{"bike_id":"dfcd2e3c-7408-4177-8f92-afb12a705210","system_id":"levelo_inurba_marseille","lat":43.28696,"lon":5.39976,"is_reserved":false,"is_disabled":false,"rental_uris":{"android":"levelo://app?vid=dfcd2e3c-7408-4177-8f92-afb12a705210","ios":"levelo://app?vid=dfcd2e3c-7408-4177-8f92-afb12a705210"},"vehicle_type_id":"4","last_reported":1752208113,"current_range_meters":2800,"station_id":"ce4bho92rcd13ifvqh3g","pricing_plan_id":"cebpf4jnsgd1na2vs0mg"},{"bike_id":"fa1301bd-2b82-4370-ac64-3a865e539776","system_id":"levelo_inurba_marseille","lat":43.30228,"lon":5.40056,"is_reserved":false,"is_disabled":false,"rental_uris":{"android":"levelo://app?vid=fa1301bd-2b82-4370-ac64-3a865e539776","ios":"levelo://app?vid=fa1301bd-2b82-4370-ac64-3a865e539776"},"vehicle_type_id":"4","last_reported":1752208113,"current_range_meters":3200,"station_id":"ce4bgvh2rcd13ifvqcs0","pricing_plan_id":"cebpf4jnsgd1na2vs0mg"},{"bike_id":"159fe00e-1605-4a3a-a906-ef8dcd52b1db","system_id":"levelo_inurba_marseille","lat":43.30858,"lon":5.37326,"is_reserved":false,"is_disabled":false,"rental_uris":{"android":"levelo://app?vid=159fe00e-1605-4a3a-a906-ef8dcd52b1db","ios":"levelo://app?vid=159fe00e-1605-4a3a-a906-ef8dcd52b1db"},"vehicle_type_id":"4","last_reported":1752208113,"current_range_meters":3200,"station_id":"","pricing_plan_id":"cebpf4jnsgd1na2vs0mg"},{"bike_id":"52095bda-1811-42c1-839c-69dcf40cb112","system_id":"levelo_inurba_marseille","lat":43.305917,"lon":5.393558,"is_reserved":false,"is_disabled":false,"rental_uris":{"android":"levelo://app?vid=52095bda-1811-42c1-839c-69dcf40cb112","ios":"levelo://app?vid=52095bda-1811-42c1-839c-69dcf40cb112"},"vehicle_type_id":"4","last_reported":1752208113,"current_range_meters":3600,"station_id":"ce4bh0p2rcd13ifvqd80","pricing_plan_id":"cebpf4jnsgd1na2vs0mg"},{"bike_id":"864830cd-471c-4ae8-8ff1-495934107509","system_id":"levelo_inurba_marseille","lat":43.31902,"lon":5.40758,"is_reserved":false,"is_disabled":true,"rental_uris":{"android":"levelo://app?vid=864830cd-471c-4ae8-8ff1-495934107509","ios":"levelo://app?vid=864830cd-471c-4ae8-8ff1-495934107509"},"vehicle_type_id":"4","last_reported":1752208113,"current_range_meters":4000,"station_id":"ce4bhq12rcd13ifvqhig","pricing_plan_id":"cebpf4jnsgd1na2vs0mg"},{"bike_id":"932f6c17-d8ad-4ae5-875b-ed8305db134e","system_id":"levelo_inurba_marseille","lat":43.29692,"lon":5.37295,"is_reserved":false,"is_disabled":false,"rental_uris":{"android":"levelo://app?vid=932f6c17-d8ad-4ae5-875b-ed8305db134e","ios":"levelo://app?vid=932f6c17-d8ad-4ae5-875b-ed8305db134e"},"vehicle_type_id":"4","last_reported":1752208113,"current_range_meters":4400,"station_id":"ce4bgk12rcd13ifvqbj0","pricing_plan_id":"cebpf4jnsgd1na2vs0mg"},{"bike_id":"ec4ab4bc-9875-4b0f-8000-a698aff90c89","system_id":"levelo_inurba_marseille","lat":43.29284,"lon":5.40137,"is_reserved":false,"is_disabled":false,"rental_uris":{"android":"levelo://app?vid=ec4ab4bc-9875-4b0f-8000-a698aff90c89","ios":"levelo://app?vid=ec4ab4bc-9875-4b0f-8000-a698aff90c89"},"vehicle_type_id":"4","last_reported":1752208113,"current_range_meters":4000,"station_id":"ce4bh312rcd13ifvqdk0","pricing_plan_id":"cebpf4jnsgd1na2vs0mg"},{"bike_id":"eafc038e-feaf-4fe9-b765-5f7700c48ba6","system_id":"levelo_inurba_marseille","lat":43.284913,"lon":5.385599,"is_reserved":false,"is_disabled":false,"rental_uris":{"android":"levelo://app?vid=eafc038e-feaf-4fe9-b765-5f7700c48ba6","ios":"levelo://app?vid=eafc038e-feaf-4fe9-b765-5f7700c48ba6"},"vehicle_type_id":"4","last_reported":1752208113,"current_range_meters":4800,"station_id":"ce4bh8p2rcd13ifvqeb0","pricing_plan_id":"cebpf4jnsgd1na2vs0mg"},{"bike_id":"07e8d91f-63a3-4099-9dae-2f056edd79fa","system_id":"levelo_inurba_marseille","lat":43.24648,"lon":5.38891,"is_reserved":false,"is_disabled":false,"rental_uris":{"android":"levelo://app?vid=07e8d91f-63a3-4099-9dae-2f056edd79fa","ios":"levelo://app?vid=07e8d91f-63a3-4099-9dae-2f056edd79fa"},"vehicle_type_id":"4","last_reported":1752208113,"current_range_meters":4800,"station_id":"ce4bhg12rcd13ifvqf60","pricing_plan_id":"cebpf4jnsgd1na2vs0mg"},{"bike_id":"b8d6bf6b-ecbb-4c40-8ce7-0169ef070b49","system_id":"levelo_inurba_marseille","lat":43.29566,"lon":5.37403,"is_reserved":false,"is_disabled":false,"rental_uris":{"android":"levelo://app?vid=b8d6bf6b-ecbb-4c40-8ce7-0169ef070b49","ios":"levelo://app?vid=b8d6bf6b-ecbb-4c40-8ce7-0169ef070b49"},"vehicle_type_id":"4","last_reported":1752208113,"current_range_meters":5600,"station_id":"","pricing_plan_id":"cebpf4jnsgd1na2vs0mg"},{"bike_id":"f8850064-2102-4305-b524-c3781d9e22a1","system_id":"levelo_inurba_marseille","lat":43.2886,"lon":5.38451,"is_reserved":false,"is_disabled":false,"rental_uris":{"android":"levelo://app?vid=f8850064-2102-4305-b524-c3781d9e22a1","ios":"levelo://app?vid=f8850064-2102-4305-b524-c3781d9e22a1"},"vehicle_type_id":"4","last_reported":1752208113,"current_range_meters":5600,"station_id":"","pricing_plan_id":"cebpf4jnsgd1na2vs0mg"},{"bike_id":"465311c1-045f-44ba-b771-120d9f8056f3","system_id":"levelo_inurba_marseille","lat":43.29718,"lon":5.37673,"is_reserved":false,"is_disabled":false,"rental_uris":{"android":"levelo://app?vid=465311c1-045f-44ba-b771-120d9f8056f3","ios":"levelo://app?vid=465311c1-045f-44ba-b771-120d9f8056f3"},"vehicle_type_id":"4","last_reported":1752208113,"current_range_meters":5600,"station_id":"ce4bgkh2rcd13ifvqbl0","pricing_plan_id":"cebpf4jnsgd1na2vs0mg"},{"bike_id":"2af275ac-2d57-4111-8110-d69f6b3c891a","system_id":"levelo_inurba_marseille","lat":43.30595,"lon":5.3935,"is_reserved":false,"is_disabled":false,"rental_uris":{"android":"levelo://app?vid=2af275ac-2d57-4111-8110-d69f6b3c891a","ios":"levelo://app?vid=2af275ac-2d57-4111-8110-d69f6b3c891a"},"vehicle_type_id":"4","last_reported":1752208113,"current_range_meters":6400,"station_id":"ce4bh0p2rcd13ifvqd80","pricing_plan_id":"cebpf4jnsgd1na2vs0mg"},{"bike_id":"18a3cb15-d329-450f-b9ad-69f534daf986","system_id":"levelo_inurba_marseille","lat":43.28613,"lon":5.3706,"is_reserved":false,"is_disabled":false,"rental_uris":{"android":"levelo://app?vid=18a3cb15-d329-450f-b9ad-69f534daf986","ios":"levelo://app?vid=18a3cb15-d329-450f-b9ad-69f534daf986"},"vehicle_type_id":"4","last_reported":1752208113,"current_range_meters":6400,"station_id":"ce4bht12rcd13ifvqi60","pricing_plan_id":"cebpf4jnsgd1na2vs0mg"},{"bike_id":"2bd2509c-8e69-46fb-904c-1c65a6340b60","system_id":"levelo_inurba_marseille","lat":43.21754,"lon":5.346157,"is_reserved":false,"is_disabled":true,"rental_uris":{"android":"levelo://app?vid=2bd2509c-8e69-46fb-904c-1c65a6340b60","ios":"levelo://app?vid=2bd2509c-8e69-46fb-904c-1c65a6340b60"},"vehicle_type_id":"4","last_reported":1752208113,"current_range_meters":6400,"station_id":"st_cvj6r9ubvosntc0bgbag","pricing_plan_id":"cebpf4jnsgd1na2vs0mg"},{"bike_id":"ba480b1d-fbef-4d54-9bb0-c2fa8b787212","system_id":"levelo_inurba_marseille","lat":43.211902,"lon":5.350909,"is_reserved":false,"is_disabled":false,"rental_uris":{"android":"levelo://app?vid=ba480b1d-fbef-4d54-9bb0-c2fa8b787212","ios":"levelo://app?vid=ba480b1d-fbef-4d54-9bb0-c2fa8b787212"},"vehicle_type_id":"4","last_reported":1752208113,"current_range_meters":6800,"station_id":"st_cvj6sg6p6f1abm77japg","pricing_plan_id":"cebpf4jnsgd1na2vs0mg"},{"bike_id":"9fa6549e-f087-4846-a5aa-71ed52d46bd8","system_id":"levelo_inurba_marseille","lat":43.28101,"lon":5.37823,"is_reserved":false,"is_disabled":false,"rental_uris":{"android":"levelo://app?vid=9fa6549e-f087-4846-a5aa-71ed52d46bd8","ios":"levelo://app?vid=9fa6549e-f087-4846-a5aa-71ed52d46bd8"},"vehicle_type_id":"4","last_reported":1752208113,"current_range_meters":6800,"station_id":"ce4bha12rcd13ifvqee0","pricing_plan_id":"cebpf4jnsgd1na2vs0mg"},{"bike_id":"7eb03fa5-e8e4-44f0-b16f-eaa66705fa85","system_id":"levelo_inurba_marseille","lat":43.336122,"lon":5.410294,"is_reserved":false,"is_disabled":false,"rental_uris":{"android":"levelo://app?vid=7eb03fa5-e8e4-44f0-b16f-eaa66705fa85","ios":"levelo://app?vid=7eb03fa5-e8e4-44f0-b16f-eaa66705fa85"},"vehicle_type_id":"4","last_reported":1752208113,"current_range_meters":6800,"station_id":"ce4bhqh2rcd13ifvqhmg","pricing_plan_id":"cebpf4jnsgd1na2vs0mg"},{"bike_id":"3108e78c-759c-4d11-b361-5abb833e983c","system_id":"levelo_inurba_marseille","lat":43.28865,"lon":5.39399,"is_reserved":false,"is_disabled":false,"rental_uris":{"android":"levelo://app?vid=3108e78c-759c-4d11-b361-5abb833e983c","ios":"levelo://app?vid=3108e78c-759c-4d11-b361-5abb833e983c"},"vehicle_type_id":"4","last_reported":1752208113,"current_range_meters":7200,"station_id":"","pricing_plan_id":"cebpf4jnsgd1na2vs0mg"},{"bike_id":"c9ec8264-b1f7-41db-a127-5dfa02fc980f","system_id":"levelo_inurba_marseille","lat":43.31568,"lon":5.40175,"is_reserved":false,"is_disabled":false,"rental_uris":{"android":"levelo://app?vid=c9ec8264-b1f7-41db-a127-5dfa02fc980f","ios":"levelo://app?vid=c9ec8264-b1f7-41db-a127-5dfa02fc980f"},"vehicle_type_id":"4","last_reported":1752208113,"current_range_meters":7200,"station_id":"","pricing_plan_id":"cebpf4jnsgd1na2vs0mg"},{"bike_id":"56d4fdaf-ae4c-4003-8a74-738d4b9be60f","system_id":"levelo_inurba_marseille","lat":43.28717,"lon":5.39986,"is_reserved":false,"is_disabled":true,"rental_uris":{"android":"levelo://app?vid=56d4fdaf-ae4c-4003-8a74-738d4b9be60f","ios":"levelo://app?vid=56d4fdaf-ae4c-4003-8a74-738d4b9be60f"},"vehicle_type_id":"4","last_reported":1752208113,"current_range_meters":8000,"station_id":"ce4bho92rcd13ifvqh3g","pricing_plan_id":"cebpf4jnsgd1na2vs0mg"},{"bike_id":"b2caa530-bb19-4cc6-a6bd-61e3e1d7432e","system_id":"levelo_inurba_marseille","lat":43.33763,"lon":5.37461,"is_reserved":false,"is_disabled":false,"rental_uris":{"android":"levelo://app?vid=b2caa530-bb19-4cc6-a6bd-61e3e1d7432e","ios":"levelo://app?vid=b2caa530-bb19-4cc6-a6bd-61e3e1d7432e"},"vehicle_type_id":"4","last_reported":1752208113,"current_range_meters":8000,"station_id":"","pricing_plan_id":"cebpf4jnsgd1na2vs0mg"},{"bike_id":"6e5c2657-ccb8-4153-8b94-2143bc427a03","system_id":"levelo_inurba_marseille","lat":43.225093,"lon":5.347751,"is_reserved":false,"is_disabled":false,"rental_uris":{"android":"levelo://app?vid=6e5c2657-ccb8-4153-8b94-2143bc427a03","ios":"levelo://app?vid=6e5c2657-ccb8-4153-8b94-2143bc427a03"},"vehicle_type_id":"4","last_reported":1752208113,"current_range_meters":8000,"station_id":"st_cvj5dfep6f1abm77gieg","pricing_plan_id":"cebpf4jnsgd1na2vs0mg"},{"bike_id":"2a3b510a-2dd9-48bf-9477-dc291faf8f79","system_id":"levelo_inurba_marseille","lat":43.28701,"lon":5.40002,"is_reserved":false,"is_disabled":false,"rental_uris":{"android":"levelo://app?vid=2a3b510a-2dd9-48bf-9477-dc291faf8f79","ios":"levelo://app?vid=2a3b510a-2dd9-48bf-9477-dc291faf8f79"},"vehicle_type_id":"4","last_reported":1752208113,"current_range_meters":8000,"station_id":"ce4bho92rcd13ifvqh3g","pricing_plan_id":"cebpf4jnsgd1na2vs0mg"},{"bike_id":"21ae54b9-7375-4101-b8a7-bff9d6e1fa32","system_id":"levelo_inurba_marseille","lat":43.30004,"lon":5.37586,"is_reserved":false,"is_disabled":false,"rental_uris":{"android":"levelo://app?vid=21ae54b9-7375-4101-b8a7-bff9d6e1fa32","ios":"levelo://app?vid=21ae54b9-7375-4101-b8a7-bff9d6e1fa32"},"vehicle_type_id":"4","last_reported":1752208113,"current_range_meters":8400,"station_id":"","pricing_plan_id":"cebpf4jnsgd1na2vs0mg"},{"bike_id":"b757ffbb-2b71-4330-9f60-5f8a9d46d16e","system_id":"levelo_inurba_marseille","lat":43.2965,"lon":5.371374,"is_reserved":false,"is_disabled":false,"rental_uris":{"android":"levelo://app?vid=b757ffbb-2b71-4330-9f60-5f8a9d46d16e","ios":"levelo://app?vid=b757ffbb-2b71-4330-9f60-5f8a9d46d16e"},"vehicle_type_id":"4","last_reported":1752208113,"current_range_meters":8400,"station_id":"","pricing_plan_id":"cebpf4jnsgd1na2vs0mg"},{"bike_id":"f66de5d1-522c-4fbe-b3c1-9a76f59c1793","system_id":"levelo_inurba_marseille","lat":43.30329,"lon":5.40441,"is_reserved":false,"is_disabled":false,"rental_uris":{"android":"levelo://app?vid=f66de5d1-522c-4fbe-b3c1-9a76f59c1793","ios":"levelo://app?vid=f66de5d1-522c-4fbe-b3c1-9a76f59c1793"},"vehicle_type_id":"4","last_reported":1752208113,"current_range_meters":8400,"station_id":"ce4bh012rcd13ifvqd10","pricing_plan_id":"cebpf4jnsgd1na2vs0mg"},{"bike_id":"8e3258b7-090e-494d-bf87-dc77e065cdb5","system_id":"levelo_inurba_marseille","lat":43.32478,"lon":5.36557,"is_reserved":false,"is_disabled":false,"rental_uris":{"android":"levelo://app?vid=8e3258b7-090e-494d-bf87-dc77e065cdb5","ios":"levelo://app?vid=8e3258b7-090e-494d-bf87-dc77e065cdb5"},"vehicle_type_id":"4","last_reported":1752208113,"current_range_meters":8400,"station_id":"ce4bhs12rcd13ifvqhvg","pricing_plan_id":"cebpf4jnsgd1na2vs0mg"},{"bike_id":"1e8e5fc4-1d81-419c-bb6b-508f86b979e4","system_id":"levelo_inurba_marseille","lat":43.305936,"lon":5.372349,"is_reserved":false,"is_disabled":true,"rental_uris":{"android":"levelo://app?vid=1e8e5fc4-1d81-419c-bb6b-508f86b979e4","ios":"levelo://app?vid=1e8e5fc4-1d81-419c-bb6b-508f86b979e4"},"vehicle_type_id":"4","last_reported":1752208113,"current_range_meters":8800,"station_id":"ce4bgqh2rcd13ifvqc4g","pricing_plan_id":"cebpf4jnsgd1na2vs0mg"},{"bike_id":"52d88166-71f3-4f74-aaa5-57426b762d6e","system_id":"levelo_inurba_marseille","lat":43.30971,"lon":5.39053,"is_reserved":false,"is_disabled":true,"rental_uris":{"android":"levelo://app?vid=52d88166-71f3-4f74-aaa5-57426b762d6e","ios":"levelo://app?vid=52d88166-71f3-4f74-aaa5-57426b762d6e"},"vehicle_type_id":"4","last_reported":1752208113,"current_range_meters":8800,"station_id":"ce4bgup2rcd13ifvqco0","pricing_plan_id":"cebpf4jnsgd1na2vs0mg"},{"bike_id":"833f97ec-e704-4051-ab3b-2e9eb58f71d0","system_id":"levelo_inurba_marseille","lat":43.30255,"lon":5.37556,"is_reserved":false,"is_disabled":false,"rental_uris":{"android":"levelo://app?vid=833f97ec-e704-4051-ab3b-2e9eb58f71d0","ios":"levelo://app?vid=833f97ec-e704-4051-ab3b-2e9eb58f71d0"},"vehicle_type_id":"4","last_reported":1752208113,"current_range_meters":8800,"station_id":"","pricing_plan_id":"cebpf4jnsgd1na2vs0mg"},{"bike_id":"311503ae-4643-4dd6-97a0-450f82109f95","system_id":"levelo_inurba_marseille","lat":43.28655,"lon":5.36355,"is_reserved":false,"is_disabled":false,"rental_uris":{"android":"levelo://app?vid=311503ae-4643-4dd6-97a0-450f82109f95","ios":"levelo://app?vid=311503ae-4643-4dd6-97a0-450f82109f95"},"vehicle_type_id":"4","last_reported":1752208113,"current_range_meters":8800,"station_id":"ce4bhah2rcd13ifvqej0","pricing_plan_id":"cebpf4jnsgd1na2vs0mg"},{"bike_id":"292a7bbd-04a1-45b6-b833-4f27a695e5d3","system_id":"levelo_inurba_marseille","lat":43.286995,"lon":5.399897,"is_reserved":false,"is_disabled":false,"rental_uris":{"android":"levelo://app?vid=292a7bbd-04a1-45b6-b833-4f27a695e5d3","ios":"levelo://app?vid=292a7bbd-04a1-45b6-b833-4f27a695e5d3"},"vehicle_type_id":"4","last_reported":1752208113,"current_range_meters":9200,"station_id":"ce4bho92rcd13ifvqh3g","pricing_plan_id":"cebpf4jnsgd1na2vs0mg"},{"bike_id":"7c62ad67-1ca5-47af-a06f-570a871bd8d2","system_id":"levelo_inurba_marseille","lat":43.29869,"lon":5.39759,"is_reserved":false,"is_disabled":false,"rental_uris":{"android":"levelo://app?vid=7c62ad67-1ca5-47af-a06f-570a871bd8d2","ios":"levelo://app?vid=7c62ad67-1ca5-47af-a06f-570a871bd8d2"},"vehicle_type_id":"4","last_reported":1752208113,"current_range_meters":9200,"station_id":"ce4bh0h2rcd13ifvqd50","pricing_plan_id":"cebpf4jnsgd1na2vs0mg"},{"bike_id":"a697cf44-a091-426c-8859-336458356474","system_id":"levelo_inurba_marseille","lat":43.292757,"lon":5.401211,"is_reserved":false,"is_disabled":false,"rental_uris":{"android":"levelo://app?vid=a697cf44-a091-426c-8859-336458356474","ios":"levelo://app?vid=a697cf44-a091-426c-8859-336458356474"},"vehicle_type_id":"4","last_reported":1752208113,"current_range_meters":9600,"station_id":"ce4bh312rcd13ifvqdk0","pricing_plan_id":"cebpf4jnsgd1na2vs0mg"},{"bike_id":"c38433ba-7cad-44e1-b7d9-627e46e5076f","system_id":"levelo_inurba_marseille","lat":43.291868,"lon":5.393199,"is_reserved":false,"is_disabled":false,"rental_uris":{"android":"levelo://app?vid=c38433ba-7cad-44e1-b7d9-627e46e5076f","ios":"levelo://app?vid=c38433ba-7cad-44e1-b7d9-627e46e5076f"},"vehicle_type_id":"4","last_reported":1752208113,"current_range_meters":9600,"station_id":"ce4bh192rcd13ifvqdd0","pricing_plan_id":"cebpf4jnsgd1na2vs0mg"},{"bike_id":"92b21758-9711-46e9-b785-20d1c61b8b2e","system_id":"levelo_inurba_marseille","lat":43.296162,"lon":5.376945,"is_reserved":false,"is_disabled":false,"rental_uris":{"android":"levelo://app?vid=92b21758-9711-46e9-b785-20d1c61b8b2e","ios":"levelo://app?vid=92b21758-9711-46e9-b785-20d1c61b8b2e"},"vehicle_type_id":"4","last_reported":1752208113,"current_range_meters":10000,"station_id":"","pricing_plan_id":"cebpf4jnsgd1na2vs0mg"},{"bike_id":"eab7127a-2d0e-409a-b2f8-d3808d090eb9","system_id":"levelo_inurba_marseille","lat":43.336184,"lon":5.410479,"is_reserved":false,"is_disabled":false,"rental_uris":{"android":"levelo://app?vid=eab7127a-2d0e-409a-b2f8-d3808d090eb9","ios":"levelo://app?vid=eab7127a-2d0e-409a-b2f8-d3808d090eb9"},"vehicle_type_id":"4","last_reported":1752208113,"current_range_meters":10000,"station_id":"ce4bhqh2rcd13ifvqhmg","pricing_plan_id":"cebpf4jnsgd1na2vs0mg"},{"bike_id":"35767a1c-90b0-4894-9794-94a26f477291","system_id":"levelo_inurba_marseille","lat":43.3081,"lon":5.38153,"is_reserved":false,"is_disabled":false,"rental_uris":{"android":"levelo://app?vid=35767a1c-90b0-4894-9794-94a26f477291","ios":"levelo://app?vid=35767a1c-90b0-4894-9794-94a26f477291"},"vehicle_type_id":"4","last_reported":1752208113,"current_range_meters":10000,"station_id":"ce4bgt12rcd13ifvqce0","pricing_plan_id":"cebpf4jnsgd1na2vs0mg"},{"bike_id":"892867f7-e98d-42c5-a738-2883935fb499","system_id":"levelo_inurba_marseille","lat":43.28707,"lon":5.39962,"is_reserved":false,"is_disabled":false,"rental_uris":{"android":"levelo://app?vid=892867f7-e98d-42c5-a738-2883935fb499","ios":"levelo://app?vid=892867f7-e98d-42c5-a738-2883935fb499"},"vehicle_type_id":"4","last_reported":1752208113,"current_range_meters":10000,"station_id":"ce4bho92rcd13ifvqh3g","pricing_plan_id":"cebpf4jnsgd1na2vs0mg"},{"bike_id":"d4fef870-f3df-418c-b45a-632453acc9ad","system_id":"levelo_inurba_marseille","lat":43.22505,"lon":5.34785,"is_reserved":false,"is_disabled":false,"rental_uris":{"android":"levelo://app?vid=d4fef870-f3df-418c-b45a-632453acc9ad","ios":"levelo://app?vid=d4fef870-f3df-418c-b45a-632453acc9ad"},"vehicle_type_id":"4","last_reported":1752208113,"current_range_meters":10000,"station_id":"st_cvj5dfep6f1abm77gieg","pricing_plan_id":"cebpf4jnsgd1na2vs0mg"},{"bike_id":"feaa7e3a-cbe4-4489-be11-8a12d7eec173","system_id":"levelo_inurba_marseille","lat":43.251694,"lon":5.424877,"is_reserved":false,"is_disabled":true,"rental_uris":{"android":"levelo://app?vid=feaa7e3a-cbe4-4489-be11-8a12d7eec173","ios":"levelo://app?vid=feaa7e3a-cbe4-4489-be11-8a12d7eec173"},"vehicle_type_id":"4","last_reported":1752208113,"current_range_meters":10000,"station_id":"","pricing_plan_id":"cebpf4jnsgd1na2vs0mg"},{"bike_id":"e204274b-73ad-4c6f-862d-8af730ce2e2b","system_id":"levelo_inurba_marseille","lat":43.295556,"lon":5.422818,"is_reserved":false,"is_disabled":false,"rental_uris":{"android":"levelo://app?vid=e204274b-73ad-4c6f-862d-8af730ce2e2b","ios":"levelo://app?vid=e204274b-73ad-4c6f-862d-8af730ce2e2b"},"vehicle_type_id":"4","last_reported":1752208113,"current_range_meters":10000,"station_id":"ce4bhph2rcd13ifvqhdg","pricing_plan_id":"cebpf4jnsgd1na2vs0mg"},{"bike_id":"617e783f-a9d7-4849-ad46-77a5a2df45f2","system_id":"levelo_inurba_marseille","lat":43.295883,"lon":5.374954,"is_reserved":false,"is_disabled":true,"rental_uris":{"android":"levelo://app?vid=617e783f-a9d7-4849-ad46-77a5a2df45f2","ios":"levelo://app?vid=617e783f-a9d7-4849-ad46-77a5a2df45f2"},"vehicle_type_id":"4","last_reported":1752208113,"current_range_meters":10800,"station_id":"ce4bgh92rcd13ifvqb50","pricing_plan_id":"cebpf4jnsgd1na2vs0mg"},{"bike_id":"4219dc9e-d68a-4db5-be04-672170e39d02","system_id":"levelo_inurba_marseille","lat":43.28411,"lon":5.3751,"is_reserved":false,"is_disabled":false,"rental_uris":{"android":"levelo://app?vid=4219dc9e-d68a-4db5-be04-672170e39d02","ios":"levelo://app?vid=4219dc9e-d68a-4db5-be04-672170e39d02"},"vehicle_type_id":"4","last_reported":1752208113,"current_range_meters":10800,"station_id":"ce4bh412rcd13ifvqds0","pricing_plan_id":"cebpf4jnsgd1na2vs0mg"},{"bike_id":"73fe94e8-74f9-41f0-85e9-7d8c52adf2fc","system_id":"levelo_inurba_marseille","lat":43.212621,"lon":5.352908,"is_reserved":false,"is_disabled":false,"rental_uris":{"android":"levelo://app?vid=73fe94e8-74f9-41f0-85e9-7d8c52adf2fc","ios":"levelo://app?vid=73fe94e8-74f9-41f0-85e9-7d8c52adf2fc"},"vehicle_type_id":"4","last_reported":1752208113,"current_range_meters":10800,"station_id":"","pricing_plan_id":"cebpf4jnsgd1na2vs0mg"},{"bike_id":"2d770725-67ca-4330-bd6e-642a0ad20097","system_id":"levelo_inurba_marseille","lat":43.31682,"lon":5.40493,"is_reserved":false,"is_disabled":false,"rental_uris":{"android":"levelo://app?vid=2d770725-67ca-4330-bd6e-642a0ad20097","ios":"levelo://app?vid=2d770725-67ca-4330-bd6e-642a0ad20097"},"vehicle_type_id":"4","last_reported":1752208113,"current_range_meters":10800,"station_id":"ce4bh012rcd13ifvqd00","pricing_plan_id":"cebpf4jnsgd1na2vs0mg"},{"bike_id":"67af2fe7-f535-4afe-8f2e-b36dad8bb280","system_id":"levelo_inurba_marseille","lat":43.28499,"lon":5.38613,"is_reserved":false,"is_disabled":false,"rental_uris":{"android":"levelo://app?vid=67af2fe7-f535-4afe-8f2e-b36dad8bb280","ios":"levelo://app?vid=67af2fe7-f535-4afe-8f2e-b36dad8bb280"},"vehicle_type_id":"4","last_reported":1752208113,"current_range_meters":10800,"station_id":"ce4bh8p2rcd13ifvqeb0","pricing_plan_id":"cebpf4jnsgd1na2vs0mg"},{"bike_id":"9ba559f9-bf26-4b8e-8ce9-3c3bcae8f1ab","system_id":"levelo_inurba_marseille","lat":43.30253,"lon":5.40059,"is_reserved":false,"is_disabled":false,"rental_uris":{"android":"levelo://app?vid=9ba559f9-bf26-4b8e-8ce9-3c3bcae8f1ab","ios":"levelo://app?vid=9ba559f9-bf26-4b8e-8ce9-3c3bcae8f1ab"},"vehicle_type_id":"4","last_reported":1752208113,"current_range_meters":10800,"station_id":"ce4bgvh2rcd13ifvqcs0","pricing_plan_id":"cebpf4jnsgd1na2vs0mg"},{"bike_id":"ea7f713a-f8eb-4f16-8168-36d2161084e8","system_id":"levelo_inurba_marseille","lat":43.27863,"lon":5.39474,"is_reserved":false,"is_disabled":false,"rental_uris":{"android":"levelo://app?vid=ea7f713a-f8eb-4f16-8168-36d2161084e8","ios":"levelo://app?vid=ea7f713a-f8eb-4f16-8168-36d2161084e8"},"vehicle_type_id":"4","last_reported":1752208113,"current_range_meters":10800,"station_id":"","pricing_plan_id":"cebpf4jnsgd1na2vs0mg"},{"bike_id":"327c05a0-88d6-46d5-829f-37056c043786","system_id":"levelo_inurba_marseille","lat":43.30144,"lon":5.39867,"is_reserved":false,"is_disabled":true,"rental_uris":{"android":"levelo://app?vid=327c05a0-88d6-46d5-829f-37056c043786","ios":"levelo://app?vid=327c05a0-88d6-46d5-829f-37056c043786"},"vehicle_type_id":"4","last_reported":1752208113,"current_range_meters":10800,"station_id":"ce4bh0h2rcd13ifvqd40","pricing_plan_id":"cebpf4jnsgd1na2vs0mg"},{"bike_id":"e7db2929-97fe-4aab-9211-5e49aa62f6e5","system_id":"levelo_inurba_marseille","lat":43.30227,"lon":5.40056,"is_reserved":false,"is_disabled":false,"rental_uris":{"android":"levelo://app?vid=e7db2929-97fe-4aab-9211-5e49aa62f6e5","ios":"levelo://app?vid=e7db2929-97fe-4aab-9211-5e49aa62f6e5"},"vehicle_type_id":"4","last_reported":1752208113,"current_range_meters":10800,"station_id":"","pricing_plan_id":"cebpf4jnsgd1na2vs0mg"},{"bike_id":"95ed45be-0cbe-4ada-ab9b-3d6fe6e0c22e","system_id":"levelo_inurba_marseille","lat":43.27617,"lon":5.36129,"is_reserved":false,"is_disabled":true,"rental_uris":{"android":"levelo://app?vid=95ed45be-0cbe-4ada-ab9b-3d6fe6e0c22e","ios":"levelo://app?vid=95ed45be-0cbe-4ada-ab9b-3d6fe6e0c22e"},"vehicle_type_id":"4","last_reported":1752208113,"current_range_meters":10800,"station_id":"ce4bgj92rcd13ifvqbe0","pricing_plan_id":"cebpf4jnsgd1na2vs0mg"},{"bike_id":"ddb9be4f-f3f8-43f9-aa75-a62ae12dac83","system_id":"levelo_inurba_marseille","lat":43.29042,"lon":5.39968,"is_reserved":false,"is_disabled":true,"rental_uris":{"android":"levelo://app?vid=ddb9be4f-f3f8-43f9-aa75-a62ae12dac83","ios":"levelo://app?vid=ddb9be4f-f3f8-43f9-aa75-a62ae12dac83"},"vehicle_type_id":"4","last_reported":1752208113,"current_range_meters":11200,"station_id":"ce4bh392rcd13ifvqdm0","pricing_plan_id":"cebpf4jnsgd1na2vs0mg"},{"bike_id":"6fa0df8f-9ff1-40c3-a15b-344b5a0d383b","system_id":"levelo_inurba_marseille","lat":43.323586,"lon":5.36762,"is_reserved":false,"is_disabled":false,"rental_uris":{"android":"levelo://app?vid=6fa0df8f-9ff1-40c3-a15b-344b5a0d383b","ios":"levelo://app?vid=6fa0df8f-9ff1-40c3-a15b-344b5a0d383b"},"vehicle_type_id":"4","last_reported":1752208113,"current_range_meters":11200,"station_id":"ce4bhsh2rcd13ifvqi2g","pricing_plan_id":"cebpf4jnsgd1na2vs0mg"},{"bike_id":"f373e4a8-33e3-4f72-ae8e-e7ab386910f4","system_id":"levelo_inurba_marseille","lat":43.22523,"lon":5.34753,"is_reserved":false,"is_disabled":false,"rental_uris":{"android":"levelo://app?vid=f373e4a8-33e3-4f72-ae8e-e7ab386910f4","ios":"levelo://app?vid=f373e4a8-33e3-4f72-ae8e-e7ab386910f4"},"vehicle_type_id":"4","last_reported":1752208113,"current_range_meters":11200,"station_id":"st_cvj5dfep6f1abm77gieg","pricing_plan_id":"cebpf4jnsgd1na2vs0mg"},{"bike_id":"2e061a92-5246-48ad-923b-302c6d81a7a4","system_id":"levelo_inurba_marseille","lat":43.250883,"lon":5.39521,"is_reserved":false,"is_disabled":false,"rental_uris":{"android":"levelo://app?vid=2e061a92-5246-48ad-923b-302c6d81a7a4","ios":"levelo://app?vid=2e061a92-5246-48ad-923b-302c6d81a7a4"},"vehicle_type_id":"4","last_reported":1752208113,"current_range_meters":11200,"station_id":"ce4bhm12rcd13ifvqgkg","pricing_plan_id":"cebpf4jnsgd1na2vs0mg"},{"bike_id":"7c2d071d-3793-47df-b931-9d1ad060c48c","system_id":"levelo_inurba_marseille","lat":43.29549,"lon":5.422815,"is_reserved":false,"is_disabled":false,"rental_uris":{"android":"levelo://app?vid=7c2d071d-3793-47df-b931-9d1ad060c48c","ios":"levelo://app?vid=7c2d071d-3793-47df-b931-9d1ad060c48c"},"vehicle_type_id":"4","last_reported":1752208113,"current_range_meters":11200,"station_id":"ce4bhph2rcd13ifvqhdg","pricing_plan_id":"cebpf4jnsgd1na2vs0mg"},{"bike_id":"bce4d987-668d-4f98-bde7-e1579dd4366b","system_id":"levelo_inurba_marseille","lat":43.312779,"lon":5.401738,"is_reserved":false,"is_disabled":false,"rental_uris":{"android":"levelo://app?vid=bce4d987-668d-4f98-bde7-e1579dd4366b","ios":"levelo://app?vid=bce4d987-668d-4f98-bde7-e1579dd4366b"},"vehicle_type_id":"4","last_reported":1752208113,"current_range_meters":11200,"station_id":"ce4bh092rcd13ifvqd30","pricing_plan_id":"cebpf4jnsgd1na2vs0mg"},{"bike_id":"e9b76731-5231-4660-9aec-8e72181f2310","system_id":"levelo_inurba_marseille","lat":43.292647,"lon":5.409036,"is_reserved":false,"is_disabled":false,"rental_uris":{"android":"levelo://app?vid=e9b76731-5231-4660-9aec-8e72181f2310","ios":"levelo://app?vid=e9b76731-5231-4660-9aec-8e72181f2310"},"vehicle_type_id":"4","last_reported":1752208113,"current_range_meters":11200,"station_id":"ce4bh192rcd13ifvqdc0","pricing_plan_id":"cebpf4jnsgd1na2vs0mg"},{"bike_id":"bb0ac2b9-78c4-44ae-8dd0-c4794fb71e61","system_id":"levelo_inurba_marseille","lat":43.283661,"lon":5.386417,"is_reserved":false,"is_disabled":true,"rental_uris":{"android":"levelo://app?vid=bb0ac2b9-78c4-44ae-8dd0-c4794fb71e61","ios":"levelo://app?vid=bb0ac2b9-78c4-44ae-8dd0-c4794fb71e61"},"vehicle_type_id":"4","last_reported":1752208113,"current_range_meters":11200,"station_id":"ce4bh492rcd13ifvqdvg","pricing_plan_id":"cebpf4jnsgd1na2vs0mg"},{"bike_id":"bca04ca1-6bb8-405a-b33b-f36688d1a725","system_id":"levelo_inurba_marseille","lat":43.28948,"lon":5.36385,"is_reserved":false,"is_disabled":true,"rental_uris":{"android":"levelo://app?vid=bca04ca1-6bb8-405a-b33b-f36688d1a725","ios":"levelo://app?vid=bca04ca1-6bb8-405a-b33b-f36688d1a725"},"vehicle_type_id":"4","last_reported":1752208113,"current_range_meters":11600,"station_id":"ce4bhc92rcd13ifvqetg","pricing_plan_id":"cebpf4jnsgd1na2vs0mg"},{"bike_id":"0ebb13e9-2e7c-44b0-be40-97b694da3cf0","system_id":"levelo_inurba_marseille","lat":43.26234,"lon":5.40435,"is_reserved":false,"is_disabled":false,"rental_uris":{"android":"levelo://app?vid=0ebb13e9-2e7c-44b0-be40-97b694da3cf0","ios":"levelo://app?vid=0ebb13e9-2e7c-44b0-be40-97b694da3cf0"},"vehicle_type_id":"4","last_reported":1752208113,"current_range_meters":11600,"station_id":"ce4bhmh2rcd13ifvqgmg","pricing_plan_id":"cebpf4jnsgd1na2vs0mg"},{"bike_id":"eca64889-4724-4f1b-8726-940d84846d38","system_id":"levelo_inurba_marseille","lat":43.26194,"lon":5.374481,"is_reserved":false,"is_disabled":false,"rental_uris":{"android":"levelo://app?vid=eca64889-4724-4f1b-8726-940d84846d38","ios":"levelo://app?vid=eca64889-4724-4f1b-8726-940d84846d38"},"vehicle_type_id":"4","last_reported":1752208113,"current_range_meters":11600,"station_id":"","pricing_plan_id":"cebpf4jnsgd1na2vs0mg"},{"bike_id":"6644f5d6-ed04-463b-b0a4-e2a13dd208a7","system_id":"levelo_inurba_marseille","lat":43.29629,"lon":5.40606,"is_reserved":false,"is_disabled":false,"rental_uris":{"android":"levelo://app?vid=6644f5d6-ed04-463b-b0a4-e2a13dd208a7","ios":"levelo://app?vid=6644f5d6-ed04-463b-b0a4-e2a13dd208a7"},"vehicle_type_id":"4","last_reported":1752208113,"current_range_meters":11600,"station_id":"ce4bh0h2rcd13ifvqd60","pricing_plan_id":"cebpf4jnsgd1na2vs0mg"},{"bike_id":"e755442d-8544-4152-b94a-842e80ebaddd","system_id":"levelo_inurba_marseille","lat":43.24813,"lon":5.37463,"is_reserved":false,"is_disabled":true,"rental_uris":{"android":"levelo://app?vid=e755442d-8544-4152-b94a-842e80ebaddd","ios":"levelo://app?vid=e755442d-8544-4152-b94a-842e80ebaddd"},"vehicle_type_id":"4","last_reported":1752208113,"current_range_meters":11600,"station_id":"ce4bhgh2rcd13ifvqfb0","pricing_plan_id":"cebpf4jnsgd1na2vs0mg"},{"bike_id":"0a0790cf-50a8-48f4-bdbf-28c908058f24","system_id":"levelo_inurba_marseille","lat":43.27148,"lon":5.42192,"is_reserved":false,"is_disabled":false,"rental_uris":{"android":"levelo://app?vid=0a0790cf-50a8-48f4-bdbf-28c908058f24","ios":"levelo://app?vid=0a0790cf-50a8-48f4-bdbf-28c908058f24"},"vehicle_type_id":"4","last_reported":1752208113,"current_range_meters":11600,"station_id":"","pricing_plan_id":"cebpf4jnsgd1na2vs0mg"},{"bike_id":"b3d60eb0-7aa4-4c31-880d-886f21433e0c","system_id":"levelo_inurba_marseille","lat":43.31723,"lon":5.40442,"is_reserved":false,"is_disabled":false,"rental_uris":{"android":"levelo://app?vid=b3d60eb0-7aa4-4c31-880d-886f21433e0c","ios":"levelo://app?vid=b3d60eb0-7aa4-4c31-880d-886f21433e0c"},"vehicle_type_id":"4","last_reported":1752208113,"current_range_meters":11600,"station_id":"","pricing_plan_id":"cebpf4jnsgd1na2vs0mg"},{"bike_id":"5e3de7c8-3182-4a73-8e5c-d4ae2028ef6e","system_id":"levelo_inurba_marseille","lat":43.21757,"lon":5.34596,"is_reserved":false,"is_disabled":false,"rental_uris":{"android":"levelo://app?vid=5e3de7c8-3182-4a73-8e5c-d4ae2028ef6e","ios":"levelo://app?vid=5e3de7c8-3182-4a73-8e5c-d4ae2028ef6e"},"vehicle_type_id":"4","last_reported":1752208113,"current_range_meters":11600,"station_id":"","pricing_plan_id":"cebpf4jnsgd1na2vs0mg"},{"bike_id":"f4d8afa1-8f4d-42c0-b795-8a2d2ea9a8de","system_id":"levelo_inurba_marseille","lat":43.27827,"lon":5.407209,"is_reserved":false,"is_disabled":false,"rental_uris":{"android":"levelo://app?vid=f4d8afa1-8f4d-42c0-b795-8a2d2ea9a8de","ios":"levelo://app?vid=f4d8afa1-8f4d-42c0-b795-8a2d2ea9a8de"},"vehicle_type_id":"4","last_reported":1752208113,"current_range_meters":11600,"station_id":"ce4bhnh2rcd13ifvqgtg","pricing_plan_id":"cebpf4jnsgd1na2vs0mg"},{"bike_id":"9247873e-48c2-4f4f-a7bb-d1bacaf2bcd7","system_id":"levelo_inurba_marseille","lat":43.2846,"lon":5.35894,"is_reserved":false,"is_disabled":true,"rental_uris":{"android":"levelo://app?vid=9247873e-48c2-4f4f-a7bb-d1bacaf2bcd7","ios":"levelo://app?vid=9247873e-48c2-4f4f-a7bb-d1bacaf2bcd7"},"vehicle_type_id":"4","last_reported":1752208113,"current_range_meters":12000,"station_id":"ce4bhah2rcd13ifvqei0","pricing_plan_id":"cebpf4jnsgd1na2vs0mg"},{"bike_id":"279239b3-c162-41b2-ba5e-9ac60a7989aa","system_id":"levelo_inurba_marseille","lat":43.27073,"lon":5.42275,"is_reserved":false,"is_disabled":false,"rental_uris":{"android":"levelo://app?vid=279239b3-c162-41b2-ba5e-9ac60a7989aa","ios":"levelo://app?vid=279239b3-c162-41b2-ba5e-9ac60a7989aa"},"vehicle_type_id":"4","last_reported":1752208113,"current_range_meters":12000,"station_id":"ce4bhk92rcd13ifvqgb0","pricing_plan_id":"cebpf4jnsgd1na2vs0mg"},{"bike_id":"77a895c0-f47c-4ec3-a855-a3289edee2ca","system_id":"levelo_inurba_marseille","lat":43.278249,"lon":5.391991,"is_reserved":false,"is_disabled":true,"rental_uris":{"android":"levelo://app?vid=77a895c0-f47c-4ec3-a855-a3289edee2ca","ios":"levelo://app?vid=77a895c0-f47c-4ec3-a855-a3289edee2ca"},"vehicle_type_id":"4","last_reported":1752208113,"current_range_meters":12000,"station_id":"ce4bhjp2rcd13ifvqga0","pricing_plan_id":"cebpf4jnsgd1na2vs0mg"},{"bike_id":"9f5e74ce-2459-4c6f-a171-f6d1e8a1ed83","system_id":"levelo_inurba_marseille","lat":43.31878,"lon":5.37541,"is_reserved":false,"is_disabled":false,"rental_uris":{"android":"levelo://app?vid=9f5e74ce-2459-4c6f-a171-f6d1e8a1ed83","ios":"levelo://app?vid=9f5e74ce-2459-4c6f-a171-f6d1e8a1ed83"},"vehicle_type_id":"4","last_reported":1752208113,"current_range_meters":12000,"station_id":"","pricing_plan_id":"cebpf4jnsgd1na2vs0mg"},{"bike_id":"7be1ec9c-88c8-43b7-8e14-415f1785bb42","system_id":"levelo_inurba_marseille","lat":43.31078,"lon":5.37755,"is_reserved":false,"is_disabled":false,"rental_uris":{"android":"levelo://app?vid=7be1ec9c-88c8-43b7-8e14-415f1785bb42","ios":"levelo://app?vid=7be1ec9c-88c8-43b7-8e14-415f1785bb42"},"vehicle_type_id":"4","last_reported":1752208113,"current_range_meters":12000,"station_id":"ce4bgt92rcd13ifvqcg0","pricing_plan_id":"cebpf4jnsgd1na2vs0mg"},{"bike_id":"b39724ab-8ddb-4050-b07e-d47b400966b8","system_id":"levelo_inurba_marseille","lat":43.291941,"lon":5.393142,"is_reserved":false,"is_disabled":false,"rental_uris":{"android":"levelo://app?vid=b39724ab-8ddb-4050-b07e-d47b400966b8","ios":"levelo://app?vid=b39724ab-8ddb-4050-b07e-d47b400966b8"},"vehicle_type_id":"4","last_reported":1752208113,"current_range_meters":12000,"station_id":"ce4bh192rcd13ifvqdd0","pricing_plan_id":"cebpf4jnsgd1na2vs0mg"},{"bike_id":"d3e8264f-5e78-41b8-b5b0-557e389e6623","system_id":"levelo_inurba_marseille","lat":43.31371,"lon":5.37159,"is_reserved":false,"is_disabled":false,"rental_uris":{"android":"levelo://app?vid=d3e8264f-5e78-41b8-b5b0-557e389e6623","ios":"levelo://app?vid=d3e8264f-5e78-41b8-b5b0-557e389e6623"},"vehicle_type_id":"4","last_reported":1752208113,"current_range_meters":12000,"station_id":"","pricing_plan_id":"cebpf4jnsgd1na2vs0mg"},{"bike_id":"971c973f-08b4-4abc-8c65-8438af5991a4","system_id":"levelo_inurba_marseille","lat":43.30325,"lon":5.40449,"is_reserved":false,"is_disabled":false,"rental_uris":{"android":"levelo://app?vid=971c973f-08b4-4abc-8c65-8438af5991a4","ios":"levelo://app?vid=971c973f-08b4-4abc-8c65-8438af5991a4"},"vehicle_type_id":"4","last_reported":1752208113,"current_range_meters":12000,"station_id":"ce4bh012rcd13ifvqd10","pricing_plan_id":"cebpf4jnsgd1na2vs0mg"},{"bike_id":"df7162fe-90e7-4e21-87b8-6c77ef6dbde0","system_id":"levelo_inurba_marseille","lat":43.3137,"lon":5.36718,"is_reserved":false,"is_disabled":false,"rental_uris":{"android":"levelo://app?vid=df7162fe-90e7-4e21-87b8-6c77ef6dbde0","ios":"levelo://app?vid=df7162fe-90e7-4e21-87b8-6c77ef6dbde0"},"vehicle_type_id":"4","last_reported":1752208113,"current_range_meters":12400,"station_id":"ce4bgr92rcd13ifvqc6g","pricing_plan_id":"cebpf4jnsgd1na2vs0mg"},{"bike_id":"bf5f34d1-9a54-4334-8371-03f24f9a7583","system_id":"levelo_inurba_marseille","lat":43.24387,"lon":5.370637,"is_reserved":false,"is_disabled":false,"rental_uris":{"android":"levelo://app?vid=bf5f34d1-9a54-4334-8371-03f24f9a7583","ios":"levelo://app?vid=bf5f34d1-9a54-4334-8371-03f24f9a7583"},"vehicle_type_id":"4","last_reported":1752208113,"current_range_meters":12400,"station_id":"ce4bhhh2rcd13ifvqfk0","pricing_plan_id":"cebpf4jnsgd1na2vs0mg"},{"bike_id":"c07bd1cf-f3fd-4a08-8e34-5b31f9155f97","system_id":"levelo_inurba_marseille","lat":43.31281,"lon":5.40148,"is_reserved":false,"is_disabled":false,"rental_uris":{"android":"levelo://app?vid=c07bd1cf-f3fd-4a08-8e34-5b31f9155f97","ios":"levelo://app?vid=c07bd1cf-f3fd-4a08-8e34-5b31f9155f97"},"vehicle_type_id":"4","last_reported":1752208113,"current_range_meters":12400,"station_id":"ce4bh092rcd13ifvqd30","pricing_plan_id":"cebpf4jnsgd1na2vs0mg"},{"bike_id":"4e209b0c-855f-4b51-8120-2faef8673853","system_id":"levelo_inurba_marseille","lat":43.30606,"lon":5.36888,"is_reserved":false,"is_disabled":false,"rental_uris":{"android":"levelo://app?vid=4e209b0c-855f-4b51-8120-2faef8673853","ios":"levelo://app?vid=4e209b0c-855f-4b51-8120-2faef8673853"},"vehicle_type_id":"4","last_reported":1752208113,"current_range_meters":12400,"station_id":"","pricing_plan_id":"cebpf4jnsgd1na2vs0mg"},{"bike_id":"02531485-2ac4-456b-a216-436aea5642f9","system_id":"levelo_inurba_marseille","lat":43.30922,"lon":5.40159,"is_reserved":false,"is_disabled":false,"rental_uris":{"android":"levelo://app?vid=02531485-2ac4-456b-a216-436aea5642f9","ios":"levelo://app?vid=02531485-2ac4-456b-a216-436aea5642f9"},"vehicle_type_id":"4","last_reported":1752208113,"current_range_meters":12800,"station_id":"ce4bgvp2rcd13ifvqct0","pricing_plan_id":"cebpf4jnsgd1na2vs0mg"},{"bike_id":"12a0a7d5-bd16-4db6-9d97-49b871905ee5","system_id":"levelo_inurba_marseille","lat":43.294424,"lon":5.397536,"is_reserved":false,"is_disabled":false,"rental_uris":{"android":"levelo://app?vid=12a0a7d5-bd16-4db6-9d97-49b871905ee5","ios":"levelo://app?vid=12a0a7d5-bd16-4db6-9d97-49b871905ee5"},"vehicle_type_id":"4","last_reported":1752208113,"current_range_meters":12800,"station_id":"ce4bh3h2rcd13ifvqdo0","pricing_plan_id":"cebpf4jnsgd1na2vs0mg"},{"bike_id":"fb151c7d-47c6-477a-882b-bc952f1c9a8d","system_id":"levelo_inurba_marseille","lat":43.31956,"lon":5.37334,"is_reserved":false,"is_disabled":false,"rental_uris":{"android":"levelo://app?vid=fb151c7d-47c6-477a-882b-bc952f1c9a8d","ios":"levelo://app?vid=fb151c7d-47c6-477a-882b-bc952f1c9a8d"},"vehicle_type_id":"4","last_reported":1752208113,"current_range_meters":12800,"station_id":"","pricing_plan_id":"cebpf4jnsgd1na2vs0mg"},{"bike_id":"a7529180-e6d7-426f-9ba6-3b8292fbe784","system_id":"levelo_inurba_marseille","lat":43.3081,"lon":5.38165,"is_reserved":false,"is_disabled":false,"rental_uris":{"android":"levelo://app?vid=a7529180-e6d7-426f-9ba6-3b8292fbe784","ios":"levelo://app?vid=a7529180-e6d7-426f-9ba6-3b8292fbe784"},"vehicle_type_id":"4","last_reported":1752208113,"current_range_meters":12800,"station_id":"ce4bgt12rcd13ifvqce0","pricing_plan_id":"cebpf4jnsgd1na2vs0mg"},{"bike_id":"720188ea-4d2b-4bb4-8aa3-a46d4667e5c3","system_id":"levelo_inurba_marseille","lat":43.30645,"lon":5.400679,"is_reserved":false,"is_disabled":false,"rental_uris":{"android":"levelo://app?vid=720188ea-4d2b-4bb4-8aa3-a46d4667e5c3","ios":"levelo://app?vid=720188ea-4d2b-4bb4-8aa3-a46d4667e5c3"},"vehicle_type_id":"4","last_reported":1752208113,"current_range_meters":12800,"station_id":"ce4bh112rcd13ifvqda0","pricing_plan_id":"cebpf4jnsgd1na2vs0mg"},{"bike_id":"b842d059-27fe-4429-89c7-250a43e69f81","system_id":"levelo_inurba_marseille","lat":43.28715,"lon":5.37933,"is_reserved":false,"is_disabled":true,"rental_uris":{"android":"levelo://app?vid=b842d059-27fe-4429-89c7-250a43e69f81","ios":"levelo://app?vid=b842d059-27fe-4429-89c7-250a43e69f81"},"vehicle_type_id":"4","last_reported":1752208113,"current_range_meters":12800,"station_id":"ce4bh9p2rcd13ifvqec0","pricing_plan_id":"cebpf4jnsgd1na2vs0mg"},{"bike_id":"fa87fcb5-aacb-41a1-a789-0296bbd02085","system_id":"levelo_inurba_marseille","lat":43.245838,"lon":5.373743,"is_reserved":false,"is_disabled":false,"rental_uris":{"android":"levelo://app?vid=fa87fcb5-aacb-41a1-a789-0296bbd02085","ios":"levelo://app?vid=fa87fcb5-aacb-41a1-a789-0296bbd02085"},"vehicle_type_id":"4","last_reported":1752208113,"current_range_meters":12800,"station_id":"","pricing_plan_id":"cebpf4jnsgd1na2vs0mg"},{"bike_id":"eb808631-7f2b-4efe-a9e5-541032677921","system_id":"levelo_inurba_marseille","lat":43.231898,"lon":5.35575,"is_reserved":false,"is_disabled":false,"rental_uris":{"android":"levelo://app?vid=eb808631-7f2b-4efe-a9e5-541032677921","ios":"levelo://app?vid=eb808631-7f2b-4efe-a9e5-541032677921"},"vehicle_type_id":"4","last_reported":1752208113,"current_range_meters":12800,"station_id":"ce4bhu92rcd13ifvqi70","pricing_plan_id":"cebpf4jnsgd1na2vs0mg"},{"bike_id":"77c7b48e-f230-4236-a750-08d9e780d025","system_id":"levelo_inurba_marseille","lat":43.27212,"lon":5.39192,"is_reserved":false,"is_disabled":false,"rental_uris":{"android":"levelo://app?vid=77c7b48e-f230-4236-a750-08d9e780d025","ios":"levelo://app?vid=77c7b48e-f230-4236-a750-08d9e780d025"},"vehicle_type_id":"4","last_reported":1752208113,"current_range_meters":13600,"station_id":"ce4bhhp2rcd13ifvqfm0","pricing_plan_id":"cebpf4jnsgd1na2vs0mg"},{"bike_id":"bd8d4369-2273-4c6e-a97d-ccabc9f387cd","system_id":"levelo_inurba_marseille","lat":43.25082,"lon":5.39502,"is_reserved":false,"is_disabled":false,"rental_uris":{"android":"levelo://app?vid=bd8d4369-2273-4c6e-a97d-ccabc9f387cd","ios":"levelo://app?vid=bd8d4369-2273-4c6e-a97d-ccabc9f387cd"},"vehicle_type_id":"4","last_reported":1752208113,"current_range_meters":13600,"station_id":"ce4bhm12rcd13ifvqgkg","pricing_plan_id":"cebpf4jnsgd1na2vs0mg"},{"bike_id":"5a7b57ef-a00d-4d19-853c-d49c119db95f","system_id":"levelo_inurba_marseille","lat":43.24566,"lon":5.3734,"is_reserved":false,"is_disabled":false,"rental_uris":{"android":"levelo://app?vid=5a7b57ef-a00d-4d19-853c-d49c119db95f","ios":"levelo://app?vid=5a7b57ef-a00d-4d19-853c-d49c119db95f"},"vehicle_type_id":"4","last_reported":1752208113,"current_range_meters":13600,"station_id":"","pricing_plan_id":"cebpf4jnsgd1na2vs0mg"},{"bike_id":"8330a68f-2f6e-4337-9657-35d7d87c04ca","system_id":"levelo_inurba_marseille","lat":43.25451,"lon":5.37946,"is_reserved":false,"is_disabled":false,"rental_uris":{"android":"levelo://app?vid=8330a68f-2f6e-4337-9657-35d7d87c04ca","ios":"levelo://app?vid=8330a68f-2f6e-4337-9657-35d7d87c04ca"},"vehicle_type_id":"4","last_reported":1752208113,"current_range_meters":13600,"station_id":"","pricing_plan_id":"cebpf4jnsgd1na2vs0mg"},{"bike_id":"6e7887bb-44ee-43b9-b212-289a1ce3d45d","system_id":"levelo_inurba_marseille","lat":43.30941,"lon":5.40132,"is_reserved":false,"is_disabled":false,"rental_uris":{"android":"levelo://app?vid=6e7887bb-44ee-43b9-b212-289a1ce3d45d","ios":"levelo://app?vid=6e7887bb-44ee-43b9-b212-289a1ce3d45d"},"vehicle_type_id":"4","last_reported":1752208113,"current_range_meters":13600,"station_id":"ce4bgvp2rcd13ifvqct0","pricing_plan_id":"cebpf4jnsgd1na2vs0mg"},{"bike_id":"ee1ac907-8623-4d00-ac01-d41dd90be9fe","system_id":"levelo_inurba_marseille","lat":43.21183,"lon":5.35066,"is_reserved":false,"is_disabled":false,"rental_uris":{"android":"levelo://app?vid=ee1ac907-8623-4d00-ac01-d41dd90be9fe","ios":"levelo://app?vid=ee1ac907-8623-4d00-ac01-d41dd90be9fe"},"vehicle_type_id":"4","last_reported":1752208113,"current_range_meters":13600,"station_id":"st_cvj6sg6p6f1abm77japg","pricing_plan_id":"cebpf4jnsgd1na2vs0mg"},{"bike_id":"0f53f7ce-59fb-466b-98bf-681ddd768406","system_id":"levelo_inurba_marseille","lat":43.31171,"lon":5.38725,"is_reserved":false,"is_disabled":false,"rental_uris":{"android":"levelo://app?vid=0f53f7ce-59fb-466b-98bf-681ddd768406","ios":"levelo://app?vid=0f53f7ce-59fb-466b-98bf-681ddd768406"},"vehicle_type_id":"4","last_reported":1752208113,"current_range_meters":13600,"station_id":"ce4bgv12rcd13ifvqcp0","pricing_plan_id":"cebpf4jnsgd1na2vs0mg"},{"bike_id":"1746d397-612f-47c9-94f0-ae0e40fad68b","system_id":"levelo_inurba_marseille","lat":43.23954,"lon":5.36637,"is_reserved":false,"is_disabled":true,"rental_uris":{"android":"levelo://app?vid=1746d397-612f-47c9-94f0-ae0e40fad68b","ios":"levelo://app?vid=1746d397-612f-47c9-94f0-ae0e40fad68b"},"vehicle_type_id":"4","last_reported":1752208113,"current_range_meters":13600,"station_id":"ce4bhi12rcd13ifvqfp0","pricing_plan_id":"cebpf4jnsgd1na2vs0mg"},{"bike_id":"0e5dcf8f-8fdf-4c25-8ea3-61654a1893f9","system_id":"levelo_inurba_marseille","lat":43.25495,"lon":5.37657,"is_reserved":false,"is_disabled":false,"rental_uris":{"android":"levelo://app?vid=0e5dcf8f-8fdf-4c25-8ea3-61654a1893f9","ios":"levelo://app?vid=0e5dcf8f-8fdf-4c25-8ea3-61654a1893f9"},"vehicle_type_id":"4","last_reported":1752208113,"current_range_meters":14000,"station_id":"ce4bhh12rcd13ifvqff0","pricing_plan_id":"cebpf4jnsgd1na2vs0mg"},{"bike_id":"5017c449-38fe-4160-848e-225e9c2e04c7","system_id":"levelo_inurba_marseille","lat":43.28046,"lon":5.40775,"is_reserved":false,"is_disabled":false,"rental_uris":{"android":"levelo://app?vid=5017c449-38fe-4160-848e-225e9c2e04c7","ios":"levelo://app?vid=5017c449-38fe-4160-848e-225e9c2e04c7"},"vehicle_type_id":"4","last_reported":1752208113,"current_range_meters":14000,"station_id":"","pricing_plan_id":"cebpf4jnsgd1na2vs0mg"},{"bike_id":"a009a68a-efaf-4649-bcc3-790a117d22c2","system_id":"levelo_inurba_marseille","lat":43.2871,"lon":5.39983,"is_reserved":false,"is_disabled":false,"rental_uris":{"android":"levelo://app?vid=a009a68a-efaf-4649-bcc3-790a117d22c2","ios":"levelo://app?vid=a009a68a-efaf-4649-bcc3-790a117d22c2"},"vehicle_type_id":"4","last_reported":1752208113,"current_range_meters":14000,"station_id":"ce4bho92rcd13ifvqh3g","pricing_plan_id":"cebpf4jnsgd1na2vs0mg"},{"bike_id":"ebca5d2b-37af-4b31-808f-1776113a21b5","system_id":"levelo_inurba_marseille","lat":43.296322,"lon":5.405879,"is_reserved":false,"is_disabled":false,"rental_uris":{"android":"levelo://app?vid=ebca5d2b-37af-4b31-808f-1776113a21b5","ios":"levelo://app?vid=ebca5d2b-37af-4b31-808f-1776113a21b5"},"vehicle_type_id":"4","last_reported":1752208113,"current_range_meters":14000,"station_id":"ce4bh0h2rcd13ifvqd60","pricing_plan_id":"cebpf4jnsgd1na2vs0mg"},{"bike_id":"1830d799-57e9-4ec2-b486-66d995653d72","system_id":"levelo_inurba_marseille","lat":43.29596,"lon":5.38192,"is_reserved":false,"is_disabled":false,"rental_uris":{"android":"levelo://app?vid=1830d799-57e9-4ec2-b486-66d995653d72","ios":"levelo://app?vid=1830d799-57e9-4ec2-b486-66d995653d72"},"vehicle_type_id":"4","last_reported":1752208113,"current_range_meters":14000,"station_id":"","pricing_plan_id":"cebpf4jnsgd1na2vs0mg"},{"bike_id":"9a38b8ae-de57-4388-9942-2cd602d3a5ea","system_id":"levelo_inurba_marseille","lat":43.295613,"lon":5.422902,"is_reserved":false,"is_disabled":false,"rental_uris":{"android":"levelo://app?vid=9a38b8ae-de57-4388-9942-2cd602d3a5ea","ios":"levelo://app?vid=9a38b8ae-de57-4388-9942-2cd602d3a5ea"},"vehicle_type_id":"4","last_reported":1752208113,"current_range_meters":14000,"station_id":"ce4bhph2rcd13ifvqhdg","pricing_plan_id":"cebpf4jnsgd1na2vs0mg"},{"bike_id":"24b17f7b-dff1-4936-b27a-7c2c6813a894","system_id":"levelo_inurba_marseille","lat":43.245813,"lon":5.373775,"is_reserved":false,"is_disabled":false,"rental_uris":{"android":"levelo://app?vid=24b17f7b-dff1-4936-b27a-7c2c6813a894","ios":"levelo://app?vid=24b17f7b-dff1-4936-b27a-7c2c6813a894"},"vehicle_type_id":"4","last_reported":1752208113,"current_range_meters":14000,"station_id":"","pricing_plan_id":"cebpf4jnsgd1na2vs0mg"},{"bike_id":"74f24c24-843a-43d8-bc49-86672598b681","system_id":"levelo_inurba_marseille","lat":43.30787,"lon":5.37642,"is_reserved":false,"is_disabled":false,"rental_uris":{"android":"levelo://app?vid=74f24c24-843a-43d8-bc49-86672598b681","ios":"levelo://app?vid=74f24c24-843a-43d8-bc49-86672598b681"},"vehicle_type_id":"4","last_reported":1752208113,"current_range_meters":14400,"station_id":"ce4bgv92rcd13ifvqcq0","pricing_plan_id":"cebpf4jnsgd1na2vs0mg"},{"bike_id":"6737467a-fe5d-470c-a191-2df05ebbb3bb","system_id":"levelo_inurba_marseille","lat":43.22503,"lon":5.34768,"is_reserved":false,"is_disabled":false,"rental_uris":{"android":"levelo://app?vid=6737467a-fe5d-470c-a191-2df05ebbb3bb","ios":"levelo://app?vid=6737467a-fe5d-470c-a191-2df05ebbb3bb"},"vehicle_type_id":"4","last_reported":1752208113,"current_range_meters":14400,"station_id":"st_cvj5dfep6f1abm77gieg","pricing_plan_id":"cebpf4jnsgd1na2vs0mg"},{"bike_id":"99aedd7f-b8c7-4995-b806-4ad855a814ec","system_id":"levelo_inurba_marseille","lat":43.29253,"lon":5.40921,"is_reserved":false,"is_disabled":false,"rental_uris":{"android":"levelo://app?vid=99aedd7f-b8c7-4995-b806-4ad855a814ec","ios":"levelo://app?vid=99aedd7f-b8c7-4995-b806-4ad855a814ec"},"vehicle_type_id":"4","last_reported":1752208113,"current_range_meters":14800,"station_id":"ce4bh192rcd13ifvqdc0","pricing_plan_id":"cebpf4jnsgd1na2vs0mg"},{"bike_id":"67a1c8bb-4e10-4d4c-8446-8fe730f54574","system_id":"levelo_inurba_marseille","lat":43.29414,"lon":5.38615,"is_reserved":false,"is_disabled":true,"rental_uris":{"android":"levelo://app?vid=67a1c8bb-4e10-4d4c-8446-8fe730f54574","ios":"levelo://app?vid=67a1c8bb-4e10-4d4c-8446-8fe730f54574"},"vehicle_type_id":"4","last_reported":1752208113,"current_range_meters":14800,"station_id":"ce4bh2h2rcd13ifvqdh0","pricing_plan_id":"cebpf4jnsgd1na2vs0mg"},{"bike_id":"4018485f-3d49-463e-bed7-d890e4ff7869","system_id":"levelo_inurba_marseille","lat":43.29017,"lon":5.38629,"is_reserved":false,"is_disabled":true,"rental_uris":{"android":"levelo://app?vid=4018485f-3d49-463e-bed7-d890e4ff7869","ios":"levelo://app?vid=4018485f-3d49-463e-bed7-d890e4ff7869"},"vehicle_type_id":"4","last_reported":1752208113,"current_range_meters":14800,"station_id":"ce4bh4p2rcd13ifvqe0g","pricing_plan_id":"cebpf4jnsgd1na2vs0mg"},{"bike_id":"20298669-51c1-4292-ad92-d0fa61c941d3","system_id":"levelo_inurba_marseille","lat":43.23134,"lon":5.43692,"is_reserved":false,"is_disabled":true,"rental_uris":{"android":"levelo://app?vid=20298669-51c1-4292-ad92-d0fa61c941d3","ios":"levelo://app?vid=20298669-51c1-4292-ad92-d0fa61c941d3"},"vehicle_type_id":"4","last_reported":1752208113,"current_range_meters":14800,"station_id":"ce4bhmp2rcd13ifvqgog","pricing_plan_id":"cebpf4jnsgd1na2vs0mg"},{"bike_id":"29a0a180-d29f-4a4e-a71b-d1d9d42cb217","system_id":"levelo_inurba_marseille","lat":43.21206,"lon":5.35057,"is_reserved":false,"is_disabled":false,"rental_uris":{"android":"levelo://app?vid=29a0a180-d29f-4a4e-a71b-d1d9d42cb217","ios":"levelo://app?vid=29a0a180-d29f-4a4e-a71b-d1d9d42cb217"},"vehicle_type_id":"4","last_reported":1752208113,"current_range_meters":14800,"station_id":"st_cvj6sg6p6f1abm77japg","pricing_plan_id":"cebpf4jnsgd1na2vs0mg"},{"bike_id":"8f89e4f3-495a-4317-bd6d-37a19186d65b","system_id":"levelo_inurba_marseille","lat":43.33727,"lon":5.39199,"is_reserved":false,"is_disabled":false,"rental_uris":{"android":"levelo://app?vid=8f89e4f3-495a-4317-bd6d-37a19186d65b","ios":"levelo://app?vid=8f89e4f3-495a-4317-bd6d-37a19186d65b"},"vehicle_type_id":"4","last_reported":1752208113,"current_range_meters":14800,"station_id":"ce4bhr92rcd13ifvqhsg","pricing_plan_id":"cebpf4jnsgd1na2vs0mg"},{"bike_id":"4f9f6d36-e779-40bd-955c-85b631328c4b","system_id":"levelo_inurba_marseille","lat":43.284572,"lon":5.358903,"is_reserved":false,"is_disabled":false,"rental_uris":{"android":"levelo://app?vid=4f9f6d36-e779-40bd-955c-85b631328c4b","ios":"levelo://app?vid=4f9f6d36-e779-40bd-955c-85b631328c4b"},"vehicle_type_id":"4","last_reported":1752208113,"current_range_meters":15200,"station_id":"ce4bhah2rcd13ifvqei0","pricing_plan_id":"cebpf4jnsgd1na2vs0mg"},{"bike_id":"c8b16325-224a-4cd2-961f-c6ee8ae06d34","system_id":"levelo_inurba_marseille","lat":43.30433,"lon":5.38892,"is_reserved":false,"is_disabled":false,"rental_uris":{"android":"levelo://app?vid=c8b16325-224a-4cd2-961f-c6ee8ae06d34","ios":"levelo://app?vid=c8b16325-224a-4cd2-961f-c6ee8ae06d34"},"vehicle_type_id":"4","last_reported":1752208113,"current_range_meters":15200,"station_id":"ce4bgk12rcd13ifvqbi0","pricing_plan_id":"cebpf4jnsgd1na2vs0mg"},{"bike_id":"c3c5b26c-e834-4db6-994b-52abb31f20f1","system_id":"levelo_inurba_marseille","lat":43.24074,"lon":5.37767,"is_reserved":false,"is_disabled":false,"rental_uris":{"android":"levelo://app?vid=c3c5b26c-e834-4db6-994b-52abb31f20f1","ios":"levelo://app?vid=c3c5b26c-e834-4db6-994b-52abb31f20f1"},"vehicle_type_id":"4","last_reported":1752208113,"current_range_meters":15200,"station_id":"ce4bhnp2rcd13ifvqgvg","pricing_plan_id":"cebpf4jnsgd1na2vs0mg"},{"bike_id":"2c702aa4-2ac5-4550-b697-5b3cdcd314b3","system_id":"levelo_inurba_marseille","lat":43.321,"lon":5.41642,"is_reserved":false,"is_disabled":false,"rental_uris":{"android":"levelo://app?vid=2c702aa4-2ac5-4550-b697-5b3cdcd314b3","ios":"levelo://app?vid=2c702aa4-2ac5-4550-b697-5b3cdcd314b3"},"vehicle_type_id":"4","last_reported":1752208113,"current_range_meters":15200,"station_id":"","pricing_plan_id":"cebpf4jnsgd1na2vs0mg"},{"bike_id":"9d3ceac0-644c-4cb2-8c4e-5fa17014b513","system_id":"levelo_inurba_marseille","lat":43.3089,"lon":5.39648,"is_reserved":false,"is_disabled":false,"rental_uris":{"android":"levelo://app?vid=9d3ceac0-644c-4cb2-8c4e-5fa17014b513","ios":"levelo://app?vid=9d3ceac0-644c-4cb2-8c4e-5fa17014b513"},"vehicle_type_id":"4","last_reported":1752208113,"current_range_meters":15200,"station_id":"ce4bh012rcd13ifvqcv0","pricing_plan_id":"cebpf4jnsgd1na2vs0mg"},{"bike_id":"d849a247-c2c0-4619-bac8-f5a6994e0014","system_id":"levelo_inurba_marseille","lat":43.32041,"lon":5.41587,"is_reserved":false,"is_disabled":true,"rental_uris":{"android":"levelo://app?vid=d849a247-c2c0-4619-bac8-f5a6994e0014","ios":"levelo://app?vid=d849a247-c2c0-4619-bac8-f5a6994e0014"},"vehicle_type_id":"4","last_reported":1752208113,"current_range_meters":15200,"station_id":"ce4bhq92rcd13ifvqhkg","pricing_plan_id":"cebpf4jnsgd1na2vs0mg"},{"bike_id":"4d4b9e28-a4f6-4d45-ac6b-64a63a768bd8","system_id":"levelo_inurba_marseille","lat":43.31514,"lon":5.37421,"is_reserved":false,"is_disabled":false,"rental_uris":{"android":"levelo://app?vid=4d4b9e28-a4f6-4d45-ac6b-64a63a768bd8","ios":"levelo://app?vid=4d4b9e28-a4f6-4d45-ac6b-64a63a768bd8"},"vehicle_type_id":"4","last_reported":1752208113,"current_range_meters":16000,"station_id":"","pricing_plan_id":"cebpf4jnsgd1na2vs0mg"},{"bike_id":"857a05b3-2d84-42b5-b30b-96ad4564ca03","system_id":"levelo_inurba_marseille","lat":43.250853,"lon":5.39526,"is_reserved":false,"is_disabled":false,"rental_uris":{"android":"levelo://app?vid=857a05b3-2d84-42b5-b30b-96ad4564ca03","ios":"levelo://app?vid=857a05b3-2d84-42b5-b30b-96ad4564ca03"},"vehicle_type_id":"4","last_reported":1752208113,"current_range_meters":16000,"station_id":"ce4bhm12rcd13ifvqgkg","pricing_plan_id":"cebpf4jnsgd1na2vs0mg"},{"bike_id":"595e9351-a7ce-45de-8995-771f7d9fe86e","system_id":"levelo_inurba_marseille","lat":43.309243,"lon":5.378088,"is_reserved":false,"is_disabled":false,"rental_uris":{"android":"levelo://app?vid=595e9351-a7ce-45de-8995-771f7d9fe86e","ios":"levelo://app?vid=595e9351-a7ce-45de-8995-771f7d9fe86e"},"vehicle_type_id":"4","last_reported":1752208113,"current_range_meters":16000,"station_id":"","pricing_plan_id":"cebpf4jnsgd1na2vs0mg"},{"bike_id":"6e44525d-ed45-445a-a877-081b94eb5813","system_id":"levelo_inurba_marseille","lat":43.30358,"lon":5.4188,"is_reserved":false,"is_disabled":true,"rental_uris":{"android":"levelo://app?vid=6e44525d-ed45-445a-a877-081b94eb5813","ios":"levelo://app?vid=6e44525d-ed45-445a-a877-081b94eb5813"},"vehicle_type_id":"4","last_reported":1752208113,"current_range_meters":16000,"station_id":"ce4bhop2rcd13ifvqh7g","pricing_plan_id":"cebpf4jnsgd1na2vs0mg"},{"bike_id":"c17bc1e5-ceeb-4417-9f00-95d20df1aa8a","system_id":"levelo_inurba_marseille","lat":43.29037,"lon":5.39953,"is_reserved":false,"is_disabled":false,"rental_uris":{"android":"levelo://app?vid=c17bc1e5-ceeb-4417-9f00-95d20df1aa8a","ios":"levelo://app?vid=c17bc1e5-ceeb-4417-9f00-95d20df1aa8a"},"vehicle_type_id":"4","last_reported":1752208113,"current_range_meters":16000,"station_id":"ce4bh392rcd13ifvqdm0","pricing_plan_id":"cebpf4jnsgd1na2vs0mg"},{"bike_id":"6994c34f-7b9e-4588-9c5d-f80e030067a1","system_id":"levelo_inurba_marseille","lat":43.323553,"lon":5.388916,"is_reserved":false,"is_disabled":false,"rental_uris":{"android":"levelo://app?vid=6994c34f-7b9e-4588-9c5d-f80e030067a1","ios":"levelo://app?vid=6994c34f-7b9e-4588-9c5d-f80e030067a1"},"vehicle_type_id":"4","last_reported":1752208113,"current_range_meters":16000,"station_id":"ce4bhqp2rcd13ifvqhog","pricing_plan_id":"cebpf4jnsgd1na2vs0mg"},{"bike_id":"544ec108-796d-413d-8a7c-7e4ffa805fe3","system_id":"levelo_inurba_marseille","lat":43.273363,"lon":5.392954,"is_reserved":false,"is_disabled":false,"rental_uris":{"android":"levelo://app?vid=544ec108-796d-413d-8a7c-7e4ffa805fe3","ios":"levelo://app?vid=544ec108-796d-413d-8a7c-7e4ffa805fe3"},"vehicle_type_id":"4","last_reported":1752208113,"current_range_meters":16000,"station_id":"","pricing_plan_id":"cebpf4jnsgd1na2vs0mg"},{"bike_id":"942c8330-8f39-48d0-a0b2-de1771e69fd6","system_id":"levelo_inurba_marseille","lat":43.295739,"lon":5.399743,"is_reserved":false,"is_disabled":false,"rental_uris":{"android":"levelo://app?vid=942c8330-8f39-48d0-a0b2-de1771e69fd6","ios":"levelo://app?vid=942c8330-8f39-48d0-a0b2-de1771e69fd6"},"vehicle_type_id":"4","last_reported":1752208113,"current_range_meters":16400,"station_id":"ce4bh312rcd13ifvqdj0","pricing_plan_id":"cebpf4jnsgd1na2vs0mg"},{"bike_id":"36d841ea-e6f4-4ff1-8465-d05e720a58e5","system_id":"levelo_inurba_marseille","lat":43.287,"lon":5.399913,"is_reserved":false,"is_disabled":true,"rental_uris":{"android":"levelo://app?vid=36d841ea-e6f4-4ff1-8465-d05e720a58e5","ios":"levelo://app?vid=36d841ea-e6f4-4ff1-8465-d05e720a58e5"},"vehicle_type_id":"4","last_reported":1752208113,"current_range_meters":16400,"station_id":"ce4bho92rcd13ifvqh3g","pricing_plan_id":"cebpf4jnsgd1na2vs0mg"},{"bike_id":"f086528f-f0be-4b14-8b3f-7d93ea0437ec","system_id":"levelo_inurba_marseille","lat":43.29036,"lon":5.39968,"is_reserved":false,"is_disabled":false,"rental_uris":{"android":"levelo://app?vid=f086528f-f0be-4b14-8b3f-7d93ea0437ec","ios":"levelo://app?vid=f086528f-f0be-4b14-8b3f-7d93ea0437ec"},"vehicle_type_id":"4","last_reported":1752208113,"current_range_meters":16400,"station_id":"ce4bh392rcd13ifvqdm0","pricing_plan_id":"cebpf4jnsgd1na2vs0mg"},{"bike_id":"c1985a59-e9b6-44ee-b888-e5dc75f883bd","system_id":"levelo_inurba_marseille","lat":43.306538,"lon":5.400838,"is_reserved":false,"is_disabled":false,"rental_uris":{"android":"levelo://app?vid=c1985a59-e9b6-44ee-b888-e5dc75f883bd","ios":"levelo://app?vid=c1985a59-e9b6-44ee-b888-e5dc75f883bd"},"vehicle_type_id":"4","last_reported":1752208113,"current_range_meters":16400,"station_id":"ce4bh112rcd13ifvqda0","pricing_plan_id":"cebpf4jnsgd1na2vs0mg"},{"bike_id":"2850cfd5-2110-4cbb-b6a3-2e06e17c78e6","system_id":"levelo_inurba_marseille","lat":43.254926,"lon":5.376572,"is_reserved":false,"is_disabled":true,"rental_uris":{"android":"levelo://app?vid=2850cfd5-2110-4cbb-b6a3-2e06e17c78e6","ios":"levelo://app?vid=2850cfd5-2110-4cbb-b6a3-2e06e17c78e6"},"vehicle_type_id":"4","last_reported":1752208113,"current_range_meters":16400,"station_id":"ce4bhh12rcd13ifvqff0","pricing_plan_id":"cebpf4jnsgd1na2vs0mg"},{"bike_id":"7097363b-955f-4a5e-8ede-9bb14b7f1708","system_id":"levelo_inurba_marseille","lat":43.211856,"lon":5.350879,"is_reserved":false,"is_disabled":false,"rental_uris":{"android":"levelo://app?vid=7097363b-955f-4a5e-8ede-9bb14b7f1708","ios":"levelo://app?vid=7097363b-955f-4a5e-8ede-9bb14b7f1708"},"vehicle_type_id":"4","last_reported":1752208113,"current_range_meters":16400,"station_id":"st_cvj6sg6p6f1abm77japg","pricing_plan_id":"cebpf4jnsgd1na2vs0mg"},{"bike_id":"5423e7d5-07f9-4264-9d42-219884898d7f","system_id":"levelo_inurba_marseille","lat":43.241679,"lon":5.363967,"is_reserved":false,"is_disabled":false,"rental_uris":{"android":"levelo://app?vid=5423e7d5-07f9-4264-9d42-219884898d7f","ios":"levelo://app?vid=5423e7d5-07f9-4264-9d42-219884898d7f"},"vehicle_type_id":"4","last_reported":1752208113,"current_range_meters":16400,"station_id":"cpo36qri1sfpv3e86is0","pricing_plan_id":"cebpf4jnsgd1na2vs0mg"},{"bike_id":"e3a75ee9-c614-467b-8cc2-f813bcef2ab1","system_id":"levelo_inurba_marseille","lat":43.33743,"lon":5.3919,"is_reserved":false,"is_disabled":false,"rental_uris":{"android":"levelo://app?vid=e3a75ee9-c614-467b-8cc2-f813bcef2ab1","ios":"levelo://app?vid=e3a75ee9-c614-467b-8cc2-f813bcef2ab1"},"vehicle_type_id":"4","last_reported":1752208113,"current_range_meters":16400,"station_id":"ce4bhr92rcd13ifvqhsg","pricing_plan_id":"cebpf4jnsgd1na2vs0mg"},{"bike_id":"03d285ad-fd72-47fb-9975-6f1db5bfd76f","system_id":"levelo_inurba_marseille","lat":43.29893,"lon":5.3974,"is_reserved":false,"is_disabled":true,"rental_uris":{"android":"levelo://app?vid=03d285ad-fd72-47fb-9975-6f1db5bfd76f","ios":"levelo://app?vid=03d285ad-fd72-47fb-9975-6f1db5bfd76f"},"vehicle_type_id":"4","last_reported":1752208113,"current_range_meters":16400,"station_id":"ce4bh0h2rcd13ifvqd50","pricing_plan_id":"cebpf4jnsgd1na2vs0mg"},{"bike_id":"cd3ad621-81d5-486b-8d9d-ec2d2d715d0a","system_id":"levelo_inurba_marseille","lat":43.303169,"lon":5.404364,"is_reserved":false,"is_disabled":false,"rental_uris":{"android":"levelo://app?vid=cd3ad621-81d5-486b-8d9d-ec2d2d715d0a","ios":"levelo://app?vid=cd3ad621-81d5-486b-8d9d-ec2d2d715d0a"},"vehicle_type_id":"4","last_reported":1752208113,"current_range_meters":16400,"station_id":"ce4bh012rcd13ifvqd10","pricing_plan_id":"cebpf4jnsgd1na2vs0mg"},{"bike_id":"5086513f-38b2-4d32-bf7b-ef747c2370bc","system_id":"levelo_inurba_marseille","lat":43.27919,"lon":5.395837,"is_reserved":false,"is_disabled":false,"rental_uris":{"android":"levelo://app?vid=5086513f-38b2-4d32-bf7b-ef747c2370bc","ios":"levelo://app?vid=5086513f-38b2-4d32-bf7b-ef747c2370bc"},"vehicle_type_id":"4","last_reported":1752208113,"current_range_meters":16400,"station_id":"ce4bhf92rcd13ifvqf40","pricing_plan_id":"cebpf4jnsgd1na2vs0mg"},{"bike_id":"a27c01d4-977b-4bc7-a2ef-e89407d4dbd5","system_id":"levelo_inurba_marseille","lat":43.310755,"lon":5.383528,"is_reserved":false,"is_disabled":false,"rental_uris":{"android":"levelo://app?vid=a27c01d4-977b-4bc7-a2ef-e89407d4dbd5","ios":"levelo://app?vid=a27c01d4-977b-4bc7-a2ef-e89407d4dbd5"},"vehicle_type_id":"4","last_reported":1752208113,"current_range_meters":16400,"station_id":"ce4bgv92rcd13ifvqcr0","pricing_plan_id":"cebpf4jnsgd1na2vs0mg"},{"bike_id":"96f82260-718a-4e3a-9802-28ac9d732e83","system_id":"levelo_inurba_marseille","lat":43.26161,"lon":5.37468,"is_reserved":false,"is_disabled":false,"rental_uris":{"android":"levelo://app?vid=96f82260-718a-4e3a-9802-28ac9d732e83","ios":"levelo://app?vid=96f82260-718a-4e3a-9802-28ac9d732e83"},"vehicle_type_id":"4","last_reported":1752208113,"current_range_meters":16800,"station_id":"","pricing_plan_id":"cebpf4jnsgd1na2vs0mg"},{"bike_id":"5ccd13af-ab7a-427a-b178-3044795b2677","system_id":"levelo_inurba_marseille","lat":43.292727,"lon":5.401297,"is_reserved":false,"is_disabled":false,"rental_uris":{"android":"levelo://app?vid=5ccd13af-ab7a-427a-b178-3044795b2677","ios":"levelo://app?vid=5ccd13af-ab7a-427a-b178-3044795b2677"},"vehicle_type_id":"4","last_reported":1752208113,"current_range_meters":16800,"station_id":"ce4bh312rcd13ifvqdk0","pricing_plan_id":"cebpf4jnsgd1na2vs0mg"},{"bike_id":"530fdaa0-3dcf-48bd-ae6d-18f67ca1c283","system_id":"levelo_inurba_marseille","lat":43.297111,"lon":5.366155,"is_reserved":false,"is_disabled":false,"rental_uris":{"android":"levelo://app?vid=530fdaa0-3dcf-48bd-ae6d-18f67ca1c283","ios":"levelo://app?vid=530fdaa0-3dcf-48bd-ae6d-18f67ca1c283"},"vehicle_type_id":"4","last_reported":1752208113,"current_range_meters":16800,"station_id":"","pricing_plan_id":"cebpf4jnsgd1na2vs0mg"},{"bike_id":"9d4f14f9-e9e1-4507-8658-c8951cc4b985","system_id":"levelo_inurba_marseille","lat":43.2847,"lon":5.384424,"is_reserved":false,"is_disabled":false,"rental_uris":{"android":"levelo://app?vid=9d4f14f9-e9e1-4507-8658-c8951cc4b985","ios":"levelo://app?vid=9d4f14f9-e9e1-4507-8658-c8951cc4b985"},"vehicle_type_id":"4","last_reported":1752208113,"current_range_meters":16800,"station_id":"ce4bh512rcd13ifvqe3g","pricing_plan_id":"cebpf4jnsgd1na2vs0mg"},{"bike_id":"cb8db05c-7ef4-4fcf-b321-cdc13d7cccad","system_id":"levelo_inurba_marseille","lat":43.29079,"lon":5.35586,"is_reserved":false,"is_disabled":false,"rental_uris":{"android":"levelo://app?vid=cb8db05c-7ef4-4fcf-b321-cdc13d7cccad","ios":"levelo://app?vid=cb8db05c-7ef4-4fcf-b321-cdc13d7cccad"},"vehicle_type_id":"4","last_reported":1752208113,"current_range_meters":16800,"station_id":"","pricing_plan_id":"cebpf4jnsgd1na2vs0mg"},{"bike_id":"647a1903-1834-4730-b34e-6397917620f0","system_id":"levelo_inurba_marseille","lat":43.316734,"lon":5.37007,"is_reserved":false,"is_disabled":false,"rental_uris":{"android":"levelo://app?vid=647a1903-1834-4730-b34e-6397917620f0","ios":"levelo://app?vid=647a1903-1834-4730-b34e-6397917620f0"},"vehicle_type_id":"4","last_reported":1752208113,"current_range_meters":16800,"station_id":"","pricing_plan_id":"cebpf4jnsgd1na2vs0mg"},{"bike_id":"f9378e51-1ec5-4bcd-8475-8cfc9f9818d1","system_id":"levelo_inurba_marseille","lat":43.311204,"lon":5.377548,"is_reserved":false,"is_disabled":false,"rental_uris":{"android":"levelo://app?vid=f9378e51-1ec5-4bcd-8475-8cfc9f9818d1","ios":"levelo://app?vid=f9378e51-1ec5-4bcd-8475-8cfc9f9818d1"},"vehicle_type_id":"4","last_reported":1752208113,"current_range_meters":16800,"station_id":"ce4bgt92rcd13ifvqcg0","pricing_plan_id":"cebpf4jnsgd1na2vs0mg"},{"bike_id":"46e76d63-dcce-4084-828e-9cffe437f4b6","system_id":"levelo_inurba_marseille","lat":43.28722,"lon":5.3792,"is_reserved":false,"is_disabled":false,"rental_uris":{"android":"levelo://app?vid=46e76d63-dcce-4084-828e-9cffe437f4b6","ios":"levelo://app?vid=46e76d63-dcce-4084-828e-9cffe437f4b6"},"vehicle_type_id":"4","last_reported":1752208113,"current_range_meters":16800,"station_id":"ce4bh9p2rcd13ifvqec0","pricing_plan_id":"cebpf4jnsgd1na2vs0mg"},{"bike_id":"4cca035e-1c48-4ce6-a762-95e4b4249c57","system_id":"levelo_inurba_marseille","lat":43.30693,"lon":5.40061,"is_reserved":false,"is_disabled":false,"rental_uris":{"android":"levelo://app?vid=4cca035e-1c48-4ce6-a762-95e4b4249c57","ios":"levelo://app?vid=4cca035e-1c48-4ce6-a762-95e4b4249c57"},"vehicle_type_id":"4","last_reported":1752208113,"current_range_meters":16800,"station_id":"","pricing_plan_id":"cebpf4jnsgd1na2vs0mg"},{"bike_id":"ab4d382b-f79f-4b1b-ae31-19d2e6028151","system_id":"levelo_inurba_marseille","lat":43.311704,"lon":5.387203,"is_reserved":false,"is_disabled":false,"rental_uris":{"android":"levelo://app?vid=ab4d382b-f79f-4b1b-ae31-19d2e6028151","ios":"levelo://app?vid=ab4d382b-f79f-4b1b-ae31-19d2e6028151"},"vehicle_type_id":"4","last_reported":1752208113,"current_range_meters":16800,"station_id":"ce4bgv12rcd13ifvqcp0","pricing_plan_id":"cebpf4jnsgd1na2vs0mg"},{"bike_id":"959e9e15-c8fe-4fd7-a388-570e3c4e34bd","system_id":"levelo_inurba_marseille","lat":43.306459,"lon":5.400706,"is_reserved":false,"is_disabled":false,"rental_uris":{"android":"levelo://app?vid=959e9e15-c8fe-4fd7-a388-570e3c4e34bd","ios":"levelo://app?vid=959e9e15-c8fe-4fd7-a388-570e3c4e34bd"},"vehicle_type_id":"4","last_reported":1752208113,"current_range_meters":16800,"station_id":"ce4bh112rcd13ifvqda0","pricing_plan_id":"cebpf4jnsgd1na2vs0mg"},{"bike_id":"1448f298-93ea-4bfd-b8a2-07fc5ea58412","system_id":"levelo_inurba_marseille","lat":43.30783,"lon":5.37645,"is_reserved":false,"is_disabled":true,"rental_uris":{"android":"levelo://app?vid=1448f298-93ea-4bfd-b8a2-07fc5ea58412","ios":"levelo://app?vid=1448f298-93ea-4bfd-b8a2-07fc5ea58412"},"vehicle_type_id":"4","last_reported":1752208113,"current_range_meters":17200,"station_id":"ce4bgv92rcd13ifvqcq0","pricing_plan_id":"cebpf4jnsgd1na2vs0mg"},{"bike_id":"03e64300-c9c7-4231-a992-9dda12de8de2","system_id":"levelo_inurba_marseille","lat":43.28712,"lon":5.399859,"is_reserved":false,"is_disabled":false,"rental_uris":{"android":"levelo://app?vid=03e64300-c9c7-4231-a992-9dda12de8de2","ios":"levelo://app?vid=03e64300-c9c7-4231-a992-9dda12de8de2"},"vehicle_type_id":"4","last_reported":1752208113,"current_range_meters":17200,"station_id":"ce4bho92rcd13ifvqh3g","pricing_plan_id":"cebpf4jnsgd1na2vs0mg"},{"bike_id":"8929c1bf-fd4d-44e4-aa66-b3eb6538c998","system_id":"levelo_inurba_marseille","lat":43.28576,"lon":5.4297,"is_reserved":false,"is_disabled":false,"rental_uris":{"android":"levelo://app?vid=8929c1bf-fd4d-44e4-aa66-b3eb6538c998","ios":"levelo://app?vid=8929c1bf-fd4d-44e4-aa66-b3eb6538c998"},"vehicle_type_id":"4","last_reported":1752208113,"current_range_meters":17200,"station_id":"","pricing_plan_id":"cebpf4jnsgd1na2vs0mg"},{"bike_id":"ecec5a70-47e2-4076-ac88-b63310387724","system_id":"levelo_inurba_marseille","lat":43.21746,"lon":5.34607,"is_reserved":false,"is_disabled":false,"rental_uris":{"android":"levelo://app?vid=ecec5a70-47e2-4076-ac88-b63310387724","ios":"levelo://app?vid=ecec5a70-47e2-4076-ac88-b63310387724"},"vehicle_type_id":"4","last_reported":1752208113,"current_range_meters":17200,"station_id":"st_cvj6r9ubvosntc0bgbag","pricing_plan_id":"cebpf4jnsgd1na2vs0mg"},{"bike_id":"bd69f1e7-b901-41a0-b2c9-aee4bd027443","system_id":"levelo_inurba_marseille","lat":43.21204,"lon":5.35048,"is_reserved":false,"is_disabled":false,"rental_uris":{"android":"levelo://app?vid=bd69f1e7-b901-41a0-b2c9-aee4bd027443","ios":"levelo://app?vid=bd69f1e7-b901-41a0-b2c9-aee4bd027443"},"vehicle_type_id":"4","last_reported":1752208113,"current_range_meters":17200,"station_id":"st_cvj6sg6p6f1abm77japg","pricing_plan_id":"cebpf4jnsgd1na2vs0mg"},{"bike_id":"dafa5a87-b26d-4379-9a6b-1f02133b78a6","system_id":"levelo_inurba_marseille","lat":43.211872,"lon":5.350753,"is_reserved":false,"is_disabled":false,"rental_uris":{"android":"levelo://app?vid=dafa5a87-b26d-4379-9a6b-1f02133b78a6","ios":"levelo://app?vid=dafa5a87-b26d-4379-9a6b-1f02133b78a6"},"vehicle_type_id":"4","last_reported":1752208113,"current_range_meters":17200,"station_id":"st_cvj6sg6p6f1abm77japg","pricing_plan_id":"cebpf4jnsgd1na2vs0mg"},{"bike_id":"8c86db8a-b071-4f94-a307-47751753d783","system_id":"levelo_inurba_marseille","lat":43.28415,"lon":5.37503,"is_reserved":false,"is_disabled":false,"rental_uris":{"android":"levelo://app?vid=8c86db8a-b071-4f94-a307-47751753d783","ios":"levelo://app?vid=8c86db8a-b071-4f94-a307-47751753d783"},"vehicle_type_id":"4","last_reported":1752208113,"current_range_meters":17600,"station_id":"ce4bh412rcd13ifvqds0","pricing_plan_id":"cebpf4jnsgd1na2vs0mg"},{"bike_id":"342a8d34-22a4-40c3-82b2-60c555020815","system_id":"levelo_inurba_marseille","lat":43.286066,"lon":5.370652,"is_reserved":false,"is_disabled":false,"rental_uris":{"android":"levelo://app?vid=342a8d34-22a4-40c3-82b2-60c555020815","ios":"levelo://app?vid=342a8d34-22a4-40c3-82b2-60c555020815"},"vehicle_type_id":"4","last_reported":1752208113,"current_range_meters":17600,"station_id":"ce4bht12rcd13ifvqi60","pricing_plan_id":"cebpf4jnsgd1na2vs0mg"},{"bike_id":"90bc1451-ed8f-4f1a-807c-2488b3557cb8","system_id":"levelo_inurba_marseille","lat":43.306528,"lon":5.400859,"is_reserved":false,"is_disabled":false,"rental_uris":{"android":"levelo://app?vid=90bc1451-ed8f-4f1a-807c-2488b3557cb8","ios":"levelo://app?vid=90bc1451-ed8f-4f1a-807c-2488b3557cb8"},"vehicle_type_id":"4","last_reported":1752208113,"current_range_meters":17600,"station_id":"ce4bh112rcd13ifvqda0","pricing_plan_id":"cebpf4jnsgd1na2vs0mg"},{"bike_id":"3b9dbb78-9d0e-4498-90da-c9310bfc302f","system_id":"levelo_inurba_marseille","lat":43.309344,"lon":5.401776,"is_reserved":false,"is_disabled":false,"rental_uris":{"android":"levelo://app?vid=3b9dbb78-9d0e-4498-90da-c9310bfc302f","ios":"levelo://app?vid=3b9dbb78-9d0e-4498-90da-c9310bfc302f"},"vehicle_type_id":"4","last_reported":1752208113,"current_range_meters":17600,"station_id":"ce4bgvp2rcd13ifvqct0","pricing_plan_id":"cebpf4jnsgd1na2vs0mg"},{"bike_id":"5a1ebe51-0feb-4bc8-bfb6-f899fcb73b87","system_id":"levelo_inurba_marseille","lat":43.29199,"lon":5.358004,"is_reserved":false,"is_disabled":true,"rental_uris":{"android":"levelo://app?vid=5a1ebe51-0feb-4bc8-bfb6-f899fcb73b87","ios":"levelo://app?vid=5a1ebe51-0feb-4bc8-bfb6-f899fcb73b87"},"vehicle_type_id":"4","last_reported":1752208113,"current_range_meters":17600,"station_id":"","pricing_plan_id":"cebpf4jnsgd1na2vs0mg"},{"bike_id":"af1cde33-5506-4304-9bde-62aa1392a4b6","system_id":"levelo_inurba_marseille","lat":43.32366,"lon":5.38885,"is_reserved":false,"is_disabled":false,"rental_uris":{"android":"levelo://app?vid=af1cde33-5506-4304-9bde-62aa1392a4b6","ios":"levelo://app?vid=af1cde33-5506-4304-9bde-62aa1392a4b6"},"vehicle_type_id":"4","last_reported":1752208113,"current_range_meters":17600,"station_id":"ce4bhqp2rcd13ifvqhog","pricing_plan_id":"cebpf4jnsgd1na2vs0mg"},{"bike_id":"3de59c95-f646-4d2f-9117-e479bf496058","system_id":"levelo_inurba_marseille","lat":43.29864,"lon":5.39742,"is_reserved":false,"is_disabled":false,"rental_uris":{"android":"levelo://app?vid=3de59c95-f646-4d2f-9117-e479bf496058","ios":"levelo://app?vid=3de59c95-f646-4d2f-9117-e479bf496058"},"vehicle_type_id":"4","last_reported":1752208113,"current_range_meters":17600,"station_id":"ce4bh0h2rcd13ifvqd50","pricing_plan_id":"cebpf4jnsgd1na2vs0mg"},{"bike_id":"7b5cd6ce-df57-4328-854d-cb2d1407ab18","system_id":"levelo_inurba_marseille","lat":43.3307,"lon":5.39017,"is_reserved":false,"is_disabled":false,"rental_uris":{"android":"levelo://app?vid=7b5cd6ce-df57-4328-854d-cb2d1407ab18","ios":"levelo://app?vid=7b5cd6ce-df57-4328-854d-cb2d1407ab18"},"vehicle_type_id":"4","last_reported":1752208113,"current_range_meters":17600,"station_id":"","pricing_plan_id":"cebpf4jnsgd1na2vs0mg"},{"bike_id":"ce4c243c-89f2-4d19-9fcb-5ce4c089db94","system_id":"levelo_inurba_marseille","lat":43.284125,"lon":5.3752,"is_reserved":false,"is_disabled":true,"rental_uris":{"android":"levelo://app?vid=ce4c243c-89f2-4d19-9fcb-5ce4c089db94","ios":"levelo://app?vid=ce4c243c-89f2-4d19-9fcb-5ce4c089db94"},"vehicle_type_id":"4","last_reported":1752208113,"current_range_meters":18000,"station_id":"ce4bh412rcd13ifvqds0","pricing_plan_id":"cebpf4jnsgd1na2vs0mg"},{"bike_id":"e9fd0cf8-573b-4177-88a6-f1faf33e8aca","system_id":"levelo_inurba_marseille","lat":43.290006,"lon":5.356095,"is_reserved":false,"is_disabled":true,"rental_uris":{"android":"levelo://app?vid=e9fd0cf8-573b-4177-88a6-f1faf33e8aca","ios":"levelo://app?vid=e9fd0cf8-573b-4177-88a6-f1faf33e8aca"},"vehicle_type_id":"4","last_reported":1752208113,"current_range_meters":18000,"station_id":"ce4bhb92rcd13ifvqen0","pricing_plan_id":"cebpf4jnsgd1na2vs0mg"},{"bike_id":"ff6a6306-6063-42e5-940d-f00631e3dcc1","system_id":"levelo_inurba_marseille","lat":43.260684,"lon":5.375349,"is_reserved":false,"is_disabled":false,"rental_uris":{"android":"levelo://app?vid=ff6a6306-6063-42e5-940d-f00631e3dcc1","ios":"levelo://app?vid=ff6a6306-6063-42e5-940d-f00631e3dcc1"},"vehicle_type_id":"4","last_reported":1752208113,"current_range_meters":18000,"station_id":"","pricing_plan_id":"cebpf4jnsgd1na2vs0mg"},{"bike_id":"43b90c82-97e0-4fa7-8b67-2448f07d529e","system_id":"levelo_inurba_marseille","lat":43.21189,"lon":5.3507,"is_reserved":false,"is_disabled":false,"rental_uris":{"android":"levelo://app?vid=43b90c82-97e0-4fa7-8b67-2448f07d529e","ios":"levelo://app?vid=43b90c82-97e0-4fa7-8b67-2448f07d529e"},"vehicle_type_id":"4","last_reported":1752208113,"current_range_meters":18000,"station_id":"","pricing_plan_id":"cebpf4jnsgd1na2vs0mg"},{"bike_id":"947c8261-50a2-46e4-a6ac-9c4343aea72c","system_id":"levelo_inurba_marseille","lat":43.30649,"lon":5.40074,"is_reserved":false,"is_disabled":false,"rental_uris":{"android":"levelo://app?vid=947c8261-50a2-46e4-a6ac-9c4343aea72c","ios":"levelo://app?vid=947c8261-50a2-46e4-a6ac-9c4343aea72c"},"vehicle_type_id":"4","last_reported":1752208113,"current_range_meters":18000,"station_id":"ce4bh112rcd13ifvqda0","pricing_plan_id":"cebpf4jnsgd1na2vs0mg"},{"bike_id":"2a16ae50-7dbe-4fc6-bba2-cf897e5fa99d","system_id":"levelo_inurba_marseille","lat":43.29032,"lon":5.38128,"is_reserved":false,"is_disabled":true,"rental_uris":{"android":"levelo://app?vid=2a16ae50-7dbe-4fc6-bba2-cf897e5fa99d","ios":"levelo://app?vid=2a16ae50-7dbe-4fc6-bba2-cf897e5fa99d"},"vehicle_type_id":"4","last_reported":1752208113,"current_range_meters":18000,"station_id":"ce4bh4p2rcd13ifvqe1g","pricing_plan_id":"cebpf4jnsgd1na2vs0mg"},{"bike_id":"0f123936-03df-4807-bde5-6038fff4a211","system_id":"levelo_inurba_marseille","lat":43.30928,"lon":5.4015,"is_reserved":false,"is_disabled":false,"rental_uris":{"android":"levelo://app?vid=0f123936-03df-4807-bde5-6038fff4a211","ios":"levelo://app?vid=0f123936-03df-4807-bde5-6038fff4a211"},"vehicle_type_id":"4","last_reported":1752208113,"current_range_meters":18000,"station_id":"ce4bgvp2rcd13ifvqct0","pricing_plan_id":"cebpf4jnsgd1na2vs0mg"},{"bike_id":"37b84a38-055a-4a6e-a56a-8ff3d0c1b2ec","system_id":"levelo_inurba_marseille","lat":43.211913,"lon":5.350748,"is_reserved":false,"is_disabled":false,"rental_uris":{"android":"levelo://app?vid=37b84a38-055a-4a6e-a56a-8ff3d0c1b2ec","ios":"levelo://app?vid=37b84a38-055a-4a6e-a56a-8ff3d0c1b2ec"},"vehicle_type_id":"4","last_reported":1752208113,"current_range_meters":18000,"station_id":"st_cvj6sg6p6f1abm77japg","pricing_plan_id":"cebpf4jnsgd1na2vs0mg"},{"bike_id":"1f6319d1-76b6-4064-a557-5b53d02eec91","system_id":"levelo_inurba_marseille","lat":43.280045,"lon":5.400312,"is_reserved":false,"is_disabled":false,"rental_uris":{"android":"levelo://app?vid=1f6319d1-76b6-4064-a557-5b53d02eec91","ios":"levelo://app?vid=1f6319d1-76b6-4064-a557-5b53d02eec91"},"vehicle_type_id":"4","last_reported":1752208113,"current_range_meters":18000,"station_id":"ce4bho92rcd13ifvqh4g","pricing_plan_id":"cebpf4jnsgd1na2vs0mg"},{"bike_id":"b704999d-1240-49a7-bd71-f908cc05e90b","system_id":"levelo_inurba_marseille","lat":43.30649,"lon":5.40049,"is_reserved":false,"is_disabled":false,"rental_uris":{"android":"levelo://app?vid=b704999d-1240-49a7-bd71-f908cc05e90b","ios":"levelo://app?vid=b704999d-1240-49a7-bd71-f908cc05e90b"},"vehicle_type_id":"4","last_reported":1752208113,"current_range_meters":18000,"station_id":"ce4bh112rcd13ifvqda0","pricing_plan_id":"cebpf4jnsgd1na2vs0mg"},{"bike_id":"c8b423c9-7d56-4df7-bdcc-1b935bdb1a15","system_id":"levelo_inurba_marseille","lat":43.294278,"lon":5.386083,"is_reserved":false,"is_disabled":true,"rental_uris":{"android":"levelo://app?vid=c8b423c9-7d56-4df7-bdcc-1b935bdb1a15","ios":"levelo://app?vid=c8b423c9-7d56-4df7-bdcc-1b935bdb1a15"},"vehicle_type_id":"4","last_reported":1752208113,"current_range_meters":18800,"station_id":"ce4bh2h2rcd13ifvqdh0","pricing_plan_id":"cebpf4jnsgd1na2vs0mg"},{"bike_id":"1744f415-c350-4174-a8b6-6bda87e9874e","system_id":"levelo_inurba_marseille","lat":43.31485,"lon":5.37315,"is_reserved":false,"is_disabled":false,"rental_uris":{"android":"levelo://app?vid=1744f415-c350-4174-a8b6-6bda87e9874e","ios":"levelo://app?vid=1744f415-c350-4174-a8b6-6bda87e9874e"},"vehicle_type_id":"4","last_reported":1752208113,"current_range_meters":18800,"station_id":"ce4bgt12rcd13ifvqcd0","pricing_plan_id":"cebpf4jnsgd1na2vs0mg"},{"bike_id":"8fccf46e-4269-459a-bd9a-cdd93f6b32bc","system_id":"levelo_inurba_marseille","lat":43.30356,"lon":5.41895,"is_reserved":false,"is_disabled":true,"rental_uris":{"android":"levelo://app?vid=8fccf46e-4269-459a-bd9a-cdd93f6b32bc","ios":"levelo://app?vid=8fccf46e-4269-459a-bd9a-cdd93f6b32bc"},"vehicle_type_id":"4","last_reported":1752208113,"current_range_meters":18800,"station_id":"ce4bhop2rcd13ifvqh7g","pricing_plan_id":"cebpf4jnsgd1na2vs0mg"},{"bike_id":"47312462-9f41-4733-b40b-a723bbda6333","system_id":"levelo_inurba_marseille","lat":43.28414,"lon":5.37512,"is_reserved":false,"is_disabled":true,"rental_uris":{"android":"levelo://app?vid=47312462-9f41-4733-b40b-a723bbda6333","ios":"levelo://app?vid=47312462-9f41-4733-b40b-a723bbda6333"},"vehicle_type_id":"4","last_reported":1752208113,"current_range_meters":18800,"station_id":"ce4bh412rcd13ifvqds0","pricing_plan_id":"cebpf4jnsgd1na2vs0mg"},{"bike_id":"d1409228-0111-443b-b7c4-dbc5c1b28444","system_id":"levelo_inurba_marseille","lat":43.27203,"lon":5.39194,"is_reserved":false,"is_disabled":false,"rental_uris":{"android":"levelo://app?vid=d1409228-0111-443b-b7c4-dbc5c1b28444","ios":"levelo://app?vid=d1409228-0111-443b-b7c4-dbc5c1b28444"},"vehicle_type_id":"4","last_reported":1752208113,"current_range_meters":18800,"station_id":"ce4bhhp2rcd13ifvqfm0","pricing_plan_id":"cebpf4jnsgd1na2vs0mg"},{"bike_id":"eb6a2290-40e2-4780-bdeb-a149c699215d","system_id":"levelo_inurba_marseille","lat":43.279505,"lon":5.410521,"is_reserved":false,"is_disabled":true,"rental_uris":{"android":"levelo://app?vid=eb6a2290-40e2-4780-bdeb-a149c699215d","ios":"levelo://app?vid=eb6a2290-40e2-4780-bdeb-a149c699215d"},"vehicle_type_id":"4","last_reported":1752208113,"current_range_meters":18800,"station_id":"ce4bhnp2rcd13ifvqh0g","pricing_plan_id":"cebpf4jnsgd1na2vs0mg"},{"bike_id":"6471854f-7a02-4ed0-9b48-f4756d1b1a89","system_id":"levelo_inurba_marseille","lat":43.311695,"lon":5.387114,"is_reserved":false,"is_disabled":false,"rental_uris":{"android":"levelo://app?vid=6471854f-7a02-4ed0-9b48-f4756d1b1a89","ios":"levelo://app?vid=6471854f-7a02-4ed0-9b48-f4756d1b1a89"},"vehicle_type_id":"4","last_reported":1752208113,"current_range_meters":18800,"station_id":"","pricing_plan_id":"cebpf4jnsgd1na2vs0mg"},{"bike_id":"73ecec12-6034-49a9-8a47-437bea79993d","system_id":"levelo_inurba_marseille","lat":43.31064,"lon":5.38346,"is_reserved":false,"is_disabled":false,"rental_uris":{"android":"levelo://app?vid=73ecec12-6034-49a9-8a47-437bea79993d","ios":"levelo://app?vid=73ecec12-6034-49a9-8a47-437bea79993d"},"vehicle_type_id":"4","last_reported":1752208113,"current_range_meters":18800,"station_id":"ce4bgv92rcd13ifvqcr0","pricing_plan_id":"cebpf4jnsgd1na2vs0mg"},{"bike_id":"dbba3321-20c7-4989-a7b5-ea9ab2c4b3e8","system_id":"levelo_inurba_marseille","lat":43.261935,"lon":5.374477,"is_reserved":false,"is_disabled":false,"rental_uris":{"android":"levelo://app?vid=dbba3321-20c7-4989-a7b5-ea9ab2c4b3e8","ios":"levelo://app?vid=dbba3321-20c7-4989-a7b5-ea9ab2c4b3e8"},"vehicle_type_id":"4","last_reported":1752208113,"current_range_meters":18800,"station_id":"ce4bhgp2rcd13ifvqfc0","pricing_plan_id":"cebpf4jnsgd1na2vs0mg"},{"bike_id":"4564e3d2-af56-4455-b0a4-003192d06947","system_id":"levelo_inurba_marseille","lat":43.309381,"lon":5.401496,"is_reserved":false,"is_disabled":false,"rental_uris":{"android":"levelo://app?vid=4564e3d2-af56-4455-b0a4-003192d06947","ios":"levelo://app?vid=4564e3d2-af56-4455-b0a4-003192d06947"},"vehicle_type_id":"4","last_reported":1752208113,"current_range_meters":19200,"station_id":"ce4bgvp2rcd13ifvqct0","pricing_plan_id":"cebpf4jnsgd1na2vs0mg"},{"bike_id":"311f3744-c716-41cf-8cb5-62c5e7d7959f","system_id":"levelo_inurba_marseille","lat":43.29553,"lon":5.37533,"is_reserved":false,"is_disabled":false,"rental_uris":{"android":"levelo://app?vid=311f3744-c716-41cf-8cb5-62c5e7d7959f","ios":"levelo://app?vid=311f3744-c716-41cf-8cb5-62c5e7d7959f"},"vehicle_type_id":"4","last_reported":1752208113,"current_range_meters":19200,"station_id":"ce4bgh92rcd13ifvqb50","pricing_plan_id":"cebpf4jnsgd1na2vs0mg"},{"bike_id":"5f9facdb-d1e1-40e1-8ceb-766e4b9ac193","system_id":"levelo_inurba_marseille","lat":43.21754,"lon":5.345992,"is_reserved":false,"is_disabled":false,"rental_uris":{"android":"levelo://app?vid=5f9facdb-d1e1-40e1-8ceb-766e4b9ac193","ios":"levelo://app?vid=5f9facdb-d1e1-40e1-8ceb-766e4b9ac193"},"vehicle_type_id":"4","last_reported":1752208113,"current_range_meters":19200,"station_id":"","pricing_plan_id":"cebpf4jnsgd1na2vs0mg"},{"bike_id":"61198919-e72c-4fce-bc96-126627987dc0","system_id":"levelo_inurba_marseille","lat":43.2958,"lon":5.37881,"is_reserved":false,"is_disabled":false,"rental_uris":{"android":"levelo://app?vid=61198919-e72c-4fce-bc96-126627987dc0","ios":"levelo://app?vid=61198919-e72c-4fce-bc96-126627987dc0"},"vehicle_type_id":"4","last_reported":1752208113,"current_range_meters":19200,"station_id":"","pricing_plan_id":"cebpf4jnsgd1na2vs0mg"},{"bike_id":"19ff4f7a-c655-4804-a485-70447a4ef665","system_id":"levelo_inurba_marseille","lat":43.31123,"lon":5.37762,"is_reserved":false,"is_disabled":false,"rental_uris":{"android":"levelo://app?vid=19ff4f7a-c655-4804-a485-70447a4ef665","ios":"levelo://app?vid=19ff4f7a-c655-4804-a485-70447a4ef665"},"vehicle_type_id":"4","last_reported":1752208113,"current_range_meters":19200,"station_id":"ce4bgt92rcd13ifvqcg0","pricing_plan_id":"cebpf4jnsgd1na2vs0mg"},{"bike_id":"452e8211-4f44-45d0-814a-3e9e25b8c44e","system_id":"levelo_inurba_marseille","lat":43.211911,"lon":5.350769,"is_reserved":false,"is_disabled":false,"rental_uris":{"android":"levelo://app?vid=452e8211-4f44-45d0-814a-3e9e25b8c44e","ios":"levelo://app?vid=452e8211-4f44-45d0-814a-3e9e25b8c44e"},"vehicle_type_id":"4","last_reported":1752208113,"current_range_meters":19200,"station_id":"st_cvj6sg6p6f1abm77japg","pricing_plan_id":"cebpf4jnsgd1na2vs0mg"},{"bike_id":"8c49676a-2f17-470c-923b-e4176ac87de9","system_id":"levelo_inurba_marseille","lat":43.30429,"lon":5.3974,"is_reserved":false,"is_disabled":false,"rental_uris":{"android":"levelo://app?vid=8c49676a-2f17-470c-923b-e4176ac87de9","ios":"levelo://app?vid=8c49676a-2f17-470c-923b-e4176ac87de9"},"vehicle_type_id":"4","last_reported":1752208113,"current_range_meters":19200,"station_id":"ce4bh092rcd13ifvqd20","pricing_plan_id":"cebpf4jnsgd1na2vs0mg"},{"bike_id":"e86ba8c9-208d-482c-a826-4c100938472a","system_id":"levelo_inurba_marseille","lat":43.211934,"lon":5.350749,"is_reserved":false,"is_disabled":false,"rental_uris":{"android":"levelo://app?vid=e86ba8c9-208d-482c-a826-4c100938472a","ios":"levelo://app?vid=e86ba8c9-208d-482c-a826-4c100938472a"},"vehicle_type_id":"4","last_reported":1752208113,"current_range_meters":19200,"station_id":"st_cvj6sg6p6f1abm77japg","pricing_plan_id":"cebpf4jnsgd1na2vs0mg"},{"bike_id":"1780c8dc-4362-48ef-92b2-a427e38a65e4","system_id":"levelo_inurba_marseille","lat":43.2705,"lon":5.42282,"is_reserved":false,"is_disabled":false,"rental_uris":{"android":"levelo://app?vid=1780c8dc-4362-48ef-92b2-a427e38a65e4","ios":"levelo://app?vid=1780c8dc-4362-48ef-92b2-a427e38a65e4"},"vehicle_type_id":"4","last_reported":1752208113,"current_range_meters":19200,"station_id":"ce4bhk92rcd13ifvqgb0","pricing_plan_id":"cebpf4jnsgd1na2vs0mg"},{"bike_id":"bf8645e7-f76d-45d1-94a8-0f3eceaf53e0","system_id":"levelo_inurba_marseille","lat":43.26191,"lon":5.37455,"is_reserved":false,"is_disabled":true,"rental_uris":{"android":"levelo://app?vid=bf8645e7-f76d-45d1-94a8-0f3eceaf53e0","ios":"levelo://app?vid=bf8645e7-f76d-45d1-94a8-0f3eceaf53e0"},"vehicle_type_id":"4","last_reported":1752208113,"current_range_meters":19600,"station_id":"ce4bhgp2rcd13ifvqfc0","pricing_plan_id":"cebpf4jnsgd1na2vs0mg"},{"bike_id":"9d0d85e3-ee19-452d-93c5-fbfc98a09acf","system_id":"levelo_inurba_marseille","lat":43.29505,"lon":5.43855,"is_reserved":false,"is_disabled":false,"rental_uris":{"android":"levelo://app?vid=9d0d85e3-ee19-452d-93c5-fbfc98a09acf","ios":"levelo://app?vid=9d0d85e3-ee19-452d-93c5-fbfc98a09acf"},"vehicle_type_id":"4","last_reported":1752208113,"current_range_meters":19600,"station_id":"","pricing_plan_id":"cebpf4jnsgd1na2vs0mg"},{"bike_id":"a81ede20-43a9-47cd-942d-8fb15c54f5f7","system_id":"levelo_inurba_marseille","lat":43.30061,"lon":5.45147,"is_reserved":false,"is_disabled":false,"rental_uris":{"android":"levelo://app?vid=a81ede20-43a9-47cd-942d-8fb15c54f5f7","ios":"levelo://app?vid=a81ede20-43a9-47cd-942d-8fb15c54f5f7"},"vehicle_type_id":"4","last_reported":1752208113,"current_range_meters":20000,"station_id":"","pricing_plan_id":"cebpf4jnsgd1na2vs0mg"},{"bike_id":"48029dd5-d4d9-422d-a6c6-334feff2fb7a","system_id":"levelo_inurba_marseille","lat":43.302466,"lon":5.400757,"is_reserved":false,"is_disabled":false,"rental_uris":{"android":"levelo://app?vid=48029dd5-d4d9-422d-a6c6-334feff2fb7a","ios":"levelo://app?vid=48029dd5-d4d9-422d-a6c6-334feff2fb7a"},"vehicle_type_id":"4","last_reported":1752208113,"current_range_meters":20000,"station_id":"ce4bgvh2rcd13ifvqcs0","pricing_plan_id":"cebpf4jnsgd1na2vs0mg"},{"bike_id":"52bbed55-bb43-4609-aa14-ca80dd09df26","system_id":"levelo_inurba_marseille","lat":43.3374,"lon":5.37485,"is_reserved":false,"is_disabled":false,"rental_uris":{"android":"levelo://app?vid=52bbed55-bb43-4609-aa14-ca80dd09df26","ios":"levelo://app?vid=52bbed55-bb43-4609-aa14-ca80dd09df26"},"vehicle_type_id":"4","last_reported":1752208113,"current_range_meters":20000,"station_id":"","pricing_plan_id":"cebpf4jnsgd1na2vs0mg"},{"bike_id":"9acc38c0-37a6-47f6-8e24-abae31b752b2","system_id":"levelo_inurba_marseille","lat":43.2503,"lon":5.38906,"is_reserved":false,"is_disabled":false,"rental_uris":{"android":"levelo://app?vid=9acc38c0-37a6-47f6-8e24-abae31b752b2","ios":"levelo://app?vid=9acc38c0-37a6-47f6-8e24-abae31b752b2"},"vehicle_type_id":"4","last_reported":1752208113,"current_range_meters":20000,"station_id":"ce4bhgp2rcd13ifvqfd0","pricing_plan_id":"cebpf4jnsgd1na2vs0mg"},{"bike_id":"548305b1-fa79-46fd-a796-f7d488f08666","system_id":"levelo_inurba_marseille","lat":43.26014,"lon":5.41748,"is_reserved":false,"is_disabled":false,"rental_uris":{"android":"levelo://app?vid=548305b1-fa79-46fd-a796-f7d488f08666","ios":"levelo://app?vid=548305b1-fa79-46fd-a796-f7d488f08666"},"vehicle_type_id":"4","last_reported":1752208113,"current_range_meters":20400,"station_id":"","pricing_plan_id":"cebpf4jnsgd1na2vs0mg"},{"bike_id":"394d4120-2502-4f30-a562-0b786feeb7b9","system_id":"levelo_inurba_marseille","lat":43.3093,"lon":5.40143,"is_reserved":false,"is_disabled":false,"rental_uris":{"android":"levelo://app?vid=394d4120-2502-4f30-a562-0b786feeb7b9","ios":"levelo://app?vid=394d4120-2502-4f30-a562-0b786feeb7b9"},"vehicle_type_id":"4","last_reported":1752208113,"current_range_meters":20400,"station_id":"ce4bgvp2rcd13ifvqct0","pricing_plan_id":"cebpf4jnsgd1na2vs0mg"},{"bike_id":"9ebd929c-f797-4f2e-8e8c-271b21004998","system_id":"levelo_inurba_marseille","lat":43.28466,"lon":5.38457,"is_reserved":false,"is_disabled":false,"rental_uris":{"android":"levelo://app?vid=9ebd929c-f797-4f2e-8e8c-271b21004998","ios":"levelo://app?vid=9ebd929c-f797-4f2e-8e8c-271b21004998"},"vehicle_type_id":"4","last_reported":1752208113,"current_range_meters":20400,"station_id":"ce4bh512rcd13ifvqe3g","pricing_plan_id":"cebpf4jnsgd1na2vs0mg"},{"bike_id":"4aba046c-7aa3-4830-895b-da5c19d5cf4a","system_id":"levelo_inurba_marseille","lat":43.32039,"lon":5.41512,"is_reserved":false,"is_disabled":false,"rental_uris":{"android":"levelo://app?vid=4aba046c-7aa3-4830-895b-da5c19d5cf4a","ios":"levelo://app?vid=4aba046c-7aa3-4830-895b-da5c19d5cf4a"},"vehicle_type_id":"4","last_reported":1752208113,"current_range_meters":20000,"station_id":"ce4bhq92rcd13ifvqhkg","pricing_plan_id":"cebpf4jnsgd1na2vs0mg"},{"bike_id":"82426f76-e988-464e-bc33-3038d8bc3596","system_id":"levelo_inurba_marseille","lat":43.30211,"lon":5.39466,"is_reserved":false,"is_disabled":false,"rental_uris":{"android":"levelo://app?vid=82426f76-e988-464e-bc33-3038d8bc3596","ios":"levelo://app?vid=82426f76-e988-464e-bc33-3038d8bc3596"},"vehicle_type_id":"4","last_reported":1752208113,"current_range_meters":20800,"station_id":"ce4bh0p2rcd13ifvqd70","pricing_plan_id":"cebpf4jnsgd1na2vs0mg"},{"bike_id":"6723e535-6880-4f4f-83a7-1592a28ff2c3","system_id":"levelo_inurba_marseille","lat":43.2919,"lon":5.393124,"is_reserved":false,"is_disabled":false,"rental_uris":{"android":"levelo://app?vid=6723e535-6880-4f4f-83a7-1592a28ff2c3","ios":"levelo://app?vid=6723e535-6880-4f4f-83a7-1592a28ff2c3"},"vehicle_type_id":"4","last_reported":1752208113,"current_range_meters":20800,"station_id":"ce4bh192rcd13ifvqdd0","pricing_plan_id":"cebpf4jnsgd1na2vs0mg"},{"bike_id":"8d6a7b87-3399-4806-b93e-2dfe2d0697f2","system_id":"levelo_inurba_marseille","lat":43.30408,"lon":5.41285,"is_reserved":false,"is_disabled":false,"rental_uris":{"android":"levelo://app?vid=8d6a7b87-3399-4806-b93e-2dfe2d0697f2","ios":"levelo://app?vid=8d6a7b87-3399-4806-b93e-2dfe2d0697f2"},"vehicle_type_id":"4","last_reported":1752208113,"current_range_meters":21600,"station_id":"ce4bhop2rcd13ifvqh8g","pricing_plan_id":"cebpf4jnsgd1na2vs0mg"},{"bike_id":"00bc0b3b-e317-4a17-a011-a3a9a29d816a","system_id":"levelo_inurba_marseille","lat":43.211898,"lon":5.35075,"is_reserved":false,"is_disabled":false,"rental_uris":{"android":"levelo://app?vid=00bc0b3b-e317-4a17-a011-a3a9a29d816a","ios":"levelo://app?vid=00bc0b3b-e317-4a17-a011-a3a9a29d816a"},"vehicle_type_id":"4","last_reported":1752208113,"current_range_meters":21600,"station_id":"st_cvj6sg6p6f1abm77japg","pricing_plan_id":"cebpf4jnsgd1na2vs0mg"},{"bike_id":"860bfa46-baa6-4959-9cf8-0638c31b4ddd","system_id":"levelo_inurba_marseille","lat":43.24393,"lon":5.37047,"is_reserved":false,"is_disabled":false,"rental_uris":{"android":"levelo://app?vid=860bfa46-baa6-4959-9cf8-0638c31b4ddd","ios":"levelo://app?vid=860bfa46-baa6-4959-9cf8-0638c31b4ddd"},"vehicle_type_id":"4","last_reported":1752208113,"current_range_meters":21600,"station_id":"ce4bhhh2rcd13ifvqfk0","pricing_plan_id":"cebpf4jnsgd1na2vs0mg"},{"bike_id":"54e396f9-9d94-4b8f-95e4-893836693cd7","system_id":"levelo_inurba_marseille","lat":43.27982,"lon":5.41659,"is_reserved":false,"is_disabled":false,"rental_uris":{"android":"levelo://app?vid=54e396f9-9d94-4b8f-95e4-893836693cd7","ios":"levelo://app?vid=54e396f9-9d94-4b8f-95e4-893836693cd7"},"vehicle_type_id":"4","last_reported":1752208113,"current_range_meters":22000,"station_id":"ce4bho12rcd13ifvqh1g","pricing_plan_id":"cebpf4jnsgd1na2vs0mg"},{"bike_id":"6e05dff0-695d-43fd-9da6-360c4ffbda0c","system_id":"levelo_inurba_marseille","lat":43.231456,"lon":5.437197,"is_reserved":false,"is_disabled":false,"rental_uris":{"android":"levelo://app?vid=6e05dff0-695d-43fd-9da6-360c4ffbda0c","ios":"levelo://app?vid=6e05dff0-695d-43fd-9da6-360c4ffbda0c"},"vehicle_type_id":"4","last_reported":1752208113,"current_range_meters":22000,"station_id":"ce4bhmp2rcd13ifvqgog","pricing_plan_id":"cebpf4jnsgd1na2vs0mg"},{"bike_id":"e7284686-9f77-4d51-bbbf-87716870e454","system_id":"levelo_inurba_marseille","lat":43.25247,"lon":5.42219,"is_reserved":false,"is_disabled":false,"rental_uris":{"android":"levelo://app?vid=e7284686-9f77-4d51-bbbf-87716870e454","ios":"levelo://app?vid=e7284686-9f77-4d51-bbbf-87716870e454"},"vehicle_type_id":"4","last_reported":1752208113,"current_range_meters":22000,"station_id":"","pricing_plan_id":"cebpf4jnsgd1na2vs0mg"},{"bike_id":"99cdd74c-4d86-4740-af8d-f19476fc5321","system_id":"levelo_inurba_marseille","lat":43.31112,"lon":5.37759,"is_reserved":false,"is_disabled":false,"rental_uris":{"android":"levelo://app?vid=99cdd74c-4d86-4740-af8d-f19476fc5321","ios":"levelo://app?vid=99cdd74c-4d86-4740-af8d-f19476fc5321"},"vehicle_type_id":"4","last_reported":1752208113,"current_range_meters":22000,"station_id":"ce4bgt92rcd13ifvqcg0","pricing_plan_id":"cebpf4jnsgd1na2vs0mg"},{"bike_id":"4cefd197-b271-43a4-89e7-a3d2fc918402","system_id":"levelo_inurba_marseille","lat":43.30466,"lon":5.37917,"is_reserved":false,"is_disabled":false,"rental_uris":{"android":"levelo://app?vid=4cefd197-b271-43a4-89e7-a3d2fc918402","ios":"levelo://app?vid=4cefd197-b271-43a4-89e7-a3d2fc918402"},"vehicle_type_id":"4","last_reported":1752208113,"current_range_meters":22400,"station_id":"ce4bgup2rcd13ifvqcn0","pricing_plan_id":"cebpf4jnsgd1na2vs0mg"},{"bike_id":"f2aa76a8-0108-4aaa-8504-061f5f4b25e0","system_id":"levelo_inurba_marseille","lat":43.28706,"lon":5.39975,"is_reserved":false,"is_disabled":false,"rental_uris":{"android":"levelo://app?vid=f2aa76a8-0108-4aaa-8504-061f5f4b25e0","ios":"levelo://app?vid=f2aa76a8-0108-4aaa-8504-061f5f4b25e0"},"vehicle_type_id":"4","last_reported":1752208113,"current_range_meters":22400,"station_id":"ce4bho92rcd13ifvqh3g","pricing_plan_id":"cebpf4jnsgd1na2vs0mg"},{"bike_id":"037c2705-1c23-4b15-858a-79371150f44c","system_id":"levelo_inurba_marseille","lat":43.31065,"lon":5.38358,"is_reserved":false,"is_disabled":false,"rental_uris":{"android":"levelo://app?vid=037c2705-1c23-4b15-858a-79371150f44c","ios":"levelo://app?vid=037c2705-1c23-4b15-858a-79371150f44c"},"vehicle_type_id":"4","last_reported":1752208113,"current_range_meters":22400,"station_id":"ce4bgv92rcd13ifvqcr0","pricing_plan_id":"cebpf4jnsgd1na2vs0mg"},{"bike_id":"f36cb3e6-2c31-4e83-8239-157d9808f13d","system_id":"levelo_inurba_marseille","lat":43.279161,"lon":5.395778,"is_reserved":false,"is_disabled":false,"rental_uris":{"android":"levelo://app?vid=f36cb3e6-2c31-4e83-8239-157d9808f13d","ios":"levelo://app?vid=f36cb3e6-2c31-4e83-8239-157d9808f13d"},"vehicle_type_id":"4","last_reported":1752208113,"current_range_meters":22800,"station_id":"ce4bhf92rcd13ifvqf40","pricing_plan_id":"cebpf4jnsgd1na2vs0mg"},{"bike_id":"51890362-46b0-4ee7-9f02-afbf036d064e","system_id":"levelo_inurba_marseille","lat":43.211913,"lon":5.350731,"is_reserved":false,"is_disabled":false,"rental_uris":{"android":"levelo://app?vid=51890362-46b0-4ee7-9f02-afbf036d064e","ios":"levelo://app?vid=51890362-46b0-4ee7-9f02-afbf036d064e"},"vehicle_type_id":"4","last_reported":1752208113,"current_range_meters":22800,"station_id":"st_cvj6sg6p6f1abm77japg","pricing_plan_id":"cebpf4jnsgd1na2vs0mg"},{"bike_id":"bfc291c2-5efc-48f1-9557-7c9ff81a3455","system_id":"levelo_inurba_marseille","lat":43.29243,"lon":5.40913,"is_reserved":false,"is_disabled":false,"rental_uris":{"android":"levelo://app?vid=bfc291c2-5efc-48f1-9557-7c9ff81a3455","ios":"levelo://app?vid=bfc291c2-5efc-48f1-9557-7c9ff81a3455"},"vehicle_type_id":"4","last_reported":1752208113,"current_range_meters":22800,"station_id":"ce4bh192rcd13ifvqdc0","pricing_plan_id":"cebpf4jnsgd1na2vs0mg"},{"bike_id":"1550d62c-ac23-4182-a92a-927896c39981","system_id":"levelo_inurba_marseille","lat":43.32983,"lon":5.3823,"is_reserved":false,"is_disabled":false,"rental_uris":{"android":"levelo://app?vid=1550d62c-ac23-4182-a92a-927896c39981","ios":"levelo://app?vid=1550d62c-ac23-4182-a92a-927896c39981"},"vehicle_type_id":"4","last_reported":1752208113,"current_range_meters":22800,"station_id":"","pricing_plan_id":"cebpf4jnsgd1na2vs0mg"},{"bike_id":"a948b6b3-97df-4285-bd53-36f7bf232b0a","system_id":"levelo_inurba_marseille","lat":43.292775,"lon":5.40134,"is_reserved":false,"is_disabled":false,"rental_uris":{"android":"levelo://app?vid=a948b6b3-97df-4285-bd53-36f7bf232b0a","ios":"levelo://app?vid=a948b6b3-97df-4285-bd53-36f7bf232b0a"},"vehicle_type_id":"4","last_reported":1752208113,"current_range_meters":22800,"station_id":"ce4bh312rcd13ifvqdk0","pricing_plan_id":"cebpf4jnsgd1na2vs0mg"},{"bike_id":"85d2aee3-4fe4-4c9f-9f31-cc4fe835c04e","system_id":"levelo_inurba_marseille","lat":43.21184,"lon":5.35071,"is_reserved":false,"is_disabled":false,"rental_uris":{"android":"levelo://app?vid=85d2aee3-4fe4-4c9f-9f31-cc4fe835c04e","ios":"levelo://app?vid=85d2aee3-4fe4-4c9f-9f31-cc4fe835c04e"},"vehicle_type_id":"4","last_reported":1752208113,"current_range_meters":22800,"station_id":"st_cvj6sg6p6f1abm77japg","pricing_plan_id":"cebpf4jnsgd1na2vs0mg"},{"bike_id":"d799b321-3a7d-4201-b46e-ffe2ad124f19","system_id":"levelo_inurba_marseille","lat":43.32884,"lon":5.38383,"is_reserved":false,"is_disabled":false,"rental_uris":{"android":"levelo://app?vid=d799b321-3a7d-4201-b46e-ffe2ad124f19","ios":"levelo://app?vid=d799b321-3a7d-4201-b46e-ffe2ad124f19"},"vehicle_type_id":"4","last_reported":1752208113,"current_range_meters":22800,"station_id":"","pricing_plan_id":"cebpf4jnsgd1na2vs0mg"},{"bike_id":"0fd6c78d-9958-4b43-afd1-c57ce2fd1d97","system_id":"levelo_inurba_marseille","lat":43.27181,"lon":5.409904,"is_reserved":false,"is_disabled":false,"rental_uris":{"android":"levelo://app?vid=0fd6c78d-9958-4b43-afd1-c57ce2fd1d97","ios":"levelo://app?vid=0fd6c78d-9958-4b43-afd1-c57ce2fd1d97"},