{"last_updated":1732921713,"ttl":60,"version":"2.2","data":{"bikes":[{"bike_id":"d375be11-1a40-470b-b905-c4946466142a","system_id":"levelo_inurba_marseille","lat":43.28464,"lon":5.35882,"is_reserved":false,"is_disabled":false,"rental_uris":{"android":"levelo://app?vid=d375be11-1a40-470b-b905-c4946466142a","ios":"levelo://app?vid=d375be11-1a40-470b-b905-c4946466142a"},"vehicle_type_id":"4","last_reported":1732921713,"current_range_meters":24400,"station_id":"ce4bhah2rcd13ifvqei0","pricing_plan_id":"cebpf4jnsgd1na2vs0mg"},{"bike_id":"c8843f76-c653-44e5-85fb-caaaa96793d4","system_id":"levelo_inurba_marseille","lat":43.32109,"lon":5.36781,"is_reserved":false,"is_disabled":false,"rental_uris":{"android":"levelo://app?vid=c8843f76-c653-44e5-85fb-caaaa96793d4","ios":"levelo://app?vid=c8843f76-c653-44e5-85fb-caaaa96793d4"},"vehicle_type_id":"4","last_reported":1732921713,"current_range_meters":24400,"station_id":"ce4bhrh2rcd13ifvqhug","pricing_plan_id":"cebpf4jnsgd1na2vs0mg"},{"bike_id":"1f8f8c48-24d9-4dd5-9925-46be060f0d34","system_id":"levelo_inurba_marseille","lat":43.29299,"lon":5.37174,"is_reserved":false,"is_disabled":true,"rental_uris":{"android":"levelo://app?vid=1f8f8c48-24d9-4dd5-9925-46be060f0d34","ios":"levelo://app?vid=1f8f8c48-24d9-4dd5-9925-46be060f0d34"},"vehicle_type_id":"4","last_reported":1732921713,"current_range_meters":0,"station_id":"ce4bgh92rcd13ifvqb40","pricing_plan_id":"cebpf4jnsgd1na2vs0mg"},{"bike_id":"b856c8b4-412d-4c25-bdd4-e6b29aed04cb","system_id":"levelo_inurba_marseille","lat":43.22932,"lon":5.35382,"is_reserved":false,"is_disabled":false,"rental_uris":{"android":"levelo://app?vid=b856c8b4-412d-4c25-bdd4-e6b29aed04cb","ios":"levelo://app?vid=b856c8b4-412d-4c25-bdd4-e6b29aed04cb"},"vehicle_type_id":"4","last_reported":1732921713,"current_range_meters":40000,"station_id":"cpo3532slgdg3j2ikp40","pricing_plan_id":"cebpf4jnsgd1na2vs0mg"},{"bike_id":"3ab70a40-e825-45f1-adcb-4f1977bdbea9","system_id":"levelo_inurba_marseille","lat":43.30808,"lon":5.38144,"is_reserved":false,"is_disabled":false,"rental_uris":{"android":"levelo://app?vid=3ab70a40-e825-45f1-adcb-4f1977bdbea9","ios":"levelo://app?vid=3ab70a40-e825-45f1-adcb-4f1977bdbea9"},"vehicle_type_id":"4","last_reported":1732921713,"current_range_meters":24400,"station_id":"ce4bgt12rcd13ifvqce0","pricing_plan_id":"cebpf4jnsgd1na2vs0mg"},{"bike_id":"84ccddc4-6681-44c8-bacd-154da9b78895","system_id":"levelo_inurba_marseille","lat":43.31714,"lon":5.42403,"is_reserved":false,"is_disabled":false,"rental_uris":{"android":"levelo://app?vid=84ccddc4-6681-44c8-bacd-154da9b78895","ios":"levelo://app?vid=84ccddc4-6681-44c8-bacd-154da9b78895"},"vehicle_type_id":"4","last_reported":1732921713,"current_range_meters":27200,"station_id":"ce4bhp92rcd13ifvqhbg","pricing_plan_id":"cebpf4jnsgd1na2vs0mg"},{"bike_id":"59c83739-f347-4298-a19d-e8fdf76ba6e4","system_id":"levelo_inurba_marseille","lat":43.30583,"lon":5.39358,"is_reserved":false,"is_disabled":false,"rental_uris":{"android":"levelo://app?vid=59c83739-f347-4298-a19d-e8fdf76ba6e4","ios":"levelo://app?vid=59c83739-f347-4298-a19d-e8fdf76ba6e4"},"vehicle_type_id":"4","last_reported":1732921713,"current_range_meters":24000,"station_id":"ce4bh0p2rcd13ifvqd80","pricing_plan_id":"cebpf4jnsgd1na2vs0mg"},{"bike_id":"e2e30902-f575-40ed-a6ad-0f88d28c0438","system_id":"levelo_inurba_marseille","lat":43.28452,"lon":5.39209,"is_reserved":false,"is_disabled":false,"rental_uris":{"android":"levelo://app?vid=e2e30902-f575-40ed-a6ad-0f88d28c0438","ios":"levelo://app?vid=e2e30902-f575-40ed-a6ad-0f88d28c0438"},"vehicle_type_id":"4","last_reported":1732921713,"current_range_meters":35600,"station_id":"ce4bhoh2rcd13ifvqh5g","pricing_plan_id":"cebpf4jnsgd1na2vs0mg"},{"bike_id":"edb5639e-25fe-4ee3-ab07-5b09d8eb6b3c","system_id":"levelo_inurba_marseille","lat":43.30434,"lon":5.389,"is_reserved":false,"is_disabled":true,"rental_uris":{"android":"levelo://app?vid=edb5639e-25fe-4ee3-ab07-5b09d8eb6b3c","ios":"levelo://app?vid=edb5639e-25fe-4ee3-ab07-5b09d8eb6b3c"},"vehicle_type_id":"4","last_reported":1732921713,"current_range_meters":30000,"station_id":"ce4bgk12rcd13ifvqbi0","pricing_plan_id":"cebpf4jnsgd1na2vs0mg"},{"bike_id":"55a59da6-5727-4b23-892f-57b9bc4daf50","system_id":"levelo_inurba_marseille","lat":43.31368,"lon":5.38499,"is_reserved":false,"is_disabled":false,"rental_uris":{"android":"levelo://app?vid=55a59da6-5727-4b23-892f-57b9bc4daf50","ios":"levelo://app?vid=55a59da6-5727-4b23-892f-57b9bc4daf50"},"vehicle_type_id":"4","last_reported":1732921713,"current_range_meters":25200,"station_id":"ce4bgt92rcd13ifvqcf0","pricing_plan_id":"cebpf4jnsgd1na2vs0mg"},{"bike_id":"f948637a-64e0-4031-9c7e-3882d4412ec4","system_id":"levelo_inurba_marseille","lat":43.30955,"lon":5.39047,"is_reserved":false,"is_disabled":false,"rental_uris":{"android":"levelo://app?vid=f948637a-64e0-4031-9c7e-3882d4412ec4","ios":"levelo://app?vid=f948637a-64e0-4031-9c7e-3882d4412ec4"},"vehicle_type_id":"4","last_reported":1732921713,"current_range_meters":5600,"station_id":"ce4bgup2rcd13ifvqco0","pricing_plan_id":"cebpf4jnsgd1na2vs0mg"},{"bike_id":"7974306f-50f1-4979-96e6-42a3a669c81a","system_id":"levelo_inurba_marseille","lat":43.32004,"lon":5.38166,"is_reserved":false,"is_disabled":false,"rental_uris":{"android":"levelo://app?vid=7974306f-50f1-4979-96e6-42a3a669c81a","ios":"levelo://app?vid=7974306f-50f1-4979-96e6-42a3a669c81a"},"vehicle_type_id":"4","last_reported":1732921713,"current_range_meters":20000,"station_id":"ce4bhr12rcd13ifvqhpg","pricing_plan_id":"cebpf4jnsgd1na2vs0mg"},{"bike_id":"dc4e9b89-a790-44b8-be05-fce6956608eb","system_id":"levelo_inurba_marseille","lat":43.31483,"lon":5.37305,"is_reserved":false,"is_disabled":false,"rental_uris":{"android":"levelo://app?vid=dc4e9b89-a790-44b8-be05-fce6956608eb","ios":"levelo://app?vid=dc4e9b89-a790-44b8-be05-fce6956608eb"},"vehicle_type_id":"4","last_reported":1732921713,"current_range_meters":28400,"station_id":"ce4bgt12rcd13ifvqcd0","pricing_plan_id":"cebpf4jnsgd1na2vs0mg"},{"bike_id":"ffff61f8-5b99-41f2-868c-92c4813581cc","system_id":"levelo_inurba_marseille","lat":43.306,"lon":5.39352,"is_reserved":false,"is_disabled":false,"rental_uris":{"android":"levelo://app?vid=ffff61f8-5b99-41f2-868c-92c4813581cc","ios":"levelo://app?vid=ffff61f8-5b99-41f2-868c-92c4813581cc"},"vehicle_type_id":"4","last_reported":1732921713,"current_range_meters":29600,"station_id":"ce4bh0p2rcd13ifvqd80","pricing_plan_id":"cebpf4jnsgd1na2vs0mg"},{"bike_id":"2b226242-13ce-4b23-8d88-d25971444842","system_id":"levelo_inurba_marseille","lat":43.29561,"lon":5.37524,"is_reserved":false,"is_disabled":false,"rental_uris":{"android":"levelo://app?vid=2b226242-13ce-4b23-8d88-d25971444842","ios":"levelo://app?vid=2b226242-13ce-4b23-8d88-d25971444842"},"vehicle_type_id":"4","last_reported":1732921713,"current_range_meters":37600,"station_id":"ce4bgh92rcd13ifvqb50","pricing_plan_id":"cebpf4jnsgd1na2vs0mg"},{"bike_id":"73c4bc11-f913-4601-94d3-616b6041b995","system_id":"levelo_inurba_marseille","lat":43.27203,"lon":5.39184,"is_reserved":false,"is_disabled":false,"rental_uris":{"android":"levelo://app?vid=73c4bc11-f913-4601-94d3-616b6041b995","ios":"levelo://app?vid=73c4bc11-f913-4601-94d3-616b6041b995"},"vehicle_type_id":"4","last_reported":1732921713,"current_range_meters":34000,"station_id":"ce4bhhp2rcd13ifvqfm0","pricing_plan_id":"cebpf4jnsgd1na2vs0mg"},{"bike_id":"dd764c4f-e5a4-49d0-a29b-266bdb920ff5","system_id":"levelo_inurba_marseille","lat":43.24545,"lon":5.39522,"is_reserved":false,"is_disabled":false,"rental_uris":{"android":"levelo://app?vid=dd764c4f-e5a4-49d0-a29b-266bdb920ff5","ios":"levelo://app?vid=dd764c4f-e5a4-49d0-a29b-266bdb920ff5"},"vehicle_type_id":"4","last_reported":1732921713,"current_range_meters":24000,"station_id":"ce4bhlp2rcd13ifvqgjg","pricing_plan_id":"cebpf4jnsgd1na2vs0mg"},{"bike_id":"3db1a666-371a-476b-b6d3-365b3993e169","system_id":"levelo_inurba_marseille","lat":43.27214,"lon":5.39185,"is_reserved":false,"is_disabled":false,"rental_uris":{"android":"levelo://app?vid=3db1a666-371a-476b-b6d3-365b3993e169","ios":"levelo://app?vid=3db1a666-371a-476b-b6d3-365b3993e169"},"vehicle_type_id":"4","last_reported":1732921713,"current_range_meters":12000,"station_id":"ce4bhhp2rcd13ifvqfm0","pricing_plan_id":"cebpf4jnsgd1na2vs0mg"},{"bike_id":"d77c8fa8-9230-4eda-bc9a-5b066cfdd6cc","system_id":"levelo_inurba_marseille","lat":43.25719,"lon":5.41114,"is_reserved":false,"is_disabled":false,"rental_uris":{"android":"levelo://app?vid=d77c8fa8-9230-4eda-bc9a-5b066cfdd6cc","ios":"levelo://app?vid=d77c8fa8-9230-4eda-bc9a-5b066cfdd6cc"},"vehicle_type_id":"4","last_reported":1732921713,"current_range_meters":22800,"station_id":"ce4bhkp2rcd13ifvqgd0","pricing_plan_id":"cebpf4jnsgd1na2vs0mg"},{"bike_id":"1fc9325f-710f-49a4-8684-4130de067a92","system_id":"levelo_inurba_marseille","lat":43.33602,"lon":5.41023,"is_reserved":false,"is_disabled":false,"rental_uris":{"android":"levelo://app?vid=1fc9325f-710f-49a4-8684-4130de067a92","ios":"levelo://app?vid=1fc9325f-710f-49a4-8684-4130de067a92"},"vehicle_type_id":"4","last_reported":1732921713,"current_range_meters":38800,"station_id":"ce4bhqh2rcd13ifvqhmg","pricing_plan_id":"cebpf4jnsgd1na2vs0mg"},{"bike_id":"2e205062-0f9e-4f82-8617-2c13f007dd60","system_id":"levelo_inurba_marseille","lat":43.33022,"lon":5.39039,"is_reserved":false,"is_disabled":false,"rental_uris":{"android":"levelo://app?vid=2e205062-0f9e-4f82-8617-2c13f007dd60","ios":"levelo://app?vid=2e205062-0f9e-4f82-8617-2c13f007dd60"},"vehicle_type_id":"4","last_reported":1732921713,"current_range_meters":30400,"station_id":"ce4bhr92rcd13ifvqhrg","pricing_plan_id":"cebpf4jnsgd1na2vs0mg"},{"bike_id":"efb68f68-e0b2-43d7-8b1c-f3466693546a","system_id":"levelo_inurba_marseille","lat":43.29428,"lon":5.39732,"is_reserved":false,"is_disabled":false,"rental_uris":{"android":"levelo://app?vid=efb68f68-e0b2-43d7-8b1c-f3466693546a","ios":"levelo://app?vid=efb68f68-e0b2-43d7-8b1c-f3466693546a"},"vehicle_type_id":"4","last_reported":1732921713,"current_range_meters":12400,"station_id":"ce4bh3h2rcd13ifvqdo0","pricing_plan_id":"cebpf4jnsgd1na2vs0mg"},{"bike_id":"50685f0c-7f2b-45de-a548-3b9a1a1165a8","system_id":"levelo_inurba_marseille","lat":43.31359,"lon":5.38509,"is_reserved":false,"is_disabled":false,"rental_uris":{"android":"levelo://app?vid=50685f0c-7f2b-45de-a548-3b9a1a1165a8","ios":"levelo://app?vid=50685f0c-7f2b-45de-a548-3b9a1a1165a8"},"vehicle_type_id":"4","last_reported":1732921713,"current_range_meters":8800,"station_id":"ce4bgt92rcd13ifvqcf0","pricing_plan_id":"cebpf4jnsgd1na2vs0mg"},{"bike_id":"f0230a1a-d14b-4809-9cfa-9d76c96241df","system_id":"levelo_inurba_marseille","lat":43.3093,"lon":5.40143,"is_reserved":false,"is_disabled":false,"rental_uris":{"android":"levelo://app?vid=f0230a1a-d14b-4809-9cfa-9d76c96241df","ios":"levelo://app?vid=f0230a1a-d14b-4809-9cfa-9d76c96241df"},"vehicle_type_id":"4","last_reported":1732921713,"current_range_meters":28400,"station_id":"ce4bgvp2rcd13ifvqct0","pricing_plan_id":"cebpf4jnsgd1na2vs0mg"},{"bike_id":"562938e2-3fa2-49c6-86f9-f7045ab7cae5","system_id":"levelo_inurba_marseille","lat":43.31429,"lon":5.36579,"is_reserved":false,"is_disabled":false,"rental_uris":{"android":"levelo://app?vid=562938e2-3fa2-49c6-86f9-f7045ab7cae5","ios":"levelo://app?vid=562938e2-3fa2-49c6-86f9-f7045ab7cae5"},"vehicle_type_id":"4","last_reported":1732921713,"current_range_meters":39200,"station_id":"ce4bgr92rcd13ifvqc6g","pricing_plan_id":"cebpf4jnsgd1na2vs0mg"},{"bike_id":"3403761e-eed7-48fa-b864-fde7c275870f","system_id":"levelo_inurba_marseille","lat":43.27418,"lon":5.39416,"is_reserved":false,"is_disabled":false,"rental_uris":{"android":"levelo://app?vid=3403761e-eed7-48fa-b864-fde7c275870f","ios":"levelo://app?vid=3403761e-eed7-48fa-b864-fde7c275870f"},"vehicle_type_id":"4","last_reported":1732921713,"current_range_meters":6000,"station_id":"ce4bhdp2rcd13ifvqf20","pricing_plan_id":"cebpf4jnsgd1na2vs0mg"},{"bike_id":"6f7949e1-de87-4a49-8620-fec27e04447f","system_id":"levelo_inurba_marseille","lat":43.33737,"lon":5.39198,"is_reserved":false,"is_disabled":false,"rental_uris":{"android":"levelo://app?vid=6f7949e1-de87-4a49-8620-fec27e04447f","ios":"levelo://app?vid=6f7949e1-de87-4a49-8620-fec27e04447f"},"vehicle_type_id":"4","last_reported":1732921713,"current_range_meters":29600,"station_id":"ce4bhr92rcd13ifvqhsg","pricing_plan_id":"cebpf4jnsgd1na2vs0mg"},{"bike_id":"35d571c6-7ee8-402e-b9a9-509c04cc6376","system_id":"levelo_inurba_marseille","lat":43.23194,"lon":5.35549,"is_reserved":false,"is_disabled":false,"rental_uris":{"android":"levelo://app?vid=35d571c6-7ee8-402e-b9a9-509c04cc6376","ios":"levelo://app?vid=35d571c6-7ee8-402e-b9a9-509c04cc6376"},"vehicle_type_id":"4","last_reported":1732921713,"current_range_meters":36800,"station_id":"ce4bhu92rcd13ifvqi70","pricing_plan_id":"cebpf4jnsgd1na2vs0mg"},{"bike_id":"1df6f6a5-9d0c-48c9-95f5-e82243982f3f","system_id":"levelo_inurba_marseille","lat":43.30802,"lon":5.38151,"is_reserved":false,"is_disabled":false,"rental_uris":{"android":"levelo://app?vid=1df6f6a5-9d0c-48c9-95f5-e82243982f3f","ios":"levelo://app?vid=1df6f6a5-9d0c-48c9-95f5-e82243982f3f"},"vehicle_type_id":"4","last_reported":1732921713,"current_range_meters":21600,"station_id":"ce4bgt12rcd13ifvqce0","pricing_plan_id":"cebpf4jnsgd1na2vs0mg"},{"bike_id":"79da6e11-068f-4f85-891a-bf5d6033ae1b","system_id":"levelo_inurba_marseille","lat":43.29193,"lon":5.39314,"is_reserved":false,"is_disabled":true,"rental_uris":{"android":"levelo://app?vid=79da6e11-068f-4f85-891a-bf5d6033ae1b","ios":"levelo://app?vid=79da6e11-068f-4f85-891a-bf5d6033ae1b"},"vehicle_type_id":"4","last_reported":1732921713,"current_range_meters":27200,"station_id":"ce4bh192rcd13ifvqdd0","pricing_plan_id":"cebpf4jnsgd1na2vs0mg"},{"bike_id":"ea65bc22-100f-4a7b-a38b-f2659223cf3d","system_id":"levelo_inurba_marseille","lat":43.32002,"lon":5.38151,"is_reserved":false,"is_disabled":false,"rental_uris":{"android":"levelo://app?vid=ea65bc22-100f-4a7b-a38b-f2659223cf3d","ios":"levelo://app?vid=ea65bc22-100f-4a7b-a38b-f2659223cf3d"},"vehicle_type_id":"4","last_reported":1732921713,"current_range_meters":9600,"station_id":"ce4bhr12rcd13ifvqhpg","pricing_plan_id":"cebpf4jnsgd1na2vs0mg"},{"bike_id":"17c3787c-47ed-47fd-9c64-fc0be19f7592","system_id":"levelo_inurba_marseille","lat":43.30418,"lon":5.41279,"is_reserved":false,"is_disabled":false,"rental_uris":{"android":"levelo://app?vid=17c3787c-47ed-47fd-9c64-fc0be19f7592","ios":"levelo://app?vid=17c3787c-47ed-47fd-9c64-fc0be19f7592"},"vehicle_type_id":"4","last_reported":1732921713,"current_range_meters":19600,"station_id":"ce4bhop2rcd13ifvqh8g","pricing_plan_id":"cebpf4jnsgd1na2vs0mg"},{"bike_id":"c8e18c54-9b3f-4cd1-ad67-6ca07bf358c8","system_id":"levelo_inurba_marseille","lat":43.33023,"lon":5.39034,"is_reserved":false,"is_disabled":false,"rental_uris":{"android":"levelo://app?vid=c8e18c54-9b3f-4cd1-ad67-6ca07bf358c8","ios":"levelo://app?vid=c8e18c54-9b3f-4cd1-ad67-6ca07bf358c8"},"vehicle_type_id":"4","last_reported":1732921713,"current_range_meters":9600,"station_id":"ce4bhr92rcd13ifvqhrg","pricing_plan_id":"cebpf4jnsgd1na2vs0mg"},{"bike_id":"9ca2951e-4314-4223-be28-e973a8d41b77","system_id":"levelo_inurba_marseille","lat":43.29707,"lon":5.36602,"is_reserved":false,"is_disabled":false,"rental_uris":{"android":"levelo://app?vid=9ca2951e-4314-4223-be28-e973a8d41b77","ios":"levelo://app?vid=9ca2951e-4314-4223-be28-e973a8d41b77"},"vehicle_type_id":"4","last_reported":1732921713,"current_range_meters":28800,"station_id":"ce4bgn12rcd13ifvqbt0","pricing_plan_id":"cebpf4jnsgd1na2vs0mg"},{"bike_id":"9df891fc-6fad-4fa6-8d41-90f57311b9ce","system_id":"levelo_inurba_marseille","lat":43.30787,"lon":5.37634,"is_reserved":false,"is_disabled":false,"rental_uris":{"android":"levelo://app?vid=9df891fc-6fad-4fa6-8d41-90f57311b9ce","ios":"levelo://app?vid=9df891fc-6fad-4fa6-8d41-90f57311b9ce"},"vehicle_type_id":"4","last_reported":1732921713,"current_range_meters":34800,"station_id":"ce4bgv92rcd13ifvqcq0","pricing_plan_id":"cebpf4jnsgd1na2vs0mg"},{"bike_id":"cbd24d3b-9e06-46c8-bf36-74d5e8096c43","system_id":"levelo_inurba_marseille","lat":43.28834,"lon":5.39307,"is_reserved":false,"is_disabled":false,"rental_uris":{"android":"levelo://app?vid=cbd24d3b-9e06-46c8-bf36-74d5e8096c43","ios":"levelo://app?vid=cbd24d3b-9e06-46c8-bf36-74d5e8096c43"},"vehicle_type_id":"4","last_reported":1732921713,"current_range_meters":38400,"station_id":"ce4bh2p2rcd13ifvqdi0","pricing_plan_id":"cebpf4jnsgd1na2vs0mg"},{"bike_id":"a55bc1d2-28a3-429a-895d-df639f9f9ade","system_id":"levelo_inurba_marseille","lat":43.29435,"lon":5.39753,"is_reserved":false,"is_disabled":false,"rental_uris":{"android":"levelo://app?vid=a55bc1d2-28a3-429a-895d-df639f9f9ade","ios":"levelo://app?vid=a55bc1d2-28a3-429a-895d-df639f9f9ade"},"vehicle_type_id":"4","last_reported":1732921713,"current_range_meters":36000,"station_id":"ce4bh3h2rcd13ifvqdo0","pricing_plan_id":"cebpf4jnsgd1na2vs0mg"},{"bike_id":"8d9298b4-84ac-488b-9330-0151305890fc","system_id":"levelo_inurba_marseille","lat":43.29203,"lon":5.35808,"is_reserved":false,"is_disabled":false,"rental_uris":{"android":"levelo://app?vid=8d9298b4-84ac-488b-9330-0151305890fc","ios":"levelo://app?vid=8d9298b4-84ac-488b-9330-0151305890fc"},"vehicle_type_id":"4","last_reported":1732921713,"current_range_meters":38800,"station_id":"ce4bhb12rcd13ifvqel0","pricing_plan_id":"cebpf4jnsgd1na2vs0mg"},{"bike_id":"98037c3a-9b2c-4fc3-b5c9-984ee3607601","system_id":"levelo_inurba_marseille","lat":43.32361,"lon":5.36758,"is_reserved":false,"is_disabled":false,"rental_uris":{"android":"levelo://app?vid=98037c3a-9b2c-4fc3-b5c9-984ee3607601","ios":"levelo://app?vid=98037c3a-9b2c-4fc3-b5c9-984ee3607601"},"vehicle_type_id":"4","last_reported":1732921713,"current_range_meters":19600,"station_id":"","pricing_plan_id":"cebpf4jnsgd1na2vs0mg"},{"bike_id":"19d8d449-a0eb-4c0e-9592-0053e853ceac","system_id":"levelo_inurba_marseille","lat":43.33025,"lon":5.39037,"is_reserved":false,"is_disabled":false,"rental_uris":{"android":"levelo://app?vid=19d8d449-a0eb-4c0e-9592-0053e853ceac","ios":"levelo://app?vid=19d8d449-a0eb-4c0e-9592-0053e853ceac"},"vehicle_type_id":"4","last_reported":1732921713,"current_range_meters":36800,"station_id":"ce4bhr92rcd13ifvqhrg","pricing_plan_id":"cebpf4jnsgd1na2vs0mg"},{"bike_id":"d1486dd5-23d4-40bc-bb61-4a3c8126196a","system_id":"levelo_inurba_marseille","lat":43.27352,"lon":5.3622,"is_reserved":false,"is_disabled":true,"rental_uris":{"android":"levelo://app?vid=d1486dd5-23d4-40bc-bb61-4a3c8126196a","ios":"levelo://app?vid=d1486dd5-23d4-40bc-bb61-4a3c8126196a"},"vehicle_type_id":"4","last_reported":1732921713,"current_range_meters":38800,"station_id":"ce4bhbh2rcd13ifvqeo0","pricing_plan_id":"cebpf4jnsgd1na2vs0mg"},{"bike_id":"30c3208d-1783-476f-9dd8-27344b6219bd","system_id":"levelo_inurba_marseille","lat":43.25827,"lon":5.39441,"is_reserved":false,"is_disabled":false,"rental_uris":{"android":"levelo://app?vid=30c3208d-1783-476f-9dd8-27344b6219bd","ios":"levelo://app?vid=30c3208d-1783-476f-9dd8-27344b6219bd"},"vehicle_type_id":"4","last_reported":1732921713,"current_range_meters":37600,"station_id":"ce4bhip2rcd13ifvqft0","pricing_plan_id":"cebpf4jnsgd1na2vs0mg"},{"bike_id":"5dc9edb1-f8c3-4553-889d-f73c08836757","system_id":"levelo_inurba_marseille","lat":43.32474,"lon":5.36553,"is_reserved":false,"is_disabled":true,"rental_uris":{"android":"levelo://app?vid=5dc9edb1-f8c3-4553-889d-f73c08836757","ios":"levelo://app?vid=5dc9edb1-f8c3-4553-889d-f73c08836757"},"vehicle_type_id":"4","last_reported":1732921713,"current_range_meters":6400,"station_id":"ce4bhs12rcd13ifvqhvg","pricing_plan_id":"cebpf4jnsgd1na2vs0mg"},{"bike_id":"d9785a2a-0154-4138-97b5-2ca576a5597c","system_id":"levelo_inurba_marseille","lat":43.28684,"lon":5.38655,"is_reserved":false,"is_disabled":false,"rental_uris":{"android":"levelo://app?vid=d9785a2a-0154-4138-97b5-2ca576a5597c","ios":"levelo://app?vid=d9785a2a-0154-4138-97b5-2ca576a5597c"},"vehicle_type_id":"4","last_reported":1732921713,"current_range_meters":2000,"station_id":"ce4bh492rcd13ifvqdug","pricing_plan_id":"cebpf4jnsgd1na2vs0mg"},{"bike_id":"d350231d-a46d-4666-ba51-f12c2e69a01c","system_id":"levelo_inurba_marseille","lat":43.25726,"lon":5.41108,"is_reserved":false,"is_disabled":false,"rental_uris":{"android":"levelo://app?vid=d350231d-a46d-4666-ba51-f12c2e69a01c","ios":"levelo://app?vid=d350231d-a46d-4666-ba51-f12c2e69a01c"},"vehicle_type_id":"4","last_reported":1732921713,"current_range_meters":39200,"station_id":"ce4bhkp2rcd13ifvqgd0","pricing_plan_id":"cebpf4jnsgd1na2vs0mg"},{"bike_id":"4651a703-59f3-466c-b16b-a4f8e06e86f3","system_id":"levelo_inurba_marseille","lat":43.31168,"lon":5.38714,"is_reserved":false,"is_disabled":false,"rental_uris":{"android":"levelo://app?vid=4651a703-59f3-466c-b16b-a4f8e06e86f3","ios":"levelo://app?vid=4651a703-59f3-466c-b16b-a4f8e06e86f3"},"vehicle_type_id":"4","last_reported":1732921713,"current_range_meters":39200,"station_id":"ce4bgv12rcd13ifvqcp0","pricing_plan_id":"cebpf4jnsgd1na2vs0mg"},{"bike_id":"fcfdbdf9-c5ac-4d7c-b42f-24ba4acc87cd","system_id":"levelo_inurba_marseille","lat":43.29065,"lon":5.37154,"is_reserved":false,"is_disabled":false,"rental_uris":{"android":"levelo://app?vid=fcfdbdf9-c5ac-4d7c-b42f-24ba4acc87cd","ios":"levelo://app?vid=fcfdbdf9-c5ac-4d7c-b42f-24ba4acc87cd"},"vehicle_type_id":"4","last_reported":1732921713,"current_range_meters":38800,"station_id":"ce4bh5p2rcd13ifvqe4g","pricing_plan_id":"cebpf4jnsgd1na2vs0mg"},{"bike_id":"17e69a6c-e451-444d-a02c-b7faaa4464c2","system_id":"levelo_inurba_marseille","lat":43.30801,"lon":5.38149,"is_reserved":false,"is_disabled":false,"rental_uris":{"android":"levelo://app?vid=17e69a6c-e451-444d-a02c-b7faaa4464c2","ios":"levelo://app?vid=17e69a6c-e451-444d-a02c-b7faaa4464c2"},"vehicle_type_id":"4","last_reported":1732921713,"current_range_meters":32400,"station_id":"ce4bgt12rcd13ifvqce0","pricing_plan_id":"cebpf4jnsgd1na2vs0mg"},{"bike_id":"8938b680-b8f0-439b-aa76-77079135e43c","system_id":"levelo_inurba_marseille","lat":43.31532,"lon":5.38026,"is_reserved":false,"is_disabled":false,"rental_uris":{"android":"levelo://app?vid=8938b680-b8f0-439b-aa76-77079135e43c","ios":"levelo://app?vid=8938b680-b8f0-439b-aa76-77079135e43c"},"vehicle_type_id":"4","last_reported":1732921713,"current_range_meters":34000,"station_id":"ce4bhsp2rcd13ifvqi50","pricing_plan_id":"cebpf4jnsgd1na2vs0mg"},{"bike_id":"ab48ff1d-73d7-44c7-9ef3-0adeaaf25f01","system_id":"levelo_inurba_marseille","lat":43.2694,"lon":5.38921,"is_reserved":false,"is_disabled":true,"rental_uris":{"android":"levelo://app?vid=ab48ff1d-73d7-44c7-9ef3-0adeaaf25f01","ios":"levelo://app?vid=ab48ff1d-73d7-44c7-9ef3-0adeaaf25f01"},"vehicle_type_id":"4","last_reported":1732921713,"current_range_meters":13600,"station_id":"ce4bhhh2rcd13ifvqfl0","pricing_plan_id":"cebpf4jnsgd1na2vs0mg"},{"bike_id":"b67515af-79f9-4f5d-8254-f369d7baa871","system_id":"levelo_inurba_marseille","lat":43.26057,"lon":5.39396,"is_reserved":false,"is_disabled":false,"rental_uris":{"android":"levelo://app?vid=b67515af-79f9-4f5d-8254-f369d7baa871","ios":"levelo://app?vid=b67515af-79f9-4f5d-8254-f369d7baa871"},"vehicle_type_id":"4","last_reported":1732921713,"current_range_meters":39200,"station_id":"ce4bhh92rcd13ifvqfj0","pricing_plan_id":"cebpf4jnsgd1na2vs0mg"},{"bike_id":"e0630b2a-582d-4859-ab15-1faa89bdcd97","system_id":"levelo_inurba_marseille","lat":43.30426,"lon":5.39755,"is_reserved":false,"is_disabled":false,"rental_uris":{"android":"levelo://app?vid=e0630b2a-582d-4859-ab15-1faa89bdcd97","ios":"levelo://app?vid=e0630b2a-582d-4859-ab15-1faa89bdcd97"},"vehicle_type_id":"4","last_reported":1732921713,"current_range_meters":20400,"station_id":"ce4bh092rcd13ifvqd20","pricing_plan_id":"cebpf4jnsgd1na2vs0mg"},{"bike_id":"94ddd20c-e5b2-4c73-a61a-2ac668abc7d2","system_id":"levelo_inurba_marseille","lat":43.31939,"lon":5.38177,"is_reserved":false,"is_disabled":false,"rental_uris":{"android":"levelo://app?vid=94ddd20c-e5b2-4c73-a61a-2ac668abc7d2","ios":"levelo://app?vid=94ddd20c-e5b2-4c73-a61a-2ac668abc7d2"},"vehicle_type_id":"4","last_reported":1732921713,"current_range_meters":38800,"station_id":"ce4bhr12rcd13ifvqhpg","pricing_plan_id":"cebpf4jnsgd1na2vs0mg"},{"bike_id":"c6015c9c-b152-4583-8c2e-69bdf3a1cad2","system_id":"levelo_inurba_marseille","lat":43.26193,"lon":5.37448,"is_reserved":false,"is_disabled":false,"rental_uris":{"android":"levelo://app?vid=c6015c9c-b152-4583-8c2e-69bdf3a1cad2","ios":"levelo://app?vid=c6015c9c-b152-4583-8c2e-69bdf3a1cad2"},"vehicle_type_id":"4","last_reported":1732921713,"current_range_meters":7200,"station_id":"ce4bhgp2rcd13ifvqfc0","pricing_plan_id":"cebpf4jnsgd1na2vs0mg"},{"bike_id":"fe2c00d6-fab6-472b-887d-35960cae9038","system_id":"levelo_inurba_marseille","lat":43.25941,"lon":5.40906,"is_reserved":false,"is_disabled":false,"rental_uris":{"android":"levelo://app?vid=fe2c00d6-fab6-472b-887d-35960cae9038","ios":"levelo://app?vid=fe2c00d6-fab6-472b-887d-35960cae9038"},"vehicle_type_id":"4","last_reported":1732921713,"current_range_meters":38800,"station_id":"ce4bhm92rcd13ifvqglg","pricing_plan_id":"cebpf4jnsgd1na2vs0mg"},{"bike_id":"dd44e59f-2fad-4d4c-9388-e21a3b977031","system_id":"levelo_inurba_marseille","lat":43.31996,"lon":5.38155,"is_reserved":false,"is_disabled":false,"rental_uris":{"android":"levelo://app?vid=dd44e59f-2fad-4d4c-9388-e21a3b977031","ios":"levelo://app?vid=dd44e59f-2fad-4d4c-9388-e21a3b977031"},"vehicle_type_id":"4","last_reported":1732921713,"current_range_meters":23200,"station_id":"ce4bhr12rcd13ifvqhpg","pricing_plan_id":"cebpf4jnsgd1na2vs0mg"},{"bike_id":"4035e70a-9b35-49ff-8763-9565717e2e74","system_id":"levelo_inurba_marseille","lat":43.28467,"lon":5.35882,"is_reserved":false,"is_disabled":true,"rental_uris":{"android":"levelo://app?vid=4035e70a-9b35-49ff-8763-9565717e2e74","ios":"levelo://app?vid=4035e70a-9b35-49ff-8763-9565717e2e74"},"vehicle_type_id":"4","last_reported":1732921713,"current_range_meters":8800,"station_id":"ce4bhah2rcd13ifvqei0","pricing_plan_id":"cebpf4jnsgd1na2vs0mg"},{"bike_id":"bc749360-3ce4-4dd6-a0ac-83aa82c323a7","system_id":"levelo_inurba_marseille","lat":43.28155,"lon":5.42639,"is_reserved":false,"is_disabled":true,"rental_uris":{"android":"levelo://app?vid=bc749360-3ce4-4dd6-a0ac-83aa82c323a7","ios":"levelo://app?vid=bc749360-3ce4-4dd6-a0ac-83aa82c323a7"},"vehicle_type_id":"4","last_reported":1732921713,"current_range_meters":37600,"station_id":"ce4bhnh2rcd13ifvqgug","pricing_plan_id":"cebpf4jnsgd1na2vs0mg"},{"bike_id":"a5083c7e-4a01-446d-8f78-53cc7c6d43ce","system_id":"levelo_inurba_marseille","lat":43.23194,"lon":5.35554,"is_reserved":false,"is_disabled":false,"rental_uris":{"android":"levelo://app?vid=a5083c7e-4a01-446d-8f78-53cc7c6d43ce","ios":"levelo://app?vid=a5083c7e-4a01-446d-8f78-53cc7c6d43ce"},"vehicle_type_id":"4","last_reported":1732921713,"current_range_meters":15200,"station_id":"ce4bhu92rcd13ifvqi70","pricing_plan_id":"cebpf4jnsgd1na2vs0mg"},{"bike_id":"4d4c884f-6933-49c0-8899-f9856d90f44d","system_id":"levelo_inurba_marseille","lat":43.29748,"lon":5.37971,"is_reserved":false,"is_disabled":true,"rental_uris":{"android":"levelo://app?vid=4d4c884f-6933-49c0-8899-f9856d90f44d","ios":"levelo://app?vid=4d4c884f-6933-49c0-8899-f9856d90f44d"},"vehicle_type_id":"4","last_reported":1732921713,"current_range_meters":0,"station_id":"","pricing_plan_id":"cebpf4jnsgd1na2vs0mg"},{"bike_id":"1a10fe7e-ad6b-493d-8bdd-03593f6a4f64","system_id":"levelo_inurba_marseille","lat":43.32043,"lon":5.41544,"is_reserved":false,"is_disabled":false,"rental_uris":{"android":"levelo://app?vid=1a10fe7e-ad6b-493d-8bdd-03593f6a4f64","ios":"levelo://app?vid=1a10fe7e-ad6b-493d-8bdd-03593f6a4f64"},"vehicle_type_id":"4","last_reported":1732921713,"current_range_meters":38000,"station_id":"ce4bhq92rcd13ifvqhkg","pricing_plan_id":"cebpf4jnsgd1na2vs0mg"},{"bike_id":"b2934c94-af9d-4f2f-8b68-f653a5eb02ff","system_id":"levelo_inurba_marseille","lat":43.25082,"lon":5.39519,"is_reserved":false,"is_disabled":false,"rental_uris":{"android":"levelo://app?vid=b2934c94-af9d-4f2f-8b68-f653a5eb02ff","ios":"levelo://app?vid=b2934c94-af9d-4f2f-8b68-f653a5eb02ff"},"vehicle_type_id":"4","last_reported":1732921713,"current_range_meters":39200,"station_id":"ce4bhm12rcd13ifvqgkg","pricing_plan_id":"cebpf4jnsgd1na2vs0mg"},{"bike_id":"ec9ad250-db01-42b8-9736-15127403fe10","system_id":"levelo_inurba_marseille","lat":43.313727,"lon":5.384977,"is_reserved":false,"is_disabled":false,"rental_uris":{"android":"levelo://app?vid=ec9ad250-db01-42b8-9736-15127403fe10","ios":"levelo://app?vid=ec9ad250-db01-42b8-9736-15127403fe10"},"vehicle_type_id":"4","last_reported":1732921713,"current_range_meters":28800,"station_id":"ce4bgt92rcd13ifvqcf0","pricing_plan_id":"cebpf4jnsgd1na2vs0mg"},{"bike_id":"9009be37-c6b1-406b-b0a8-fbab355f715e","system_id":"levelo_inurba_marseille","lat":43.33763,"lon":5.37495,"is_reserved":false,"is_disabled":false,"rental_uris":{"android":"levelo://app?vid=9009be37-c6b1-406b-b0a8-fbab355f715e","ios":"levelo://app?vid=9009be37-c6b1-406b-b0a8-fbab355f715e"},"vehicle_type_id":"4","last_reported":1732921713,"current_range_meters":38800,"station_id":"","pricing_plan_id":"cebpf4jnsgd1na2vs0mg"},{"bike_id":"3fd3c9e9-2a71-460f-909c-9685f3d1b7d4","system_id":"levelo_inurba_marseille","lat":43.25722,"lon":5.41108,"is_reserved":false,"is_disabled":false,"rental_uris":{"android":"levelo://app?vid=3fd3c9e9-2a71-460f-909c-9685f3d1b7d4","ios":"levelo://app?vid=3fd3c9e9-2a71-460f-909c-9685f3d1b7d4"},"vehicle_type_id":"4","last_reported":1732921713,"current_range_meters":28800,"station_id":"ce4bhkp2rcd13ifvqgd0","pricing_plan_id":"cebpf4jnsgd1na2vs0mg"},{"bike_id":"c81e7d9f-2f5c-4377-8a55-0fc1c7e25641","system_id":"levelo_inurba_marseille","lat":43.31713,"lon":5.43706,"is_reserved":false,"is_disabled":false,"rental_uris":{"android":"levelo://app?vid=c81e7d9f-2f5c-4377-8a55-0fc1c7e25641","ios":"levelo://app?vid=c81e7d9f-2f5c-4377-8a55-0fc1c7e25641"},"vehicle_type_id":"4","last_reported":1732921713,"current_range_meters":36800,"station_id":"ce4bhp92rcd13ifvqhcg","pricing_plan_id":"cebpf4jnsgd1na2vs0mg"},{"bike_id":"b46b606e-5726-4a29-9d8f-f480ac90a177","system_id":"levelo_inurba_marseille","lat":43.29711,"lon":5.36618,"is_reserved":false,"is_disabled":false,"rental_uris":{"android":"levelo://app?vid=b46b606e-5726-4a29-9d8f-f480ac90a177","ios":"levelo://app?vid=b46b606e-5726-4a29-9d8f-f480ac90a177"},"vehicle_type_id":"4","last_reported":1732921713,"current_range_meters":16800,"station_id":"ce4bgn12rcd13ifvqbt0","pricing_plan_id":"cebpf4jnsgd1na2vs0mg"},{"bike_id":"d2807836-6000-47ca-b96b-95836404774c","system_id":"levelo_inurba_marseille","lat":43.30205,"lon":5.39393,"is_reserved":false,"is_disabled":true,"rental_uris":{"android":"levelo://app?vid=d2807836-6000-47ca-b96b-95836404774c","ios":"levelo://app?vid=d2807836-6000-47ca-b96b-95836404774c"},"vehicle_type_id":"4","last_reported":1732921713,"current_range_meters":11200,"station_id":"","pricing_plan_id":"cebpf4jnsgd1na2vs0mg"},{"bike_id":"be1ea8ae-bb6c-4cc9-9878-4dd6e7c328d6","system_id":"levelo_inurba_marseille","lat":43.32105,"lon":5.36781,"is_reserved":false,"is_disabled":false,"rental_uris":{"android":"levelo://app?vid=be1ea8ae-bb6c-4cc9-9878-4dd6e7c328d6","ios":"levelo://app?vid=be1ea8ae-bb6c-4cc9-9878-4dd6e7c328d6"},"vehicle_type_id":"4","last_reported":1732921713,"current_range_meters":33600,"station_id":"ce4bhrh2rcd13ifvqhug","pricing_plan_id":"cebpf4jnsgd1na2vs0mg"},{"bike_id":"d13969c8-6358-4c03-8711-279847eb1043","system_id":"levelo_inurba_marseille","lat":43.28475,"lon":5.35004,"is_reserved":false,"is_disabled":false,"rental_uris":{"android":"levelo://app?vid=d13969c8-6358-4c03-8711-279847eb1043","ios":"levelo://app?vid=d13969c8-6358-4c03-8711-279847eb1043"},"vehicle_type_id":"4","last_reported":1732921713,"current_range_meters":9600,"station_id":"","pricing_plan_id":"cebpf4jnsgd1na2vs0mg"},{"bike_id":"b1ac7571-eb4e-4f10-b111-5adbf1306f57","system_id":"levelo_inurba_marseille","lat":43.28456,"lon":5.3589,"is_reserved":false,"is_disabled":true,"rental_uris":{"android":"levelo://app?vid=b1ac7571-eb4e-4f10-b111-5adbf1306f57","ios":"levelo://app?vid=b1ac7571-eb4e-4f10-b111-5adbf1306f57"},"vehicle_type_id":"4","last_reported":1732921713,"current_range_meters":1200,"station_id":"ce4bhah2rcd13ifvqei0","pricing_plan_id":"cebpf4jnsgd1na2vs0mg"},{"bike_id":"5cc87b7b-e8e2-4f57-bf4a-d5911689f04d","system_id":"levelo_inurba_marseille","lat":43.2926,"lon":5.40306,"is_reserved":false,"is_disabled":false,"rental_uris":{"android":"levelo://app?vid=5cc87b7b-e8e2-4f57-bf4a-d5911689f04d","ios":"levelo://app?vid=5cc87b7b-e8e2-4f57-bf4a-d5911689f04d"},"vehicle_type_id":"4","last_reported":1732921713,"current_range_meters":29600,"station_id":"","pricing_plan_id":"cebpf4jnsgd1na2vs0mg"},{"bike_id":"4dab0eea-4807-419c-af47-d49102c38416","system_id":"levelo_inurba_marseille","lat":43.30333,"lon":5.40434,"is_reserved":false,"is_disabled":false,"rental_uris":{"android":"levelo://app?vid=4dab0eea-4807-419c-af47-d49102c38416","ios":"levelo://app?vid=4dab0eea-4807-419c-af47-d49102c38416"},"vehicle_type_id":"4","last_reported":1732921713,"current_range_meters":14000,"station_id":"ce4bh012rcd13ifvqd10","pricing_plan_id":"cebpf4jnsgd1na2vs0mg"},{"bike_id":"77be03dd-3d99-4535-adc0-1c7477c4a3a3","system_id":"levelo_inurba_marseille","lat":43.32287,"lon":5.38274,"is_reserved":false,"is_disabled":false,"rental_uris":{"android":"levelo://app?vid=77be03dd-3d99-4535-adc0-1c7477c4a3a3","ios":"levelo://app?vid=77be03dd-3d99-4535-adc0-1c7477c4a3a3"},"vehicle_type_id":"4","last_reported":1732921713,"current_range_meters":38800,"station_id":"ce4bhr12rcd13ifvqhqg","pricing_plan_id":"cebpf4jnsgd1na2vs0mg"},{"bike_id":"79a7a185-db0c-47d8-9c43-dbf6a984f4ae","system_id":"levelo_inurba_marseille","lat":43.3095,"lon":5.39031,"is_reserved":false,"is_disabled":false,"rental_uris":{"android":"levelo://app?vid=79a7a185-db0c-47d8-9c43-dbf6a984f4ae","ios":"levelo://app?vid=79a7a185-db0c-47d8-9c43-dbf6a984f4ae"},"vehicle_type_id":"4","last_reported":1732921713,"current_range_meters":9600,"station_id":"ce4bgup2rcd13ifvqco0","pricing_plan_id":"cebpf4jnsgd1na2vs0mg"},{"bike_id":"ea6cdc64-43fb-4f5d-ba4f-80b844664164","system_id":"levelo_inurba_marseille","lat":43.29557,"lon":5.42293,"is_reserved":false,"is_disabled":false,"rental_uris":{"android":"levelo://app?vid=ea6cdc64-43fb-4f5d-ba4f-80b844664164","ios":"levelo://app?vid=ea6cdc64-43fb-4f5d-ba4f-80b844664164"},"vehicle_type_id":"4","last_reported":1732921713,"current_range_meters":11600,"station_id":"ce4bhph2rcd13ifvqhdg","pricing_plan_id":"cebpf4jnsgd1na2vs0mg"},{"bike_id":"bae578ff-6652-4faa-b215-ba6f4952f654","system_id":"levelo_inurba_marseille","lat":43.3014,"lon":5.37423,"is_reserved":false,"is_disabled":false,"rental_uris":{"android":"levelo://app?vid=bae578ff-6652-4faa-b215-ba6f4952f654","ios":"levelo://app?vid=bae578ff-6652-4faa-b215-ba6f4952f654"},"vehicle_type_id":"4","last_reported":1732921713,"current_range_meters":38800,"station_id":"ce4bgs92rcd13ifvqcc0","pricing_plan_id":"cebpf4jnsgd1na2vs0mg"},{"bike_id":"9885a916-0c71-47c7-a92e-d9a2093be9b3","system_id":"levelo_inurba_marseille","lat":43.27998,"lon":5.41663,"is_reserved":false,"is_disabled":false,"rental_uris":{"android":"levelo://app?vid=9885a916-0c71-47c7-a92e-d9a2093be9b3","ios":"levelo://app?vid=9885a916-0c71-47c7-a92e-d9a2093be9b3"},"vehicle_type_id":"4","last_reported":1732921713,"current_range_meters":8000,"station_id":"ce4bho12rcd13ifvqh1g","pricing_plan_id":"cebpf4jnsgd1na2vs0mg"},{"bike_id":"6c0c3074-75f3-48d9-ab05-ae44aae8167d","system_id":"levelo_inurba_marseille","lat":43.24803,"lon":5.37451,"is_reserved":false,"is_disabled":false,"rental_uris":{"android":"levelo://app?vid=6c0c3074-75f3-48d9-ab05-ae44aae8167d","ios":"levelo://app?vid=6c0c3074-75f3-48d9-ab05-ae44aae8167d"},"vehicle_type_id":"4","last_reported":1732921713,"current_range_meters":39200,"station_id":"ce4bhgh2rcd13ifvqfb0","pricing_plan_id":"cebpf4jnsgd1na2vs0mg"},{"bike_id":"ca20ea45-5a00-49af-88ae-1db20fe0c34f","system_id":"levelo_inurba_marseille","lat":43.26934,"lon":5.38921,"is_reserved":false,"is_disabled":true,"rental_uris":{"android":"levelo://app?vid=ca20ea45-5a00-49af-88ae-1db20fe0c34f","ios":"levelo://app?vid=ca20ea45-5a00-49af-88ae-1db20fe0c34f"},"vehicle_type_id":"4","last_reported":1732921713,"current_range_meters":11200,"station_id":"ce4bhhh2rcd13ifvqfl0","pricing_plan_id":"cebpf4jnsgd1na2vs0mg"},{"bike_id":"e8fa7be1-2407-41a7-b843-e7c70f1917ef","system_id":"levelo_inurba_marseille","lat":43.27613,"lon":5.36111,"is_reserved":false,"is_disabled":true,"rental_uris":{"android":"levelo://app?vid=e8fa7be1-2407-41a7-b843-e7c70f1917ef","ios":"levelo://app?vid=e8fa7be1-2407-41a7-b843-e7c70f1917ef"},"vehicle_type_id":"4","last_reported":1732921713,"current_range_meters":0,"station_id":"ce4bgj92rcd13ifvqbe0","pricing_plan_id":"cebpf4jnsgd1na2vs0mg"},{"bike_id":"92d039f7-ef4f-446f-a1ee-e72a2d771e1f","system_id":"levelo_inurba_marseille","lat":43.23182,"lon":5.39987,"is_reserved":false,"is_disabled":false,"rental_uris":{"android":"levelo://app?vid=92d039f7-ef4f-446f-a1ee-e72a2d771e1f","ios":"levelo://app?vid=92d039f7-ef4f-446f-a1ee-e72a2d771e1f"},"vehicle_type_id":"4","last_reported":1732921713,"current_range_meters":14000,"station_id":"ce4bhn12rcd13ifvqgqg","pricing_plan_id":"cebpf4jnsgd1na2vs0mg"},{"bike_id":"df0dfc86-7540-4a0c-8976-9af5497d0a2c","system_id":"levelo_inurba_marseille","lat":43.337444,"lon":5.374475,"is_reserved":false,"is_disabled":false,"rental_uris":{"android":"levelo://app?vid=df0dfc86-7540-4a0c-8976-9af5497d0a2c","ios":"levelo://app?vid=df0dfc86-7540-4a0c-8976-9af5497d0a2c"},"vehicle_type_id":"4","last_reported":1732921713,"current_range_meters":24800,"station_id":"","pricing_plan_id":"cebpf4jnsgd1na2vs0mg"},{"bike_id":"ff814e2b-967b-4af8-9776-67087772e9db","system_id":"levelo_inurba_marseille","lat":43.29681,"lon":5.37277,"is_reserved":false,"is_disabled":false,"rental_uris":{"android":"levelo://app?vid=ff814e2b-967b-4af8-9776-67087772e9db","ios":"levelo://app?vid=ff814e2b-967b-4af8-9776-67087772e9db"},"vehicle_type_id":"4","last_reported":1732921713,"current_range_meters":26000,"station_id":"ce4bgk12rcd13ifvqbj0","pricing_plan_id":"cebpf4jnsgd1na2vs0mg"},{"bike_id":"d6a0ff66-87dd-49de-a09b-bea530d1c972","system_id":"levelo_inurba_marseille","lat":43.2558,"lon":5.3823,"is_reserved":false,"is_disabled":true,"rental_uris":{"android":"levelo://app?vid=d6a0ff66-87dd-49de-a09b-bea530d1c972","ios":"levelo://app?vid=d6a0ff66-87dd-49de-a09b-bea530d1c972"},"vehicle_type_id":"4","last_reported":1732921713,"current_range_meters":30400,"station_id":"ce4bhih2rcd13ifvqfs0","pricing_plan_id":"cebpf4jnsgd1na2vs0mg"},{"bike_id":"b64c6095-9d78-4b69-b855-374d2a38d0a7","system_id":"levelo_inurba_marseille","lat":43.27616,"lon":5.36109,"is_reserved":false,"is_disabled":false,"rental_uris":{"android":"levelo://app?vid=b64c6095-9d78-4b69-b855-374d2a38d0a7","ios":"levelo://app?vid=b64c6095-9d78-4b69-b855-374d2a38d0a7"},"vehicle_type_id":"4","last_reported":1732921713,"current_range_meters":39200,"station_id":"ce4bgj92rcd13ifvqbe0","pricing_plan_id":"cebpf4jnsgd1na2vs0mg"},{"bike_id":"5edaa513-18ec-4cef-a923-f5208a28c4a2","system_id":"levelo_inurba_marseille","lat":43.29001,"lon":5.3561,"is_reserved":false,"is_disabled":false,"rental_uris":{"android":"levelo://app?vid=5edaa513-18ec-4cef-a923-f5208a28c4a2","ios":"levelo://app?vid=5edaa513-18ec-4cef-a923-f5208a28c4a2"},"vehicle_type_id":"4","last_reported":1732921713,"current_range_meters":29600,"station_id":"ce4bhb92rcd13ifvqen0","pricing_plan_id":"cebpf4jnsgd1na2vs0mg"},{"bike_id":"8f8b0c18-1111-452b-8587-f0c489b0c5b5","system_id":"levelo_inurba_marseille","lat":43.24076,"lon":5.3776,"is_reserved":false,"is_disabled":false,"rental_uris":{"android":"levelo://app?vid=8f8b0c18-1111-452b-8587-f0c489b0c5b5","ios":"levelo://app?vid=8f8b0c18-1111-452b-8587-f0c489b0c5b5"},"vehicle_type_id":"4","last_reported":1732921713,"current_range_meters":3200,"station_id":"ce4bhnp2rcd13ifvqgvg","pricing_plan_id":"cebpf4jnsgd1na2vs0mg"},{"bike_id":"3ca8d527-6c31-4160-8bc9-0dbae13780f9","system_id":"levelo_inurba_marseille","lat":43.28464,"lon":5.35888,"is_reserved":false,"is_disabled":true,"rental_uris":{"android":"levelo://app?vid=3ca8d527-6c31-4160-8bc9-0dbae13780f9","ios":"levelo://app?vid=3ca8d527-6c31-4160-8bc9-0dbae13780f9"},"vehicle_type_id":"4","last_reported":1732921713,"current_range_meters":21600,"station_id":"ce4bhah2rcd13ifvqei0","pricing_plan_id":"cebpf4jnsgd1na2vs0mg"},{"bike_id":"92de0aec-7fd7-4b0f-836a-d45b7677365d","system_id":"levelo_inurba_marseille","lat":43.25005,"lon":5.38926,"is_reserved":false,"is_disabled":false,"rental_uris":{"android":"levelo://app?vid=92de0aec-7fd7-4b0f-836a-d45b7677365d","ios":"levelo://app?vid=92de0aec-7fd7-4b0f-836a-d45b7677365d"},"vehicle_type_id":"4","last_reported":1732921713,"current_range_meters":38400,"station_id":"ce4bhgp2rcd13ifvqfd0","pricing_plan_id":"cebpf4jnsgd1na2vs0mg"},{"bike_id":"0651e545-d640-4c22-a85d-367b9b3a77da","system_id":"levelo_inurba_marseille","lat":43.30421,"lon":5.412909,"is_reserved":false,"is_disabled":false,"rental_uris":{"android":"levelo://app?vid=0651e545-d640-4c22-a85d-367b9b3a77da","ios":"levelo://app?vid=0651e545-d640-4c22-a85d-367b9b3a77da"},"vehicle_type_id":"4","last_reported":1732921713,"current_range_meters":31200,"station_id":"ce4bhop2rcd13ifvqh8g","pricing_plan_id":"cebpf4jnsgd1na2vs0mg"},{"bike_id":"0988cc42-55bb-4f3e-a0fc-1916f1b28c4e","system_id":"levelo_inurba_marseille","lat":43.31059,"lon":5.38339,"is_reserved":false,"is_disabled":false,"rental_uris":{"android":"levelo://app?vid=0988cc42-55bb-4f3e-a0fc-1916f1b28c4e","ios":"levelo://app?vid=0988cc42-55bb-4f3e-a0fc-1916f1b28c4e"},"vehicle_type_id":"4","last_reported":1732921713,"current_range_meters":37600,"station_id":"ce4bgv92rcd13ifvqcr0","pricing_plan_id":"cebpf4jnsgd1na2vs0mg"},{"bike_id":"4a2be555-d056-454c-bed3-fe781ba86f8e","system_id":"levelo_inurba_marseille","lat":43.25889,"lon":5.39954,"is_reserved":false,"is_disabled":true,"rental_uris":{"android":"levelo://app?vid=4a2be555-d056-454c-bed3-fe781ba86f8e","ios":"levelo://app?vid=4a2be555-d056-454c-bed3-fe781ba86f8e"},"vehicle_type_id":"4","last_reported":1732921713,"current_range_meters":0,"station_id":"","pricing_plan_id":"cebpf4jnsgd1na2vs0mg"},{"bike_id":"78a2a715-0baf-4fc2-abdd-8590f1982188","system_id":"levelo_inurba_marseille","lat":43.30141,"lon":5.37415,"is_reserved":false,"is_disabled":false,"rental_uris":{"android":"levelo://app?vid=78a2a715-0baf-4fc2-abdd-8590f1982188","ios":"levelo://app?vid=78a2a715-0baf-4fc2-abdd-8590f1982188"},"vehicle_type_id":"4","last_reported":1732921713,"current_range_meters":37600,"station_id":"ce4bgs92rcd13ifvqcc0","pricing_plan_id":"cebpf4jnsgd1na2vs0mg"},{"bike_id":"4fe54256-9d7a-4471-bc30-de0cdb7fc22e","system_id":"levelo_inurba_marseille","lat":43.2959,"lon":5.38097,"is_reserved":false,"is_disabled":false,"rental_uris":{"android":"levelo://app?vid=4fe54256-9d7a-4471-bc30-de0cdb7fc22e","ios":"levelo://app?vid=4fe54256-9d7a-4471-bc30-de0cdb7fc22e"},"vehicle_type_id":"4","last_reported":1732921713,"current_range_meters":33600,"station_id":"ce4bgl12rcd13ifvqbo0","pricing_plan_id":"cebpf4jnsgd1na2vs0mg"},{"bike_id":"055cb1c0-9823-4277-b81f-17a6f9d0c7ed","system_id":"levelo_inurba_marseille","lat":43.30437,"lon":5.38886,"is_reserved":false,"is_disabled":false,"rental_uris":{"android":"levelo://app?vid=055cb1c0-9823-4277-b81f-17a6f9d0c7ed","ios":"levelo://app?vid=055cb1c0-9823-4277-b81f-17a6f9d0c7ed"},"vehicle_type_id":"4","last_reported":1732921713,"current_range_meters":3600,"station_id":"ce4bgk12rcd13ifvqbi0","pricing_plan_id":"cebpf4jnsgd1na2vs0mg"},{"bike_id":"149cbc14-0894-4485-abf0-1d0584f14756","system_id":"levelo_inurba_marseille","lat":43.27809,"lon":5.40717,"is_reserved":false,"is_disabled":false,"rental_uris":{"android":"levelo://app?vid=149cbc14-0894-4485-abf0-1d0584f14756","ios":"levelo://app?vid=149cbc14-0894-4485-abf0-1d0584f14756"},"vehicle_type_id":"4","last_reported":1732921713,"current_range_meters":40000,"station_id":"ce4bhnh2rcd13ifvqgtg","pricing_plan_id":"cebpf4jnsgd1na2vs0mg"},{"bike_id":"8ac1d851-4d76-4c23-a9e9-b3ad0f0f4bf1","system_id":"levelo_inurba_marseille","lat":43.32339,"lon":5.40624,"is_reserved":false,"is_disabled":false,"rental_uris":{"android":"levelo://app?vid=8ac1d851-4d76-4c23-a9e9-b3ad0f0f4bf1","ios":"levelo://app?vid=8ac1d851-4d76-4c23-a9e9-b3ad0f0f4bf1"},"vehicle_type_id":"4","last_reported":1732921713,"current_range_meters":38800,"station_id":"ce4bhq92rcd13ifvqhjg","pricing_plan_id":"cebpf4jnsgd1na2vs0mg"},{"bike_id":"fd224d5d-fd08-49c2-a474-aa715a23a2a9","system_id":"levelo_inurba_marseille","lat":43.25869,"lon":5.39896,"is_reserved":false,"is_disabled":false,"rental_uris":{"android":"levelo://app?vid=fd224d5d-fd08-49c2-a474-aa715a23a2a9","ios":"levelo://app?vid=fd224d5d-fd08-49c2-a474-aa715a23a2a9"},"vehicle_type_id":"4","last_reported":1732921713,"current_range_meters":34800,"station_id":"ce4bhl92rcd13ifvqghg","pricing_plan_id":"cebpf4jnsgd1na2vs0mg"},{"bike_id":"80ee5806-271f-4b24-a602-2dc27d804313","system_id":"levelo_inurba_marseille","lat":43.321081,"lon":5.367752,"is_reserved":false,"is_disabled":false,"rental_uris":{"android":"levelo://app?vid=80ee5806-271f-4b24-a602-2dc27d804313","ios":"levelo://app?vid=80ee5806-271f-4b24-a602-2dc27d804313"},"vehicle_type_id":"4","last_reported":1732921713,"current_range_meters":12400,"station_id":"ce4bhrh2rcd13ifvqhug","pricing_plan_id":"cebpf4jnsgd1na2vs0mg"},{"bike_id":"a99e441f-fcb3-4edf-8132-a5c34ea369bf","system_id":"levelo_inurba_marseille","lat":43.26943,"lon":5.40248,"is_reserved":false,"is_disabled":false,"rental_uris":{"android":"levelo://app?vid=a99e441f-fcb3-4edf-8132-a5c34ea369bf","ios":"levelo://app?vid=a99e441f-fcb3-4edf-8132-a5c34ea369bf"},"vehicle_type_id":"4","last_reported":1732921713,"current_range_meters":38800,"station_id":"cjm6bp8fraef2m0cb0m0","pricing_plan_id":"cebpf4jnsgd1na2vs0mg"},{"bike_id":"f7cdbea5-004f-4f9c-977e-fbfbd98ad752","system_id":"levelo_inurba_marseille","lat":43.29039,"lon":5.39959,"is_reserved":false,"is_disabled":false,"rental_uris":{"android":"levelo://app?vid=f7cdbea5-004f-4f9c-977e-fbfbd98ad752","ios":"levelo://app?vid=f7cdbea5-004f-4f9c-977e-fbfbd98ad752"},"vehicle_type_id":"4","last_reported":1732921713,"current_range_meters":22000,"station_id":"ce4bh392rcd13ifvqdm0","pricing_plan_id":"cebpf4jnsgd1na2vs0mg"},{"bike_id":"397dd5af-4790-4701-b7c7-7b3b2ccada06","system_id":"levelo_inurba_marseille","lat":43.3043,"lon":5.38892,"is_reserved":false,"is_disabled":false,"rental_uris":{"android":"levelo://app?vid=397dd5af-4790-4701-b7c7-7b3b2ccada06","ios":"levelo://app?vid=397dd5af-4790-4701-b7c7-7b3b2ccada06"},"vehicle_type_id":"4","last_reported":1732921713,"current_range_meters":38800,"station_id":"ce4bgk12rcd13ifvqbi0","pricing_plan_id":"cebpf4jnsgd1na2vs0mg"},{"bike_id":"3032096e-cca7-4267-a12b-d258401708bb","system_id":"levelo_inurba_marseille","lat":43.28034,"lon":5.36944,"is_reserved":false,"is_disabled":false,"rental_uris":{"android":"levelo://app?vid=3032096e-cca7-4267-a12b-d258401708bb","ios":"levelo://app?vid=3032096e-cca7-4267-a12b-d258401708bb"},"vehicle_type_id":"4","last_reported":1732921713,"current_range_meters":38800,"station_id":"ce4bha12rcd13ifvqef0","pricing_plan_id":"cebpf4jnsgd1na2vs0mg"},{"bike_id":"f77c946c-c6e5-452b-9a5e-5f2df84b15d2","system_id":"levelo_inurba_marseille","lat":43.30423,"lon":5.39748,"is_reserved":false,"is_disabled":true,"rental_uris":{"android":"levelo://app?vid=f77c946c-c6e5-452b-9a5e-5f2df84b15d2","ios":"levelo://app?vid=f77c946c-c6e5-452b-9a5e-5f2df84b15d2"},"vehicle_type_id":"4","last_reported":1732921713,"current_range_meters":27200,"station_id":"ce4bh092rcd13ifvqd20","pricing_plan_id":"cebpf4jnsgd1na2vs0mg"},{"bike_id":"caec5743-9551-49a1-bc6f-66ea9df752cc","system_id":"levelo_inurba_marseille","lat":43.33022,"lon":5.39034,"is_reserved":false,"is_disabled":false,"rental_uris":{"android":"levelo://app?vid=caec5743-9551-49a1-bc6f-66ea9df752cc","ios":"levelo://app?vid=caec5743-9551-49a1-bc6f-66ea9df752cc"},"vehicle_type_id":"4","last_reported":1732921713,"current_range_meters":35200,"station_id":"ce4bhr92rcd13ifvqhrg","pricing_plan_id":"cebpf4jnsgd1na2vs0mg"},{"bike_id":"f5e0b017-caa2-4d39-b9cf-f124b690de97","system_id":"levelo_inurba_marseille","lat":43.31124,"lon":5.37763,"is_reserved":false,"is_disabled":false,"rental_uris":{"android":"levelo://app?vid=f5e0b017-caa2-4d39-b9cf-f124b690de97","ios":"levelo://app?vid=f5e0b017-caa2-4d39-b9cf-f124b690de97"},"vehicle_type_id":"4","last_reported":1732921713,"current_range_meters":26800,"station_id":"ce4bgt92rcd13ifvqcg0","pricing_plan_id":"cebpf4jnsgd1na2vs0mg"},{"bike_id":"981f5323-76ee-4aff-abdb-308b2ece5ca8","system_id":"levelo_inurba_marseille","lat":43.3373,"lon":5.39179,"is_reserved":false,"is_disabled":false,"rental_uris":{"android":"levelo://app?vid=981f5323-76ee-4aff-abdb-308b2ece5ca8","ios":"levelo://app?vid=981f5323-76ee-4aff-abdb-308b2ece5ca8"},"vehicle_type_id":"4","last_reported":1732921713,"current_range_meters":12000,"station_id":"ce4bhr92rcd13ifvqhsg","pricing_plan_id":"cebpf4jnsgd1na2vs0mg"},{"bike_id":"81d9f7be-c3c6-4233-bf11-948e6f22debc","system_id":"levelo_inurba_marseille","lat":43.32361,"lon":5.38884,"is_reserved":false,"is_disabled":false,"rental_uris":{"android":"levelo://app?vid=81d9f7be-c3c6-4233-bf11-948e6f22debc","ios":"levelo://app?vid=81d9f7be-c3c6-4233-bf11-948e6f22debc"},"vehicle_type_id":"4","last_reported":1732921713,"current_range_meters":34800,"station_id":"ce4bhqp2rcd13ifvqhog","pricing_plan_id":"cebpf4jnsgd1na2vs0mg"},{"bike_id":"1eede84d-8533-480b-beca-64379132784d","system_id":"levelo_inurba_marseille","lat":43.33014,"lon":5.39037,"is_reserved":false,"is_disabled":false,"rental_uris":{"android":"levelo://app?vid=1eede84d-8533-480b-beca-64379132784d","ios":"levelo://app?vid=1eede84d-8533-480b-beca-64379132784d"},"vehicle_type_id":"4","last_reported":1732921713,"current_range_meters":38800,"station_id":"ce4bhr92rcd13ifvqhrg","pricing_plan_id":"cebpf4jnsgd1na2vs0mg"},{"bike_id":"def90535-8063-4c54-b688-08f7d163ce9a","system_id":"levelo_inurba_marseille","lat":43.29419,"lon":5.38615,"is_reserved":false,"is_disabled":true,"rental_uris":{"android":"levelo://app?vid=def90535-8063-4c54-b688-08f7d163ce9a","ios":"levelo://app?vid=def90535-8063-4c54-b688-08f7d163ce9a"},"vehicle_type_id":"4","last_reported":1732921713,"current_range_meters":0,"station_id":"ce4bh2h2rcd13ifvqdh0","pricing_plan_id":"cebpf4jnsgd1na2vs0mg"},{"bike_id":"af97a686-7dba-4ece-b2c8-70582f2b6789","system_id":"levelo_inurba_marseille","lat":43.25115,"lon":5.40318,"is_reserved":false,"is_disabled":false,"rental_uris":{"android":"levelo://app?vid=af97a686-7dba-4ece-b2c8-70582f2b6789","ios":"levelo://app?vid=af97a686-7dba-4ece-b2c8-70582f2b6789"},"vehicle_type_id":"4","last_reported":1732921713,"current_range_meters":38400,"station_id":"ce4bhlh2rcd13ifvqgig","pricing_plan_id":"cebpf4jnsgd1na2vs0mg"},{"bike_id":"dc92e0a1-8285-4f6f-b814-65daaa82340e","system_id":"levelo_inurba_marseille","lat":43.2694,"lon":5.40251,"is_reserved":false,"is_disabled":false,"rental_uris":{"android":"levelo://app?vid=dc92e0a1-8285-4f6f-b814-65daaa82340e","ios":"levelo://app?vid=dc92e0a1-8285-4f6f-b814-65daaa82340e"},"vehicle_type_id":"4","last_reported":1732921713,"current_range_meters":17200,"station_id":"cjm6bp8fraef2m0cb0m0","pricing_plan_id":"cebpf4jnsgd1na2vs0mg"},{"bike_id":"b9cfc5ba-ce6e-4df3-8dc7-2b5010abbd64","system_id":"levelo_inurba_marseille","lat":43.2885,"lon":5.39307,"is_reserved":false,"is_disabled":false,"rental_uris":{"android":"levelo://app?vid=b9cfc5ba-ce6e-4df3-8dc7-2b5010abbd64","ios":"levelo://app?vid=b9cfc5ba-ce6e-4df3-8dc7-2b5010abbd64"},"vehicle_type_id":"4","last_reported":1732921713,"current_range_meters":4800,"station_id":"ce4bh2p2rcd13ifvqdi0","pricing_plan_id":"cebpf4jnsgd1na2vs0mg"},{"bike_id":"ab1db49f-701c-4711-8b20-531372b5e60f","system_id":"levelo_inurba_marseille","lat":43.32636,"lon":5.3754,"is_reserved":false,"is_disabled":false,"rental_uris":{"android":"levelo://app?vid=ab1db49f-701c-4711-8b20-531372b5e60f","ios":"levelo://app?vid=ab1db49f-701c-4711-8b20-531372b5e60f"},"vehicle_type_id":"4","last_reported":1732921713,"current_range_meters":34800,"station_id":"","pricing_plan_id":"cebpf4jnsgd1na2vs0mg"},{"bike_id":"29a80c71-9648-4a26-b6c9-5f69092eaa01","system_id":"levelo_inurba_marseille","lat":43.2707,"lon":5.4228,"is_reserved":false,"is_disabled":true,"rental_uris":{"android":"levelo://app?vid=29a80c71-9648-4a26-b6c9-5f69092eaa01","ios":"levelo://app?vid=29a80c71-9648-4a26-b6c9-5f69092eaa01"},"vehicle_type_id":"4","last_reported":1732921713,"current_range_meters":40000,"station_id":"ce4bhk92rcd13ifvqgb0","pricing_plan_id":"cebpf4jnsgd1na2vs0mg"},{"bike_id":"6179da37-d06b-4e7f-84ec-990f5fbc58c6","system_id":"levelo_inurba_marseille","lat":43.308,"lon":5.38153,"is_reserved":false,"is_disabled":false,"rental_uris":{"android":"levelo://app?vid=6179da37-d06b-4e7f-84ec-990f5fbc58c6","ios":"levelo://app?vid=6179da37-d06b-4e7f-84ec-990f5fbc58c6"},"vehicle_type_id":"4","last_reported":1732921713,"current_range_meters":28800,"station_id":"ce4bgt12rcd13ifvqce0","pricing_plan_id":"cebpf4jnsgd1na2vs0mg"},{"bike_id":"4a9d6e1f-1828-4869-9bb6-c94fb652e1a9","system_id":"levelo_inurba_marseille","lat":43.22935,"lon":5.35378,"is_reserved":false,"is_disabled":false,"rental_uris":{"android":"levelo://app?vid=4a9d6e1f-1828-4869-9bb6-c94fb652e1a9","ios":"levelo://app?vid=4a9d6e1f-1828-4869-9bb6-c94fb652e1a9"},"vehicle_type_id":"4","last_reported":1732921713,"current_range_meters":38000,"station_id":"cpo3532slgdg3j2ikp40","pricing_plan_id":"cebpf4jnsgd1na2vs0mg"},{"bike_id":"0174841e-8011-4a7b-bd18-480101bee765","system_id":"levelo_inurba_marseille","lat":43.23962,"lon":5.36629,"is_reserved":false,"is_disabled":true,"rental_uris":{"android":"levelo://app?vid=0174841e-8011-4a7b-bd18-480101bee765","ios":"levelo://app?vid=0174841e-8011-4a7b-bd18-480101bee765"},"vehicle_type_id":"4","last_reported":1732921713,"current_range_meters":0,"station_id":"ce4bhi12rcd13ifvqfp0","pricing_plan_id":"cebpf4jnsgd1na2vs0mg"},{"bike_id":"7b9a998d-72a0-435c-b5d6-36b222eceb9f","system_id":"levelo_inurba_marseille","lat":43.30436,"lon":5.3889,"is_reserved":false,"is_disabled":false,"rental_uris":{"android":"levelo://app?vid=7b9a998d-72a0-435c-b5d6-36b222eceb9f","ios":"levelo://app?vid=7b9a998d-72a0-435c-b5d6-36b222eceb9f"},"vehicle_type_id":"4","last_reported":1732921713,"current_range_meters":38000,"station_id":"ce4bgk12rcd13ifvqbi0","pricing_plan_id":"cebpf4jnsgd1na2vs0mg"},{"bike_id":"88b2bdc0-ac9d-4c3e-9ada-98a13ff8842d","system_id":"levelo_inurba_marseille","lat":43.27614,"lon":5.36116,"is_reserved":false,"is_disabled":false,"rental_uris":{"android":"levelo://app?vid=88b2bdc0-ac9d-4c3e-9ada-98a13ff8842d","ios":"levelo://app?vid=88b2bdc0-ac9d-4c3e-9ada-98a13ff8842d"},"vehicle_type_id":"4","last_reported":1732921713,"current_range_meters":32000,"station_id":"ce4bgj92rcd13ifvqbe0","pricing_plan_id":"cebpf4jnsgd1na2vs0mg"},{"bike_id":"52c5ec48-d9d2-4224-8f63-3b7560e41bcc","system_id":"levelo_inurba_marseille","lat":43.2418,"lon":5.39734,"is_reserved":false,"is_disabled":false,"rental_uris":{"android":"levelo://app?vid=52c5ec48-d9d2-4224-8f63-3b7560e41bcc","ios":"levelo://app?vid=52c5ec48-d9d2-4224-8f63-3b7560e41bcc"},"vehicle_type_id":"4","last_reported":1732921713,"current_range_meters":36400,"station_id":"ce4bhn12rcd13ifvqgpg","pricing_plan_id":"cebpf4jnsgd1na2vs0mg"},{"bike_id":"a233b25b-869e-422b-bf5e-63d3d8ff686f","system_id":"levelo_inurba_marseille","lat":43.30925,"lon":5.4014,"is_reserved":false,"is_disabled":true,"rental_uris":{"android":"levelo://app?vid=a233b25b-869e-422b-bf5e-63d3d8ff686f","ios":"levelo://app?vid=a233b25b-869e-422b-bf5e-63d3d8ff686f"},"vehicle_type_id":"4","last_reported":1732921713,"current_range_meters":24000,"station_id":"ce4bgvp2rcd13ifvqct0","pricing_plan_id":"cebpf4jnsgd1na2vs0mg"},{"bike_id":"9b43fa90-8002-406b-9078-95708d067095","system_id":"levelo_inurba_marseille","lat":43.2873,"lon":5.3609,"is_reserved":false,"is_disabled":false,"rental_uris":{"android":"levelo://app?vid=9b43fa90-8002-406b-9078-95708d067095","ios":"levelo://app?vid=9b43fa90-8002-406b-9078-95708d067095"},"vehicle_type_id":"4","last_reported":1732921713,"current_range_meters":36800,"station_id":"cki0cbj6b192h4jlfktg","pricing_plan_id":"cebpf4jnsgd1na2vs0mg"},{"bike_id":"759518f4-9f32-4b72-97fe-df61c6c7bd05","system_id":"levelo_inurba_marseille","lat":43.31277,"lon":5.40152,"is_reserved":false,"is_disabled":true,"rental_uris":{"android":"levelo://app?vid=759518f4-9f32-4b72-97fe-df61c6c7bd05","ios":"levelo://app?vid=759518f4-9f32-4b72-97fe-df61c6c7bd05"},"vehicle_type_id":"4","last_reported":1732921713,"current_range_meters":5600,"station_id":"ce4bh092rcd13ifvqd30","pricing_plan_id":"cebpf4jnsgd1na2vs0mg"},{"bike_id":"721b0b19-eda7-4982-ad7f-9cc8d83ce43e","system_id":"levelo_inurba_marseille","lat":43.29567,"lon":5.39972,"is_reserved":false,"is_disabled":false,"rental_uris":{"android":"levelo://app?vid=721b0b19-eda7-4982-ad7f-9cc8d83ce43e","ios":"levelo://app?vid=721b0b19-eda7-4982-ad7f-9cc8d83ce43e"},"vehicle_type_id":"4","last_reported":1732921713,"current_range_meters":38400,"station_id":"ce4bh312rcd13ifvqdj0","pricing_plan_id":"cebpf4jnsgd1na2vs0mg"},{"bike_id":"ae2dbdc5-0973-4b7d-8b99-588d10a21c6f","system_id":"levelo_inurba_marseille","lat":43.25728,"lon":5.41106,"is_reserved":false,"is_disabled":false,"rental_uris":{"android":"levelo://app?vid=ae2dbdc5-0973-4b7d-8b99-588d10a21c6f","ios":"levelo://app?vid=ae2dbdc5-0973-4b7d-8b99-588d10a21c6f"},"vehicle_type_id":"4","last_reported":1732921713,"current_range_meters":38000,"station_id":"ce4bhkp2rcd13ifvqgd0","pricing_plan_id":"cebpf4jnsgd1na2vs0mg"},{"bike_id":"7df36a4e-ed07-415d-a459-dbae890df0eb","system_id":"levelo_inurba_marseille","lat":43.30181,"lon":5.36621,"is_reserved":false,"is_disabled":false,"rental_uris":{"android":"levelo://app?vid=7df36a4e-ed07-415d-a459-dbae890df0eb","ios":"levelo://app?vid=7df36a4e-ed07-415d-a459-dbae890df0eb"},"vehicle_type_id":"4","last_reported":1732921713,"current_range_meters":12000,"station_id":"ce4bgrh2rcd13ifvqc8g","pricing_plan_id":"cebpf4jnsgd1na2vs0mg"},{"bike_id":"ac2a4554-ffe0-4e28-9df7-abf3737df124","system_id":"levelo_inurba_marseille","lat":43.24653,"lon":5.38894,"is_reserved":false,"is_disabled":false,"rental_uris":{"android":"levelo://app?vid=ac2a4554-ffe0-4e28-9df7-abf3737df124","ios":"levelo://app?vid=ac2a4554-ffe0-4e28-9df7-abf3737df124"},"vehicle_type_id":"4","last_reported":1732921713,"current_range_meters":28000,"station_id":"ce4bhg12rcd13ifvqf60","pricing_plan_id":"cebpf4jnsgd1na2vs0mg"},{"bike_id":"a8e90dd9-4edb-4665-950f-a445a75fa5f4","system_id":"levelo_inurba_marseille","lat":43.27838,"lon":5.39214,"is_reserved":false,"is_disabled":false,"rental_uris":{"android":"levelo://app?vid=a8e90dd9-4edb-4665-950f-a445a75fa5f4","ios":"levelo://app?vid=a8e90dd9-4edb-4665-950f-a445a75fa5f4"},"vehicle_type_id":"4","last_reported":1732921713,"current_range_meters":38800,"station_id":"ce4bhjp2rcd13ifvqga0","pricing_plan_id":"cebpf4jnsgd1na2vs0mg"},{"bike_id":"cf7b40b2-28eb-4a67-a9bf-ea6f6aa52140","system_id":"levelo_inurba_marseille","lat":43.27908,"lon":5.38015,"is_reserved":false,"is_disabled":false,"rental_uris":{"android":"levelo://app?vid=cf7b40b2-28eb-4a67-a9bf-ea6f6aa52140","ios":"levelo://app?vid=cf7b40b2-28eb-4a67-a9bf-ea6f6aa52140"},"vehicle_type_id":"4","last_reported":1732921713,"current_range_meters":39200,"station_id":"ce4bhf92rcd13ifvqf50","pricing_plan_id":"cebpf4jnsgd1na2vs0mg"},{"bike_id":"712cd7b6-81de-4438-a2bf-d07b2e485650","system_id":"levelo_inurba_marseille","lat":43.2767,"lon":5.38878,"is_reserved":false,"is_disabled":false,"rental_uris":{"android":"levelo://app?vid=712cd7b6-81de-4438-a2bf-d07b2e485650","ios":"levelo://app?vid=712cd7b6-81de-4438-a2bf-d07b2e485650"},"vehicle_type_id":"4","last_reported":1732921713,"current_range_meters":19200,"station_id":"ce4bhi12rcd13ifvqfo0","pricing_plan_id":"cebpf4jnsgd1na2vs0mg"},{"bike_id":"c2d172e1-98e6-4a29-80b6-476b9c5f1669","system_id":"levelo_inurba_marseille","lat":43.275425,"lon":5.359874,"is_reserved":false,"is_disabled":true,"rental_uris":{"android":"levelo://app?vid=c2d172e1-98e6-4a29-80b6-476b9c5f1669","ios":"levelo://app?vid=c2d172e1-98e6-4a29-80b6-476b9c5f1669"},"vehicle_type_id":"4","last_reported":1732921713,"current_range_meters":2000,"station_id":"ce4bgj92rcd13ifvqbe0","pricing_plan_id":"cebpf4jnsgd1na2vs0mg"},{"bike_id":"01dd4a61-2932-478c-bb90-a182878898af","system_id":"levelo_inurba_marseille","lat":43.31535,"lon":5.38026,"is_reserved":false,"is_disabled":false,"rental_uris":{"android":"levelo://app?vid=01dd4a61-2932-478c-bb90-a182878898af","ios":"levelo://app?vid=01dd4a61-2932-478c-bb90-a182878898af"},"vehicle_type_id":"4","last_reported":1732921713,"current_range_meters":38800,"station_id":"ce4bhsp2rcd13ifvqi50","pricing_plan_id":"cebpf4jnsgd1na2vs0mg"},{"bike_id":"f43fbd88-79c3-4cb2-96ea-08ffcb536e41","system_id":"levelo_inurba_marseille","lat":43.30581,"lon":5.39353,"is_reserved":false,"is_disabled":false,"rental_uris":{"android":"levelo://app?vid=f43fbd88-79c3-4cb2-96ea-08ffcb536e41","ios":"levelo://app?vid=f43fbd88-79c3-4cb2-96ea-08ffcb536e41"},"vehicle_type_id":"4","last_reported":1732921713,"current_range_meters":36000,"station_id":"ce4bh0p2rcd13ifvqd80","pricing_plan_id":"cebpf4jnsgd1na2vs0mg"},{"bike_id":"3f91a570-34fe-4490-ad39-eeba4a9ee241","system_id":"levelo_inurba_marseille","lat":43.28263,"lon":5.35061,"is_reserved":false,"is_disabled":false,"rental_uris":{"android":"levelo://app?vid=3f91a570-34fe-4490-ad39-eeba4a9ee241","ios":"levelo://app?vid=3f91a570-34fe-4490-ad39-eeba4a9ee241"},"vehicle_type_id":"4","last_reported":1732921713,"current_range_meters":9600,"station_id":"ce4bhbp2rcd13ifvqerg","pricing_plan_id":"cebpf4jnsgd1na2vs0mg"},{"bike_id":"6c9b2e91-37c3-48f8-a7ec-10e025e6eae8","system_id":"levelo_inurba_marseille","lat":43.29005,"lon":5.35606,"is_reserved":false,"is_disabled":false,"rental_uris":{"android":"levelo://app?vid=6c9b2e91-37c3-48f8-a7ec-10e025e6eae8","ios":"levelo://app?vid=6c9b2e91-37c3-48f8-a7ec-10e025e6eae8"},"vehicle_type_id":"4","last_reported":1732921713,"current_range_meters":16400,"station_id":"ce4bhb92rcd13ifvqen0","pricing_plan_id":"cebpf4jnsgd1na2vs0mg"},{"bike_id":"c872430b-cdb2-4c01-90a7-0a81173bfaa1","system_id":"levelo_inurba_marseille","lat":43.27992,"lon":5.41661,"is_reserved":false,"is_disabled":false,"rental_uris":{"android":"levelo://app?vid=c872430b-cdb2-4c01-90a7-0a81173bfaa1","ios":"levelo://app?vid=c872430b-cdb2-4c01-90a7-0a81173bfaa1"},"vehicle_type_id":"4","last_reported":1732921713,"current_range_meters":40000,"station_id":"ce4bho12rcd13ifvqh1g","pricing_plan_id":"cebpf4jnsgd1na2vs0mg"},{"bike_id":"2839c06e-dfc6-4bb4-92dd-cd78c43581f0","system_id":"levelo_inurba_marseille","lat":43.23192,"lon":5.35545,"is_reserved":false,"is_disabled":false,"rental_uris":{"android":"levelo://app?vid=2839c06e-dfc6-4bb4-92dd-cd78c43581f0","ios":"levelo://app?vid=2839c06e-dfc6-4bb4-92dd-cd78c43581f0"},"vehicle_type_id":"4","last_reported":1732921713,"current_range_meters":17600,"station_id":"ce4bhu92rcd13ifvqi70","pricing_plan_id":"cebpf4jnsgd1na2vs0mg"},{"bike_id":"3c39df4a-8a75-48af-a3c2-a8531174d388","system_id":"levelo_inurba_marseille","lat":43.2931,"lon":5.37184,"is_reserved":false,"is_disabled":true,"rental_uris":{"android":"levelo://app?vid=3c39df4a-8a75-48af-a3c2-a8531174d388","ios":"levelo://app?vid=3c39df4a-8a75-48af-a3c2-a8531174d388"},"vehicle_type_id":"4","last_reported":1732921713,"current_range_meters":1600,"station_id":"ce4bgh92rcd13ifvqb40","pricing_plan_id":"cebpf4jnsgd1na2vs0mg"},{"bike_id":"5665810f-b575-4adf-bb81-374b1415fd37","system_id":"levelo_inurba_marseille","lat":43.29531,"lon":5.37506,"is_reserved":false,"is_disabled":false,"rental_uris":{"android":"levelo://app?vid=5665810f-b575-4adf-bb81-374b1415fd37","ios":"levelo://app?vid=5665810f-b575-4adf-bb81-374b1415fd37"},"vehicle_type_id":"4","last_reported":1732921713,"current_range_meters":38000,"station_id":"ce4bgkp2rcd13ifvqbmg","pricing_plan_id":"cebpf4jnsgd1na2vs0mg"},{"bike_id":"efbc09ba-ab9c-49a0-99d5-a359665f637c","system_id":"levelo_inurba_marseille","lat":43.27208,"lon":5.39181,"is_reserved":false,"is_disabled":false,"rental_uris":{"android":"levelo://app?vid=efbc09ba-ab9c-49a0-99d5-a359665f637c","ios":"levelo://app?vid=efbc09ba-ab9c-49a0-99d5-a359665f637c"},"vehicle_type_id":"4","last_reported":1732921713,"current_range_meters":28000,"station_id":"ce4bhhp2rcd13ifvqfm0","pricing_plan_id":"cebpf4jnsgd1na2vs0mg"},{"bike_id":"fe1c6c60-0f4f-4b5c-a7ea-9f2ff8347245","system_id":"levelo_inurba_marseille","lat":43.27609,"lon":5.36123,"is_reserved":false,"is_disabled":true,"rental_uris":{"android":"levelo://app?vid=fe1c6c60-0f4f-4b5c-a7ea-9f2ff8347245","ios":"levelo://app?vid=fe1c6c60-0f4f-4b5c-a7ea-9f2ff8347245"},"vehicle_type_id":"4","last_reported":1732921713,"current_range_meters":26800,"station_id":"ce4bgj92rcd13ifvqbe0","pricing_plan_id":"cebpf4jnsgd1na2vs0mg"},{"bike_id":"4abebe2b-dec7-442c-a6a0-da33deb742de","system_id":"levelo_inurba_marseille","lat":43.3215,"lon":5.36718,"is_reserved":false,"is_disabled":false,"rental_uris":{"android":"levelo://app?vid=4abebe2b-dec7-442c-a6a0-da33deb742de","ios":"levelo://app?vid=4abebe2b-dec7-442c-a6a0-da33deb742de"},"vehicle_type_id":"4","last_reported":1732921713,"current_range_meters":38800,"station_id":"","pricing_plan_id":"cebpf4jnsgd1na2vs0mg"},{"bike_id":"7c06e51c-1045-4d74-87ea-a64602d1594b","system_id":"levelo_inurba_marseille","lat":43.31354,"lon":5.38496,"is_reserved":false,"is_disabled":false,"rental_uris":{"android":"levelo://app?vid=7c06e51c-1045-4d74-87ea-a64602d1594b","ios":"levelo://app?vid=7c06e51c-1045-4d74-87ea-a64602d1594b"},"vehicle_type_id":"4","last_reported":1732921713,"current_range_meters":27200,"station_id":"ce4bgt92rcd13ifvqcf0","pricing_plan_id":"cebpf4jnsgd1na2vs0mg"},{"bike_id":"95e16b67-0d53-4cca-8aaa-2b831d4e43c6","system_id":"levelo_inurba_marseille","lat":43.33024,"lon":5.39039,"is_reserved":false,"is_disabled":false,"rental_uris":{"android":"levelo://app?vid=95e16b67-0d53-4cca-8aaa-2b831d4e43c6","ios":"levelo://app?vid=95e16b67-0d53-4cca-8aaa-2b831d4e43c6"},"vehicle_type_id":"4","last_reported":1732921713,"current_range_meters":33600,"station_id":"ce4bhr92rcd13ifvqhrg","pricing_plan_id":"cebpf4jnsgd1na2vs0mg"},{"bike_id":"770fbfde-d646-4d94-98e9-2eaac78942b5","system_id":"levelo_inurba_marseille","lat":43.27812,"lon":5.40713,"is_reserved":false,"is_disabled":false,"rental_uris":{"android":"levelo://app?vid=770fbfde-d646-4d94-98e9-2eaac78942b5","ios":"levelo://app?vid=770fbfde-d646-4d94-98e9-2eaac78942b5"},"vehicle_type_id":"4","last_reported":1732921713,"current_range_meters":39200,"station_id":"ce4bhnh2rcd13ifvqgtg","pricing_plan_id":"cebpf4jnsgd1na2vs0mg"},{"bike_id":"4cc90b5b-25e0-4eb8-942a-d0033804c348","system_id":"levelo_inurba_marseille","lat":43.29034,"lon":5.35919,"is_reserved":false,"is_disabled":false,"rental_uris":{"android":"levelo://app?vid=4cc90b5b-25e0-4eb8-942a-d0033804c348","ios":"levelo://app?vid=4cc90b5b-25e0-4eb8-942a-d0033804c348"},"vehicle_type_id":"4","last_reported":1732921713,"current_range_meters":19200,"station_id":"ce4bha92rcd13ifvqeg0","pricing_plan_id":"cebpf4jnsgd1na2vs0mg"},{"bike_id":"0f17f004-1308-4dc1-baa4-8e9fe8d97b2d","system_id":"levelo_inurba_marseille","lat":43.2573,"lon":5.41047,"is_reserved":false,"is_disabled":false,"rental_uris":{"android":"levelo://app?vid=0f17f004-1308-4dc1-baa4-8e9fe8d97b2d","ios":"levelo://app?vid=0f17f004-1308-4dc1-baa4-8e9fe8d97b2d"},"vehicle_type_id":"4","last_reported":1732921713,"current_range_meters":26800,"station_id":"ce4bhkp2rcd13ifvqgd0","pricing_plan_id":"cebpf4jnsgd1na2vs0mg"},{"bike_id":"a6622c8e-a345-4fa3-9671-ecb3cc3299b3","system_id":"levelo_inurba_marseille","lat":43.25109,"lon":5.40328,"is_reserved":false,"is_disabled":false,"rental_uris":{"android":"levelo://app?vid=a6622c8e-a345-4fa3-9671-ecb3cc3299b3","ios":"levelo://app?vid=a6622c8e-a345-4fa3-9671-ecb3cc3299b3"},"vehicle_type_id":"4","last_reported":1732921713,"current_range_meters":39200,"station_id":"ce4bhlh2rcd13ifvqgig","pricing_plan_id":"cebpf4jnsgd1na2vs0mg"},{"bike_id":"48fbeb45-0f57-4b9d-b0cd-b60786e534a0","system_id":"levelo_inurba_marseille","lat":43.265,"lon":5.39537,"is_reserved":false,"is_disabled":false,"rental_uris":{"android":"levelo://app?vid=48fbeb45-0f57-4b9d-b0cd-b60786e534a0","ios":"levelo://app?vid=48fbeb45-0f57-4b9d-b0cd-b60786e534a0"},"vehicle_type_id":"4","last_reported":1732921713,"current_range_meters":24000,"station_id":"ce4bhi12rcd13ifvqfq0","pricing_plan_id":"cebpf4jnsgd1na2vs0mg"},{"bike_id":"0c6e8b26-6361-4598-9283-44b2a8119bd6","system_id":"levelo_inurba_marseille","lat":43.29046,"lon":5.37579,"is_reserved":false,"is_disabled":false,"rental_uris":{"android":"levelo://app?vid=0c6e8b26-6361-4598-9283-44b2a8119bd6","ios":"levelo://app?vid=0c6e8b26-6361-4598-9283-44b2a8119bd6"},"vehicle_type_id":"4","last_reported":1732921713,"current_range_meters":38000,"station_id":"ce4bh692rcd13ifvqe90","pricing_plan_id":"cebpf4jnsgd1na2vs0mg"},{"bike_id":"1725ad6a-d25b-4c4e-8a3b-2fed4641262c","system_id":"levelo_inurba_marseille","lat":43.28708,"lon":5.37944,"is_reserved":false,"is_disabled":false,"rental_uris":{"android":"levelo://app?vid=1725ad6a-d25b-4c4e-8a3b-2fed4641262c","ios":"levelo://app?vid=1725ad6a-d25b-4c4e-8a3b-2fed4641262c"},"vehicle_type_id":"4","last_reported":1732921713,"current_range_meters":8400,"station_id":"ce4bh9p2rcd13ifvqec0","pricing_plan_id":"cebpf4jnsgd1na2vs0mg"},{"bike_id":"bd32640c-f2a5-45c1-86ea-d8b8dd4b583a","system_id":"levelo_inurba_marseille","lat":43.28711,"lon":5.374,"is_reserved":false,"is_disabled":false,"rental_uris":{"android":"levelo://app?vid=bd32640c-f2a5-45c1-86ea-d8b8dd4b583a","ios":"levelo://app?vid=bd32640c-f2a5-45c1-86ea-d8b8dd4b583a"},"vehicle_type_id":"4","last_reported":1732921713,"current_range_meters":18800,"station_id":"ce4bh3p2rcd13ifvqdq0","pricing_plan_id":"cebpf4jnsgd1na2vs0mg"},{"bike_id":"9dd1fc98-a89e-437a-b707-6eb8b3c899e8","system_id":"levelo_inurba_marseille","lat":43.29039,"lon":5.35916,"is_reserved":false,"is_disabled":true,"rental_uris":{"android":"levelo://app?vid=9dd1fc98-a89e-437a-b707-6eb8b3c899e8","ios":"levelo://app?vid=9dd1fc98-a89e-437a-b707-6eb8b3c899e8"},"vehicle_type_id":"4","last_reported":1732921713,"current_range_meters":4800,"station_id":"ce4bha92rcd13ifvqeg0","pricing_plan_id":"cebpf4jnsgd1na2vs0mg"},{"bike_id":"cc825f38-4eb5-4797-9b30-89da685bdccf","system_id":"levelo_inurba_marseille","lat":43.2742,"lon":5.39415,"is_reserved":false,"is_disabled":false,"rental_uris":{"android":"levelo://app?vid=cc825f38-4eb5-4797-9b30-89da685bdccf","ios":"levelo://app?vid=cc825f38-4eb5-4797-9b30-89da685bdccf"},"vehicle_type_id":"4","last_reported":1732921713,"current_range_meters":25200,"station_id":"ce4bhdp2rcd13ifvqf20","pricing_plan_id":"cebpf4jnsgd1na2vs0mg"},{"bike_id":"9dc2d7f8-19a3-4300-bdf0-88ca062d2312","system_id":"levelo_inurba_marseille","lat":43.31068,"lon":5.38346,"is_reserved":false,"is_disabled":false,"rental_uris":{"android":"levelo://app?vid=9dc2d7f8-19a3-4300-bdf0-88ca062d2312","ios":"levelo://app?vid=9dc2d7f8-19a3-4300-bdf0-88ca062d2312"},"vehicle_type_id":"4","last_reported":1732921713,"current_range_meters":16800,"station_id":"ce4bgv92rcd13ifvqcr0","pricing_plan_id":"cebpf4jnsgd1na2vs0mg"},{"bike_id":"a1da46ac-0823-493f-ac56-218330798636","system_id":"levelo_inurba_marseille","lat":43.24386,"lon":5.37058,"is_reserved":false,"is_disabled":false,"rental_uris":{"android":"levelo://app?vid=a1da46ac-0823-493f-ac56-218330798636","ios":"levelo://app?vid=a1da46ac-0823-493f-ac56-218330798636"},"vehicle_type_id":"4","last_reported":1732921713,"current_range_meters":11200,"station_id":"ce4bhhh2rcd13ifvqfk0","pricing_plan_id":"cebpf4jnsgd1na2vs0mg"},{"bike_id":"a08e92df-d228-4c3e-8d38-0b4d31df1a77","system_id":"levelo_inurba_marseille","lat":43.28697,"lon":5.39983,"is_reserved":false,"is_disabled":false,"rental_uris":{"android":"levelo://app?vid=a08e92df-d228-4c3e-8d38-0b4d31df1a77","ios":"levelo://app?vid=a08e92df-d228-4c3e-8d38-0b4d31df1a77"},"vehicle_type_id":"4","last_reported":1732921713,"current_range_meters":26800,"station_id":"ce4bho92rcd13ifvqh3g","pricing_plan_id":"cebpf4jnsgd1na2vs0mg"},{"bike_id":"a5909545-3e09-4859-9fda-9ffe4e6e4883","system_id":"levelo_inurba_marseille","lat":43.23066,"lon":5.35491,"is_reserved":false,"is_disabled":false,"rental_uris":{"android":"levelo://app?vid=a5909545-3e09-4859-9fda-9ffe4e6e4883","ios":"levelo://app?vid=a5909545-3e09-4859-9fda-9ffe4e6e4883"},"vehicle_type_id":"4","last_reported":1732921713,"current_range_meters":15200,"station_id":"cpo3342slgdg3j2ifvpg","pricing_plan_id":"cebpf4jnsgd1na2vs0mg"},{"bike_id":"c54fa7c9-a127-4d75-ac3d-fe8ea889edd3","system_id":"levelo_inurba_marseille","lat":43.30132,"lon":5.39871,"is_reserved":false,"is_disabled":true,"rental_uris":{"android":"levelo://app?vid=c54fa7c9-a127-4d75-ac3d-fe8ea889edd3","ios":"levelo://app?vid=c54fa7c9-a127-4d75-ac3d-fe8ea889edd3"},"vehicle_type_id":"4","last_reported":1732921713,"current_range_meters":33600,"station_id":"ce4bh0h2rcd13ifvqd40","pricing_plan_id":"cebpf4jnsgd1na2vs0mg"},{"bike_id":"0ad55357-e7ea-455c-af51-279b35cd7a17","system_id":"levelo_inurba_marseille","lat":43.31362,"lon":5.38495,"is_reserved":false,"is_disabled":false,"rental_uris":{"android":"levelo://app?vid=0ad55357-e7ea-455c-af51-279b35cd7a17","ios":"levelo://app?vid=0ad55357-e7ea-455c-af51-279b35cd7a17"},"vehicle_type_id":"4","last_reported":1732921713,"current_range_meters":24000,"station_id":"ce4bgt92rcd13ifvqcf0","pricing_plan_id":"cebpf4jnsgd1na2vs0mg"},{"bike_id":"8a706c0a-83d1-44fa-9127-38cdaec2557e","system_id":"levelo_inurba_marseille","lat":43.31326,"lon":5.39691,"is_reserved":false,"is_disabled":false,"rental_uris":{"android":"levelo://app?vid=8a706c0a-83d1-44fa-9127-38cdaec2557e","ios":"levelo://app?vid=8a706c0a-83d1-44fa-9127-38cdaec2557e"},"vehicle_type_id":"4","last_reported":1732921713,"current_range_meters":16800,"station_id":"ce4bgvp2rcd13ifvqcu0","pricing_plan_id":"cebpf4jnsgd1na2vs0mg"},{"bike_id":"78716590-acd8-4375-8266-67d9a41d59a7","system_id":"levelo_inurba_marseille","lat":43.3237,"lon":5.3888,"is_reserved":false,"is_disabled":false,"rental_uris":{"android":"levelo://app?vid=78716590-acd8-4375-8266-67d9a41d59a7","ios":"levelo://app?vid=78716590-acd8-4375-8266-67d9a41d59a7"},"vehicle_type_id":"4","last_reported":1732921713,"current_range_meters":31200,"station_id":"ce4bhqp2rcd13ifvqhog","pricing_plan_id":"cebpf4jnsgd1na2vs0mg"},{"bike_id":"797dcae1-f526-4029-8577-86245fa07752","system_id":"levelo_inurba_marseille","lat":43.26944,"lon":5.40251,"is_reserved":false,"is_disabled":false,"rental_uris":{"android":"levelo://app?vid=797dcae1-f526-4029-8577-86245fa07752","ios":"levelo://app?vid=797dcae1-f526-4029-8577-86245fa07752"},"vehicle_type_id":"4","last_reported":1732921713,"current_range_meters":28800,"station_id":"cjm6bp8fraef2m0cb0m0","pricing_plan_id":"cebpf4jnsgd1na2vs0mg"},{"bike_id":"7d915583-b887-4aeb-8816-82444c1b5b57","system_id":"levelo_inurba_marseille","lat":43.2799,"lon":5.41658,"is_reserved":false,"is_disabled":false,"rental_uris":{"android":"levelo://app?vid=7d915583-b887-4aeb-8816-82444c1b5b57","ios":"levelo://app?vid=7d915583-b887-4aeb-8816-82444c1b5b57"},"vehicle_type_id":"4","last_reported":1732921713,"current_range_meters":12800,"station_id":"ce4bho12rcd13ifvqh1g","pricing_plan_id":"cebpf4jnsgd1na2vs0mg"},{"bike_id":"d98f3600-3c42-477c-b935-6104b51ef2a6","system_id":"levelo_inurba_marseille","lat":43.27418,"lon":5.39413,"is_reserved":false,"is_disabled":false,"rental_uris":{"android":"levelo://app?vid=d98f3600-3c42-477c-b935-6104b51ef2a6","ios":"levelo://app?vid=d98f3600-3c42-477c-b935-6104b51ef2a6"},"vehicle_type_id":"4","last_reported":1732921713,"current_range_meters":20000,"station_id":"ce4bhdp2rcd13ifvqf20","pricing_plan_id":"cebpf4jnsgd1na2vs0mg"},{"bike_id":"e5951ee3-4a5a-4ebb-b469-096c5188dfa3","system_id":"levelo_inurba_marseille","lat":43.23212,"lon":5.35593,"is_reserved":false,"is_disabled":false,"rental_uris":{"android":"levelo://app?vid=e5951ee3-4a5a-4ebb-b469-096c5188dfa3","ios":"levelo://app?vid=e5951ee3-4a5a-4ebb-b469-096c5188dfa3"},"vehicle_type_id":"4","last_reported":1732921713,"current_range_meters":22400,"station_id":"ce4bhu92rcd13ifvqi70","pricing_plan_id":"cebpf4jnsgd1na2vs0mg"},{"bike_id":"f9a63393-5401-4f98-ae5a-dfbb8291ab6d","system_id":"levelo_inurba_marseille","lat":43.3004,"lon":5.37551,"is_reserved":false,"is_disabled":true,"rental_uris":{"android":"levelo://app?vid=f9a63393-5401-4f98-ae5a-dfbb8291ab6d","ios":"levelo://app?vid=f9a63393-5401-4f98-ae5a-dfbb8291ab6d"},"vehicle_type_id":"4","last_reported":1732921713,"current_range_meters":0,"station_id":"","pricing_plan_id":"cebpf4jnsgd1na2vs0mg"},{"bike_id":"d2300a67-e59d-4c6d-84e8-89c1777cddcc","system_id":"levelo_inurba_marseille","lat":43.31994,"lon":5.38151,"is_reserved":false,"is_disabled":false,"rental_uris":{"android":"levelo://app?vid=d2300a67-e59d-4c6d-84e8-89c1777cddcc","ios":"levelo://app?vid=d2300a67-e59d-4c6d-84e8-89c1777cddcc"},"vehicle_type_id":"4","last_reported":1732921713,"current_range_meters":38800,"station_id":"ce4bhr12rcd13ifvqhpg","pricing_plan_id":"cebpf4jnsgd1na2vs0mg"},{"bike_id":"3ce2fffb-4d51-444b-8bb2-5cd62ad86f77","system_id":"levelo_inurba_marseille","lat":43.31278,"lon":5.40165,"is_reserved":false,"is_disabled":false,"rental_uris":{"android":"levelo://app?vid=3ce2fffb-4d51-444b-8bb2-5cd62ad86f77","ios":"levelo://app?vid=3ce2fffb-4d51-444b-8bb2-5cd62ad86f77"},"vehicle_type_id":"4","last_reported":1732921713,"current_range_meters":32800,"station_id":"ce4bh092rcd13ifvqd30","pricing_plan_id":"cebpf4jnsgd1na2vs0mg"},{"bike_id":"760fd9da-47e8-419f-a10f-0d4743d082f4","system_id":"levelo_inurba_marseille","lat":43.27208,"lon":5.39184,"is_reserved":false,"is_disabled":false,"rental_uris":{"android":"levelo://app?vid=760fd9da-47e8-419f-a10f-0d4743d082f4","ios":"levelo://app?vid=760fd9da-47e8-419f-a10f-0d4743d082f4"},"vehicle_type_id":"4","last_reported":1732921713,"current_range_meters":38400,"station_id":"ce4bhhp2rcd13ifvqfm0","pricing_plan_id":"cebpf4jnsgd1na2vs0mg"},{"bike_id":"d7cf6dba-f372-485f-8849-893e3853a422","system_id":"levelo_inurba_marseille","lat":43.31326,"lon":5.3969,"is_reserved":false,"is_disabled":false,"rental_uris":{"android":"levelo://app?vid=d7cf6dba-f372-485f-8849-893e3853a422","ios":"levelo://app?vid=d7cf6dba-f372-485f-8849-893e3853a422"},"vehicle_type_id":"4","last_reported":1732921713,"current_range_meters":12000,"station_id":"ce4bgvp2rcd13ifvqcu0","pricing_plan_id":"cebpf4jnsgd1na2vs0mg"},{"bike_id":"209edce5-94bd-42b7-894c-233f806592a5","system_id":"levelo_inurba_marseille","lat":43.32361,"lon":5.36758,"is_reserved":false,"is_disabled":false,"rental_uris":{"android":"levelo://app?vid=209edce5-94bd-42b7-894c-233f806592a5","ios":"levelo://app?vid=209edce5-94bd-42b7-894c-233f806592a5"},"vehicle_type_id":"4","last_reported":1732921713,"current_range_meters":31200,"station_id":"ce4bhsh2rcd13ifvqi2g","pricing_plan_id":"cebpf4jnsgd1na2vs0mg"},{"bike_id":"cb90edb8-6b97-4f13-aaf4-7fc553c35336","system_id":"levelo_inurba_marseille","lat":43.31721,"lon":5.37795,"is_reserved":false,"is_disabled":false,"rental_uris":{"android":"levelo://app?vid=cb90edb8-6b97-4f13-aaf4-7fc553c35336","ios":"levelo://app?vid=cb90edb8-6b97-4f13-aaf4-7fc553c35336"},"vehicle_type_id":"4","last_reported":1732921713,"current_range_meters":36000,"station_id":"ce4bgth2rcd13ifvqch0","pricing_plan_id":"cebpf4jnsgd1na2vs0mg"},{"bike_id":"1e4af74b-3c85-466e-888d-e56cef942469","system_id":"levelo_inurba_marseille","lat":43.3134,"lon":5.36716,"is_reserved":false,"is_disabled":false,"rental_uris":{"android":"levelo://app?vid=1e4af74b-3c85-466e-888d-e56cef942469","ios":"levelo://app?vid=1e4af74b-3c85-466e-888d-e56cef942469"},"vehicle_type_id":"4","last_reported":1732921713,"current_range_meters":31200,"station_id":"ce4bgr92rcd13ifvqc6g","pricing_plan_id":"cebpf4jnsgd1na2vs0mg"},{"bike_id":"a4df0d0f-0aa8-4c0d-bfa3-c12e8d59e288","system_id":"levelo_inurba_marseille","lat":43.29304,"lon":5.37157,"is_reserved":false,"is_disabled":false,"rental_uris":{"android":"levelo://app?vid=a4df0d0f-0aa8-4c0d-bfa3-c12e8d59e288","ios":"levelo://app?vid=a4df0d0f-0aa8-4c0d-bfa3-c12e8d59e288"},"vehicle_type_id":"4","last_reported":1732921713,"current_range_meters":38000,"station_id":"ce4bgh92rcd13ifvqb40","pricing_plan_id":"cebpf4jnsgd1na2vs0mg"},{"bike_id":"bba82484-d6d2-4eb9-a24b-0fee4128de51","system_id":"levelo_inurba_marseille","lat":43.3014,"lon":5.38772,"is_reserved":false,"is_disabled":true,"rental_uris":{"android":"levelo://app?vid=bba82484-d6d2-4eb9-a24b-0fee4128de51","ios":"levelo://app?vid=bba82484-d6d2-4eb9-a24b-0fee4128de51"},"vehicle_type_id":"4","last_reported":1732921713,"current_range_meters":400,"station_id":"ce4bghh2rcd13ifvqb60","pricing_plan_id":"cebpf4jnsgd1na2vs0mg"},{"bike_id":"a1de088e-f9bc-437b-86db-027b9d5a0352","system_id":"levelo_inurba_marseille","lat":43.33021,"lon":5.39034,"is_reserved":false,"is_disabled":false,"rental_uris":{"android":"levelo://app?vid=a1de088e-f9bc-437b-86db-027b9d5a0352","ios":"levelo://app?vid=a1de088e-f9bc-437b-86db-027b9d5a0352"},"vehicle_type_id":"4","last_reported":1732921713,"current_range_meters":38800,"station_id":"ce4bhr92rcd13ifvqhrg","pricing_plan_id":"cebpf4jnsgd1na2vs0mg"},{"bike_id":"6c1f80c2-d6d4-477c-ae6f-1b940c87be98","system_id":"levelo_inurba_marseille","lat":43.2741,"lon":5.39422,"is_reserved":false,"is_disabled":false,"rental_uris":{"android":"levelo://app?vid=6c1f80c2-d6d4-477c-ae6f-1b940c87be98","ios":"levelo://app?vid=6c1f80c2-d6d4-477c-ae6f-1b940c87be98"},"vehicle_type_id":"4","last_reported":1732921713,"current_range_meters":37600,"station_id":"ce4bhdp2rcd13ifvqf20","pricing_plan_id":"cebpf4jnsgd1na2vs0mg"},{"bike_id":"de8dedfd-c65e-4ce5-b8ec-b5ab34a22a6e","system_id":"levelo_inurba_marseille","lat":43.27068,"lon":5.42282,"is_reserved":false,"is_disabled":true,"rental_uris":{"android":"levelo://app?vid=de8dedfd-c65e-4ce5-b8ec-b5ab34a22a6e","ios":"levelo://app?vid=de8dedfd-c65e-4ce5-b8ec-b5ab34a22a6e"},"vehicle_type_id":"4","last_reported":1732921713,"current_range_meters":40000,"station_id":"ce4bhk92rcd13ifvqgb0","pricing_plan_id":"cebpf4jnsgd1na2vs0mg"},{"bike_id":"da8571d2-98d4-4daa-a2a2-aa0abe1a2c70","system_id":"levelo_inurba_marseille","lat":43.30911,"lon":5.36846,"is_reserved":false,"is_disabled":false,"rental_uris":{"android":"levelo://app?vid=da8571d2-98d4-4daa-a2a2-aa0abe1a2c70","ios":"levelo://app?vid=da8571d2-98d4-4daa-a2a2-aa0abe1a2c70"},"vehicle_type_id":"4","last_reported":1732921713,"current_range_meters":25200,"station_id":"ce4bgn92rcd13ifvqbvg","pricing_plan_id":"cebpf4jnsgd1na2vs0mg"},{"bike_id":"38798db8-5bd5-4792-b41b-6f809d1b1c45","system_id":"levelo_inurba_marseille","lat":43.31997,"lon":5.38161,"is_reserved":false,"is_disabled":false,"rental_uris":{"android":"levelo://app?vid=38798db8-5bd5-4792-b41b-6f809d1b1c45","ios":"levelo://app?vid=38798db8-5bd5-4792-b41b-6f809d1b1c45"},"vehicle_type_id":"4","last_reported":1732921713,"current_range_meters":20800,"station_id":"ce4bhr12rcd13ifvqhpg","pricing_plan_id":"cebpf4jnsgd1na2vs0mg"},{"bike_id":"938419fd-70bf-4163-b048-f4f74e8063cb","system_id":"levelo_inurba_marseille","lat":43.31362,"lon":5.38491,"is_reserved":false,"is_disabled":false,"rental_uris":{"android":"levelo://app?vid=938419fd-70bf-4163-b048-f4f74e8063cb","ios":"levelo://app?vid=938419fd-70bf-4163-b048-f4f74e8063cb"},"vehicle_type_id":"4","last_reported":1732921713,"current_range_meters":33200,"station_id":"ce4bgt92rcd13ifvqcf0","pricing_plan_id":"cebpf4jnsgd1na2vs0mg"},{"bike_id":"375f3ff8-f817-4dea-ba6a-e7f3d0cf2b56","system_id":"levelo_inurba_marseille","lat":43.28032,"lon":5.36952,"is_reserved":false,"is_disabled":false,"rental_uris":{"android":"levelo://app?vid=375f3ff8-f817-4dea-ba6a-e7f3d0cf2b56","ios":"levelo://app?vid=375f3ff8-f817-4dea-ba6a-e7f3d0cf2b56"},"vehicle_type_id":"4","last_reported":1732921713,"current_range_meters":38800,"station_id":"ce4bha12rcd13ifvqef0","pricing_plan_id":"cebpf4jnsgd1na2vs0mg"},{"bike_id":"f05403b4-7fc6-4ed9-83e5-21728471368c","system_id":"levelo_inurba_marseille","lat":43.30793,"lon":5.38163,"is_reserved":false,"is_disabled":false,"rental_uris":{"android":"levelo://app?vid=f05403b4-7fc6-4ed9-83e5-21728471368c","ios":"levelo://app?vid=f05403b4-7fc6-4ed9-83e5-21728471368c"},"vehicle_type_id":"4","last_reported":1732921713,"current_range_meters":22400,"station_id":"ce4bgt12rcd13ifvqce0","pricing_plan_id":"cebpf4jnsgd1na2vs0mg"},{"bike_id":"a58e769d-0f70-4874-85c5-22442e297c0f","system_id":"levelo_inurba_marseille","lat":43.29421,"lon":5.38617,"is_reserved":false,"is_disabled":true,"rental_uris":{"android":"levelo://app?vid=a58e769d-0f70-4874-85c5-22442e297c0f","ios":"levelo://app?vid=a58e769d-0f70-4874-85c5-22442e297c0f"},"vehicle_type_id":"4","last_reported":1732921713,"current_range_meters":800,"station_id":"ce4bh2h2rcd13ifvqdh0","pricing_plan_id":"cebpf4jnsgd1na2vs0mg"},{"bike_id":"ced6f6fa-1cfb-4262-99ab-9eb61311c35b","system_id":"levelo_inurba_marseille","lat":43.312702,"lon":5.401709,"is_reserved":false,"is_disabled":false,"rental_uris":{"android":"levelo://app?vid=ced6f6fa-1cfb-4262-99ab-9eb61311c35b","ios":"levelo://app?vid=ced6f6fa-1cfb-4262-99ab-9eb61311c35b"},"vehicle_type_id":"4","last_reported":1732921713,"current_range_meters":30400,"station_id":"ce4bh092rcd13ifvqd30","pricing_plan_id":"cebpf4jnsgd1na2vs0mg"},{"bike_id":"c43fffd1-108f-4493-9c53-d2971d2b16a2","system_id":"levelo_inurba_marseille","lat":43.3292,"lon":5.41563,"is_reserved":false,"is_disabled":false,"rental_uris":{"android":"levelo://app?vid=c43fffd1-108f-4493-9c53-d2971d2b16a2","ios":"levelo://app?vid=c43fffd1-108f-4493-9c53-d2971d2b16a2"},"vehicle_type_id":"4","last_reported":1732921713,"current_range_meters":24400,"station_id":"","pricing_plan_id":"cebpf4jnsgd1na2vs0mg"},{"bike_id":"cf002d38-17c9-44fd-9354-c7910c4bd3ff","system_id":"levelo_inurba_marseille","lat":43.330199,"lon":5.390355,"is_reserved":false,"is_disabled":false,"rental_uris":{"android":"levelo://app?vid=cf002d38-17c9-44fd-9354-c7910c4bd3ff","ios":"levelo://app?vid=cf002d38-17c9-44fd-9354-c7910c4bd3ff"},"vehicle_type_id":"4","last_reported":1732921713,"current_range_meters":37600,"station_id":"ce4bhr92rcd13ifvqhrg","pricing_plan_id":"cebpf4jnsgd1na2vs0mg"},{"bike_id":"cb261da6-4840-44c8-b66c-2a0cb568a4ad","system_id":"levelo_inurba_marseille","lat":43.2783,"lon":5.39214,"is_reserved":false,"is_disabled":true,"rental_uris":{"android":"levelo://app?vid=cb261da6-4840-44c8-b66c-2a0cb568a4ad","ios":"levelo://app?vid=cb261da6-4840-44c8-b66c-2a0cb568a4ad"},"vehicle_type_id":"4","last_reported":1732921713,"current_range_meters":38800,"station_id":"ce4bhjp2rcd13ifvqga0","pricing_plan_id":"cebpf4jnsgd1na2vs0mg"},{"bike_id":"43746d86-8a13-4845-9faf-ae69b548d714","system_id":"levelo_inurba_marseille","lat":43.29459,"lon":5.37917,"is_reserved":false,"is_disabled":true,"rental_uris":{"android":"levelo://app?vid=43746d86-8a13-4845-9faf-ae69b548d714","ios":"levelo://app?vid=43746d86-8a13-4845-9faf-ae69b548d714"},"vehicle_type_id":"4","last_reported":1732921713,"current_range_meters":0,"station_id":"","pricing_plan_id":"cebpf4jnsgd1na2vs0mg"},{"bike_id":"746d0832-fa34-43ef-bd41-a94b306dc08e","system_id":"levelo_inurba_marseille","lat":43.24662,"lon":5.3816,"is_reserved":false,"is_disabled":false,"rental_uris":{"android":"levelo://app?vid=746d0832-fa34-43ef-bd41-a94b306dc08e","ios":"levelo://app?vid=746d0832-fa34-43ef-bd41-a94b306dc08e"},"vehicle_type_id":"4","last_reported":1732921713,"current_range_meters":10000,"station_id":"ce4bhih2rcd13ifvqfr0","pricing_plan_id":"cebpf4jnsgd1na2vs0mg"},{"bike_id":"1665090c-d6bc-4de6-b530-613846e90070","system_id":"levelo_inurba_marseille","lat":43.31363,"lon":5.38498,"is_reserved":false,"is_disabled":false,"rental_uris":{"android":"levelo://app?vid=1665090c-d6bc-4de6-b530-613846e90070","ios":"levelo://app?vid=1665090c-d6bc-4de6-b530-613846e90070"},"vehicle_type_id":"4","last_reported":1732921713,"current_range_meters":28400,"station_id":"ce4bgt92rcd13ifvqcf0","pricing_plan_id":"cebpf4jnsgd1na2vs0mg"},{"bike_id":"494babaa-84e0-421c-9a5f-270fee1a5197","system_id":"levelo_inurba_marseille","lat":43.275962,"lon":5.383975,"is_reserved":false,"is_disabled":false,"rental_uris":{"android":"levelo://app?vid=494babaa-84e0-421c-9a5f-270fee1a5197","ios":"levelo://app?vid=494babaa-84e0-421c-9a5f-270fee1a5197"},"vehicle_type_id":"4","last_reported":1732921713,"current_range_meters":27200,"station_id":"","pricing_plan_id":"cebpf4jnsgd1na2vs0mg"},{"bike_id":"79688380-b928-4101-b05d-98288ce37ed3","system_id":"levelo_inurba_marseille","lat":43.26928,"lon":5.38922,"is_reserved":false,"is_disabled":false,"rental_uris":{"android":"levelo://app?vid=79688380-b928-4101-b05d-98288ce37ed3","ios":"levelo://app?vid=79688380-b928-4101-b05d-98288ce37ed3"},"vehicle_type_id":"4","last_reported":1732921713,"current_range_meters":24400,"station_id":"ce4bhhh2rcd13ifvqfl0","pricing_plan_id":"cebpf4jnsgd1na2vs0mg"},{"bike_id":"6be9ca73-798f-4570-8ca0-f1dfa419b31a","system_id":"levelo_inurba_marseille","lat":43.31068,"lon":5.38347,"is_reserved":false,"is_disabled":false,"rental_uris":{"android":"levelo://app?vid=6be9ca73-798f-4570-8ca0-f1dfa419b31a","ios":"levelo://app?vid=6be9ca73-798f-4570-8ca0-f1dfa419b31a"},"vehicle_type_id":"4","last_reported":1732921713,"current_range_meters":25600,"station_id":"ce4bgv92rcd13ifvqcr0","pricing_plan_id":"cebpf4jnsgd1na2vs0mg"},{"bike_id":"98e2d888-37de-4669-ac4b-97e1a8acaade","system_id":"levelo_inurba_marseille","lat":43.29288,"lon":5.38563,"is_reserved":false,"is_disabled":true,"rental_uris":{"android":"levelo://app?vid=98e2d888-37de-4669-ac4b-97e1a8acaade","ios":"levelo://app?vid=98e2d888-37de-4669-ac4b-97e1a8acaade"},"vehicle_type_id":"4","last_reported":1732921713,"current_range_meters":0,"station_id":"","pricing_plan_id":"cebpf4jnsgd1na2vs0mg"},{"bike_id":"d8090434-8164-4911-a368-9f666e5165ad","system_id":"levelo_inurba_marseille","lat":43.26553,"lon":5.37287,"is_reserved":false,"is_disabled":false,"rental_uris":{"android":"levelo://app?vid=d8090434-8164-4911-a368-9f666e5165ad","ios":"levelo://app?vid=d8090434-8164-4911-a368-9f666e5165ad"},"vehicle_type_id":"4","last_reported":1732921713,"current_range_meters":35200,"station_id":"ce4bhg12rcd13ifvqf70","pricing_plan_id":"cebpf4jnsgd1na2vs0mg"},{"bike_id":"c2c6175e-2ea9-4751-bf90-b522c3616c30","system_id":"levelo_inurba_marseille","lat":43.30937,"lon":5.40151,"is_reserved":false,"is_disabled":false,"rental_uris":{"android":"levelo://app?vid=c2c6175e-2ea9-4751-bf90-b522c3616c30","ios":"levelo://app?vid=c2c6175e-2ea9-4751-bf90-b522c3616c30"},"vehicle_type_id":"4","last_reported":1732921713,"current_range_meters":33200,"station_id":"ce4bgvp2rcd13ifvqct0","pricing_plan_id":"cebpf4jnsgd1na2vs0mg"},{"bike_id":"5ff3bb70-9951-4b84-995f-3eda8f4fa584","system_id":"levelo_inurba_marseille","lat":43.30117,"lon":5.3986,"is_reserved":false,"is_disabled":false,"rental_uris":{"android":"levelo://app?vid=5ff3bb70-9951-4b84-995f-3eda8f4fa584","ios":"levelo://app?vid=5ff3bb70-9951-4b84-995f-3eda8f4fa584"},"vehicle_type_id":"4","last_reported":1732921713,"current_range_meters":24000,"station_id":"ce4bh0h2rcd13ifvqd40","pricing_plan_id":"cebpf4jnsgd1na2vs0mg"},{"bike_id":"3761fea6-32d7-4a30-8c67-2411a647f9dc","system_id":"levelo_inurba_marseille","lat":43.31364,"lon":5.38493,"is_reserved":false,"is_disabled":false,"rental_uris":{"android":"levelo://app?vid=3761fea6-32d7-4a30-8c67-2411a647f9dc","ios":"levelo://app?vid=3761fea6-32d7-4a30-8c67-2411a647f9dc"},"vehicle_type_id":"4","last_reported":1732921713,"current_range_meters":16400,"station_id":"ce4bgt92rcd13ifvqcf0","pricing_plan_id":"cebpf4jnsgd1na2vs0mg"},{"bike_id":"5a13dc2f-6c5d-4822-b1e1-61a262b7804d","system_id":"levelo_inurba_marseille","lat":43.28612,"lon":5.351,"is_reserved":false,"is_disabled":false,"rental_uris":{"android":"levelo://app?vid=5a13dc2f-6c5d-4822-b1e1-61a262b7804d","ios":"levelo://app?vid=5a13dc2f-6c5d-4822-b1e1-61a262b7804d"},"vehicle_type_id":"4","last_reported":1732921713,"current_range_meters":4000,"station_id":"ce4bhch2rcd13ifvqeug","pricing_plan_id":"cebpf4jnsgd1na2vs0mg"},{"bike_id":"15e24c31-4292-4084-bcd3-e24f0a31685e","system_id":"levelo_inurba_marseille","lat":43.28422,"lon":5.34985,"is_reserved":false,"is_disabled":true,"rental_uris":{"android":"levelo://app?vid=15e24c31-4292-4084-bcd3-e24f0a31685e","ios":"levelo://app?vid=15e24c31-4292-4084-bcd3-e24f0a31685e"},"vehicle_type_id":"4","last_reported":1732921713,"current_range_meters":37600,"station_id":"ce4bhbh2rcd13ifvqepg","pricing_plan_id":"cebpf4jnsgd1na2vs0mg"},{"bike_id":"60bcfd83-20b5-46ea-b55f-3d3dab37186e","system_id":"levelo_inurba_marseille","lat":43.30416,"lon":5.39749,"is_reserved":false,"is_disabled":true,"rental_uris":{"android":"levelo://app?vid=60bcfd83-20b5-46ea-b55f-3d3dab37186e","ios":"levelo://app?vid=60bcfd83-20b5-46ea-b55f-3d3dab37186e"},"vehicle_type_id":"4","last_reported":1732921713,"current_range_meters":17600,"station_id":"ce4bh092rcd13ifvqd20","pricing_plan_id":"cebpf4jnsgd1na2vs0mg"},{"bike_id":"579ec052-1a9b-4b33-b6e7-3ce0d78a27eb","system_id":"levelo_inurba_marseille","lat":43.32487,"lon":5.36563,"is_reserved":false,"is_disabled":false,"rental_uris":{"android":"levelo://app?vid=579ec052-1a9b-4b33-b6e7-3ce0d78a27eb","ios":"levelo://app?vid=579ec052-1a9b-4b33-b6e7-3ce0d78a27eb"},"vehicle_type_id":"4","last_reported":1732921713,"current_range_meters":38000,"station_id":"ce4bhs12rcd13ifvqhvg","pricing_plan_id":"cebpf4jnsgd1na2vs0mg"},{"bike_id":"d7c027ce-affe-4e74-a76c-56f36651134b","system_id":"levelo_inurba_marseille","lat":43.22932,"lon":5.35378,"is_reserved":false,"is_disabled":false,"rental_uris":{"android":"levelo://app?vid=d7c027ce-affe-4e74-a76c-56f36651134b","ios":"levelo://app?vid=d7c027ce-affe-4e74-a76c-56f36651134b"},"vehicle_type_id":"4","last_reported":1732921713,"current_range_meters":33200,"station_id":"cpo3532slgdg3j2ikp40","pricing_plan_id":"cebpf4jnsgd1na2vs0mg"},{"bike_id":"e30e6432-35e0-4c66-98a0-e0c903123307","system_id":"levelo_inurba_marseille","lat":43.30799,"lon":5.38156,"is_reserved":false,"is_disabled":false,"rental_uris":{"android":"levelo://app?vid=e30e6432-35e0-4c66-98a0-e0c903123307","ios":"levelo://app?vid=e30e6432-35e0-4c66-98a0-e0c903123307"},"vehicle_type_id":"4","last_reported":1732921713,"current_range_meters":25200,"station_id":"ce4bgt12rcd13ifvqce0","pricing_plan_id":"cebpf4jnsgd1na2vs0mg"},{"bike_id":"9244d9fe-8890-4efa-bf2a-6d9fc44453ad","system_id":"levelo_inurba_marseille","lat":43.26785,"lon":5.39377,"is_reserved":false,"is_disabled":true,"rental_uris":{"android":"levelo://app?vid=9244d9fe-8890-4efa-bf2a-6d9fc44453ad","ios":"levelo://app?vid=9244d9fe-8890-4efa-bf2a-6d9fc44453ad"},"vehicle_type_id":"4","last_reported":1732921713,"current_range_meters":0,"station_id":"ce4bhh12rcd13ifvqfg0","pricing_plan_id":"cebpf4jnsgd1na2vs0mg"},{"bike_id":"56dca86f-39a6-4fe5-9f93-d98cc93d017d","system_id":"levelo_inurba_marseille","lat":43.27838,"lon":5.39202,"is_reserved":false,"is_disabled":false,"rental_uris":{"android":"levelo://app?vid=56dca86f-39a6-4fe5-9f93-d98cc93d017d","ios":"levelo://app?vid=56dca86f-39a6-4fe5-9f93-d98cc93d017d"},"vehicle_type_id":"4","last_reported":1732921713,"current_range_meters":30000,"station_id":"ce4bhjp2rcd13ifvqga0","pricing_plan_id":"cebpf4jnsgd1na2vs0mg"},{"bike_id":"02c7b14f-bc20-4347-acc9-e876e711dd78","system_id":"levelo_inurba_marseille","lat":43.27311,"lon":5.39099,"is_reserved":false,"is_disabled":false,"rental_uris":{"android":"levelo://app?vid=02c7b14f-bc20-4347-acc9-e876e711dd78","ios":"levelo://app?vid=02c7b14f-bc20-4347-acc9-e876e711dd78"},"vehicle_type_id":"4","last_reported":1732921713,"current_range_meters":20400,"station_id":"ce4bhgp2rcd13ifvqfe0","pricing_plan_id":"cebpf4jnsgd1na2vs0mg"},{"bike_id":"fc4d15f5-6256-45a3-90d6-77bb4c676955","system_id":"levelo_inurba_marseille","lat":43.296284,"lon":5.377877,"is_reserved":false,"is_disabled":true,"rental_uris":{"android":"levelo://app?vid=fc4d15f5-6256-45a3-90d6-77bb4c676955","ios":"levelo://app?vid=fc4d15f5-6256-45a3-90d6-77bb4c676955"},"vehicle_type_id":"4","last_reported":1732921713,"current_range_meters":27200,"station_id":"","pricing_plan_id":"cebpf4jnsgd1na2vs0mg"},{"bike_id":"8a0291f2-ebd3-4755-be2d-09bbcc22d5e3","system_id":"levelo_inurba_marseille","lat":43.280817,"lon":5.396661,"is_reserved":false,"is_disabled":false,"rental_uris":{"android":"levelo://app?vid=8a0291f2-ebd3-4755-be2d-09bbcc22d5e3","ios":"levelo://app?vid=8a0291f2-ebd3-4755-be2d-09bbcc22d5e3"},"vehicle_type_id":"4","last_reported":1732921713,"current_range_meters":38800,"station_id":"ce4bho12rcd13ifvqh2g","pricing_plan_id":"cebpf4jnsgd1na2vs0mg"},{"bike_id":"c88f8730-1176-4717-97e2-17c27b15274f","system_id":"levelo_inurba_marseille","lat":43.23198,"lon":5.35544,"is_reserved":false,"is_disabled":false,"rental_uris":{"android":"levelo://app?vid=c88f8730-1176-4717-97e2-17c27b15274f","ios":"levelo://app?vid=c88f8730-1176-4717-97e2-17c27b15274f"},"vehicle_type_id":"4","last_reported":1732921713,"current_range_meters":39200,"station_id":"ce4bhu92rcd13ifvqi70","pricing_plan_id":"cebpf4jnsgd1na2vs0mg"},{"bike_id":"22adf9ca-f0ed-4a9d-af87-01b0820100f8","system_id":"levelo_inurba_marseille","lat":43.27605,"lon":5.36124,"is_reserved":false,"is_disabled":false,"rental_uris":{"android":"levelo://app?vid=22adf9ca-f0ed-4a9d-af87-01b0820100f8","ios":"levelo://app?vid=22adf9ca-f0ed-4a9d-af87-01b0820100f8"},"vehicle_type_id":"4","last_reported":1732921713,"current_range_meters":28400,"station_id":"ce4bgj92rcd13ifvqbe0","pricing_plan_id":"cebpf4jnsgd1na2vs0mg"},{"bike_id":"d8bdcde7-e12a-4f21-a275-8a5ecb244744","system_id":"levelo_inurba_marseille","lat":43.31076,"lon":5.38337,"is_reserved":false,"is_disabled":true,"rental_uris":{"android":"levelo://app?vid=d8bdcde7-e12a-4f21-a275-8a5ecb244744","ios":"levelo://app?vid=d8bdcde7-e12a-4f21-a275-8a5ecb244744"},"vehicle_type_id":"4","last_reported":1732921713,"current_range_meters":24800,"station_id":"ce4bgv92rcd13ifvqcr0","pricing_plan_id":"cebpf4jnsgd1na2vs0mg"},{"bike_id":"a558d2dc-7753-4294-b5a7-d069a95b6319","system_id":"levelo_inurba_marseille","lat":43.29575,"lon":5.37508,"is_reserved":false,"is_disabled":false,"rental_uris":{"android":"levelo://app?vid=a558d2dc-7753-4294-b5a7-d069a95b6319","ios":"levelo://app?vid=a558d2dc-7753-4294-b5a7-d069a95b6319"},"vehicle_type_id":"4","last_reported":1732921713,"current_range_meters":6400,"station_id":"ce4bgh92rcd13ifvqb50","pricing_plan_id":"cebpf4jnsgd1na2vs0mg"},{"bike_id":"5547a441-9653-482c-905c-97a54076438b","system_id":"levelo_inurba_marseille","lat":43.32366,"lon":5.36766,"is_reserved":false,"is_disabled":false,"rental_uris":{"android":"levelo://app?vid=5547a441-9653-482c-905c-97a54076438b","ios":"levelo://app?vid=5547a441-9653-482c-905c-97a54076438b"},"vehicle_type_id":"4","last_reported":1732921713,"current_range_meters":18800,"station_id":"ce4bhsh2rcd13ifvqi2g","pricing_plan_id":"cebpf4jnsgd1na2vs0mg"},{"bike_id":"4744d8d4-874c-43b3-9198-08b98c9b2608","system_id":"levelo_inurba_marseille","lat":43.296373,"lon":5.405961,"is_reserved":false,"is_disabled":false,"rental_uris":{"android":"levelo://app?vid=4744d8d4-874c-43b3-9198-08b98c9b2608","ios":"levelo://app?vid=4744d8d4-874c-43b3-9198-08b98c9b2608"},"vehicle_type_id":"4","last_reported":1732921713,"current_range_meters":14800,"station_id":"ce4bh0h2rcd13ifvqd60","pricing_plan_id":"cebpf4jnsgd1na2vs0mg"},{"bike_id":"f2d8e49f-43ac-4363-8bc0-91b8fa5a310c","system_id":"levelo_inurba_marseille","lat":43.29889,"lon":5.37471,"is_reserved":false,"is_disabled":false,"rental_uris":{"android":"levelo://app?vid=f2d8e49f-43ac-4363-8bc0-91b8fa5a310c","ios":"levelo://app?vid=f2d8e49f-43ac-4363-8bc0-91b8fa5a310c"},