{"last_updated":1744866622,"ttl":60,"version":"2.2","data":{"bikes":[{"bike_id":"7da39aba-455e-4163-9c62-41262016c1a1","system_id":"levelo_inurba_marseille","lat":43.28344,"lon":5.38106,"is_reserved":false,"is_disabled":false,"rental_uris":{"android":"levelo://app?vid=7da39aba-455e-4163-9c62-41262016c1a1","ios":"levelo://app?vid=7da39aba-455e-4163-9c62-41262016c1a1"},"vehicle_type_id":"4","last_reported":1744866622,"current_range_meters":3200,"station_id":"ce4bh412rcd13ifvqdr0","pricing_plan_id":"cebpf4jnsgd1na2vs0mg"},{"bike_id":"829f3683-c287-4d6f-92bc-edf58824bda1","system_id":"levelo_inurba_marseille","lat":43.28562,"lon":5.395,"is_reserved":false,"is_disabled":false,"rental_uris":{"android":"levelo://app?vid=829f3683-c287-4d6f-92bc-edf58824bda1","ios":"levelo://app?vid=829f3683-c287-4d6f-92bc-edf58824bda1"},"vehicle_type_id":"4","last_reported":1744866622,"current_range_meters":3200,"station_id":"ce4bh292rcd13ifvqdg0","pricing_plan_id":"cebpf4jnsgd1na2vs0mg"},{"bike_id":"7451d429-24bf-47aa-a110-46ce1636f17f","system_id":"levelo_inurba_marseille","lat":43.30152,"lon":5.38077,"is_reserved":false,"is_disabled":false,"rental_uris":{"android":"levelo://app?vid=7451d429-24bf-47aa-a110-46ce1636f17f","ios":"levelo://app?vid=7451d429-24bf-47aa-a110-46ce1636f17f"},"vehicle_type_id":"4","last_reported":1744866622,"current_range_meters":4400,"station_id":"ce4bgjp2rcd13ifvqbh0","pricing_plan_id":"cebpf4jnsgd1na2vs0mg"},{"bike_id":"ea2b72b1-fb3d-493d-ab95-1557396ac249","system_id":"levelo_inurba_marseille","lat":43.28389,"lon":5.37526,"is_reserved":false,"is_disabled":true,"rental_uris":{"android":"levelo://app?vid=ea2b72b1-fb3d-493d-ab95-1557396ac249","ios":"levelo://app?vid=ea2b72b1-fb3d-493d-ab95-1557396ac249"},"vehicle_type_id":"4","last_reported":1744866622,"current_range_meters":4400,"station_id":"ce4bh412rcd13ifvqds0","pricing_plan_id":"cebpf4jnsgd1na2vs0mg"},{"bike_id":"1c1651e9-5063-477e-9001-42c212502c29","system_id":"levelo_inurba_marseille","lat":43.30204,"lon":5.39475,"is_reserved":false,"is_disabled":false,"rental_uris":{"android":"levelo://app?vid=1c1651e9-5063-477e-9001-42c212502c29","ios":"levelo://app?vid=1c1651e9-5063-477e-9001-42c212502c29"},"vehicle_type_id":"4","last_reported":1744866622,"current_range_meters":4400,"station_id":"ce4bh0p2rcd13ifvqd70","pricing_plan_id":"cebpf4jnsgd1na2vs0mg"},{"bike_id":"4be423fc-b49d-4203-8abc-985b45dfd65e","system_id":"levelo_inurba_marseille","lat":43.32918,"lon":5.43382,"is_reserved":false,"is_disabled":false,"rental_uris":{"android":"levelo://app?vid=4be423fc-b49d-4203-8abc-985b45dfd65e","ios":"levelo://app?vid=4be423fc-b49d-4203-8abc-985b45dfd65e"},"vehicle_type_id":"4","last_reported":1744866622,"current_range_meters":4800,"station_id":"","pricing_plan_id":"cebpf4jnsgd1na2vs0mg"},{"bike_id":"376f754b-7bba-4962-babe-b49b1468281c","system_id":"levelo_inurba_marseille","lat":43.309199,"lon":5.401535,"is_reserved":false,"is_disabled":true,"rental_uris":{"android":"levelo://app?vid=376f754b-7bba-4962-babe-b49b1468281c","ios":"levelo://app?vid=376f754b-7bba-4962-babe-b49b1468281c"},"vehicle_type_id":"4","last_reported":1744866622,"current_range_meters":5600,"station_id":"ce4bgvp2rcd13ifvqct0","pricing_plan_id":"cebpf4jnsgd1na2vs0mg"},{"bike_id":"4786349b-6fcd-48f5-a063-47028925e350","system_id":"levelo_inurba_marseille","lat":43.30881,"lon":5.39641,"is_reserved":false,"is_disabled":false,"rental_uris":{"android":"levelo://app?vid=4786349b-6fcd-48f5-a063-47028925e350","ios":"levelo://app?vid=4786349b-6fcd-48f5-a063-47028925e350"},"vehicle_type_id":"4","last_reported":1744866622,"current_range_meters":6000,"station_id":"ce4bh012rcd13ifvqcv0","pricing_plan_id":"cebpf4jnsgd1na2vs0mg"},{"bike_id":"18732393-3419-419f-948d-5449399ba16a","system_id":"levelo_inurba_marseille","lat":43.309627,"lon":5.390397,"is_reserved":false,"is_disabled":true,"rental_uris":{"android":"levelo://app?vid=18732393-3419-419f-948d-5449399ba16a","ios":"levelo://app?vid=18732393-3419-419f-948d-5449399ba16a"},"vehicle_type_id":"4","last_reported":1744866622,"current_range_meters":6000,"station_id":"ce4bgup2rcd13ifvqco0","pricing_plan_id":"cebpf4jnsgd1na2vs0mg"},{"bike_id":"27d65429-e235-4ad4-8e99-624219bf772a","system_id":"levelo_inurba_marseille","lat":43.30732,"lon":5.42447,"is_reserved":false,"is_disabled":false,"rental_uris":{"android":"levelo://app?vid=27d65429-e235-4ad4-8e99-624219bf772a","ios":"levelo://app?vid=27d65429-e235-4ad4-8e99-624219bf772a"},"vehicle_type_id":"4","last_reported":1744866622,"current_range_meters":6400,"station_id":"st_cvj6ca6bvosntc0bfgr0","pricing_plan_id":"cebpf4jnsgd1na2vs0mg"},{"bike_id":"2797dcdb-c4e1-48b2-82d6-5677d371fa39","system_id":"levelo_inurba_marseille","lat":43.24161,"lon":5.36409,"is_reserved":false,"is_disabled":false,"rental_uris":{"android":"levelo://app?vid=2797dcdb-c4e1-48b2-82d6-5677d371fa39","ios":"levelo://app?vid=2797dcdb-c4e1-48b2-82d6-5677d371fa39"},"vehicle_type_id":"4","last_reported":1744866622,"current_range_meters":6800,"station_id":"cpo36qri1sfpv3e86is0","pricing_plan_id":"cebpf4jnsgd1na2vs0mg"},{"bike_id":"0acf59b4-5717-44da-baf3-5ab1184645ae","system_id":"levelo_inurba_marseille","lat":43.30885,"lon":5.39634,"is_reserved":false,"is_disabled":false,"rental_uris":{"android":"levelo://app?vid=0acf59b4-5717-44da-baf3-5ab1184645ae","ios":"levelo://app?vid=0acf59b4-5717-44da-baf3-5ab1184645ae"},"vehicle_type_id":"4","last_reported":1744866622,"current_range_meters":6800,"station_id":"ce4bh012rcd13ifvqcv0","pricing_plan_id":"cebpf4jnsgd1na2vs0mg"},{"bike_id":"b69156c9-6a49-4ab5-9612-623049b026dd","system_id":"levelo_inurba_marseille","lat":43.2658,"lon":5.37275,"is_reserved":false,"is_disabled":false,"rental_uris":{"android":"levelo://app?vid=b69156c9-6a49-4ab5-9612-623049b026dd","ios":"levelo://app?vid=b69156c9-6a49-4ab5-9612-623049b026dd"},"vehicle_type_id":"4","last_reported":1744866622,"current_range_meters":6800,"station_id":"ce4bhg12rcd13ifvqf70","pricing_plan_id":"cebpf4jnsgd1na2vs0mg"},{"bike_id":"51875e50-7830-42ab-87b5-bc339625ae5c","system_id":"levelo_inurba_marseille","lat":43.23963,"lon":5.36636,"is_reserved":false,"is_disabled":false,"rental_uris":{"android":"levelo://app?vid=51875e50-7830-42ab-87b5-bc339625ae5c","ios":"levelo://app?vid=51875e50-7830-42ab-87b5-bc339625ae5c"},"vehicle_type_id":"4","last_reported":1744866622,"current_range_meters":7200,"station_id":"ce4bhi12rcd13ifvqfp0","pricing_plan_id":"cebpf4jnsgd1na2vs0mg"},{"bike_id":"47443ab8-6b57-4dfe-a926-b857d8c4a944","system_id":"levelo_inurba_marseille","lat":43.27216,"lon":5.39163,"is_reserved":false,"is_disabled":true,"rental_uris":{"android":"levelo://app?vid=47443ab8-6b57-4dfe-a926-b857d8c4a944","ios":"levelo://app?vid=47443ab8-6b57-4dfe-a926-b857d8c4a944"},"vehicle_type_id":"4","last_reported":1744866622,"current_range_meters":7200,"station_id":"ce4bhhp2rcd13ifvqfm0","pricing_plan_id":"cebpf4jnsgd1na2vs0mg"},{"bike_id":"037340dc-b5cc-40ba-9538-accf19cff578","system_id":"levelo_inurba_marseille","lat":43.30138,"lon":5.37415,"is_reserved":false,"is_disabled":false,"rental_uris":{"android":"levelo://app?vid=037340dc-b5cc-40ba-9538-accf19cff578","ios":"levelo://app?vid=037340dc-b5cc-40ba-9538-accf19cff578"},"vehicle_type_id":"4","last_reported":1744866622,"current_range_meters":7200,"station_id":"ce4bgs92rcd13ifvqcc0","pricing_plan_id":"cebpf4jnsgd1na2vs0mg"},{"bike_id":"eca7dcad-8489-4164-84a3-1781088dd692","system_id":"levelo_inurba_marseille","lat":43.31331,"lon":5.39698,"is_reserved":false,"is_disabled":true,"rental_uris":{"android":"levelo://app?vid=eca7dcad-8489-4164-84a3-1781088dd692","ios":"levelo://app?vid=eca7dcad-8489-4164-84a3-1781088dd692"},"vehicle_type_id":"4","last_reported":1744866622,"current_range_meters":8000,"station_id":"ce4bgvp2rcd13ifvqcu0","pricing_plan_id":"cebpf4jnsgd1na2vs0mg"},{"bike_id":"2c5537f8-0da6-4d33-8c3c-80c8d36d0e28","system_id":"levelo_inurba_marseille","lat":43.26532,"lon":5.39043,"is_reserved":false,"is_disabled":true,"rental_uris":{"android":"levelo://app?vid=2c5537f8-0da6-4d33-8c3c-80c8d36d0e28","ios":"levelo://app?vid=2c5537f8-0da6-4d33-8c3c-80c8d36d0e28"},"vehicle_type_id":"4","last_reported":1744866622,"current_range_meters":8000,"station_id":"ce4bhe12rcd13ifvqf30","pricing_plan_id":"cebpf4jnsgd1na2vs0mg"},{"bike_id":"eeec4aa3-87e9-4496-be2e-938ceb91cf85","system_id":"levelo_inurba_marseille","lat":43.29312,"lon":5.37205,"is_reserved":false,"is_disabled":true,"rental_uris":{"android":"levelo://app?vid=eeec4aa3-87e9-4496-be2e-938ceb91cf85","ios":"levelo://app?vid=eeec4aa3-87e9-4496-be2e-938ceb91cf85"},"vehicle_type_id":"4","last_reported":1744866622,"current_range_meters":8400,"station_id":"ce4bgh92rcd13ifvqb40","pricing_plan_id":"cebpf4jnsgd1na2vs0mg"},{"bike_id":"92507ece-8be0-4443-8607-001f8b10c295","system_id":"levelo_inurba_marseille","lat":43.3131,"lon":5.36729,"is_reserved":false,"is_disabled":false,"rental_uris":{"android":"levelo://app?vid=92507ece-8be0-4443-8607-001f8b10c295","ios":"levelo://app?vid=92507ece-8be0-4443-8607-001f8b10c295"},"vehicle_type_id":"4","last_reported":1744866622,"current_range_meters":8400,"station_id":"ce4bgr92rcd13ifvqc6g","pricing_plan_id":"cebpf4jnsgd1na2vs0mg"},{"bike_id":"a23e2ddc-a10f-405f-9291-e215f2b934ed","system_id":"levelo_inurba_marseille","lat":43.28459,"lon":5.3588,"is_reserved":false,"is_disabled":false,"rental_uris":{"android":"levelo://app?vid=a23e2ddc-a10f-405f-9291-e215f2b934ed","ios":"levelo://app?vid=a23e2ddc-a10f-405f-9291-e215f2b934ed"},"vehicle_type_id":"4","last_reported":1744866622,"current_range_meters":8400,"station_id":"ce4bhah2rcd13ifvqei0","pricing_plan_id":"cebpf4jnsgd1na2vs0mg"},{"bike_id":"13212ea6-c79f-428f-bf88-2ce269adcaff","system_id":"levelo_inurba_marseille","lat":43.248076,"lon":5.374594,"is_reserved":false,"is_disabled":false,"rental_uris":{"android":"levelo://app?vid=13212ea6-c79f-428f-bf88-2ce269adcaff","ios":"levelo://app?vid=13212ea6-c79f-428f-bf88-2ce269adcaff"},"vehicle_type_id":"4","last_reported":1744866622,"current_range_meters":8400,"station_id":"ce4bhgh2rcd13ifvqfb0","pricing_plan_id":"cebpf4jnsgd1na2vs0mg"},{"bike_id":"da61630c-eec5-4651-ac57-e218f2e64d2c","system_id":"levelo_inurba_marseille","lat":43.30882,"lon":5.37203,"is_reserved":false,"is_disabled":false,"rental_uris":{"android":"levelo://app?vid=da61630c-eec5-4651-ac57-e218f2e64d2c","ios":"levelo://app?vid=da61630c-eec5-4651-ac57-e218f2e64d2c"},"vehicle_type_id":"4","last_reported":1744866622,"current_range_meters":8400,"station_id":"ce4bguh2rcd13ifvqckg","pricing_plan_id":"cebpf4jnsgd1na2vs0mg"},{"bike_id":"f813d5ea-a9c6-48a7-be5d-f7b6ce5328e6","system_id":"levelo_inurba_marseille","lat":43.24575,"lon":5.38439,"is_reserved":false,"is_disabled":false,"rental_uris":{"android":"levelo://app?vid=f813d5ea-a9c6-48a7-be5d-f7b6ce5328e6","ios":"levelo://app?vid=f813d5ea-a9c6-48a7-be5d-f7b6ce5328e6"},"vehicle_type_id":"4","last_reported":1744866622,"current_range_meters":8800,"station_id":"","pricing_plan_id":"cebpf4jnsgd1na2vs0mg"},{"bike_id":"e8412f40-a8dc-44ee-bbc2-e01b1cf2ab9a","system_id":"levelo_inurba_marseille","lat":43.278373,"lon":5.391982,"is_reserved":false,"is_disabled":false,"rental_uris":{"android":"levelo://app?vid=e8412f40-a8dc-44ee-bbc2-e01b1cf2ab9a","ios":"levelo://app?vid=e8412f40-a8dc-44ee-bbc2-e01b1cf2ab9a"},"vehicle_type_id":"4","last_reported":1744866622,"current_range_meters":9200,"station_id":"ce4bhjp2rcd13ifvqga0","pricing_plan_id":"cebpf4jnsgd1na2vs0mg"},{"bike_id":"d53fe1cc-3291-498b-9ec6-5eb883cc5bab","system_id":"levelo_inurba_marseille","lat":43.24178,"lon":5.39732,"is_reserved":false,"is_disabled":false,"rental_uris":{"android":"levelo://app?vid=d53fe1cc-3291-498b-9ec6-5eb883cc5bab","ios":"levelo://app?vid=d53fe1cc-3291-498b-9ec6-5eb883cc5bab"},"vehicle_type_id":"4","last_reported":1744866622,"current_range_meters":9200,"station_id":"ce4bhn12rcd13ifvqgpg","pricing_plan_id":"cebpf4jnsgd1na2vs0mg"},{"bike_id":"478c28af-83c2-4fd5-b57f-f927fe52c007","system_id":"levelo_inurba_marseille","lat":43.23156,"lon":5.43719,"is_reserved":false,"is_disabled":false,"rental_uris":{"android":"levelo://app?vid=478c28af-83c2-4fd5-b57f-f927fe52c007","ios":"levelo://app?vid=478c28af-83c2-4fd5-b57f-f927fe52c007"},"vehicle_type_id":"4","last_reported":1744866622,"current_range_meters":9200,"station_id":"ce4bhmp2rcd13ifvqgog","pricing_plan_id":"cebpf4jnsgd1na2vs0mg"},{"bike_id":"dfc90e23-a51a-46c2-9aff-a5e54b4a553f","system_id":"levelo_inurba_marseille","lat":43.26218,"lon":5.40448,"is_reserved":false,"is_disabled":false,"rental_uris":{"android":"levelo://app?vid=dfc90e23-a51a-46c2-9aff-a5e54b4a553f","ios":"levelo://app?vid=dfc90e23-a51a-46c2-9aff-a5e54b4a553f"},"vehicle_type_id":"4","last_reported":1744866622,"current_range_meters":9200,"station_id":"ce4bhmh2rcd13ifvqgmg","pricing_plan_id":"cebpf4jnsgd1na2vs0mg"},{"bike_id":"0103594d-4358-4e60-8632-345d6991152f","system_id":"levelo_inurba_marseille","lat":43.30142,"lon":5.38092,"is_reserved":false,"is_disabled":false,"rental_uris":{"android":"levelo://app?vid=0103594d-4358-4e60-8632-345d6991152f","ios":"levelo://app?vid=0103594d-4358-4e60-8632-345d6991152f"},"vehicle_type_id":"4","last_reported":1744866622,"current_range_meters":9200,"station_id":"ce4bgjp2rcd13ifvqbh0","pricing_plan_id":"cebpf4jnsgd1na2vs0mg"},{"bike_id":"7b38cb55-9c5f-4bca-a540-bfab855e7385","system_id":"levelo_inurba_marseille","lat":43.23959,"lon":5.3664,"is_reserved":false,"is_disabled":false,"rental_uris":{"android":"levelo://app?vid=7b38cb55-9c5f-4bca-a540-bfab855e7385","ios":"levelo://app?vid=7b38cb55-9c5f-4bca-a540-bfab855e7385"},"vehicle_type_id":"4","last_reported":1744866622,"current_range_meters":9200,"station_id":"ce4bhi12rcd13ifvqfp0","pricing_plan_id":"cebpf4jnsgd1na2vs0mg"},{"bike_id":"aafece41-771c-4727-9330-23c42c863e6d","system_id":"levelo_inurba_marseille","lat":43.28629,"lon":5.35097,"is_reserved":false,"is_disabled":false,"rental_uris":{"android":"levelo://app?vid=aafece41-771c-4727-9330-23c42c863e6d","ios":"levelo://app?vid=aafece41-771c-4727-9330-23c42c863e6d"},"vehicle_type_id":"4","last_reported":1744866622,"current_range_meters":9600,"station_id":"ce4bhch2rcd13ifvqeug","pricing_plan_id":"cebpf4jnsgd1na2vs0mg"},{"bike_id":"0998d744-59f4-4175-b47d-ccc9d45ff44d","system_id":"levelo_inurba_marseille","lat":43.3095,"lon":5.40189,"is_reserved":false,"is_disabled":false,"rental_uris":{"android":"levelo://app?vid=0998d744-59f4-4175-b47d-ccc9d45ff44d","ios":"levelo://app?vid=0998d744-59f4-4175-b47d-ccc9d45ff44d"},"vehicle_type_id":"4","last_reported":1744866622,"current_range_meters":9600,"station_id":"ce4bgvp2rcd13ifvqct0","pricing_plan_id":"cebpf4jnsgd1na2vs0mg"},{"bike_id":"84b58d90-bb57-4bdb-8485-62b6e661a441","system_id":"levelo_inurba_marseille","lat":43.24169,"lon":5.39745,"is_reserved":false,"is_disabled":false,"rental_uris":{"android":"levelo://app?vid=84b58d90-bb57-4bdb-8485-62b6e661a441","ios":"levelo://app?vid=84b58d90-bb57-4bdb-8485-62b6e661a441"},"vehicle_type_id":"4","last_reported":1744866622,"current_range_meters":9600,"station_id":"ce4bhn12rcd13ifvqgpg","pricing_plan_id":"cebpf4jnsgd1na2vs0mg"},{"bike_id":"d039d2b4-40e8-4f5c-af2b-a64b88326650","system_id":"levelo_inurba_marseille","lat":43.25927,"lon":5.40888,"is_reserved":false,"is_disabled":false,"rental_uris":{"android":"levelo://app?vid=d039d2b4-40e8-4f5c-af2b-a64b88326650","ios":"levelo://app?vid=d039d2b4-40e8-4f5c-af2b-a64b88326650"},"vehicle_type_id":"4","last_reported":1744866622,"current_range_meters":9600,"station_id":"ce4bhm92rcd13ifvqglg","pricing_plan_id":"cebpf4jnsgd1na2vs0mg"},{"bike_id":"257cd67d-848f-46ff-a9b4-b9d60cab96e4","system_id":"levelo_inurba_marseille","lat":43.29811,"lon":5.39353,"is_reserved":false,"is_disabled":false,"rental_uris":{"android":"levelo://app?vid=257cd67d-848f-46ff-a9b4-b9d60cab96e4","ios":"levelo://app?vid=257cd67d-848f-46ff-a9b4-b9d60cab96e4"},"vehicle_type_id":"4","last_reported":1744866622,"current_range_meters":9600,"station_id":"chh1huq6cuj3fo74tm60","pricing_plan_id":"cebpf4jnsgd1na2vs0mg"},{"bike_id":"2c032a6e-a514-4c75-ac58-67d0e95dcf42","system_id":"levelo_inurba_marseille","lat":43.28626,"lon":5.351148,"is_reserved":false,"is_disabled":false,"rental_uris":{"android":"levelo://app?vid=2c032a6e-a514-4c75-ac58-67d0e95dcf42","ios":"levelo://app?vid=2c032a6e-a514-4c75-ac58-67d0e95dcf42"},"vehicle_type_id":"4","last_reported":1744866622,"current_range_meters":9600,"station_id":"ce4bhch2rcd13ifvqeug","pricing_plan_id":"cebpf4jnsgd1na2vs0mg"},{"bike_id":"ca4e1f9d-1ba6-4c9a-88af-8978a8ef4daa","system_id":"levelo_inurba_marseille","lat":43.3089,"lon":5.39644,"is_reserved":false,"is_disabled":false,"rental_uris":{"android":"levelo://app?vid=ca4e1f9d-1ba6-4c9a-88af-8978a8ef4daa","ios":"levelo://app?vid=ca4e1f9d-1ba6-4c9a-88af-8978a8ef4daa"},"vehicle_type_id":"4","last_reported":1744866622,"current_range_meters":9600,"station_id":"ce4bh012rcd13ifvqcv0","pricing_plan_id":"cebpf4jnsgd1na2vs0mg"},{"bike_id":"14541b4c-c4ff-4f48-b140-23313b771198","system_id":"levelo_inurba_marseille","lat":43.278249,"lon":5.392088,"is_reserved":false,"is_disabled":false,"rental_uris":{"android":"levelo://app?vid=14541b4c-c4ff-4f48-b140-23313b771198","ios":"levelo://app?vid=14541b4c-c4ff-4f48-b140-23313b771198"},"vehicle_type_id":"4","last_reported":1744866622,"current_range_meters":9600,"station_id":"ce4bhjp2rcd13ifvqga0","pricing_plan_id":"cebpf4jnsgd1na2vs0mg"},{"bike_id":"693abb56-2440-4e46-a9de-d094d1b968f7","system_id":"levelo_inurba_marseille","lat":43.28447,"lon":5.35893,"is_reserved":false,"is_disabled":false,"rental_uris":{"android":"levelo://app?vid=693abb56-2440-4e46-a9de-d094d1b968f7","ios":"levelo://app?vid=693abb56-2440-4e46-a9de-d094d1b968f7"},"vehicle_type_id":"4","last_reported":1744866622,"current_range_meters":9600,"station_id":"ce4bhah2rcd13ifvqei0","pricing_plan_id":"cebpf4jnsgd1na2vs0mg"},{"bike_id":"57758a02-2e61-4253-8d62-3d1aa1b54ab1","system_id":"levelo_inurba_marseille","lat":43.25562,"lon":5.38237,"is_reserved":false,"is_disabled":false,"rental_uris":{"android":"levelo://app?vid=57758a02-2e61-4253-8d62-3d1aa1b54ab1","ios":"levelo://app?vid=57758a02-2e61-4253-8d62-3d1aa1b54ab1"},"vehicle_type_id":"4","last_reported":1744866622,"current_range_meters":10000,"station_id":"ce4bhih2rcd13ifvqfs0","pricing_plan_id":"cebpf4jnsgd1na2vs0mg"},{"bike_id":"834ec9e1-9d50-4bee-85ae-d1db335c55e5","system_id":"levelo_inurba_marseille","lat":43.31808,"lon":5.36811,"is_reserved":false,"is_disabled":false,"rental_uris":{"android":"levelo://app?vid=834ec9e1-9d50-4bee-85ae-d1db335c55e5","ios":"levelo://app?vid=834ec9e1-9d50-4bee-85ae-d1db335c55e5"},"vehicle_type_id":"4","last_reported":1744866622,"current_range_meters":10000,"station_id":"","pricing_plan_id":"cebpf4jnsgd1na2vs0mg"},{"bike_id":"1bc1ffd9-ea68-4189-8b4c-99816b896b8c","system_id":"levelo_inurba_marseille","lat":43.305924,"lon":5.393544,"is_reserved":false,"is_disabled":false,"rental_uris":{"android":"levelo://app?vid=1bc1ffd9-ea68-4189-8b4c-99816b896b8c","ios":"levelo://app?vid=1bc1ffd9-ea68-4189-8b4c-99816b896b8c"},"vehicle_type_id":"4","last_reported":1744866622,"current_range_meters":10000,"station_id":"ce4bh0p2rcd13ifvqd80","pricing_plan_id":"cebpf4jnsgd1na2vs0mg"},{"bike_id":"93be371e-f079-4065-9c94-f1bd2172cfd1","system_id":"levelo_inurba_marseille","lat":43.28591,"lon":5.37025,"is_reserved":false,"is_disabled":false,"rental_uris":{"android":"levelo://app?vid=93be371e-f079-4065-9c94-f1bd2172cfd1","ios":"levelo://app?vid=93be371e-f079-4065-9c94-f1bd2172cfd1"},"vehicle_type_id":"4","last_reported":1744866622,"current_range_meters":10800,"station_id":"ce4bht12rcd13ifvqi60","pricing_plan_id":"cebpf4jnsgd1na2vs0mg"},{"bike_id":"613dd6ef-98e9-4602-95a8-908e8fddce9f","system_id":"levelo_inurba_marseille","lat":43.294089,"lon":5.397583,"is_reserved":false,"is_disabled":false,"rental_uris":{"android":"levelo://app?vid=613dd6ef-98e9-4602-95a8-908e8fddce9f","ios":"levelo://app?vid=613dd6ef-98e9-4602-95a8-908e8fddce9f"},"vehicle_type_id":"4","last_reported":1744866622,"current_range_meters":10800,"station_id":"ce4bh3h2rcd13ifvqdo0","pricing_plan_id":"cebpf4jnsgd1na2vs0mg"},{"bike_id":"9002d50e-d6d6-46d0-9f04-b56806ecb3e7","system_id":"levelo_inurba_marseille","lat":43.28598,"lon":5.37061,"is_reserved":false,"is_disabled":false,"rental_uris":{"android":"levelo://app?vid=9002d50e-d6d6-46d0-9f04-b56806ecb3e7","ios":"levelo://app?vid=9002d50e-d6d6-46d0-9f04-b56806ecb3e7"},"vehicle_type_id":"4","last_reported":1744866622,"current_range_meters":10800,"station_id":"ce4bht12rcd13ifvqi60","pricing_plan_id":"cebpf4jnsgd1na2vs0mg"},{"bike_id":"cff7e17d-4349-4ec1-aff9-05067a138474","system_id":"levelo_inurba_marseille","lat":43.29162,"lon":5.39346,"is_reserved":false,"is_disabled":false,"rental_uris":{"android":"levelo://app?vid=cff7e17d-4349-4ec1-aff9-05067a138474","ios":"levelo://app?vid=cff7e17d-4349-4ec1-aff9-05067a138474"},"vehicle_type_id":"4","last_reported":1744866622,"current_range_meters":10800,"station_id":"","pricing_plan_id":"cebpf4jnsgd1na2vs0mg"},{"bike_id":"76332156-cb3a-4e22-af8d-bb13db9ead2e","system_id":"levelo_inurba_marseille","lat":43.30329,"lon":5.40436,"is_reserved":false,"is_disabled":false,"rental_uris":{"android":"levelo://app?vid=76332156-cb3a-4e22-af8d-bb13db9ead2e","ios":"levelo://app?vid=76332156-cb3a-4e22-af8d-bb13db9ead2e"},"vehicle_type_id":"4","last_reported":1744866622,"current_range_meters":10800,"station_id":"ce4bh012rcd13ifvqd10","pricing_plan_id":"cebpf4jnsgd1na2vs0mg"},{"bike_id":"2e4df3f8-36a0-4aaa-a40e-25b01eb78413","system_id":"levelo_inurba_marseille","lat":43.31108,"lon":5.37786,"is_reserved":false,"is_disabled":false,"rental_uris":{"android":"levelo://app?vid=2e4df3f8-36a0-4aaa-a40e-25b01eb78413","ios":"levelo://app?vid=2e4df3f8-36a0-4aaa-a40e-25b01eb78413"},"vehicle_type_id":"4","last_reported":1744866622,"current_range_meters":10800,"station_id":"ce4bgt92rcd13ifvqcg0","pricing_plan_id":"cebpf4jnsgd1na2vs0mg"},{"bike_id":"75fe1ac9-0713-4597-92fb-c4b09207ec9e","system_id":"levelo_inurba_marseille","lat":43.292498,"lon":5.409106,"is_reserved":false,"is_disabled":false,"rental_uris":{"android":"levelo://app?vid=75fe1ac9-0713-4597-92fb-c4b09207ec9e","ios":"levelo://app?vid=75fe1ac9-0713-4597-92fb-c4b09207ec9e"},"vehicle_type_id":"4","last_reported":1744866622,"current_range_meters":10800,"station_id":"ce4bh192rcd13ifvqdc0","pricing_plan_id":"cebpf4jnsgd1na2vs0mg"},{"bike_id":"5eccede5-a092-4c79-861e-9ba408b79172","system_id":"levelo_inurba_marseille","lat":43.32098,"lon":5.36786,"is_reserved":false,"is_disabled":false,"rental_uris":{"android":"levelo://app?vid=5eccede5-a092-4c79-861e-9ba408b79172","ios":"levelo://app?vid=5eccede5-a092-4c79-861e-9ba408b79172"},"vehicle_type_id":"4","last_reported":1744866622,"current_range_meters":10800,"station_id":"ce4bhrh2rcd13ifvqhug","pricing_plan_id":"cebpf4jnsgd1na2vs0mg"},{"bike_id":"367f01cf-3209-4951-b89b-8264c8668817","system_id":"levelo_inurba_marseille","lat":43.306394,"lon":5.400667,"is_reserved":false,"is_disabled":false,"rental_uris":{"android":"levelo://app?vid=367f01cf-3209-4951-b89b-8264c8668817","ios":"levelo://app?vid=367f01cf-3209-4951-b89b-8264c8668817"},"vehicle_type_id":"4","last_reported":1744866622,"current_range_meters":10800,"station_id":"ce4bh112rcd13ifvqda0","pricing_plan_id":"cebpf4jnsgd1na2vs0mg"},{"bike_id":"736c7bdc-b98a-4581-a5dc-1bee5f63147b","system_id":"levelo_inurba_marseille","lat":43.30644,"lon":5.40074,"is_reserved":false,"is_disabled":false,"rental_uris":{"android":"levelo://app?vid=736c7bdc-b98a-4581-a5dc-1bee5f63147b","ios":"levelo://app?vid=736c7bdc-b98a-4581-a5dc-1bee5f63147b"},"vehicle_type_id":"4","last_reported":1744866622,"current_range_meters":11200,"station_id":"ce4bh112rcd13ifvqda0","pricing_plan_id":"cebpf4jnsgd1na2vs0mg"},{"bike_id":"9032f14c-fd09-4b52-bf50-b879d730ed1b","system_id":"levelo_inurba_marseille","lat":43.25718,"lon":5.41123,"is_reserved":false,"is_disabled":false,"rental_uris":{"android":"levelo://app?vid=9032f14c-fd09-4b52-bf50-b879d730ed1b","ios":"levelo://app?vid=9032f14c-fd09-4b52-bf50-b879d730ed1b"},"vehicle_type_id":"4","last_reported":1744866622,"current_range_meters":11600,"station_id":"ce4bhkp2rcd13ifvqgd0","pricing_plan_id":"cebpf4jnsgd1na2vs0mg"},{"bike_id":"1bdba7a7-a82e-4252-906c-80db6beb180e","system_id":"levelo_inurba_marseille","lat":43.248921,"lon":5.394054,"is_reserved":false,"is_disabled":false,"rental_uris":{"android":"levelo://app?vid=1bdba7a7-a82e-4252-906c-80db6beb180e","ios":"levelo://app?vid=1bdba7a7-a82e-4252-906c-80db6beb180e"},"vehicle_type_id":"4","last_reported":1744866622,"current_range_meters":11600,"station_id":"","pricing_plan_id":"cebpf4jnsgd1na2vs0mg"},{"bike_id":"94bb1c73-7a62-44c5-bbc9-515d6ff38615","system_id":"levelo_inurba_marseille","lat":43.2968,"lon":5.3729,"is_reserved":false,"is_disabled":false,"rental_uris":{"android":"levelo://app?vid=94bb1c73-7a62-44c5-bbc9-515d6ff38615","ios":"levelo://app?vid=94bb1c73-7a62-44c5-bbc9-515d6ff38615"},"vehicle_type_id":"4","last_reported":1744866622,"current_range_meters":11600,"station_id":"ce4bgk12rcd13ifvqbj0","pricing_plan_id":"cebpf4jnsgd1na2vs0mg"},{"bike_id":"96b3cd09-0bfe-4125-8dcf-c4bdc8601e42","system_id":"levelo_inurba_marseille","lat":43.311764,"lon":5.387111,"is_reserved":false,"is_disabled":false,"rental_uris":{"android":"levelo://app?vid=96b3cd09-0bfe-4125-8dcf-c4bdc8601e42","ios":"levelo://app?vid=96b3cd09-0bfe-4125-8dcf-c4bdc8601e42"},"vehicle_type_id":"4","last_reported":1744866622,"current_range_meters":11600,"station_id":"ce4bgv12rcd13ifvqcp0","pricing_plan_id":"cebpf4jnsgd1na2vs0mg"},{"bike_id":"6bf5a380-400e-4cd6-bc1e-356afac9ee45","system_id":"levelo_inurba_marseille","lat":43.241684,"lon":5.3639,"is_reserved":false,"is_disabled":false,"rental_uris":{"android":"levelo://app?vid=6bf5a380-400e-4cd6-bc1e-356afac9ee45","ios":"levelo://app?vid=6bf5a380-400e-4cd6-bc1e-356afac9ee45"},"vehicle_type_id":"4","last_reported":1744866622,"current_range_meters":11600,"station_id":"cpo36qri1sfpv3e86is0","pricing_plan_id":"cebpf4jnsgd1na2vs0mg"},{"bike_id":"88a0cb80-a51d-46bc-8228-c9a9fb028348","system_id":"levelo_inurba_marseille","lat":43.25638,"lon":5.42017,"is_reserved":false,"is_disabled":false,"rental_uris":{"android":"levelo://app?vid=88a0cb80-a51d-46bc-8228-c9a9fb028348","ios":"levelo://app?vid=88a0cb80-a51d-46bc-8228-c9a9fb028348"},"vehicle_type_id":"4","last_reported":1744866622,"current_range_meters":11600,"station_id":"","pricing_plan_id":"cebpf4jnsgd1na2vs0mg"},{"bike_id":"4b9b1e69-af86-4122-8d46-0d52505b1cab","system_id":"levelo_inurba_marseille","lat":43.274893,"lon":5.424656,"is_reserved":false,"is_disabled":false,"rental_uris":{"android":"levelo://app?vid=4b9b1e69-af86-4122-8d46-0d52505b1cab","ios":"levelo://app?vid=4b9b1e69-af86-4122-8d46-0d52505b1cab"},"vehicle_type_id":"4","last_reported":1744866622,"current_range_meters":11600,"station_id":"ce4bhn92rcd13ifvqgrg","pricing_plan_id":"cebpf4jnsgd1na2vs0mg"},{"bike_id":"7bb92bd6-336f-4157-96a4-14f4e43e3ba6","system_id":"levelo_inurba_marseille","lat":43.31059,"lon":5.38364,"is_reserved":false,"is_disabled":false,"rental_uris":{"android":"levelo://app?vid=7bb92bd6-336f-4157-96a4-14f4e43e3ba6","ios":"levelo://app?vid=7bb92bd6-336f-4157-96a4-14f4e43e3ba6"},"vehicle_type_id":"4","last_reported":1744866622,"current_range_meters":12000,"station_id":"ce4bgv92rcd13ifvqcr0","pricing_plan_id":"cebpf4jnsgd1na2vs0mg"},{"bike_id":"b37478c9-c9d1-4921-942f-50c7a856681e","system_id":"levelo_inurba_marseille","lat":43.270553,"lon":5.4027,"is_reserved":false,"is_disabled":true,"rental_uris":{"android":"levelo://app?vid=b37478c9-c9d1-4921-942f-50c7a856681e","ios":"levelo://app?vid=b37478c9-c9d1-4921-942f-50c7a856681e"},"vehicle_type_id":"4","last_reported":1744866622,"current_range_meters":12000,"station_id":"ce4bhk92rcd13ifvqgc0","pricing_plan_id":"cebpf4jnsgd1na2vs0mg"},{"bike_id":"4f3dfbf4-d1ae-44db-8110-b28c7d24107a","system_id":"levelo_inurba_marseille","lat":43.27056,"lon":5.4028,"is_reserved":false,"is_disabled":false,"rental_uris":{"android":"levelo://app?vid=4f3dfbf4-d1ae-44db-8110-b28c7d24107a","ios":"levelo://app?vid=4f3dfbf4-d1ae-44db-8110-b28c7d24107a"},"vehicle_type_id":"4","last_reported":1744866622,"current_range_meters":12400,"station_id":"ce4bhk92rcd13ifvqgc0","pricing_plan_id":"cebpf4jnsgd1na2vs0mg"},{"bike_id":"a5dcdcdd-bf90-4188-b000-5abff8fcd560","system_id":"levelo_inurba_marseille","lat":43.309303,"lon":5.401387,"is_reserved":false,"is_disabled":false,"rental_uris":{"android":"levelo://app?vid=a5dcdcdd-bf90-4188-b000-5abff8fcd560","ios":"levelo://app?vid=a5dcdcdd-bf90-4188-b000-5abff8fcd560"},"vehicle_type_id":"4","last_reported":1744866622,"current_range_meters":12400,"station_id":"ce4bgvp2rcd13ifvqct0","pricing_plan_id":"cebpf4jnsgd1na2vs0mg"},{"bike_id":"417e3a7a-0095-495e-9b83-1bc73bffd8f5","system_id":"levelo_inurba_marseille","lat":43.30884,"lon":5.39639,"is_reserved":false,"is_disabled":false,"rental_uris":{"android":"levelo://app?vid=417e3a7a-0095-495e-9b83-1bc73bffd8f5","ios":"levelo://app?vid=417e3a7a-0095-495e-9b83-1bc73bffd8f5"},"vehicle_type_id":"4","last_reported":1744866622,"current_range_meters":12400,"station_id":"ce4bh012rcd13ifvqcv0","pricing_plan_id":"cebpf4jnsgd1na2vs0mg"},{"bike_id":"6032e738-f012-4275-92a6-1c203e24e4cd","system_id":"levelo_inurba_marseille","lat":43.2989,"lon":5.43659,"is_reserved":false,"is_disabled":false,"rental_uris":{"android":"levelo://app?vid=6032e738-f012-4275-92a6-1c203e24e4cd","ios":"levelo://app?vid=6032e738-f012-4275-92a6-1c203e24e4cd"},"vehicle_type_id":"4","last_reported":1744866622,"current_range_meters":12400,"station_id":"ce4bhpp2rcd13ifvqhfg","pricing_plan_id":"cebpf4jnsgd1na2vs0mg"},{"bike_id":"6695fc0d-b7c2-4b76-9759-125a5558ce82","system_id":"levelo_inurba_marseille","lat":43.306541,"lon":5.400779,"is_reserved":false,"is_disabled":false,"rental_uris":{"android":"levelo://app?vid=6695fc0d-b7c2-4b76-9759-125a5558ce82","ios":"levelo://app?vid=6695fc0d-b7c2-4b76-9759-125a5558ce82"},"vehicle_type_id":"4","last_reported":1744866622,"current_range_meters":12400,"station_id":"ce4bh112rcd13ifvqda0","pricing_plan_id":"cebpf4jnsgd1na2vs0mg"},{"bike_id":"cc6df41d-0d43-4dd4-b96d-f11873d16209","system_id":"levelo_inurba_marseille","lat":43.3073,"lon":5.37744,"is_reserved":false,"is_disabled":false,"rental_uris":{"android":"levelo://app?vid=cc6df41d-0d43-4dd4-b96d-f11873d16209","ios":"levelo://app?vid=cc6df41d-0d43-4dd4-b96d-f11873d16209"},"vehicle_type_id":"4","last_reported":1744866622,"current_range_meters":12800,"station_id":"","pricing_plan_id":"cebpf4jnsgd1na2vs0mg"},{"bike_id":"78639c4a-dfa5-4f82-b777-6fd3b58b5770","system_id":"levelo_inurba_marseille","lat":43.281057,"lon":5.378586,"is_reserved":false,"is_disabled":false,"rental_uris":{"android":"levelo://app?vid=78639c4a-dfa5-4f82-b777-6fd3b58b5770","ios":"levelo://app?vid=78639c4a-dfa5-4f82-b777-6fd3b58b5770"},"vehicle_type_id":"4","last_reported":1744866622,"current_range_meters":12800,"station_id":"ce4bha12rcd13ifvqee0","pricing_plan_id":"cebpf4jnsgd1na2vs0mg"},{"bike_id":"35f3d1aa-7414-481f-a4b3-d31cb5ab7b8f","system_id":"levelo_inurba_marseille","lat":43.290286,"lon":5.386516,"is_reserved":false,"is_disabled":false,"rental_uris":{"android":"levelo://app?vid=35f3d1aa-7414-481f-a4b3-d31cb5ab7b8f","ios":"levelo://app?vid=35f3d1aa-7414-481f-a4b3-d31cb5ab7b8f"},"vehicle_type_id":"4","last_reported":1744866622,"current_range_meters":12800,"station_id":"ce4bh4p2rcd13ifvqe0g","pricing_plan_id":"cebpf4jnsgd1na2vs0mg"},{"bike_id":"57406be6-c0b4-4691-8abf-3f6842e4ec81","system_id":"levelo_inurba_marseille","lat":43.28447,"lon":5.39163,"is_reserved":false,"is_disabled":true,"rental_uris":{"android":"levelo://app?vid=57406be6-c0b4-4691-8abf-3f6842e4ec81","ios":"levelo://app?vid=57406be6-c0b4-4691-8abf-3f6842e4ec81"},"vehicle_type_id":"4","last_reported":1744866622,"current_range_meters":12800,"station_id":"ce4bhoh2rcd13ifvqh5g","pricing_plan_id":"cebpf4jnsgd1na2vs0mg"},{"bike_id":"79a5160e-6cfb-4c8c-b7ba-5bd7e9ed84e3","system_id":"levelo_inurba_marseille","lat":43.30415,"lon":5.39752,"is_reserved":false,"is_disabled":false,"rental_uris":{"android":"levelo://app?vid=79a5160e-6cfb-4c8c-b7ba-5bd7e9ed84e3","ios":"levelo://app?vid=79a5160e-6cfb-4c8c-b7ba-5bd7e9ed84e3"},"vehicle_type_id":"4","last_reported":1744866622,"current_range_meters":13600,"station_id":"ce4bh092rcd13ifvqd20","pricing_plan_id":"cebpf4jnsgd1na2vs0mg"},{"bike_id":"847a57e8-0129-4285-b6be-15d7d295a3b2","system_id":"levelo_inurba_marseille","lat":43.29875,"lon":5.39741,"is_reserved":false,"is_disabled":false,"rental_uris":{"android":"levelo://app?vid=847a57e8-0129-4285-b6be-15d7d295a3b2","ios":"levelo://app?vid=847a57e8-0129-4285-b6be-15d7d295a3b2"},"vehicle_type_id":"4","last_reported":1744866622,"current_range_meters":13600,"station_id":"ce4bh0h2rcd13ifvqd50","pricing_plan_id":"cebpf4jnsgd1na2vs0mg"},{"bike_id":"c03ca11e-6bb5-4273-b6a6-171b93fa0cf8","system_id":"levelo_inurba_marseille","lat":43.292606,"lon":5.38365,"is_reserved":false,"is_disabled":false,"rental_uris":{"android":"levelo://app?vid=c03ca11e-6bb5-4273-b6a6-171b93fa0cf8","ios":"levelo://app?vid=c03ca11e-6bb5-4273-b6a6-171b93fa0cf8"},"vehicle_type_id":"4","last_reported":1744866622,"current_range_meters":13600,"station_id":"ce4bh692rcd13ifvqea0","pricing_plan_id":"cebpf4jnsgd1na2vs0mg"},{"bike_id":"a8f0bc92-4e6b-4d62-92c1-696ba5138149","system_id":"levelo_inurba_marseille","lat":43.28601,"lon":5.37063,"is_reserved":false,"is_disabled":false,"rental_uris":{"android":"levelo://app?vid=a8f0bc92-4e6b-4d62-92c1-696ba5138149","ios":"levelo://app?vid=a8f0bc92-4e6b-4d62-92c1-696ba5138149"},"vehicle_type_id":"4","last_reported":1744866622,"current_range_meters":13600,"station_id":"ce4bht12rcd13ifvqi60","pricing_plan_id":"cebpf4jnsgd1na2vs0mg"},{"bike_id":"482d7f53-ba94-4319-bdfb-94ad5dc0e6c3","system_id":"levelo_inurba_marseille","lat":43.29566,"lon":5.39978,"is_reserved":false,"is_disabled":false,"rental_uris":{"android":"levelo://app?vid=482d7f53-ba94-4319-bdfb-94ad5dc0e6c3","ios":"levelo://app?vid=482d7f53-ba94-4319-bdfb-94ad5dc0e6c3"},"vehicle_type_id":"4","last_reported":1744866622,"current_range_meters":13600,"station_id":"ce4bh312rcd13ifvqdj0","pricing_plan_id":"cebpf4jnsgd1na2vs0mg"},{"bike_id":"18b90a41-6be6-4c74-a522-ce5bf216390f","system_id":"levelo_inurba_marseille","lat":43.294434,"lon":5.397473,"is_reserved":false,"is_disabled":false,"rental_uris":{"android":"levelo://app?vid=18b90a41-6be6-4c74-a522-ce5bf216390f","ios":"levelo://app?vid=18b90a41-6be6-4c74-a522-ce5bf216390f"},"vehicle_type_id":"4","last_reported":1744866622,"current_range_meters":14000,"station_id":"ce4bh3h2rcd13ifvqdo0","pricing_plan_id":"cebpf4jnsgd1na2vs0mg"},{"bike_id":"b3368a4b-172f-436c-89f1-5b68b3612fbc","system_id":"levelo_inurba_marseille","lat":43.29573,"lon":5.42273,"is_reserved":false,"is_disabled":false,"rental_uris":{"android":"levelo://app?vid=b3368a4b-172f-436c-89f1-5b68b3612fbc","ios":"levelo://app?vid=b3368a4b-172f-436c-89f1-5b68b3612fbc"},"vehicle_type_id":"4","last_reported":1744866622,"current_range_meters":14000,"station_id":"ce4bhph2rcd13ifvqhdg","pricing_plan_id":"cebpf4jnsgd1na2vs0mg"},{"bike_id":"35100e48-d85e-4592-93bf-b13bb8464f4f","system_id":"levelo_inurba_marseille","lat":43.27972,"lon":5.41671,"is_reserved":false,"is_disabled":false,"rental_uris":{"android":"levelo://app?vid=35100e48-d85e-4592-93bf-b13bb8464f4f","ios":"levelo://app?vid=35100e48-d85e-4592-93bf-b13bb8464f4f"},"vehicle_type_id":"4","last_reported":1744866622,"current_range_meters":14000,"station_id":"ce4bho12rcd13ifvqh1g","pricing_plan_id":"cebpf4jnsgd1na2vs0mg"},{"bike_id":"394181cf-d138-4b85-a28e-7228cf97ac19","system_id":"levelo_inurba_marseille","lat":43.319993,"lon":5.381574,"is_reserved":false,"is_disabled":false,"rental_uris":{"android":"levelo://app?vid=394181cf-d138-4b85-a28e-7228cf97ac19","ios":"levelo://app?vid=394181cf-d138-4b85-a28e-7228cf97ac19"},"vehicle_type_id":"4","last_reported":1744866622,"current_range_meters":14000,"station_id":"ce4bhr12rcd13ifvqhpg","pricing_plan_id":"cebpf4jnsgd1na2vs0mg"},{"bike_id":"35442b16-33d9-4b20-92cf-b6f6d3bd2f31","system_id":"levelo_inurba_marseille","lat":43.284534,"lon":5.358914,"is_reserved":false,"is_disabled":false,"rental_uris":{"android":"levelo://app?vid=35442b16-33d9-4b20-92cf-b6f6d3bd2f31","ios":"levelo://app?vid=35442b16-33d9-4b20-92cf-b6f6d3bd2f31"},"vehicle_type_id":"4","last_reported":1744866622,"current_range_meters":14000,"station_id":"ce4bhah2rcd13ifvqei0","pricing_plan_id":"cebpf4jnsgd1na2vs0mg"},{"bike_id":"affbfc6d-1bfb-4994-8cf8-08578e4cb41e","system_id":"levelo_inurba_marseille","lat":43.30457,"lon":5.37925,"is_reserved":false,"is_disabled":false,"rental_uris":{"android":"levelo://app?vid=affbfc6d-1bfb-4994-8cf8-08578e4cb41e","ios":"levelo://app?vid=affbfc6d-1bfb-4994-8cf8-08578e4cb41e"},"vehicle_type_id":"4","last_reported":1744866622,"current_range_meters":14000,"station_id":"ce4bgup2rcd13ifvqcn0","pricing_plan_id":"cebpf4jnsgd1na2vs0mg"},{"bike_id":"27ceca5f-cd6d-4256-96c8-0924d154f0b3","system_id":"levelo_inurba_marseille","lat":43.30279,"lon":5.39192,"is_reserved":false,"is_disabled":true,"rental_uris":{"android":"levelo://app?vid=27ceca5f-cd6d-4256-96c8-0924d154f0b3","ios":"levelo://app?vid=27ceca5f-cd6d-4256-96c8-0924d154f0b3"},"vehicle_type_id":"4","last_reported":1744866622,"current_range_meters":14000,"station_id":"ce4bgkh2rcd13ifvqbk0","pricing_plan_id":"cebpf4jnsgd1na2vs0mg"},{"bike_id":"aa1c9e01-5061-491c-b98f-93c201b50d31","system_id":"levelo_inurba_marseille","lat":43.2847,"lon":5.38529,"is_reserved":false,"is_disabled":false,"rental_uris":{"android":"levelo://app?vid=aa1c9e01-5061-491c-b98f-93c201b50d31","ios":"levelo://app?vid=aa1c9e01-5061-491c-b98f-93c201b50d31"},"vehicle_type_id":"4","last_reported":1744866622,"current_range_meters":14000,"station_id":"ce4bh8p2rcd13ifvqeb0","pricing_plan_id":"cebpf4jnsgd1na2vs0mg"},{"bike_id":"25ab8b29-4818-4ddd-a6b4-7aed30a57875","system_id":"levelo_inurba_marseille","lat":43.28716,"lon":5.39997,"is_reserved":false,"is_disabled":false,"rental_uris":{"android":"levelo://app?vid=25ab8b29-4818-4ddd-a6b4-7aed30a57875","ios":"levelo://app?vid=25ab8b29-4818-4ddd-a6b4-7aed30a57875"},"vehicle_type_id":"4","last_reported":1744866622,"current_range_meters":14000,"station_id":"ce4bho92rcd13ifvqh3g","pricing_plan_id":"cebpf4jnsgd1na2vs0mg"},{"bike_id":"03bf794e-97dd-4c67-ae28-5cd291d0b4c4","system_id":"levelo_inurba_marseille","lat":43.30165,"lon":5.38082,"is_reserved":false,"is_disabled":false,"rental_uris":{"android":"levelo://app?vid=03bf794e-97dd-4c67-ae28-5cd291d0b4c4","ios":"levelo://app?vid=03bf794e-97dd-4c67-ae28-5cd291d0b4c4"},"vehicle_type_id":"4","last_reported":1744866622,"current_range_meters":14000,"station_id":"ce4bgjp2rcd13ifvqbh0","pricing_plan_id":"cebpf4jnsgd1na2vs0mg"},{"bike_id":"ff935f1c-246d-4e07-a399-40ad7e059de5","system_id":"levelo_inurba_marseille","lat":43.25465,"lon":5.37648,"is_reserved":false,"is_disabled":true,"rental_uris":{"android":"levelo://app?vid=ff935f1c-246d-4e07-a399-40ad7e059de5","ios":"levelo://app?vid=ff935f1c-246d-4e07-a399-40ad7e059de5"},"vehicle_type_id":"4","last_reported":1744866622,"current_range_meters":14400,"station_id":"ce4bhh12rcd13ifvqff0","pricing_plan_id":"cebpf4jnsgd1na2vs0mg"},{"bike_id":"d9a74604-4e04-4138-8f3c-bfc766e9e048","system_id":"levelo_inurba_marseille","lat":43.25862,"lon":5.39909,"is_reserved":false,"is_disabled":false,"rental_uris":{"android":"levelo://app?vid=d9a74604-4e04-4138-8f3c-bfc766e9e048","ios":"levelo://app?vid=d9a74604-4e04-4138-8f3c-bfc766e9e048"},"vehicle_type_id":"4","last_reported":1744866622,"current_range_meters":14400,"station_id":"ce4bhl92rcd13ifvqghg","pricing_plan_id":"cebpf4jnsgd1na2vs0mg"},{"bike_id":"589b9cd2-ef76-4919-bd77-0d4ad38ccad7","system_id":"levelo_inurba_marseille","lat":43.28647,"lon":5.36386,"is_reserved":false,"is_disabled":false,"rental_uris":{"android":"levelo://app?vid=589b9cd2-ef76-4919-bd77-0d4ad38ccad7","ios":"levelo://app?vid=589b9cd2-ef76-4919-bd77-0d4ad38ccad7"},"vehicle_type_id":"4","last_reported":1744866622,"current_range_meters":14400,"station_id":"ce4bhah2rcd13ifvqej0","pricing_plan_id":"cebpf4jnsgd1na2vs0mg"},{"bike_id":"d1fdde39-ebdb-4782-90e4-7537b9e61b6c","system_id":"levelo_inurba_marseille","lat":43.301425,"lon":5.380577,"is_reserved":false,"is_disabled":false,"rental_uris":{"android":"levelo://app?vid=d1fdde39-ebdb-4782-90e4-7537b9e61b6c","ios":"levelo://app?vid=d1fdde39-ebdb-4782-90e4-7537b9e61b6c"},"vehicle_type_id":"4","last_reported":1744866622,"current_range_meters":14800,"station_id":"","pricing_plan_id":"cebpf4jnsgd1na2vs0mg"},{"bike_id":"baf04868-3ad9-4949-b39a-063b0d0c8334","system_id":"levelo_inurba_marseille","lat":43.309258,"lon":5.401399,"is_reserved":false,"is_disabled":false,"rental_uris":{"android":"levelo://app?vid=baf04868-3ad9-4949-b39a-063b0d0c8334","ios":"levelo://app?vid=baf04868-3ad9-4949-b39a-063b0d0c8334"},"vehicle_type_id":"4","last_reported":1744866622,"current_range_meters":14800,"station_id":"ce4bgvp2rcd13ifvqct0","pricing_plan_id":"cebpf4jnsgd1na2vs0mg"},{"bike_id":"fe552450-c0a0-482b-ad4d-745c7e3315b5","system_id":"levelo_inurba_marseille","lat":43.23959,"lon":5.3664,"is_reserved":false,"is_disabled":false,"rental_uris":{"android":"levelo://app?vid=fe552450-c0a0-482b-ad4d-745c7e3315b5","ios":"levelo://app?vid=fe552450-c0a0-482b-ad4d-745c7e3315b5"},"vehicle_type_id":"4","last_reported":1744866622,"current_range_meters":15200,"station_id":"ce4bhi12rcd13ifvqfp0","pricing_plan_id":"cebpf4jnsgd1na2vs0mg"},{"bike_id":"da0699e6-fffb-42fd-bda2-fa249cfedfd8","system_id":"levelo_inurba_marseille","lat":43.31493,"lon":5.37304,"is_reserved":false,"is_disabled":false,"rental_uris":{"android":"levelo://app?vid=da0699e6-fffb-42fd-bda2-fa249cfedfd8","ios":"levelo://app?vid=da0699e6-fffb-42fd-bda2-fa249cfedfd8"},"vehicle_type_id":"4","last_reported":1744866622,"current_range_meters":15200,"station_id":"ce4bgt12rcd13ifvqcd0","pricing_plan_id":"cebpf4jnsgd1na2vs0mg"},{"bike_id":"0b7b9afc-b2db-43f5-aeb8-7a1248a5408e","system_id":"levelo_inurba_marseille","lat":43.31273,"lon":5.37753,"is_reserved":false,"is_disabled":false,"rental_uris":{"android":"levelo://app?vid=0b7b9afc-b2db-43f5-aeb8-7a1248a5408e","ios":"levelo://app?vid=0b7b9afc-b2db-43f5-aeb8-7a1248a5408e"},"vehicle_type_id":"4","last_reported":1744866622,"current_range_meters":15200,"station_id":"","pricing_plan_id":"cebpf4jnsgd1na2vs0mg"},{"bike_id":"f62e35d5-c38c-4e77-8e15-a67529f3fb9f","system_id":"levelo_inurba_marseille","lat":43.31501,"lon":5.37244,"is_reserved":false,"is_disabled":false,"rental_uris":{"android":"levelo://app?vid=f62e35d5-c38c-4e77-8e15-a67529f3fb9f","ios":"levelo://app?vid=f62e35d5-c38c-4e77-8e15-a67529f3fb9f"},"vehicle_type_id":"4","last_reported":1744866622,"current_range_meters":15200,"station_id":"ce4bgt12rcd13ifvqcd0","pricing_plan_id":"cebpf4jnsgd1na2vs0mg"},{"bike_id":"b1b6f0cf-07d7-4e24-a173-a13c0f8515d9","system_id":"levelo_inurba_marseille","lat":43.28148,"lon":5.4263,"is_reserved":false,"is_disabled":false,"rental_uris":{"android":"levelo://app?vid=b1b6f0cf-07d7-4e24-a173-a13c0f8515d9","ios":"levelo://app?vid=b1b6f0cf-07d7-4e24-a173-a13c0f8515d9"},"vehicle_type_id":"4","last_reported":1744866622,"current_range_meters":16000,"station_id":"ce4bhnh2rcd13ifvqgug","pricing_plan_id":"cebpf4jnsgd1na2vs0mg"},{"bike_id":"0e7f3c1c-5749-4ea0-8c4b-38be5bb50b3a","system_id":"levelo_inurba_marseille","lat":43.30632,"lon":5.40094,"is_reserved":false,"is_disabled":false,"rental_uris":{"android":"levelo://app?vid=0e7f3c1c-5749-4ea0-8c4b-38be5bb50b3a","ios":"levelo://app?vid=0e7f3c1c-5749-4ea0-8c4b-38be5bb50b3a"},"vehicle_type_id":"4","last_reported":1744866622,"current_range_meters":16000,"station_id":"ce4bh112rcd13ifvqda0","pricing_plan_id":"cebpf4jnsgd1na2vs0mg"},{"bike_id":"ec8c9ac7-1e95-4171-97f3-226ce1e3c951","system_id":"levelo_inurba_marseille","lat":43.321126,"lon":5.367717,"is_reserved":false,"is_disabled":false,"rental_uris":{"android":"levelo://app?vid=ec8c9ac7-1e95-4171-97f3-226ce1e3c951","ios":"levelo://app?vid=ec8c9ac7-1e95-4171-97f3-226ce1e3c951"},"vehicle_type_id":"4","last_reported":1744866622,"current_range_meters":16000,"station_id":"ce4bhrh2rcd13ifvqhug","pricing_plan_id":"cebpf4jnsgd1na2vs0mg"},{"bike_id":"15d893b5-c05d-42c2-8fcb-c5f33968f5f5","system_id":"levelo_inurba_marseille","lat":43.28716,"lon":5.3997,"is_reserved":false,"is_disabled":false,"rental_uris":{"android":"levelo://app?vid=15d893b5-c05d-42c2-8fcb-c5f33968f5f5","ios":"levelo://app?vid=15d893b5-c05d-42c2-8fcb-c5f33968f5f5"},"vehicle_type_id":"4","last_reported":1744866622,"current_range_meters":16000,"station_id":"ce4bho92rcd13ifvqh3g","pricing_plan_id":"cebpf4jnsgd1na2vs0mg"},{"bike_id":"b86b724e-376e-45a4-a88f-c409bfcfa380","system_id":"levelo_inurba_marseille","lat":43.30886,"lon":5.39645,"is_reserved":false,"is_disabled":false,"rental_uris":{"android":"levelo://app?vid=b86b724e-376e-45a4-a88f-c409bfcfa380","ios":"levelo://app?vid=b86b724e-376e-45a4-a88f-c409bfcfa380"},"vehicle_type_id":"4","last_reported":1744866622,"current_range_meters":16000,"station_id":"ce4bh012rcd13ifvqcv0","pricing_plan_id":"cebpf4jnsgd1na2vs0mg"},{"bike_id":"f9294aff-5b6f-4d62-9db7-b7bdca4ffaf5","system_id":"levelo_inurba_marseille","lat":43.325403,"lon":5.414319,"is_reserved":false,"is_disabled":false,"rental_uris":{"android":"levelo://app?vid=f9294aff-5b6f-4d62-9db7-b7bdca4ffaf5","ios":"levelo://app?vid=f9294aff-5b6f-4d62-9db7-b7bdca4ffaf5"},"vehicle_type_id":"4","last_reported":1744866622,"current_range_meters":16000,"station_id":"ce4bhq12rcd13ifvqhhg","pricing_plan_id":"cebpf4jnsgd1na2vs0mg"},{"bike_id":"2909136c-832d-48b6-ae24-8dbd950af2de","system_id":"levelo_inurba_marseille","lat":43.28399,"lon":5.37539,"is_reserved":false,"is_disabled":false,"rental_uris":{"android":"levelo://app?vid=2909136c-832d-48b6-ae24-8dbd950af2de","ios":"levelo://app?vid=2909136c-832d-48b6-ae24-8dbd950af2de"},"vehicle_type_id":"4","last_reported":1744866622,"current_range_meters":16000,"station_id":"ce4bh412rcd13ifvqds0","pricing_plan_id":"cebpf4jnsgd1na2vs0mg"},{"bike_id":"173d39b4-7a97-4693-9385-db8bda0fe199","system_id":"levelo_inurba_marseille","lat":43.21779,"lon":5.34573,"is_reserved":false,"is_disabled":false,"rental_uris":{"android":"levelo://app?vid=173d39b4-7a97-4693-9385-db8bda0fe199","ios":"levelo://app?vid=173d39b4-7a97-4693-9385-db8bda0fe199"},"vehicle_type_id":"4","last_reported":1744866622,"current_range_meters":16400,"station_id":"","pricing_plan_id":"cebpf4jnsgd1na2vs0mg"},{"bike_id":"f637015a-f468-4470-b7ec-72a0f3fb0055","system_id":"levelo_inurba_marseille","lat":43.30386,"lon":5.42485,"is_reserved":false,"is_disabled":false,"rental_uris":{"android":"levelo://app?vid=f637015a-f468-4470-b7ec-72a0f3fb0055","ios":"levelo://app?vid=f637015a-f468-4470-b7ec-72a0f3fb0055"},"vehicle_type_id":"4","last_reported":1744866622,"current_range_meters":16400,"station_id":"ce4bhoh2rcd13ifvqh6g","pricing_plan_id":"cebpf4jnsgd1na2vs0mg"},{"bike_id":"dc88ca14-385b-47d2-8f34-ba0ff66a2869","system_id":"levelo_inurba_marseille","lat":43.309291,"lon":5.378825,"is_reserved":false,"is_disabled":false,"rental_uris":{"android":"levelo://app?vid=dc88ca14-385b-47d2-8f34-ba0ff66a2869","ios":"levelo://app?vid=dc88ca14-385b-47d2-8f34-ba0ff66a2869"},"vehicle_type_id":"4","last_reported":1744866622,"current_range_meters":16400,"station_id":"","pricing_plan_id":"cebpf4jnsgd1na2vs0mg"},{"bike_id":"70826069-826f-4d0d-8a4a-da7925a0ef28","system_id":"levelo_inurba_marseille","lat":43.30903,"lon":5.368372,"is_reserved":false,"is_disabled":false,"rental_uris":{"android":"levelo://app?vid=70826069-826f-4d0d-8a4a-da7925a0ef28","ios":"levelo://app?vid=70826069-826f-4d0d-8a4a-da7925a0ef28"},"vehicle_type_id":"4","last_reported":1744866622,"current_range_meters":16400,"station_id":"ce4bgn92rcd13ifvqbvg","pricing_plan_id":"cebpf4jnsgd1na2vs0mg"},{"bike_id":"1d00456f-29c8-4f2b-94ca-209c3cd1138b","system_id":"levelo_inurba_marseille","lat":43.29447,"lon":5.39741,"is_reserved":false,"is_disabled":false,"rental_uris":{"android":"levelo://app?vid=1d00456f-29c8-4f2b-94ca-209c3cd1138b","ios":"levelo://app?vid=1d00456f-29c8-4f2b-94ca-209c3cd1138b"},"vehicle_type_id":"4","last_reported":1744866622,"current_range_meters":16800,"station_id":"ce4bh3h2rcd13ifvqdo0","pricing_plan_id":"cebpf4jnsgd1na2vs0mg"},{"bike_id":"0291b7a7-5f86-48ec-8437-eba04e7bafe8","system_id":"levelo_inurba_marseille","lat":43.32352,"lon":5.36748,"is_reserved":false,"is_disabled":false,"rental_uris":{"android":"levelo://app?vid=0291b7a7-5f86-48ec-8437-eba04e7bafe8","ios":"levelo://app?vid=0291b7a7-5f86-48ec-8437-eba04e7bafe8"},"vehicle_type_id":"4","last_reported":1744866622,"current_range_meters":16800,"station_id":"ce4bhsh2rcd13ifvqi2g","pricing_plan_id":"cebpf4jnsgd1na2vs0mg"},{"bike_id":"9d59bc2e-0088-4d63-8574-1d1e053761b2","system_id":"levelo_inurba_marseille","lat":43.33755,"lon":5.374689,"is_reserved":false,"is_disabled":false,"rental_uris":{"android":"levelo://app?vid=9d59bc2e-0088-4d63-8574-1d1e053761b2","ios":"levelo://app?vid=9d59bc2e-0088-4d63-8574-1d1e053761b2"},"vehicle_type_id":"4","last_reported":1744866622,"current_range_meters":16800,"station_id":"","pricing_plan_id":"cebpf4jnsgd1na2vs0mg"},{"bike_id":"87cde924-2a81-438b-a29c-971b9fe65d0b","system_id":"levelo_inurba_marseille","lat":43.28102,"lon":5.37877,"is_reserved":false,"is_disabled":false,"rental_uris":{"android":"levelo://app?vid=87cde924-2a81-438b-a29c-971b9fe65d0b","ios":"levelo://app?vid=87cde924-2a81-438b-a29c-971b9fe65d0b"},"vehicle_type_id":"4","last_reported":1744866622,"current_range_meters":16800,"station_id":"ce4bha12rcd13ifvqee0","pricing_plan_id":"cebpf4jnsgd1na2vs0mg"},{"bike_id":"d750596a-6ac6-4755-84cc-45acd4464f3d","system_id":"levelo_inurba_marseille","lat":43.24389,"lon":5.37066,"is_reserved":false,"is_disabled":false,"rental_uris":{"android":"levelo://app?vid=d750596a-6ac6-4755-84cc-45acd4464f3d","ios":"levelo://app?vid=d750596a-6ac6-4755-84cc-45acd4464f3d"},"vehicle_type_id":"4","last_reported":1744866622,"current_range_meters":17200,"station_id":"ce4bhhh2rcd13ifvqfk0","pricing_plan_id":"cebpf4jnsgd1na2vs0mg"},{"bike_id":"f9a1195c-30b5-4546-a321-06da59146535","system_id":"levelo_inurba_marseille","lat":43.30145,"lon":5.38071,"is_reserved":false,"is_disabled":false,"rental_uris":{"android":"levelo://app?vid=f9a1195c-30b5-4546-a321-06da59146535","ios":"levelo://app?vid=f9a1195c-30b5-4546-a321-06da59146535"},"vehicle_type_id":"4","last_reported":1744866622,"current_range_meters":17200,"station_id":"ce4bgjp2rcd13ifvqbh0","pricing_plan_id":"cebpf4jnsgd1na2vs0mg"},{"bike_id":"0f2f13a0-6a8d-44d3-bc7e-ecbee79e2e90","system_id":"levelo_inurba_marseille","lat":43.28678,"lon":5.36332,"is_reserved":false,"is_disabled":false,"rental_uris":{"android":"levelo://app?vid=0f2f13a0-6a8d-44d3-bc7e-ecbee79e2e90","ios":"levelo://app?vid=0f2f13a0-6a8d-44d3-bc7e-ecbee79e2e90"},"vehicle_type_id":"4","last_reported":1744866622,"current_range_meters":17200,"station_id":"ce4bhah2rcd13ifvqej0","pricing_plan_id":"cebpf4jnsgd1na2vs0mg"},{"bike_id":"0620d2fb-fed7-4ee2-913e-6d03123ff78c","system_id":"levelo_inurba_marseille","lat":43.22928,"lon":5.35405,"is_reserved":false,"is_disabled":false,"rental_uris":{"android":"levelo://app?vid=0620d2fb-fed7-4ee2-913e-6d03123ff78c","ios":"levelo://app?vid=0620d2fb-fed7-4ee2-913e-6d03123ff78c"},"vehicle_type_id":"4","last_reported":1744866622,"current_range_meters":17200,"station_id":"cpo3532slgdg3j2ikp40","pricing_plan_id":"cebpf4jnsgd1na2vs0mg"},{"bike_id":"7326dfef-2b8e-4219-96ec-b38956cbab1b","system_id":"levelo_inurba_marseille","lat":43.29806,"lon":5.40401,"is_reserved":false,"is_disabled":false,"rental_uris":{"android":"levelo://app?vid=7326dfef-2b8e-4219-96ec-b38956cbab1b","ios":"levelo://app?vid=7326dfef-2b8e-4219-96ec-b38956cbab1b"},"vehicle_type_id":"4","last_reported":1744866622,"current_range_meters":17200,"station_id":"ce4bh112rcd13ifvqd90","pricing_plan_id":"cebpf4jnsgd1na2vs0mg"},{"bike_id":"2b0b4af8-8b6f-489a-93f8-1b4ec9ffba4d","system_id":"levelo_inurba_marseille","lat":43.31134,"lon":5.37748,"is_reserved":false,"is_disabled":false,"rental_uris":{"android":"levelo://app?vid=2b0b4af8-8b6f-489a-93f8-1b4ec9ffba4d","ios":"levelo://app?vid=2b0b4af8-8b6f-489a-93f8-1b4ec9ffba4d"},"vehicle_type_id":"4","last_reported":1744866622,"current_range_meters":17200,"station_id":"ce4bgt92rcd13ifvqcg0","pricing_plan_id":"cebpf4jnsgd1na2vs0mg"},{"bike_id":"b652bdb7-a4d5-4927-bd0c-73ce3a2e3721","system_id":"levelo_inurba_marseille","lat":43.268145,"lon":5.402638,"is_reserved":false,"is_disabled":false,"rental_uris":{"android":"levelo://app?vid=b652bdb7-a4d5-4927-bd0c-73ce3a2e3721","ios":"levelo://app?vid=b652bdb7-a4d5-4927-bd0c-73ce3a2e3721"},"vehicle_type_id":"4","last_reported":1744866622,"current_range_meters":17200,"station_id":"ce501612rcd8frsf0b60","pricing_plan_id":"cebpf4jnsgd1na2vs0mg"},{"bike_id":"d67b9230-76ac-44c0-a11d-f5f9ea7f9459","system_id":"levelo_inurba_marseille","lat":43.26696,"lon":5.3824,"is_reserved":false,"is_disabled":false,"rental_uris":{"android":"levelo://app?vid=d67b9230-76ac-44c0-a11d-f5f9ea7f9459","ios":"levelo://app?vid=d67b9230-76ac-44c0-a11d-f5f9ea7f9459"},"vehicle_type_id":"4","last_reported":1744866622,"current_range_meters":17600,"station_id":"ce4bhg92rcd13ifvqf90","pricing_plan_id":"cebpf4jnsgd1na2vs0mg"},{"bike_id":"41fb0398-f2fe-4abb-ae37-a38f47615ea9","system_id":"levelo_inurba_marseille","lat":43.32338,"lon":5.36777,"is_reserved":false,"is_disabled":false,"rental_uris":{"android":"levelo://app?vid=41fb0398-f2fe-4abb-ae37-a38f47615ea9","ios":"levelo://app?vid=41fb0398-f2fe-4abb-ae37-a38f47615ea9"},"vehicle_type_id":"4","last_reported":1744866622,"current_range_meters":17600,"station_id":"ce4bhsh2rcd13ifvqi2g","pricing_plan_id":"cebpf4jnsgd1na2vs0mg"},{"bike_id":"5e1950f1-3570-4e07-a7cc-3dbf8a21d845","system_id":"levelo_inurba_marseille","lat":43.281512,"lon":5.426511,"is_reserved":false,"is_disabled":false,"rental_uris":{"android":"levelo://app?vid=5e1950f1-3570-4e07-a7cc-3dbf8a21d845","ios":"levelo://app?vid=5e1950f1-3570-4e07-a7cc-3dbf8a21d845"},"vehicle_type_id":"4","last_reported":1744866622,"current_range_meters":17600,"station_id":"ce4bhnh2rcd13ifvqgug","pricing_plan_id":"cebpf4jnsgd1na2vs0mg"},{"bike_id":"08f4dcee-7656-4957-9022-f13783bb2667","system_id":"levelo_inurba_marseille","lat":43.29693,"lon":5.37204,"is_reserved":false,"is_disabled":false,"rental_uris":{"android":"levelo://app?vid=08f4dcee-7656-4957-9022-f13783bb2667","ios":"levelo://app?vid=08f4dcee-7656-4957-9022-f13783bb2667"},"vehicle_type_id":"4","last_reported":1744866622,"current_range_meters":18000,"station_id":"","pricing_plan_id":"cebpf4jnsgd1na2vs0mg"},{"bike_id":"e34f3682-76dc-4df7-ae85-ddbd10f0a68b","system_id":"levelo_inurba_marseille","lat":43.302078,"lon":5.394785,"is_reserved":false,"is_disabled":false,"rental_uris":{"android":"levelo://app?vid=e34f3682-76dc-4df7-ae85-ddbd10f0a68b","ios":"levelo://app?vid=e34f3682-76dc-4df7-ae85-ddbd10f0a68b"},"vehicle_type_id":"4","last_reported":1744866622,"current_range_meters":18000,"station_id":"ce4bh0p2rcd13ifvqd70","pricing_plan_id":"cebpf4jnsgd1na2vs0mg"},{"bike_id":"46a5578a-729e-4c53-9f4e-14e153654f39","system_id":"levelo_inurba_marseille","lat":43.30786,"lon":5.38153,"is_reserved":false,"is_disabled":false,"rental_uris":{"android":"levelo://app?vid=46a5578a-729e-4c53-9f4e-14e153654f39","ios":"levelo://app?vid=46a5578a-729e-4c53-9f4e-14e153654f39"},"vehicle_type_id":"4","last_reported":1744866622,"current_range_meters":18000,"station_id":"ce4bgt12rcd13ifvqce0","pricing_plan_id":"cebpf4jnsgd1na2vs0mg"},{"bike_id":"a9a13b2f-e2de-4f40-968c-4382de62974d","system_id":"levelo_inurba_marseille","lat":43.27934,"lon":5.41047,"is_reserved":false,"is_disabled":false,"rental_uris":{"android":"levelo://app?vid=a9a13b2f-e2de-4f40-968c-4382de62974d","ios":"levelo://app?vid=a9a13b2f-e2de-4f40-968c-4382de62974d"},"vehicle_type_id":"4","last_reported":1744866622,"current_range_meters":18000,"station_id":"ce4bhnp2rcd13ifvqh0g","pricing_plan_id":"cebpf4jnsgd1na2vs0mg"},{"bike_id":"04fb422e-0aec-4205-8e11-f392462c55c3","system_id":"levelo_inurba_marseille","lat":43.26826,"lon":5.40246,"is_reserved":false,"is_disabled":false,"rental_uris":{"android":"levelo://app?vid=04fb422e-0aec-4205-8e11-f392462c55c3","ios":"levelo://app?vid=04fb422e-0aec-4205-8e11-f392462c55c3"},"vehicle_type_id":"4","last_reported":1744866622,"current_range_meters":18800,"station_id":"ce501612rcd8frsf0b60","pricing_plan_id":"cebpf4jnsgd1na2vs0mg"},{"bike_id":"d486101b-072f-470b-a885-f5f95c61cd86","system_id":"levelo_inurba_marseille","lat":43.31464,"lon":5.37278,"is_reserved":false,"is_disabled":false,"rental_uris":{"android":"levelo://app?vid=d486101b-072f-470b-a885-f5f95c61cd86","ios":"levelo://app?vid=d486101b-072f-470b-a885-f5f95c61cd86"},"vehicle_type_id":"4","last_reported":1744866622,"current_range_meters":18800,"station_id":"ce4bgt12rcd13ifvqcd0","pricing_plan_id":"cebpf4jnsgd1na2vs0mg"},{"bike_id":"d539324f-6b6b-4525-b920-ac614066a0d9","system_id":"levelo_inurba_marseille","lat":43.30881,"lon":5.3964,"is_reserved":false,"is_disabled":false,"rental_uris":{"android":"levelo://app?vid=d539324f-6b6b-4525-b920-ac614066a0d9","ios":"levelo://app?vid=d539324f-6b6b-4525-b920-ac614066a0d9"},"vehicle_type_id":"4","last_reported":1744866622,"current_range_meters":18800,"station_id":"ce4bh012rcd13ifvqcv0","pricing_plan_id":"cebpf4jnsgd1na2vs0mg"},{"bike_id":"31281794-86da-43f1-be4d-cec41a15e4cd","system_id":"levelo_inurba_marseille","lat":43.28113,"lon":5.37876,"is_reserved":false,"is_disabled":false,"rental_uris":{"android":"levelo://app?vid=31281794-86da-43f1-be4d-cec41a15e4cd","ios":"levelo://app?vid=31281794-86da-43f1-be4d-cec41a15e4cd"},"vehicle_type_id":"4","last_reported":1744866622,"current_range_meters":18800,"station_id":"ce4bha12rcd13ifvqee0","pricing_plan_id":"cebpf4jnsgd1na2vs0mg"},{"bike_id":"bbb1c662-cc65-4c72-8489-de78d2f0f12f","system_id":"levelo_inurba_marseille","lat":43.23059,"lon":5.35523,"is_reserved":false,"is_disabled":false,"rental_uris":{"android":"levelo://app?vid=bbb1c662-cc65-4c72-8489-de78d2f0f12f","ios":"levelo://app?vid=bbb1c662-cc65-4c72-8489-de78d2f0f12f"},"vehicle_type_id":"4","last_reported":1744866622,"current_range_meters":19200,"station_id":"cpo3342slgdg3j2ifvpg","pricing_plan_id":"cebpf4jnsgd1na2vs0mg"},{"bike_id":"653749e8-30e0-4c48-aa00-f9b072b9dd97","system_id":"levelo_inurba_marseille","lat":43.3087,"lon":5.39653,"is_reserved":false,"is_disabled":false,"rental_uris":{"android":"levelo://app?vid=653749e8-30e0-4c48-aa00-f9b072b9dd97","ios":"levelo://app?vid=653749e8-30e0-4c48-aa00-f9b072b9dd97"},"vehicle_type_id":"4","last_reported":1744866622,"current_range_meters":19200,"station_id":"ce4bh012rcd13ifvqcv0","pricing_plan_id":"cebpf4jnsgd1na2vs0mg"},{"bike_id":"4db06d98-ef3f-4322-bb1a-56487e040895","system_id":"levelo_inurba_marseille","lat":43.24175,"lon":5.39731,"is_reserved":false,"is_disabled":false,"rental_uris":{"android":"levelo://app?vid=4db06d98-ef3f-4322-bb1a-56487e040895","ios":"levelo://app?vid=4db06d98-ef3f-4322-bb1a-56487e040895"},"vehicle_type_id":"4","last_reported":1744866622,"current_range_meters":19200,"station_id":"ce4bhn12rcd13ifvqgpg","pricing_plan_id":"cebpf4jnsgd1na2vs0mg"},{"bike_id":"8934c9ff-b955-4903-b5d2-c595dc711b7c","system_id":"levelo_inurba_marseille","lat":43.295683,"lon":5.399634,"is_reserved":false,"is_disabled":true,"rental_uris":{"android":"levelo://app?vid=8934c9ff-b955-4903-b5d2-c595dc711b7c","ios":"levelo://app?vid=8934c9ff-b955-4903-b5d2-c595dc711b7c"},"vehicle_type_id":"4","last_reported":1744866622,"current_range_meters":19200,"station_id":"ce4bh312rcd13ifvqdj0","pricing_plan_id":"cebpf4jnsgd1na2vs0mg"},{"bike_id":"8fd2cdd0-07d7-4c01-add2-10309aca4136","system_id":"levelo_inurba_marseille","lat":43.267169,"lon":5.394645,"is_reserved":false,"is_disabled":true,"rental_uris":{"android":"levelo://app?vid=8fd2cdd0-07d7-4c01-add2-10309aca4136","ios":"levelo://app?vid=8fd2cdd0-07d7-4c01-add2-10309aca4136"},"vehicle_type_id":"4","last_reported":1744866622,"current_range_meters":19200,"station_id":"","pricing_plan_id":"cebpf4jnsgd1na2vs0mg"},{"bike_id":"c8622233-5825-4cce-ad31-9ac0f6854c02","system_id":"levelo_inurba_marseille","lat":43.288526,"lon":5.358523,"is_reserved":false,"is_disabled":false,"rental_uris":{"android":"levelo://app?vid=c8622233-5825-4cce-ad31-9ac0f6854c02","ios":"levelo://app?vid=c8622233-5825-4cce-ad31-9ac0f6854c02"},"vehicle_type_id":"4","last_reported":1744866622,"current_range_meters":19200,"station_id":"ce4bhb12rcd13ifvqem0","pricing_plan_id":"cebpf4jnsgd1na2vs0mg"},{"bike_id":"3eb8d19d-dc63-48a7-802c-6f59b7f4ce2f","system_id":"levelo_inurba_marseille","lat":43.26235,"lon":5.40426,"is_reserved":false,"is_disabled":false,"rental_uris":{"android":"levelo://app?vid=3eb8d19d-dc63-48a7-802c-6f59b7f4ce2f","ios":"levelo://app?vid=3eb8d19d-dc63-48a7-802c-6f59b7f4ce2f"},"vehicle_type_id":"4","last_reported":1744866622,"current_range_meters":19200,"station_id":"ce4bhmh2rcd13ifvqgmg","pricing_plan_id":"cebpf4jnsgd1na2vs0mg"},{"bike_id":"a0ddb0a5-f7f0-4281-aa27-9e82747cc573","system_id":"levelo_inurba_marseille","lat":43.33754,"lon":5.37491,"is_reserved":false,"is_disabled":false,"rental_uris":{"android":"levelo://app?vid=a0ddb0a5-f7f0-4281-aa27-9e82747cc573","ios":"levelo://app?vid=a0ddb0a5-f7f0-4281-aa27-9e82747cc573"},"vehicle_type_id":"4","last_reported":1744866622,"current_range_meters":19200,"station_id":"","pricing_plan_id":"cebpf4jnsgd1na2vs0mg"},{"bike_id":"9b32d9b0-b425-4d34-812f-0c610ee31565","system_id":"levelo_inurba_marseille","lat":43.30212,"lon":5.39471,"is_reserved":false,"is_disabled":true,"rental_uris":{"android":"levelo://app?vid=9b32d9b0-b425-4d34-812f-0c610ee31565","ios":"levelo://app?vid=9b32d9b0-b425-4d34-812f-0c610ee31565"},"vehicle_type_id":"4","last_reported":1744866622,"current_range_meters":19600,"station_id":"ce4bh0p2rcd13ifvqd70","pricing_plan_id":"cebpf4jnsgd1na2vs0mg"},{"bike_id":"7ed91d22-3d5b-4254-83bf-64eb2a7d5481","system_id":"levelo_inurba_marseille","lat":43.22501,"lon":5.34777,"is_reserved":false,"is_disabled":false,"rental_uris":{"android":"levelo://app?vid=7ed91d22-3d5b-4254-83bf-64eb2a7d5481","ios":"levelo://app?vid=7ed91d22-3d5b-4254-83bf-64eb2a7d5481"},"vehicle_type_id":"4","last_reported":1744866622,"current_range_meters":20800,"station_id":"","pricing_plan_id":"cebpf4jnsgd1na2vs0mg"},{"bike_id":"5376db3a-f912-4a95-826f-4197746248f5","system_id":"levelo_inurba_marseille","lat":43.30378,"lon":5.42481,"is_reserved":false,"is_disabled":false,"rental_uris":{"android":"levelo://app?vid=5376db3a-f912-4a95-826f-4197746248f5","ios":"levelo://app?vid=5376db3a-f912-4a95-826f-4197746248f5"},"vehicle_type_id":"4","last_reported":1744866622,"current_range_meters":19600,"station_id":"ce4bhoh2rcd13ifvqh6g","pricing_plan_id":"cebpf4jnsgd1na2vs0mg"},{"bike_id":"6b243537-03aa-4479-8d67-b93c6b8c5e47","system_id":"levelo_inurba_marseille","lat":43.29099,"lon":5.38126,"is_reserved":false,"is_disabled":false,"rental_uris":{"android":"levelo://app?vid=6b243537-03aa-4479-8d67-b93c6b8c5e47","ios":"levelo://app?vid=6b243537-03aa-4479-8d67-b93c6b8c5e47"},"vehicle_type_id":"4","last_reported":1744866622,"current_range_meters":19200,"station_id":"ce4bh512rcd13ifvqe2g","pricing_plan_id":"cebpf4jnsgd1na2vs0mg"},{"bike_id":"8fb8db65-2b1d-4ee2-a4a9-94f09782265d","system_id":"levelo_inurba_marseille","lat":43.29805,"lon":5.40404,"is_reserved":false,"is_disabled":false,"rental_uris":{"android":"levelo://app?vid=8fb8db65-2b1d-4ee2-a4a9-94f09782265d","ios":"levelo://app?vid=8fb8db65-2b1d-4ee2-a4a9-94f09782265d"},"vehicle_type_id":"4","last_reported":1744866622,"current_range_meters":19600,"station_id":"ce4bh112rcd13ifvqd90","pricing_plan_id":"cebpf4jnsgd1na2vs0mg"},{"bike_id":"02d21972-fec1-40b1-b30a-48e3b7202348","system_id":"levelo_inurba_marseille","lat":43.30905,"lon":5.39636,"is_reserved":false,"is_disabled":false,"rental_uris":{"android":"levelo://app?vid=02d21972-fec1-40b1-b30a-48e3b7202348","ios":"levelo://app?vid=02d21972-fec1-40b1-b30a-48e3b7202348"},"vehicle_type_id":"4","last_reported":1744866622,"current_range_meters":19600,"station_id":"ce4bh012rcd13ifvqcv0","pricing_plan_id":"cebpf4jnsgd1na2vs0mg"},{"bike_id":"0113ed11-7a29-404c-8c2e-46e6b3486f36","system_id":"levelo_inurba_marseille","lat":43.310747,"lon":5.383551,"is_reserved":false,"is_disabled":false,"rental_uris":{"android":"levelo://app?vid=0113ed11-7a29-404c-8c2e-46e6b3486f36","ios":"levelo://app?vid=0113ed11-7a29-404c-8c2e-46e6b3486f36"},"vehicle_type_id":"4","last_reported":1744866622,"current_range_meters":19600,"station_id":"ce4bgv92rcd13ifvqcr0","pricing_plan_id":"cebpf4jnsgd1na2vs0mg"},{"bike_id":"345f3b88-e34e-4d48-9f0c-6592661ae354","system_id":"levelo_inurba_marseille","lat":43.27944,"lon":5.41054,"is_reserved":false,"is_disabled":false,"rental_uris":{"android":"levelo://app?vid=345f3b88-e34e-4d48-9f0c-6592661ae354","ios":"levelo://app?vid=345f3b88-e34e-4d48-9f0c-6592661ae354"},"vehicle_type_id":"4","last_reported":1744866622,"current_range_meters":20000,"station_id":"ce4bhnp2rcd13ifvqh0g","pricing_plan_id":"cebpf4jnsgd1na2vs0mg"},{"bike_id":"d7676a18-4d03-4a89-8def-d9f87f68b92b","system_id":"levelo_inurba_marseille","lat":43.30878,"lon":5.39653,"is_reserved":false,"is_disabled":false,"rental_uris":{"android":"levelo://app?vid=d7676a18-4d03-4a89-8def-d9f87f68b92b","ios":"levelo://app?vid=d7676a18-4d03-4a89-8def-d9f87f68b92b"},"vehicle_type_id":"4","last_reported":1744866622,"current_range_meters":20000,"station_id":"ce4bh012rcd13ifvqcv0","pricing_plan_id":"cebpf4jnsgd1na2vs0mg"},{"bike_id":"2d9b72bb-af7d-431d-9cde-4a3fe902ebe7","system_id":"levelo_inurba_marseille","lat":43.31169,"lon":5.387065,"is_reserved":false,"is_disabled":false,"rental_uris":{"android":"levelo://app?vid=2d9b72bb-af7d-431d-9cde-4a3fe902ebe7","ios":"levelo://app?vid=2d9b72bb-af7d-431d-9cde-4a3fe902ebe7"},"vehicle_type_id":"4","last_reported":1744866622,"current_range_meters":20000,"station_id":"ce4bgv12rcd13ifvqcp0","pricing_plan_id":"cebpf4jnsgd1na2vs0mg"},{"bike_id":"84c48c85-9b00-408c-a761-1ac18b23fed5","system_id":"levelo_inurba_marseille","lat":43.24394,"lon":5.37104,"is_reserved":false,"is_disabled":false,"rental_uris":{"android":"levelo://app?vid=84c48c85-9b00-408c-a761-1ac18b23fed5","ios":"levelo://app?vid=84c48c85-9b00-408c-a761-1ac18b23fed5"},"vehicle_type_id":"4","last_reported":1744866622,"current_range_meters":20000,"station_id":"ce4bhhh2rcd13ifvqfk0","pricing_plan_id":"cebpf4jnsgd1na2vs0mg"},{"bike_id":"332d50ef-0349-465a-a3f8-a14d47a27c91","system_id":"levelo_inurba_marseille","lat":43.30516,"lon":5.3653,"is_reserved":false,"is_disabled":false,"rental_uris":{"android":"levelo://app?vid=332d50ef-0349-465a-a3f8-a14d47a27c91","ios":"levelo://app?vid=332d50ef-0349-465a-a3f8-a14d47a27c91"},"vehicle_type_id":"4","last_reported":1744866622,"current_range_meters":20000,"station_id":"ce4bgs12rcd13ifvqcag","pricing_plan_id":"cebpf4jnsgd1na2vs0mg"},{"bike_id":"bf719354-3a0f-4a08-a3dc-ea01891f96a8","system_id":"levelo_inurba_marseille","lat":43.2925,"lon":5.38439,"is_reserved":false,"is_disabled":true,"rental_uris":{"android":"levelo://app?vid=bf719354-3a0f-4a08-a3dc-ea01891f96a8","ios":"levelo://app?vid=bf719354-3a0f-4a08-a3dc-ea01891f96a8"},"vehicle_type_id":"4","last_reported":1744866622,"current_range_meters":20000,"station_id":"ce4bh692rcd13ifvqea0","pricing_plan_id":"cebpf4jnsgd1na2vs0mg"},{"bike_id":"7eb8853e-3665-40f5-8308-1299f0674652","system_id":"levelo_inurba_marseille","lat":43.30367,"lon":5.42494,"is_reserved":false,"is_disabled":false,"rental_uris":{"android":"levelo://app?vid=7eb8853e-3665-40f5-8308-1299f0674652","ios":"levelo://app?vid=7eb8853e-3665-40f5-8308-1299f0674652"},"vehicle_type_id":"4","last_reported":1744866622,"current_range_meters":20000,"station_id":"ce4bhoh2rcd13ifvqh6g","pricing_plan_id":"cebpf4jnsgd1na2vs0mg"},{"bike_id":"9d8e2c4d-6a59-45bd-a557-73dc6f3f9ccf","system_id":"levelo_inurba_marseille","lat":43.248,"lon":5.37459,"is_reserved":false,"is_disabled":false,"rental_uris":{"android":"levelo://app?vid=9d8e2c4d-6a59-45bd-a557-73dc6f3f9ccf","ios":"levelo://app?vid=9d8e2c4d-6a59-45bd-a557-73dc6f3f9ccf"},"vehicle_type_id":"4","last_reported":1744866622,"current_range_meters":20000,"station_id":"ce4bhgh2rcd13ifvqfb0","pricing_plan_id":"cebpf4jnsgd1na2vs0mg"},{"bike_id":"926d437c-ff30-43a8-befb-7e373c75d533","system_id":"levelo_inurba_marseille","lat":43.28466,"lon":5.35883,"is_reserved":false,"is_disabled":false,"rental_uris":{"android":"levelo://app?vid=926d437c-ff30-43a8-befb-7e373c75d533","ios":"levelo://app?vid=926d437c-ff30-43a8-befb-7e373c75d533"},"vehicle_type_id":"4","last_reported":1744866622,"current_range_meters":20400,"station_id":"ce4bhah2rcd13ifvqei0","pricing_plan_id":"cebpf4jnsgd1na2vs0mg"},{"bike_id":"b6a853ea-62bd-4f63-b6d7-7741490bc84e","system_id":"levelo_inurba_marseille","lat":43.30959,"lon":5.39035,"is_reserved":false,"is_disabled":false,"rental_uris":{"android":"levelo://app?vid=b6a853ea-62bd-4f63-b6d7-7741490bc84e","ios":"levelo://app?vid=b6a853ea-62bd-4f63-b6d7-7741490bc84e"},"vehicle_type_id":"4","last_reported":1744866622,"current_range_meters":20400,"station_id":"ce4bgup2rcd13ifvqco0","pricing_plan_id":"cebpf4jnsgd1na2vs0mg"},{"bike_id":"e1ac574f-f09f-4066-84f0-29335a400ef5","system_id":"levelo_inurba_marseille","lat":43.27916,"lon":5.39569,"is_reserved":false,"is_disabled":false,"rental_uris":{"android":"levelo://app?vid=e1ac574f-f09f-4066-84f0-29335a400ef5","ios":"levelo://app?vid=e1ac574f-f09f-4066-84f0-29335a400ef5"},"vehicle_type_id":"4","last_reported":1744866622,"current_range_meters":20400,"station_id":"ce4bhf92rcd13ifvqf40","pricing_plan_id":"cebpf4jnsgd1na2vs0mg"},{"bike_id":"789c3822-56ca-4769-bcd4-8845bdea2fda","system_id":"levelo_inurba_marseille","lat":43.24165,"lon":5.36393,"is_reserved":false,"is_disabled":false,"rental_uris":{"android":"levelo://app?vid=789c3822-56ca-4769-bcd4-8845bdea2fda","ios":"levelo://app?vid=789c3822-56ca-4769-bcd4-8845bdea2fda"},"vehicle_type_id":"4","last_reported":1744866622,"current_range_meters":20400,"station_id":"cpo36qri1sfpv3e86is0","pricing_plan_id":"cebpf4jnsgd1na2vs0mg"},{"bike_id":"ef6e9c6f-8f69-4fcf-9727-b556a001e5bc","system_id":"levelo_inurba_marseille","lat":43.29548,"lon":5.42276,"is_reserved":false,"is_disabled":false,"rental_uris":{"android":"levelo://app?vid=ef6e9c6f-8f69-4fcf-9727-b556a001e5bc","ios":"levelo://app?vid=ef6e9c6f-8f69-4fcf-9727-b556a001e5bc"},"vehicle_type_id":"4","last_reported":1744866622,"current_range_meters":20400,"station_id":"ce4bhph2rcd13ifvqhdg","pricing_plan_id":"cebpf4jnsgd1na2vs0mg"},{"bike_id":"e87617ae-6b99-40b9-85b1-d3c6923a68ac","system_id":"levelo_inurba_marseille","lat":43.30325,"lon":5.40456,"is_reserved":false,"is_disabled":false,"rental_uris":{"android":"levelo://app?vid=e87617ae-6b99-40b9-85b1-d3c6923a68ac","ios":"levelo://app?vid=e87617ae-6b99-40b9-85b1-d3c6923a68ac"},"vehicle_type_id":"4","last_reported":1744866622,"current_range_meters":20400,"station_id":"ce4bh012rcd13ifvqd10","pricing_plan_id":"cebpf4jnsgd1na2vs0mg"},{"bike_id":"33efbe4e-e642-4271-be29-4926b421ca5b","system_id":"levelo_inurba_marseille","lat":43.24171,"lon":5.36418,"is_reserved":false,"is_disabled":false,"rental_uris":{"android":"levelo://app?vid=33efbe4e-e642-4271-be29-4926b421ca5b","ios":"levelo://app?vid=33efbe4e-e642-4271-be29-4926b421ca5b"},"vehicle_type_id":"4","last_reported":1744866622,"current_range_meters":20400,"station_id":"cpo36qri1sfpv3e86is0","pricing_plan_id":"cebpf4jnsgd1na2vs0mg"},{"bike_id":"21f826db-5070-49f5-892f-84f485b6e13f","system_id":"levelo_inurba_marseille","lat":43.30562,"lon":5.39393,"is_reserved":false,"is_disabled":false,"rental_uris":{"android":"levelo://app?vid=21f826db-5070-49f5-892f-84f485b6e13f","ios":"levelo://app?vid=21f826db-5070-49f5-892f-84f485b6e13f"},"vehicle_type_id":"4","last_reported":1744866622,"current_range_meters":20400,"station_id":"ce4bh0p2rcd13ifvqd80","pricing_plan_id":"cebpf4jnsgd1na2vs0mg"},{"bike_id":"cc250298-de78-48ca-910c-a354646c94bb","system_id":"levelo_inurba_marseille","lat":43.319971,"lon":5.381494,"is_reserved":false,"is_disabled":false,"rental_uris":{"android":"levelo://app?vid=cc250298-de78-48ca-910c-a354646c94bb","ios":"levelo://app?vid=cc250298-de78-48ca-910c-a354646c94bb"},"vehicle_type_id":"4","last_reported":1744866622,"current_range_meters":20400,"station_id":"ce4bhr12rcd13ifvqhpg","pricing_plan_id":"cebpf4jnsgd1na2vs0mg"},{"bike_id":"421b8527-ab9a-4d48-8e78-647564edc005","system_id":"levelo_inurba_marseille","lat":43.28349,"lon":5.38105,"is_reserved":false,"is_disabled":false,"rental_uris":{"android":"levelo://app?vid=421b8527-ab9a-4d48-8e78-647564edc005","ios":"levelo://app?vid=421b8527-ab9a-4d48-8e78-647564edc005"},"vehicle_type_id":"4","last_reported":1744866622,"current_range_meters":20400,"station_id":"ce4bh412rcd13ifvqdr0","pricing_plan_id":"cebpf4jnsgd1na2vs0mg"},{"bike_id":"f682fad4-58d9-4a44-80a1-b3510c534418","system_id":"levelo_inurba_marseille","lat":43.29293,"lon":5.36808,"is_reserved":false,"is_disabled":true,"rental_uris":{"android":"levelo://app?vid=f682fad4-58d9-4a44-80a1-b3510c534418","ios":"levelo://app?vid=f682fad4-58d9-4a44-80a1-b3510c534418"},"vehicle_type_id":"4","last_reported":1744866622,"current_range_meters":20800,"station_id":"ce4bhbp2rcd13ifvqesg","pricing_plan_id":"cebpf4jnsgd1na2vs0mg"},{"bike_id":"68342d9f-f0b6-47e7-b690-b27078e67a77","system_id":"levelo_inurba_marseille","lat":43.241746,"lon":5.363878,"is_reserved":false,"is_disabled":false,"rental_uris":{"android":"levelo://app?vid=68342d9f-f0b6-47e7-b690-b27078e67a77","ios":"levelo://app?vid=68342d9f-f0b6-47e7-b690-b27078e67a77"},"vehicle_type_id":"4","last_reported":1744866622,"current_range_meters":20800,"station_id":"cpo36qri1sfpv3e86is0","pricing_plan_id":"cebpf4jnsgd1na2vs0mg"},{"bike_id":"88ff5eb1-99b3-4756-8b5e-280ffad10818","system_id":"levelo_inurba_marseille","lat":43.310707,"lon":5.383449,"is_reserved":false,"is_disabled":false,"rental_uris":{"android":"levelo://app?vid=88ff5eb1-99b3-4756-8b5e-280ffad10818","ios":"levelo://app?vid=88ff5eb1-99b3-4756-8b5e-280ffad10818"},"vehicle_type_id":"4","last_reported":1744866622,"current_range_meters":20800,"station_id":"ce4bgv92rcd13ifvqcr0","pricing_plan_id":"cebpf4jnsgd1na2vs0mg"},{"bike_id":"2a3df68e-728a-4b9c-bbc2-4259a4448e26","system_id":"levelo_inurba_marseille","lat":43.279888,"lon":5.400099,"is_reserved":false,"is_disabled":false,"rental_uris":{"android":"levelo://app?vid=2a3df68e-728a-4b9c-bbc2-4259a4448e26","ios":"levelo://app?vid=2a3df68e-728a-4b9c-bbc2-4259a4448e26"},"vehicle_type_id":"4","last_reported":1744866622,"current_range_meters":20800,"station_id":"ce4bho92rcd13ifvqh4g","pricing_plan_id":"cebpf4jnsgd1na2vs0mg"},{"bike_id":"bd3f7c87-2214-4add-a4a2-d3b9bb19b65d","system_id":"levelo_inurba_marseille","lat":43.31726,"lon":5.38828,"is_reserved":false,"is_disabled":false,"rental_uris":{"android":"levelo://app?vid=bd3f7c87-2214-4add-a4a2-d3b9bb19b65d","ios":"levelo://app?vid=bd3f7c87-2214-4add-a4a2-d3b9bb19b65d"},"vehicle_type_id":"4","last_reported":1744866622,"current_range_meters":20800,"station_id":"","pricing_plan_id":"cebpf4jnsgd1na2vs0mg"},{"bike_id":"3b15e86a-6b6f-4ec6-9418-eeb3ac36c10f","system_id":"levelo_inurba_marseille","lat":43.317466,"lon":5.388482,"is_reserved":false,"is_disabled":false,"rental_uris":{"android":"levelo://app?vid=3b15e86a-6b6f-4ec6-9418-eeb3ac36c10f","ios":"levelo://app?vid=3b15e86a-6b6f-4ec6-9418-eeb3ac36c10f"},"vehicle_type_id":"4","last_reported":1744866622,"current_range_meters":20800,"station_id":"","pricing_plan_id":"cebpf4jnsgd1na2vs0mg"},{"bike_id":"cc0feacd-d51b-44b3-a5a9-a04ccc7260ea","system_id":"levelo_inurba_marseille","lat":43.28972,"lon":5.37843,"is_reserved":false,"is_disabled":true,"rental_uris":{"android":"levelo://app?vid=cc0feacd-d51b-44b3-a5a9-a04ccc7260ea","ios":"levelo://app?vid=cc0feacd-d51b-44b3-a5a9-a04ccc7260ea"},"vehicle_type_id":"4","last_reported":1744866622,"current_range_meters":20800,"station_id":"ce4bh9p2rcd13ifvqed0","pricing_plan_id":"cebpf4jnsgd1na2vs0mg"},{"bike_id":"92194084-ec06-47a7-83e4-0f79cd022e22","system_id":"levelo_inurba_marseille","lat":43.312754,"lon":5.401678,"is_reserved":false,"is_disabled":false,"rental_uris":{"android":"levelo://app?vid=92194084-ec06-47a7-83e4-0f79cd022e22","ios":"levelo://app?vid=92194084-ec06-47a7-83e4-0f79cd022e22"},"vehicle_type_id":"4","last_reported":1744866622,"current_range_meters":21600,"station_id":"ce4bh092rcd13ifvqd30","pricing_plan_id":"cebpf4jnsgd1na2vs0mg"},{"bike_id":"3d14c271-2e99-49aa-81d5-0fef16e91490","system_id":"levelo_inurba_marseille","lat":43.28651,"lon":5.36392,"is_reserved":false,"is_disabled":false,"rental_uris":{"android":"levelo://app?vid=3d14c271-2e99-49aa-81d5-0fef16e91490","ios":"levelo://app?vid=3d14c271-2e99-49aa-81d5-0fef16e91490"},"vehicle_type_id":"4","last_reported":1744866622,"current_range_meters":21600,"station_id":"ce4bhah2rcd13ifvqej0","pricing_plan_id":"cebpf4jnsgd1na2vs0mg"},{"bike_id":"ce91a124-09ea-4ce6-b45e-165b6a5bcd52","system_id":"levelo_inurba_marseille","lat":43.290211,"lon":5.38142,"is_reserved":false,"is_disabled":true,"rental_uris":{"android":"levelo://app?vid=ce91a124-09ea-4ce6-b45e-165b6a5bcd52","ios":"levelo://app?vid=ce91a124-09ea-4ce6-b45e-165b6a5bcd52"},"vehicle_type_id":"4","last_reported":1744866622,"current_range_meters":21600,"station_id":"ce4bh4p2rcd13ifvqe1g","pricing_plan_id":"cebpf4jnsgd1na2vs0mg"},{"bike_id":"1368d3f2-4d3d-47e6-8287-e2deb25fcaf1","system_id":"levelo_inurba_marseille","lat":43.30142,"lon":5.38098,"is_reserved":false,"is_disabled":false,"rental_uris":{"android":"levelo://app?vid=1368d3f2-4d3d-47e6-8287-e2deb25fcaf1","ios":"levelo://app?vid=1368d3f2-4d3d-47e6-8287-e2deb25fcaf1"},"vehicle_type_id":"4","last_reported":1744866622,"current_range_meters":20400,"station_id":"ce4bgjp2rcd13ifvqbh0","pricing_plan_id":"cebpf4jnsgd1na2vs0mg"},{"bike_id":"49656461-bedc-4f0f-a69f-7ac8c555c02a","system_id":"levelo_inurba_marseille","lat":43.2439,"lon":5.37064,"is_reserved":false,"is_disabled":false,"rental_uris":{"android":"levelo://app?vid=49656461-bedc-4f0f-a69f-7ac8c555c02a","ios":"levelo://app?vid=49656461-bedc-4f0f-a69f-7ac8c555c02a"},"vehicle_type_id":"4","last_reported":1744866622,"current_range_meters":22000,"station_id":"ce4bhhh2rcd13ifvqfk0","pricing_plan_id":"cebpf4jnsgd1na2vs0mg"},{"bike_id":"f9d3fbe6-73e5-424e-af02-f446d5b07152","system_id":"levelo_inurba_marseille","lat":43.21734,"lon":5.34616,"is_reserved":false,"is_disabled":false,"rental_uris":{"android":"levelo://app?vid=f9d3fbe6-73e5-424e-af02-f446d5b07152","ios":"levelo://app?vid=f9d3fbe6-73e5-424e-af02-f446d5b07152"},"vehicle_type_id":"4","last_reported":1744866622,"current_range_meters":22000,"station_id":"st_cvj6r9ubvosntc0bgbag","pricing_plan_id":"cebpf4jnsgd1na2vs0mg"},{"bike_id":"d39e5537-c00a-4bf8-9f22-53966b448679","system_id":"levelo_inurba_marseille","lat":43.29565,"lon":5.4223,"is_reserved":false,"is_disabled":false,"rental_uris":{"android":"levelo://app?vid=d39e5537-c00a-4bf8-9f22-53966b448679","ios":"levelo://app?vid=d39e5537-c00a-4bf8-9f22-53966b448679"},"vehicle_type_id":"4","last_reported":1744866622,"current_range_meters":22400,"station_id":"","pricing_plan_id":"cebpf4jnsgd1na2vs0mg"},{"bike_id":"767ac8e2-0e80-4549-a954-7d5c8496a13a","system_id":"levelo_inurba_marseille","lat":43.30537,"lon":5.36557,"is_reserved":false,"is_disabled":false,"rental_uris":{"android":"levelo://app?vid=767ac8e2-0e80-4549-a954-7d5c8496a13a","ios":"levelo://app?vid=767ac8e2-0e80-4549-a954-7d5c8496a13a"},"vehicle_type_id":"4","last_reported":1744866622,"current_range_meters":22400,"station_id":"ce4bgs12rcd13ifvqcag","pricing_plan_id":"cebpf4jnsgd1na2vs0mg"},{"bike_id":"88bfa4d6-b033-456c-a8d9-b51526e39406","system_id":"levelo_inurba_marseille","lat":43.29902,"lon":5.43677,"is_reserved":false,"is_disabled":false,"rental_uris":{"android":"levelo://app?vid=88bfa4d6-b033-456c-a8d9-b51526e39406","ios":"levelo://app?vid=88bfa4d6-b033-456c-a8d9-b51526e39406"},"vehicle_type_id":"4","last_reported":1744866622,"current_range_meters":22400,"station_id":"ce4bhpp2rcd13ifvqhfg","pricing_plan_id":"cebpf4jnsgd1na2vs0mg"},{"bike_id":"b78c0bd1-53dd-4742-990a-bc8a9c98f9a4","system_id":"levelo_inurba_marseille","lat":43.31368,"lon":5.36699,"is_reserved":false,"is_disabled":false,"rental_uris":{"android":"levelo://app?vid=b78c0bd1-53dd-4742-990a-bc8a9c98f9a4","ios":"levelo://app?vid=b78c0bd1-53dd-4742-990a-bc8a9c98f9a4"},"vehicle_type_id":"4","last_reported":1744866622,"current_range_meters":22400,"station_id":"ce4bgr92rcd13ifvqc6g","pricing_plan_id":"cebpf4jnsgd1na2vs0mg"},{"bike_id":"f49b23d8-f4bc-47a8-96e7-11a27acaa310","system_id":"levelo_inurba_marseille","lat":43.28674,"lon":5.40031,"is_reserved":false,"is_disabled":false,"rental_uris":{"android":"levelo://app?vid=f49b23d8-f4bc-47a8-96e7-11a27acaa310","ios":"levelo://app?vid=f49b23d8-f4bc-47a8-96e7-11a27acaa310"},"vehicle_type_id":"4","last_reported":1744866622,"current_range_meters":22400,"station_id":"ce4bho92rcd13ifvqh3g","pricing_plan_id":"cebpf4jnsgd1na2vs0mg"},{"bike_id":"c305c827-8b59-4e6c-91de-4d8a3fcbcac2","system_id":"levelo_inurba_marseille","lat":43.241632,"lon":5.363908,"is_reserved":false,"is_disabled":false,"rental_uris":{"android":"levelo://app?vid=c305c827-8b59-4e6c-91de-4d8a3fcbcac2","ios":"levelo://app?vid=c305c827-8b59-4e6c-91de-4d8a3fcbcac2"},"vehicle_type_id":"4","last_reported":1744866622,"current_range_meters":22400,"station_id":"cpo36qri1sfpv3e86is0","pricing_plan_id":"cebpf4jnsgd1na2vs0mg"},{"bike_id":"7e2b1f25-9563-49f7-8e92-8965f8392c33","system_id":"levelo_inurba_marseille","lat":43.33025,"lon":5.39008,"is_reserved":false,"is_disabled":false,"rental_uris":{"android":"levelo://app?vid=7e2b1f25-9563-49f7-8e92-8965f8392c33","ios":"levelo://app?vid=7e2b1f25-9563-49f7-8e92-8965f8392c33"},"vehicle_type_id":"4","last_reported":1744866622,"current_range_meters":22800,"station_id":"","pricing_plan_id":"cebpf4jnsgd1na2vs0mg"},{"bike_id":"5fda126a-22f8-41ba-814e-a3e97f7a3c4e","system_id":"levelo_inurba_marseille","lat":43.286567,"lon":5.363529,"is_reserved":false,"is_disabled":false,"rental_uris":{"android":"levelo://app?vid=5fda126a-22f8-41ba-814e-a3e97f7a3c4e","ios":"levelo://app?vid=5fda126a-22f8-41ba-814e-a3e97f7a3c4e"},"vehicle_type_id":"4","last_reported":1744866622,"current_range_meters":22800,"station_id":"ce4bhah2rcd13ifvqej0","pricing_plan_id":"cebpf4jnsgd1na2vs0mg"},{"bike_id":"0f4056ac-eb73-4412-997d-5d670d6a2981","system_id":"levelo_inurba_marseille","lat":43.28331,"lon":5.38118,"is_reserved":false,"is_disabled":false,"rental_uris":{"android":"levelo://app?vid=0f4056ac-eb73-4412-997d-5d670d6a2981","ios":"levelo://app?vid=0f4056ac-eb73-4412-997d-5d670d6a2981"},"vehicle_type_id":"4","last_reported":1744866622,"current_range_meters":22800,"station_id":"ce4bh412rcd13ifvqdr0","pricing_plan_id":"cebpf4jnsgd1na2vs0mg"},{"bike_id":"04cd718a-739b-4f09-8fdf-74e445452766","system_id":"levelo_inurba_marseille","lat":43.31527,"lon":5.37276,"is_reserved":false,"is_disabled":false,"rental_uris":{"android":"levelo://app?vid=04cd718a-739b-4f09-8fdf-74e445452766","ios":"levelo://app?vid=04cd718a-739b-4f09-8fdf-74e445452766"},"vehicle_type_id":"4","last_reported":1744866622,"current_range_meters":22800,"station_id":"","pricing_plan_id":"cebpf4jnsgd1na2vs0mg"},{"bike_id":"4cf9816a-d3d2-47a3-b1bd-70998bd96aff","system_id":"levelo_inurba_marseille","lat":43.29442,"lon":5.3974,"is_reserved":false,"is_disabled":false,"rental_uris":{"android":"levelo://app?vid=4cf9816a-d3d2-47a3-b1bd-70998bd96aff","ios":"levelo://app?vid=4cf9816a-d3d2-47a3-b1bd-70998bd96aff"},"vehicle_type_id":"4","last_reported":1744866622,"current_range_meters":22800,"station_id":"ce4bh3h2rcd13ifvqdo0","pricing_plan_id":"cebpf4jnsgd1na2vs0mg"},{"bike_id":"04b0cb39-9229-4c02-890e-562e273ff746","system_id":"levelo_inurba_marseille","lat":43.297839,"lon":5.381189,"is_reserved":false,"is_disabled":true,"rental_uris":{"android":"levelo://app?vid=04b0cb39-9229-4c02-890e-562e273ff746","ios":"levelo://app?vid=04b0cb39-9229-4c02-890e-562e273ff746"},"vehicle_type_id":"4","last_reported":1744866622,"current_range_meters":22800,"station_id":"ce4bgip2rcd13ifvqbb0","pricing_plan_id":"cebpf4jnsgd1na2vs0mg"},{"bike_id":"8b9fb812-f558-47ea-bc7c-250a930fe748","system_id":"levelo_inurba_marseille","lat":43.288528,"lon":5.393064,"is_reserved":false,"is_disabled":false,"rental_uris":{"android":"levelo://app?vid=8b9fb812-f558-47ea-bc7c-250a930fe748","ios":"levelo://app?vid=8b9fb812-f558-47ea-bc7c-250a930fe748"},"vehicle_type_id":"4","last_reported":1744866622,"current_range_meters":22800,"station_id":"ce4bh2p2rcd13ifvqdi0","pricing_plan_id":"cebpf4jnsgd1na2vs0mg"},{"bike_id":"8c0be09f-1a08-4f03-adf3-9ab53d05b7e1","system_id":"levelo_inurba_marseille","lat":43.304129,"lon":5.412853,"is_reserved":false,"is_disabled":true,"rental_uris":{"android":"levelo://app?vid=8c0be09f-1a08-4f03-adf3-9ab53d05b7e1","ios":"levelo://app?vid=8c0be09f-1a08-4f03-adf3-9ab53d05b7e1"},"vehicle_type_id":"4","last_reported":1744866622,"current_range_meters":22800,"station_id":"ce4bhop2rcd13ifvqh8g","pricing_plan_id":"cebpf4jnsgd1na2vs0mg"},{"bike_id":"7bce0807-93f9-4e13-8b17-c78186d378c3","system_id":"levelo_inurba_marseille","lat":43.26232,"lon":5.40464,"is_reserved":false,"is_disabled":false,"rental_uris":{"android":"levelo://app?vid=7bce0807-93f9-4e13-8b17-c78186d378c3","ios":"levelo://app?vid=7bce0807-93f9-4e13-8b17-c78186d378c3"},"vehicle_type_id":"4","last_reported":1744866622,"current_range_meters":22800,"station_id":"ce4bhmh2rcd13ifvqgmg","pricing_plan_id":"cebpf4jnsgd1na2vs0mg"},{"bike_id":"829ce4a6-dd7c-4bdf-8d60-b533479cab14","system_id":"levelo_inurba_marseille","lat":43.26196,"lon":5.40489,"is_reserved":false,"is_disabled":false,"rental_uris":{"android":"levelo://app?vid=829ce4a6-dd7c-4bdf-8d60-b533479cab14","ios":"levelo://app?vid=829ce4a6-dd7c-4bdf-8d60-b533479cab14"},"vehicle_type_id":"4","last_reported":1744866622,"current_range_meters":22800,"station_id":"ce4bhmh2rcd13ifvqgmg","pricing_plan_id":"cebpf4jnsgd1na2vs0mg"},{"bike_id":"bfc0f2bb-f1f4-4fed-b9af-c547a21d1d5d","system_id":"levelo_inurba_marseille","lat":43.286189,"lon":5.351052,"is_reserved":false,"is_disabled":false,"rental_uris":{"android":"levelo://app?vid=bfc0f2bb-f1f4-4fed-b9af-c547a21d1d5d","ios":"levelo://app?vid=bfc0f2bb-f1f4-4fed-b9af-c547a21d1d5d"},"vehicle_type_id":"4","last_reported":1744866622,"current_range_meters":22800,"station_id":"ce4bhch2rcd13ifvqeug","pricing_plan_id":"cebpf4jnsgd1na2vs0mg"},{"bike_id":"f47d0f94-8da3-44a8-aa47-8e9634ca35cd","system_id":"levelo_inurba_marseille","lat":43.29206,"lon":5.36106,"is_reserved":false,"is_disabled":false,"rental_uris":{"android":"levelo://app?vid=f47d0f94-8da3-44a8-aa47-8e9634ca35cd","ios":"levelo://app?vid=f47d0f94-8da3-44a8-aa47-8e9634ca35cd"},"vehicle_type_id":"4","last_reported":1744866622,"current_range_meters":22800,"station_id":"ce4bhbh2rcd13ifvqeqg","pricing_plan_id":"cebpf4jnsgd1na2vs0mg"},{"bike_id":"6a47cccb-8120-4d62-8f12-b890b6d1a604","system_id":"levelo_inurba_marseille","lat":43.3046,"lon":5.37912,"is_reserved":false,"is_disabled":false,"rental_uris":{"android":"levelo://app?vid=6a47cccb-8120-4d62-8f12-b890b6d1a604","ios":"levelo://app?vid=6a47cccb-8120-4d62-8f12-b890b6d1a604"},"vehicle_type_id":"4","last_reported":1744866622,"current_range_meters":22800,"station_id":"ce4bgup2rcd13ifvqcn0","pricing_plan_id":"cebpf4jnsgd1na2vs0mg"},{"bike_id":"5e6be620-a3d0-49c3-9ff0-b85332cde817","system_id":"levelo_inurba_marseille","lat":43.23192,"lon":5.35574,"is_reserved":false,"is_disabled":false,"rental_uris":{"android":"levelo://app?vid=5e6be620-a3d0-49c3-9ff0-b85332cde817","ios":"levelo://app?vid=5e6be620-a3d0-49c3-9ff0-b85332cde817"},"vehicle_type_id":"4","last_reported":1744866622,"current_range_meters":22800,"station_id":"ce4bhu92rcd13ifvqi70","pricing_plan_id":"cebpf4jnsgd1na2vs0mg"},{"bike_id":"d1a2b493-7d30-4a9c-a02b-dfad0b4f73f7","system_id":"levelo_inurba_marseille","lat":43.24814,"lon":5.3745,"is_reserved":false,"is_disabled":false,"rental_uris":{"android":"levelo://app?vid=d1a2b493-7d30-4a9c-a02b-dfad0b4f73f7","ios":"levelo://app?vid=d1a2b493-7d30-4a9c-a02b-dfad0b4f73f7"},"vehicle_type_id":"4","last_reported":1744866622,"current_range_meters":22800,"station_id":"ce4bhgh2rcd13ifvqfb0","pricing_plan_id":"cebpf4jnsgd1na2vs0mg"},{"bike_id":"cc02cdb7-d6dd-4713-8b60-0ed1220619e4","system_id":"levelo_inurba_marseille","lat":43.293028,"lon":5.37448,"is_reserved":false,"is_disabled":true,"rental_uris":{"android":"levelo://app?vid=cc02cdb7-d6dd-4713-8b60-0ed1220619e4","ios":"levelo://app?vid=cc02cdb7-d6dd-4713-8b60-0ed1220619e4"},"vehicle_type_id":"4","last_reported":1744866622,"current_range_meters":23200,"station_id":"ce4bgi12rcd13ifvqb70","pricing_plan_id":"cebpf4jnsgd1na2vs0mg"},{"bike_id":"111a9116-5ac2-4b6d-93d2-b92f401f8e89","system_id":"levelo_inurba_marseille","lat":43.31897,"lon":5.37411,"is_reserved":false,"is_disabled":false,"rental_uris":{"android":"levelo://app?vid=111a9116-5ac2-4b6d-93d2-b92f401f8e89","ios":"levelo://app?vid=111a9116-5ac2-4b6d-93d2-b92f401f8e89"},"vehicle_type_id":"4","last_reported":1744866622,"current_range_meters":23200,"station_id":"","pricing_plan_id":"cebpf4jnsgd1na2vs0mg"},{"bike_id":"33bf5d63-424c-48d6-a0cb-a0565488ee3e","system_id":"levelo_inurba_marseille","lat":43.241626,"lon":5.397302,"is_reserved":false,"is_disabled":false,"rental_uris":{"android":"levelo://app?vid=33bf5d63-424c-48d6-a0cb-a0565488ee3e","ios":"levelo://app?vid=33bf5d63-424c-48d6-a0cb-a0565488ee3e"},"vehicle_type_id":"4","last_reported":1744866622,"current_range_meters":23200,"station_id":"ce4bhn12rcd13ifvqgpg","pricing_plan_id":"cebpf4jnsgd1na2vs0mg"},{"bike_id":"16bd2df2-188c-43e2-8758-69f368cfd234","system_id":"levelo_inurba_marseille","lat":43.29555,"lon":5.39998,"is_reserved":false,"is_disabled":false,"rental_uris":{"android":"levelo://app?vid=16bd2df2-188c-43e2-8758-69f368cfd234","ios":"levelo://app?vid=16bd2df2-188c-43e2-8758-69f368cfd234"},"vehicle_type_id":"4","last_reported":1744866622,"current_range_meters":23200,"station_id":"ce4bh312rcd13ifvqdj0","pricing_plan_id":"cebpf4jnsgd1na2vs0mg"},{"bike_id":"4d0bfab2-f999-49b4-8d4f-9ccb19c747ee","system_id":"levelo_inurba_marseille","lat":43.28332,"lon":5.38112,"is_reserved":false,"is_disabled":false,"rental_uris":{"android":"levelo://app?vid=4d0bfab2-f999-49b4-8d4f-9ccb19c747ee","ios":"levelo://app?vid=4d0bfab2-f999-49b4-8d4f-9ccb19c747ee"},"vehicle_type_id":"4","last_reported":1744866622,"current_range_meters":23200,"station_id":"ce4bh412rcd13ifvqdr0","pricing_plan_id":"cebpf4jnsgd1na2vs0mg"},{"bike_id":"c2b0291e-bbf6-42ba-9e6a-ba571be0ae46","system_id":"levelo_inurba_marseille","lat":43.30647,"lon":5.400892,"is_reserved":false,"is_disabled":false,"rental_uris":{"android":"levelo://app?vid=c2b0291e-bbf6-42ba-9e6a-ba571be0ae46","ios":"levelo://app?vid=c2b0291e-bbf6-42ba-9e6a-ba571be0ae46"},"vehicle_type_id":"4","last_reported":1744866622,"current_range_meters":23200,"station_id":"ce4bh112rcd13ifvqda0","pricing_plan_id":"cebpf4jnsgd1na2vs0mg"},{"bike_id":"ae115968-866d-4928-8149-19dda37d17eb","system_id":"levelo_inurba_marseille","lat":43.30141,"lon":5.38091,"is_reserved":false,"is_disabled":false,"rental_uris":{"android":"levelo://app?vid=ae115968-866d-4928-8149-19dda37d17eb","ios":"levelo://app?vid=ae115968-866d-4928-8149-19dda37d17eb"},"vehicle_type_id":"4","last_reported":1744866622,"current_range_meters":23200,"station_id":"ce4bgjp2rcd13ifvqbh0","pricing_plan_id":"cebpf4jnsgd1na2vs0mg"},{"bike_id":"8eeca69c-3648-4186-8717-79c788e93d87","system_id":"levelo_inurba_marseille","lat":43.311676,"lon":5.387191,"is_reserved":false,"is_disabled":false,"rental_uris":{"android":"levelo://app?vid=8eeca69c-3648-4186-8717-79c788e93d87","ios":"levelo://app?vid=8eeca69c-3648-4186-8717-79c788e93d87"},"vehicle_type_id":"4","last_reported":1744866622,"current_range_meters":23200,"station_id":"ce4bgv12rcd13ifvqcp0","pricing_plan_id":"cebpf4jnsgd1na2vs0mg"},{"bike_id":"81deac8c-877d-4013-b6d0-53902714657a","system_id":"levelo_inurba_marseille","lat":43.29881,"lon":5.39771,"is_reserved":false,"is_disabled":false,"rental_uris":{"android":"levelo://app?vid=81deac8c-877d-4013-b6d0-53902714657a","ios":"levelo://app?vid=81deac8c-877d-4013-b6d0-53902714657a"},"vehicle_type_id":"4","last_reported":1744866622,"current_range_meters":23200,"station_id":"ce4bh0h2rcd13ifvqd50","pricing_plan_id":"cebpf4jnsgd1na2vs0mg"},{"bike_id":"c211eda0-2bf1-4f64-a659-aad36c81259a","system_id":"levelo_inurba_marseille","lat":43.28861,"lon":5.35841,"is_reserved":false,"is_disabled":false,"rental_uris":{"android":"levelo://app?vid=c211eda0-2bf1-4f64-a659-aad36c81259a","ios":"levelo://app?vid=c211eda0-2bf1-4f64-a659-aad36c81259a"},"vehicle_type_id":"4","last_reported":1744866622,"current_range_meters":24000,"station_id":"ce4bhb12rcd13ifvqem0","pricing_plan_id":"cebpf4jnsgd1na2vs0mg"},{"bike_id":"d09a9237-3b9b-40ec-9f32-e17d6d379cb5","system_id":"levelo_inurba_marseille","lat":43.3209,"lon":5.36796,"is_reserved":false,"is_disabled":false,"rental_uris":{"android":"levelo://app?vid=d09a9237-3b9b-40ec-9f32-e17d6d379cb5","ios":"levelo://app?vid=d09a9237-3b9b-40ec-9f32-e17d6d379cb5"},"vehicle_type_id":"4","last_reported":1744866622,"current_range_meters":24000,"station_id":"ce4bhrh2rcd13ifvqhug","pricing_plan_id":"cebpf4jnsgd1na2vs0mg"},{"bike_id":"3c863c1e-5703-459e-86f2-3e252f5541e4","system_id":"levelo_inurba_marseille","lat":43.294,"lon":5.38646,"is_reserved":false,"is_disabled":true,"rental_uris":{"android":"levelo://app?vid=3c863c1e-5703-459e-86f2-3e252f5541e4","ios":"levelo://app?vid=3c863c1e-5703-459e-86f2-3e252f5541e4"},"vehicle_type_id":"4","last_reported":1744866622,"current_range_meters":24000,"station_id":"ce4bh2h2rcd13ifvqdh0","pricing_plan_id":"cebpf4jnsgd1na2vs0mg"},{"bike_id":"873bcab6-b973-48ed-b129-34762c209441","system_id":"levelo_inurba_marseille","lat":43.31494,"lon":5.37299,"is_reserved":false,"is_disabled":false,"rental_uris":{"android":"levelo://app?vid=873bcab6-b973-48ed-b129-34762c209441","ios":"levelo://app?vid=873bcab6-b973-48ed-b129-34762c209441"},"vehicle_type_id":"4","last_reported":1744866622,"current_range_meters":24000,"station_id":"ce4bgt12rcd13ifvqcd0","pricing_plan_id":"cebpf4jnsgd1na2vs0mg"},{"bike_id":"ca1ac32f-daa3-46e9-879b-68321276778e","system_id":"levelo_inurba_marseille","lat":43.31128,"lon":5.37769,"is_reserved":false,"is_disabled":false,"rental_uris":{"android":"levelo://app?vid=ca1ac32f-daa3-46e9-879b-68321276778e","ios":"levelo://app?vid=ca1ac32f-daa3-46e9-879b-68321276778e"},"vehicle_type_id":"4","last_reported":1744866622,"current_range_meters":24000,"station_id":"ce4bgt92rcd13ifvqcg0","pricing_plan_id":"cebpf4jnsgd1na2vs0mg"},{"bike_id":"9eb6738d-486c-4d0a-88f4-70b8d81983d1","system_id":"levelo_inurba_marseille","lat":43.2175,"lon":5.34596,"is_reserved":false,"is_disabled":false,"rental_uris":{"android":"levelo://app?vid=9eb6738d-486c-4d0a-88f4-70b8d81983d1","ios":"levelo://app?vid=9eb6738d-486c-4d0a-88f4-70b8d81983d1"},"vehicle_type_id":"4","last_reported":1744866622,"current_range_meters":24000,"station_id":"st_cvj6r9ubvosntc0bgbag","pricing_plan_id":"cebpf4jnsgd1na2vs0mg"},{"bike_id":"7915b2b3-61bc-483e-94f5-64bb37d1d55b","system_id":"levelo_inurba_marseille","lat":43.28274,"lon":5.350721,"is_reserved":false,"is_disabled":false,"rental_uris":{"android":"levelo://app?vid=7915b2b3-61bc-483e-94f5-64bb37d1d55b","ios":"levelo://app?vid=7915b2b3-61bc-483e-94f5-64bb37d1d55b"},"vehicle_type_id":"4","last_reported":1744866622,"current_range_meters":24000,"station_id":"ce4bhbp2rcd13ifvqerg","pricing_plan_id":"cebpf4jnsgd1na2vs0mg"},{"bike_id":"80bac1fe-218c-4068-937c-4aa733df023f","system_id":"levelo_inurba_marseille","lat":43.28602,"lon":5.3708,"is_reserved":false,"is_disabled":false,"rental_uris":{"android":"levelo://app?vid=80bac1fe-218c-4068-937c-4aa733df023f","ios":"levelo://app?vid=80bac1fe-218c-4068-937c-4aa733df023f"},"vehicle_type_id":"4","last_reported":1744866622,"current_range_meters":24000,"station_id":"ce4bht12rcd13ifvqi60","pricing_plan_id":"cebpf4jnsgd1na2vs0mg"},{"bike_id":"d05b7cc4-f88b-4d02-ae6c-c344f22c0e5c","system_id":"levelo_inurba_marseille","lat":43.29799,"lon":5.36557,"is_reserved":false,"is_disabled":false,"rental_uris":{"android":"levelo://app?vid=d05b7cc4-f88b-4d02-ae6c-c344f22c0e5c","ios":"levelo://app?vid=d05b7cc4-f88b-4d02-ae6c-c344f22c0e5c"},"vehicle_type_id":"4","last_reported":1744866622,"current_range_meters":24400,"station_id":"","pricing_plan_id":"cebpf4jnsgd1na2vs0mg"},{"bike_id":"91aa591a-3e56-4092-a295-ecb6aebe69eb","system_id":"levelo_inurba_marseille","lat":43.22503,"lon":5.34785,"is_reserved":false,"is_disabled":false,"rental_uris":{"android":"levelo://app?vid=91aa591a-3e56-4092-a295-ecb6aebe69eb","ios":"levelo://app?vid=91aa591a-3e56-4092-a295-ecb6aebe69eb"},"vehicle_type_id":"4","last_reported":1744866622,"current_range_meters":24400,"station_id":"st_cvj5dfep6f1abm77gieg","pricing_plan_id":"cebpf4jnsgd1na2vs0mg"},{"bike_id":"f1439bbf-3f90-4d8a-b558-ba1d984b3cc6","system_id":"levelo_inurba_marseille","lat":43.308917,"lon":5.396725,"is_reserved":false,"is_disabled":false,"rental_uris":{"android":"levelo://app?vid=f1439bbf-3f90-4d8a-b558-ba1d984b3cc6","ios":"levelo://app?vid=f1439bbf-3f90-4d8a-b558-ba1d984b3cc6"},"vehicle_type_id":"4","last_reported":1744866622,"current_range_meters":24400,"station_id":"ce4bh012rcd13ifvqcv0","pricing_plan_id":"cebpf4jnsgd1na2vs0mg"},{"bike_id":"aea2afb6-112e-4c3a-968a-5eb5aa77e9be","system_id":"levelo_inurba_marseille","lat":43.21187,"lon":5.35096,"is_reserved":false,"is_disabled":false,"rental_uris":{"android":"levelo://app?vid=aea2afb6-112e-4c3a-968a-5eb5aa77e9be","ios":"levelo://app?vid=aea2afb6-112e-4c3a-968a-5eb5aa77e9be"},"vehicle_type_id":"4","last_reported":1744866622,"current_range_meters":24400,"station_id":"st_cvj6sg6p6f1abm77japg","pricing_plan_id":"cebpf4jnsgd1na2vs0mg"},{"bike_id":"fceb9ed3-a67b-402e-adbc-193d0461eb00","system_id":"levelo_inurba_marseille","lat":43.28103,"lon":5.37825,"is_reserved":false,"is_disabled":false,"rental_uris":{"android":"levelo://app?vid=fceb9ed3-a67b-402e-adbc-193d0461eb00","ios":"levelo://app?vid=fceb9ed3-a67b-402e-adbc-193d0461eb00"},"vehicle_type_id":"4","last_reported":1744866622,"current_range_meters":24400,"station_id":"ce4bha12rcd13ifvqee0","pricing_plan_id":"cebpf4jnsgd1na2vs0mg"},{"bike_id":"0ec04526-3015-4c5d-8faf-5f4a1972690d","system_id":"levelo_inurba_marseille","lat":43.27983,"lon":5.41669,"is_reserved":false,"is_disabled":false,"rental_uris":{"android":"levelo://app?vid=0ec04526-3015-4c5d-8faf-5f4a1972690d","ios":"levelo://app?vid=0ec04526-3015-4c5d-8faf-5f4a1972690d"},"vehicle_type_id":"4","last_reported":1744866622,"current_range_meters":24400,"station_id":"ce4bho12rcd13ifvqh1g","pricing_plan_id":"cebpf4jnsgd1na2vs0mg"},{"bike_id":"c205edf5-cc11-4037-b51a-c04fd0fac98e","system_id":"levelo_inurba_marseille","lat":43.23523,"lon":5.40338,"is_reserved":false,"is_disabled":false,"rental_uris":{"android":"levelo://app?vid=c205edf5-cc11-4037-b51a-c04fd0fac98e","ios":"levelo://app?vid=c205edf5-cc11-4037-b51a-c04fd0fac98e"},"vehicle_type_id":"4","last_reported":1744866622,"current_range_meters":24400,"station_id":"","pricing_plan_id":"cebpf4jnsgd1na2vs0mg"},{"bike_id":"21bbfa58-e5b6-4b2e-b6db-84067baec66b","system_id":"levelo_inurba_marseille","lat":43.29558,"lon":5.39978,"is_reserved":false,"is_disabled":false,"rental_uris":{"android":"levelo://app?vid=21bbfa58-e5b6-4b2e-b6db-84067baec66b","ios":"levelo://app?vid=21bbfa58-e5b6-4b2e-b6db-84067baec66b"},"vehicle_type_id":"4","last_reported":1744866622,"current_range_meters":24400,"station_id":"ce4bh312rcd13ifvqdj0","pricing_plan_id":"cebpf4jnsgd1na2vs0mg"},{"bike_id":"5e9aba98-7f2a-46bc-92ca-62cdc3d12e72","system_id":"levelo_inurba_marseille","lat":43.310736,"lon":5.383516,"is_reserved":false,"is_disabled":false,"rental_uris":{"android":"levelo://app?vid=5e9aba98-7f2a-46bc-92ca-62cdc3d12e72","ios":"levelo://app?vid=5e9aba98-7f2a-46bc-92ca-62cdc3d12e72"},