{"last_updated":1719004122,"ttl":30,"version":"2.2","data":{"bikes":[{"bike_id":"d3113b90-9d4f-4755-a933-d573342b4c66","system_id":"levelo_inurba_marseille","lat":43.309076,"lon":5.368465,"is_reserved":false,"is_disabled":false,"rental_uris":{"android":"levelo://app?vid=d3113b90-9d4f-4755-a933-d573342b4c66","ios":"levelo://app?vid=d3113b90-9d4f-4755-a933-d573342b4c66"},"vehicle_type_id":"4","last_reported":1719004122,"current_range_meters":10000,"station_id":"ce4bgn92rcd13ifvqbvg","pricing_plan_id":"cebpf4jnsgd1na2vs0mg"},{"bike_id":"883f3f17-ca5e-41a9-8cee-34c7df78280b","system_id":"levelo_inurba_marseille","lat":43.309076,"lon":5.368465,"is_reserved":false,"is_disabled":false,"rental_uris":{"android":"levelo://app?vid=883f3f17-ca5e-41a9-8cee-34c7df78280b","ios":"levelo://app?vid=883f3f17-ca5e-41a9-8cee-34c7df78280b"},"vehicle_type_id":"4","last_reported":1719004122,"current_range_meters":13200,"station_id":"ce4bgn92rcd13ifvqbvg","pricing_plan_id":"cebpf4jnsgd1na2vs0mg"},{"bike_id":"4d65f698-03b9-43a1-8927-409f3c9731ae","system_id":"levelo_inurba_marseille","lat":43.314811,"lon":5.373104,"is_reserved":false,"is_disabled":false,"rental_uris":{"android":"levelo://app?vid=4d65f698-03b9-43a1-8927-409f3c9731ae","ios":"levelo://app?vid=4d65f698-03b9-43a1-8927-409f3c9731ae"},"vehicle_type_id":"4","last_reported":1719004122,"current_range_meters":0,"station_id":"ce4bgt12rcd13ifvqcd0","pricing_plan_id":"cebpf4jnsgd1na2vs0mg"},{"bike_id":"20f31c62-307b-4c16-93b6-6fcc5accd677","system_id":"levelo_inurba_marseille","lat":43.3145,"lon":5.3737,"is_reserved":false,"is_disabled":false,"rental_uris":{"android":"levelo://app?vid=20f31c62-307b-4c16-93b6-6fcc5accd677","ios":"levelo://app?vid=20f31c62-307b-4c16-93b6-6fcc5accd677"},"vehicle_type_id":"4","last_reported":1719004122,"current_range_meters":16400,"station_id":"","pricing_plan_id":"cebpf4jnsgd1na2vs0mg"},{"bike_id":"f581aaaf-044f-4575-8b99-1d00c2b82339","system_id":"levelo_inurba_marseille","lat":43.305458,"lon":5.366957,"is_reserved":false,"is_disabled":false,"rental_uris":{"android":"levelo://app?vid=f581aaaf-044f-4575-8b99-1d00c2b82339","ios":"levelo://app?vid=f581aaaf-044f-4575-8b99-1d00c2b82339"},"vehicle_type_id":"4","last_reported":1719004122,"current_range_meters":29600,"station_id":"","pricing_plan_id":"cebpf4jnsgd1na2vs0mg"},{"bike_id":"c8d74784-cfa3-4dc0-a55e-c53d6b6b7590","system_id":"levelo_inurba_marseille","lat":43.318349,"lon":5.374576,"is_reserved":false,"is_disabled":false,"rental_uris":{"android":"levelo://app?vid=c8d74784-cfa3-4dc0-a55e-c53d6b6b7590","ios":"levelo://app?vid=c8d74784-cfa3-4dc0-a55e-c53d6b6b7590"},"vehicle_type_id":"4","last_reported":1719004122,"current_range_meters":18800,"station_id":"","pricing_plan_id":"cebpf4jnsgd1na2vs0mg"},{"bike_id":"98af9fd3-2c5e-4534-b74f-846683574576","system_id":"levelo_inurba_marseille","lat":43.305989,"lon":5.37225,"is_reserved":false,"is_disabled":false,"rental_uris":{"android":"levelo://app?vid=98af9fd3-2c5e-4534-b74f-846683574576","ios":"levelo://app?vid=98af9fd3-2c5e-4534-b74f-846683574576"},"vehicle_type_id":"4","last_reported":1719004122,"current_range_meters":3200,"station_id":"ce4bgqh2rcd13ifvqc4g","pricing_plan_id":"cebpf4jnsgd1na2vs0mg"},{"bike_id":"922c23f0-022d-4cec-99fc-e8a0297cdccf","system_id":"levelo_inurba_marseille","lat":43.311131,"lon":5.377651,"is_reserved":false,"is_disabled":false,"rental_uris":{"android":"levelo://app?vid=922c23f0-022d-4cec-99fc-e8a0297cdccf","ios":"levelo://app?vid=922c23f0-022d-4cec-99fc-e8a0297cdccf"},"vehicle_type_id":"4","last_reported":1719004122,"current_range_meters":8400,"station_id":"ce4bgt92rcd13ifvqcg0","pricing_plan_id":"cebpf4jnsgd1na2vs0mg"},{"bike_id":"efa82152-2591-4e73-aee1-388ea0bcfcf7","system_id":"levelo_inurba_marseille","lat":43.315289,"lon":5.380349,"is_reserved":false,"is_disabled":false,"rental_uris":{"android":"levelo://app?vid=efa82152-2591-4e73-aee1-388ea0bcfcf7","ios":"levelo://app?vid=efa82152-2591-4e73-aee1-388ea0bcfcf7"},"vehicle_type_id":"4","last_reported":1719004122,"current_range_meters":28400,"station_id":"ce4bhsp2rcd13ifvqi50","pricing_plan_id":"cebpf4jnsgd1na2vs0mg"},{"bike_id":"e3a0fc07-7f6e-489a-804d-9c1dc39610f8","system_id":"levelo_inurba_marseille","lat":43.31527,"lon":5.3803,"is_reserved":false,"is_disabled":false,"rental_uris":{"android":"levelo://app?vid=e3a0fc07-7f6e-489a-804d-9c1dc39610f8","ios":"levelo://app?vid=e3a0fc07-7f6e-489a-804d-9c1dc39610f8"},"vehicle_type_id":"4","last_reported":1719004122,"current_range_meters":2400,"station_id":"ce4bhsp2rcd13ifvqi50","pricing_plan_id":"cebpf4jnsgd1na2vs0mg"},{"bike_id":"1aa9382d-bd55-4aff-8971-b23615fccdae","system_id":"levelo_inurba_marseille","lat":43.31094,"lon":5.38135,"is_reserved":false,"is_disabled":false,"rental_uris":{"android":"levelo://app?vid=1aa9382d-bd55-4aff-8971-b23615fccdae","ios":"levelo://app?vid=1aa9382d-bd55-4aff-8971-b23615fccdae"},"vehicle_type_id":"4","last_reported":1719004122,"current_range_meters":4000,"station_id":"","pricing_plan_id":"cebpf4jnsgd1na2vs0mg"},{"bike_id":"ed14ec74-1f1c-4cfd-8d26-59aa92fdca8a","system_id":"levelo_inurba_marseille","lat":43.30205,"lon":5.37113,"is_reserved":false,"is_disabled":false,"rental_uris":{"android":"levelo://app?vid=ed14ec74-1f1c-4cfd-8d26-59aa92fdca8a","ios":"levelo://app?vid=ed14ec74-1f1c-4cfd-8d26-59aa92fdca8a"},"vehicle_type_id":"4","last_reported":1719004122,"current_range_meters":27200,"station_id":"","pricing_plan_id":"cebpf4jnsgd1na2vs0mg"},{"bike_id":"567c6721-270f-423d-995f-17e0b7f9ff3b","system_id":"levelo_inurba_marseille","lat":43.30212,"lon":5.37404,"is_reserved":false,"is_disabled":false,"rental_uris":{"android":"levelo://app?vid=567c6721-270f-423d-995f-17e0b7f9ff3b","ios":"levelo://app?vid=567c6721-270f-423d-995f-17e0b7f9ff3b"},"vehicle_type_id":"4","last_reported":1719004122,"current_range_meters":800,"station_id":"","pricing_plan_id":"cebpf4jnsgd1na2vs0mg"},{"bike_id":"a3351bc9-57e5-40a8-a632-fb07b59c3abd","system_id":"levelo_inurba_marseille","lat":43.300933,"lon":5.365466,"is_reserved":false,"is_disabled":false,"rental_uris":{"android":"levelo://app?vid=a3351bc9-57e5-40a8-a632-fb07b59c3abd","ios":"levelo://app?vid=a3351bc9-57e5-40a8-a632-fb07b59c3abd"},"vehicle_type_id":"4","last_reported":1719004122,"current_range_meters":0,"station_id":"","pricing_plan_id":"cebpf4jnsgd1na2vs0mg"},{"bike_id":"d81fbde6-0d9a-4fdc-b90d-90d415270f88","system_id":"levelo_inurba_marseille","lat":43.304606,"lon":5.379026,"is_reserved":false,"is_disabled":false,"rental_uris":{"android":"levelo://app?vid=d81fbde6-0d9a-4fdc-b90d-90d415270f88","ios":"levelo://app?vid=d81fbde6-0d9a-4fdc-b90d-90d415270f88"},"vehicle_type_id":"4","last_reported":1719004122,"current_range_meters":10000,"station_id":"ce4bgup2rcd13ifvqcn0","pricing_plan_id":"cebpf4jnsgd1na2vs0mg"},{"bike_id":"1c4a5dce-c887-41d3-86e8-d8004121f6a9","system_id":"levelo_inurba_marseille","lat":43.324771,"lon":5.36557,"is_reserved":false,"is_disabled":false,"rental_uris":{"android":"levelo://app?vid=1c4a5dce-c887-41d3-86e8-d8004121f6a9","ios":"levelo://app?vid=1c4a5dce-c887-41d3-86e8-d8004121f6a9"},"vehicle_type_id":"4","last_reported":1719004122,"current_range_meters":28800,"station_id":"ce4bhs12rcd13ifvqhvg","pricing_plan_id":"cebpf4jnsgd1na2vs0mg"},{"bike_id":"0cf4f2e2-150e-4567-bd04-06c956a4df89","system_id":"levelo_inurba_marseille","lat":43.32488,"lon":5.36555,"is_reserved":false,"is_disabled":false,"rental_uris":{"android":"levelo://app?vid=0cf4f2e2-150e-4567-bd04-06c956a4df89","ios":"levelo://app?vid=0cf4f2e2-150e-4567-bd04-06c956a4df89"},"vehicle_type_id":"4","last_reported":1719004122,"current_range_meters":0,"station_id":"ce4bhs12rcd13ifvqhvg","pricing_plan_id":"cebpf4jnsgd1na2vs0mg"},{"bike_id":"700d8c3c-abc0-498a-86df-055650bfb74b","system_id":"levelo_inurba_marseille","lat":43.310804,"lon":5.38359,"is_reserved":false,"is_disabled":false,"rental_uris":{"android":"levelo://app?vid=700d8c3c-abc0-498a-86df-055650bfb74b","ios":"levelo://app?vid=700d8c3c-abc0-498a-86df-055650bfb74b"},"vehicle_type_id":"4","last_reported":1719004122,"current_range_meters":2000,"station_id":"ce4bgv92rcd13ifvqcr0","pricing_plan_id":"cebpf4jnsgd1na2vs0mg"},{"bike_id":"732f3b32-0acc-46de-bd4d-d288d2686bf1","system_id":"levelo_inurba_marseille","lat":43.310804,"lon":5.38359,"is_reserved":false,"is_disabled":false,"rental_uris":{"android":"levelo://app?vid=732f3b32-0acc-46de-bd4d-d288d2686bf1","ios":"levelo://app?vid=732f3b32-0acc-46de-bd4d-d288d2686bf1"},"vehicle_type_id":"4","last_reported":1719004122,"current_range_meters":0,"station_id":"ce4bgv92rcd13ifvqcr0","pricing_plan_id":"cebpf4jnsgd1na2vs0mg"},{"bike_id":"df378568-574a-4e6e-8859-2e4540568246","system_id":"levelo_inurba_marseille","lat":43.301429,"lon":5.37413,"is_reserved":false,"is_disabled":false,"rental_uris":{"android":"levelo://app?vid=df378568-574a-4e6e-8859-2e4540568246","ios":"levelo://app?vid=df378568-574a-4e6e-8859-2e4540568246"},"vehicle_type_id":"4","last_reported":1719004122,"current_range_meters":20800,"station_id":"ce4bgs92rcd13ifvqcc0","pricing_plan_id":"cebpf4jnsgd1na2vs0mg"},{"bike_id":"a7ce4af3-b9a3-4154-b2c6-fe94ff06d9e4","system_id":"levelo_inurba_marseille","lat":43.30032,"lon":5.369505,"is_reserved":false,"is_disabled":false,"rental_uris":{"android":"levelo://app?vid=a7ce4af3-b9a3-4154-b2c6-fe94ff06d9e4","ios":"levelo://app?vid=a7ce4af3-b9a3-4154-b2c6-fe94ff06d9e4"},"vehicle_type_id":"4","last_reported":1719004122,"current_range_meters":14000,"station_id":"","pricing_plan_id":"cebpf4jnsgd1na2vs0mg"},{"bike_id":"c07aff00-4eae-4c47-9b68-664428730875","system_id":"levelo_inurba_marseille","lat":43.30004,"lon":5.369009,"is_reserved":false,"is_disabled":false,"rental_uris":{"android":"levelo://app?vid=c07aff00-4eae-4c47-9b68-664428730875","ios":"levelo://app?vid=c07aff00-4eae-4c47-9b68-664428730875"},"vehicle_type_id":"4","last_reported":1719004122,"current_range_meters":12800,"station_id":"","pricing_plan_id":"cebpf4jnsgd1na2vs0mg"},{"bike_id":"4f17b089-79cb-4f2e-a7e1-b736df93b457","system_id":"levelo_inurba_marseille","lat":43.31991,"lon":5.3815,"is_reserved":false,"is_disabled":false,"rental_uris":{"android":"levelo://app?vid=4f17b089-79cb-4f2e-a7e1-b736df93b457","ios":"levelo://app?vid=4f17b089-79cb-4f2e-a7e1-b736df93b457"},"vehicle_type_id":"4","last_reported":1719004122,"current_range_meters":0,"station_id":"ce4bhr12rcd13ifvqhpg","pricing_plan_id":"cebpf4jnsgd1na2vs0mg"},{"bike_id":"bee15698-a910-463e-9d1c-c62ec25edcce","system_id":"levelo_inurba_marseille","lat":43.313571,"lon":5.384829,"is_reserved":false,"is_disabled":false,"rental_uris":{"android":"levelo://app?vid=bee15698-a910-463e-9d1c-c62ec25edcce","ios":"levelo://app?vid=bee15698-a910-463e-9d1c-c62ec25edcce"},"vehicle_type_id":"4","last_reported":1719004122,"current_range_meters":25600,"station_id":"ce4bgt92rcd13ifvqcf0","pricing_plan_id":"cebpf4jnsgd1na2vs0mg"},{"bike_id":"1c24d42a-f904-4efa-8cb7-e539f431da19","system_id":"levelo_inurba_marseille","lat":43.313571,"lon":5.384829,"is_reserved":false,"is_disabled":false,"rental_uris":{"android":"levelo://app?vid=1c24d42a-f904-4efa-8cb7-e539f431da19","ios":"levelo://app?vid=1c24d42a-f904-4efa-8cb7-e539f431da19"},"vehicle_type_id":"4","last_reported":1719004122,"current_range_meters":28400,"station_id":"ce4bgt92rcd13ifvqcf0","pricing_plan_id":"cebpf4jnsgd1na2vs0mg"},{"bike_id":"3091154d-13ec-48c3-abd7-a6f24931c931","system_id":"levelo_inurba_marseille","lat":43.299777,"lon":5.371757,"is_reserved":false,"is_disabled":false,"rental_uris":{"android":"levelo://app?vid=3091154d-13ec-48c3-abd7-a6f24931c931","ios":"levelo://app?vid=3091154d-13ec-48c3-abd7-a6f24931c931"},"vehicle_type_id":"4","last_reported":1719004122,"current_range_meters":12000,"station_id":"","pricing_plan_id":"cebpf4jnsgd1na2vs0mg"},{"bike_id":"1f9dc8a6-1fb6-455b-9953-9dd64f0bcc9a","system_id":"levelo_inurba_marseille","lat":43.299222,"lon":5.365554,"is_reserved":false,"is_disabled":false,"rental_uris":{"android":"levelo://app?vid=1f9dc8a6-1fb6-455b-9953-9dd64f0bcc9a","ios":"levelo://app?vid=1f9dc8a6-1fb6-455b-9953-9dd64f0bcc9a"},"vehicle_type_id":"4","last_reported":1719004122,"current_range_meters":0,"station_id":"ce4bgm92rcd13ifvqbr0","pricing_plan_id":"cebpf4jnsgd1na2vs0mg"},{"bike_id":"44c5c539-d0e7-4ddf-8675-3ee4155947af","system_id":"levelo_inurba_marseille","lat":43.305364,"lon":5.384119,"is_reserved":false,"is_disabled":false,"rental_uris":{"android":"levelo://app?vid=44c5c539-d0e7-4ddf-8675-3ee4155947af","ios":"levelo://app?vid=44c5c539-d0e7-4ddf-8675-3ee4155947af"},"vehicle_type_id":"4","last_reported":1719004122,"current_range_meters":5200,"station_id":"ce4bgg92rcd13ifvqb30","pricing_plan_id":"cebpf4jnsgd1na2vs0mg"},{"bike_id":"cb338256-03c0-410a-a2d1-c8aa55ba21e0","system_id":"levelo_inurba_marseille","lat":43.298433,"lon":5.362774,"is_reserved":false,"is_disabled":false,"rental_uris":{"android":"levelo://app?vid=cb338256-03c0-410a-a2d1-c8aa55ba21e0","ios":"levelo://app?vid=cb338256-03c0-410a-a2d1-c8aa55ba21e0"},"vehicle_type_id":"4","last_reported":1719004122,"current_range_meters":20400,"station_id":"ce4bgpp2rcd13ifvqc3g","pricing_plan_id":"cebpf4jnsgd1na2vs0mg"},{"bike_id":"be7ca8e4-d6f2-4abc-811f-83c5dc7f173e","system_id":"levelo_inurba_marseille","lat":43.311722,"lon":5.387247,"is_reserved":false,"is_disabled":false,"rental_uris":{"android":"levelo://app?vid=be7ca8e4-d6f2-4abc-811f-83c5dc7f173e","ios":"levelo://app?vid=be7ca8e4-d6f2-4abc-811f-83c5dc7f173e"},"vehicle_type_id":"4","last_reported":1719004122,"current_range_meters":8400,"station_id":"ce4bgv12rcd13ifvqcp0","pricing_plan_id":"cebpf4jnsgd1na2vs0mg"},{"bike_id":"fe2238e8-6681-4232-8a36-bc848481290b","system_id":"levelo_inurba_marseille","lat":43.299243,"lon":5.37481,"is_reserved":false,"is_disabled":false,"rental_uris":{"android":"levelo://app?vid=fe2238e8-6681-4232-8a36-bc848481290b","ios":"levelo://app?vid=fe2238e8-6681-4232-8a36-bc848481290b"},"vehicle_type_id":"4","last_reported":1719004122,"current_range_meters":20400,"station_id":"ce4bgjh2rcd13ifvqbg0","pricing_plan_id":"cebpf4jnsgd1na2vs0mg"},{"bike_id":"095a4294-3966-4b80-8529-f03adaeb0735","system_id":"levelo_inurba_marseille","lat":43.299243,"lon":5.37481,"is_reserved":false,"is_disabled":false,"rental_uris":{"android":"levelo://app?vid=095a4294-3966-4b80-8529-f03adaeb0735","ios":"levelo://app?vid=095a4294-3966-4b80-8529-f03adaeb0735"},"vehicle_type_id":"4","last_reported":1719004122,"current_range_meters":28000,"station_id":"ce4bgjh2rcd13ifvqbg0","pricing_plan_id":"cebpf4jnsgd1na2vs0mg"},{"bike_id":"3b967195-894f-4297-bf12-127618dfebc3","system_id":"levelo_inurba_marseille","lat":43.2968,"lon":5.37291,"is_reserved":false,"is_disabled":false,"rental_uris":{"android":"levelo://app?vid=3b967195-894f-4297-bf12-127618dfebc3","ios":"levelo://app?vid=3b967195-894f-4297-bf12-127618dfebc3"},"vehicle_type_id":"4","last_reported":1719004122,"current_range_meters":26000,"station_id":"ce4bgk12rcd13ifvqbj0","pricing_plan_id":"cebpf4jnsgd1na2vs0mg"},{"bike_id":"b2dbbc22-1690-4545-bb63-9c353bb3fc44","system_id":"levelo_inurba_marseille","lat":43.2968,"lon":5.37291,"is_reserved":false,"is_disabled":false,"rental_uris":{"android":"levelo://app?vid=b2dbbc22-1690-4545-bb63-9c353bb3fc44","ios":"levelo://app?vid=b2dbbc22-1690-4545-bb63-9c353bb3fc44"},"vehicle_type_id":"4","last_reported":1719004122,"current_range_meters":800,"station_id":"ce4bgk12rcd13ifvqbj0","pricing_plan_id":"cebpf4jnsgd1na2vs0mg"},{"bike_id":"834d2aed-800f-4786-96f3-215036ee11b0","system_id":"levelo_inurba_marseille","lat":43.296131,"lon":5.370791,"is_reserved":false,"is_disabled":false,"rental_uris":{"android":"levelo://app?vid=834d2aed-800f-4786-96f3-215036ee11b0","ios":"levelo://app?vid=834d2aed-800f-4786-96f3-215036ee11b0"},"vehicle_type_id":"4","last_reported":1719004122,"current_range_meters":21200,"station_id":"ce4bgnh2rcd13ifvqc0g","pricing_plan_id":"cebpf4jnsgd1na2vs0mg"},{"bike_id":"edadb8e7-96b0-4261-9c69-87ea7069e09a","system_id":"levelo_inurba_marseille","lat":43.299028,"lon":5.381509,"is_reserved":false,"is_disabled":false,"rental_uris":{"android":"levelo://app?vid=edadb8e7-96b0-4261-9c69-87ea7069e09a","ios":"levelo://app?vid=edadb8e7-96b0-4261-9c69-87ea7069e09a"},"vehicle_type_id":"4","last_reported":1719004122,"current_range_meters":14800,"station_id":"ce4bgj12rcd13ifvqbc0","pricing_plan_id":"cebpf4jnsgd1na2vs0mg"},{"bike_id":"125f7e64-921d-47c1-8eb3-f645b12f1bfd","system_id":"levelo_inurba_marseille","lat":43.307945,"lon":5.376487,"is_reserved":false,"is_disabled":false,"rental_uris":{"android":"levelo://app?vid=125f7e64-921d-47c1-8eb3-f645b12f1bfd","ios":"levelo://app?vid=125f7e64-921d-47c1-8eb3-f645b12f1bfd"},"vehicle_type_id":"4","last_reported":1719004122,"current_range_meters":26800,"station_id":"ce4bgv92rcd13ifvqcq0","pricing_plan_id":"cebpf4jnsgd1na2vs0mg"},{"bike_id":"9e966c80-c61d-4302-8b4c-f077e81dcf58","system_id":"levelo_inurba_marseille","lat":43.295748,"lon":5.37522,"is_reserved":false,"is_disabled":false,"rental_uris":{"android":"levelo://app?vid=9e966c80-c61d-4302-8b4c-f077e81dcf58","ios":"levelo://app?vid=9e966c80-c61d-4302-8b4c-f077e81dcf58"},"vehicle_type_id":"4","last_reported":1719004122,"current_range_meters":6000,"station_id":"ce4bgh92rcd13ifvqb50","pricing_plan_id":"cebpf4jnsgd1na2vs0mg"},{"bike_id":"afde1d2f-a38c-4cdb-9bd0-f3397b7462d0","system_id":"levelo_inurba_marseille","lat":43.29622,"lon":5.37718,"is_reserved":false,"is_disabled":false,"rental_uris":{"android":"levelo://app?vid=afde1d2f-a38c-4cdb-9bd0-f3397b7462d0","ios":"levelo://app?vid=afde1d2f-a38c-4cdb-9bd0-f3397b7462d0"},"vehicle_type_id":"4","last_reported":1719004122,"current_range_meters":2400,"station_id":"ce4bgi92rcd13ifvqb90","pricing_plan_id":"cebpf4jnsgd1na2vs0mg"},{"bike_id":"ab708556-0f14-4c10-89ee-d75afe773529","system_id":"levelo_inurba_marseille","lat":43.296277,"lon":5.377108,"is_reserved":false,"is_disabled":false,"rental_uris":{"android":"levelo://app?vid=ab708556-0f14-4c10-89ee-d75afe773529","ios":"levelo://app?vid=ab708556-0f14-4c10-89ee-d75afe773529"},"vehicle_type_id":"4","last_reported":1719004122,"current_range_meters":26800,"station_id":"ce4bgi92rcd13ifvqb90","pricing_plan_id":"cebpf4jnsgd1na2vs0mg"},{"bike_id":"b506c154-3053-462a-a854-40b9ab08df29","system_id":"levelo_inurba_marseille","lat":43.29611,"lon":5.37727,"is_reserved":false,"is_disabled":false,"rental_uris":{"android":"levelo://app?vid=b506c154-3053-462a-a854-40b9ab08df29","ios":"levelo://app?vid=b506c154-3053-462a-a854-40b9ab08df29"},"vehicle_type_id":"4","last_reported":1719004122,"current_range_meters":0,"station_id":"ce4bgi92rcd13ifvqb90","pricing_plan_id":"cebpf4jnsgd1na2vs0mg"},{"bike_id":"0d39bd3c-1435-48e1-9268-aeea3106df65","system_id":"levelo_inurba_marseille","lat":43.29645,"lon":5.37833,"is_reserved":false,"is_disabled":false,"rental_uris":{"android":"levelo://app?vid=0d39bd3c-1435-48e1-9268-aeea3106df65","ios":"levelo://app?vid=0d39bd3c-1435-48e1-9268-aeea3106df65"},"vehicle_type_id":"4","last_reported":1719004122,"current_range_meters":5200,"station_id":"","pricing_plan_id":"cebpf4jnsgd1na2vs0mg"},{"bike_id":"be16a0af-9583-46b3-a261-3c375417f849","system_id":"levelo_inurba_marseille","lat":43.295279,"lon":5.375048,"is_reserved":false,"is_disabled":false,"rental_uris":{"android":"levelo://app?vid=be16a0af-9583-46b3-a261-3c375417f849","ios":"levelo://app?vid=be16a0af-9583-46b3-a261-3c375417f849"},"vehicle_type_id":"4","last_reported":1719004122,"current_range_meters":0,"station_id":"ce4bgkp2rcd13ifvqbmg","pricing_plan_id":"cebpf4jnsgd1na2vs0mg"},{"bike_id":"fe4268ac-f7cb-4d44-a0da-95ed8ca8edc3","system_id":"levelo_inurba_marseille","lat":43.32367,"lon":5.388836,"is_reserved":false,"is_disabled":false,"rental_uris":{"android":"levelo://app?vid=fe4268ac-f7cb-4d44-a0da-95ed8ca8edc3","ios":"levelo://app?vid=fe4268ac-f7cb-4d44-a0da-95ed8ca8edc3"},"vehicle_type_id":"4","last_reported":1719004122,"current_range_meters":800,"station_id":"ce4bhqp2rcd13ifvqhog","pricing_plan_id":"cebpf4jnsgd1na2vs0mg"},{"bike_id":"c08818e3-7e78-4d52-ae72-2d186d64b253","system_id":"levelo_inurba_marseille","lat":43.32367,"lon":5.388836,"is_reserved":false,"is_disabled":false,"rental_uris":{"android":"levelo://app?vid=c08818e3-7e78-4d52-ae72-2d186d64b253","ios":"levelo://app?vid=c08818e3-7e78-4d52-ae72-2d186d64b253"},"vehicle_type_id":"4","last_reported":1719004122,"current_range_meters":8000,"station_id":"ce4bhqp2rcd13ifvqhog","pricing_plan_id":"cebpf4jnsgd1na2vs0mg"},{"bike_id":"7487c28b-0480-4b88-8b25-9027c1497419","system_id":"levelo_inurba_marseille","lat":43.289184,"lon":5.366408,"is_reserved":false,"is_disabled":false,"rental_uris":{"android":"levelo://app?vid=7487c28b-0480-4b88-8b25-9027c1497419","ios":"levelo://app?vid=7487c28b-0480-4b88-8b25-9027c1497419"},"vehicle_type_id":"4","last_reported":1719004122,"current_range_meters":0,"station_id":"ce4bhap2rcd13ifvqek0","pricing_plan_id":"cebpf4jnsgd1na2vs0mg"},{"bike_id":"004a7cdb-4746-43cd-a305-a05207e33dd8","system_id":"levelo_inurba_marseille","lat":43.29605,"lon":5.380821,"is_reserved":false,"is_disabled":false,"rental_uris":{"android":"levelo://app?vid=004a7cdb-4746-43cd-a305-a05207e33dd8","ios":"levelo://app?vid=004a7cdb-4746-43cd-a305-a05207e33dd8"},"vehicle_type_id":"4","last_reported":1719004122,"current_range_meters":0,"station_id":"ce4bgl12rcd13ifvqbo0","pricing_plan_id":"cebpf4jnsgd1na2vs0mg"},{"bike_id":"bc20b2ef-db4c-4b32-a644-b0ffc4e3d390","system_id":"levelo_inurba_marseille","lat":43.29601,"lon":5.38097,"is_reserved":false,"is_disabled":false,"rental_uris":{"android":"levelo://app?vid=bc20b2ef-db4c-4b32-a644-b0ffc4e3d390","ios":"levelo://app?vid=bc20b2ef-db4c-4b32-a644-b0ffc4e3d390"},"vehicle_type_id":"4","last_reported":1719004122,"current_range_meters":13200,"station_id":"ce4bgl12rcd13ifvqbo0","pricing_plan_id":"cebpf4jnsgd1na2vs0mg"},{"bike_id":"9de224cb-3c9d-450b-8a2d-efe1dda516de","system_id":"levelo_inurba_marseille","lat":43.29601,"lon":5.381084,"is_reserved":false,"is_disabled":false,"rental_uris":{"android":"levelo://app?vid=9de224cb-3c9d-450b-8a2d-efe1dda516de","ios":"levelo://app?vid=9de224cb-3c9d-450b-8a2d-efe1dda516de"},"vehicle_type_id":"4","last_reported":1719004122,"current_range_meters":31200,"station_id":"ce4bgl12rcd13ifvqbo0","pricing_plan_id":"cebpf4jnsgd1na2vs0mg"},{"bike_id":"252745cf-4a76-4e36-bc2d-4232f23b127a","system_id":"levelo_inurba_marseille","lat":43.29602,"lon":5.381084,"is_reserved":false,"is_disabled":false,"rental_uris":{"android":"levelo://app?vid=252745cf-4a76-4e36-bc2d-4232f23b127a","ios":"levelo://app?vid=252745cf-4a76-4e36-bc2d-4232f23b127a"},"vehicle_type_id":"4","last_reported":1719004122,"current_range_meters":10000,"station_id":"ce4bgl12rcd13ifvqbo0","pricing_plan_id":"cebpf4jnsgd1na2vs0mg"},{"bike_id":"4a4344f1-30a3-4c34-ad6b-6d41385aa0c9","system_id":"levelo_inurba_marseille","lat":43.29601,"lon":5.381084,"is_reserved":false,"is_disabled":false,"rental_uris":{"android":"levelo://app?vid=4a4344f1-30a3-4c34-ad6b-6d41385aa0c9","ios":"levelo://app?vid=4a4344f1-30a3-4c34-ad6b-6d41385aa0c9"},"vehicle_type_id":"4","last_reported":1719004122,"current_range_meters":24800,"station_id":"ce4bgl12rcd13ifvqbo0","pricing_plan_id":"cebpf4jnsgd1na2vs0mg"},{"bike_id":"776fc5c8-11cb-4886-bbc6-f21853046c99","system_id":"levelo_inurba_marseille","lat":43.29601,"lon":5.381084,"is_reserved":false,"is_disabled":false,"rental_uris":{"android":"levelo://app?vid=776fc5c8-11cb-4886-bbc6-f21853046c99","ios":"levelo://app?vid=776fc5c8-11cb-4886-bbc6-f21853046c99"},"vehicle_type_id":"4","last_reported":1719004122,"current_range_meters":7200,"station_id":"ce4bgl12rcd13ifvqbo0","pricing_plan_id":"cebpf4jnsgd1na2vs0mg"},{"bike_id":"cad4e38d-d09b-45e2-b0b5-e424d46bc5da","system_id":"levelo_inurba_marseille","lat":43.292749,"lon":5.368402,"is_reserved":false,"is_disabled":false,"rental_uris":{"android":"levelo://app?vid=cad4e38d-d09b-45e2-b0b5-e424d46bc5da","ios":"levelo://app?vid=cad4e38d-d09b-45e2-b0b5-e424d46bc5da"},"vehicle_type_id":"4","last_reported":1719004122,"current_range_meters":11600,"station_id":"ce4bhbp2rcd13ifvqesg","pricing_plan_id":"cebpf4jnsgd1na2vs0mg"},{"bike_id":"1456adc4-e4c6-4d7f-bae8-e5ab7f6d216b","system_id":"levelo_inurba_marseille","lat":43.29272,"lon":5.3684,"is_reserved":false,"is_disabled":false,"rental_uris":{"android":"levelo://app?vid=1456adc4-e4c6-4d7f-bae8-e5ab7f6d216b","ios":"levelo://app?vid=1456adc4-e4c6-4d7f-bae8-e5ab7f6d216b"},"vehicle_type_id":"4","last_reported":1719004122,"current_range_meters":0,"station_id":"ce4bhbp2rcd13ifvqesg","pricing_plan_id":"cebpf4jnsgd1na2vs0mg"},{"bike_id":"65acec01-0b28-4b7b-a31e-7247702f3143","system_id":"levelo_inurba_marseille","lat":43.292749,"lon":5.368402,"is_reserved":false,"is_disabled":false,"rental_uris":{"android":"levelo://app?vid=65acec01-0b28-4b7b-a31e-7247702f3143","ios":"levelo://app?vid=65acec01-0b28-4b7b-a31e-7247702f3143"},"vehicle_type_id":"4","last_reported":1719004122,"current_range_meters":28000,"station_id":"ce4bhbp2rcd13ifvqesg","pricing_plan_id":"cebpf4jnsgd1na2vs0mg"},{"bike_id":"db26e27d-e58d-4415-970f-6b556a8076b2","system_id":"levelo_inurba_marseille","lat":43.29253,"lon":5.36636,"is_reserved":false,"is_disabled":false,"rental_uris":{"android":"levelo://app?vid=db26e27d-e58d-4415-970f-6b556a8076b2","ios":"levelo://app?vid=db26e27d-e58d-4415-970f-6b556a8076b2"},"vehicle_type_id":"4","last_reported":1719004122,"current_range_meters":18800,"station_id":"","pricing_plan_id":"cebpf4jnsgd1na2vs0mg"},{"bike_id":"c9443ceb-e8c0-496b-b949-84ebd05e2555","system_id":"levelo_inurba_marseille","lat":43.29747,"lon":5.385399,"is_reserved":false,"is_disabled":false,"rental_uris":{"android":"levelo://app?vid=c9443ceb-e8c0-496b-b949-84ebd05e2555","ios":"levelo://app?vid=c9443ceb-e8c0-496b-b949-84ebd05e2555"},"vehicle_type_id":"4","last_reported":1719004122,"current_range_meters":0,"station_id":"","pricing_plan_id":"cebpf4jnsgd1na2vs0mg"},{"bike_id":"16de247e-2b2e-4bef-8dcd-9b61d26d2d34","system_id":"levelo_inurba_marseille","lat":43.305994,"lon":5.393687,"is_reserved":false,"is_disabled":false,"rental_uris":{"android":"levelo://app?vid=16de247e-2b2e-4bef-8dcd-9b61d26d2d34","ios":"levelo://app?vid=16de247e-2b2e-4bef-8dcd-9b61d26d2d34"},"vehicle_type_id":"4","last_reported":1719004122,"current_range_meters":23200,"station_id":"ce4bh0p2rcd13ifvqd80","pricing_plan_id":"cebpf4jnsgd1na2vs0mg"},{"bike_id":"73714354-7f30-4dd3-b934-5e6178f6219a","system_id":"levelo_inurba_marseille","lat":43.2936,"lon":5.37835,"is_reserved":false,"is_disabled":false,"rental_uris":{"android":"levelo://app?vid=73714354-7f30-4dd3-b934-5e6178f6219a","ios":"levelo://app?vid=73714354-7f30-4dd3-b934-5e6178f6219a"},"vehicle_type_id":"4","last_reported":1719004122,"current_range_meters":28800,"station_id":"ce4bgjh2rcd13ifvqbf0","pricing_plan_id":"cebpf4jnsgd1na2vs0mg"},{"bike_id":"eb229c57-8bea-4be5-8f8a-ee029fb4bd0f","system_id":"levelo_inurba_marseille","lat":43.292311,"lon":5.360731,"is_reserved":false,"is_disabled":false,"rental_uris":{"android":"levelo://app?vid=eb229c57-8bea-4be5-8f8a-ee029fb4bd0f","ios":"levelo://app?vid=eb229c57-8bea-4be5-8f8a-ee029fb4bd0f"},"vehicle_type_id":"4","last_reported":1719004122,"current_range_meters":0,"station_id":"ce4bhbh2rcd13ifvqeqg","pricing_plan_id":"cebpf4jnsgd1na2vs0mg"},{"bike_id":"934da5fb-f36a-48cc-a249-22d1ae5e19be","system_id":"levelo_inurba_marseille","lat":43.292311,"lon":5.360731,"is_reserved":false,"is_disabled":false,"rental_uris":{"android":"levelo://app?vid=934da5fb-f36a-48cc-a249-22d1ae5e19be","ios":"levelo://app?vid=934da5fb-f36a-48cc-a249-22d1ae5e19be"},"vehicle_type_id":"4","last_reported":1719004122,"current_range_meters":0,"station_id":"ce4bhbh2rcd13ifvqeqg","pricing_plan_id":"cebpf4jnsgd1na2vs0mg"},{"bike_id":"c03f7a04-d747-4781-872e-2b1862a7a6ec","system_id":"levelo_inurba_marseille","lat":43.298764,"lon":5.388973,"is_reserved":false,"is_disabled":false,"rental_uris":{"android":"levelo://app?vid=c03f7a04-d747-4781-872e-2b1862a7a6ec","ios":"levelo://app?vid=c03f7a04-d747-4781-872e-2b1862a7a6ec"},"vehicle_type_id":"4","last_reported":1719004122,"current_range_meters":31200,"station_id":"ce4bh392rcd13ifvqdl0","pricing_plan_id":"cebpf4jnsgd1na2vs0mg"},{"bike_id":"a0138c55-b7d7-4460-85ae-26892f8ceadf","system_id":"levelo_inurba_marseille","lat":43.298764,"lon":5.388973,"is_reserved":false,"is_disabled":false,"rental_uris":{"android":"levelo://app?vid=a0138c55-b7d7-4460-85ae-26892f8ceadf","ios":"levelo://app?vid=a0138c55-b7d7-4460-85ae-26892f8ceadf"},"vehicle_type_id":"4","last_reported":1719004122,"current_range_meters":30800,"station_id":"ce4bh392rcd13ifvqdl0","pricing_plan_id":"cebpf4jnsgd1na2vs0mg"},{"bike_id":"f20ff119-8e36-4041-9cf7-4f571317c0a4","system_id":"levelo_inurba_marseille","lat":43.29878,"lon":5.38907,"is_reserved":false,"is_disabled":false,"rental_uris":{"android":"levelo://app?vid=f20ff119-8e36-4041-9cf7-4f571317c0a4","ios":"levelo://app?vid=f20ff119-8e36-4041-9cf7-4f571317c0a4"},"vehicle_type_id":"4","last_reported":1719004122,"current_range_meters":28800,"station_id":"ce4bh392rcd13ifvqdl0","pricing_plan_id":"cebpf4jnsgd1na2vs0mg"},{"bike_id":"d4f1e47c-ece6-4260-a9dd-96d0b6f601d5","system_id":"levelo_inurba_marseille","lat":43.298764,"lon":5.388973,"is_reserved":false,"is_disabled":false,"rental_uris":{"android":"levelo://app?vid=d4f1e47c-ece6-4260-a9dd-96d0b6f601d5","ios":"levelo://app?vid=d4f1e47c-ece6-4260-a9dd-96d0b6f601d5"},"vehicle_type_id":"4","last_reported":1719004122,"current_range_meters":22000,"station_id":"ce4bh392rcd13ifvqdl0","pricing_plan_id":"cebpf4jnsgd1na2vs0mg"},{"bike_id":"e12cb9fb-861e-4c10-ac0e-52b97c2c1519","system_id":"levelo_inurba_marseille","lat":43.29571,"lon":5.38534,"is_reserved":false,"is_disabled":false,"rental_uris":{"android":"levelo://app?vid=e12cb9fb-861e-4c10-ac0e-52b97c2c1519","ios":"levelo://app?vid=e12cb9fb-861e-4c10-ac0e-52b97c2c1519"},"vehicle_type_id":"4","last_reported":1719004122,"current_range_meters":4000,"station_id":"","pricing_plan_id":"cebpf4jnsgd1na2vs0mg"},{"bike_id":"b7df3b27-8e96-4962-a114-d3a27d485588","system_id":"levelo_inurba_marseille","lat":43.291994,"lon":5.357886,"is_reserved":false,"is_disabled":false,"rental_uris":{"android":"levelo://app?vid=b7df3b27-8e96-4962-a114-d3a27d485588","ios":"levelo://app?vid=b7df3b27-8e96-4962-a114-d3a27d485588"},"vehicle_type_id":"4","last_reported":1719004122,"current_range_meters":0,"station_id":"ce4bhb12rcd13ifvqel0","pricing_plan_id":"cebpf4jnsgd1na2vs0mg"},{"bike_id":"c289c87e-06a1-4067-b63e-83e57163206b","system_id":"levelo_inurba_marseille","lat":43.29537,"lon":5.3854,"is_reserved":false,"is_disabled":false,"rental_uris":{"android":"levelo://app?vid=c289c87e-06a1-4067-b63e-83e57163206b","ios":"levelo://app?vid=c289c87e-06a1-4067-b63e-83e57163206b"},"vehicle_type_id":"4","last_reported":1719004122,"current_range_meters":26800,"station_id":"ce4bgih2rcd13ifvqba0","pricing_plan_id":"cebpf4jnsgd1na2vs0mg"},{"bike_id":"5d61b496-6357-4252-9153-17bde3862807","system_id":"levelo_inurba_marseille","lat":43.295333,"lon":5.385347,"is_reserved":false,"is_disabled":false,"rental_uris":{"android":"levelo://app?vid=5d61b496-6357-4252-9153-17bde3862807","ios":"levelo://app?vid=5d61b496-6357-4252-9153-17bde3862807"},"vehicle_type_id":"4","last_reported":1719004122,"current_range_meters":4800,"station_id":"ce4bgih2rcd13ifvqba0","pricing_plan_id":"cebpf4jnsgd1na2vs0mg"},{"bike_id":"70933cd8-c092-4e55-94e9-f3603ad27338","system_id":"levelo_inurba_marseille","lat":43.29532,"lon":5.38534,"is_reserved":false,"is_disabled":false,"rental_uris":{"android":"levelo://app?vid=70933cd8-c092-4e55-94e9-f3603ad27338","ios":"levelo://app?vid=70933cd8-c092-4e55-94e9-f3603ad27338"},"vehicle_type_id":"4","last_reported":1719004122,"current_range_meters":25600,"station_id":"ce4bgih2rcd13ifvqba0","pricing_plan_id":"cebpf4jnsgd1na2vs0mg"},{"bike_id":"b5642447-64a0-4bf6-8771-ec4e2da36e64","system_id":"levelo_inurba_marseille","lat":43.29538,"lon":5.38547,"is_reserved":false,"is_disabled":false,"rental_uris":{"android":"levelo://app?vid=b5642447-64a0-4bf6-8771-ec4e2da36e64","ios":"levelo://app?vid=b5642447-64a0-4bf6-8771-ec4e2da36e64"},"vehicle_type_id":"4","last_reported":1719004122,"current_range_meters":7200,"station_id":"ce4bgih2rcd13ifvqba0","pricing_plan_id":"cebpf4jnsgd1na2vs0mg"},{"bike_id":"2ae947fb-497b-4bca-b8e7-6c15d939bc54","system_id":"levelo_inurba_marseille","lat":43.29535,"lon":5.38542,"is_reserved":false,"is_disabled":false,"rental_uris":{"android":"levelo://app?vid=2ae947fb-497b-4bca-b8e7-6c15d939bc54","ios":"levelo://app?vid=2ae947fb-497b-4bca-b8e7-6c15d939bc54"},"vehicle_type_id":"4","last_reported":1719004122,"current_range_meters":16800,"station_id":"ce4bgih2rcd13ifvqba0","pricing_plan_id":"cebpf4jnsgd1na2vs0mg"},{"bike_id":"71a846a0-8f48-4acb-b4fa-55dd98a07e32","system_id":"levelo_inurba_marseille","lat":43.29537,"lon":5.38546,"is_reserved":false,"is_disabled":false,"rental_uris":{"android":"levelo://app?vid=71a846a0-8f48-4acb-b4fa-55dd98a07e32","ios":"levelo://app?vid=71a846a0-8f48-4acb-b4fa-55dd98a07e32"},"vehicle_type_id":"4","last_reported":1719004122,"current_range_meters":9600,"station_id":"ce4bgih2rcd13ifvqba0","pricing_plan_id":"cebpf4jnsgd1na2vs0mg"},{"bike_id":"a615ba21-8c07-4a42-a660-6459382a8991","system_id":"levelo_inurba_marseille","lat":43.29529,"lon":5.385581,"is_reserved":false,"is_disabled":false,"rental_uris":{"android":"levelo://app?vid=a615ba21-8c07-4a42-a660-6459382a8991","ios":"levelo://app?vid=a615ba21-8c07-4a42-a660-6459382a8991"},"vehicle_type_id":"4","last_reported":1719004122,"current_range_meters":21200,"station_id":"ce4bgih2rcd13ifvqba0","pricing_plan_id":"cebpf4jnsgd1na2vs0mg"},{"bike_id":"2e6c4156-729c-4e87-b0ce-225d67e8e31e","system_id":"levelo_inurba_marseille","lat":43.29529,"lon":5.385581,"is_reserved":false,"is_disabled":false,"rental_uris":{"android":"levelo://app?vid=2e6c4156-729c-4e87-b0ce-225d67e8e31e","ios":"levelo://app?vid=2e6c4156-729c-4e87-b0ce-225d67e8e31e"},"vehicle_type_id":"4","last_reported":1719004122,"current_range_meters":20400,"station_id":"ce4bgih2rcd13ifvqba0","pricing_plan_id":"cebpf4jnsgd1na2vs0mg"},{"bike_id":"6bc06876-166c-4d37-b875-c062131d9899","system_id":"levelo_inurba_marseille","lat":43.29529,"lon":5.385581,"is_reserved":false,"is_disabled":false,"rental_uris":{"android":"levelo://app?vid=6bc06876-166c-4d37-b875-c062131d9899","ios":"levelo://app?vid=6bc06876-166c-4d37-b875-c062131d9899"},"vehicle_type_id":"4","last_reported":1719004122,"current_range_meters":12400,"station_id":"ce4bgih2rcd13ifvqba0","pricing_plan_id":"cebpf4jnsgd1na2vs0mg"},{"bike_id":"d30e99da-38ba-4556-a2a6-05046ed1e72c","system_id":"levelo_inurba_marseille","lat":43.29529,"lon":5.385581,"is_reserved":false,"is_disabled":false,"rental_uris":{"android":"levelo://app?vid=d30e99da-38ba-4556-a2a6-05046ed1e72c","ios":"levelo://app?vid=d30e99da-38ba-4556-a2a6-05046ed1e72c"},"vehicle_type_id":"4","last_reported":1719004122,"current_range_meters":31600,"station_id":"ce4bgih2rcd13ifvqba0","pricing_plan_id":"cebpf4jnsgd1na2vs0mg"},{"bike_id":"e9a6e598-4e6f-49ad-a1a7-4e57c9bcab94","system_id":"levelo_inurba_marseille","lat":43.29529,"lon":5.385581,"is_reserved":false,"is_disabled":false,"rental_uris":{"android":"levelo://app?vid=e9a6e598-4e6f-49ad-a1a7-4e57c9bcab94","ios":"levelo://app?vid=e9a6e598-4e6f-49ad-a1a7-4e57c9bcab94"},"vehicle_type_id":"4","last_reported":1719004122,"current_range_meters":4000,"station_id":"ce4bgih2rcd13ifvqba0","pricing_plan_id":"cebpf4jnsgd1na2vs0mg"},{"bike_id":"88e6e588-3234-4197-bf50-ff7642f38f5f","system_id":"levelo_inurba_marseille","lat":43.29536,"lon":5.38553,"is_reserved":false,"is_disabled":false,"rental_uris":{"android":"levelo://app?vid=88e6e588-3234-4197-bf50-ff7642f38f5f","ios":"levelo://app?vid=88e6e588-3234-4197-bf50-ff7642f38f5f"},"vehicle_type_id":"4","last_reported":1719004122,"current_range_meters":16400,"station_id":"ce4bgih2rcd13ifvqba0","pricing_plan_id":"cebpf4jnsgd1na2vs0mg"},{"bike_id":"e201af57-2de4-49d0-8a40-3a138c5c6ae4","system_id":"levelo_inurba_marseille","lat":43.29535,"lon":5.38552,"is_reserved":false,"is_disabled":false,"rental_uris":{"android":"levelo://app?vid=e201af57-2de4-49d0-8a40-3a138c5c6ae4","ios":"levelo://app?vid=e201af57-2de4-49d0-8a40-3a138c5c6ae4"},"vehicle_type_id":"4","last_reported":1719004122,"current_range_meters":22800,"station_id":"ce4bgih2rcd13ifvqba0","pricing_plan_id":"cebpf4jnsgd1na2vs0mg"},{"bike_id":"e5402b2a-0975-4185-a5e8-521f15f6586b","system_id":"levelo_inurba_marseille","lat":43.29529,"lon":5.385581,"is_reserved":false,"is_disabled":false,"rental_uris":{"android":"levelo://app?vid=e5402b2a-0975-4185-a5e8-521f15f6586b","ios":"levelo://app?vid=e5402b2a-0975-4185-a5e8-521f15f6586b"},"vehicle_type_id":"4","last_reported":1719004122,"current_range_meters":24400,"station_id":"ce4bgih2rcd13ifvqba0","pricing_plan_id":"cebpf4jnsgd1na2vs0mg"},{"bike_id":"d0c8b537-8cae-436e-b87a-0d2d6fef5b77","system_id":"levelo_inurba_marseille","lat":43.29529,"lon":5.385581,"is_reserved":false,"is_disabled":false,"rental_uris":{"android":"levelo://app?vid=d0c8b537-8cae-436e-b87a-0d2d6fef5b77","ios":"levelo://app?vid=d0c8b537-8cae-436e-b87a-0d2d6fef5b77"},"vehicle_type_id":"4","last_reported":1719004122,"current_range_meters":24000,"station_id":"ce4bgih2rcd13ifvqba0","pricing_plan_id":"cebpf4jnsgd1na2vs0mg"},{"bike_id":"6f9802f1-c519-4584-8711-201403f51643","system_id":"levelo_inurba_marseille","lat":43.290779,"lon":5.371482,"is_reserved":false,"is_disabled":false,"rental_uris":{"android":"levelo://app?vid=6f9802f1-c519-4584-8711-201403f51643","ios":"levelo://app?vid=6f9802f1-c519-4584-8711-201403f51643"},"vehicle_type_id":"4","last_reported":1719004122,"current_range_meters":0,"station_id":"ce4bh5p2rcd13ifvqe4g","pricing_plan_id":"cebpf4jnsgd1na2vs0mg"},{"bike_id":"739f58a7-82e5-42e0-9fc5-3fa44dc0aa65","system_id":"levelo_inurba_marseille","lat":43.290631,"lon":5.359244,"is_reserved":false,"is_disabled":false,"rental_uris":{"android":"levelo://app?vid=739f58a7-82e5-42e0-9fc5-3fa44dc0aa65","ios":"levelo://app?vid=739f58a7-82e5-42e0-9fc5-3fa44dc0aa65"},"vehicle_type_id":"4","last_reported":1719004122,"current_range_meters":20800,"station_id":"ce4bha92rcd13ifvqeg0","pricing_plan_id":"cebpf4jnsgd1na2vs0mg"},{"bike_id":"6f29f8d9-0d48-4f4a-a242-3e8cb0c5bd48","system_id":"levelo_inurba_marseille","lat":43.29425,"lon":5.38618,"is_reserved":false,"is_disabled":false,"rental_uris":{"android":"levelo://app?vid=6f29f8d9-0d48-4f4a-a242-3e8cb0c5bd48","ios":"levelo://app?vid=6f29f8d9-0d48-4f4a-a242-3e8cb0c5bd48"},"vehicle_type_id":"4","last_reported":1719004122,"current_range_meters":6000,"station_id":"ce4bh2h2rcd13ifvqdh0","pricing_plan_id":"cebpf4jnsgd1na2vs0mg"},{"bike_id":"ac5616c3-3d0f-4618-a1cc-b4efbd8cc92e","system_id":"levelo_inurba_marseille","lat":43.29425,"lon":5.3862,"is_reserved":false,"is_disabled":false,"rental_uris":{"android":"levelo://app?vid=ac5616c3-3d0f-4618-a1cc-b4efbd8cc92e","ios":"levelo://app?vid=ac5616c3-3d0f-4618-a1cc-b4efbd8cc92e"},"vehicle_type_id":"4","last_reported":1719004122,"current_range_meters":0,"station_id":"ce4bh2h2rcd13ifvqdh0","pricing_plan_id":"cebpf4jnsgd1na2vs0mg"},{"bike_id":"e0fd70f2-576b-416b-87a4-09897c79f30e","system_id":"levelo_inurba_marseille","lat":43.294162,"lon":5.386292,"is_reserved":false,"is_disabled":false,"rental_uris":{"android":"levelo://app?vid=e0fd70f2-576b-416b-87a4-09897c79f30e","ios":"levelo://app?vid=e0fd70f2-576b-416b-87a4-09897c79f30e"},"vehicle_type_id":"4","last_reported":1719004122,"current_range_meters":26400,"station_id":"ce4bh2h2rcd13ifvqdh0","pricing_plan_id":"cebpf4jnsgd1na2vs0mg"},{"bike_id":"0034413c-fc3e-4e4b-9241-97db948ad16f","system_id":"levelo_inurba_marseille","lat":43.29422,"lon":5.38618,"is_reserved":false,"is_disabled":false,"rental_uris":{"android":"levelo://app?vid=0034413c-fc3e-4e4b-9241-97db948ad16f","ios":"levelo://app?vid=0034413c-fc3e-4e4b-9241-97db948ad16f"},"vehicle_type_id":"4","last_reported":1719004122,"current_range_meters":10400,"station_id":"ce4bh2h2rcd13ifvqdh0","pricing_plan_id":"cebpf4jnsgd1na2vs0mg"},{"bike_id":"225ba511-6139-4fdc-8710-119cc897b5ef","system_id":"levelo_inurba_marseille","lat":43.294153,"lon":5.386305,"is_reserved":false,"is_disabled":false,"rental_uris":{"android":"levelo://app?vid=225ba511-6139-4fdc-8710-119cc897b5ef","ios":"levelo://app?vid=225ba511-6139-4fdc-8710-119cc897b5ef"},"vehicle_type_id":"4","last_reported":1719004122,"current_range_meters":30800,"station_id":"ce4bh2h2rcd13ifvqdh0","pricing_plan_id":"cebpf4jnsgd1na2vs0mg"},{"bike_id":"952847a7-4492-4bc3-ae07-bb8ea42b91c2","system_id":"levelo_inurba_marseille","lat":43.294206,"lon":5.386178,"is_reserved":false,"is_disabled":false,"rental_uris":{"android":"levelo://app?vid=952847a7-4492-4bc3-ae07-bb8ea42b91c2","ios":"levelo://app?vid=952847a7-4492-4bc3-ae07-bb8ea42b91c2"},"vehicle_type_id":"4","last_reported":1719004122,"current_range_meters":28800,"station_id":"ce4bh2h2rcd13ifvqdh0","pricing_plan_id":"cebpf4jnsgd1na2vs0mg"},{"bike_id":"f358d95d-c97e-46bc-8633-dc6a25235fe7","system_id":"levelo_inurba_marseille","lat":43.294153,"lon":5.386305,"is_reserved":false,"is_disabled":false,"rental_uris":{"android":"levelo://app?vid=f358d95d-c97e-46bc-8633-dc6a25235fe7","ios":"levelo://app?vid=f358d95d-c97e-46bc-8633-dc6a25235fe7"},"vehicle_type_id":"4","last_reported":1719004122,"current_range_meters":15200,"station_id":"ce4bh2h2rcd13ifvqdh0","pricing_plan_id":"cebpf4jnsgd1na2vs0mg"},{"bike_id":"f31860b4-e538-452f-a736-5297f55b3708","system_id":"levelo_inurba_marseille","lat":43.29419,"lon":5.3862,"is_reserved":false,"is_disabled":false,"rental_uris":{"android":"levelo://app?vid=f31860b4-e538-452f-a736-5297f55b3708","ios":"levelo://app?vid=f31860b4-e538-452f-a736-5297f55b3708"},"vehicle_type_id":"4","last_reported":1719004122,"current_range_meters":25200,"station_id":"ce4bh2h2rcd13ifvqdh0","pricing_plan_id":"cebpf4jnsgd1na2vs0mg"},{"bike_id":"d361ac5a-c60b-4477-a3d8-8e2b26578312","system_id":"levelo_inurba_marseille","lat":43.29422,"lon":5.38626,"is_reserved":false,"is_disabled":false,"rental_uris":{"android":"levelo://app?vid=d361ac5a-c60b-4477-a3d8-8e2b26578312","ios":"levelo://app?vid=d361ac5a-c60b-4477-a3d8-8e2b26578312"},"vehicle_type_id":"4","last_reported":1719004122,"current_range_meters":25600,"station_id":"ce4bh2h2rcd13ifvqdh0","pricing_plan_id":"cebpf4jnsgd1na2vs0mg"},{"bike_id":"32b4c9fa-eeaf-423b-8045-2666c2976b80","system_id":"levelo_inurba_marseille","lat":43.294213,"lon":5.38626,"is_reserved":false,"is_disabled":false,"rental_uris":{"android":"levelo://app?vid=32b4c9fa-eeaf-423b-8045-2666c2976b80","ios":"levelo://app?vid=32b4c9fa-eeaf-423b-8045-2666c2976b80"},"vehicle_type_id":"4","last_reported":1719004122,"current_range_meters":20400,"station_id":"ce4bh2h2rcd13ifvqdh0","pricing_plan_id":"cebpf4jnsgd1na2vs0mg"},{"bike_id":"12711946-1e93-4e2c-8063-e28802bbb4b4","system_id":"levelo_inurba_marseille","lat":43.29418,"lon":5.3862,"is_reserved":false,"is_disabled":false,"rental_uris":{"android":"levelo://app?vid=12711946-1e93-4e2c-8063-e28802bbb4b4","ios":"levelo://app?vid=12711946-1e93-4e2c-8063-e28802bbb4b4"},"vehicle_type_id":"4","last_reported":1719004122,"current_range_meters":25600,"station_id":"ce4bh2h2rcd13ifvqdh0","pricing_plan_id":"cebpf4jnsgd1na2vs0mg"},{"bike_id":"d44641bc-16cd-434c-bc33-76e26d0d4415","system_id":"levelo_inurba_marseille","lat":43.29419,"lon":5.38622,"is_reserved":false,"is_disabled":false,"rental_uris":{"android":"levelo://app?vid=d44641bc-16cd-434c-bc33-76e26d0d4415","ios":"levelo://app?vid=d44641bc-16cd-434c-bc33-76e26d0d4415"},"vehicle_type_id":"4","last_reported":1719004122,"current_range_meters":10000,"station_id":"ce4bh2h2rcd13ifvqdh0","pricing_plan_id":"cebpf4jnsgd1na2vs0mg"},{"bike_id":"6aa14788-bccf-4c6a-9ab2-fdd2439a609e","system_id":"levelo_inurba_marseille","lat":43.29419,"lon":5.38623,"is_reserved":false,"is_disabled":false,"rental_uris":{"android":"levelo://app?vid=6aa14788-bccf-4c6a-9ab2-fdd2439a609e","ios":"levelo://app?vid=6aa14788-bccf-4c6a-9ab2-fdd2439a609e"},"vehicle_type_id":"4","last_reported":1719004122,"current_range_meters":20800,"station_id":"ce4bh2h2rcd13ifvqdh0","pricing_plan_id":"cebpf4jnsgd1na2vs0mg"},{"bike_id":"517d4c14-2b72-4f34-8a29-4ad826b5d25b","system_id":"levelo_inurba_marseille","lat":43.29414,"lon":5.38615,"is_reserved":false,"is_disabled":false,"rental_uris":{"android":"levelo://app?vid=517d4c14-2b72-4f34-8a29-4ad826b5d25b","ios":"levelo://app?vid=517d4c14-2b72-4f34-8a29-4ad826b5d25b"},"vehicle_type_id":"4","last_reported":1719004122,"current_range_meters":0,"station_id":"ce4bh2h2rcd13ifvqdh0","pricing_plan_id":"cebpf4jnsgd1na2vs0mg"},{"bike_id":"85af2f30-cc01-4700-a10a-3b6dd77d6a5d","system_id":"levelo_inurba_marseille","lat":43.29418,"lon":5.38623,"is_reserved":false,"is_disabled":false,"rental_uris":{"android":"levelo://app?vid=85af2f30-cc01-4700-a10a-3b6dd77d6a5d","ios":"levelo://app?vid=85af2f30-cc01-4700-a10a-3b6dd77d6a5d"},"vehicle_type_id":"4","last_reported":1719004122,"current_range_meters":4400,"station_id":"ce4bh2h2rcd13ifvqdh0","pricing_plan_id":"cebpf4jnsgd1na2vs0mg"},{"bike_id":"a7e061e0-2419-494a-a435-dab9772ee7d0","system_id":"levelo_inurba_marseille","lat":43.29417,"lon":5.38624,"is_reserved":false,"is_disabled":false,"rental_uris":{"android":"levelo://app?vid=a7e061e0-2419-494a-a435-dab9772ee7d0","ios":"levelo://app?vid=a7e061e0-2419-494a-a435-dab9772ee7d0"},"vehicle_type_id":"4","last_reported":1719004122,"current_range_meters":7200,"station_id":"ce4bh2h2rcd13ifvqdh0","pricing_plan_id":"cebpf4jnsgd1na2vs0mg"},{"bike_id":"81dddc43-1a1e-463e-b5e3-bdae30449428","system_id":"levelo_inurba_marseille","lat":43.294153,"lon":5.386305,"is_reserved":false,"is_disabled":false,"rental_uris":{"android":"levelo://app?vid=81dddc43-1a1e-463e-b5e3-bdae30449428","ios":"levelo://app?vid=81dddc43-1a1e-463e-b5e3-bdae30449428"},"vehicle_type_id":"4","last_reported":1719004122,"current_range_meters":8800,"station_id":"ce4bh2h2rcd13ifvqdh0","pricing_plan_id":"cebpf4jnsgd1na2vs0mg"},{"bike_id":"e9c214bd-25cf-41e7-aa9e-592a2d460c70","system_id":"levelo_inurba_marseille","lat":43.294187,"lon":5.386298,"is_reserved":false,"is_disabled":false,"rental_uris":{"android":"levelo://app?vid=e9c214bd-25cf-41e7-aa9e-592a2d460c70","ios":"levelo://app?vid=e9c214bd-25cf-41e7-aa9e-592a2d460c70"},"vehicle_type_id":"4","last_reported":1719004122,"current_range_meters":17200,"station_id":"ce4bh2h2rcd13ifvqdh0","pricing_plan_id":"cebpf4jnsgd1na2vs0mg"},{"bike_id":"0bc22cea-a0c4-492a-a2d5-2de842639f95","system_id":"levelo_inurba_marseille","lat":43.29415,"lon":5.38623,"is_reserved":false,"is_disabled":false,"rental_uris":{"android":"levelo://app?vid=0bc22cea-a0c4-492a-a2d5-2de842639f95","ios":"levelo://app?vid=0bc22cea-a0c4-492a-a2d5-2de842639f95"},"vehicle_type_id":"4","last_reported":1719004122,"current_range_meters":0,"station_id":"ce4bh2h2rcd13ifvqdh0","pricing_plan_id":"cebpf4jnsgd1na2vs0mg"},{"bike_id":"c0e72eb5-220d-47bf-8f31-e0ca8fde9184","system_id":"levelo_inurba_marseille","lat":43.294162,"lon":5.386292,"is_reserved":false,"is_disabled":false,"rental_uris":{"android":"levelo://app?vid=c0e72eb5-220d-47bf-8f31-e0ca8fde9184","ios":"levelo://app?vid=c0e72eb5-220d-47bf-8f31-e0ca8fde9184"},"vehicle_type_id":"4","last_reported":1719004122,"current_range_meters":29600,"station_id":"ce4bh2h2rcd13ifvqdh0","pricing_plan_id":"cebpf4jnsgd1na2vs0mg"},{"bike_id":"480f6b23-42ff-4c1c-be0d-4454466b743a","system_id":"levelo_inurba_marseille","lat":43.29413,"lon":5.3862,"is_reserved":false,"is_disabled":false,"rental_uris":{"android":"levelo://app?vid=480f6b23-42ff-4c1c-be0d-4454466b743a","ios":"levelo://app?vid=480f6b23-42ff-4c1c-be0d-4454466b743a"},"vehicle_type_id":"4","last_reported":1719004122,"current_range_meters":3200,"station_id":"ce4bh2h2rcd13ifvqdh0","pricing_plan_id":"cebpf4jnsgd1na2vs0mg"},{"bike_id":"2df616d2-a6d3-40bb-90a6-a9c63d2b51a3","system_id":"levelo_inurba_marseille","lat":43.29415,"lon":5.38624,"is_reserved":false,"is_disabled":false,"rental_uris":{"android":"levelo://app?vid=2df616d2-a6d3-40bb-90a6-a9c63d2b51a3","ios":"levelo://app?vid=2df616d2-a6d3-40bb-90a6-a9c63d2b51a3"},"vehicle_type_id":"4","last_reported":1719004122,"current_range_meters":31200,"station_id":"ce4bh2h2rcd13ifvqdh0","pricing_plan_id":"cebpf4jnsgd1na2vs0mg"},{"bike_id":"1dd52819-3853-4c45-bd3e-40cb81e92539","system_id":"levelo_inurba_marseille","lat":43.29413,"lon":5.38622,"is_reserved":false,"is_disabled":false,"rental_uris":{"android":"levelo://app?vid=1dd52819-3853-4c45-bd3e-40cb81e92539","ios":"levelo://app?vid=1dd52819-3853-4c45-bd3e-40cb81e92539"},"vehicle_type_id":"4","last_reported":1719004122,"current_range_meters":3200,"station_id":"ce4bh2h2rcd13ifvqdh0","pricing_plan_id":"cebpf4jnsgd1na2vs0mg"},{"bike_id":"42b981d7-927f-4379-b4ee-1fb780b58734","system_id":"levelo_inurba_marseille","lat":43.29416,"lon":5.386275,"is_reserved":false,"is_disabled":false,"rental_uris":{"android":"levelo://app?vid=42b981d7-927f-4379-b4ee-1fb780b58734","ios":"levelo://app?vid=42b981d7-927f-4379-b4ee-1fb780b58734"},"vehicle_type_id":"4","last_reported":1719004122,"current_range_meters":0,"station_id":"ce4bh2h2rcd13ifvqdh0","pricing_plan_id":"cebpf4jnsgd1na2vs0mg"},{"bike_id":"90f7d7e5-3ec9-4ec7-8ab2-f64f288450f7","system_id":"levelo_inurba_marseille","lat":43.29414,"lon":5.38624,"is_reserved":false,"is_disabled":false,"rental_uris":{"android":"levelo://app?vid=90f7d7e5-3ec9-4ec7-8ab2-f64f288450f7","ios":"levelo://app?vid=90f7d7e5-3ec9-4ec7-8ab2-f64f288450f7"},"vehicle_type_id":"4","last_reported":1719004122,"current_range_meters":800,"station_id":"ce4bh2h2rcd13ifvqdh0","pricing_plan_id":"cebpf4jnsgd1na2vs0mg"},{"bike_id":"1ae0b779-ff43-4843-bc70-6940b765e77a","system_id":"levelo_inurba_marseille","lat":43.29414,"lon":5.38625,"is_reserved":false,"is_disabled":false,"rental_uris":{"android":"levelo://app?vid=1ae0b779-ff43-4843-bc70-6940b765e77a","ios":"levelo://app?vid=1ae0b779-ff43-4843-bc70-6940b765e77a"},"vehicle_type_id":"4","last_reported":1719004122,"current_range_meters":0,"station_id":"ce4bh2h2rcd13ifvqdh0","pricing_plan_id":"cebpf4jnsgd1na2vs0mg"},{"bike_id":"dcac1b7d-ee02-4b7f-9936-f64f7ac507de","system_id":"levelo_inurba_marseille","lat":43.29415,"lon":5.38628,"is_reserved":false,"is_disabled":false,"rental_uris":{"android":"levelo://app?vid=dcac1b7d-ee02-4b7f-9936-f64f7ac507de","ios":"levelo://app?vid=dcac1b7d-ee02-4b7f-9936-f64f7ac507de"},"vehicle_type_id":"4","last_reported":1719004122,"current_range_meters":3200,"station_id":"ce4bh2h2rcd13ifvqdh0","pricing_plan_id":"cebpf4jnsgd1na2vs0mg"},{"bike_id":"062f29e9-31ae-4e76-a300-e61732244d17","system_id":"levelo_inurba_marseille","lat":43.29419,"lon":5.38636,"is_reserved":false,"is_disabled":false,"rental_uris":{"android":"levelo://app?vid=062f29e9-31ae-4e76-a300-e61732244d17","ios":"levelo://app?vid=062f29e9-31ae-4e76-a300-e61732244d17"},"vehicle_type_id":"4","last_reported":1719004122,"current_range_meters":30400,"station_id":"ce4bh2h2rcd13ifvqdh0","pricing_plan_id":"cebpf4jnsgd1na2vs0mg"},{"bike_id":"3e8ec3ba-36fc-4b3c-ad8c-91bf690f0d1c","system_id":"levelo_inurba_marseille","lat":43.29409,"lon":5.38618,"is_reserved":false,"is_disabled":false,"rental_uris":{"android":"levelo://app?vid=3e8ec3ba-36fc-4b3c-ad8c-91bf690f0d1c","ios":"levelo://app?vid=3e8ec3ba-36fc-4b3c-ad8c-91bf690f0d1c"},"vehicle_type_id":"4","last_reported":1719004122,"current_range_meters":7200,"station_id":"ce4bh2h2rcd13ifvqdh0","pricing_plan_id":"cebpf4jnsgd1na2vs0mg"},{"bike_id":"5774f055-918e-4bed-b9ba-d41657f0039b","system_id":"levelo_inurba_marseille","lat":43.29416,"lon":5.38631,"is_reserved":false,"is_disabled":false,"rental_uris":{"android":"levelo://app?vid=5774f055-918e-4bed-b9ba-d41657f0039b","ios":"levelo://app?vid=5774f055-918e-4bed-b9ba-d41657f0039b"},"vehicle_type_id":"4","last_reported":1719004122,"current_range_meters":9600,"station_id":"ce4bh2h2rcd13ifvqdh0","pricing_plan_id":"cebpf4jnsgd1na2vs0mg"},{"bike_id":"64e141d4-4384-4dbd-bed9-58d825d5c2b5","system_id":"levelo_inurba_marseille","lat":43.29416,"lon":5.38631,"is_reserved":false,"is_disabled":false,"rental_uris":{"android":"levelo://app?vid=64e141d4-4384-4dbd-bed9-58d825d5c2b5","ios":"levelo://app?vid=64e141d4-4384-4dbd-bed9-58d825d5c2b5"},"vehicle_type_id":"4","last_reported":1719004122,"current_range_meters":11200,"station_id":"ce4bh2h2rcd13ifvqdh0","pricing_plan_id":"cebpf4jnsgd1na2vs0mg"},{"bike_id":"1f671816-ca76-49a5-8cd9-0c7bbea0794d","system_id":"levelo_inurba_marseille","lat":43.29411,"lon":5.38622,"is_reserved":false,"is_disabled":false,"rental_uris":{"android":"levelo://app?vid=1f671816-ca76-49a5-8cd9-0c7bbea0794d","ios":"levelo://app?vid=1f671816-ca76-49a5-8cd9-0c7bbea0794d"},"vehicle_type_id":"4","last_reported":1719004122,"current_range_meters":21200,"station_id":"ce4bh2h2rcd13ifvqdh0","pricing_plan_id":"cebpf4jnsgd1na2vs0mg"},{"bike_id":"14671592-9cc1-46bf-a583-f92c6a569e8e","system_id":"levelo_inurba_marseille","lat":43.2941,"lon":5.386203,"is_reserved":false,"is_disabled":false,"rental_uris":{"android":"levelo://app?vid=14671592-9cc1-46bf-a583-f92c6a569e8e","ios":"levelo://app?vid=14671592-9cc1-46bf-a583-f92c6a569e8e"},"vehicle_type_id":"4","last_reported":1719004122,"current_range_meters":9200,"station_id":"ce4bh2h2rcd13ifvqdh0","pricing_plan_id":"cebpf4jnsgd1na2vs0mg"},{"bike_id":"d2a3df0f-acad-4032-8d86-37c7c567d3ed","system_id":"levelo_inurba_marseille","lat":43.294127,"lon":5.386257,"is_reserved":false,"is_disabled":false,"rental_uris":{"android":"levelo://app?vid=d2a3df0f-acad-4032-8d86-37c7c567d3ed","ios":"levelo://app?vid=d2a3df0f-acad-4032-8d86-37c7c567d3ed"},"vehicle_type_id":"4","last_reported":1719004122,"current_range_meters":9200,"station_id":"ce4bh2h2rcd13ifvqdh0","pricing_plan_id":"cebpf4jnsgd1na2vs0mg"},{"bike_id":"2dd21fd1-2104-4ff1-bf4e-c73857d89132","system_id":"levelo_inurba_marseille","lat":43.28941,"lon":5.36636,"is_reserved":false,"is_disabled":false,"rental_uris":{"android":"levelo://app?vid=2dd21fd1-2104-4ff1-bf4e-c73857d89132","ios":"levelo://app?vid=2dd21fd1-2104-4ff1-bf4e-c73857d89132"},"vehicle_type_id":"4","last_reported":1719004122,"current_range_meters":0,"station_id":"ce4bhap2rcd13ifvqek0","pricing_plan_id":"cebpf4jnsgd1na2vs0mg"},{"bike_id":"1c048c9f-9eb0-42c2-a5ac-bde34891858b","system_id":"levelo_inurba_marseille","lat":43.29413,"lon":5.38627,"is_reserved":false,"is_disabled":false,"rental_uris":{"android":"levelo://app?vid=1c048c9f-9eb0-42c2-a5ac-bde34891858b","ios":"levelo://app?vid=1c048c9f-9eb0-42c2-a5ac-bde34891858b"},"vehicle_type_id":"4","last_reported":1719004122,"current_range_meters":31200,"station_id":"ce4bh2h2rcd13ifvqdh0","pricing_plan_id":"cebpf4jnsgd1na2vs0mg"},{"bike_id":"75d726a4-8625-4829-a297-ff52c59cef38","system_id":"levelo_inurba_marseille","lat":43.29413,"lon":5.38627,"is_reserved":false,"is_disabled":false,"rental_uris":{"android":"levelo://app?vid=75d726a4-8625-4829-a297-ff52c59cef38","ios":"levelo://app?vid=75d726a4-8625-4829-a297-ff52c59cef38"},"vehicle_type_id":"4","last_reported":1719004122,"current_range_meters":0,"station_id":"ce4bh2h2rcd13ifvqdh0","pricing_plan_id":"cebpf4jnsgd1na2vs0mg"},{"bike_id":"4424c52c-548c-4ac3-a039-3f3d33f3f8b6","system_id":"levelo_inurba_marseille","lat":43.294153,"lon":5.386305,"is_reserved":false,"is_disabled":false,"rental_uris":{"android":"levelo://app?vid=4424c52c-548c-4ac3-a039-3f3d33f3f8b6","ios":"levelo://app?vid=4424c52c-548c-4ac3-a039-3f3d33f3f8b6"},"vehicle_type_id":"4","last_reported":1719004122,"current_range_meters":2400,"station_id":"ce4bh2h2rcd13ifvqdh0","pricing_plan_id":"cebpf4jnsgd1na2vs0mg"},{"bike_id":"fcb11bb9-35db-4cc5-8935-7ba41a563989","system_id":"levelo_inurba_marseille","lat":43.29414,"lon":5.38629,"is_reserved":false,"is_disabled":false,"rental_uris":{"android":"levelo://app?vid=fcb11bb9-35db-4cc5-8935-7ba41a563989","ios":"levelo://app?vid=fcb11bb9-35db-4cc5-8935-7ba41a563989"},"vehicle_type_id":"4","last_reported":1719004122,"current_range_meters":19200,"station_id":"ce4bh2h2rcd13ifvqdh0","pricing_plan_id":"cebpf4jnsgd1na2vs0mg"},{"bike_id":"8c5d5c85-f8c1-41f2-992f-29b9709d2105","system_id":"levelo_inurba_marseille","lat":43.29414,"lon":5.38629,"is_reserved":false,"is_disabled":false,"rental_uris":{"android":"levelo://app?vid=8c5d5c85-f8c1-41f2-992f-29b9709d2105","ios":"levelo://app?vid=8c5d5c85-f8c1-41f2-992f-29b9709d2105"},"vehicle_type_id":"4","last_reported":1719004122,"current_range_meters":16800,"station_id":"ce4bh2h2rcd13ifvqdh0","pricing_plan_id":"cebpf4jnsgd1na2vs0mg"},{"bike_id":"6e52aec6-7cb7-4c1a-9a5a-e5baa35482fe","system_id":"levelo_inurba_marseille","lat":43.29414,"lon":5.38631,"is_reserved":false,"is_disabled":false,"rental_uris":{"android":"levelo://app?vid=6e52aec6-7cb7-4c1a-9a5a-e5baa35482fe","ios":"levelo://app?vid=6e52aec6-7cb7-4c1a-9a5a-e5baa35482fe"},"vehicle_type_id":"4","last_reported":1719004122,"current_range_meters":26400,"station_id":"ce4bh2h2rcd13ifvqdh0","pricing_plan_id":"cebpf4jnsgd1na2vs0mg"},{"bike_id":"d9f63e3d-f337-4f1e-821e-c29b1481197d","system_id":"levelo_inurba_marseille","lat":43.29412,"lon":5.38629,"is_reserved":false,"is_disabled":false,"rental_uris":{"android":"levelo://app?vid=d9f63e3d-f337-4f1e-821e-c29b1481197d","ios":"levelo://app?vid=d9f63e3d-f337-4f1e-821e-c29b1481197d"},"vehicle_type_id":"4","last_reported":1719004122,"current_range_meters":21600,"station_id":"ce4bh2h2rcd13ifvqdh0","pricing_plan_id":"cebpf4jnsgd1na2vs0mg"},{"bike_id":"4ed8a592-d3be-407a-909c-8cd3fb92d9ab","system_id":"levelo_inurba_marseille","lat":43.290319,"lon":5.375732,"is_reserved":false,"is_disabled":false,"rental_uris":{"android":"levelo://app?vid=4ed8a592-d3be-407a-909c-8cd3fb92d9ab","ios":"levelo://app?vid=4ed8a592-d3be-407a-909c-8cd3fb92d9ab"},"vehicle_type_id":"4","last_reported":1719004122,"current_range_meters":24800,"station_id":"ce4bh692rcd13ifvqe90","pricing_plan_id":"cebpf4jnsgd1na2vs0mg"},{"bike_id":"7a62c2d9-4011-44a7-b042-fbaf7319f8c2","system_id":"levelo_inurba_marseille","lat":43.29414,"lon":5.38634,"is_reserved":false,"is_disabled":false,"rental_uris":{"android":"levelo://app?vid=7a62c2d9-4011-44a7-b042-fbaf7319f8c2","ios":"levelo://app?vid=7a62c2d9-4011-44a7-b042-fbaf7319f8c2"},"vehicle_type_id":"4","last_reported":1719004122,"current_range_meters":4400,"station_id":"ce4bh2h2rcd13ifvqdh0","pricing_plan_id":"cebpf4jnsgd1na2vs0mg"},{"bike_id":"4ccecaa6-6b48-4e6d-b4ff-bbb5661418bc","system_id":"levelo_inurba_marseille","lat":43.29417,"lon":5.3864,"is_reserved":false,"is_disabled":false,"rental_uris":{"android":"levelo://app?vid=4ccecaa6-6b48-4e6d-b4ff-bbb5661418bc","ios":"levelo://app?vid=4ccecaa6-6b48-4e6d-b4ff-bbb5661418bc"},"vehicle_type_id":"4","last_reported":1719004122,"current_range_meters":2400,"station_id":"ce4bh2h2rcd13ifvqdh0","pricing_plan_id":"cebpf4jnsgd1na2vs0mg"},{"bike_id":"d8b91ae8-d2d3-4047-b7b8-19a1a6a49be6","system_id":"levelo_inurba_marseille","lat":43.29413,"lon":5.38633,"is_reserved":false,"is_disabled":false,"rental_uris":{"android":"levelo://app?vid=d8b91ae8-d2d3-4047-b7b8-19a1a6a49be6","ios":"levelo://app?vid=d8b91ae8-d2d3-4047-b7b8-19a1a6a49be6"},"vehicle_type_id":"4","last_reported":1719004122,"current_range_meters":13600,"station_id":"ce4bh2h2rcd13ifvqdh0","pricing_plan_id":"cebpf4jnsgd1na2vs0mg"},{"bike_id":"00bdb62d-fff9-4e4f-8319-66037af887f3","system_id":"levelo_inurba_marseille","lat":43.294163,"lon":5.386397,"is_reserved":false,"is_disabled":false,"rental_uris":{"android":"levelo://app?vid=00bdb62d-fff9-4e4f-8319-66037af887f3","ios":"levelo://app?vid=00bdb62d-fff9-4e4f-8319-66037af887f3"},"vehicle_type_id":"4","last_reported":1719004122,"current_range_meters":12800,"station_id":"ce4bh2h2rcd13ifvqdh0","pricing_plan_id":"cebpf4jnsgd1na2vs0mg"},{"bike_id":"3feef793-087d-4c67-9be6-4a85699f28ba","system_id":"levelo_inurba_marseille","lat":43.29408,"lon":5.38627,"is_reserved":false,"is_disabled":false,"rental_uris":{"android":"levelo://app?vid=3feef793-087d-4c67-9be6-4a85699f28ba","ios":"levelo://app?vid=3feef793-087d-4c67-9be6-4a85699f28ba"},"vehicle_type_id":"4","last_reported":1719004122,"current_range_meters":26000,"station_id":"ce4bh2h2rcd13ifvqdh0","pricing_plan_id":"cebpf4jnsgd1na2vs0mg"},{"bike_id":"ef656e04-a6d1-4312-8604-386863d6f5c8","system_id":"levelo_inurba_marseille","lat":43.29269,"lon":5.38434,"is_reserved":false,"is_disabled":false,"rental_uris":{"android":"levelo://app?vid=ef656e04-a6d1-4312-8604-386863d6f5c8","ios":"levelo://app?vid=ef656e04-a6d1-4312-8604-386863d6f5c8"},"vehicle_type_id":"4","last_reported":1719004122,"current_range_meters":30400,"station_id":"ce4bh692rcd13ifvqea0","pricing_plan_id":"cebpf4jnsgd1na2vs0mg"},{"bike_id":"d382f3bd-ca15-4d03-83e8-d3241ffe6c30","system_id":"levelo_inurba_marseille","lat":43.29269,"lon":5.38436,"is_reserved":false,"is_disabled":false,"rental_uris":{"android":"levelo://app?vid=d382f3bd-ca15-4d03-83e8-d3241ffe6c30","ios":"levelo://app?vid=d382f3bd-ca15-4d03-83e8-d3241ffe6c30"},"vehicle_type_id":"4","last_reported":1719004122,"current_range_meters":21200,"station_id":"ce4bh692rcd13ifvqea0","pricing_plan_id":"cebpf4jnsgd1na2vs0mg"},{"bike_id":"3ebdef1a-2fbb-4c49-acc2-8fdd14135d2b","system_id":"levelo_inurba_marseille","lat":43.292683,"lon":5.384408,"is_reserved":false,"is_disabled":false,"rental_uris":{"android":"levelo://app?vid=3ebdef1a-2fbb-4c49-acc2-8fdd14135d2b","ios":"levelo://app?vid=3ebdef1a-2fbb-4c49-acc2-8fdd14135d2b"},"vehicle_type_id":"4","last_reported":1719004122,"current_range_meters":12800,"station_id":"ce4bh692rcd13ifvqea0","pricing_plan_id":"cebpf4jnsgd1na2vs0mg"},{"bike_id":"9ef23268-1dd4-4cdf-90fb-45700eca1486","system_id":"levelo_inurba_marseille","lat":43.292642,"lon":5.384254,"is_reserved":false,"is_disabled":false,"rental_uris":{"android":"levelo://app?vid=9ef23268-1dd4-4cdf-90fb-45700eca1486","ios":"levelo://app?vid=9ef23268-1dd4-4cdf-90fb-45700eca1486"},"vehicle_type_id":"4","last_reported":1719004122,"current_range_meters":5600,"station_id":"ce4bh692rcd13ifvqea0","pricing_plan_id":"cebpf4jnsgd1na2vs0mg"},{"bike_id":"dcdc593a-c004-414b-85f9-6d63ebdf157b","system_id":"levelo_inurba_marseille","lat":43.29262,"lon":5.3843,"is_reserved":false,"is_disabled":false,"rental_uris":{"android":"levelo://app?vid=dcdc593a-c004-414b-85f9-6d63ebdf157b","ios":"levelo://app?vid=dcdc593a-c004-414b-85f9-6d63ebdf157b"},"vehicle_type_id":"4","last_reported":1719004122,"current_range_meters":4400,"station_id":"ce4bh692rcd13ifvqea0","pricing_plan_id":"cebpf4jnsgd1na2vs0mg"},{"bike_id":"286341b4-39a6-4e2e-99de-47ec4786b6d4","system_id":"levelo_inurba_marseille","lat":43.292642,"lon":5.384254,"is_reserved":false,"is_disabled":false,"rental_uris":{"android":"levelo://app?vid=286341b4-39a6-4e2e-99de-47ec4786b6d4","ios":"levelo://app?vid=286341b4-39a6-4e2e-99de-47ec4786b6d4"},"vehicle_type_id":"4","last_reported":1719004122,"current_range_meters":14800,"station_id":"ce4bh692rcd13ifvqea0","pricing_plan_id":"cebpf4jnsgd1na2vs0mg"},{"bike_id":"9a0e23b8-8e85-4409-be31-34497de02484","system_id":"levelo_inurba_marseille","lat":43.292642,"lon":5.384254,"is_reserved":false,"is_disabled":false,"rental_uris":{"android":"levelo://app?vid=9a0e23b8-8e85-4409-be31-34497de02484","ios":"levelo://app?vid=9a0e23b8-8e85-4409-be31-34497de02484"},"vehicle_type_id":"4","last_reported":1719004122,"current_range_meters":19600,"station_id":"ce4bh692rcd13ifvqea0","pricing_plan_id":"cebpf4jnsgd1na2vs0mg"},{"bike_id":"c75b6c09-c863-44d9-91f6-b73ac29b03b6","system_id":"levelo_inurba_marseille","lat":43.29266,"lon":5.3844,"is_reserved":false,"is_disabled":false,"rental_uris":{"android":"levelo://app?vid=c75b6c09-c863-44d9-91f6-b73ac29b03b6","ios":"levelo://app?vid=c75b6c09-c863-44d9-91f6-b73ac29b03b6"},"vehicle_type_id":"4","last_reported":1719004122,"current_range_meters":4400,"station_id":"ce4bh692rcd13ifvqea0","pricing_plan_id":"cebpf4jnsgd1na2vs0mg"},{"bike_id":"52dbb530-4abc-4ab2-98aa-899a91b48d6c","system_id":"levelo_inurba_marseille","lat":43.292642,"lon":5.384254,"is_reserved":false,"is_disabled":false,"rental_uris":{"android":"levelo://app?vid=52dbb530-4abc-4ab2-98aa-899a91b48d6c","ios":"levelo://app?vid=52dbb530-4abc-4ab2-98aa-899a91b48d6c"},"vehicle_type_id":"4","last_reported":1719004122,"current_range_meters":31200,"station_id":"ce4bh692rcd13ifvqea0","pricing_plan_id":"cebpf4jnsgd1na2vs0mg"},{"bike_id":"489511f9-1712-4957-b959-96a7ad7e5f95","system_id":"levelo_inurba_marseille","lat":43.292644,"lon":5.384257,"is_reserved":false,"is_disabled":false,"rental_uris":{"android":"levelo://app?vid=489511f9-1712-4957-b959-96a7ad7e5f95","ios":"levelo://app?vid=489511f9-1712-4957-b959-96a7ad7e5f95"},"vehicle_type_id":"4","last_reported":1719004122,"current_range_meters":6400,"station_id":"ce4bh692rcd13ifvqea0","pricing_plan_id":"cebpf4jnsgd1na2vs0mg"},{"bike_id":"609383c2-ec56-4a32-8b5b-2b3ea130cc2e","system_id":"levelo_inurba_marseille","lat":43.292642,"lon":5.384254,"is_reserved":false,"is_disabled":false,"rental_uris":{"android":"levelo://app?vid=609383c2-ec56-4a32-8b5b-2b3ea130cc2e","ios":"levelo://app?vid=609383c2-ec56-4a32-8b5b-2b3ea130cc2e"},"vehicle_type_id":"4","last_reported":1719004122,"current_range_meters":23200,"station_id":"ce4bh692rcd13ifvqea0","pricing_plan_id":"cebpf4jnsgd1na2vs0mg"},{"bike_id":"fe49c788-dc6d-41e1-98b7-3f306cf5712b","system_id":"levelo_inurba_marseille","lat":43.29263,"lon":5.38435,"is_reserved":false,"is_disabled":false,"rental_uris":{"android":"levelo://app?vid=fe49c788-dc6d-41e1-98b7-3f306cf5712b","ios":"levelo://app?vid=fe49c788-dc6d-41e1-98b7-3f306cf5712b"},"vehicle_type_id":"4","last_reported":1719004122,"current_range_meters":19600,"station_id":"ce4bh692rcd13ifvqea0","pricing_plan_id":"cebpf4jnsgd1na2vs0mg"},{"bike_id":"da91b70b-eb36-4cc4-808a-0ae07c590f6b","system_id":"levelo_inurba_marseille","lat":43.29262,"lon":5.38433,"is_reserved":false,"is_disabled":false,"rental_uris":{"android":"levelo://app?vid=da91b70b-eb36-4cc4-808a-0ae07c590f6b","ios":"levelo://app?vid=da91b70b-eb36-4cc4-808a-0ae07c590f6b"},"vehicle_type_id":"4","last_reported":1719004122,"current_range_meters":10400,"station_id":"ce4bh692rcd13ifvqea0","pricing_plan_id":"cebpf4jnsgd1na2vs0mg"},{"bike_id":"786beef9-b881-4745-911b-288fd02c8b58","system_id":"levelo_inurba_marseille","lat":43.29263,"lon":5.38436,"is_reserved":false,"is_disabled":false,"rental_uris":{"android":"levelo://app?vid=786beef9-b881-4745-911b-288fd02c8b58","ios":"levelo://app?vid=786beef9-b881-4745-911b-288fd02c8b58"},"vehicle_type_id":"4","last_reported":1719004122,"current_range_meters":4400,"station_id":"ce4bh692rcd13ifvqea0","pricing_plan_id":"cebpf4jnsgd1na2vs0mg"},{"bike_id":"2b70adbf-5ab3-485f-815e-1f1bf438e103","system_id":"levelo_inurba_marseille","lat":43.292627,"lon":5.384362,"is_reserved":false,"is_disabled":false,"rental_uris":{"android":"levelo://app?vid=2b70adbf-5ab3-485f-815e-1f1bf438e103","ios":"levelo://app?vid=2b70adbf-5ab3-485f-815e-1f1bf438e103"},"vehicle_type_id":"4","last_reported":1719004122,"current_range_meters":23600,"station_id":"ce4bh692rcd13ifvqea0","pricing_plan_id":"cebpf4jnsgd1na2vs0mg"},{"bike_id":"013dcf6d-6a84-442d-9d53-d0c4faa03d85","system_id":"levelo_inurba_marseille","lat":43.29263,"lon":5.38437,"is_reserved":false,"is_disabled":false,"rental_uris":{"android":"levelo://app?vid=013dcf6d-6a84-442d-9d53-d0c4faa03d85","ios":"levelo://app?vid=013dcf6d-6a84-442d-9d53-d0c4faa03d85"},"vehicle_type_id":"4","last_reported":1719004122,"current_range_meters":13200,"station_id":"ce4bh692rcd13ifvqea0","pricing_plan_id":"cebpf4jnsgd1na2vs0mg"},{"bike_id":"378be679-8267-4cab-9f94-d3a0740fe7c0","system_id":"levelo_inurba_marseille","lat":43.29263,"lon":5.38438,"is_reserved":false,"is_disabled":false,"rental_uris":{"android":"levelo://app?vid=378be679-8267-4cab-9f94-d3a0740fe7c0","ios":"levelo://app?vid=378be679-8267-4cab-9f94-d3a0740fe7c0"},"vehicle_type_id":"4","last_reported":1719004122,"current_range_meters":29200,"station_id":"ce4bh692rcd13ifvqea0","pricing_plan_id":"cebpf4jnsgd1na2vs0mg"},{"bike_id":"7ed71ab7-b939-454e-9c93-68c2d38c7010","system_id":"levelo_inurba_marseille","lat":43.29268,"lon":5.3845,"is_reserved":false,"is_disabled":false,"rental_uris":{"android":"levelo://app?vid=7ed71ab7-b939-454e-9c93-68c2d38c7010","ios":"levelo://app?vid=7ed71ab7-b939-454e-9c93-68c2d38c7010"},"vehicle_type_id":"4","last_reported":1719004122,"current_range_meters":13600,"station_id":"ce4bh692rcd13ifvqea0","pricing_plan_id":"cebpf4jnsgd1na2vs0mg"},{"bike_id":"47988ee0-99ce-462a-9912-193120a84c55","system_id":"levelo_inurba_marseille","lat":43.29263,"lon":5.3844,"is_reserved":false,"is_disabled":false,"rental_uris":{"android":"levelo://app?vid=47988ee0-99ce-462a-9912-193120a84c55","ios":"levelo://app?vid=47988ee0-99ce-462a-9912-193120a84c55"},"vehicle_type_id":"4","last_reported":1719004122,"current_range_meters":18400,"station_id":"ce4bh692rcd13ifvqea0","pricing_plan_id":"cebpf4jnsgd1na2vs0mg"},{"bike_id":"844ec1d8-d39f-47ae-b7d8-35e739596a4f","system_id":"levelo_inurba_marseille","lat":43.292644,"lon":5.384257,"is_reserved":false,"is_disabled":false,"rental_uris":{"android":"levelo://app?vid=844ec1d8-d39f-47ae-b7d8-35e739596a4f","ios":"levelo://app?vid=844ec1d8-d39f-47ae-b7d8-35e739596a4f"},"vehicle_type_id":"4","last_reported":1719004122,"current_range_meters":29200,"station_id":"ce4bh692rcd13ifvqea0","pricing_plan_id":"cebpf4jnsgd1na2vs0mg"},{"bike_id":"b95c2909-8b06-4c7a-bc04-e9ca1657ddf7","system_id":"levelo_inurba_marseille","lat":43.2926,"lon":5.38435,"is_reserved":false,"is_disabled":false,"rental_uris":{"android":"levelo://app?vid=b95c2909-8b06-4c7a-bc04-e9ca1657ddf7","ios":"levelo://app?vid=b95c2909-8b06-4c7a-bc04-e9ca1657ddf7"},"vehicle_type_id":"4","last_reported":1719004122,"current_range_meters":13200,"station_id":"ce4bh692rcd13ifvqea0","pricing_plan_id":"cebpf4jnsgd1na2vs0mg"},{"bike_id":"73850747-512e-410d-8460-13e2626c11f9","system_id":"levelo_inurba_marseille","lat":43.29262,"lon":5.38441,"is_reserved":false,"is_disabled":false,"rental_uris":{"android":"levelo://app?vid=73850747-512e-410d-8460-13e2626c11f9","ios":"levelo://app?vid=73850747-512e-410d-8460-13e2626c11f9"},"vehicle_type_id":"4","last_reported":1719004122,"current_range_meters":23600,"station_id":"ce4bh692rcd13ifvqea0","pricing_plan_id":"cebpf4jnsgd1na2vs0mg"},{"bike_id":"e56081a9-e520-48d0-b929-0f087ecd1ca5","system_id":"levelo_inurba_marseille","lat":43.29262,"lon":5.38441,"is_reserved":false,"is_disabled":false,"rental_uris":{"android":"levelo://app?vid=e56081a9-e520-48d0-b929-0f087ecd1ca5","ios":"levelo://app?vid=e56081a9-e520-48d0-b929-0f087ecd1ca5"},"vehicle_type_id":"4","last_reported":1719004122,"current_range_meters":0,"station_id":"ce4bh692rcd13ifvqea0","pricing_plan_id":"cebpf4jnsgd1na2vs0mg"},{"bike_id":"28ae4bbf-2ab5-4676-9caf-eab8c4ce79dc","system_id":"levelo_inurba_marseille","lat":43.29258,"lon":5.38433,"is_reserved":false,"is_disabled":false,"rental_uris":{"android":"levelo://app?vid=28ae4bbf-2ab5-4676-9caf-eab8c4ce79dc","ios":"levelo://app?vid=28ae4bbf-2ab5-4676-9caf-eab8c4ce79dc"},"vehicle_type_id":"4","last_reported":1719004122,"current_range_meters":5600,"station_id":"ce4bh692rcd13ifvqea0","pricing_plan_id":"cebpf4jnsgd1na2vs0mg"},{"bike_id":"9d1709b2-5d97-4d33-82d7-016964446476","system_id":"levelo_inurba_marseille","lat":43.2926,"lon":5.38439,"is_reserved":false,"is_disabled":false,"rental_uris":{"android":"levelo://app?vid=9d1709b2-5d97-4d33-82d7-016964446476","ios":"levelo://app?vid=9d1709b2-5d97-4d33-82d7-016964446476"},"vehicle_type_id":"4","last_reported":1719004122,"current_range_meters":31200,"station_id":"ce4bh692rcd13ifvqea0","pricing_plan_id":"cebpf4jnsgd1na2vs0mg"},{"bike_id":"c9dacf7f-0114-44b1-975f-09f2016e841a","system_id":"levelo_inurba_marseille","lat":43.29263,"lon":5.38446,"is_reserved":false,"is_disabled":false,"rental_uris":{"android":"levelo://app?vid=c9dacf7f-0114-44b1-975f-09f2016e841a","ios":"levelo://app?vid=c9dacf7f-0114-44b1-975f-09f2016e841a"},"vehicle_type_id":"4","last_reported":1719004122,"current_range_meters":10400,"station_id":"ce4bh692rcd13ifvqea0","pricing_plan_id":"cebpf4jnsgd1na2vs0mg"},{"bike_id":"4e0c348f-5ac6-429a-8f2f-3637af7addc7","system_id":"levelo_inurba_marseille","lat":43.292642,"lon":5.384254,"is_reserved":false,"is_disabled":false,"rental_uris":{"android":"levelo://app?vid=4e0c348f-5ac6-429a-8f2f-3637af7addc7","ios":"levelo://app?vid=4e0c348f-5ac6-429a-8f2f-3637af7addc7"},"vehicle_type_id":"4","last_reported":1719004122,"current_range_meters":20000,"station_id":"ce4bh692rcd13ifvqea0","pricing_plan_id":"cebpf4jnsgd1na2vs0mg"},{"bike_id":"7615ebb7-c5a8-4305-b835-f2c50c1b44a3","system_id":"levelo_inurba_marseille","lat":43.29261,"lon":5.38442,"is_reserved":false,"is_disabled":false,"rental_uris":{"android":"levelo://app?vid=7615ebb7-c5a8-4305-b835-f2c50c1b44a3","ios":"levelo://app?vid=7615ebb7-c5a8-4305-b835-f2c50c1b44a3"},"vehicle_type_id":"4","last_reported":1719004122,"current_range_meters":18400,"station_id":"ce4bh692rcd13ifvqea0","pricing_plan_id":"cebpf4jnsgd1na2vs0mg"},{"bike_id":"004b5913-88e5-4d37-a952-bcbb2b28b973","system_id":"levelo_inurba_marseille","lat":43.292642,"lon":5.384254,"is_reserved":false,"is_disabled":false,"rental_uris":{"android":"levelo://app?vid=004b5913-88e5-4d37-a952-bcbb2b28b973","ios":"levelo://app?vid=004b5913-88e5-4d37-a952-bcbb2b28b973"},"vehicle_type_id":"4","last_reported":1719004122,"current_range_meters":19600,"station_id":"ce4bh692rcd13ifvqea0","pricing_plan_id":"cebpf4jnsgd1na2vs0mg"},{"bike_id":"0ae7750b-8c9a-44fb-a037-1c457438f7a7","system_id":"levelo_inurba_marseille","lat":43.292644,"lon":5.384257,"is_reserved":false,"is_disabled":false,"rental_uris":{"android":"levelo://app?vid=0ae7750b-8c9a-44fb-a037-1c457438f7a7","ios":"levelo://app?vid=0ae7750b-8c9a-44fb-a037-1c457438f7a7"},"vehicle_type_id":"4","last_reported":1719004122,"current_range_meters":3200,"station_id":"ce4bh692rcd13ifvqea0","pricing_plan_id":"cebpf4jnsgd1na2vs0mg"},{"bike_id":"aa3edfd2-e8ab-4fe8-9709-4be997737a25","system_id":"levelo_inurba_marseille","lat":43.2926,"lon":5.384413,"is_reserved":false,"is_disabled":false,"rental_uris":{"android":"levelo://app?vid=aa3edfd2-e8ab-4fe8-9709-4be997737a25","ios":"levelo://app?vid=aa3edfd2-e8ab-4fe8-9709-4be997737a25"},"vehicle_type_id":"4","last_reported":1719004122,"current_range_meters":16800,"station_id":"ce4bh692rcd13ifvqea0","pricing_plan_id":"cebpf4jnsgd1na2vs0mg"},{"bike_id":"12653ad8-7038-465f-a4f8-4c005c4b6da2","system_id":"levelo_inurba_marseille","lat":43.29263,"lon":5.38448,"is_reserved":false,"is_disabled":false,"rental_uris":{"android":"levelo://app?vid=12653ad8-7038-465f-a4f8-4c005c4b6da2","ios":"levelo://app?vid=12653ad8-7038-465f-a4f8-4c005c4b6da2"},"vehicle_type_id":"4","last_reported":1719004122,"current_range_meters":27600,"station_id":"ce4bh692rcd13ifvqea0","pricing_plan_id":"cebpf4jnsgd1na2vs0mg"},{"bike_id":"aa35f03b-958d-4e9f-9364-6ecfc3a2e679","system_id":"levelo_inurba_marseille","lat":43.29257,"lon":5.38436,"is_reserved":false,"is_disabled":false,"rental_uris":{"android":"levelo://app?vid=aa35f03b-958d-4e9f-9364-6ecfc3a2e679","ios":"levelo://app?vid=aa35f03b-958d-4e9f-9364-6ecfc3a2e679"},"vehicle_type_id":"4","last_reported":1719004122,"current_range_meters":10800,"station_id":"ce4bh692rcd13ifvqea0","pricing_plan_id":"cebpf4jnsgd1na2vs0mg"},{"bike_id":"2477eee3-6e79-4230-85af-297eb7818181","system_id":"levelo_inurba_marseille","lat":43.29263,"lon":5.3845,"is_reserved":false,"is_disabled":false,"rental_uris":{"android":"levelo://app?vid=2477eee3-6e79-4230-85af-297eb7818181","ios":"levelo://app?vid=2477eee3-6e79-4230-85af-297eb7818181"},"vehicle_type_id":"4","last_reported":1719004122,"current_range_meters":19200,"station_id":"ce4bh692rcd13ifvqea0","pricing_plan_id":"cebpf4jnsgd1na2vs0mg"},{"bike_id":"c83a2627-fa02-44fd-8fa2-e4c062ff2cbe","system_id":"levelo_inurba_marseille","lat":43.29257,"lon":5.38437,"is_reserved":false,"is_disabled":false,"rental_uris":{"android":"levelo://app?vid=c83a2627-fa02-44fd-8fa2-e4c062ff2cbe","ios":"levelo://app?vid=c83a2627-fa02-44fd-8fa2-e4c062ff2cbe"},"vehicle_type_id":"4","last_reported":1719004122,"current_range_meters":6800,"station_id":"ce4bh692rcd13ifvqea0","pricing_plan_id":"cebpf4jnsgd1na2vs0mg"},{"bike_id":"501a18ba-a76e-4c44-83db-8e196aac9f0b","system_id":"levelo_inurba_marseille","lat":43.2926,"lon":5.38446,"is_reserved":false,"is_disabled":false,"rental_uris":{"android":"levelo://app?vid=501a18ba-a76e-4c44-83db-8e196aac9f0b","ios":"levelo://app?vid=501a18ba-a76e-4c44-83db-8e196aac9f0b"},"vehicle_type_id":"4","last_reported":1719004122,"current_range_meters":12800,"station_id":"ce4bh692rcd13ifvqea0","pricing_plan_id":"cebpf4jnsgd1na2vs0mg"},{"bike_id":"12d1e1ae-54da-4fd3-af8c-17884bc3afa0","system_id":"levelo_inurba_marseille","lat":43.29259,"lon":5.38445,"is_reserved":false,"is_disabled":false,"rental_uris":{"android":"levelo://app?vid=12d1e1ae-54da-4fd3-af8c-17884bc3afa0","ios":"levelo://app?vid=12d1e1ae-54da-4fd3-af8c-17884bc3afa0"},"vehicle_type_id":"4","last_reported":1719004122,"current_range_meters":30000,"station_id":"ce4bh692rcd13ifvqea0","pricing_plan_id":"cebpf4jnsgd1na2vs0mg"},{"bike_id":"6a2e00b6-7eb1-4bc3-8c1b-10405b4b69eb","system_id":"levelo_inurba_marseille","lat":43.29258,"lon":5.38443,"is_reserved":false,"is_disabled":false,"rental_uris":{"android":"levelo://app?vid=6a2e00b6-7eb1-4bc3-8c1b-10405b4b69eb","ios":"levelo://app?vid=6a2e00b6-7eb1-4bc3-8c1b-10405b4b69eb"},"vehicle_type_id":"4","last_reported":1719004122,"current_range_meters":4000,"station_id":"ce4bh692rcd13ifvqea0","pricing_plan_id":"cebpf4jnsgd1na2vs0mg"},{"bike_id":"a527abac-2e6d-4190-968c-3516248c8f20","system_id":"levelo_inurba_marseille","lat":43.29264,"lon":5.38457,"is_reserved":false,"is_disabled":false,"rental_uris":{"android":"levelo://app?vid=a527abac-2e6d-4190-968c-3516248c8f20","ios":"levelo://app?vid=a527abac-2e6d-4190-968c-3516248c8f20"},"vehicle_type_id":"4","last_reported":1719004122,"current_range_meters":31200,"station_id":"ce4bh692rcd13ifvqea0","pricing_plan_id":"cebpf4jnsgd1na2vs0mg"},{"bike_id":"9fc171c2-3945-4c8b-957b-000fdedcb978","system_id":"levelo_inurba_marseille","lat":43.29257,"lon":5.38442,"is_reserved":false,"is_disabled":false,"rental_uris":{"android":"levelo://app?vid=9fc171c2-3945-4c8b-957b-000fdedcb978","ios":"levelo://app?vid=9fc171c2-3945-4c8b-957b-000fdedcb978"},"vehicle_type_id":"4","last_reported":1719004122,"current_range_meters":31200,"station_id":"ce4bh692rcd13ifvqea0","pricing_plan_id":"cebpf4jnsgd1na2vs0mg"},{"bike_id":"c073fefb-2156-4eb0-b424-caaa2ee4573e","system_id":"levelo_inurba_marseille","lat":43.291883,"lon":5.382903,"is_reserved":false,"is_disabled":false,"rental_uris":{"android":"levelo://app?vid=c073fefb-2156-4eb0-b424-caaa2ee4573e","ios":"levelo://app?vid=c073fefb-2156-4eb0-b424-caaa2ee4573e"},"vehicle_type_id":"4","last_reported":1719004122,"current_range_meters":14000,"station_id":"","pricing_plan_id":"cebpf4jnsgd1na2vs0mg"},{"bike_id":"3f4dba2a-9019-4574-a042-54fb9131eef9","system_id":"levelo_inurba_marseille","lat":43.289468,"lon":5.363719,"is_reserved":false,"is_disabled":false,"rental_uris":{"android":"levelo://app?vid=3f4dba2a-9019-4574-a042-54fb9131eef9","ios":"levelo://app?vid=3f4dba2a-9019-4574-a042-54fb9131eef9"},"vehicle_type_id":"4","last_reported":1719004122,"current_range_meters":4800,"station_id":"ce4bhc92rcd13ifvqetg","pricing_plan_id":"cebpf4jnsgd1na2vs0mg"},{"bike_id":"ffd93057-1e96-4e86-99d1-ceac564c6a71","system_id":"levelo_inurba_marseille","lat":43.290104,"lon":5.356111,"is_reserved":false,"is_disabled":false,"rental_uris":{"android":"levelo://app?vid=ffd93057-1e96-4e86-99d1-ceac564c6a71","ios":"levelo://app?vid=ffd93057-1e96-4e86-99d1-ceac564c6a71"},"vehicle_type_id":"4","last_reported":1719004122,"current_range_meters":2000,"station_id":"ce4bhb92rcd13ifvqen0","pricing_plan_id":"cebpf4jnsgd1na2vs0mg"},{"bike_id":"3680740b-f35c-4e40-a4a1-f0d148cf5cfc","system_id":"levelo_inurba_marseille","lat":43.29001,"lon":5.35606,"is_reserved":false,"is_disabled":false,"rental_uris":{"android":"levelo://app?vid=3680740b-f35c-4e40-a4a1-f0d148cf5cfc","ios":"levelo://app?vid=3680740b-f35c-4e40-a4a1-f0d148cf5cfc"},"vehicle_type_id":"4","last_reported":1719004122,"current_range_meters":0,"station_id":"ce4bhb92rcd13ifvqen0","pricing_plan_id":"cebpf4jnsgd1na2vs0mg"},{"bike_id":"5819bdce-8c53-49d7-97aa-35f891921cf6","system_id":"levelo_inurba_marseille","lat":43.289307,"lon":5.38406,"is_reserved":false,"is_disabled":false,"rental_uris":{"android":"levelo://app?vid=5819bdce-8c53-49d7-97aa-35f891921cf6","ios":"levelo://app?vid=5819bdce-8c53-49d7-97aa-35f891921cf6"},"vehicle_type_id":"4","last_reported":1719004122,"current_range_meters":0,"station_id":"ce4bh612rcd13ifvqe6g","pricing_plan_id":"cebpf4jnsgd1na2vs0mg"},{"bike_id":"c781adbe-ac01-40fc-ae24-a4fa4e7e6699","system_id":"levelo_inurba_marseille","lat":43.290957,"lon":5.381287,"is_reserved":false,"is_disabled":false,"rental_uris":{"android":"levelo://app?vid=c781adbe-ac01-40fc-ae24-a4fa4e7e6699","ios":"levelo://app?vid=c781adbe-ac01-40fc-ae24-a4fa4e7e6699"},"vehicle_type_id":"4","last_reported":1719004122,"current_range_meters":0,"station_id":"ce4bh512rcd13ifvqe2g","pricing_plan_id":"cebpf4jnsgd1na2vs0mg"},{"bike_id":"b9f1a866-56b0-42f8-af43-b5069abc11f3","system_id":"levelo_inurba_marseille","lat":43.290995,"lon":5.381361,"is_reserved":false,"is_disabled":false,"rental_uris":{"android":"levelo://app?vid=b9f1a866-56b0-42f8-af43-b5069abc11f3","ios":"levelo://app?vid=b9f1a866-56b0-42f8-af43-b5069abc11f3"},"vehicle_type_id":"4","last_reported":1719004122,"current_range_meters":0,"station_id":"ce4bh512rcd13ifvqe2g","pricing_plan_id":"cebpf4jnsgd1na2vs0mg"},{"bike_id":"4f70b162-1264-4526-9829-b5b68ed037a1","system_id":"levelo_inurba_marseille","lat":43.290995,"lon":5.381361,"is_reserved":false,"is_disabled":false,"rental_uris":{"android":"levelo://app?vid=4f70b162-1264-4526-9829-b5b68ed037a1","ios":"levelo://app?vid=4f70b162-1264-4526-9829-b5b68ed037a1"},"vehicle_type_id":"4","last_reported":1719004122,"current_range_meters":30400,"station_id":"ce4bh512rcd13ifvqe2g","pricing_plan_id":"cebpf4jnsgd1na2vs0mg"},{"bike_id":"f88c699a-4cd0-4b49-8b1d-cd9870bc301c","system_id":"levelo_inurba_marseille","lat":43.290995,"lon":5.381361,"is_reserved":false,"is_disabled":false,"rental_uris":{"android":"levelo://app?vid=f88c699a-4cd0-4b49-8b1d-cd9870bc301c","ios":"levelo://app?vid=f88c699a-4cd0-4b49-8b1d-cd9870bc301c"},"vehicle_type_id":"4","last_reported":1719004122,"current_range_meters":28800,"station_id":"ce4bh512rcd13ifvqe2g","pricing_plan_id":"cebpf4jnsgd1na2vs0mg"},{"bike_id":"52d732ae-daca-45e4-a281-ddb686f3b9c7","system_id":"levelo_inurba_marseille","lat":43.297815,"lon":5.393548,"is_reserved":false,"is_disabled":false,"rental_uris":{"android":"levelo://app?vid=52d732ae-daca-45e4-a281-ddb686f3b9c7","ios":"levelo://app?vid=52d732ae-daca-45e4-a281-ddb686f3b9c7"},"vehicle_type_id":"4","last_reported":1719004122,"current_range_meters":20000,"station_id":"chh1huq6cuj3fo74tm60","pricing_plan_id":"cebpf4jnsgd1na2vs0mg"},{"bike_id":"77a45113-3bcd-4f22-aa30-001cb7c495cc","system_id":"levelo_inurba_marseille","lat":43.297815,"lon":5.393548,"is_reserved":false,"is_disabled":false,"rental_uris":{"android":"levelo://app?vid=77a45113-3bcd-4f22-aa30-001cb7c495cc","ios":"levelo://app?vid=77a45113-3bcd-4f22-aa30-001cb7c495cc"},"vehicle_type_id":"4","last_reported":1719004122,"current_range_meters":0,"station_id":"chh1huq6cuj3fo74tm60","pricing_plan_id":"cebpf4jnsgd1na2vs0mg"},{"bike_id":"2994925c-5248-4637-a008-0ff0ca958593","system_id":"levelo_inurba_marseille","lat":43.29787,"lon":5.3935,"is_reserved":false,"is_disabled":false,"rental_uris":{"android":"levelo://app?vid=2994925c-5248-4637-a008-0ff0ca958593","ios":"levelo://app?vid=2994925c-5248-4637-a008-0ff0ca958593"},"vehicle_type_id":"4","last_reported":1719004122,"current_range_meters":0,"station_id":"chh1huq6cuj3fo74tm60","pricing_plan_id":"cebpf4jnsgd1na2vs0mg"},{"bike_id":"c05f4c51-8d5b-49fc-8503-c18ce992a1e4","system_id":"levelo_inurba_marseille","lat":43.330442,"lon":5.389148,"is_reserved":false,"is_disabled":false,"rental_uris":{"android":"levelo://app?vid=c05f4c51-8d5b-49fc-8503-c18ce992a1e4","ios":"levelo://app?vid=c05f4c51-8d5b-49fc-8503-c18ce992a1e4"},"vehicle_type_id":"4","last_reported":1719004122,"current_range_meters":14000,"station_id":"ce4bhr92rcd13ifvqhrg","pricing_plan_id":"cebpf4jnsgd1na2vs0mg"},{"bike_id":"de33b865-370a-490a-8a6b-0e9dec0d3084","system_id":"levelo_inurba_marseille","lat":43.33025,"lon":5.39046,"is_reserved":false,"is_disabled":false,"rental_uris":{"android":"levelo://app?vid=de33b865-370a-490a-8a6b-0e9dec0d3084","ios":"levelo://app?vid=de33b865-370a-490a-8a6b-0e9dec0d3084"},"vehicle_type_id":"4","last_reported":1719004122,"current_range_meters":0,"station_id":"ce4bhr92rcd13ifvqhrg","pricing_plan_id":"cebpf4jnsgd1na2vs0mg"},{"bike_id":"64da5281-36b8-457c-943c-52a5c0d80e15","system_id":"levelo_inurba_marseille","lat":43.290094,"lon":5.381264,"is_reserved":false,"is_disabled":false,"rental_uris":{"android":"levelo://app?vid=64da5281-36b8-457c-943c-52a5c0d80e15","ios":"levelo://app?vid=64da5281-36b8-457c-943c-52a5c0d80e15"},"vehicle_type_id":"4","last_reported":1719004122,"current_range_meters":19600,"station_id":"ce4bh4p2rcd13ifvqe1g","pricing_plan_id":"cebpf4jnsgd1na2vs0mg"},{"bike_id":"f0e5c2f4-1c23-45c7-bf21-20fcd000a317","system_id":"levelo_inurba_marseille","lat":43.312609,"lon":5.401662,"is_reserved":false,"is_disabled":false,"rental_uris":{"android":"levelo://app?vid=f0e5c2f4-1c23-45c7-bf21-20fcd000a317","ios":"levelo://app?vid=f0e5c2f4-1c23-45c7-bf21-20fcd000a317"},"vehicle_type_id":"4","last_reported":1719004122,"current_range_meters":29600,"station_id":"ce4bh092rcd13ifvqd30","pricing_plan_id":"cebpf4jnsgd1na2vs0mg"},{"bike_id":"1537e98d-bc41-443b-9493-59cf6283b12c","system_id":"levelo_inurba_marseille","lat":43.312609,"lon":5.401662,"is_reserved":false,"is_disabled":false,"rental_uris":{"android":"levelo://app?vid=1537e98d-bc41-443b-9493-59cf6283b12c","ios":"levelo://app?vid=1537e98d-bc41-443b-9493-59cf6283b12c"},"vehicle_type_id":"4","last_reported":1719004122,"current_range_meters":14800,"station_id":"ce4bh092rcd13ifvqd30","pricing_plan_id":"cebpf4jnsgd1na2vs0mg"},{"bike_id":"05092e03-5cef-41c3-9575-df5db7507ebd","system_id":"levelo_inurba_marseille","lat":43.33739,"lon":5.37464,"is_reserved":false,"is_disabled":false,"rental_uris":{"android":"levelo://app?vid=05092e03-5cef-41c3-9575-df5db7507ebd","ios":"levelo://app?vid=05092e03-5cef-41c3-9575-df5db7507ebd"},"vehicle_type_id":"4","last_reported":1719004122,"current_range_meters":22000,"station_id":"","pricing_plan_id":"cebpf4jnsgd1na2vs0mg"},{"bike_id":"d689a06a-4369-4cef-9754-43dddd10e797","system_id":"levelo_inurba_marseille","lat":43.312609,"lon":5.401662,"is_reserved":false,"is_disabled":false,"rental_uris":{"android":"levelo://app?vid=d689a06a-4369-4cef-9754-43dddd10e797","ios":"levelo://app?vid=d689a06a-4369-4cef-9754-43dddd10e797"},"vehicle_type_id":"4","last_reported":1719004122,"current_range_meters":0,"station_id":"ce4bh092rcd13ifvqd30","pricing_plan_id":"cebpf4jnsgd1na2vs0mg"},{"bike_id":"db534928-e6a2-47cc-a852-558fe66ed50c","system_id":"levelo_inurba_marseille","lat":43.337418,"lon":5.374682,"is_reserved":false,"is_disabled":false,"rental_uris":{"android":"levelo://app?vid=db534928-e6a2-47cc-a852-558fe66ed50c","ios":"levelo://app?vid=db534928-e6a2-47cc-a852-558fe66ed50c"},"vehicle_type_id":"4","last_reported":1719004122,"current_range_meters":22000,"station_id":"","pricing_plan_id":"cebpf4jnsgd1na2vs0mg"},{"bike_id":"5c500289-1500-4d3e-8b89-4131f922b47b","system_id":"levelo_inurba_marseille","lat":43.309371,"lon":5.401449,"is_reserved":false,"is_disabled":false,"rental_uris":{"android":"levelo://app?vid=5c500289-1500-4d3e-8b89-4131f922b47b","ios":"levelo://app?vid=5c500289-1500-4d3e-8b89-4131f922b47b"},"vehicle_type_id":"4","last_reported":1719004122,"current_range_meters":0,"station_id":"ce4bgvp2rcd13ifvqct0","pricing_plan_id":"cebpf4jnsgd1na2vs0mg"},{"bike_id":"68a83e02-b035-40af-84cb-603f847ed20d","system_id":"levelo_inurba_marseille","lat":43.312609,"lon":5.401662,"is_reserved":false,"is_disabled":false,"rental_uris":{"android":"levelo://app?vid=68a83e02-b035-40af-84cb-603f847ed20d","ios":"levelo://app?vid=68a83e02-b035-40af-84cb-603f847ed20d"},"vehicle_type_id":"4","last_reported":1719004122,"current_range_meters":9600,"station_id":"ce4bh092rcd13ifvqd30","pricing_plan_id":"cebpf4jnsgd1na2vs0mg"},{"bike_id":"6e445f2c-ca64-4b5f-91f7-41d553691ea5","system_id":"levelo_inurba_marseille","lat":43.33757,"lon":5.37428,"is_reserved":false,"is_disabled":false,"rental_uris":{"android":"levelo://app?vid=6e445f2c-ca64-4b5f-91f7-41d553691ea5","ios":"levelo://app?vid=6e445f2c-ca64-4b5f-91f7-41d553691ea5"},"vehicle_type_id":"4","last_reported":1719004122,"current_range_meters":29600,"station_id":"","pricing_plan_id":"cebpf4jnsgd1na2vs0mg"},{"bike_id":"a00c218c-138a-4388-aca4-2952a6961815","system_id":"levelo_inurba_marseille","lat":43.337473,"lon":5.374899,"is_reserved":false,"is_disabled":false,"rental_uris":{"android":"levelo://app?vid=a00c218c-138a-4388-aca4-2952a6961815","ios":"levelo://app?vid=a00c218c-138a-4388-aca4-2952a6961815"},"vehicle_type_id":"4","last_reported":1719004122,"current_range_meters":30000,"station_id":"","pricing_plan_id":"cebpf4jnsgd1na2vs0mg"},{"bike_id":"72bf1b6c-f52c-4e43-8f90-f2d4667f65b6","system_id":"levelo_inurba_marseille","lat":43.306412,"lon":5.401035,"is_reserved":false,"is_disabled":false,"rental_uris":{"android":"levelo://app?vid=72bf1b6c-f52c-4e43-8f90-f2d4667f65b6","ios":"levelo://app?vid=72bf1b6c-f52c-4e43-8f90-f2d4667f65b6"},"vehicle_type_id":"4","last_reported":1719004122,"current_range_meters":4000,"station_id":"ce4bh112rcd13ifvqda0","pricing_plan_id":"cebpf4jnsgd1na2vs0mg"},{"bike_id":"0e11bbab-a5d9-4098-a6f1-624d89f27c59","system_id":"levelo_inurba_marseille","lat":43.337572,"lon":5.374546,"is_reserved":false,"is_disabled":false,"rental_uris":{"android":"levelo://app?vid=0e11bbab-a5d9-4098-a6f1-624d89f27c59","ios":"levelo://app?vid=0e11bbab-a5d9-4098-a6f1-624d89f27c59"},"vehicle_type_id":"4","last_reported":1719004122,"current_range_meters":26800,"station_id":"","pricing_plan_id":"cebpf4jnsgd1na2vs0mg"},{"bike_id":"01318c22-1928-4980-be0f-3524ce832f2c","system_id":"levelo_inurba_marseille","lat":43.29478,"lon":5.391697,"is_reserved":false,"is_disabled":false,"rental_uris":{"android":"levelo://app?vid=01318c22-1928-4980-be0f-3524ce832f2c","ios":"levelo://app?vid=01318c22-1928-4980-be0f-3524ce832f2c"},"vehicle_type_id":"4","last_reported":1719004122,"current_range_meters":25200,"station_id":"","pricing_plan_id":"cebpf4jnsgd1na2vs0mg"},{"bike_id":"c9b66a2b-0639-4d7a-b560-2bf673d8bd00","system_id":"levelo_inurba_marseille","lat":43.33033,"lon":5.39233,"is_reserved":false,"is_disabled":false,"rental_uris":{"android":"levelo://app?vid=c9b66a2b-0639-4d7a-b560-2bf673d8bd00","ios":"levelo://app?vid=c9b66a2b-0639-4d7a-b560-2bf673d8bd00"},"vehicle_type_id":"4","last_reported":1719004122,"current_range_meters":0,"station_id":"","pricing_plan_id":"cebpf4jnsgd1na2vs0mg"},{"bike_id":"e7be790b-07e4-40f3-b60f-da683b157943","system_id":"levelo_inurba_marseille","lat":43.33033,"lon":5.39238,"is_reserved":false,"is_disabled":false,"rental_uris":{"android":"levelo://app?vid=e7be790b-07e4-40f3-b60f-da683b157943","ios":"levelo://app?vid=e7be790b-07e4-40f3-b60f-da683b157943"},"vehicle_type_id":"4","last_reported":1719004122,"current_range_meters":21600,"station_id":"","pricing_plan_id":"cebpf4jnsgd1na2vs0mg"},{"bike_id":"a77bf3f1-dc55-4e35-8fe0-6292cee970ef","system_id":"levelo_inurba_marseille","lat":43.33035,"lon":5.39239,"is_reserved":false,"is_disabled":false,"rental_uris":{"android":"levelo://app?vid=a77bf3f1-dc55-4e35-8fe0-6292cee970ef","ios":"levelo://app?vid=a77bf3f1-dc55-4e35-8fe0-6292cee970ef"},"vehicle_type_id":"4","last_reported":1719004122,"current_range_meters":24000,"station_id":"","pricing_plan_id":"cebpf4jnsgd1na2vs0mg"},{"bike_id":"457259f4-2778-42f8-8372-c6c895d3a51d","system_id":"levelo_inurba_marseille","lat":43.33036,"lon":5.392397,"is_reserved":false,"is_disabled":false,"rental_uris":{"android":"levelo://app?vid=457259f4-2778-42f8-8372-c6c895d3a51d","ios":"levelo://app?vid=457259f4-2778-42f8-8372-c6c895d3a51d"},"vehicle_type_id":"4","last_reported":1719004122,"current_range_meters":12400,"station_id":"","pricing_plan_id":"cebpf4jnsgd1na2vs0mg"},{"bike_id":"7e533174-59c9-4d9f-9848-1128f7a94a6a","system_id":"levelo_inurba_marseille","lat":43.30642,"lon":5.401031,"is_reserved":false,"is_disabled":false,"rental_uris":{"android":"levelo://app?vid=7e533174-59c9-4d9f-9848-1128f7a94a6a","ios":"levelo://app?vid=7e533174-59c9-4d9f-9848-1128f7a94a6a"},"vehicle_type_id":"4","last_reported":1719004122,"current_range_meters":18400,"station_id":"ce4bh112rcd13ifvqda0","pricing_plan_id":"cebpf4jnsgd1na2vs0mg"},{"bike_id":"1529575d-3c24-4053-9dc4-3fc753c20a3e","system_id":"levelo_inurba_marseille","lat":43.3304,"lon":5.39281,"is_reserved":false,"is_disabled":false,"rental_uris":{"android":"levelo://app?vid=1529575d-3c24-4053-9dc4-3fc753c20a3e","ios":"levelo://app?vid=1529575d-3c24-4053-9dc4-3fc753c20a3e"},"vehicle_type_id":"4","last_reported":1719004122,"current_range_meters":4400,"station_id":"","pricing_plan_id":"cebpf4jnsgd1na2vs0mg"},{"bike_id":"a5d17423-e640-4b56-92af-f09681627acd","system_id":"levelo_inurba_marseille","lat":43.286961,"lon":5.373785,"is_reserved":false,"is_disabled":false,"rental_uris":{"android":"levelo://app?vid=a5d17423-e640-4b56-92af-f09681627acd","ios":"levelo://app?vid=a5d17423-e640-4b56-92af-f09681627acd"},"vehicle_type_id":"4","last_reported":1719004122,"current_range_meters":17200,"station_id":"ce4bh3p2rcd13ifvqdq0","pricing_plan_id":"cebpf4jnsgd1na2vs0mg"},{"bike_id":"5be12bc2-761d-4bae-9ec8-a802d5fc2258","system_id":"levelo_inurba_marseille","lat":43.28661,"lon":5.36346,"is_reserved":false,"is_disabled":false,"rental_uris":{"android":"levelo://app?vid=5be12bc2-761d-4bae-9ec8-a802d5fc2258","ios":"levelo://app?vid=5be12bc2-761d-4bae-9ec8-a802d5fc2258"},"vehicle_type_id":"4","last_reported":1719004122,"current_range_meters":0,"station_id":"ce4bhah2rcd13ifvqej0","pricing_plan_id":"cebpf4jnsgd1na2vs0mg"},{"bike_id":"77bb063d-379c-42ce-b560-ed64cca1ac73","system_id":"levelo_inurba_marseille","lat":43.29538,"lon":5.39401,"is_reserved":false,"is_disabled":false,"rental_uris":{"android":"levelo://app?vid=77bb063d-379c-42ce-b560-ed64cca1ac73","ios":"levelo://app?vid=77bb063d-379c-42ce-b560-ed64cca1ac73"},"vehicle_type_id":"4","last_reported":1719004122,"current_range_meters":29600,"station_id":"ce4bh292rcd13ifvqdf0","pricing_plan_id":"cebpf4jnsgd1na2vs0mg"},{"bike_id":"b9e17481-3ef9-4631-bfc3-da734380188e","system_id":"levelo_inurba_marseille","lat":43.29528,"lon":5.39399,"is_reserved":false,"is_disabled":false,"rental_uris":{"android":"levelo://app?vid=b9e17481-3ef9-4631-bfc3-da734380188e","ios":"levelo://app?vid=b9e17481-3ef9-4631-bfc3-da734380188e"},"vehicle_type_id":"4","last_reported":1719004122,"current_range_meters":20800,"station_id":"ce4bh292rcd13ifvqdf0","pricing_plan_id":"cebpf4jnsgd1na2vs0mg"},{"bike_id":"14891047-b84a-4fcc-b147-ea0b05033974","system_id":"levelo_inurba_marseille","lat":43.295194,"lon":5.39397,"is_reserved":false,"is_disabled":false,"rental_uris":{"android":"levelo://app?vid=14891047-b84a-4fcc-b147-ea0b05033974","ios":"levelo://app?vid=14891047-b84a-4fcc-b147-ea0b05033974"},"vehicle_type_id":"4","last_reported":1719004122,"current_range_meters":31200,"station_id":"ce4bh292rcd13ifvqdf0","pricing_plan_id":"cebpf4jnsgd1na2vs0mg"},{"bike_id":"5e0dd7ef-7f77-4be0-8635-d24d18dbceb0","system_id":"levelo_inurba_marseille","lat":43.29027,"lon":5.38639,"is_reserved":false,"is_disabled":false,"rental_uris":{"android":"levelo://app?vid=5e0dd7ef-7f77-4be0-8635-d24d18dbceb0","ios":"levelo://app?vid=5e0dd7ef-7f77-4be0-8635-d24d18dbceb0"},"vehicle_type_id":"4","last_reported":1719004122,"current_range_meters":0,"station_id":"ce4bh4p2rcd13ifvqe0g","pricing_plan_id":"cebpf4jnsgd1na2vs0mg"},{"bike_id":"404a78e7-f84c-41a9-bba8-f30d22779b59","system_id":"levelo_inurba_marseille","lat":43.29026,"lon":5.38639,"is_reserved":false,"is_disabled":false,"rental_uris":{"android":"levelo://app?vid=404a78e7-f84c-41a9-bba8-f30d22779b59","ios":"levelo://app?vid=404a78e7-f84c-41a9-bba8-f30d22779b59"},"vehicle_type_id":"4","last_reported":1719004122,"current_range_meters":10800,"station_id":"ce4bh4p2rcd13ifvqe0g","pricing_plan_id":"cebpf4jnsgd1na2vs0mg"},{"bike_id":"3f607def-4b36-4366-bcb5-9ce3d39e9ccd","system_id":"levelo_inurba_marseille","lat":43.290345,"lon":5.38646,"is_reserved":false,"is_disabled":false,"rental_uris":{"android":"levelo://app?vid=3f607def-4b36-4366-bcb5-9ce3d39e9ccd","ios":"levelo://app?vid=3f607def-4b36-4366-bcb5-9ce3d39e9ccd"},"vehicle_type_id":"4","last_reported":1719004122,"current_range_meters":2400,"station_id":"ce4bh4p2rcd13ifvqe0g","pricing_plan_id":"cebpf4jnsgd1na2vs0mg"},{"bike_id":"b568e99a-fe26-49d3-9281-2d8a839fd8f4","system_id":"levelo_inurba_marseille","lat":43.290336,"lon":5.386425,"is_reserved":false,"is_disabled":false,"rental_uris":{"android":"levelo://app?vid=b568e99a-fe26-49d3-9281-2d8a839fd8f4","ios":"levelo://app?vid=b568e99a-fe26-49d3-9281-2d8a839fd8f4"},"vehicle_type_id":"4","last_reported":1719004122,"current_range_meters":21200,"station_id":"ce4bh4p2rcd13ifvqe0g","pricing_plan_id":"cebpf4jnsgd1na2vs0mg"},{"bike_id":"83e59a6d-62b2-4362-a172-9742d9147169","system_id":"levelo_inurba_marseille","lat":43.286039,"lon":5.370681,"is_reserved":false,"is_disabled":false,"rental_uris":{"android":"levelo://app?vid=83e59a6d-62b2-4362-a172-9742d9147169","ios":"levelo://app?vid=83e59a6d-62b2-4362-a172-9742d9147169"},"vehicle_type_id":"4","last_reported":1719004122,"current_range_meters":12800,"station_id":"ce4bht12rcd13ifvqi60","pricing_plan_id":"cebpf4jnsgd1na2vs0mg"},{"bike_id":"58cc2849-0457-404e-8153-32a30fc3649a","system_id":"levelo_inurba_marseille","lat":43.287245,"lon":5.379463,"is_reserved":false,"is_disabled":false,"rental_uris":{"android":"levelo://app?vid=58cc2849-0457-404e-8153-32a30fc3649a","ios":"levelo://app?vid=58cc2849-0457-404e-8153-32a30fc3649a"},"vehicle_type_id":"4","last_reported":1719004122,"current_range_meters":0,"station_id":"ce4bh9p2rcd13ifvqec0","pricing_plan_id":"cebpf4jnsgd1na2vs0mg"},{"bike_id":"b0b54d9d-8ee0-4aba-9349-40a67b36ba83","system_id":"levelo_inurba_marseille","lat":43.316821,"lon":5.404737,"is_reserved":false,"is_disabled":false,"rental_uris":{"android":"levelo://app?vid=b0b54d9d-8ee0-4aba-9349-40a67b36ba83","ios":"levelo://app?vid=b0b54d9d-8ee0-4aba-9349-40a67b36ba83"},"vehicle_type_id":"4","last_reported":1719004122,"current_range_meters":0,"station_id":"ce4bh012rcd13ifvqd00","pricing_plan_id":"cebpf4jnsgd1na2vs0mg"},{"bike_id":"9f2935ec-621e-4816-bdcf-10aac6026e89","system_id":"levelo_inurba_marseille","lat":43.316828,"lon":5.404723,"is_reserved":false,"is_disabled":false,"rental_uris":{"android":"levelo://app?vid=9f2935ec-621e-4816-bdcf-10aac6026e89","ios":"levelo://app?vid=9f2935ec-621e-4816-bdcf-10aac6026e89"},"vehicle_type_id":"4","last_reported":1719004122,"current_range_meters":0,"station_id":"ce4bh012rcd13ifvqd00","pricing_plan_id":"cebpf4jnsgd1na2vs0mg"},{"bike_id":"093b0eef-70ed-4291-abca-4f74b2c0bf42","system_id":"levelo_inurba_marseille","lat":43.291994,"lon":5.392907,"is_reserved":false,"is_disabled":false,"rental_uris":{"android":"levelo://app?vid=093b0eef-70ed-4291-abca-4f74b2c0bf42","ios":"levelo://app?vid=093b0eef-70ed-4291-abca-4f74b2c0bf42"},"vehicle_type_id":"4","last_reported":1719004122,"current_range_meters":16000,"station_id":"ce4bh192rcd13ifvqdd0","pricing_plan_id":"cebpf4jnsgd1na2vs0mg"},{"bike_id":"83d0d52e-2d96-4a85-b6fc-50a3a383aca8","system_id":"levelo_inurba_marseille","lat":43.29197,"lon":5.39322,"is_reserved":false,"is_disabled":false,"rental_uris":{"android":"levelo://app?vid=83d0d52e-2d96-4a85-b6fc-50a3a383aca8","ios":"levelo://app?vid=83d0d52e-2d96-4a85-b6fc-50a3a383aca8"},