{"last_updated":1748405724,"ttl":60,"version":"2.2","data":{"bikes":[{"bike_id":"fc56555b-396d-4667-b896-0ad86036e39e","system_id":"levelo_inurba_marseille","lat":43.259106,"lon":5.380381,"is_reserved":false,"is_disabled":false,"rental_uris":{"android":"levelo://app?vid=fc56555b-396d-4667-b896-0ad86036e39e","ios":"levelo://app?vid=fc56555b-396d-4667-b896-0ad86036e39e"},"vehicle_type_id":"4","last_reported":1748405724,"current_range_meters":2800,"station_id":"","pricing_plan_id":"cebpf4jnsgd1na2vs0mg"},{"bike_id":"a4aef2b9-b7e8-4e2d-8340-592d28bc6c85","system_id":"levelo_inurba_marseille","lat":43.337654,"lon":5.37434,"is_reserved":false,"is_disabled":false,"rental_uris":{"android":"levelo://app?vid=a4aef2b9-b7e8-4e2d-8340-592d28bc6c85","ios":"levelo://app?vid=a4aef2b9-b7e8-4e2d-8340-592d28bc6c85"},"vehicle_type_id":"4","last_reported":1748405724,"current_range_meters":2800,"station_id":"","pricing_plan_id":"cebpf4jnsgd1na2vs0mg"},{"bike_id":"4b36678c-bba4-4c34-9c08-e03c8db196a6","system_id":"levelo_inurba_marseille","lat":43.287017,"lon":5.373914,"is_reserved":false,"is_disabled":false,"rental_uris":{"android":"levelo://app?vid=4b36678c-bba4-4c34-9c08-e03c8db196a6","ios":"levelo://app?vid=4b36678c-bba4-4c34-9c08-e03c8db196a6"},"vehicle_type_id":"4","last_reported":1748405724,"current_range_meters":2800,"station_id":"ce4bh3p2rcd13ifvqdq0","pricing_plan_id":"cebpf4jnsgd1na2vs0mg"},{"bike_id":"f1733994-596a-42d8-ba1f-289ddc36b89b","system_id":"levelo_inurba_marseille","lat":43.22433,"lon":5.34809,"is_reserved":false,"is_disabled":false,"rental_uris":{"android":"levelo://app?vid=f1733994-596a-42d8-ba1f-289ddc36b89b","ios":"levelo://app?vid=f1733994-596a-42d8-ba1f-289ddc36b89b"},"vehicle_type_id":"4","last_reported":1748405724,"current_range_meters":2800,"station_id":"","pricing_plan_id":"cebpf4jnsgd1na2vs0mg"},{"bike_id":"adba12e7-5206-46f0-b5ae-d736cc8dba7d","system_id":"levelo_inurba_marseille","lat":43.276614,"lon":5.388795,"is_reserved":false,"is_disabled":true,"rental_uris":{"android":"levelo://app?vid=adba12e7-5206-46f0-b5ae-d736cc8dba7d","ios":"levelo://app?vid=adba12e7-5206-46f0-b5ae-d736cc8dba7d"},"vehicle_type_id":"4","last_reported":1748405724,"current_range_meters":2800,"station_id":"ce4bhgp2rcd13ifvqfe0","pricing_plan_id":"cebpf4jnsgd1na2vs0mg"},{"bike_id":"301bf0f9-9b48-466e-a883-4d218136fa68","system_id":"levelo_inurba_marseille","lat":43.287115,"lon":5.373822,"is_reserved":false,"is_disabled":false,"rental_uris":{"android":"levelo://app?vid=301bf0f9-9b48-466e-a883-4d218136fa68","ios":"levelo://app?vid=301bf0f9-9b48-466e-a883-4d218136fa68"},"vehicle_type_id":"4","last_reported":1748405724,"current_range_meters":2800,"station_id":"ce4bh3p2rcd13ifvqdq0","pricing_plan_id":"cebpf4jnsgd1na2vs0mg"},{"bike_id":"ee12f7eb-6381-4b34-9032-03bfdc347dc5","system_id":"levelo_inurba_marseille","lat":43.28699,"lon":5.37405,"is_reserved":false,"is_disabled":false,"rental_uris":{"android":"levelo://app?vid=ee12f7eb-6381-4b34-9032-03bfdc347dc5","ios":"levelo://app?vid=ee12f7eb-6381-4b34-9032-03bfdc347dc5"},"vehicle_type_id":"4","last_reported":1748405724,"current_range_meters":2800,"station_id":"ce4bh3p2rcd13ifvqdq0","pricing_plan_id":"cebpf4jnsgd1na2vs0mg"},{"bike_id":"069da931-ad7a-46e7-83f2-3e021650a079","system_id":"levelo_inurba_marseille","lat":43.287229,"lon":5.399944,"is_reserved":false,"is_disabled":true,"rental_uris":{"android":"levelo://app?vid=069da931-ad7a-46e7-83f2-3e021650a079","ios":"levelo://app?vid=069da931-ad7a-46e7-83f2-3e021650a079"},"vehicle_type_id":"4","last_reported":1748405724,"current_range_meters":3200,"station_id":"ce4bho92rcd13ifvqh3g","pricing_plan_id":"cebpf4jnsgd1na2vs0mg"},{"bike_id":"fd908bdf-5d81-4122-b313-442572d15912","system_id":"levelo_inurba_marseille","lat":43.29507,"lon":5.39414,"is_reserved":false,"is_disabled":true,"rental_uris":{"android":"levelo://app?vid=fd908bdf-5d81-4122-b313-442572d15912","ios":"levelo://app?vid=fd908bdf-5d81-4122-b313-442572d15912"},"vehicle_type_id":"4","last_reported":1748405724,"current_range_meters":3600,"station_id":"ce4bh292rcd13ifvqdf0","pricing_plan_id":"cebpf4jnsgd1na2vs0mg"},{"bike_id":"2d393347-525f-40cd-8bc8-636e6636ef28","system_id":"levelo_inurba_marseille","lat":43.262299,"lon":5.404533,"is_reserved":false,"is_disabled":false,"rental_uris":{"android":"levelo://app?vid=2d393347-525f-40cd-8bc8-636e6636ef28","ios":"levelo://app?vid=2d393347-525f-40cd-8bc8-636e6636ef28"},"vehicle_type_id":"4","last_reported":1748405724,"current_range_meters":3600,"station_id":"ce4bhmh2rcd13ifvqgmg","pricing_plan_id":"cebpf4jnsgd1na2vs0mg"},{"bike_id":"f758a755-0ae0-4542-831c-2c86b7828236","system_id":"levelo_inurba_marseille","lat":43.27047,"lon":5.40263,"is_reserved":false,"is_disabled":false,"rental_uris":{"android":"levelo://app?vid=f758a755-0ae0-4542-831c-2c86b7828236","ios":"levelo://app?vid=f758a755-0ae0-4542-831c-2c86b7828236"},"vehicle_type_id":"4","last_reported":1748405724,"current_range_meters":3600,"station_id":"ce4bhk92rcd13ifvqgc0","pricing_plan_id":"cebpf4jnsgd1na2vs0mg"},{"bike_id":"2f50dc5b-dd1a-4fd7-b3a4-bca2ea8883de","system_id":"levelo_inurba_marseille","lat":43.319973,"lon":5.381499,"is_reserved":false,"is_disabled":false,"rental_uris":{"android":"levelo://app?vid=2f50dc5b-dd1a-4fd7-b3a4-bca2ea8883de","ios":"levelo://app?vid=2f50dc5b-dd1a-4fd7-b3a4-bca2ea8883de"},"vehicle_type_id":"4","last_reported":1748405724,"current_range_meters":3600,"station_id":"ce4bhr12rcd13ifvqhpg","pricing_plan_id":"cebpf4jnsgd1na2vs0mg"},{"bike_id":"da65d91d-801e-4ed3-aae5-38bce5ff6ca6","system_id":"levelo_inurba_marseille","lat":43.310649,"lon":5.383568,"is_reserved":false,"is_disabled":false,"rental_uris":{"android":"levelo://app?vid=da65d91d-801e-4ed3-aae5-38bce5ff6ca6","ios":"levelo://app?vid=da65d91d-801e-4ed3-aae5-38bce5ff6ca6"},"vehicle_type_id":"4","last_reported":1748405724,"current_range_meters":3600,"station_id":"ce4bgv92rcd13ifvqcr0","pricing_plan_id":"cebpf4jnsgd1na2vs0mg"},{"bike_id":"8e1e3d14-39e1-40c6-a572-79984978bd7d","system_id":"levelo_inurba_marseille","lat":43.22509,"lon":5.34775,"is_reserved":false,"is_disabled":false,"rental_uris":{"android":"levelo://app?vid=8e1e3d14-39e1-40c6-a572-79984978bd7d","ios":"levelo://app?vid=8e1e3d14-39e1-40c6-a572-79984978bd7d"},"vehicle_type_id":"4","last_reported":1748405724,"current_range_meters":4000,"station_id":"","pricing_plan_id":"cebpf4jnsgd1na2vs0mg"},{"bike_id":"3ec21973-a1d7-4ca4-be49-3fc654fc1ac2","system_id":"levelo_inurba_marseille","lat":43.267971,"lon":5.402634,"is_reserved":false,"is_disabled":false,"rental_uris":{"android":"levelo://app?vid=3ec21973-a1d7-4ca4-be49-3fc654fc1ac2","ios":"levelo://app?vid=3ec21973-a1d7-4ca4-be49-3fc654fc1ac2"},"vehicle_type_id":"4","last_reported":1748405724,"current_range_meters":4400,"station_id":"ce501612rcd8frsf0b60","pricing_plan_id":"cebpf4jnsgd1na2vs0mg"},{"bike_id":"87b8ee4c-fa01-47cc-a362-ca90e16bee98","system_id":"levelo_inurba_marseille","lat":43.30325,"lon":5.40436,"is_reserved":false,"is_disabled":false,"rental_uris":{"android":"levelo://app?vid=87b8ee4c-fa01-47cc-a362-ca90e16bee98","ios":"levelo://app?vid=87b8ee4c-fa01-47cc-a362-ca90e16bee98"},"vehicle_type_id":"4","last_reported":1748405724,"current_range_meters":4400,"station_id":"ce4bh012rcd13ifvqd10","pricing_plan_id":"cebpf4jnsgd1na2vs0mg"},{"bike_id":"bc7e556b-5270-4da4-b345-eef5c20dc266","system_id":"levelo_inurba_marseille","lat":43.30476,"lon":5.37943,"is_reserved":false,"is_disabled":false,"rental_uris":{"android":"levelo://app?vid=bc7e556b-5270-4da4-b345-eef5c20dc266","ios":"levelo://app?vid=bc7e556b-5270-4da4-b345-eef5c20dc266"},"vehicle_type_id":"4","last_reported":1748405724,"current_range_meters":4400,"station_id":"ce4bgup2rcd13ifvqcn0","pricing_plan_id":"cebpf4jnsgd1na2vs0mg"},{"bike_id":"73f138f2-14d8-4ce4-aa98-7c07ec00d12a","system_id":"levelo_inurba_marseille","lat":43.28328,"lon":5.38111,"is_reserved":false,"is_disabled":false,"rental_uris":{"android":"levelo://app?vid=73f138f2-14d8-4ce4-aa98-7c07ec00d12a","ios":"levelo://app?vid=73f138f2-14d8-4ce4-aa98-7c07ec00d12a"},"vehicle_type_id":"4","last_reported":1748405724,"current_range_meters":4800,"station_id":"ce4bh412rcd13ifvqdr0","pricing_plan_id":"cebpf4jnsgd1na2vs0mg"},{"bike_id":"f2f2c857-6ce7-4f18-9462-4e16197878f1","system_id":"levelo_inurba_marseille","lat":43.31673,"lon":5.37781,"is_reserved":false,"is_disabled":false,"rental_uris":{"android":"levelo://app?vid=f2f2c857-6ce7-4f18-9462-4e16197878f1","ios":"levelo://app?vid=f2f2c857-6ce7-4f18-9462-4e16197878f1"},"vehicle_type_id":"4","last_reported":1748405724,"current_range_meters":4800,"station_id":"","pricing_plan_id":"cebpf4jnsgd1na2vs0mg"},{"bike_id":"c2b0a191-bf31-4e89-8dc5-11d646e535b1","system_id":"levelo_inurba_marseille","lat":43.254969,"lon":5.37649,"is_reserved":false,"is_disabled":false,"rental_uris":{"android":"levelo://app?vid=c2b0a191-bf31-4e89-8dc5-11d646e535b1","ios":"levelo://app?vid=c2b0a191-bf31-4e89-8dc5-11d646e535b1"},"vehicle_type_id":"4","last_reported":1748405724,"current_range_meters":4800,"station_id":"","pricing_plan_id":"cebpf4jnsgd1na2vs0mg"},{"bike_id":"1a0998e5-8bb9-474f-a827-53cad24c9e8f","system_id":"levelo_inurba_marseille","lat":43.32042,"lon":5.44947,"is_reserved":false,"is_disabled":false,"rental_uris":{"android":"levelo://app?vid=1a0998e5-8bb9-474f-a827-53cad24c9e8f","ios":"levelo://app?vid=1a0998e5-8bb9-474f-a827-53cad24c9e8f"},"vehicle_type_id":"4","last_reported":1748405724,"current_range_meters":6000,"station_id":"","pricing_plan_id":"cebpf4jnsgd1na2vs0mg"},{"bike_id":"2621921b-742a-4cef-8fb9-86afebf4ef48","system_id":"levelo_inurba_marseille","lat":43.267945,"lon":5.402628,"is_reserved":false,"is_disabled":false,"rental_uris":{"android":"levelo://app?vid=2621921b-742a-4cef-8fb9-86afebf4ef48","ios":"levelo://app?vid=2621921b-742a-4cef-8fb9-86afebf4ef48"},"vehicle_type_id":"4","last_reported":1748405724,"current_range_meters":6000,"station_id":"ce501612rcd8frsf0b60","pricing_plan_id":"cebpf4jnsgd1na2vs0mg"},{"bike_id":"a7bcb1f1-7682-4d43-a695-1c800fa5f5e8","system_id":"levelo_inurba_marseille","lat":43.28693,"lon":5.37389,"is_reserved":false,"is_disabled":false,"rental_uris":{"android":"levelo://app?vid=a7bcb1f1-7682-4d43-a695-1c800fa5f5e8","ios":"levelo://app?vid=a7bcb1f1-7682-4d43-a695-1c800fa5f5e8"},"vehicle_type_id":"4","last_reported":1748405724,"current_range_meters":6000,"station_id":"ce4bh3p2rcd13ifvqdq0","pricing_plan_id":"cebpf4jnsgd1na2vs0mg"},{"bike_id":"81c9ebed-1e12-4573-b013-d1bf7a4be422","system_id":"levelo_inurba_marseille","lat":43.302604,"lon":5.400842,"is_reserved":false,"is_disabled":false,"rental_uris":{"android":"levelo://app?vid=81c9ebed-1e12-4573-b013-d1bf7a4be422","ios":"levelo://app?vid=81c9ebed-1e12-4573-b013-d1bf7a4be422"},"vehicle_type_id":"4","last_reported":1748405724,"current_range_meters":6000,"station_id":"ce4bgvh2rcd13ifvqcs0","pricing_plan_id":"cebpf4jnsgd1na2vs0mg"},{"bike_id":"ca39f4ef-0212-44c3-b77e-5ab03fae5e5a","system_id":"levelo_inurba_marseille","lat":43.302418,"lon":5.40059,"is_reserved":false,"is_disabled":false,"rental_uris":{"android":"levelo://app?vid=ca39f4ef-0212-44c3-b77e-5ab03fae5e5a","ios":"levelo://app?vid=ca39f4ef-0212-44c3-b77e-5ab03fae5e5a"},"vehicle_type_id":"4","last_reported":1748405724,"current_range_meters":6000,"station_id":"ce4bgvh2rcd13ifvqcs0","pricing_plan_id":"cebpf4jnsgd1na2vs0mg"},{"bike_id":"507e72b9-2648-4d53-a3bc-aa45c2198a2e","system_id":"levelo_inurba_marseille","lat":43.306616,"lon":5.401014,"is_reserved":false,"is_disabled":true,"rental_uris":{"android":"levelo://app?vid=507e72b9-2648-4d53-a3bc-aa45c2198a2e","ios":"levelo://app?vid=507e72b9-2648-4d53-a3bc-aa45c2198a2e"},"vehicle_type_id":"4","last_reported":1748405724,"current_range_meters":6400,"station_id":"ce4bh112rcd13ifvqda0","pricing_plan_id":"cebpf4jnsgd1na2vs0mg"},{"bike_id":"2badb821-2859-4b8d-9b1a-9dfbe62ae729","system_id":"levelo_inurba_marseille","lat":43.303191,"lon":5.404398,"is_reserved":false,"is_disabled":false,"rental_uris":{"android":"levelo://app?vid=2badb821-2859-4b8d-9b1a-9dfbe62ae729","ios":"levelo://app?vid=2badb821-2859-4b8d-9b1a-9dfbe62ae729"},"vehicle_type_id":"4","last_reported":1748405724,"current_range_meters":6400,"station_id":"ce4bh012rcd13ifvqd10","pricing_plan_id":"cebpf4jnsgd1na2vs0mg"},{"bike_id":"ae6e6868-2635-4f49-b7c1-b03759c58ec7","system_id":"levelo_inurba_marseille","lat":43.272977,"lon":5.416072,"is_reserved":false,"is_disabled":false,"rental_uris":{"android":"levelo://app?vid=ae6e6868-2635-4f49-b7c1-b03759c58ec7","ios":"levelo://app?vid=ae6e6868-2635-4f49-b7c1-b03759c58ec7"},"vehicle_type_id":"4","last_reported":1748405724,"current_range_meters":6400,"station_id":"","pricing_plan_id":"cebpf4jnsgd1na2vs0mg"},{"bike_id":"ee617531-7300-4958-baa3-db4f90ad5721","system_id":"levelo_inurba_marseille","lat":43.25838,"lon":5.39408,"is_reserved":false,"is_disabled":false,"rental_uris":{"android":"levelo://app?vid=ee617531-7300-4958-baa3-db4f90ad5721","ios":"levelo://app?vid=ee617531-7300-4958-baa3-db4f90ad5721"},"vehicle_type_id":"4","last_reported":1748405724,"current_range_meters":6400,"station_id":"ce4bhip2rcd13ifvqft0","pricing_plan_id":"cebpf4jnsgd1na2vs0mg"},{"bike_id":"e9822bf6-601d-4e3b-a97c-5d51f2fe51a3","system_id":"levelo_inurba_marseille","lat":43.263467,"lon":5.378241,"is_reserved":false,"is_disabled":false,"rental_uris":{"android":"levelo://app?vid=e9822bf6-601d-4e3b-a97c-5d51f2fe51a3","ios":"levelo://app?vid=e9822bf6-601d-4e3b-a97c-5d51f2fe51a3"},"vehicle_type_id":"4","last_reported":1748405724,"current_range_meters":6400,"station_id":"","pricing_plan_id":"cebpf4jnsgd1na2vs0mg"},{"bike_id":"765a5150-62da-407f-a255-c32151d126c4","system_id":"levelo_inurba_marseille","lat":43.28832,"lon":5.35837,"is_reserved":false,"is_disabled":true,"rental_uris":{"android":"levelo://app?vid=765a5150-62da-407f-a255-c32151d126c4","ios":"levelo://app?vid=765a5150-62da-407f-a255-c32151d126c4"},"vehicle_type_id":"4","last_reported":1748405724,"current_range_meters":6400,"station_id":"ce4bhb12rcd13ifvqem0","pricing_plan_id":"cebpf4jnsgd1na2vs0mg"},{"bike_id":"143c2ab4-f42c-444a-976a-2bc9c3850a17","system_id":"levelo_inurba_marseille","lat":43.302096,"lon":5.394764,"is_reserved":false,"is_disabled":false,"rental_uris":{"android":"levelo://app?vid=143c2ab4-f42c-444a-976a-2bc9c3850a17","ios":"levelo://app?vid=143c2ab4-f42c-444a-976a-2bc9c3850a17"},"vehicle_type_id":"4","last_reported":1748405724,"current_range_meters":6400,"station_id":"ce4bh0p2rcd13ifvqd70","pricing_plan_id":"cebpf4jnsgd1na2vs0mg"},{"bike_id":"9ccbac86-38e4-4ddf-a8ae-e8e6aad748d0","system_id":"levelo_inurba_marseille","lat":43.304114,"lon":5.412867,"is_reserved":false,"is_disabled":true,"rental_uris":{"android":"levelo://app?vid=9ccbac86-38e4-4ddf-a8ae-e8e6aad748d0","ios":"levelo://app?vid=9ccbac86-38e4-4ddf-a8ae-e8e6aad748d0"},"vehicle_type_id":"4","last_reported":1748405724,"current_range_meters":6400,"station_id":"ce4bhop2rcd13ifvqh8g","pricing_plan_id":"cebpf4jnsgd1na2vs0mg"},{"bike_id":"61102199-8f5b-4b88-8d5b-5ea241266078","system_id":"levelo_inurba_marseille","lat":43.292568,"lon":5.409002,"is_reserved":false,"is_disabled":false,"rental_uris":{"android":"levelo://app?vid=61102199-8f5b-4b88-8d5b-5ea241266078","ios":"levelo://app?vid=61102199-8f5b-4b88-8d5b-5ea241266078"},"vehicle_type_id":"4","last_reported":1748405724,"current_range_meters":6400,"station_id":"ce4bh192rcd13ifvqdc0","pricing_plan_id":"cebpf4jnsgd1na2vs0mg"},{"bike_id":"a382f3df-edfa-456b-8f81-d62e49146343","system_id":"levelo_inurba_marseille","lat":43.30873,"lon":5.39648,"is_reserved":false,"is_disabled":false,"rental_uris":{"android":"levelo://app?vid=a382f3df-edfa-456b-8f81-d62e49146343","ios":"levelo://app?vid=a382f3df-edfa-456b-8f81-d62e49146343"},"vehicle_type_id":"4","last_reported":1748405724,"current_range_meters":6800,"station_id":"ce4bh012rcd13ifvqcv0","pricing_plan_id":"cebpf4jnsgd1na2vs0mg"},{"bike_id":"9946121a-e441-4db9-b342-d50b7a06f604","system_id":"levelo_inurba_marseille","lat":43.316763,"lon":5.377966,"is_reserved":false,"is_disabled":false,"rental_uris":{"android":"levelo://app?vid=9946121a-e441-4db9-b342-d50b7a06f604","ios":"levelo://app?vid=9946121a-e441-4db9-b342-d50b7a06f604"},"vehicle_type_id":"4","last_reported":1748405724,"current_range_meters":6800,"station_id":"","pricing_plan_id":"cebpf4jnsgd1na2vs0mg"},{"bike_id":"1aa78b52-00c1-4f29-b691-34c6a91eca62","system_id":"levelo_inurba_marseille","lat":43.28091,"lon":5.37873,"is_reserved":false,"is_disabled":false,"rental_uris":{"android":"levelo://app?vid=1aa78b52-00c1-4f29-b691-34c6a91eca62","ios":"levelo://app?vid=1aa78b52-00c1-4f29-b691-34c6a91eca62"},"vehicle_type_id":"4","last_reported":1748405724,"current_range_meters":6800,"station_id":"ce4bha12rcd13ifvqee0","pricing_plan_id":"cebpf4jnsgd1na2vs0mg"},{"bike_id":"8ac2acc6-b767-4c1c-bcde-982458034c88","system_id":"levelo_inurba_marseille","lat":43.31192,"lon":5.41626,"is_reserved":false,"is_disabled":false,"rental_uris":{"android":"levelo://app?vid=8ac2acc6-b767-4c1c-bcde-982458034c88","ios":"levelo://app?vid=8ac2acc6-b767-4c1c-bcde-982458034c88"},"vehicle_type_id":"4","last_reported":1748405724,"current_range_meters":6800,"station_id":"","pricing_plan_id":"cebpf4jnsgd1na2vs0mg"},{"bike_id":"2ec9bbcc-6279-4ac4-a806-1279010ba65b","system_id":"levelo_inurba_marseille","lat":43.24988,"lon":5.3898,"is_reserved":false,"is_disabled":false,"rental_uris":{"android":"levelo://app?vid=2ec9bbcc-6279-4ac4-a806-1279010ba65b","ios":"levelo://app?vid=2ec9bbcc-6279-4ac4-a806-1279010ba65b"},"vehicle_type_id":"4","last_reported":1748405724,"current_range_meters":6800,"station_id":"","pricing_plan_id":"cebpf4jnsgd1na2vs0mg"},{"bike_id":"41f3a81a-1f9a-499b-95e6-feb508389a33","system_id":"levelo_inurba_marseille","lat":43.30594,"lon":5.39365,"is_reserved":false,"is_disabled":false,"rental_uris":{"android":"levelo://app?vid=41f3a81a-1f9a-499b-95e6-feb508389a33","ios":"levelo://app?vid=41f3a81a-1f9a-499b-95e6-feb508389a33"},"vehicle_type_id":"4","last_reported":1748405724,"current_range_meters":6800,"station_id":"ce4bh0p2rcd13ifvqd80","pricing_plan_id":"cebpf4jnsgd1na2vs0mg"},{"bike_id":"a29a2708-797f-4e9a-9f1a-17352bf6f3db","system_id":"levelo_inurba_marseille","lat":43.273045,"lon":5.391191,"is_reserved":false,"is_disabled":true,"rental_uris":{"android":"levelo://app?vid=a29a2708-797f-4e9a-9f1a-17352bf6f3db","ios":"levelo://app?vid=a29a2708-797f-4e9a-9f1a-17352bf6f3db"},"vehicle_type_id":"4","last_reported":1748405724,"current_range_meters":6800,"station_id":"ce4bhgp2rcd13ifvqfe0","pricing_plan_id":"cebpf4jnsgd1na2vs0mg"},{"bike_id":"5f9c5496-3174-456b-b61e-c7aee3362f7a","system_id":"levelo_inurba_marseille","lat":43.29191,"lon":5.39321,"is_reserved":false,"is_disabled":false,"rental_uris":{"android":"levelo://app?vid=5f9c5496-3174-456b-b61e-c7aee3362f7a","ios":"levelo://app?vid=5f9c5496-3174-456b-b61e-c7aee3362f7a"},"vehicle_type_id":"4","last_reported":1748405724,"current_range_meters":6800,"station_id":"ce4bh192rcd13ifvqdd0","pricing_plan_id":"cebpf4jnsgd1na2vs0mg"},{"bike_id":"ceb81090-b40e-47dd-bc35-8598d269ef58","system_id":"levelo_inurba_marseille","lat":43.26641,"lon":5.38433,"is_reserved":false,"is_disabled":false,"rental_uris":{"android":"levelo://app?vid=ceb81090-b40e-47dd-bc35-8598d269ef58","ios":"levelo://app?vid=ceb81090-b40e-47dd-bc35-8598d269ef58"},"vehicle_type_id":"4","last_reported":1748405724,"current_range_meters":7200,"station_id":"","pricing_plan_id":"cebpf4jnsgd1na2vs0mg"},{"bike_id":"025226b6-a6c8-456c-acb5-2494f335f577","system_id":"levelo_inurba_marseille","lat":43.32684,"lon":5.40998,"is_reserved":false,"is_disabled":false,"rental_uris":{"android":"levelo://app?vid=025226b6-a6c8-456c-acb5-2494f335f577","ios":"levelo://app?vid=025226b6-a6c8-456c-acb5-2494f335f577"},"vehicle_type_id":"4","last_reported":1748405724,"current_range_meters":7200,"station_id":"ce4bhpp2rcd13ifvqhgg","pricing_plan_id":"cebpf4jnsgd1na2vs0mg"},{"bike_id":"4366209f-542f-4ffd-8ff1-3fdbaaffc9ae","system_id":"levelo_inurba_marseille","lat":43.31065,"lon":5.38375,"is_reserved":false,"is_disabled":false,"rental_uris":{"android":"levelo://app?vid=4366209f-542f-4ffd-8ff1-3fdbaaffc9ae","ios":"levelo://app?vid=4366209f-542f-4ffd-8ff1-3fdbaaffc9ae"},"vehicle_type_id":"4","last_reported":1748405724,"current_range_meters":7200,"station_id":"ce4bgv92rcd13ifvqcr0","pricing_plan_id":"cebpf4jnsgd1na2vs0mg"},{"bike_id":"c698dd58-c091-48d8-94f5-37450fb5f29f","system_id":"levelo_inurba_marseille","lat":43.309564,"lon":5.390362,"is_reserved":false,"is_disabled":false,"rental_uris":{"android":"levelo://app?vid=c698dd58-c091-48d8-94f5-37450fb5f29f","ios":"levelo://app?vid=c698dd58-c091-48d8-94f5-37450fb5f29f"},"vehicle_type_id":"4","last_reported":1748405724,"current_range_meters":7200,"station_id":"ce4bgup2rcd13ifvqco0","pricing_plan_id":"cebpf4jnsgd1na2vs0mg"},{"bike_id":"c0e8dbd5-9ec0-46b4-9176-6ba6be298f0d","system_id":"levelo_inurba_marseille","lat":43.270799,"lon":5.422848,"is_reserved":false,"is_disabled":false,"rental_uris":{"android":"levelo://app?vid=c0e8dbd5-9ec0-46b4-9176-6ba6be298f0d","ios":"levelo://app?vid=c0e8dbd5-9ec0-46b4-9176-6ba6be298f0d"},"vehicle_type_id":"4","last_reported":1748405724,"current_range_meters":7200,"station_id":"ce4bhk92rcd13ifvqgb0","pricing_plan_id":"cebpf4jnsgd1na2vs0mg"},{"bike_id":"760bcd8b-a4e0-4b4e-bedb-6462d7843576","system_id":"levelo_inurba_marseille","lat":43.292657,"lon":5.368484,"is_reserved":false,"is_disabled":true,"rental_uris":{"android":"levelo://app?vid=760bcd8b-a4e0-4b4e-bedb-6462d7843576","ios":"levelo://app?vid=760bcd8b-a4e0-4b4e-bedb-6462d7843576"},"vehicle_type_id":"4","last_reported":1748405724,"current_range_meters":7200,"station_id":"ce4bhbp2rcd13ifvqesg","pricing_plan_id":"cebpf4jnsgd1na2vs0mg"},{"bike_id":"2deb837f-60f5-41e9-9613-f643799ee2cc","system_id":"levelo_inurba_marseille","lat":43.24546,"lon":5.39528,"is_reserved":false,"is_disabled":false,"rental_uris":{"android":"levelo://app?vid=2deb837f-60f5-41e9-9613-f643799ee2cc","ios":"levelo://app?vid=2deb837f-60f5-41e9-9613-f643799ee2cc"},"vehicle_type_id":"4","last_reported":1748405724,"current_range_meters":7200,"station_id":"ce4bhlp2rcd13ifvqgjg","pricing_plan_id":"cebpf4jnsgd1na2vs0mg"},{"bike_id":"dc4bc07c-b76e-4ef7-ae63-610566bce330","system_id":"levelo_inurba_marseille","lat":43.27443,"lon":5.39415,"is_reserved":false,"is_disabled":false,"rental_uris":{"android":"levelo://app?vid=dc4bc07c-b76e-4ef7-ae63-610566bce330","ios":"levelo://app?vid=dc4bc07c-b76e-4ef7-ae63-610566bce330"},"vehicle_type_id":"4","last_reported":1748405724,"current_range_meters":7200,"station_id":"ce4bhdp2rcd13ifvqf20","pricing_plan_id":"cebpf4jnsgd1na2vs0mg"},{"bike_id":"db5fc6cf-a2ce-4388-aeec-6b1457e20626","system_id":"levelo_inurba_marseille","lat":43.30817,"lon":5.38186,"is_reserved":false,"is_disabled":false,"rental_uris":{"android":"levelo://app?vid=db5fc6cf-a2ce-4388-aeec-6b1457e20626","ios":"levelo://app?vid=db5fc6cf-a2ce-4388-aeec-6b1457e20626"},"vehicle_type_id":"4","last_reported":1748405724,"current_range_meters":7200,"station_id":"ce4bgt12rcd13ifvqce0","pricing_plan_id":"cebpf4jnsgd1na2vs0mg"},{"bike_id":"ecec0dbe-0ccb-470d-bc6b-7e71f374730a","system_id":"levelo_inurba_marseille","lat":43.239596,"lon":5.366273,"is_reserved":false,"is_disabled":false,"rental_uris":{"android":"levelo://app?vid=ecec0dbe-0ccb-470d-bc6b-7e71f374730a","ios":"levelo://app?vid=ecec0dbe-0ccb-470d-bc6b-7e71f374730a"},"vehicle_type_id":"4","last_reported":1748405724,"current_range_meters":7200,"station_id":"ce4bhi12rcd13ifvqfp0","pricing_plan_id":"cebpf4jnsgd1na2vs0mg"},{"bike_id":"c2f75e22-6fed-4646-a5c2-8cb463b122f4","system_id":"levelo_inurba_marseille","lat":43.32266,"lon":5.3765,"is_reserved":false,"is_disabled":false,"rental_uris":{"android":"levelo://app?vid=c2f75e22-6fed-4646-a5c2-8cb463b122f4","ios":"levelo://app?vid=c2f75e22-6fed-4646-a5c2-8cb463b122f4"},"vehicle_type_id":"4","last_reported":1748405724,"current_range_meters":7200,"station_id":"","pricing_plan_id":"cebpf4jnsgd1na2vs0mg"},{"bike_id":"0f606be2-f029-415a-82ed-4cb4eff755f6","system_id":"levelo_inurba_marseille","lat":43.308029,"lon":5.381522,"is_reserved":false,"is_disabled":false,"rental_uris":{"android":"levelo://app?vid=0f606be2-f029-415a-82ed-4cb4eff755f6","ios":"levelo://app?vid=0f606be2-f029-415a-82ed-4cb4eff755f6"},"vehicle_type_id":"4","last_reported":1748405724,"current_range_meters":8000,"station_id":"ce4bgt12rcd13ifvqce0","pricing_plan_id":"cebpf4jnsgd1na2vs0mg"},{"bike_id":"1e554509-568d-4da0-be2c-33eb861263ab","system_id":"levelo_inurba_marseille","lat":43.299619,"lon":5.413263,"is_reserved":false,"is_disabled":false,"rental_uris":{"android":"levelo://app?vid=1e554509-568d-4da0-be2c-33eb861263ab","ios":"levelo://app?vid=1e554509-568d-4da0-be2c-33eb861263ab"},"vehicle_type_id":"4","last_reported":1748405724,"current_range_meters":8000,"station_id":"ce4bhp12rcd13ifvqh9g","pricing_plan_id":"cebpf4jnsgd1na2vs0mg"},{"bike_id":"f4dd589b-5b58-470a-a2c9-9de3a4398e71","system_id":"levelo_inurba_marseille","lat":43.22925,"lon":5.35407,"is_reserved":false,"is_disabled":false,"rental_uris":{"android":"levelo://app?vid=f4dd589b-5b58-470a-a2c9-9de3a4398e71","ios":"levelo://app?vid=f4dd589b-5b58-470a-a2c9-9de3a4398e71"},"vehicle_type_id":"4","last_reported":1748405724,"current_range_meters":8000,"station_id":"cpo3532slgdg3j2ikp40","pricing_plan_id":"cebpf4jnsgd1na2vs0mg"},{"bike_id":"0a3ef987-84c3-4749-8364-35366df6e26b","system_id":"levelo_inurba_marseille","lat":43.285635,"lon":5.394983,"is_reserved":false,"is_disabled":false,"rental_uris":{"android":"levelo://app?vid=0a3ef987-84c3-4749-8364-35366df6e26b","ios":"levelo://app?vid=0a3ef987-84c3-4749-8364-35366df6e26b"},"vehicle_type_id":"4","last_reported":1748405724,"current_range_meters":8000,"station_id":"ce4bh292rcd13ifvqdg0","pricing_plan_id":"cebpf4jnsgd1na2vs0mg"},{"bike_id":"ddb91082-4722-4770-bd2c-0e7cd7a0719c","system_id":"levelo_inurba_marseille","lat":43.28416,"lon":5.37526,"is_reserved":false,"is_disabled":false,"rental_uris":{"android":"levelo://app?vid=ddb91082-4722-4770-bd2c-0e7cd7a0719c","ios":"levelo://app?vid=ddb91082-4722-4770-bd2c-0e7cd7a0719c"},"vehicle_type_id":"4","last_reported":1748405724,"current_range_meters":8000,"station_id":"ce4bh412rcd13ifvqds0","pricing_plan_id":"cebpf4jnsgd1na2vs0mg"},{"bike_id":"85c5e584-ee61-4121-9c9c-c1801d3bb761","system_id":"levelo_inurba_marseille","lat":43.304307,"lon":5.397222,"is_reserved":false,"is_disabled":false,"rental_uris":{"android":"levelo://app?vid=85c5e584-ee61-4121-9c9c-c1801d3bb761","ios":"levelo://app?vid=85c5e584-ee61-4121-9c9c-c1801d3bb761"},"vehicle_type_id":"4","last_reported":1748405724,"current_range_meters":8000,"station_id":"ce4bh092rcd13ifvqd20","pricing_plan_id":"cebpf4jnsgd1na2vs0mg"},{"bike_id":"8a8da44b-f0bc-49bf-a97a-1dee19c6a572","system_id":"levelo_inurba_marseille","lat":43.231964,"lon":5.355578,"is_reserved":false,"is_disabled":false,"rental_uris":{"android":"levelo://app?vid=8a8da44b-f0bc-49bf-a97a-1dee19c6a572","ios":"levelo://app?vid=8a8da44b-f0bc-49bf-a97a-1dee19c6a572"},"vehicle_type_id":"4","last_reported":1748405724,"current_range_meters":8000,"station_id":"ce4bhu92rcd13ifvqi70","pricing_plan_id":"cebpf4jnsgd1na2vs0mg"},{"bike_id":"7e823e3b-1b92-4735-8533-dc1341b80eaf","system_id":"levelo_inurba_marseille","lat":43.23044,"lon":5.355,"is_reserved":false,"is_disabled":true,"rental_uris":{"android":"levelo://app?vid=7e823e3b-1b92-4735-8533-dc1341b80eaf","ios":"levelo://app?vid=7e823e3b-1b92-4735-8533-dc1341b80eaf"},"vehicle_type_id":"4","last_reported":1748405724,"current_range_meters":8000,"station_id":"cpo3342slgdg3j2ifvpg","pricing_plan_id":"cebpf4jnsgd1na2vs0mg"},{"bike_id":"d992afc2-6da3-4e89-ada9-ed9aa223187f","system_id":"levelo_inurba_marseille","lat":43.279871,"lon":5.416629,"is_reserved":false,"is_disabled":false,"rental_uris":{"android":"levelo://app?vid=d992afc2-6da3-4e89-ada9-ed9aa223187f","ios":"levelo://app?vid=d992afc2-6da3-4e89-ada9-ed9aa223187f"},"vehicle_type_id":"4","last_reported":1748405724,"current_range_meters":8000,"station_id":"ce4bho12rcd13ifvqh1g","pricing_plan_id":"cebpf4jnsgd1na2vs0mg"},{"bike_id":"e6c65de3-7d92-4979-809c-6677188473c0","system_id":"levelo_inurba_marseille","lat":43.337598,"lon":5.374632,"is_reserved":false,"is_disabled":false,"rental_uris":{"android":"levelo://app?vid=e6c65de3-7d92-4979-809c-6677188473c0","ios":"levelo://app?vid=e6c65de3-7d92-4979-809c-6677188473c0"},"vehicle_type_id":"4","last_reported":1748405724,"current_range_meters":8400,"station_id":"","pricing_plan_id":"cebpf4jnsgd1na2vs0mg"},{"bike_id":"6ef27e84-462a-46f9-afe5-e09b209cc7f0","system_id":"levelo_inurba_marseille","lat":43.331138,"lon":5.362069,"is_reserved":false,"is_disabled":false,"rental_uris":{"android":"levelo://app?vid=6ef27e84-462a-46f9-afe5-e09b209cc7f0","ios":"levelo://app?vid=6ef27e84-462a-46f9-afe5-e09b209cc7f0"},"vehicle_type_id":"4","last_reported":1748405724,"current_range_meters":8400,"station_id":"","pricing_plan_id":"cebpf4jnsgd1na2vs0mg"},{"bike_id":"7e2d13cd-01ed-48be-a1b4-1756640f6409","system_id":"levelo_inurba_marseille","lat":43.30948,"lon":5.39043,"is_reserved":false,"is_disabled":true,"rental_uris":{"android":"levelo://app?vid=7e2d13cd-01ed-48be-a1b4-1756640f6409","ios":"levelo://app?vid=7e2d13cd-01ed-48be-a1b4-1756640f6409"},"vehicle_type_id":"4","last_reported":1748405724,"current_range_meters":8400,"station_id":"ce4bgup2rcd13ifvqco0","pricing_plan_id":"cebpf4jnsgd1na2vs0mg"},{"bike_id":"1c4d626c-93ab-41b9-815e-96048904b577","system_id":"levelo_inurba_marseille","lat":43.240656,"lon":5.377642,"is_reserved":false,"is_disabled":false,"rental_uris":{"android":"levelo://app?vid=1c4d626c-93ab-41b9-815e-96048904b577","ios":"levelo://app?vid=1c4d626c-93ab-41b9-815e-96048904b577"},"vehicle_type_id":"4","last_reported":1748405724,"current_range_meters":8400,"station_id":"ce4bhnp2rcd13ifvqgvg","pricing_plan_id":"cebpf4jnsgd1na2vs0mg"},{"bike_id":"6182ce76-6101-4a3b-85fc-c40b990056fb","system_id":"levelo_inurba_marseille","lat":43.31221,"lon":5.36865,"is_reserved":false,"is_disabled":false,"rental_uris":{"android":"levelo://app?vid=6182ce76-6101-4a3b-85fc-c40b990056fb","ios":"levelo://app?vid=6182ce76-6101-4a3b-85fc-c40b990056fb"},"vehicle_type_id":"4","last_reported":1748405724,"current_range_meters":8000,"station_id":"ce4bgl92rcd13ifvqbq0","pricing_plan_id":"cebpf4jnsgd1na2vs0mg"},{"bike_id":"ede9773a-3bb5-49a2-af67-a49560b3e7e3","system_id":"levelo_inurba_marseille","lat":43.30649,"lon":5.40081,"is_reserved":false,"is_disabled":false,"rental_uris":{"android":"levelo://app?vid=ede9773a-3bb5-49a2-af67-a49560b3e7e3","ios":"levelo://app?vid=ede9773a-3bb5-49a2-af67-a49560b3e7e3"},"vehicle_type_id":"4","last_reported":1748405724,"current_range_meters":8400,"station_id":"ce4bh112rcd13ifvqda0","pricing_plan_id":"cebpf4jnsgd1na2vs0mg"},{"bike_id":"a6979faa-03c6-4ad2-bf42-18b68e1baf23","system_id":"levelo_inurba_marseille","lat":43.284353,"lon":5.391868,"is_reserved":false,"is_disabled":false,"rental_uris":{"android":"levelo://app?vid=a6979faa-03c6-4ad2-bf42-18b68e1baf23","ios":"levelo://app?vid=a6979faa-03c6-4ad2-bf42-18b68e1baf23"},"vehicle_type_id":"4","last_reported":1748405724,"current_range_meters":8400,"station_id":"ce4bhoh2rcd13ifvqh5g","pricing_plan_id":"cebpf4jnsgd1na2vs0mg"},{"bike_id":"a3ac0e4d-492d-457a-8b5d-3ba549ed986d","system_id":"levelo_inurba_marseille","lat":43.29456,"lon":5.39752,"is_reserved":false,"is_disabled":false,"rental_uris":{"android":"levelo://app?vid=a3ac0e4d-492d-457a-8b5d-3ba549ed986d","ios":"levelo://app?vid=a3ac0e4d-492d-457a-8b5d-3ba549ed986d"},"vehicle_type_id":"4","last_reported":1748405724,"current_range_meters":8800,"station_id":"ce4bh3h2rcd13ifvqdo0","pricing_plan_id":"cebpf4jnsgd1na2vs0mg"},{"bike_id":"31eb1c1c-c5a5-4f60-aaa0-7dd8c371696a","system_id":"levelo_inurba_marseille","lat":43.279401,"lon":5.410467,"is_reserved":false,"is_disabled":true,"rental_uris":{"android":"levelo://app?vid=31eb1c1c-c5a5-4f60-aaa0-7dd8c371696a","ios":"levelo://app?vid=31eb1c1c-c5a5-4f60-aaa0-7dd8c371696a"},"vehicle_type_id":"4","last_reported":1748405724,"current_range_meters":8800,"station_id":"ce4bhnp2rcd13ifvqh0g","pricing_plan_id":"cebpf4jnsgd1na2vs0mg"},{"bike_id":"f0d83b53-4594-4033-afb0-0d9b1a402851","system_id":"levelo_inurba_marseille","lat":43.31102,"lon":5.37792,"is_reserved":false,"is_disabled":false,"rental_uris":{"android":"levelo://app?vid=f0d83b53-4594-4033-afb0-0d9b1a402851","ios":"levelo://app?vid=f0d83b53-4594-4033-afb0-0d9b1a402851"},"vehicle_type_id":"4","last_reported":1748405724,"current_range_meters":8800,"station_id":"ce4bgt92rcd13ifvqcg0","pricing_plan_id":"cebpf4jnsgd1na2vs0mg"},{"bike_id":"226e8884-45e8-4155-9023-6b9c578286c2","system_id":"levelo_inurba_marseille","lat":43.305736,"lon":5.372549,"is_reserved":false,"is_disabled":true,"rental_uris":{"android":"levelo://app?vid=226e8884-45e8-4155-9023-6b9c578286c2","ios":"levelo://app?vid=226e8884-45e8-4155-9023-6b9c578286c2"},"vehicle_type_id":"4","last_reported":1748405724,"current_range_meters":8800,"station_id":"ce4bgqh2rcd13ifvqc4g","pricing_plan_id":"cebpf4jnsgd1na2vs0mg"},{"bike_id":"3a257052-2ee4-4d33-9e33-3926dfd10810","system_id":"levelo_inurba_marseille","lat":43.310668,"lon":5.383487,"is_reserved":false,"is_disabled":false,"rental_uris":{"android":"levelo://app?vid=3a257052-2ee4-4d33-9e33-3926dfd10810","ios":"levelo://app?vid=3a257052-2ee4-4d33-9e33-3926dfd10810"},"vehicle_type_id":"4","last_reported":1748405724,"current_range_meters":8800,"station_id":"ce4bgv92rcd13ifvqcr0","pricing_plan_id":"cebpf4jnsgd1na2vs0mg"},{"bike_id":"436d70fa-07c2-41b1-9b01-3bed2b522ce2","system_id":"levelo_inurba_marseille","lat":43.30367,"lon":5.42478,"is_reserved":false,"is_disabled":false,"rental_uris":{"android":"levelo://app?vid=436d70fa-07c2-41b1-9b01-3bed2b522ce2","ios":"levelo://app?vid=436d70fa-07c2-41b1-9b01-3bed2b522ce2"},"vehicle_type_id":"4","last_reported":1748405724,"current_range_meters":8800,"station_id":"ce4bhoh2rcd13ifvqh6g","pricing_plan_id":"cebpf4jnsgd1na2vs0mg"},{"bike_id":"630e3090-df9f-4e61-a2d8-b2bbefd032a0","system_id":"levelo_inurba_marseille","lat":43.246078,"lon":5.392939,"is_reserved":false,"is_disabled":false,"rental_uris":{"android":"levelo://app?vid=630e3090-df9f-4e61-a2d8-b2bbefd032a0","ios":"levelo://app?vid=630e3090-df9f-4e61-a2d8-b2bbefd032a0"},"vehicle_type_id":"4","last_reported":1748405724,"current_range_meters":8800,"station_id":"","pricing_plan_id":"cebpf4jnsgd1na2vs0mg"},{"bike_id":"5c29a350-f368-474d-9c37-db39342a3756","system_id":"levelo_inurba_marseille","lat":43.3168,"lon":5.37785,"is_reserved":false,"is_disabled":false,"rental_uris":{"android":"levelo://app?vid=5c29a350-f368-474d-9c37-db39342a3756","ios":"levelo://app?vid=5c29a350-f368-474d-9c37-db39342a3756"},"vehicle_type_id":"4","last_reported":1748405724,"current_range_meters":8800,"station_id":"ce4bgth2rcd13ifvqch0","pricing_plan_id":"cebpf4jnsgd1na2vs0mg"},{"bike_id":"f689d449-d0ec-464c-9319-de295e0a037a","system_id":"levelo_inurba_marseille","lat":43.239569,"lon":5.366279,"is_reserved":false,"is_disabled":true,"rental_uris":{"android":"levelo://app?vid=f689d449-d0ec-464c-9319-de295e0a037a","ios":"levelo://app?vid=f689d449-d0ec-464c-9319-de295e0a037a"},"vehicle_type_id":"4","last_reported":1748405724,"current_range_meters":8800,"station_id":"ce4bhi12rcd13ifvqfp0","pricing_plan_id":"cebpf4jnsgd1na2vs0mg"},{"bike_id":"2832a3a3-6b04-4e1d-bbf3-45f8abce36e3","system_id":"levelo_inurba_marseille","lat":43.316907,"lon":5.404653,"is_reserved":false,"is_disabled":false,"rental_uris":{"android":"levelo://app?vid=2832a3a3-6b04-4e1d-bbf3-45f8abce36e3","ios":"levelo://app?vid=2832a3a3-6b04-4e1d-bbf3-45f8abce36e3"},"vehicle_type_id":"4","last_reported":1748405724,"current_range_meters":9200,"station_id":"ce4bh012rcd13ifvqd00","pricing_plan_id":"cebpf4jnsgd1na2vs0mg"},{"bike_id":"139a8f3d-49d8-4060-9640-834b6e2c46ea","system_id":"levelo_inurba_marseille","lat":43.29037,"lon":5.39966,"is_reserved":false,"is_disabled":false,"rental_uris":{"android":"levelo://app?vid=139a8f3d-49d8-4060-9640-834b6e2c46ea","ios":"levelo://app?vid=139a8f3d-49d8-4060-9640-834b6e2c46ea"},"vehicle_type_id":"4","last_reported":1748405724,"current_range_meters":9200,"station_id":"ce4bh392rcd13ifvqdm0","pricing_plan_id":"cebpf4jnsgd1na2vs0mg"},{"bike_id":"7a65e3be-209f-451a-8d0f-734d6f59b819","system_id":"levelo_inurba_marseille","lat":43.295471,"lon":5.394664,"is_reserved":false,"is_disabled":false,"rental_uris":{"android":"levelo://app?vid=7a65e3be-209f-451a-8d0f-734d6f59b819","ios":"levelo://app?vid=7a65e3be-209f-451a-8d0f-734d6f59b819"},"vehicle_type_id":"4","last_reported":1748405724,"current_range_meters":9200,"station_id":"","pricing_plan_id":"cebpf4jnsgd1na2vs0mg"},{"bike_id":"b32614ad-8db0-4347-b4d2-2e88c18e1ef6","system_id":"levelo_inurba_marseille","lat":43.31121,"lon":5.37763,"is_reserved":false,"is_disabled":false,"rental_uris":{"android":"levelo://app?vid=b32614ad-8db0-4347-b4d2-2e88c18e1ef6","ios":"levelo://app?vid=b32614ad-8db0-4347-b4d2-2e88c18e1ef6"},"vehicle_type_id":"4","last_reported":1748405724,"current_range_meters":9200,"station_id":"ce4bgt92rcd13ifvqcg0","pricing_plan_id":"cebpf4jnsgd1na2vs0mg"},{"bike_id":"8895786b-db23-4228-aba4-b0769c4cb004","system_id":"levelo_inurba_marseille","lat":43.31959,"lon":5.38184,"is_reserved":false,"is_disabled":false,"rental_uris":{"android":"levelo://app?vid=8895786b-db23-4228-aba4-b0769c4cb004","ios":"levelo://app?vid=8895786b-db23-4228-aba4-b0769c4cb004"},"vehicle_type_id":"4","last_reported":1748405724,"current_range_meters":9200,"station_id":"ce4bhr12rcd13ifvqhpg","pricing_plan_id":"cebpf4jnsgd1na2vs0mg"},{"bike_id":"41b68268-8357-4aa4-959d-53c0b7113280","system_id":"levelo_inurba_marseille","lat":43.302502,"lon":5.400739,"is_reserved":false,"is_disabled":false,"rental_uris":{"android":"levelo://app?vid=41b68268-8357-4aa4-959d-53c0b7113280","ios":"levelo://app?vid=41b68268-8357-4aa4-959d-53c0b7113280"},"vehicle_type_id":"4","last_reported":1748405724,"current_range_meters":9200,"station_id":"ce4bgvh2rcd13ifvqcs0","pricing_plan_id":"cebpf4jnsgd1na2vs0mg"},{"bike_id":"0e7a1463-a322-4d31-811e-e317647a58f9","system_id":"levelo_inurba_marseille","lat":43.306445,"lon":5.400808,"is_reserved":false,"is_disabled":false,"rental_uris":{"android":"levelo://app?vid=0e7a1463-a322-4d31-811e-e317647a58f9","ios":"levelo://app?vid=0e7a1463-a322-4d31-811e-e317647a58f9"},"vehicle_type_id":"4","last_reported":1748405724,"current_range_meters":9200,"station_id":"ce4bh112rcd13ifvqda0","pricing_plan_id":"cebpf4jnsgd1na2vs0mg"},{"bike_id":"54f42461-ad93-4cd0-87b6-f2c3877f5489","system_id":"levelo_inurba_marseille","lat":43.27994,"lon":5.416708,"is_reserved":false,"is_disabled":false,"rental_uris":{"android":"levelo://app?vid=54f42461-ad93-4cd0-87b6-f2c3877f5489","ios":"levelo://app?vid=54f42461-ad93-4cd0-87b6-f2c3877f5489"},"vehicle_type_id":"4","last_reported":1748405724,"current_range_meters":9200,"station_id":"ce4bho12rcd13ifvqh1g","pricing_plan_id":"cebpf4jnsgd1na2vs0mg"},{"bike_id":"765507f4-4472-41a3-99a1-e5ed81e33e54","system_id":"levelo_inurba_marseille","lat":43.28413,"lon":5.37519,"is_reserved":false,"is_disabled":false,"rental_uris":{"android":"levelo://app?vid=765507f4-4472-41a3-99a1-e5ed81e33e54","ios":"levelo://app?vid=765507f4-4472-41a3-99a1-e5ed81e33e54"},"vehicle_type_id":"4","last_reported":1748405724,"current_range_meters":9200,"station_id":"ce4bh412rcd13ifvqds0","pricing_plan_id":"cebpf4jnsgd1na2vs0mg"},{"bike_id":"a3a1e2f8-c082-4657-9cf8-ceb282e14a71","system_id":"levelo_inurba_marseille","lat":43.231912,"lon":5.399901,"is_reserved":false,"is_disabled":false,"rental_uris":{"android":"levelo://app?vid=a3a1e2f8-c082-4657-9cf8-ceb282e14a71","ios":"levelo://app?vid=a3a1e2f8-c082-4657-9cf8-ceb282e14a71"},"vehicle_type_id":"4","last_reported":1748405724,"current_range_meters":9200,"station_id":"ce4bhn12rcd13ifvqgqg","pricing_plan_id":"cebpf4jnsgd1na2vs0mg"},{"bike_id":"7aada5ca-e1c3-4b6b-b301-a25ef474274f","system_id":"levelo_inurba_marseille","lat":43.2396,"lon":5.36634,"is_reserved":false,"is_disabled":false,"rental_uris":{"android":"levelo://app?vid=7aada5ca-e1c3-4b6b-b301-a25ef474274f","ios":"levelo://app?vid=7aada5ca-e1c3-4b6b-b301-a25ef474274f"},"vehicle_type_id":"4","last_reported":1748405724,"current_range_meters":9200,"station_id":"ce4bhi12rcd13ifvqfp0","pricing_plan_id":"cebpf4jnsgd1na2vs0mg"},{"bike_id":"b739c376-f33a-42b8-8eff-1fe4940cc855","system_id":"levelo_inurba_marseille","lat":43.292533,"lon":5.384395,"is_reserved":false,"is_disabled":true,"rental_uris":{"android":"levelo://app?vid=b739c376-f33a-42b8-8eff-1fe4940cc855","ios":"levelo://app?vid=b739c376-f33a-42b8-8eff-1fe4940cc855"},"vehicle_type_id":"4","last_reported":1748405724,"current_range_meters":9200,"station_id":"ce4bh692rcd13ifvqea0","pricing_plan_id":"cebpf4jnsgd1na2vs0mg"},{"bike_id":"f785b9f1-d49c-4c68-aebd-35bb02ec172e","system_id":"levelo_inurba_marseille","lat":43.308053,"lon":5.381583,"is_reserved":false,"is_disabled":false,"rental_uris":{"android":"levelo://app?vid=f785b9f1-d49c-4c68-aebd-35bb02ec172e","ios":"levelo://app?vid=f785b9f1-d49c-4c68-aebd-35bb02ec172e"},"vehicle_type_id":"4","last_reported":1748405724,"current_range_meters":9200,"station_id":"ce4bgt12rcd13ifvqce0","pricing_plan_id":"cebpf4jnsgd1na2vs0mg"},{"bike_id":"2a046dee-b3af-48c9-9659-b7d30ba20af5","system_id":"levelo_inurba_marseille","lat":43.24333,"lon":5.37987,"is_reserved":false,"is_disabled":false,"rental_uris":{"android":"levelo://app?vid=2a046dee-b3af-48c9-9659-b7d30ba20af5","ios":"levelo://app?vid=2a046dee-b3af-48c9-9659-b7d30ba20af5"},"vehicle_type_id":"4","last_reported":1748405724,"current_range_meters":9200,"station_id":"","pricing_plan_id":"cebpf4jnsgd1na2vs0mg"},{"bike_id":"92c20333-f1be-4048-8f1a-30fdeff2a990","system_id":"levelo_inurba_marseille","lat":43.330252,"lon":5.390511,"is_reserved":false,"is_disabled":false,"rental_uris":{"android":"levelo://app?vid=92c20333-f1be-4048-8f1a-30fdeff2a990","ios":"levelo://app?vid=92c20333-f1be-4048-8f1a-30fdeff2a990"},"vehicle_type_id":"4","last_reported":1748405724,"current_range_meters":9200,"station_id":"ce4bhr92rcd13ifvqhrg","pricing_plan_id":"cebpf4jnsgd1na2vs0mg"},{"bike_id":"d536e74a-a90f-4368-9fd1-1f34b8180491","system_id":"levelo_inurba_marseille","lat":43.302169,"lon":5.394637,"is_reserved":false,"is_disabled":false,"rental_uris":{"android":"levelo://app?vid=d536e74a-a90f-4368-9fd1-1f34b8180491","ios":"levelo://app?vid=d536e74a-a90f-4368-9fd1-1f34b8180491"},"vehicle_type_id":"4","last_reported":1748405724,"current_range_meters":9600,"station_id":"ce4bh0p2rcd13ifvqd70","pricing_plan_id":"cebpf4jnsgd1na2vs0mg"},{"bike_id":"27b98b60-9b65-40d7-b266-79d4a12fa059","system_id":"levelo_inurba_marseille","lat":43.306057,"lon":5.372182,"is_reserved":false,"is_disabled":false,"rental_uris":{"android":"levelo://app?vid=27b98b60-9b65-40d7-b266-79d4a12fa059","ios":"levelo://app?vid=27b98b60-9b65-40d7-b266-79d4a12fa059"},"vehicle_type_id":"4","last_reported":1748405724,"current_range_meters":9600,"station_id":"ce4bgqh2rcd13ifvqc4g","pricing_plan_id":"cebpf4jnsgd1na2vs0mg"},{"bike_id":"e00dfda0-368f-45d7-9c55-0565d001cd35","system_id":"levelo_inurba_marseille","lat":43.305984,"lon":5.393511,"is_reserved":false,"is_disabled":false,"rental_uris":{"android":"levelo://app?vid=e00dfda0-368f-45d7-9c55-0565d001cd35","ios":"levelo://app?vid=e00dfda0-368f-45d7-9c55-0565d001cd35"},"vehicle_type_id":"4","last_reported":1748405724,"current_range_meters":9600,"station_id":"ce4bh0p2rcd13ifvqd80","pricing_plan_id":"cebpf4jnsgd1na2vs0mg"},{"bike_id":"c0b9a566-efe3-4d0b-9acc-6ef247057511","system_id":"levelo_inurba_marseille","lat":43.32358,"lon":5.38901,"is_reserved":false,"is_disabled":false,"rental_uris":{"android":"levelo://app?vid=c0b9a566-efe3-4d0b-9acc-6ef247057511","ios":"levelo://app?vid=c0b9a566-efe3-4d0b-9acc-6ef247057511"},"vehicle_type_id":"4","last_reported":1748405724,"current_range_meters":9600,"station_id":"ce4bhqp2rcd13ifvqhog","pricing_plan_id":"cebpf4jnsgd1na2vs0mg"},{"bike_id":"3dcd4f17-90fb-487e-8cfa-d9a27ae06839","system_id":"levelo_inurba_marseille","lat":43.30616,"lon":5.40084,"is_reserved":false,"is_disabled":false,"rental_uris":{"android":"levelo://app?vid=3dcd4f17-90fb-487e-8cfa-d9a27ae06839","ios":"levelo://app?vid=3dcd4f17-90fb-487e-8cfa-d9a27ae06839"},"vehicle_type_id":"4","last_reported":1748405724,"current_range_meters":9600,"station_id":"ce4bh112rcd13ifvqda0","pricing_plan_id":"cebpf4jnsgd1na2vs0mg"},{"bike_id":"ca7cf12f-fbf8-41d1-9b30-458282c0dc29","system_id":"levelo_inurba_marseille","lat":43.29796,"lon":5.393445,"is_reserved":false,"is_disabled":false,"rental_uris":{"android":"levelo://app?vid=ca7cf12f-fbf8-41d1-9b30-458282c0dc29","ios":"levelo://app?vid=ca7cf12f-fbf8-41d1-9b30-458282c0dc29"},"vehicle_type_id":"4","last_reported":1748405724,"current_range_meters":9600,"station_id":"chh1huq6cuj3fo74tm60","pricing_plan_id":"cebpf4jnsgd1na2vs0mg"},{"bike_id":"24cfad0d-71d0-43ea-8447-3b796d58b84b","system_id":"levelo_inurba_marseille","lat":43.270485,"lon":5.402657,"is_reserved":false,"is_disabled":false,"rental_uris":{"android":"levelo://app?vid=24cfad0d-71d0-43ea-8447-3b796d58b84b","ios":"levelo://app?vid=24cfad0d-71d0-43ea-8447-3b796d58b84b"},"vehicle_type_id":"4","last_reported":1748405724,"current_range_meters":9600,"station_id":"ce4bhk92rcd13ifvqgc0","pricing_plan_id":"cebpf4jnsgd1na2vs0mg"},{"bike_id":"0b9389ac-f857-4d87-84d8-daa4d96080d9","system_id":"levelo_inurba_marseille","lat":43.317555,"lon":5.390278,"is_reserved":false,"is_disabled":false,"rental_uris":{"android":"levelo://app?vid=0b9389ac-f857-4d87-84d8-daa4d96080d9","ios":"levelo://app?vid=0b9389ac-f857-4d87-84d8-daa4d96080d9"},"vehicle_type_id":"4","last_reported":1748405724,"current_range_meters":10000,"station_id":"ce4bhqp2rcd13ifvqhng","pricing_plan_id":"cebpf4jnsgd1na2vs0mg"},{"bike_id":"95248387-2056-4069-8be3-268c0a86bffe","system_id":"levelo_inurba_marseille","lat":43.25862,"lon":5.39909,"is_reserved":false,"is_disabled":false,"rental_uris":{"android":"levelo://app?vid=95248387-2056-4069-8be3-268c0a86bffe","ios":"levelo://app?vid=95248387-2056-4069-8be3-268c0a86bffe"},"vehicle_type_id":"4","last_reported":1748405724,"current_range_meters":10000,"station_id":"ce4bhl92rcd13ifvqghg","pricing_plan_id":"cebpf4jnsgd1na2vs0mg"},{"bike_id":"1a6da69f-1ddb-4eb0-99d5-b8d7dbfa3b64","system_id":"levelo_inurba_marseille","lat":43.28078,"lon":5.39657,"is_reserved":false,"is_disabled":false,"rental_uris":{"android":"levelo://app?vid=1a6da69f-1ddb-4eb0-99d5-b8d7dbfa3b64","ios":"levelo://app?vid=1a6da69f-1ddb-4eb0-99d5-b8d7dbfa3b64"},"vehicle_type_id":"4","last_reported":1748405724,"current_range_meters":10000,"station_id":"ce4bho12rcd13ifvqh2g","pricing_plan_id":"cebpf4jnsgd1na2vs0mg"},{"bike_id":"58c565ec-4152-4033-9b18-66babf3bc18f","system_id":"levelo_inurba_marseille","lat":43.306083,"lon":5.372119,"is_reserved":false,"is_disabled":false,"rental_uris":{"android":"levelo://app?vid=58c565ec-4152-4033-9b18-66babf3bc18f","ios":"levelo://app?vid=58c565ec-4152-4033-9b18-66babf3bc18f"},"vehicle_type_id":"4","last_reported":1748405724,"current_range_meters":10000,"station_id":"ce4bgqh2rcd13ifvqc4g","pricing_plan_id":"cebpf4jnsgd1na2vs0mg"},{"bike_id":"d210ed15-0cab-4985-be76-61173c3a81e4","system_id":"levelo_inurba_marseille","lat":43.287232,"lon":5.361034,"is_reserved":false,"is_disabled":true,"rental_uris":{"android":"levelo://app?vid=d210ed15-0cab-4985-be76-61173c3a81e4","ios":"levelo://app?vid=d210ed15-0cab-4985-be76-61173c3a81e4"},"vehicle_type_id":"4","last_reported":1748405724,"current_range_meters":10000,"station_id":"cki0cbj6b192h4jlfktg","pricing_plan_id":"cebpf4jnsgd1na2vs0mg"},{"bike_id":"83229224-589e-4c50-a778-c0c522497500","system_id":"levelo_inurba_marseille","lat":43.24178,"lon":5.39728,"is_reserved":false,"is_disabled":false,"rental_uris":{"android":"levelo://app?vid=83229224-589e-4c50-a778-c0c522497500","ios":"levelo://app?vid=83229224-589e-4c50-a778-c0c522497500"},"vehicle_type_id":"4","last_reported":1748405724,"current_range_meters":10000,"station_id":"ce4bhn12rcd13ifvqgpg","pricing_plan_id":"cebpf4jnsgd1na2vs0mg"},{"bike_id":"a6454886-d2ce-44b0-a4a6-2dfb69ef49c9","system_id":"levelo_inurba_marseille","lat":43.310622,"lon":5.383631,"is_reserved":false,"is_disabled":false,"rental_uris":{"android":"levelo://app?vid=a6454886-d2ce-44b0-a4a6-2dfb69ef49c9","ios":"levelo://app?vid=a6454886-d2ce-44b0-a4a6-2dfb69ef49c9"},"vehicle_type_id":"4","last_reported":1748405724,"current_range_meters":10000,"station_id":"ce4bgv92rcd13ifvqcr0","pricing_plan_id":"cebpf4jnsgd1na2vs0mg"},{"bike_id":"0750c5bc-16dd-493b-9a98-03792500952e","system_id":"levelo_inurba_marseille","lat":43.310674,"lon":5.383487,"is_reserved":false,"is_disabled":false,"rental_uris":{"android":"levelo://app?vid=0750c5bc-16dd-493b-9a98-03792500952e","ios":"levelo://app?vid=0750c5bc-16dd-493b-9a98-03792500952e"},"vehicle_type_id":"4","last_reported":1748405724,"current_range_meters":10000,"station_id":"ce4bgv92rcd13ifvqcr0","pricing_plan_id":"cebpf4jnsgd1na2vs0mg"},{"bike_id":"f757d16f-10d1-46fd-97c8-e7926b6602c0","system_id":"levelo_inurba_marseille","lat":43.308858,"lon":5.396358,"is_reserved":false,"is_disabled":false,"rental_uris":{"android":"levelo://app?vid=f757d16f-10d1-46fd-97c8-e7926b6602c0","ios":"levelo://app?vid=f757d16f-10d1-46fd-97c8-e7926b6602c0"},"vehicle_type_id":"4","last_reported":1748405724,"current_range_meters":10800,"station_id":"ce4bh012rcd13ifvqcv0","pricing_plan_id":"cebpf4jnsgd1na2vs0mg"},{"bike_id":"086db649-d8a7-4996-b50f-1dba37294b53","system_id":"levelo_inurba_marseille","lat":43.30862,"lon":5.39632,"is_reserved":false,"is_disabled":false,"rental_uris":{"android":"levelo://app?vid=086db649-d8a7-4996-b50f-1dba37294b53","ios":"levelo://app?vid=086db649-d8a7-4996-b50f-1dba37294b53"},"vehicle_type_id":"4","last_reported":1748405724,"current_range_meters":10800,"station_id":"ce4bh012rcd13ifvqcv0","pricing_plan_id":"cebpf4jnsgd1na2vs0mg"},{"bike_id":"5ad0faef-897d-4c19-b2e4-979327720bd4","system_id":"levelo_inurba_marseille","lat":43.2507,"lon":5.39543,"is_reserved":false,"is_disabled":false,"rental_uris":{"android":"levelo://app?vid=5ad0faef-897d-4c19-b2e4-979327720bd4","ios":"levelo://app?vid=5ad0faef-897d-4c19-b2e4-979327720bd4"},"vehicle_type_id":"4","last_reported":1748405724,"current_range_meters":10800,"station_id":"ce4bhm12rcd13ifvqgkg","pricing_plan_id":"cebpf4jnsgd1na2vs0mg"},{"bike_id":"2615848e-1784-42d9-b13f-6a20dcbc9915","system_id":"levelo_inurba_marseille","lat":43.306426,"lon":5.400691,"is_reserved":false,"is_disabled":false,"rental_uris":{"android":"levelo://app?vid=2615848e-1784-42d9-b13f-6a20dcbc9915","ios":"levelo://app?vid=2615848e-1784-42d9-b13f-6a20dcbc9915"},"vehicle_type_id":"4","last_reported":1748405724,"current_range_meters":10800,"station_id":"ce4bh112rcd13ifvqda0","pricing_plan_id":"cebpf4jnsgd1na2vs0mg"},{"bike_id":"728762e1-832c-432a-a711-202feb3c897b","system_id":"levelo_inurba_marseille","lat":43.30859,"lon":5.3967,"is_reserved":false,"is_disabled":false,"rental_uris":{"android":"levelo://app?vid=728762e1-832c-432a-a711-202feb3c897b","ios":"levelo://app?vid=728762e1-832c-432a-a711-202feb3c897b"},"vehicle_type_id":"4","last_reported":1748405724,"current_range_meters":10800,"station_id":"ce4bh012rcd13ifvqcv0","pricing_plan_id":"cebpf4jnsgd1na2vs0mg"},{"bike_id":"4f400036-3840-49c8-9932-b6aa5ab45ce0","system_id":"levelo_inurba_marseille","lat":43.309363,"lon":5.401409,"is_reserved":false,"is_disabled":false,"rental_uris":{"android":"levelo://app?vid=4f400036-3840-49c8-9932-b6aa5ab45ce0","ios":"levelo://app?vid=4f400036-3840-49c8-9932-b6aa5ab45ce0"},"vehicle_type_id":"4","last_reported":1748405724,"current_range_meters":10800,"station_id":"ce4bgvp2rcd13ifvqct0","pricing_plan_id":"cebpf4jnsgd1na2vs0mg"},{"bike_id":"1e9cfdb7-6b8a-4441-9f46-98e85a4be5d9","system_id":"levelo_inurba_marseille","lat":43.231412,"lon":5.43723,"is_reserved":false,"is_disabled":false,"rental_uris":{"android":"levelo://app?vid=1e9cfdb7-6b8a-4441-9f46-98e85a4be5d9","ios":"levelo://app?vid=1e9cfdb7-6b8a-4441-9f46-98e85a4be5d9"},"vehicle_type_id":"4","last_reported":1748405724,"current_range_meters":10800,"station_id":"ce4bhmp2rcd13ifvqgog","pricing_plan_id":"cebpf4jnsgd1na2vs0mg"},{"bike_id":"b22310cf-e533-4fa9-8f4f-61171f82f011","system_id":"levelo_inurba_marseille","lat":43.30437,"lon":5.39746,"is_reserved":false,"is_disabled":false,"rental_uris":{"android":"levelo://app?vid=b22310cf-e533-4fa9-8f4f-61171f82f011","ios":"levelo://app?vid=b22310cf-e533-4fa9-8f4f-61171f82f011"},"vehicle_type_id":"4","last_reported":1748405724,"current_range_meters":10800,"station_id":"ce4bh092rcd13ifvqd20","pricing_plan_id":"cebpf4jnsgd1na2vs0mg"},{"bike_id":"6a2eb3d1-8421-4db2-9c25-13e15f56bb41","system_id":"levelo_inurba_marseille","lat":43.3093,"lon":5.4015,"is_reserved":false,"is_disabled":false,"rental_uris":{"android":"levelo://app?vid=6a2eb3d1-8421-4db2-9c25-13e15f56bb41","ios":"levelo://app?vid=6a2eb3d1-8421-4db2-9c25-13e15f56bb41"},"vehicle_type_id":"4","last_reported":1748405724,"current_range_meters":10800,"station_id":"ce4bgvp2rcd13ifvqct0","pricing_plan_id":"cebpf4jnsgd1na2vs0mg"},{"bike_id":"f0ecbad3-5c56-4efa-84f0-9f2a84b7774d","system_id":"levelo_inurba_marseille","lat":43.32214,"lon":5.38436,"is_reserved":false,"is_disabled":false,"rental_uris":{"android":"levelo://app?vid=f0ecbad3-5c56-4efa-84f0-9f2a84b7774d","ios":"levelo://app?vid=f0ecbad3-5c56-4efa-84f0-9f2a84b7774d"},"vehicle_type_id":"4","last_reported":1748405724,"current_range_meters":10800,"station_id":"","pricing_plan_id":"cebpf4jnsgd1na2vs0mg"},{"bike_id":"631b6ae3-17f3-4938-bfbf-bb37bcf89617","system_id":"levelo_inurba_marseille","lat":43.29255,"lon":5.40906,"is_reserved":false,"is_disabled":false,"rental_uris":{"android":"levelo://app?vid=631b6ae3-17f3-4938-bfbf-bb37bcf89617","ios":"levelo://app?vid=631b6ae3-17f3-4938-bfbf-bb37bcf89617"},"vehicle_type_id":"4","last_reported":1748405724,"current_range_meters":10800,"station_id":"ce4bh192rcd13ifvqdc0","pricing_plan_id":"cebpf4jnsgd1na2vs0mg"},{"bike_id":"bc21eb6e-8700-42e4-b2d6-274ccd1bac81","system_id":"levelo_inurba_marseille","lat":43.289679,"lon":5.378321,"is_reserved":false,"is_disabled":true,"rental_uris":{"android":"levelo://app?vid=bc21eb6e-8700-42e4-b2d6-274ccd1bac81","ios":"levelo://app?vid=bc21eb6e-8700-42e4-b2d6-274ccd1bac81"},"vehicle_type_id":"4","last_reported":1748405724,"current_range_meters":10800,"station_id":"ce4bh9p2rcd13ifvqed0","pricing_plan_id":"cebpf4jnsgd1na2vs0mg"},{"bike_id":"834a0232-d7de-4c17-90e8-aa8227913570","system_id":"levelo_inurba_marseille","lat":43.291925,"lon":5.393206,"is_reserved":false,"is_disabled":false,"rental_uris":{"android":"levelo://app?vid=834a0232-d7de-4c17-90e8-aa8227913570","ios":"levelo://app?vid=834a0232-d7de-4c17-90e8-aa8227913570"},"vehicle_type_id":"4","last_reported":1748405724,"current_range_meters":10800,"station_id":"ce4bh192rcd13ifvqdd0","pricing_plan_id":"cebpf4jnsgd1na2vs0mg"},{"bike_id":"18f379c0-cd6a-4d28-94be-da5478774af1","system_id":"levelo_inurba_marseille","lat":43.290315,"lon":5.359229,"is_reserved":false,"is_disabled":true,"rental_uris":{"android":"levelo://app?vid=18f379c0-cd6a-4d28-94be-da5478774af1","ios":"levelo://app?vid=18f379c0-cd6a-4d28-94be-da5478774af1"},"vehicle_type_id":"4","last_reported":1748405724,"current_range_meters":11200,"station_id":"ce4bha92rcd13ifvqeg0","pricing_plan_id":"cebpf4jnsgd1na2vs0mg"},{"bike_id":"6530cb0d-cf31-4e4a-ab23-cc7b4720c169","system_id":"levelo_inurba_marseille","lat":43.31118,"lon":5.37765,"is_reserved":false,"is_disabled":false,"rental_uris":{"android":"levelo://app?vid=6530cb0d-cf31-4e4a-ab23-cc7b4720c169","ios":"levelo://app?vid=6530cb0d-cf31-4e4a-ab23-cc7b4720c169"},"vehicle_type_id":"4","last_reported":1748405724,"current_range_meters":11200,"station_id":"ce4bgt92rcd13ifvqcg0","pricing_plan_id":"cebpf4jnsgd1na2vs0mg"},{"bike_id":"cc391400-7d4c-4261-8004-e9968eddac7e","system_id":"levelo_inurba_marseille","lat":43.2903,"lon":5.375582,"is_reserved":false,"is_disabled":true,"rental_uris":{"android":"levelo://app?vid=cc391400-7d4c-4261-8004-e9968eddac7e","ios":"levelo://app?vid=cc391400-7d4c-4261-8004-e9968eddac7e"},"vehicle_type_id":"4","last_reported":1748405724,"current_range_meters":11200,"station_id":"ce4bh692rcd13ifvqe90","pricing_plan_id":"cebpf4jnsgd1na2vs0mg"},{"bike_id":"8b8f4ddc-5f2d-41ad-9613-91a528fd4361","system_id":"levelo_inurba_marseille","lat":43.229304,"lon":5.353844,"is_reserved":false,"is_disabled":false,"rental_uris":{"android":"levelo://app?vid=8b8f4ddc-5f2d-41ad-9613-91a528fd4361","ios":"levelo://app?vid=8b8f4ddc-5f2d-41ad-9613-91a528fd4361"},"vehicle_type_id":"4","last_reported":1748405724,"current_range_meters":11200,"station_id":"cpo3532slgdg3j2ikp40","pricing_plan_id":"cebpf4jnsgd1na2vs0mg"},{"bike_id":"9457a377-3567-464b-b191-f8d2ccbd3d31","system_id":"levelo_inurba_marseille","lat":43.31687,"lon":5.40403,"is_reserved":false,"is_disabled":false,"rental_uris":{"android":"levelo://app?vid=9457a377-3567-464b-b191-f8d2ccbd3d31","ios":"levelo://app?vid=9457a377-3567-464b-b191-f8d2ccbd3d31"},"vehicle_type_id":"4","last_reported":1748405724,"current_range_meters":11200,"station_id":"","pricing_plan_id":"cebpf4jnsgd1na2vs0mg"},{"bike_id":"37d1376c-dfa1-4e03-8541-7bea54bb6ea8","system_id":"levelo_inurba_marseille","lat":43.311668,"lon":5.387171,"is_reserved":false,"is_disabled":false,"rental_uris":{"android":"levelo://app?vid=37d1376c-dfa1-4e03-8541-7bea54bb6ea8","ios":"levelo://app?vid=37d1376c-dfa1-4e03-8541-7bea54bb6ea8"},"vehicle_type_id":"4","last_reported":1748405724,"current_range_meters":11200,"station_id":"ce4bgv12rcd13ifvqcp0","pricing_plan_id":"cebpf4jnsgd1na2vs0mg"},{"bike_id":"0c54ac15-bb15-4844-a441-b6cbd573eb91","system_id":"levelo_inurba_marseille","lat":43.308847,"lon":5.396318,"is_reserved":false,"is_disabled":false,"rental_uris":{"android":"levelo://app?vid=0c54ac15-bb15-4844-a441-b6cbd573eb91","ios":"levelo://app?vid=0c54ac15-bb15-4844-a441-b6cbd573eb91"},"vehicle_type_id":"4","last_reported":1748405724,"current_range_meters":11200,"station_id":"ce4bh012rcd13ifvqcv0","pricing_plan_id":"cebpf4jnsgd1na2vs0mg"},{"bike_id":"9ed94f34-a328-46fc-b201-bade39dda6d1","system_id":"levelo_inurba_marseille","lat":43.25009,"lon":5.38955,"is_reserved":false,"is_disabled":false,"rental_uris":{"android":"levelo://app?vid=9ed94f34-a328-46fc-b201-bade39dda6d1","ios":"levelo://app?vid=9ed94f34-a328-46fc-b201-bade39dda6d1"},"vehicle_type_id":"4","last_reported":1748405724,"current_range_meters":11600,"station_id":"ce4bhgp2rcd13ifvqfd0","pricing_plan_id":"cebpf4jnsgd1na2vs0mg"},{"bike_id":"2c6738e3-9274-470f-ba2e-d571e5b3e120","system_id":"levelo_inurba_marseille","lat":43.2987,"lon":5.39738,"is_reserved":false,"is_disabled":false,"rental_uris":{"android":"levelo://app?vid=2c6738e3-9274-470f-ba2e-d571e5b3e120","ios":"levelo://app?vid=2c6738e3-9274-470f-ba2e-d571e5b3e120"},"vehicle_type_id":"4","last_reported":1748405724,"current_range_meters":11600,"station_id":"ce4bh0h2rcd13ifvqd50","pricing_plan_id":"cebpf4jnsgd1na2vs0mg"},{"bike_id":"c49b70de-4adb-4cfc-8307-bdc53758104f","system_id":"levelo_inurba_marseille","lat":43.23189,"lon":5.35573,"is_reserved":false,"is_disabled":false,"rental_uris":{"android":"levelo://app?vid=c49b70de-4adb-4cfc-8307-bdc53758104f","ios":"levelo://app?vid=c49b70de-4adb-4cfc-8307-bdc53758104f"},"vehicle_type_id":"4","last_reported":1748405724,"current_range_meters":11600,"station_id":"ce4bhu92rcd13ifvqi70","pricing_plan_id":"cebpf4jnsgd1na2vs0mg"},{"bike_id":"16325869-b0b1-4ea6-b5e0-4206964d490a","system_id":"levelo_inurba_marseille","lat":43.260268,"lon":5.417411,"is_reserved":false,"is_disabled":false,"rental_uris":{"android":"levelo://app?vid=16325869-b0b1-4ea6-b5e0-4206964d490a","ios":"levelo://app?vid=16325869-b0b1-4ea6-b5e0-4206964d490a"},"vehicle_type_id":"4","last_reported":1748405724,"current_range_meters":11600,"station_id":"","pricing_plan_id":"cebpf4jnsgd1na2vs0mg"},{"bike_id":"5a621852-4b0d-47fa-9514-efb82e08741c","system_id":"levelo_inurba_marseille","lat":43.33765,"lon":5.37475,"is_reserved":false,"is_disabled":true,"rental_uris":{"android":"levelo://app?vid=5a621852-4b0d-47fa-9514-efb82e08741c","ios":"levelo://app?vid=5a621852-4b0d-47fa-9514-efb82e08741c"},"vehicle_type_id":"4","last_reported":1748405724,"current_range_meters":12000,"station_id":"","pricing_plan_id":"cebpf4jnsgd1na2vs0mg"},{"bike_id":"fd3b8926-9732-4665-beec-b59272be973b","system_id":"levelo_inurba_marseille","lat":43.31185,"lon":5.40191,"is_reserved":false,"is_disabled":false,"rental_uris":{"android":"levelo://app?vid=fd3b8926-9732-4665-beec-b59272be973b","ios":"levelo://app?vid=fd3b8926-9732-4665-beec-b59272be973b"},"vehicle_type_id":"4","last_reported":1748405724,"current_range_meters":12000,"station_id":"","pricing_plan_id":"cebpf4jnsgd1na2vs0mg"},{"bike_id":"6e28590a-2ada-4d9b-8722-bc2b01d9cca0","system_id":"levelo_inurba_marseille","lat":43.28723,"lon":5.36086,"is_reserved":false,"is_disabled":false,"rental_uris":{"android":"levelo://app?vid=6e28590a-2ada-4d9b-8722-bc2b01d9cca0","ios":"levelo://app?vid=6e28590a-2ada-4d9b-8722-bc2b01d9cca0"},"vehicle_type_id":"4","last_reported":1748405724,"current_range_meters":12000,"station_id":"cki0cbj6b192h4jlfktg","pricing_plan_id":"cebpf4jnsgd1na2vs0mg"},{"bike_id":"46f1e1a2-421d-4288-9b19-22918bc7cc7f","system_id":"levelo_inurba_marseille","lat":43.231986,"lon":5.355519,"is_reserved":false,"is_disabled":false,"rental_uris":{"android":"levelo://app?vid=46f1e1a2-421d-4288-9b19-22918bc7cc7f","ios":"levelo://app?vid=46f1e1a2-421d-4288-9b19-22918bc7cc7f"},"vehicle_type_id":"4","last_reported":1748405724,"current_range_meters":12000,"station_id":"ce4bhu92rcd13ifvqi70","pricing_plan_id":"cebpf4jnsgd1na2vs0mg"},{"bike_id":"2ee3c059-c14d-41e1-8070-f754017e275e","system_id":"levelo_inurba_marseille","lat":43.30874,"lon":5.39643,"is_reserved":false,"is_disabled":false,"rental_uris":{"android":"levelo://app?vid=2ee3c059-c14d-41e1-8070-f754017e275e","ios":"levelo://app?vid=2ee3c059-c14d-41e1-8070-f754017e275e"},"vehicle_type_id":"4","last_reported":1748405724,"current_range_meters":12000,"station_id":"ce4bh012rcd13ifvqcv0","pricing_plan_id":"cebpf4jnsgd1na2vs0mg"},{"bike_id":"f7fbc1d9-af64-4aef-9eba-8165d0aadc07","system_id":"levelo_inurba_marseille","lat":43.30919,"lon":5.40163,"is_reserved":false,"is_disabled":false,"rental_uris":{"android":"levelo://app?vid=f7fbc1d9-af64-4aef-9eba-8165d0aadc07","ios":"levelo://app?vid=f7fbc1d9-af64-4aef-9eba-8165d0aadc07"},"vehicle_type_id":"4","last_reported":1748405724,"current_range_meters":12000,"station_id":"ce4bgvp2rcd13ifvqct0","pricing_plan_id":"cebpf4jnsgd1na2vs0mg"},{"bike_id":"d2fa8e77-9f90-45e1-a835-7464576f03ac","system_id":"levelo_inurba_marseille","lat":43.31699,"lon":5.40466,"is_reserved":false,"is_disabled":false,"rental_uris":{"android":"levelo://app?vid=d2fa8e77-9f90-45e1-a835-7464576f03ac","ios":"levelo://app?vid=d2fa8e77-9f90-45e1-a835-7464576f03ac"},"vehicle_type_id":"4","last_reported":1748405724,"current_range_meters":12000,"station_id":"ce4bh012rcd13ifvqd00","pricing_plan_id":"cebpf4jnsgd1na2vs0mg"},{"bike_id":"c9ac9815-cace-4f5a-bc55-391519ae5e1e","system_id":"levelo_inurba_marseille","lat":43.271841,"lon":5.409851,"is_reserved":false,"is_disabled":false,"rental_uris":{"android":"levelo://app?vid=c9ac9815-cace-4f5a-bc55-391519ae5e1e","ios":"levelo://app?vid=c9ac9815-cace-4f5a-bc55-391519ae5e1e"},"vehicle_type_id":"4","last_reported":1748405724,"current_range_meters":12000,"station_id":"ce4bhl12rcd13ifvqgf0","pricing_plan_id":"cebpf4jnsgd1na2vs0mg"},{"bike_id":"da8b2ce3-cf54-42bc-a195-38972c932104","system_id":"levelo_inurba_marseille","lat":43.309324,"lon":5.401613,"is_reserved":false,"is_disabled":false,"rental_uris":{"android":"levelo://app?vid=da8b2ce3-cf54-42bc-a195-38972c932104","ios":"levelo://app?vid=da8b2ce3-cf54-42bc-a195-38972c932104"},"vehicle_type_id":"4","last_reported":1748405724,"current_range_meters":12400,"station_id":"ce4bgvp2rcd13ifvqct0","pricing_plan_id":"cebpf4jnsgd1na2vs0mg"},{"bike_id":"34c6f0fc-a825-460a-874b-f9afa9305de8","system_id":"levelo_inurba_marseille","lat":43.30616,"lon":5.37231,"is_reserved":false,"is_disabled":false,"rental_uris":{"android":"levelo://app?vid=34c6f0fc-a825-460a-874b-f9afa9305de8","ios":"levelo://app?vid=34c6f0fc-a825-460a-874b-f9afa9305de8"},"vehicle_type_id":"4","last_reported":1748405724,"current_range_meters":12400,"station_id":"ce4bgqh2rcd13ifvqc4g","pricing_plan_id":"cebpf4jnsgd1na2vs0mg"},{"bike_id":"07ab72bd-9298-45dd-8184-52d45380b58d","system_id":"levelo_inurba_marseille","lat":43.28075,"lon":5.3967,"is_reserved":false,"is_disabled":false,"rental_uris":{"android":"levelo://app?vid=07ab72bd-9298-45dd-8184-52d45380b58d","ios":"levelo://app?vid=07ab72bd-9298-45dd-8184-52d45380b58d"},"vehicle_type_id":"4","last_reported":1748405724,"current_range_meters":12400,"station_id":"ce4bho12rcd13ifvqh2g","pricing_plan_id":"cebpf4jnsgd1na2vs0mg"},{"bike_id":"7d644362-2701-4137-aac7-822704820d27","system_id":"levelo_inurba_marseille","lat":43.31757,"lon":5.390235,"is_reserved":false,"is_disabled":true,"rental_uris":{"android":"levelo://app?vid=7d644362-2701-4137-aac7-822704820d27","ios":"levelo://app?vid=7d644362-2701-4137-aac7-822704820d27"},"vehicle_type_id":"4","last_reported":1748405724,"current_range_meters":12400,"station_id":"ce4bhqp2rcd13ifvqhng","pricing_plan_id":"cebpf4jnsgd1na2vs0mg"},{"bike_id":"b9feece3-8db7-4d9c-b5c4-3d592ac61b90","system_id":"levelo_inurba_marseille","lat":43.291848,"lon":5.358085,"is_reserved":false,"is_disabled":true,"rental_uris":{"android":"levelo://app?vid=b9feece3-8db7-4d9c-b5c4-3d592ac61b90","ios":"levelo://app?vid=b9feece3-8db7-4d9c-b5c4-3d592ac61b90"},"vehicle_type_id":"4","last_reported":1748405724,"current_range_meters":12400,"station_id":"","pricing_plan_id":"cebpf4jnsgd1na2vs0mg"},{"bike_id":"71c3c26b-dbd0-45d0-80eb-41fe0433ad32","system_id":"levelo_inurba_marseille","lat":43.310627,"lon":5.383716,"is_reserved":false,"is_disabled":false,"rental_uris":{"android":"levelo://app?vid=71c3c26b-dbd0-45d0-80eb-41fe0433ad32","ios":"levelo://app?vid=71c3c26b-dbd0-45d0-80eb-41fe0433ad32"},"vehicle_type_id":"4","last_reported":1748405724,"current_range_meters":12800,"station_id":"ce4bgv92rcd13ifvqcr0","pricing_plan_id":"cebpf4jnsgd1na2vs0mg"},{"bike_id":"5de4953e-ea04-44d2-a30c-dd56155d457d","system_id":"levelo_inurba_marseille","lat":43.28153,"lon":5.42649,"is_reserved":false,"is_disabled":false,"rental_uris":{"android":"levelo://app?vid=5de4953e-ea04-44d2-a30c-dd56155d457d","ios":"levelo://app?vid=5de4953e-ea04-44d2-a30c-dd56155d457d"},"vehicle_type_id":"4","last_reported":1748405724,"current_range_meters":12800,"station_id":"ce4bhnh2rcd13ifvqgug","pricing_plan_id":"cebpf4jnsgd1na2vs0mg"},{"bike_id":"1d9aa0a3-8d94-496c-8645-8bc9aba995f5","system_id":"levelo_inurba_marseille","lat":43.292865,"lon":5.401389,"is_reserved":false,"is_disabled":false,"rental_uris":{"android":"levelo://app?vid=1d9aa0a3-8d94-496c-8645-8bc9aba995f5","ios":"levelo://app?vid=1d9aa0a3-8d94-496c-8645-8bc9aba995f5"},"vehicle_type_id":"4","last_reported":1748405724,"current_range_meters":12800,"station_id":"ce4bh312rcd13ifvqdk0","pricing_plan_id":"cebpf4jnsgd1na2vs0mg"},{"bike_id":"0dec8d3f-3677-4923-9cd0-fd48007bde70","system_id":"levelo_inurba_marseille","lat":43.30168,"lon":5.36617,"is_reserved":false,"is_disabled":false,"rental_uris":{"android":"levelo://app?vid=0dec8d3f-3677-4923-9cd0-fd48007bde70","ios":"levelo://app?vid=0dec8d3f-3677-4923-9cd0-fd48007bde70"},"vehicle_type_id":"4","last_reported":1748405724,"current_range_meters":12800,"station_id":"ce4bgrh2rcd13ifvqc8g","pricing_plan_id":"cebpf4jnsgd1na2vs0mg"},{"bike_id":"aeb17350-5d00-44be-8ef5-7401b4326230","system_id":"levelo_inurba_marseille","lat":43.24551,"lon":5.39529,"is_reserved":false,"is_disabled":false,"rental_uris":{"android":"levelo://app?vid=aeb17350-5d00-44be-8ef5-7401b4326230","ios":"levelo://app?vid=aeb17350-5d00-44be-8ef5-7401b4326230"},"vehicle_type_id":"4","last_reported":1748405724,"current_range_meters":12800,"station_id":"ce4bhlp2rcd13ifvqgjg","pricing_plan_id":"cebpf4jnsgd1na2vs0mg"},{"bike_id":"47583335-9e10-4931-b076-003bea66dc0e","system_id":"levelo_inurba_marseille","lat":43.282084,"lon":5.39062,"is_reserved":false,"is_disabled":false,"rental_uris":{"android":"levelo://app?vid=47583335-9e10-4931-b076-003bea66dc0e","ios":"levelo://app?vid=47583335-9e10-4931-b076-003bea66dc0e"},"vehicle_type_id":"4","last_reported":1748405724,"current_range_meters":12800,"station_id":"","pricing_plan_id":"cebpf4jnsgd1na2vs0mg"},{"bike_id":"66ce27fa-93cf-4af2-b68b-f853af9cec83","system_id":"levelo_inurba_marseille","lat":43.295066,"lon":5.374448,"is_reserved":false,"is_disabled":false,"rental_uris":{"android":"levelo://app?vid=66ce27fa-93cf-4af2-b68b-f853af9cec83","ios":"levelo://app?vid=66ce27fa-93cf-4af2-b68b-f853af9cec83"},"vehicle_type_id":"4","last_reported":1748405724,"current_range_meters":13600,"station_id":"ce4bgh92rcd13ifvqb50","pricing_plan_id":"cebpf4jnsgd1na2vs0mg"},{"bike_id":"134c70cc-46f1-414c-ba60-b99ba2b4a992","system_id":"levelo_inurba_marseille","lat":43.348148,"lon":5.351136,"is_reserved":false,"is_disabled":false,"rental_uris":{"android":"levelo://app?vid=134c70cc-46f1-414c-ba60-b99ba2b4a992","ios":"levelo://app?vid=134c70cc-46f1-414c-ba60-b99ba2b4a992"},"vehicle_type_id":"4","last_reported":1748405724,"current_range_meters":13600,"station_id":"","pricing_plan_id":"cebpf4jnsgd1na2vs0mg"},{"bike_id":"81073b57-ac04-480f-afb6-2528a984f711","system_id":"levelo_inurba_marseille","lat":43.287106,"lon":5.399936,"is_reserved":false,"is_disabled":false,"rental_uris":{"android":"levelo://app?vid=81073b57-ac04-480f-afb6-2528a984f711","ios":"levelo://app?vid=81073b57-ac04-480f-afb6-2528a984f711"},"vehicle_type_id":"4","last_reported":1748405724,"current_range_meters":14000,"station_id":"ce4bho92rcd13ifvqh3g","pricing_plan_id":"cebpf4jnsgd1na2vs0mg"},{"bike_id":"25fe1924-4408-4709-a1de-804f3412a784","system_id":"levelo_inurba_marseille","lat":43.31372,"lon":5.36685,"is_reserved":false,"is_disabled":false,"rental_uris":{"android":"levelo://app?vid=25fe1924-4408-4709-a1de-804f3412a784","ios":"levelo://app?vid=25fe1924-4408-4709-a1de-804f3412a784"},"vehicle_type_id":"4","last_reported":1748405724,"current_range_meters":14000,"station_id":"ce4bgr92rcd13ifvqc6g","pricing_plan_id":"cebpf4jnsgd1na2vs0mg"},{"bike_id":"c2c25dd5-dc71-4aa2-a4d5-1ae79422659b","system_id":"levelo_inurba_marseille","lat":43.282044,"lon":5.39062,"is_reserved":false,"is_disabled":false,"rental_uris":{"android":"levelo://app?vid=c2c25dd5-dc71-4aa2-a4d5-1ae79422659b","ios":"levelo://app?vid=c2c25dd5-dc71-4aa2-a4d5-1ae79422659b"},"vehicle_type_id":"4","last_reported":1748405724,"current_range_meters":14000,"station_id":"","pricing_plan_id":"cebpf4jnsgd1na2vs0mg"},{"bike_id":"ff8f28bc-f6fd-4682-9705-5ce355ece96b","system_id":"levelo_inurba_marseille","lat":43.30258,"lon":5.40098,"is_reserved":false,"is_disabled":false,"rental_uris":{"android":"levelo://app?vid=ff8f28bc-f6fd-4682-9705-5ce355ece96b","ios":"levelo://app?vid=ff8f28bc-f6fd-4682-9705-5ce355ece96b"},"vehicle_type_id":"4","last_reported":1748405724,"current_range_meters":14000,"station_id":"ce4bgvh2rcd13ifvqcs0","pricing_plan_id":"cebpf4jnsgd1na2vs0mg"},{"bike_id":"46ea35f2-33ac-4c5f-9a27-c944e9b6fb6a","system_id":"levelo_inurba_marseille","lat":43.30597,"lon":5.39364,"is_reserved":false,"is_disabled":false,"rental_uris":{"android":"levelo://app?vid=46ea35f2-33ac-4c5f-9a27-c944e9b6fb6a","ios":"levelo://app?vid=46ea35f2-33ac-4c5f-9a27-c944e9b6fb6a"},"vehicle_type_id":"4","last_reported":1748405724,"current_range_meters":14400,"station_id":"ce4bh0p2rcd13ifvqd80","pricing_plan_id":"cebpf4jnsgd1na2vs0mg"},{"bike_id":"f17b5f1b-722c-492d-a6a6-635d0fc8540a","system_id":"levelo_inurba_marseille","lat":43.30446,"lon":5.39732,"is_reserved":false,"is_disabled":false,"rental_uris":{"android":"levelo://app?vid=f17b5f1b-722c-492d-a6a6-635d0fc8540a","ios":"levelo://app?vid=f17b5f1b-722c-492d-a6a6-635d0fc8540a"},"vehicle_type_id":"4","last_reported":1748405724,"current_range_meters":14400,"station_id":"ce4bh092rcd13ifvqd20","pricing_plan_id":"cebpf4jnsgd1na2vs0mg"},{"bike_id":"750d9e45-bbfa-48c7-98ea-fdd51751dc8b","system_id":"levelo_inurba_marseille","lat":43.2396,"lon":5.36636,"is_reserved":false,"is_disabled":false,"rental_uris":{"android":"levelo://app?vid=750d9e45-bbfa-48c7-98ea-fdd51751dc8b","ios":"levelo://app?vid=750d9e45-bbfa-48c7-98ea-fdd51751dc8b"},"vehicle_type_id":"4","last_reported":1748405724,"current_range_meters":14400,"station_id":"ce4bhi12rcd13ifvqfp0","pricing_plan_id":"cebpf4jnsgd1na2vs0mg"},{"bike_id":"2a529e4a-98c3-4022-8fed-d80a6b40c232","system_id":"levelo_inurba_marseille","lat":43.24489,"lon":5.39543,"is_reserved":false,"is_disabled":false,"rental_uris":{"android":"levelo://app?vid=2a529e4a-98c3-4022-8fed-d80a6b40c232","ios":"levelo://app?vid=2a529e4a-98c3-4022-8fed-d80a6b40c232"},"vehicle_type_id":"4","last_reported":1748405724,"current_range_meters":14400,"station_id":"ce4bhlp2rcd13ifvqgjg","pricing_plan_id":"cebpf4jnsgd1na2vs0mg"},{"bike_id":"b64e0435-c3ba-4aa1-92b6-dbfe374408f1","system_id":"levelo_inurba_marseille","lat":43.30153,"lon":5.38096,"is_reserved":false,"is_disabled":false,"rental_uris":{"android":"levelo://app?vid=b64e0435-c3ba-4aa1-92b6-dbfe374408f1","ios":"levelo://app?vid=b64e0435-c3ba-4aa1-92b6-dbfe374408f1"},"vehicle_type_id":"4","last_reported":1748405724,"current_range_meters":14000,"station_id":"ce4bgjp2rcd13ifvqbh0","pricing_plan_id":"cebpf4jnsgd1na2vs0mg"},{"bike_id":"8cb48e60-19aa-4fb9-8708-4e4a56b04ded","system_id":"levelo_inurba_marseille","lat":43.254818,"lon":5.376742,"is_reserved":false,"is_disabled":true,"rental_uris":{"android":"levelo://app?vid=8cb48e60-19aa-4fb9-8708-4e4a56b04ded","ios":"levelo://app?vid=8cb48e60-19aa-4fb9-8708-4e4a56b04ded"},"vehicle_type_id":"4","last_reported":1748405724,"current_range_meters":14400,"station_id":"ce4bhh12rcd13ifvqff0","pricing_plan_id":"cebpf4jnsgd1na2vs0mg"},{"bike_id":"cca40936-2e2e-4cae-9baf-eec8f3341b59","system_id":"levelo_inurba_marseille","lat":43.30636,"lon":5.40065,"is_reserved":false,"is_disabled":false,"rental_uris":{"android":"levelo://app?vid=cca40936-2e2e-4cae-9baf-eec8f3341b59","ios":"levelo://app?vid=cca40936-2e2e-4cae-9baf-eec8f3341b59"},"vehicle_type_id":"4","last_reported":1748405724,"current_range_meters":14400,"station_id":"ce4bh112rcd13ifvqda0","pricing_plan_id":"cebpf4jnsgd1na2vs0mg"},{"bike_id":"e736686f-625a-4d9a-a7d4-f55f37278fdb","system_id":"levelo_inurba_marseille","lat":43.2942,"lon":5.38613,"is_reserved":false,"is_disabled":true,"rental_uris":{"android":"levelo://app?vid=e736686f-625a-4d9a-a7d4-f55f37278fdb","ios":"levelo://app?vid=e736686f-625a-4d9a-a7d4-f55f37278fdb"},"vehicle_type_id":"4","last_reported":1748405724,"current_range_meters":14400,"station_id":"ce4bh2h2rcd13ifvqdh0","pricing_plan_id":"cebpf4jnsgd1na2vs0mg"},{"bike_id":"24f3e3d5-b921-4756-97bd-883483154b22","system_id":"levelo_inurba_marseille","lat":43.322896,"lon":5.382736,"is_reserved":false,"is_disabled":false,"rental_uris":{"android":"levelo://app?vid=24f3e3d5-b921-4756-97bd-883483154b22","ios":"levelo://app?vid=24f3e3d5-b921-4756-97bd-883483154b22"},"vehicle_type_id":"4","last_reported":1748405724,"current_range_meters":14400,"station_id":"ce4bhr12rcd13ifvqhqg","pricing_plan_id":"cebpf4jnsgd1na2vs0mg"},{"bike_id":"825274f2-35c2-43a3-ab4e-e6978ea7f406","system_id":"levelo_inurba_marseille","lat":43.30217,"lon":5.39457,"is_reserved":false,"is_disabled":false,"rental_uris":{"android":"levelo://app?vid=825274f2-35c2-43a3-ab4e-e6978ea7f406","ios":"levelo://app?vid=825274f2-35c2-43a3-ab4e-e6978ea7f406"},"vehicle_type_id":"4","last_reported":1748405724,"current_range_meters":14800,"station_id":"ce4bh0p2rcd13ifvqd70","pricing_plan_id":"cebpf4jnsgd1na2vs0mg"},{"bike_id":"5b71d762-ff7f-46b3-a906-4507d388dbfe","system_id":"levelo_inurba_marseille","lat":43.298907,"lon":5.397373,"is_reserved":false,"is_disabled":true,"rental_uris":{"android":"levelo://app?vid=5b71d762-ff7f-46b3-a906-4507d388dbfe","ios":"levelo://app?vid=5b71d762-ff7f-46b3-a906-4507d388dbfe"},"vehicle_type_id":"4","last_reported":1748405724,"current_range_meters":14800,"station_id":"ce4bh0h2rcd13ifvqd50","pricing_plan_id":"cebpf4jnsgd1na2vs0mg"},{"bike_id":"964e93a9-8735-4d6e-9095-3e84919651d8","system_id":"levelo_inurba_marseille","lat":43.29966,"lon":5.41328,"is_reserved":false,"is_disabled":false,"rental_uris":{"android":"levelo://app?vid=964e93a9-8735-4d6e-9095-3e84919651d8","ios":"levelo://app?vid=964e93a9-8735-4d6e-9095-3e84919651d8"},"vehicle_type_id":"4","last_reported":1748405724,"current_range_meters":14800,"station_id":"ce4bhp12rcd13ifvqh9g","pricing_plan_id":"cebpf4jnsgd1na2vs0mg"},{"bike_id":"78cfde37-b253-4fc0-a7ff-0e34f033978c","system_id":"levelo_inurba_marseille","lat":43.30875,"lon":5.39648,"is_reserved":false,"is_disabled":false,"rental_uris":{"android":"levelo://app?vid=78cfde37-b253-4fc0-a7ff-0e34f033978c","ios":"levelo://app?vid=78cfde37-b253-4fc0-a7ff-0e34f033978c"},"vehicle_type_id":"4","last_reported":1748405724,"current_range_meters":14800,"station_id":"ce4bh012rcd13ifvqcv0","pricing_plan_id":"cebpf4jnsgd1na2vs0mg"},{"bike_id":"28a1aaa1-8a10-4dff-8383-056b3998fa87","system_id":"levelo_inurba_marseille","lat":43.25824,"lon":5.394347,"is_reserved":false,"is_disabled":false,"rental_uris":{"android":"levelo://app?vid=28a1aaa1-8a10-4dff-8383-056b3998fa87","ios":"levelo://app?vid=28a1aaa1-8a10-4dff-8383-056b3998fa87"},"vehicle_type_id":"4","last_reported":1748405724,"current_range_meters":14400,"station_id":"ce4bhip2rcd13ifvqft0","pricing_plan_id":"cebpf4jnsgd1na2vs0mg"},{"bike_id":"2447e726-02f2-4707-a232-a209224dd9ad","system_id":"levelo_inurba_marseille","lat":43.32999,"lon":5.39051,"is_reserved":false,"is_disabled":false,"rental_uris":{"android":"levelo://app?vid=2447e726-02f2-4707-a232-a209224dd9ad","ios":"levelo://app?vid=2447e726-02f2-4707-a232-a209224dd9ad"},"vehicle_type_id":"4","last_reported":1748405724,"current_range_meters":14800,"station_id":"ce4bhr92rcd13ifvqhrg","pricing_plan_id":"cebpf4jnsgd1na2vs0mg"},{"bike_id":"c06fca89-0053-4526-bf0e-39603aea1bf2","system_id":"levelo_inurba_marseille","lat":43.330126,"lon":5.390413,"is_reserved":false,"is_disabled":false,"rental_uris":{"android":"levelo://app?vid=c06fca89-0053-4526-bf0e-39603aea1bf2","ios":"levelo://app?vid=c06fca89-0053-4526-bf0e-39603aea1bf2"},"vehicle_type_id":"4","last_reported":1748405724,"current_range_meters":15200,"station_id":"ce4bhr92rcd13ifvqhrg","pricing_plan_id":"cebpf4jnsgd1na2vs0mg"},{"bike_id":"9d261c87-a2b3-4a62-884c-13fffe97a760","system_id":"levelo_inurba_marseille","lat":43.309373,"lon":5.401393,"is_reserved":false,"is_disabled":false,"rental_uris":{"android":"levelo://app?vid=9d261c87-a2b3-4a62-884c-13fffe97a760","ios":"levelo://app?vid=9d261c87-a2b3-4a62-884c-13fffe97a760"},"vehicle_type_id":"4","last_reported":1748405724,"current_range_meters":15200,"station_id":"ce4bgvp2rcd13ifvqct0","pricing_plan_id":"cebpf4jnsgd1na2vs0mg"},{"bike_id":"1fed5cf7-13b7-4dc4-814e-e55c1b74556e","system_id":"levelo_inurba_marseille","lat":43.292634,"lon":5.401241,"is_reserved":false,"is_disabled":true,"rental_uris":{"android":"levelo://app?vid=1fed5cf7-13b7-4dc4-814e-e55c1b74556e","ios":"levelo://app?vid=1fed5cf7-13b7-4dc4-814e-e55c1b74556e"},"vehicle_type_id":"4","last_reported":1748405724,"current_range_meters":15200,"station_id":"ce4bh312rcd13ifvqdk0","pricing_plan_id":"cebpf4jnsgd1na2vs0mg"},{"bike_id":"84787e45-97de-433f-9016-222efbf22320","system_id":"levelo_inurba_marseille","lat":43.30424,"lon":5.38888,"is_reserved":false,"is_disabled":false,"rental_uris":{"android":"levelo://app?vid=84787e45-97de-433f-9016-222efbf22320","ios":"levelo://app?vid=84787e45-97de-433f-9016-222efbf22320"},"vehicle_type_id":"4","last_reported":1748405724,"current_range_meters":15200,"station_id":"ce4bgk12rcd13ifvqbi0","pricing_plan_id":"cebpf4jnsgd1na2vs0mg"},{"bike_id":"beeca1d2-d65c-44fe-8ce6-7afce205f53e","system_id":"levelo_inurba_marseille","lat":43.308911,"lon":5.396249,"is_reserved":false,"is_disabled":false,"rental_uris":{"android":"levelo://app?vid=beeca1d2-d65c-44fe-8ce6-7afce205f53e","ios":"levelo://app?vid=beeca1d2-d65c-44fe-8ce6-7afce205f53e"},"vehicle_type_id":"4","last_reported":1748405724,"current_range_meters":15200,"station_id":"ce4bh012rcd13ifvqcv0","pricing_plan_id":"cebpf4jnsgd1na2vs0mg"},{"bike_id":"bedbbb34-82aa-4a56-8ecf-72e3100f83ac","system_id":"levelo_inurba_marseille","lat":43.30256,"lon":5.389055,"is_reserved":false,"is_disabled":false,"rental_uris":{"android":"levelo://app?vid=bedbbb34-82aa-4a56-8ecf-72e3100f83ac","ios":"levelo://app?vid=bedbbb34-82aa-4a56-8ecf-72e3100f83ac"},"vehicle_type_id":"4","last_reported":1748405724,"current_range_meters":15200,"station_id":"","pricing_plan_id":"cebpf4jnsgd1na2vs0mg"},{"bike_id":"3647bbb6-6398-4425-acce-fe7bae127660","system_id":"levelo_inurba_marseille","lat":43.30874,"lon":5.39642,"is_reserved":false,"is_disabled":false,"rental_uris":{"android":"levelo://app?vid=3647bbb6-6398-4425-acce-fe7bae127660","ios":"levelo://app?vid=3647bbb6-6398-4425-acce-fe7bae127660"},"vehicle_type_id":"4","last_reported":1748405724,"current_range_meters":15200,"station_id":"ce4bh012rcd13ifvqcv0","pricing_plan_id":"cebpf4jnsgd1na2vs0mg"},{"bike_id":"74e5602b-0fa6-4076-b12b-c0ba33c1eaf0","system_id":"levelo_inurba_marseille","lat":43.279198,"lon":5.395818,"is_reserved":false,"is_disabled":false,"rental_uris":{"android":"levelo://app?vid=74e5602b-0fa6-4076-b12b-c0ba33c1eaf0","ios":"levelo://app?vid=74e5602b-0fa6-4076-b12b-c0ba33c1eaf0"},"vehicle_type_id":"4","last_reported":1748405724,"current_range_meters":15200,"station_id":"ce4bhf92rcd13ifvqf40","pricing_plan_id":"cebpf4jnsgd1na2vs0mg"},{"bike_id":"d01fd10d-97de-46e9-a203-18a45159f308","system_id":"levelo_inurba_marseille","lat":43.23182,"lon":5.39993,"is_reserved":false,"is_disabled":false,"rental_uris":{"android":"levelo://app?vid=d01fd10d-97de-46e9-a203-18a45159f308","ios":"levelo://app?vid=d01fd10d-97de-46e9-a203-18a45159f308"},"vehicle_type_id":"4","last_reported":1748405724,"current_range_meters":15200,"station_id":"ce4bhn12rcd13ifvqgqg","pricing_plan_id":"cebpf4jnsgd1na2vs0mg"},{"bike_id":"ed3ce463-8108-462a-b16b-760e2671d87c","system_id":"levelo_inurba_marseille","lat":43.250876,"lon":5.395221,"is_reserved":false,"is_disabled":false,"rental_uris":{"android":"levelo://app?vid=ed3ce463-8108-462a-b16b-760e2671d87c","ios":"levelo://app?vid=ed3ce463-8108-462a-b16b-760e2671d87c"},"vehicle_type_id":"4","last_reported":1748405724,"current_range_meters":15200,"station_id":"ce4bhm12rcd13ifvqgkg","pricing_plan_id":"cebpf4jnsgd1na2vs0mg"},{"bike_id":"6c037d20-6bc8-419b-857a-b0a6ca40ad58","system_id":"levelo_inurba_marseille","lat":43.24076,"lon":5.37762,"is_reserved":false,"is_disabled":false,"rental_uris":{"android":"levelo://app?vid=6c037d20-6bc8-419b-857a-b0a6ca40ad58","ios":"levelo://app?vid=6c037d20-6bc8-419b-857a-b0a6ca40ad58"},"vehicle_type_id":"4","last_reported":1748405724,"current_range_meters":16000,"station_id":"ce4bhnp2rcd13ifvqgvg","pricing_plan_id":"cebpf4jnsgd1na2vs0mg"},{"bike_id":"a89651c3-d534-4bfc-8af7-fb20a1998c60","system_id":"levelo_inurba_marseille","lat":43.30872,"lon":5.39654,"is_reserved":false,"is_disabled":false,"rental_uris":{"android":"levelo://app?vid=a89651c3-d534-4bfc-8af7-fb20a1998c60","ios":"levelo://app?vid=a89651c3-d534-4bfc-8af7-fb20a1998c60"},"vehicle_type_id":"4","last_reported":1748405724,"current_range_meters":16000,"station_id":"ce4bh012rcd13ifvqcv0","pricing_plan_id":"cebpf4jnsgd1na2vs0mg"},{"bike_id":"349e7297-179d-46aa-af73-d0772f15795a","system_id":"levelo_inurba_marseille","lat":43.299876,"lon":5.38386,"is_reserved":false,"is_disabled":false,"rental_uris":{"android":"levelo://app?vid=349e7297-179d-46aa-af73-d0772f15795a","ios":"levelo://app?vid=349e7297-179d-46aa-af73-d0772f15795a"},"vehicle_type_id":"4","last_reported":1748405724,"current_range_meters":16000,"station_id":"","pricing_plan_id":"cebpf4jnsgd1na2vs0mg"},{"bike_id":"6ebb6dd7-e028-471a-a254-2363923c0cd9","system_id":"levelo_inurba_marseille","lat":43.32117,"lon":5.3676,"is_reserved":false,"is_disabled":false,"rental_uris":{"android":"levelo://app?vid=6ebb6dd7-e028-471a-a254-2363923c0cd9","ios":"levelo://app?vid=6ebb6dd7-e028-471a-a254-2363923c0cd9"},"vehicle_type_id":"4","last_reported":1748405724,"current_range_meters":16000,"station_id":"ce4bhrh2rcd13ifvqhug","pricing_plan_id":"cebpf4jnsgd1na2vs0mg"},{"bike_id":"3b07f020-3d8e-47eb-b723-de46e817e2a3","system_id":"levelo_inurba_marseille","lat":43.297388,"lon":5.383614,"is_reserved":false,"is_disabled":false,"rental_uris":{"android":"levelo://app?vid=3b07f020-3d8e-47eb-b723-de46e817e2a3","ios":"levelo://app?vid=3b07f020-3d8e-47eb-b723-de46e817e2a3"},"vehicle_type_id":"4","last_reported":1748405724,"current_range_meters":16000,"station_id":"","pricing_plan_id":"cebpf4jnsgd1na2vs0mg"},{"bike_id":"5c66a574-cc0a-4c23-aa8a-20ed0b38391d","system_id":"levelo_inurba_marseille","lat":43.30417,"lon":5.38895,"is_reserved":false,"is_disabled":false,"rental_uris":{"android":"levelo://app?vid=5c66a574-cc0a-4c23-aa8a-20ed0b38391d","ios":"levelo://app?vid=5c66a574-cc0a-4c23-aa8a-20ed0b38391d"},"vehicle_type_id":"4","last_reported":1748405724,"current_range_meters":16000,"station_id":"ce4bgk12rcd13ifvqbi0","pricing_plan_id":"cebpf4jnsgd1na2vs0mg"},{"bike_id":"7627ffc5-ed0e-411a-ba5b-9296e495f37c","system_id":"levelo_inurba_marseille","lat":43.308032,"lon":5.381647,"is_reserved":false,"is_disabled":false,"rental_uris":{"android":"levelo://app?vid=7627ffc5-ed0e-411a-ba5b-9296e495f37c","ios":"levelo://app?vid=7627ffc5-ed0e-411a-ba5b-9296e495f37c"},"vehicle_type_id":"4","last_reported":1748405724,"current_range_meters":16000,"station_id":"ce4bgt12rcd13ifvqce0","pricing_plan_id":"cebpf4jnsgd1na2vs0mg"},{"bike_id":"45c941a7-9562-4778-ae0c-86ddbaf5a628","system_id":"levelo_inurba_marseille","lat":43.245404,"lon":5.39523,"is_reserved":false,"is_disabled":false,"rental_uris":{"android":"levelo://app?vid=45c941a7-9562-4778-ae0c-86ddbaf5a628","ios":"levelo://app?vid=45c941a7-9562-4778-ae0c-86ddbaf5a628"},"vehicle_type_id":"4","last_reported":1748405724,"current_range_meters":16000,"station_id":"ce4bhlp2rcd13ifvqgjg","pricing_plan_id":"cebpf4jnsgd1na2vs0mg"},{"bike_id":"41ef7262-a9d2-42e7-8a32-491b4b65ae25","system_id":"levelo_inurba_marseille","lat":43.276712,"lon":5.389284,"is_reserved":false,"is_disabled":true,"rental_uris":{"android":"levelo://app?vid=41ef7262-a9d2-42e7-8a32-491b4b65ae25","ios":"levelo://app?vid=41ef7262-a9d2-42e7-8a32-491b4b65ae25"},"vehicle_type_id":"4","last_reported":1748405724,"current_range_meters":16400,"station_id":"ce4bhi12rcd13ifvqfo0","pricing_plan_id":"cebpf4jnsgd1na2vs0mg"},{"bike_id":"7907d746-b302-43bb-9f17-838fe24ab47b","system_id":"levelo_inurba_marseille","lat":43.23202,"lon":5.39989,"is_reserved":false,"is_disabled":false,"rental_uris":{"android":"levelo://app?vid=7907d746-b302-43bb-9f17-838fe24ab47b","ios":"levelo://app?vid=7907d746-b302-43bb-9f17-838fe24ab47b"},"vehicle_type_id":"4","last_reported":1748405724,"current_range_meters":16400,"station_id":"ce4bhn12rcd13ifvqgqg","pricing_plan_id":"cebpf4jnsgd1na2vs0mg"},{"bike_id":"798b4dd9-09fd-4939-a396-5d8278d045a8","system_id":"levelo_inurba_marseille","lat":43.282206,"lon":5.390549,"is_reserved":false,"is_disabled":false,"rental_uris":{"android":"levelo://app?vid=798b4dd9-09fd-4939-a396-5d8278d045a8","ios":"levelo://app?vid=798b4dd9-09fd-4939-a396-5d8278d045a8"},"vehicle_type_id":"4","last_reported":1748405724,"current_range_meters":16400,"station_id":"","pricing_plan_id":"cebpf4jnsgd1na2vs0mg"},{"bike_id":"06fe1f81-ab6f-4ac8-8e60-2e36f0117fc4","system_id":"levelo_inurba_marseille","lat":43.31079,"lon":5.38354,"is_reserved":false,"is_disabled":false,"rental_uris":{"android":"levelo://app?vid=06fe1f81-ab6f-4ac8-8e60-2e36f0117fc4","ios":"levelo://app?vid=06fe1f81-ab6f-4ac8-8e60-2e36f0117fc4"},"vehicle_type_id":"4","last_reported":1748405724,"current_range_meters":16400,"station_id":"ce4bgv92rcd13ifvqcr0","pricing_plan_id":"cebpf4jnsgd1na2vs0mg"},{"bike_id":"88f0b25b-9fcb-4934-ae2a-80fd3f534b8a","system_id":"levelo_inurba_marseille","lat":43.30208,"lon":5.36626,"is_reserved":false,"is_disabled":true,"rental_uris":{"android":"levelo://app?vid=88f0b25b-9fcb-4934-ae2a-80fd3f534b8a","ios":"levelo://app?vid=88f0b25b-9fcb-4934-ae2a-80fd3f534b8a"},"vehicle_type_id":"4","last_reported":1748405724,"current_range_meters":16400,"station_id":"ce4bgrh2rcd13ifvqc8g","pricing_plan_id":"cebpf4jnsgd1na2vs0mg"},{"bike_id":"33552088-6818-4954-941a-294624f883f8","system_id":"levelo_inurba_marseille","lat":43.287039,"lon":5.399866,"is_reserved":false,"is_disabled":false,"rental_uris":{"android":"levelo://app?vid=33552088-6818-4954-941a-294624f883f8","ios":"levelo://app?vid=33552088-6818-4954-941a-294624f883f8"},"vehicle_type_id":"4","last_reported":1748405724,"current_range_meters":16400,"station_id":"ce4bho92rcd13ifvqh3g","pricing_plan_id":"cebpf4jnsgd1na2vs0mg"},{"bike_id":"ef77543b-22de-44af-930a-38e7dfe2d4e6","system_id":"levelo_inurba_marseille","lat":43.232034,"lon":5.399846,"is_reserved":false,"is_disabled":false,"rental_uris":{"android":"levelo://app?vid=ef77543b-22de-44af-930a-38e7dfe2d4e6","ios":"levelo://app?vid=ef77543b-22de-44af-930a-38e7dfe2d4e6"},"vehicle_type_id":"4","last_reported":1748405724,"current_range_meters":16400,"station_id":"ce4bhn12rcd13ifvqgqg","pricing_plan_id":"cebpf4jnsgd1na2vs0mg"},{"bike_id":"3865b0a2-6909-4ea2-b648-0ed5dd91b7a2","system_id":"levelo_inurba_marseille","lat":43.22531,"lon":5.34773,"is_reserved":false,"is_disabled":false,"rental_uris":{"android":"levelo://app?vid=3865b0a2-6909-4ea2-b648-0ed5dd91b7a2","ios":"levelo://app?vid=3865b0a2-6909-4ea2-b648-0ed5dd91b7a2"},"vehicle_type_id":"4","last_reported":1748405724,"current_range_meters":16400,"station_id":"","pricing_plan_id":"cebpf4jnsgd1na2vs0mg"},{"bike_id":"0b46610b-39a3-4aec-92dd-2b8e6db69efd","system_id":"levelo_inurba_marseille","lat":43.28718,"lon":5.36086,"is_reserved":false,"is_disabled":false,"rental_uris":{"android":"levelo://app?vid=0b46610b-39a3-4aec-92dd-2b8e6db69efd","ios":"levelo://app?vid=0b46610b-39a3-4aec-92dd-2b8e6db69efd"},"vehicle_type_id":"4","last_reported":1748405724,"current_range_meters":16400,"station_id":"cki0cbj6b192h4jlfktg","pricing_plan_id":"cebpf4jnsgd1na2vs0mg"},{"bike_id":"68242883-52b4-4ac8-8541-824345e8470f","system_id":"levelo_inurba_marseille","lat":43.28412,"lon":5.34988,"is_reserved":false,"is_disabled":false,"rental_uris":{"android":"levelo://app?vid=68242883-52b4-4ac8-8541-824345e8470f","ios":"levelo://app?vid=68242883-52b4-4ac8-8541-824345e8470f"},"vehicle_type_id":"4","last_reported":1748405724,"current_range_meters":16400,"station_id":"ce4bhbh2rcd13ifvqepg","pricing_plan_id":"cebpf4jnsgd1na2vs0mg"},{"bike_id":"fcb789d7-3cf7-430a-a366-a3a6c6977f44","system_id":"levelo_inurba_marseille","lat":43.310739,"lon":5.383461,"is_reserved":false,"is_disabled":false,"rental_uris":{"android":"levelo://app?vid=fcb789d7-3cf7-430a-a366-a3a6c6977f44","ios":"levelo://app?vid=fcb789d7-3cf7-430a-a366-a3a6c6977f44"},"vehicle_type_id":"4","last_reported":1748405724,"current_range_meters":16400,"station_id":"ce4bgv92rcd13ifvqcr0","pricing_plan_id":"cebpf4jnsgd1na2vs0mg"},{"bike_id":"7adbd369-f684-4c09-90a5-6bbf2f150346","system_id":"levelo_inurba_marseille","lat":43.32103,"lon":5.36773,"is_reserved":false,"is_disabled":false,"rental_uris":{"android":"levelo://app?vid=7adbd369-f684-4c09-90a5-6bbf2f150346","ios":"levelo://app?vid=7adbd369-f684-4c09-90a5-6bbf2f150346"},"vehicle_type_id":"4","last_reported":1748405724,"current_range_meters":16400,"station_id":"ce4bhrh2rcd13ifvqhug","pricing_plan_id":"cebpf4jnsgd1na2vs0mg"},{"bike_id":"feb728f6-ff7e-49c3-867c-23f9d42cae4f","system_id":"levelo_inurba_marseille","lat":43.29545,"lon":5.40079,"is_reserved":false,"is_disabled":false,"rental_uris":{"android":"levelo://app?vid=feb728f6-ff7e-49c3-867c-23f9d42cae4f","ios":"levelo://app?vid=feb728f6-ff7e-49c3-867c-23f9d42cae4f"},"vehicle_type_id":"4","last_reported":1748405724,"current_range_meters":16400,"station_id":"","pricing_plan_id":"cebpf4jnsgd1na2vs0mg"},{"bike_id":"8d43a499-90c2-4c59-a4b4-a02a46725fe4","system_id":"levelo_inurba_marseille","lat":43.34139,"lon":5.40911,"is_reserved":false,"is_disabled":false,"rental_uris":{"android":"levelo://app?vid=8d43a499-90c2-4c59-a4b4-a02a46725fe4","ios":"levelo://app?vid=8d43a499-90c2-4c59-a4b4-a02a46725fe4"},"vehicle_type_id":"4","last_reported":1748405724,"current_range_meters":16400,"station_id":"ce4bhqh2rcd13ifvqhlg","pricing_plan_id":"cebpf4jnsgd1na2vs0mg"},{"bike_id":"2c08af6d-e6dd-47bf-abe3-3c0981a41b80","system_id":"levelo_inurba_marseille","lat":43.303229,"lon":5.404421,"is_reserved":false,"is_disabled":false,"rental_uris":{"android":"levelo://app?vid=2c08af6d-e6dd-47bf-abe3-3c0981a41b80","ios":"levelo://app?vid=2c08af6d-e6dd-47bf-abe3-3c0981a41b80"},"vehicle_type_id":"4","last_reported":1748405724,"current_range_meters":16800,"station_id":"ce4bh012rcd13ifvqd10","pricing_plan_id":"cebpf4jnsgd1na2vs0mg"},{"bike_id":"126d135e-c7d1-417c-8eb8-42256b50c0b9","system_id":"levelo_inurba_marseille","lat":43.29584,"lon":5.36726,"is_reserved":false,"is_disabled":false,"rental_uris":{"android":"levelo://app?vid=126d135e-c7d1-417c-8eb8-42256b50c0b9","ios":"levelo://app?vid=126d135e-c7d1-417c-8eb8-42256b50c0b9"},"vehicle_type_id":"4","last_reported":1748405724,"current_range_meters":16800,"station_id":"ce4bgph2rcd13ifvqc2g","pricing_plan_id":"cebpf4jnsgd1na2vs0mg"},{"bike_id":"449443f5-265d-42c4-b8a5-73695070a54b","system_id":"levelo_inurba_marseille","lat":43.25876,"lon":5.39927,"is_reserved":false,"is_disabled":false,"rental_uris":{"android":"levelo://app?vid=449443f5-265d-42c4-b8a5-73695070a54b","ios":"levelo://app?vid=449443f5-265d-42c4-b8a5-73695070a54b"},"vehicle_type_id":"4","last_reported":1748405724,"current_range_meters":16800,"station_id":"ce4bhl92rcd13ifvqghg","pricing_plan_id":"cebpf4jnsgd1na2vs0mg"},{"bike_id":"57316597-9a7e-4ecc-9b19-7bc22bad6c89","system_id":"levelo_inurba_marseille","lat":43.245419,"lon":5.395327,"is_reserved":false,"is_disabled":false,"rental_uris":{"android":"levelo://app?vid=57316597-9a7e-4ecc-9b19-7bc22bad6c89","ios":"levelo://app?vid=57316597-9a7e-4ecc-9b19-7bc22bad6c89"},"vehicle_type_id":"4","last_reported":1748405724,"current_range_meters":16800,"station_id":"ce4bhlp2rcd13ifvqgjg","pricing_plan_id":"cebpf4jnsgd1na2vs0mg"},{"bike_id":"68189fd1-9866-4843-94ef-6d114f110fbd","system_id":"levelo_inurba_marseille","lat":43.282121,"lon":5.390524,"is_reserved":false,"is_disabled":false,"rental_uris":{"android":"levelo://app?vid=68189fd1-9866-4843-94ef-6d114f110fbd","ios":"levelo://app?vid=68189fd1-9866-4843-94ef-6d114f110fbd"},"vehicle_type_id":"4","last_reported":1748405724,"current_range_meters":16800,"station_id":"","pricing_plan_id":"cebpf4jnsgd1na2vs0mg"},{"bike_id":"03eed578-bb19-48fc-b5c7-10358efea5d8","system_id":"levelo_inurba_marseille","lat":43.30475,"lon":5.3976,"is_reserved":false,"is_disabled":false,"rental_uris":{"android":"levelo://app?vid=03eed578-bb19-48fc-b5c7-10358efea5d8","ios":"levelo://app?vid=03eed578-bb19-48fc-b5c7-10358efea5d8"},"vehicle_type_id":"4","last_reported":1748405724,"current_range_meters":17200,"station_id":"ce4bh092rcd13ifvqd20","pricing_plan_id":"cebpf4jnsgd1na2vs0mg"},{"bike_id":"b2e483d1-8417-49fc-b5d5-da2183f79552","system_id":"levelo_inurba_marseille","lat":43.217473,"lon":5.346081,"is_reserved":false,"is_disabled":false,"rental_uris":{"android":"levelo://app?vid=b2e483d1-8417-49fc-b5d5-da2183f79552","ios":"levelo://app?vid=b2e483d1-8417-49fc-b5d5-da2183f79552"},"vehicle_type_id":"4","last_reported":1748405724,"current_range_meters":17200,"station_id":"st_cvj6r9ubvosntc0bgbag","pricing_plan_id":"cebpf4jnsgd1na2vs0mg"},{"bike_id":"db0c8ab0-b70e-4a0e-a90b-773b708de0de","system_id":"levelo_inurba_marseille","lat":43.29534,"lon":5.3752,"is_reserved":false,"is_disabled":true,"rental_uris":{"android":"levelo://app?vid=db0c8ab0-b70e-4a0e-a90b-773b708de0de","ios":"levelo://app?vid=db0c8ab0-b70e-4a0e-a90b-773b708de0de"},"vehicle_type_id":"4","last_reported":1748405724,"current_range_meters":17200,"station_id":"ce4bgkp2rcd13ifvqbmg","pricing_plan_id":"cebpf4jnsgd1na2vs0mg"},{"bike_id":"f11c8c21-8746-4ccc-b8b9-45ae12e44444","system_id":"levelo_inurba_marseille","lat":43.2868,"lon":5.3741,"is_reserved":false,"is_disabled":true,"rental_uris":{"android":"levelo://app?vid=f11c8c21-8746-4ccc-b8b9-45ae12e44444","ios":"levelo://app?vid=f11c8c21-8746-4ccc-b8b9-45ae12e44444"},"vehicle_type_id":"4","last_reported":1748405724,"current_range_meters":17200,"station_id":"ce4bh3p2rcd13ifvqdq0","pricing_plan_id":"cebpf4jnsgd1na2vs0mg"},{"bike_id":"f44edfce-7f89-4ad7-a7ff-c30b290bcdf4","system_id":"levelo_inurba_marseille","lat":43.299729,"lon":5.385158,"is_reserved":false,"is_disabled":true,"rental_uris":{"android":"levelo://app?vid=f44edfce-7f89-4ad7-a7ff-c30b290bcdf4","ios":"levelo://app?vid=f44edfce-7f89-4ad7-a7ff-c30b290bcdf4"},"vehicle_type_id":"4","last_reported":1748405724,"current_range_meters":17200,"station_id":"ce4bgj92rcd13ifvqbd0","pricing_plan_id":"cebpf4jnsgd1na2vs0mg"},{"bike_id":"149d5f07-5b78-45fa-9056-90e6990ced65","system_id":"levelo_inurba_marseille","lat":43.285687,"lon":5.394964,"is_reserved":false,"is_disabled":false,"rental_uris":{"android":"levelo://app?vid=149d5f07-5b78-45fa-9056-90e6990ced65","ios":"levelo://app?vid=149d5f07-5b78-45fa-9056-90e6990ced65"},"vehicle_type_id":"4","last_reported":1748405724,"current_range_meters":17200,"station_id":"ce4bh292rcd13ifvqdg0","pricing_plan_id":"cebpf4jnsgd1na2vs0mg"},{"bike_id":"a75488c8-d532-4e3d-b0ec-8fe9fa4659f5","system_id":"levelo_inurba_marseille","lat":43.2862,"lon":5.37069,"is_reserved":false,"is_disabled":false,"rental_uris":{"android":"levelo://app?vid=a75488c8-d532-4e3d-b0ec-8fe9fa4659f5","ios":"levelo://app?vid=a75488c8-d532-4e3d-b0ec-8fe9fa4659f5"},"vehicle_type_id":"4","last_reported":1748405724,"current_range_meters":17200,"station_id":"ce4bht12rcd13ifvqi60","pricing_plan_id":"cebpf4jnsgd1na2vs0mg"},{"bike_id":"34858189-ddd5-4e07-b290-98eb796d2948","system_id":"levelo_inurba_marseille","lat":43.311737,"lon":5.387078,"is_reserved":false,"is_disabled":false,"rental_uris":{"android":"levelo://app?vid=34858189-ddd5-4e07-b290-98eb796d2948","ios":"levelo://app?vid=34858189-ddd5-4e07-b290-98eb796d2948"},"vehicle_type_id":"4","last_reported":1748405724,"current_range_meters":17200,"station_id":"ce4bgv12rcd13ifvqcp0","pricing_plan_id":"cebpf4jnsgd1na2vs0mg"},{"bike_id":"03d89360-1bcc-4481-827c-d3f8190d86ae","system_id":"levelo_inurba_marseille","lat":43.302556,"lon":5.400734,"is_reserved":false,"is_disabled":false,"rental_uris":{"android":"levelo://app?vid=03d89360-1bcc-4481-827c-d3f8190d86ae","ios":"levelo://app?vid=03d89360-1bcc-4481-827c-d3f8190d86ae"},"vehicle_type_id":"4","last_reported":1748405724,"current_range_meters":16800,"station_id":"ce4bgvh2rcd13ifvqcs0","pricing_plan_id":"cebpf4jnsgd1na2vs0mg"},{"bike_id":"21784756-8695-4b10-acb4-14da7bc97e18","system_id":"levelo_inurba_marseille","lat":43.282301,"lon":5.390535,"is_reserved":false,"is_disabled":false,"rental_uris":{"android":"levelo://app?vid=21784756-8695-4b10-acb4-14da7bc97e18","ios":"levelo://app?vid=21784756-8695-4b10-acb4-14da7bc97e18"},"vehicle_type_id":"4","last_reported":1748405724,"current_range_meters":17600,"station_id":"","pricing_plan_id":"cebpf4jnsgd1na2vs0mg"},{"bike_id":"6e03d725-3cfa-43f3-bc85-25e79658c350","system_id":"levelo_inurba_marseille","lat":43.27818,"lon":5.40741,"is_reserved":false,"is_disabled":false,"rental_uris":{"android":"levelo://app?vid=6e03d725-3cfa-43f3-bc85-25e79658c350","ios":"levelo://app?vid=6e03d725-3cfa-43f3-bc85-25e79658c350"},"vehicle_type_id":"4","last_reported":1748405724,"current_range_meters":17600,"station_id":"ce4bhnh2rcd13ifvqgtg","pricing_plan_id":"cebpf4jnsgd1na2vs0mg"},