{"last_updated":1690484696,"ttl":30,"version":"2.2","data":{"bikes":[{"bike_id":"e526d4e2-849c-44ae-a0d7-5572a62df909","system_id":"levelo_inurba_marseille","lat":43.312239,"lon":5.368562,"is_reserved":false,"is_disabled":false,"rental_uris":{"android":"levelo://app?vid=e526d4e2-849c-44ae-a0d7-5572a62df909","ios":"levelo://app?vid=e526d4e2-849c-44ae-a0d7-5572a62df909"},"vehicle_type_id":"4","last_reported":1690484697,"current_range_meters":31600,"station_id":"ce4bgl92rcd13ifvqbq0","pricing_plan_id":"free"},{"bike_id":"27a684cb-22a7-4c7d-ba07-7279d4c0982e","system_id":"levelo_inurba_marseille","lat":43.312239,"lon":5.368562,"is_reserved":false,"is_disabled":false,"rental_uris":{"android":"levelo://app?vid=27a684cb-22a7-4c7d-ba07-7279d4c0982e","ios":"levelo://app?vid=27a684cb-22a7-4c7d-ba07-7279d4c0982e"},"vehicle_type_id":"4","last_reported":1690484697,"current_range_meters":9600,"station_id":"ce4bgl92rcd13ifvqbq0","pricing_plan_id":"free"},{"bike_id":"efffa7df-a225-4e7b-9f47-9ca2c3736bda","system_id":"levelo_inurba_marseille","lat":43.312239,"lon":5.368562,"is_reserved":false,"is_disabled":false,"rental_uris":{"android":"levelo://app?vid=efffa7df-a225-4e7b-9f47-9ca2c3736bda","ios":"levelo://app?vid=efffa7df-a225-4e7b-9f47-9ca2c3736bda"},"vehicle_type_id":"4","last_reported":1690484697,"current_range_meters":20400,"station_id":"ce4bgl92rcd13ifvqbq0","pricing_plan_id":"free"},{"bike_id":"99ed8914-8e38-44f5-a141-5c736510e7e5","system_id":"levelo_inurba_marseille","lat":43.312239,"lon":5.368562,"is_reserved":false,"is_disabled":false,"rental_uris":{"android":"levelo://app?vid=99ed8914-8e38-44f5-a141-5c736510e7e5","ios":"levelo://app?vid=99ed8914-8e38-44f5-a141-5c736510e7e5"},"vehicle_type_id":"4","last_reported":1690484697,"current_range_meters":31200,"station_id":"ce4bgl92rcd13ifvqbq0","pricing_plan_id":"free"},{"bike_id":"83c6e990-afac-4ca3-8357-a12ca5e9afbe","system_id":"levelo_inurba_marseille","lat":43.312239,"lon":5.368562,"is_reserved":false,"is_disabled":false,"rental_uris":{"android":"levelo://app?vid=83c6e990-afac-4ca3-8357-a12ca5e9afbe","ios":"levelo://app?vid=83c6e990-afac-4ca3-8357-a12ca5e9afbe"},"vehicle_type_id":"4","last_reported":1690484697,"current_range_meters":14800,"station_id":"ce4bgl92rcd13ifvqbq0","pricing_plan_id":"free"},{"bike_id":"5010235a-f041-439e-9d11-64431e3af124","system_id":"levelo_inurba_marseille","lat":43.312239,"lon":5.368562,"is_reserved":false,"is_disabled":false,"rental_uris":{"android":"levelo://app?vid=5010235a-f041-439e-9d11-64431e3af124","ios":"levelo://app?vid=5010235a-f041-439e-9d11-64431e3af124"},"vehicle_type_id":"4","last_reported":1690484697,"current_range_meters":1200,"station_id":"ce4bgl92rcd13ifvqbq0","pricing_plan_id":"free"},{"bike_id":"e1f1661d-620c-4a50-a310-68b542046658","system_id":"levelo_inurba_marseille","lat":43.309076,"lon":5.368465,"is_reserved":false,"is_disabled":false,"rental_uris":{"android":"levelo://app?vid=e1f1661d-620c-4a50-a310-68b542046658","ios":"levelo://app?vid=e1f1661d-620c-4a50-a310-68b542046658"},"vehicle_type_id":"4","last_reported":1690484697,"current_range_meters":7600,"station_id":"ce4bgn92rcd13ifvqbvg","pricing_plan_id":"free"},{"bike_id":"c49aaadc-8fa9-439d-81c0-45737d9bdfdd","system_id":"levelo_inurba_marseille","lat":43.314811,"lon":5.373103,"is_reserved":false,"is_disabled":false,"rental_uris":{"android":"levelo://app?vid=c49aaadc-8fa9-439d-81c0-45737d9bdfdd","ios":"levelo://app?vid=c49aaadc-8fa9-439d-81c0-45737d9bdfdd"},"vehicle_type_id":"4","last_reported":1690484697,"current_range_meters":24400,"station_id":"ce4bgt12rcd13ifvqcd0","pricing_plan_id":"free"},{"bike_id":"f56ae1c4-29ef-4e22-9459-77ea82e027b7","system_id":"levelo_inurba_marseille","lat":43.31486,"lon":5.37303,"is_reserved":false,"is_disabled":false,"rental_uris":{"android":"levelo://app?vid=f56ae1c4-29ef-4e22-9459-77ea82e027b7","ios":"levelo://app?vid=f56ae1c4-29ef-4e22-9459-77ea82e027b7"},"vehicle_type_id":"4","last_reported":1690484697,"current_range_meters":24800,"station_id":"ce4bgt12rcd13ifvqcd0","pricing_plan_id":"free"},{"bike_id":"3ecbc5eb-7dcf-49a6-b8ce-9e5fe7fc7d72","system_id":"levelo_inurba_marseille","lat":43.314811,"lon":5.373103,"is_reserved":false,"is_disabled":false,"rental_uris":{"android":"levelo://app?vid=3ecbc5eb-7dcf-49a6-b8ce-9e5fe7fc7d72","ios":"levelo://app?vid=3ecbc5eb-7dcf-49a6-b8ce-9e5fe7fc7d72"},"vehicle_type_id":"4","last_reported":1690484697,"current_range_meters":7200,"station_id":"ce4bgt12rcd13ifvqcd0","pricing_plan_id":"free"},{"bike_id":"19ed1f31-1d49-42b4-8dd9-063beabd92d2","system_id":"levelo_inurba_marseille","lat":43.314811,"lon":5.373103,"is_reserved":false,"is_disabled":false,"rental_uris":{"android":"levelo://app?vid=19ed1f31-1d49-42b4-8dd9-063beabd92d2","ios":"levelo://app?vid=19ed1f31-1d49-42b4-8dd9-063beabd92d2"},"vehicle_type_id":"4","last_reported":1690484697,"current_range_meters":27600,"station_id":"ce4bgt12rcd13ifvqcd0","pricing_plan_id":"free"},{"bike_id":"32c6d23f-e517-4887-9678-abda34ada299","system_id":"levelo_inurba_marseille","lat":43.314811,"lon":5.373103,"is_reserved":false,"is_disabled":false,"rental_uris":{"android":"levelo://app?vid=32c6d23f-e517-4887-9678-abda34ada299","ios":"levelo://app?vid=32c6d23f-e517-4887-9678-abda34ada299"},"vehicle_type_id":"4","last_reported":1690484697,"current_range_meters":30000,"station_id":"ce4bgt12rcd13ifvqcd0","pricing_plan_id":"free"},{"bike_id":"86cf9da6-d348-492f-b011-6e9aaa1b1391","system_id":"levelo_inurba_marseille","lat":43.31495,"lon":5.37306,"is_reserved":false,"is_disabled":false,"rental_uris":{"android":"levelo://app?vid=86cf9da6-d348-492f-b011-6e9aaa1b1391","ios":"levelo://app?vid=86cf9da6-d348-492f-b011-6e9aaa1b1391"},"vehicle_type_id":"4","last_reported":1690484697,"current_range_meters":25200,"station_id":"ce4bgt12rcd13ifvqcd0","pricing_plan_id":"free"},{"bike_id":"5296086f-ae03-41e0-9e04-1aa649d720b4","system_id":"levelo_inurba_marseille","lat":43.314811,"lon":5.373103,"is_reserved":false,"is_disabled":false,"rental_uris":{"android":"levelo://app?vid=5296086f-ae03-41e0-9e04-1aa649d720b4","ios":"levelo://app?vid=5296086f-ae03-41e0-9e04-1aa649d720b4"},"vehicle_type_id":"4","last_reported":1690484697,"current_range_meters":16000,"station_id":"ce4bgt12rcd13ifvqcd0","pricing_plan_id":"free"},{"bike_id":"0e8e2b5f-74d0-45be-84c8-2b6ceeb7bd07","system_id":"levelo_inurba_marseille","lat":43.309034,"lon":5.371783,"is_reserved":false,"is_disabled":false,"rental_uris":{"android":"levelo://app?vid=0e8e2b5f-74d0-45be-84c8-2b6ceeb7bd07","ios":"levelo://app?vid=0e8e2b5f-74d0-45be-84c8-2b6ceeb7bd07"},"vehicle_type_id":"4","last_reported":1690484697,"current_range_meters":12000,"station_id":"ce4bguh2rcd13ifvqckg","pricing_plan_id":"free"},{"bike_id":"2f494066-7379-4c9b-a0bb-927b59a3aba7","system_id":"levelo_inurba_marseille","lat":43.305714,"lon":5.365633,"is_reserved":false,"is_disabled":false,"rental_uris":{"android":"levelo://app?vid=2f494066-7379-4c9b-a0bb-927b59a3aba7","ios":"levelo://app?vid=2f494066-7379-4c9b-a0bb-927b59a3aba7"},"vehicle_type_id":"4","last_reported":1690484697,"current_range_meters":8000,"station_id":"ce4bgs12rcd13ifvqcag","pricing_plan_id":"free"},{"bike_id":"a4f97a48-d8d0-4a45-a7b4-1321f050d3ea","system_id":"levelo_inurba_marseille","lat":43.30541,"lon":5.36705,"is_reserved":false,"is_disabled":false,"rental_uris":{"android":"levelo://app?vid=a4f97a48-d8d0-4a45-a7b4-1321f050d3ea","ios":"levelo://app?vid=a4f97a48-d8d0-4a45-a7b4-1321f050d3ea"},"vehicle_type_id":"4","last_reported":1690484697,"current_range_meters":14800,"station_id":"ce4bgrp2rcd13ifvqc9g","pricing_plan_id":"free"},{"bike_id":"e692f138-94c3-4dad-abc7-bb26556aebaf","system_id":"levelo_inurba_marseille","lat":43.305714,"lon":5.365633,"is_reserved":false,"is_disabled":false,"rental_uris":{"android":"levelo://app?vid=e692f138-94c3-4dad-abc7-bb26556aebaf","ios":"levelo://app?vid=e692f138-94c3-4dad-abc7-bb26556aebaf"},"vehicle_type_id":"4","last_reported":1690484697,"current_range_meters":18400,"station_id":"ce4bgs12rcd13ifvqcag","pricing_plan_id":"free"},{"bike_id":"e357b836-d0da-4c62-a137-80a8781daa17","system_id":"levelo_inurba_marseille","lat":43.305989,"lon":5.37225,"is_reserved":false,"is_disabled":false,"rental_uris":{"android":"levelo://app?vid=e357b836-d0da-4c62-a137-80a8781daa17","ios":"levelo://app?vid=e357b836-d0da-4c62-a137-80a8781daa17"},"vehicle_type_id":"4","last_reported":1690484697,"current_range_meters":29200,"station_id":"ce4bgqh2rcd13ifvqc4g","pricing_plan_id":"free"},{"bike_id":"7f12a389-3c8b-4ca8-847b-4cc0de232d60","system_id":"levelo_inurba_marseille","lat":43.305989,"lon":5.37225,"is_reserved":false,"is_disabled":false,"rental_uris":{"android":"levelo://app?vid=7f12a389-3c8b-4ca8-847b-4cc0de232d60","ios":"levelo://app?vid=7f12a389-3c8b-4ca8-847b-4cc0de232d60"},"vehicle_type_id":"4","last_reported":1690484697,"current_range_meters":4000,"station_id":"ce4bgqh2rcd13ifvqc4g","pricing_plan_id":"free"},{"bike_id":"d99126b6-a0ed-422b-9336-3514d5073719","system_id":"levelo_inurba_marseille","lat":43.311125,"lon":5.377624,"is_reserved":false,"is_disabled":false,"rental_uris":{"android":"levelo://app?vid=d99126b6-a0ed-422b-9336-3514d5073719","ios":"levelo://app?vid=d99126b6-a0ed-422b-9336-3514d5073719"},"vehicle_type_id":"4","last_reported":1690484697,"current_range_meters":3200,"station_id":"ce4bgt92rcd13ifvqcg0","pricing_plan_id":"free"},{"bike_id":"0de75d96-d60c-499d-92e7-4a43401f8ae9","system_id":"levelo_inurba_marseille","lat":43.311125,"lon":5.377624,"is_reserved":false,"is_disabled":false,"rental_uris":{"android":"levelo://app?vid=0de75d96-d60c-499d-92e7-4a43401f8ae9","ios":"levelo://app?vid=0de75d96-d60c-499d-92e7-4a43401f8ae9"},"vehicle_type_id":"4","last_reported":1690484697,"current_range_meters":9600,"station_id":"ce4bgt92rcd13ifvqcg0","pricing_plan_id":"free"},{"bike_id":"6bc369f5-6da9-4ef5-a152-12f11b99da4b","system_id":"levelo_inurba_marseille","lat":43.32044,"lon":5.37186,"is_reserved":false,"is_disabled":false,"rental_uris":{"android":"levelo://app?vid=6bc369f5-6da9-4ef5-a152-12f11b99da4b","ios":"levelo://app?vid=6bc369f5-6da9-4ef5-a152-12f11b99da4b"},"vehicle_type_id":"4","last_reported":1690484697,"current_range_meters":23600,"station_id":"","pricing_plan_id":"free"},{"bike_id":"5beba453-9cc9-45f0-8f98-0e8615e6423a","system_id":"levelo_inurba_marseille","lat":43.30774,"lon":5.37657,"is_reserved":false,"is_disabled":false,"rental_uris":{"android":"levelo://app?vid=5beba453-9cc9-45f0-8f98-0e8615e6423a","ios":"levelo://app?vid=5beba453-9cc9-45f0-8f98-0e8615e6423a"},"vehicle_type_id":"4","last_reported":1690484697,"current_range_meters":8000,"station_id":"ce4bgv92rcd13ifvqcq0","pricing_plan_id":"free"},{"bike_id":"3c304005-5aaf-4497-be89-887a8afd45e9","system_id":"levelo_inurba_marseille","lat":43.303046,"lon":5.368981,"is_reserved":false,"is_disabled":false,"rental_uris":{"android":"levelo://app?vid=3c304005-5aaf-4497-be89-887a8afd45e9","ios":"levelo://app?vid=3c304005-5aaf-4497-be89-887a8afd45e9"},"vehicle_type_id":"4","last_reported":1690484697,"current_range_meters":4800,"station_id":"ce4bgqh2rcd13ifvqc5g","pricing_plan_id":"free"},{"bike_id":"748fe531-1fc2-44d9-8392-219ddab81e21","system_id":"levelo_inurba_marseille","lat":43.315293,"lon":5.380349,"is_reserved":false,"is_disabled":false,"rental_uris":{"android":"levelo://app?vid=748fe531-1fc2-44d9-8392-219ddab81e21","ios":"levelo://app?vid=748fe531-1fc2-44d9-8392-219ddab81e21"},"vehicle_type_id":"4","last_reported":1690484697,"current_range_meters":29600,"station_id":"ce4bhsp2rcd13ifvqi50","pricing_plan_id":"free"},{"bike_id":"81e1b085-1bcb-4566-8b60-d8de7aa3c733","system_id":"levelo_inurba_marseille","lat":43.30789,"lon":5.38147,"is_reserved":false,"is_disabled":false,"rental_uris":{"android":"levelo://app?vid=81e1b085-1bcb-4566-8b60-d8de7aa3c733","ios":"levelo://app?vid=81e1b085-1bcb-4566-8b60-d8de7aa3c733"},"vehicle_type_id":"4","last_reported":1690484697,"current_range_meters":4800,"station_id":"ce4bgt12rcd13ifvqce0","pricing_plan_id":"free"},{"bike_id":"746be919-55e6-4f58-9393-d140d8481e91","system_id":"levelo_inurba_marseille","lat":43.30808,"lon":5.38159,"is_reserved":false,"is_disabled":false,"rental_uris":{"android":"levelo://app?vid=746be919-55e6-4f58-9393-d140d8481e91","ios":"levelo://app?vid=746be919-55e6-4f58-9393-d140d8481e91"},"vehicle_type_id":"4","last_reported":1690484697,"current_range_meters":24800,"station_id":"ce4bgt12rcd13ifvqce0","pricing_plan_id":"free"},{"bike_id":"f9906f97-e1a9-4b00-90a8-cecc8b26b3c4","system_id":"levelo_inurba_marseille","lat":43.308,"lon":5.38164,"is_reserved":false,"is_disabled":false,"rental_uris":{"android":"levelo://app?vid=f9906f97-e1a9-4b00-90a8-cecc8b26b3c4","ios":"levelo://app?vid=f9906f97-e1a9-4b00-90a8-cecc8b26b3c4"},"vehicle_type_id":"4","last_reported":1690484697,"current_range_meters":14800,"station_id":"ce4bgt12rcd13ifvqce0","pricing_plan_id":"free"},{"bike_id":"0e4cebb5-a0ad-4a35-88cb-052d615d0d61","system_id":"levelo_inurba_marseille","lat":43.304606,"lon":5.379026,"is_reserved":false,"is_disabled":false,"rental_uris":{"android":"levelo://app?vid=0e4cebb5-a0ad-4a35-88cb-052d615d0d61","ios":"levelo://app?vid=0e4cebb5-a0ad-4a35-88cb-052d615d0d61"},"vehicle_type_id":"4","last_reported":1690484697,"current_range_meters":22800,"station_id":"ce4bgup2rcd13ifvqcn0","pricing_plan_id":"free"},{"bike_id":"055d3f60-4564-4e00-b8bd-0e89ad1714a4","system_id":"levelo_inurba_marseille","lat":43.3014,"lon":5.37405,"is_reserved":false,"is_disabled":false,"rental_uris":{"android":"levelo://app?vid=055d3f60-4564-4e00-b8bd-0e89ad1714a4","ios":"levelo://app?vid=055d3f60-4564-4e00-b8bd-0e89ad1714a4"},"vehicle_type_id":"4","last_reported":1690484697,"current_range_meters":5600,"station_id":"ce4bgs92rcd13ifvqcc0","pricing_plan_id":"free"},{"bike_id":"4e14723e-231f-4508-bace-393b52bca1c2","system_id":"levelo_inurba_marseille","lat":43.31989,"lon":5.3815,"is_reserved":false,"is_disabled":false,"rental_uris":{"android":"levelo://app?vid=4e14723e-231f-4508-bace-393b52bca1c2","ios":"levelo://app?vid=4e14723e-231f-4508-bace-393b52bca1c2"},"vehicle_type_id":"4","last_reported":1690484697,"current_range_meters":15600,"station_id":"ce4bhr12rcd13ifvqhpg","pricing_plan_id":"free"},{"bike_id":"2f7c656a-1ed8-481f-89b6-5e19f5f3170e","system_id":"levelo_inurba_marseille","lat":43.31996,"lon":5.38162,"is_reserved":false,"is_disabled":false,"rental_uris":{"android":"levelo://app?vid=2f7c656a-1ed8-481f-89b6-5e19f5f3170e","ios":"levelo://app?vid=2f7c656a-1ed8-481f-89b6-5e19f5f3170e"},"vehicle_type_id":"4","last_reported":1690484697,"current_range_meters":0,"station_id":"ce4bhr12rcd13ifvqhpg","pricing_plan_id":"free"},{"bike_id":"d3e5c9e9-029d-4f12-87dd-0305bbdbb812","system_id":"levelo_inurba_marseille","lat":43.31995,"lon":5.38166,"is_reserved":false,"is_disabled":false,"rental_uris":{"android":"levelo://app?vid=d3e5c9e9-029d-4f12-87dd-0305bbdbb812","ios":"levelo://app?vid=d3e5c9e9-029d-4f12-87dd-0305bbdbb812"},"vehicle_type_id":"4","last_reported":1690484697,"current_range_meters":29600,"station_id":"","pricing_plan_id":"free"},{"bike_id":"9fb3fcc9-e7f2-4a39-ba36-6d5303efaf88","system_id":"levelo_inurba_marseille","lat":43.313571,"lon":5.384829,"is_reserved":false,"is_disabled":false,"rental_uris":{"android":"levelo://app?vid=9fb3fcc9-e7f2-4a39-ba36-6d5303efaf88","ios":"levelo://app?vid=9fb3fcc9-e7f2-4a39-ba36-6d5303efaf88"},"vehicle_type_id":"4","last_reported":1690484697,"current_range_meters":2400,"station_id":"ce4bgt92rcd13ifvqcf0","pricing_plan_id":"free"},{"bike_id":"1b52be27-b485-4915-b2c4-4b3580900447","system_id":"levelo_inurba_marseille","lat":43.313571,"lon":5.384829,"is_reserved":false,"is_disabled":false,"rental_uris":{"android":"levelo://app?vid=1b52be27-b485-4915-b2c4-4b3580900447","ios":"levelo://app?vid=1b52be27-b485-4915-b2c4-4b3580900447"},"vehicle_type_id":"4","last_reported":1690484697,"current_range_meters":21200,"station_id":"ce4bgt92rcd13ifvqcf0","pricing_plan_id":"free"},{"bike_id":"40a9c658-7ae7-4c9d-9431-bf7ef28c4f9b","system_id":"levelo_inurba_marseille","lat":43.298511,"lon":5.362931,"is_reserved":false,"is_disabled":false,"rental_uris":{"android":"levelo://app?vid=40a9c658-7ae7-4c9d-9431-bf7ef28c4f9b","ios":"levelo://app?vid=40a9c658-7ae7-4c9d-9431-bf7ef28c4f9b"},"vehicle_type_id":"4","last_reported":1690484697,"current_range_meters":31200,"station_id":"ce4bgpp2rcd13ifvqc3g","pricing_plan_id":"free"},{"bike_id":"fbe604fe-cee3-4c76-831a-20f91e43f0dd","system_id":"levelo_inurba_marseille","lat":43.305364,"lon":5.384119,"is_reserved":false,"is_disabled":false,"rental_uris":{"android":"levelo://app?vid=fbe604fe-cee3-4c76-831a-20f91e43f0dd","ios":"levelo://app?vid=fbe604fe-cee3-4c76-831a-20f91e43f0dd"},"vehicle_type_id":"4","last_reported":1690484697,"current_range_meters":19600,"station_id":"ce4bgg92rcd13ifvqb30","pricing_plan_id":"free"},{"bike_id":"44c0cef2-3f16-448a-af62-c6b584fdd9b9","system_id":"levelo_inurba_marseille","lat":43.298433,"lon":5.362774,"is_reserved":false,"is_disabled":false,"rental_uris":{"android":"levelo://app?vid=44c0cef2-3f16-448a-af62-c6b584fdd9b9","ios":"levelo://app?vid=44c0cef2-3f16-448a-af62-c6b584fdd9b9"},"vehicle_type_id":"4","last_reported":1690484697,"current_range_meters":25600,"station_id":"ce4bgpp2rcd13ifvqc3g","pricing_plan_id":"free"},{"bike_id":"2b032ea7-4ff6-4862-be29-cab8774c3f66","system_id":"levelo_inurba_marseille","lat":43.30544,"lon":5.38424,"is_reserved":false,"is_disabled":false,"rental_uris":{"android":"levelo://app?vid=2b032ea7-4ff6-4862-be29-cab8774c3f66","ios":"levelo://app?vid=2b032ea7-4ff6-4862-be29-cab8774c3f66"},"vehicle_type_id":"4","last_reported":1690484697,"current_range_meters":27200,"station_id":"ce4bgg92rcd13ifvqb30","pricing_plan_id":"free"},{"bike_id":"14f0a8e8-8ce3-4ec4-a68d-1f874f3e0e6a","system_id":"levelo_inurba_marseille","lat":43.298433,"lon":5.362774,"is_reserved":false,"is_disabled":false,"rental_uris":{"android":"levelo://app?vid=14f0a8e8-8ce3-4ec4-a68d-1f874f3e0e6a","ios":"levelo://app?vid=14f0a8e8-8ce3-4ec4-a68d-1f874f3e0e6a"},"vehicle_type_id":"4","last_reported":1690484697,"current_range_meters":29600,"station_id":"ce4bgpp2rcd13ifvqc3g","pricing_plan_id":"free"},{"bike_id":"81a4341e-84f4-4b53-940b-8345b9db594d","system_id":"levelo_inurba_marseille","lat":43.298433,"lon":5.362774,"is_reserved":false,"is_disabled":false,"rental_uris":{"android":"levelo://app?vid=81a4341e-84f4-4b53-940b-8345b9db594d","ios":"levelo://app?vid=81a4341e-84f4-4b53-940b-8345b9db594d"},"vehicle_type_id":"4","last_reported":1690484697,"current_range_meters":7200,"station_id":"ce4bgpp2rcd13ifvqc3g","pricing_plan_id":"free"},{"bike_id":"c0fa70c9-db41-4db9-aa5b-0fb91b98b528","system_id":"levelo_inurba_marseille","lat":43.29845,"lon":5.36277,"is_reserved":false,"is_disabled":false,"rental_uris":{"android":"levelo://app?vid=c0fa70c9-db41-4db9-aa5b-0fb91b98b528","ios":"levelo://app?vid=c0fa70c9-db41-4db9-aa5b-0fb91b98b528"},"vehicle_type_id":"4","last_reported":1690484697,"current_range_meters":30000,"station_id":"ce4bgpp2rcd13ifvqc3g","pricing_plan_id":"free"},{"bike_id":"411d1f77-82c9-4e80-8ced-3a11e8a457d9","system_id":"levelo_inurba_marseille","lat":43.298433,"lon":5.362774,"is_reserved":false,"is_disabled":false,"rental_uris":{"android":"levelo://app?vid=411d1f77-82c9-4e80-8ced-3a11e8a457d9","ios":"levelo://app?vid=411d1f77-82c9-4e80-8ced-3a11e8a457d9"},"vehicle_type_id":"4","last_reported":1690484697,"current_range_meters":30800,"station_id":"ce4bgpp2rcd13ifvqc3g","pricing_plan_id":"free"},{"bike_id":"db877f3f-0e20-4ea7-bb67-60ca82db60e9","system_id":"levelo_inurba_marseille","lat":43.299243,"lon":5.374807,"is_reserved":false,"is_disabled":false,"rental_uris":{"android":"levelo://app?vid=db877f3f-0e20-4ea7-bb67-60ca82db60e9","ios":"levelo://app?vid=db877f3f-0e20-4ea7-bb67-60ca82db60e9"},"vehicle_type_id":"4","last_reported":1690484697,"current_range_meters":12000,"station_id":"ce4bgjh2rcd13ifvqbg0","pricing_plan_id":"free"},{"bike_id":"28e3efaa-e665-45e4-af91-d62d029900f7","system_id":"levelo_inurba_marseille","lat":43.311722,"lon":5.387247,"is_reserved":false,"is_disabled":false,"rental_uris":{"android":"levelo://app?vid=28e3efaa-e665-45e4-af91-d62d029900f7","ios":"levelo://app?vid=28e3efaa-e665-45e4-af91-d62d029900f7"},"vehicle_type_id":"4","last_reported":1690484697,"current_range_meters":30000,"station_id":"ce4bgv12rcd13ifvqcp0","pricing_plan_id":"free"},{"bike_id":"3484ee70-4e3d-4d00-9f36-670013733b12","system_id":"levelo_inurba_marseille","lat":43.298433,"lon":5.362774,"is_reserved":false,"is_disabled":false,"rental_uris":{"android":"levelo://app?vid=3484ee70-4e3d-4d00-9f36-670013733b12","ios":"levelo://app?vid=3484ee70-4e3d-4d00-9f36-670013733b12"},"vehicle_type_id":"4","last_reported":1690484697,"current_range_meters":31200,"station_id":"ce4bgpp2rcd13ifvqc3g","pricing_plan_id":"free"},{"bike_id":"2840672d-461b-44c4-b763-1bfd465cb7b9","system_id":"levelo_inurba_marseille","lat":43.299243,"lon":5.37481,"is_reserved":false,"is_disabled":false,"rental_uris":{"android":"levelo://app?vid=2840672d-461b-44c4-b763-1bfd465cb7b9","ios":"levelo://app?vid=2840672d-461b-44c4-b763-1bfd465cb7b9"},"vehicle_type_id":"4","last_reported":1690484697,"current_range_meters":4000,"station_id":"ce4bgjh2rcd13ifvqbg0","pricing_plan_id":"free"},{"bike_id":"d7282c71-8b99-4fbb-9bd1-169ec1261026","system_id":"levelo_inurba_marseille","lat":43.311722,"lon":5.387247,"is_reserved":false,"is_disabled":false,"rental_uris":{"android":"levelo://app?vid=d7282c71-8b99-4fbb-9bd1-169ec1261026","ios":"levelo://app?vid=d7282c71-8b99-4fbb-9bd1-169ec1261026"},"vehicle_type_id":"4","last_reported":1690484697,"current_range_meters":10800,"station_id":"ce4bgv12rcd13ifvqcp0","pricing_plan_id":"free"},{"bike_id":"c6fc8c50-db92-4c5b-941f-024f94219ccc","system_id":"levelo_inurba_marseille","lat":43.311722,"lon":5.387247,"is_reserved":false,"is_disabled":false,"rental_uris":{"android":"levelo://app?vid=c6fc8c50-db92-4c5b-941f-024f94219ccc","ios":"levelo://app?vid=c6fc8c50-db92-4c5b-941f-024f94219ccc"},"vehicle_type_id":"4","last_reported":1690484697,"current_range_meters":26400,"station_id":"ce4bgv12rcd13ifvqcp0","pricing_plan_id":"free"},{"bike_id":"9615c956-ab99-416b-88c4-2542cf685f0e","system_id":"levelo_inurba_marseille","lat":43.311722,"lon":5.387247,"is_reserved":false,"is_disabled":false,"rental_uris":{"android":"levelo://app?vid=9615c956-ab99-416b-88c4-2542cf685f0e","ios":"levelo://app?vid=9615c956-ab99-416b-88c4-2542cf685f0e"},"vehicle_type_id":"4","last_reported":1690484697,"current_range_meters":20000,"station_id":"ce4bgv12rcd13ifvqcp0","pricing_plan_id":"free"},{"bike_id":"59082efb-58c4-4d6f-a8f9-5150deed4153","system_id":"levelo_inurba_marseille","lat":43.311722,"lon":5.387247,"is_reserved":false,"is_disabled":false,"rental_uris":{"android":"levelo://app?vid=59082efb-58c4-4d6f-a8f9-5150deed4153","ios":"levelo://app?vid=59082efb-58c4-4d6f-a8f9-5150deed4153"},"vehicle_type_id":"4","last_reported":1690484697,"current_range_meters":25200,"station_id":"ce4bgv12rcd13ifvqcp0","pricing_plan_id":"free"},{"bike_id":"7179c021-c6bb-461c-ab1a-1b52afc10759","system_id":"levelo_inurba_marseille","lat":43.311722,"lon":5.387247,"is_reserved":false,"is_disabled":false,"rental_uris":{"android":"levelo://app?vid=7179c021-c6bb-461c-ab1a-1b52afc10759","ios":"levelo://app?vid=7179c021-c6bb-461c-ab1a-1b52afc10759"},"vehicle_type_id":"4","last_reported":1690484697,"current_range_meters":2400,"station_id":"ce4bgv12rcd13ifvqcp0","pricing_plan_id":"free"},{"bike_id":"7bcedb3d-3ccd-4b04-8272-83dfdeff650b","system_id":"levelo_inurba_marseille","lat":43.311722,"lon":5.387247,"is_reserved":false,"is_disabled":false,"rental_uris":{"android":"levelo://app?vid=7bcedb3d-3ccd-4b04-8272-83dfdeff650b","ios":"levelo://app?vid=7bcedb3d-3ccd-4b04-8272-83dfdeff650b"},"vehicle_type_id":"4","last_reported":1690484697,"current_range_meters":9600,"station_id":"ce4bgv12rcd13ifvqcp0","pricing_plan_id":"free"},{"bike_id":"75f763b3-7c87-4f4e-bddc-da80eb196524","system_id":"levelo_inurba_marseille","lat":43.311722,"lon":5.387247,"is_reserved":false,"is_disabled":false,"rental_uris":{"android":"levelo://app?vid=75f763b3-7c87-4f4e-bddc-da80eb196524","ios":"levelo://app?vid=75f763b3-7c87-4f4e-bddc-da80eb196524"},"vehicle_type_id":"4","last_reported":1690484697,"current_range_meters":0,"station_id":"ce4bgv12rcd13ifvqcp0","pricing_plan_id":"free"},{"bike_id":"d1d5df1b-b8d9-4375-bbc7-b5ea20d366dd","system_id":"levelo_inurba_marseille","lat":43.311722,"lon":5.387247,"is_reserved":false,"is_disabled":false,"rental_uris":{"android":"levelo://app?vid=d1d5df1b-b8d9-4375-bbc7-b5ea20d366dd","ios":"levelo://app?vid=d1d5df1b-b8d9-4375-bbc7-b5ea20d366dd"},"vehicle_type_id":"4","last_reported":1690484697,"current_range_meters":15200,"station_id":"ce4bgv12rcd13ifvqcp0","pricing_plan_id":"free"},{"bike_id":"b01d5290-6e3e-4d78-b055-3c7107ab0c87","system_id":"levelo_inurba_marseille","lat":43.311722,"lon":5.387247,"is_reserved":false,"is_disabled":false,"rental_uris":{"android":"levelo://app?vid=b01d5290-6e3e-4d78-b055-3c7107ab0c87","ios":"levelo://app?vid=b01d5290-6e3e-4d78-b055-3c7107ab0c87"},"vehicle_type_id":"4","last_reported":1690484697,"current_range_meters":4800,"station_id":"ce4bgv12rcd13ifvqcp0","pricing_plan_id":"free"},{"bike_id":"ed0d5c2a-e331-41ff-863a-c520ea165a74","system_id":"levelo_inurba_marseille","lat":43.311722,"lon":5.387247,"is_reserved":false,"is_disabled":false,"rental_uris":{"android":"levelo://app?vid=ed0d5c2a-e331-41ff-863a-c520ea165a74","ios":"levelo://app?vid=ed0d5c2a-e331-41ff-863a-c520ea165a74"},"vehicle_type_id":"4","last_reported":1690484697,"current_range_meters":30000,"station_id":"ce4bgv12rcd13ifvqcp0","pricing_plan_id":"free"},{"bike_id":"06a80756-b808-4668-ab7b-ad68143d88ec","system_id":"levelo_inurba_marseille","lat":43.311722,"lon":5.387247,"is_reserved":false,"is_disabled":false,"rental_uris":{"android":"levelo://app?vid=06a80756-b808-4668-ab7b-ad68143d88ec","ios":"levelo://app?vid=06a80756-b808-4668-ab7b-ad68143d88ec"},"vehicle_type_id":"4","last_reported":1690484697,"current_range_meters":14000,"station_id":"ce4bgv12rcd13ifvqcp0","pricing_plan_id":"free"},{"bike_id":"768f7af9-0dcf-4498-af96-d124e1528ba1","system_id":"levelo_inurba_marseille","lat":43.311722,"lon":5.387247,"is_reserved":false,"is_disabled":false,"rental_uris":{"android":"levelo://app?vid=768f7af9-0dcf-4498-af96-d124e1528ba1","ios":"levelo://app?vid=768f7af9-0dcf-4498-af96-d124e1528ba1"},"vehicle_type_id":"4","last_reported":1690484697,"current_range_meters":2400,"station_id":"ce4bgv12rcd13ifvqcp0","pricing_plan_id":"free"},{"bike_id":"dd789220-e7b5-42c1-b9dc-dc4243148021","system_id":"levelo_inurba_marseille","lat":43.297163,"lon":5.365866,"is_reserved":false,"is_disabled":false,"rental_uris":{"android":"levelo://app?vid=dd789220-e7b5-42c1-b9dc-dc4243148021","ios":"levelo://app?vid=dd789220-e7b5-42c1-b9dc-dc4243148021"},"vehicle_type_id":"4","last_reported":1690484697,"current_range_meters":31200,"station_id":"ce4bgn12rcd13ifvqbt0","pricing_plan_id":"free"},{"bike_id":"ad47db6b-d791-4335-a466-1b623cd69ae5","system_id":"levelo_inurba_marseille","lat":43.2968,"lon":5.37291,"is_reserved":false,"is_disabled":false,"rental_uris":{"android":"levelo://app?vid=ad47db6b-d791-4335-a466-1b623cd69ae5","ios":"levelo://app?vid=ad47db6b-d791-4335-a466-1b623cd69ae5"},"vehicle_type_id":"4","last_reported":1690484697,"current_range_meters":16000,"station_id":"ce4bgk12rcd13ifvqbj0","pricing_plan_id":"free"},{"bike_id":"3780315d-0a2d-4c57-99f4-9836d205d7e0","system_id":"levelo_inurba_marseille","lat":43.2968,"lon":5.37291,"is_reserved":false,"is_disabled":false,"rental_uris":{"android":"levelo://app?vid=3780315d-0a2d-4c57-99f4-9836d205d7e0","ios":"levelo://app?vid=3780315d-0a2d-4c57-99f4-9836d205d7e0"},"vehicle_type_id":"4","last_reported":1690484697,"current_range_meters":0,"station_id":"ce4bgk12rcd13ifvqbj0","pricing_plan_id":"free"},{"bike_id":"a8e31cc4-5cb3-472f-ac8d-3ba1a322269c","system_id":"levelo_inurba_marseille","lat":43.2968,"lon":5.37291,"is_reserved":false,"is_disabled":false,"rental_uris":{"android":"levelo://app?vid=a8e31cc4-5cb3-472f-ac8d-3ba1a322269c","ios":"levelo://app?vid=a8e31cc4-5cb3-472f-ac8d-3ba1a322269c"},"vehicle_type_id":"4","last_reported":1690484697,"current_range_meters":15200,"station_id":"ce4bgk12rcd13ifvqbj0","pricing_plan_id":"free"},{"bike_id":"91904c21-f4ff-441b-807d-d75060510f5a","system_id":"levelo_inurba_marseille","lat":43.29629,"lon":5.37152,"is_reserved":false,"is_disabled":false,"rental_uris":{"android":"levelo://app?vid=91904c21-f4ff-441b-807d-d75060510f5a","ios":"levelo://app?vid=91904c21-f4ff-441b-807d-d75060510f5a"},"vehicle_type_id":"4","last_reported":1690484697,"current_range_meters":30000,"station_id":"","pricing_plan_id":"free"},{"bike_id":"4f682776-9354-4748-9ecb-24b075aadc15","system_id":"levelo_inurba_marseille","lat":43.299028,"lon":5.381509,"is_reserved":false,"is_disabled":false,"rental_uris":{"android":"levelo://app?vid=4f682776-9354-4748-9ecb-24b075aadc15","ios":"levelo://app?vid=4f682776-9354-4748-9ecb-24b075aadc15"},"vehicle_type_id":"4","last_reported":1690484697,"current_range_meters":8800,"station_id":"ce4bgj12rcd13ifvqbc0","pricing_plan_id":"free"},{"bike_id":"be3ac29d-12a4-4229-afd0-e12f49567890","system_id":"levelo_inurba_marseille","lat":43.297138,"lon":5.37688,"is_reserved":false,"is_disabled":false,"rental_uris":{"android":"levelo://app?vid=be3ac29d-12a4-4229-afd0-e12f49567890","ios":"levelo://app?vid=be3ac29d-12a4-4229-afd0-e12f49567890"},"vehicle_type_id":"4","last_reported":1690484697,"current_range_meters":0,"station_id":"ce4bgkh2rcd13ifvqbl0","pricing_plan_id":"free"},{"bike_id":"5d6742fe-7ad1-4154-b1a9-8115150c1652","system_id":"levelo_inurba_marseille","lat":43.299028,"lon":5.381509,"is_reserved":false,"is_disabled":false,"rental_uris":{"android":"levelo://app?vid=5d6742fe-7ad1-4154-b1a9-8115150c1652","ios":"levelo://app?vid=5d6742fe-7ad1-4154-b1a9-8115150c1652"},"vehicle_type_id":"4","last_reported":1690484697,"current_range_meters":12800,"station_id":"ce4bgj12rcd13ifvqbc0","pricing_plan_id":"free"},{"bike_id":"2677c7a2-99bb-4275-8181-917cf1b81fcf","system_id":"levelo_inurba_marseille","lat":43.309589,"lon":5.390258,"is_reserved":false,"is_disabled":false,"rental_uris":{"android":"levelo://app?vid=2677c7a2-99bb-4275-8181-917cf1b81fcf","ios":"levelo://app?vid=2677c7a2-99bb-4275-8181-917cf1b81fcf"},"vehicle_type_id":"4","last_reported":1690484697,"current_range_meters":17600,"station_id":"ce4bgup2rcd13ifvqco0","pricing_plan_id":"free"},{"bike_id":"f14a2229-a26d-4ac3-bce9-e0ae964a8e4c","system_id":"levelo_inurba_marseille","lat":43.309589,"lon":5.390258,"is_reserved":false,"is_disabled":false,"rental_uris":{"android":"levelo://app?vid=f14a2229-a26d-4ac3-bce9-e0ae964a8e4c","ios":"levelo://app?vid=f14a2229-a26d-4ac3-bce9-e0ae964a8e4c"},"vehicle_type_id":"4","last_reported":1690484697,"current_range_meters":24000,"station_id":"ce4bgup2rcd13ifvqco0","pricing_plan_id":"free"},{"bike_id":"1f429e0d-393e-4973-b45f-238863d5e2f8","system_id":"levelo_inurba_marseille","lat":43.309589,"lon":5.390258,"is_reserved":false,"is_disabled":false,"rental_uris":{"android":"levelo://app?vid=1f429e0d-393e-4973-b45f-238863d5e2f8","ios":"levelo://app?vid=1f429e0d-393e-4973-b45f-238863d5e2f8"},"vehicle_type_id":"4","last_reported":1690484697,"current_range_meters":28400,"station_id":"ce4bgup2rcd13ifvqco0","pricing_plan_id":"free"},{"bike_id":"4f386dce-17d4-4cee-83b3-b3988a8829a6","system_id":"levelo_inurba_marseille","lat":43.30944,"lon":5.39031,"is_reserved":false,"is_disabled":false,"rental_uris":{"android":"levelo://app?vid=4f386dce-17d4-4cee-83b3-b3988a8829a6","ios":"levelo://app?vid=4f386dce-17d4-4cee-83b3-b3988a8829a6"},"vehicle_type_id":"4","last_reported":1690484697,"current_range_meters":3200,"station_id":"ce4bgup2rcd13ifvqco0","pricing_plan_id":"free"},{"bike_id":"467e3169-ec20-4837-8877-81b779e3c9a2","system_id":"levelo_inurba_marseille","lat":43.30947,"lon":5.39034,"is_reserved":false,"is_disabled":false,"rental_uris":{"android":"levelo://app?vid=467e3169-ec20-4837-8877-81b779e3c9a2","ios":"levelo://app?vid=467e3169-ec20-4837-8877-81b779e3c9a2"},"vehicle_type_id":"4","last_reported":1690484697,"current_range_meters":13600,"station_id":"ce4bgup2rcd13ifvqco0","pricing_plan_id":"free"},{"bike_id":"8167ed1d-8a32-47dc-9ef3-db612561db30","system_id":"levelo_inurba_marseille","lat":43.30948,"lon":5.39035,"is_reserved":false,"is_disabled":false,"rental_uris":{"android":"levelo://app?vid=8167ed1d-8a32-47dc-9ef3-db612561db30","ios":"levelo://app?vid=8167ed1d-8a32-47dc-9ef3-db612561db30"},"vehicle_type_id":"4","last_reported":1690484697,"current_range_meters":16400,"station_id":"ce4bgup2rcd13ifvqco0","pricing_plan_id":"free"},{"bike_id":"80996baf-8597-4552-b66a-a0139bedf903","system_id":"levelo_inurba_marseille","lat":43.309502,"lon":5.390365,"is_reserved":false,"is_disabled":false,"rental_uris":{"android":"levelo://app?vid=80996baf-8597-4552-b66a-a0139bedf903","ios":"levelo://app?vid=80996baf-8597-4552-b66a-a0139bedf903"},"vehicle_type_id":"4","last_reported":1690484697,"current_range_meters":9200,"station_id":"","pricing_plan_id":"free"},{"bike_id":"f0b1921d-8fc5-42f6-8214-26455e772ce5","system_id":"levelo_inurba_marseille","lat":43.309589,"lon":5.390258,"is_reserved":false,"is_disabled":false,"rental_uris":{"android":"levelo://app?vid=f0b1921d-8fc5-42f6-8214-26455e772ce5","ios":"levelo://app?vid=f0b1921d-8fc5-42f6-8214-26455e772ce5"},"vehicle_type_id":"4","last_reported":1690484697,"current_range_meters":28800,"station_id":"ce4bgup2rcd13ifvqco0","pricing_plan_id":"free"},{"bike_id":"abdfe600-9342-4604-bbcc-2299f6affa84","system_id":"levelo_inurba_marseille","lat":43.309589,"lon":5.390258,"is_reserved":false,"is_disabled":false,"rental_uris":{"android":"levelo://app?vid=abdfe600-9342-4604-bbcc-2299f6affa84","ios":"levelo://app?vid=abdfe600-9342-4604-bbcc-2299f6affa84"},"vehicle_type_id":"4","last_reported":1690484697,"current_range_meters":28800,"station_id":"ce4bgup2rcd13ifvqco0","pricing_plan_id":"free"},{"bike_id":"97124334-481d-4746-a222-cab38e1f209d","system_id":"levelo_inurba_marseille","lat":43.317557,"lon":5.390173,"is_reserved":false,"is_disabled":false,"rental_uris":{"android":"levelo://app?vid=97124334-481d-4746-a222-cab38e1f209d","ios":"levelo://app?vid=97124334-481d-4746-a222-cab38e1f209d"},"vehicle_type_id":"4","last_reported":1690484697,"current_range_meters":21600,"station_id":"ce4bhqp2rcd13ifvqhng","pricing_plan_id":"free"},{"bike_id":"0aa5e82b-dfe4-463a-a813-87a0ba1ba068","system_id":"levelo_inurba_marseille","lat":43.298037,"lon":5.381066,"is_reserved":false,"is_disabled":false,"rental_uris":{"android":"levelo://app?vid=0aa5e82b-dfe4-463a-a813-87a0ba1ba068","ios":"levelo://app?vid=0aa5e82b-dfe4-463a-a813-87a0ba1ba068"},"vehicle_type_id":"4","last_reported":1690484697,"current_range_meters":2000,"station_id":"ce4bgip2rcd13ifvqbb0","pricing_plan_id":"free"},{"bike_id":"3acfc948-35eb-4026-940a-a95c80cf42c1","system_id":"levelo_inurba_marseille","lat":43.295748,"lon":5.37522,"is_reserved":false,"is_disabled":false,"rental_uris":{"android":"levelo://app?vid=3acfc948-35eb-4026-940a-a95c80cf42c1","ios":"levelo://app?vid=3acfc948-35eb-4026-940a-a95c80cf42c1"},"vehicle_type_id":"4","last_reported":1690484697,"current_range_meters":31200,"station_id":"ce4bgh92rcd13ifvqb50","pricing_plan_id":"free"},{"bike_id":"da32cbfd-b345-406c-8603-0c0a96d229c9","system_id":"levelo_inurba_marseille","lat":43.304278,"lon":5.388868,"is_reserved":false,"is_disabled":false,"rental_uris":{"android":"levelo://app?vid=da32cbfd-b345-406c-8603-0c0a96d229c9","ios":"levelo://app?vid=da32cbfd-b345-406c-8603-0c0a96d229c9"},"vehicle_type_id":"4","last_reported":1690484697,"current_range_meters":6400,"station_id":"ce4bgk12rcd13ifvqbi0","pricing_plan_id":"free"},{"bike_id":"1ae4d3ce-c8a2-4d16-889e-6cbff5758e61","system_id":"levelo_inurba_marseille","lat":43.30435,"lon":5.38891,"is_reserved":false,"is_disabled":false,"rental_uris":{"android":"levelo://app?vid=1ae4d3ce-c8a2-4d16-889e-6cbff5758e61","ios":"levelo://app?vid=1ae4d3ce-c8a2-4d16-889e-6cbff5758e61"},"vehicle_type_id":"4","last_reported":1690484697,"current_range_meters":6000,"station_id":"ce4bgk12rcd13ifvqbi0","pricing_plan_id":"free"},{"bike_id":"d17602e1-969e-4ab7-9324-c58ac50eac2f","system_id":"levelo_inurba_marseille","lat":43.304311,"lon":5.388883,"is_reserved":false,"is_disabled":false,"rental_uris":{"android":"levelo://app?vid=d17602e1-969e-4ab7-9324-c58ac50eac2f","ios":"levelo://app?vid=d17602e1-969e-4ab7-9324-c58ac50eac2f"},"vehicle_type_id":"4","last_reported":1690484697,"current_range_meters":0,"station_id":"ce4bgh92rcd13ifvqb50","pricing_plan_id":"free"},{"bike_id":"45d182c4-4a4d-4809-b9f6-f80782eeea20","system_id":"levelo_inurba_marseille","lat":43.296263,"lon":5.377094,"is_reserved":false,"is_disabled":false,"rental_uris":{"android":"levelo://app?vid=45d182c4-4a4d-4809-b9f6-f80782eeea20","ios":"levelo://app?vid=45d182c4-4a4d-4809-b9f6-f80782eeea20"},"vehicle_type_id":"4","last_reported":1690484697,"current_range_meters":7600,"station_id":"ce4bgi92rcd13ifvqb90","pricing_plan_id":"free"},{"bike_id":"5d5cbd49-cbf3-47ac-bdb5-dbbf27456681","system_id":"levelo_inurba_marseille","lat":43.304278,"lon":5.388868,"is_reserved":false,"is_disabled":false,"rental_uris":{"android":"levelo://app?vid=5d5cbd49-cbf3-47ac-bdb5-dbbf27456681","ios":"levelo://app?vid=5d5cbd49-cbf3-47ac-bdb5-dbbf27456681"},"vehicle_type_id":"4","last_reported":1690484697,"current_range_meters":0,"station_id":"ce4bgk12rcd13ifvqbi0","pricing_plan_id":"free"},{"bike_id":"ee93d8f0-f70d-4f7b-894c-7fd38ebf6cef","system_id":"levelo_inurba_marseille","lat":43.304278,"lon":5.388868,"is_reserved":false,"is_disabled":false,"rental_uris":{"android":"levelo://app?vid=ee93d8f0-f70d-4f7b-894c-7fd38ebf6cef","ios":"levelo://app?vid=ee93d8f0-f70d-4f7b-894c-7fd38ebf6cef"},"vehicle_type_id":"4","last_reported":1690484697,"current_range_meters":12400,"station_id":"ce4bgk12rcd13ifvqbi0","pricing_plan_id":"free"},{"bike_id":"beba5711-81e0-4079-ac05-85597fbb917e","system_id":"levelo_inurba_marseille","lat":43.304278,"lon":5.388868,"is_reserved":false,"is_disabled":false,"rental_uris":{"android":"levelo://app?vid=beba5711-81e0-4079-ac05-85597fbb917e","ios":"levelo://app?vid=beba5711-81e0-4079-ac05-85597fbb917e"},"vehicle_type_id":"4","last_reported":1690484697,"current_range_meters":17600,"station_id":"ce4bgk12rcd13ifvqbi0","pricing_plan_id":"free"},{"bike_id":"020b44aa-6296-4e37-8617-727915ba220e","system_id":"levelo_inurba_marseille","lat":43.296263,"lon":5.377094,"is_reserved":false,"is_disabled":false,"rental_uris":{"android":"levelo://app?vid=020b44aa-6296-4e37-8617-727915ba220e","ios":"levelo://app?vid=020b44aa-6296-4e37-8617-727915ba220e"},"vehicle_type_id":"4","last_reported":1690484697,"current_range_meters":0,"station_id":"ce4bgi92rcd13ifvqb90","pricing_plan_id":"free"},{"bike_id":"1659e1d6-527f-4df9-a7d3-35e4f787d554","system_id":"levelo_inurba_marseille","lat":43.299717,"lon":5.384845,"is_reserved":false,"is_disabled":false,"rental_uris":{"android":"levelo://app?vid=1659e1d6-527f-4df9-a7d3-35e4f787d554","ios":"levelo://app?vid=1659e1d6-527f-4df9-a7d3-35e4f787d554"},"vehicle_type_id":"4","last_reported":1690484697,"current_range_meters":23600,"station_id":"ce4bgj92rcd13ifvqbd0","pricing_plan_id":"free"},{"bike_id":"30342c62-15cf-4017-8bd0-43eae41666ea","system_id":"levelo_inurba_marseille","lat":43.2999,"lon":5.384966,"is_reserved":false,"is_disabled":false,"rental_uris":{"android":"levelo://app?vid=30342c62-15cf-4017-8bd0-43eae41666ea","ios":"levelo://app?vid=30342c62-15cf-4017-8bd0-43eae41666ea"},"vehicle_type_id":"4","last_reported":1690484697,"current_range_meters":28800,"station_id":"ce4bgj92rcd13ifvqbd0","pricing_plan_id":"free"},{"bike_id":"152b7e42-bdb0-42ba-a0a2-2a07d72e8799","system_id":"levelo_inurba_marseille","lat":43.295279,"lon":5.375048,"is_reserved":false,"is_disabled":false,"rental_uris":{"android":"levelo://app?vid=152b7e42-bdb0-42ba-a0a2-2a07d72e8799","ios":"levelo://app?vid=152b7e42-bdb0-42ba-a0a2-2a07d72e8799"},"vehicle_type_id":"4","last_reported":1690484697,"current_range_meters":16400,"station_id":"ce4bgkp2rcd13ifvqbmg","pricing_plan_id":"free"},{"bike_id":"35ba067c-11da-4ce2-8171-82f4f2fe26e1","system_id":"levelo_inurba_marseille","lat":43.29531,"lon":5.37502,"is_reserved":false,"is_disabled":false,"rental_uris":{"android":"levelo://app?vid=35ba067c-11da-4ce2-8171-82f4f2fe26e1","ios":"levelo://app?vid=35ba067c-11da-4ce2-8171-82f4f2fe26e1"},"vehicle_type_id":"4","last_reported":1690484697,"current_range_meters":29600,"station_id":"ce4bgkp2rcd13ifvqbmg","pricing_plan_id":"free"},{"bike_id":"53e3a49a-b26e-472f-afd7-9db528fb5f26","system_id":"levelo_inurba_marseille","lat":43.295279,"lon":5.375048,"is_reserved":false,"is_disabled":false,"rental_uris":{"android":"levelo://app?vid=53e3a49a-b26e-472f-afd7-9db528fb5f26","ios":"levelo://app?vid=53e3a49a-b26e-472f-afd7-9db528fb5f26"},"vehicle_type_id":"4","last_reported":1690484697,"current_range_meters":0,"station_id":"ce4bgkp2rcd13ifvqbmg","pricing_plan_id":"free"},{"bike_id":"6d36cb90-8c45-474c-b698-eed2797bed10","system_id":"levelo_inurba_marseille","lat":43.299717,"lon":5.384845,"is_reserved":false,"is_disabled":false,"rental_uris":{"android":"levelo://app?vid=6d36cb90-8c45-474c-b698-eed2797bed10","ios":"levelo://app?vid=6d36cb90-8c45-474c-b698-eed2797bed10"},"vehicle_type_id":"4","last_reported":1690484697,"current_range_meters":22400,"station_id":"ce4bgj92rcd13ifvqbd0","pricing_plan_id":"free"},{"bike_id":"3ac1b8bd-5f39-492b-b539-0ab2ce8a6660","system_id":"levelo_inurba_marseille","lat":43.299717,"lon":5.384845,"is_reserved":false,"is_disabled":false,"rental_uris":{"android":"levelo://app?vid=3ac1b8bd-5f39-492b-b539-0ab2ce8a6660","ios":"levelo://app?vid=3ac1b8bd-5f39-492b-b539-0ab2ce8a6660"},"vehicle_type_id":"4","last_reported":1690484697,"current_range_meters":2400,"station_id":"ce4bgj92rcd13ifvqbd0","pricing_plan_id":"free"},{"bike_id":"f9d7ef11-de1d-42ac-b6fe-d97f73dcf314","system_id":"levelo_inurba_marseille","lat":43.299724,"lon":5.384848,"is_reserved":false,"is_disabled":false,"rental_uris":{"android":"levelo://app?vid=f9d7ef11-de1d-42ac-b6fe-d97f73dcf314","ios":"levelo://app?vid=f9d7ef11-de1d-42ac-b6fe-d97f73dcf314"},"vehicle_type_id":"4","last_reported":1690484697,"current_range_meters":27200,"station_id":"ce4bgj92rcd13ifvqbd0","pricing_plan_id":"free"},{"bike_id":"745e4c7c-b701-40e2-9a67-a9a644d00e6f","system_id":"levelo_inurba_marseille","lat":43.295279,"lon":5.375048,"is_reserved":false,"is_disabled":false,"rental_uris":{"android":"levelo://app?vid=745e4c7c-b701-40e2-9a67-a9a644d00e6f","ios":"levelo://app?vid=745e4c7c-b701-40e2-9a67-a9a644d00e6f"},"vehicle_type_id":"4","last_reported":1690484697,"current_range_meters":13600,"station_id":"ce4bgkp2rcd13ifvqbmg","pricing_plan_id":"free"},{"bike_id":"db72b7db-dde7-4911-b083-f02900fde442","system_id":"levelo_inurba_marseille","lat":43.295279,"lon":5.375048,"is_reserved":false,"is_disabled":false,"rental_uris":{"android":"levelo://app?vid=db72b7db-dde7-4911-b083-f02900fde442","ios":"levelo://app?vid=db72b7db-dde7-4911-b083-f02900fde442"},"vehicle_type_id":"4","last_reported":1690484697,"current_range_meters":14000,"station_id":"ce4bgkp2rcd13ifvqbmg","pricing_plan_id":"free"},{"bike_id":"6909b12b-a3de-467c-bec8-4c23795e6ad7","system_id":"levelo_inurba_marseille","lat":43.299724,"lon":5.384848,"is_reserved":false,"is_disabled":false,"rental_uris":{"android":"levelo://app?vid=6909b12b-a3de-467c-bec8-4c23795e6ad7","ios":"levelo://app?vid=6909b12b-a3de-467c-bec8-4c23795e6ad7"},"vehicle_type_id":"4","last_reported":1690484697,"current_range_meters":15600,"station_id":"ce4bgj92rcd13ifvqbd0","pricing_plan_id":"free"},{"bike_id":"cc86cea4-a3e5-4d32-b9ca-f30c6b345e3a","system_id":"levelo_inurba_marseille","lat":43.299717,"lon":5.384845,"is_reserved":false,"is_disabled":false,"rental_uris":{"android":"levelo://app?vid=cc86cea4-a3e5-4d32-b9ca-f30c6b345e3a","ios":"levelo://app?vid=cc86cea4-a3e5-4d32-b9ca-f30c6b345e3a"},"vehicle_type_id":"4","last_reported":1690484697,"current_range_meters":17600,"station_id":"ce4bgj92rcd13ifvqbd0","pricing_plan_id":"free"},{"bike_id":"92b4a51b-cbc6-460b-854f-e2bb9f10033d","system_id":"levelo_inurba_marseille","lat":43.295279,"lon":5.375048,"is_reserved":false,"is_disabled":false,"rental_uris":{"android":"levelo://app?vid=92b4a51b-cbc6-460b-854f-e2bb9f10033d","ios":"levelo://app?vid=92b4a51b-cbc6-460b-854f-e2bb9f10033d"},"vehicle_type_id":"4","last_reported":1690484697,"current_range_meters":800,"station_id":"ce4bgkp2rcd13ifvqbmg","pricing_plan_id":"free"},{"bike_id":"c0506fee-1591-46bd-84e5-4ead68aee5c7","system_id":"levelo_inurba_marseille","lat":43.29966,"lon":5.38495,"is_reserved":false,"is_disabled":false,"rental_uris":{"android":"levelo://app?vid=c0506fee-1591-46bd-84e5-4ead68aee5c7","ios":"levelo://app?vid=c0506fee-1591-46bd-84e5-4ead68aee5c7"},"vehicle_type_id":"4","last_reported":1690484697,"current_range_meters":18400,"station_id":"ce4bgj92rcd13ifvqbd0","pricing_plan_id":"free"},{"bike_id":"c5c9aa4e-1030-44d5-8d6c-d55b214a71be","system_id":"levelo_inurba_marseille","lat":43.295279,"lon":5.375048,"is_reserved":false,"is_disabled":false,"rental_uris":{"android":"levelo://app?vid=c5c9aa4e-1030-44d5-8d6c-d55b214a71be","ios":"levelo://app?vid=c5c9aa4e-1030-44d5-8d6c-d55b214a71be"},"vehicle_type_id":"4","last_reported":1690484697,"current_range_meters":13600,"station_id":"ce4bgkp2rcd13ifvqbmg","pricing_plan_id":"free"},{"bike_id":"35271d95-c494-40dd-8da7-2203a22c9da1","system_id":"levelo_inurba_marseille","lat":43.32367,"lon":5.388836,"is_reserved":false,"is_disabled":false,"rental_uris":{"android":"levelo://app?vid=35271d95-c494-40dd-8da7-2203a22c9da1","ios":"levelo://app?vid=35271d95-c494-40dd-8da7-2203a22c9da1"},"vehicle_type_id":"4","last_reported":1690484697,"current_range_meters":28400,"station_id":"ce4bhqp2rcd13ifvqhog","pricing_plan_id":"free"},{"bike_id":"8cb10aff-5b12-4429-89af-bc8f5ed79456","system_id":"levelo_inurba_marseille","lat":43.32367,"lon":5.388836,"is_reserved":false,"is_disabled":false,"rental_uris":{"android":"levelo://app?vid=8cb10aff-5b12-4429-89af-bc8f5ed79456","ios":"levelo://app?vid=8cb10aff-5b12-4429-89af-bc8f5ed79456"},"vehicle_type_id":"4","last_reported":1690484697,"current_range_meters":25600,"station_id":"ce4bhqp2rcd13ifvqhog","pricing_plan_id":"free"},{"bike_id":"891b7811-82bc-4d9d-86a0-8954d423b097","system_id":"levelo_inurba_marseille","lat":43.32373,"lon":5.38884,"is_reserved":false,"is_disabled":false,"rental_uris":{"android":"levelo://app?vid=891b7811-82bc-4d9d-86a0-8954d423b097","ios":"levelo://app?vid=891b7811-82bc-4d9d-86a0-8954d423b097"},"vehicle_type_id":"4","last_reported":1690484697,"current_range_meters":29600,"station_id":"ce4bhqp2rcd13ifvqhog","pricing_plan_id":"free"},{"bike_id":"c75c4325-cb55-49e7-8365-a055d598e6f3","system_id":"levelo_inurba_marseille","lat":43.292749,"lon":5.368398,"is_reserved":false,"is_disabled":false,"rental_uris":{"android":"levelo://app?vid=c75c4325-cb55-49e7-8365-a055d598e6f3","ios":"levelo://app?vid=c75c4325-cb55-49e7-8365-a055d598e6f3"},"vehicle_type_id":"4","last_reported":1690484697,"current_range_meters":12400,"station_id":"ce4bhbp2rcd13ifvqesg","pricing_plan_id":"free"},{"bike_id":"79d69bf2-dbd6-4feb-b751-bd8dc07abbe0","system_id":"levelo_inurba_marseille","lat":43.292749,"lon":5.368398,"is_reserved":false,"is_disabled":false,"rental_uris":{"android":"levelo://app?vid=79d69bf2-dbd6-4feb-b751-bd8dc07abbe0","ios":"levelo://app?vid=79d69bf2-dbd6-4feb-b751-bd8dc07abbe0"},"vehicle_type_id":"4","last_reported":1690484697,"current_range_meters":14000,"station_id":"ce4bhbp2rcd13ifvqesg","pricing_plan_id":"free"},{"bike_id":"19c28edc-2db3-4280-b8c8-6c10f75ea800","system_id":"levelo_inurba_marseille","lat":43.302992,"lon":5.392136,"is_reserved":false,"is_disabled":false,"rental_uris":{"android":"levelo://app?vid=19c28edc-2db3-4280-b8c8-6c10f75ea800","ios":"levelo://app?vid=19c28edc-2db3-4280-b8c8-6c10f75ea800"},"vehicle_type_id":"4","last_reported":1690484697,"current_range_meters":26800,"station_id":"ce4bgkh2rcd13ifvqbk0","pricing_plan_id":"free"},{"bike_id":"b584f2d0-723c-4b66-9196-7ca19dd3461f","system_id":"levelo_inurba_marseille","lat":43.305994,"lon":5.393687,"is_reserved":false,"is_disabled":false,"rental_uris":{"android":"levelo://app?vid=b584f2d0-723c-4b66-9196-7ca19dd3461f","ios":"levelo://app?vid=b584f2d0-723c-4b66-9196-7ca19dd3461f"},"vehicle_type_id":"4","last_reported":1690484697,"current_range_meters":23200,"station_id":"ce4bh0p2rcd13ifvqd80","pricing_plan_id":"free"},{"bike_id":"ebea26b8-efac-4ab7-821a-e2e64c6d8c3a","system_id":"levelo_inurba_marseille","lat":43.305994,"lon":5.393687,"is_reserved":false,"is_disabled":false,"rental_uris":{"android":"levelo://app?vid=ebea26b8-efac-4ab7-821a-e2e64c6d8c3a","ios":"levelo://app?vid=ebea26b8-efac-4ab7-821a-e2e64c6d8c3a"},"vehicle_type_id":"4","last_reported":1690484697,"current_range_meters":14800,"station_id":"ce4bh0p2rcd13ifvqd80","pricing_plan_id":"free"},{"bike_id":"4bd80a45-ceb0-4ed4-8844-c28725866f1b","system_id":"levelo_inurba_marseille","lat":43.305994,"lon":5.393687,"is_reserved":false,"is_disabled":false,"rental_uris":{"android":"levelo://app?vid=4bd80a45-ceb0-4ed4-8844-c28725866f1b","ios":"levelo://app?vid=4bd80a45-ceb0-4ed4-8844-c28725866f1b"},"vehicle_type_id":"4","last_reported":1690484697,"current_range_meters":22400,"station_id":"ce4bh0p2rcd13ifvqd80","pricing_plan_id":"free"},{"bike_id":"ac035e84-2c9a-445f-b7e5-83e8b40ea84d","system_id":"levelo_inurba_marseille","lat":43.305994,"lon":5.393687,"is_reserved":false,"is_disabled":false,"rental_uris":{"android":"levelo://app?vid=ac035e84-2c9a-445f-b7e5-83e8b40ea84d","ios":"levelo://app?vid=ac035e84-2c9a-445f-b7e5-83e8b40ea84d"},"vehicle_type_id":"4","last_reported":1690484697,"current_range_meters":15200,"station_id":"ce4bh0p2rcd13ifvqd80","pricing_plan_id":"free"},{"bike_id":"20c5f1ba-c372-424b-afb2-105c30a935de","system_id":"levelo_inurba_marseille","lat":43.302992,"lon":5.392136,"is_reserved":false,"is_disabled":false,"rental_uris":{"android":"levelo://app?vid=20c5f1ba-c372-424b-afb2-105c30a935de","ios":"levelo://app?vid=20c5f1ba-c372-424b-afb2-105c30a935de"},"vehicle_type_id":"4","last_reported":1690484697,"current_range_meters":6800,"station_id":"ce4bgkh2rcd13ifvqbk0","pricing_plan_id":"free"},{"bike_id":"2574b97e-e91b-4c68-bb8f-acbd8667a77c","system_id":"levelo_inurba_marseille","lat":43.30305,"lon":5.39205,"is_reserved":false,"is_disabled":false,"rental_uris":{"android":"levelo://app?vid=2574b97e-e91b-4c68-bb8f-acbd8667a77c","ios":"levelo://app?vid=2574b97e-e91b-4c68-bb8f-acbd8667a77c"},"vehicle_type_id":"4","last_reported":1690484697,"current_range_meters":4800,"station_id":"ce4bgkh2rcd13ifvqbk0","pricing_plan_id":"free"},{"bike_id":"182b96e8-d1ec-4e1a-bc59-452d5c45f364","system_id":"levelo_inurba_marseille","lat":43.30316,"lon":5.39214,"is_reserved":false,"is_disabled":false,"rental_uris":{"android":"levelo://app?vid=182b96e8-d1ec-4e1a-bc59-452d5c45f364","ios":"levelo://app?vid=182b96e8-d1ec-4e1a-bc59-452d5c45f364"},"vehicle_type_id":"4","last_reported":1690484697,"current_range_meters":22400,"station_id":"ce4bgkh2rcd13ifvqbk0","pricing_plan_id":"free"},{"bike_id":"474aaca4-a805-422f-935a-441e6525f42a","system_id":"levelo_inurba_marseille","lat":43.303002,"lon":5.392142,"is_reserved":false,"is_disabled":false,"rental_uris":{"android":"levelo://app?vid=474aaca4-a805-422f-935a-441e6525f42a","ios":"levelo://app?vid=474aaca4-a805-422f-935a-441e6525f42a"},"vehicle_type_id":"4","last_reported":1690484697,"current_range_meters":9600,"station_id":"ce4bgkh2rcd13ifvqbk0","pricing_plan_id":"free"},{"bike_id":"2fc4e05a-179a-4fb1-9758-c961e9653634","system_id":"levelo_inurba_marseille","lat":43.30305,"lon":5.39207,"is_reserved":false,"is_disabled":false,"rental_uris":{"android":"levelo://app?vid=2fc4e05a-179a-4fb1-9758-c961e9653634","ios":"levelo://app?vid=2fc4e05a-179a-4fb1-9758-c961e9653634"},"vehicle_type_id":"4","last_reported":1690484697,"current_range_meters":11600,"station_id":"ce4bgkh2rcd13ifvqbk0","pricing_plan_id":"free"},{"bike_id":"62b5db67-8210-4293-906d-8a182cfbe263","system_id":"levelo_inurba_marseille","lat":43.30305,"lon":5.39209,"is_reserved":false,"is_disabled":false,"rental_uris":{"android":"levelo://app?vid=62b5db67-8210-4293-906d-8a182cfbe263","ios":"levelo://app?vid=62b5db67-8210-4293-906d-8a182cfbe263"},"vehicle_type_id":"4","last_reported":1690484697,"current_range_meters":8400,"station_id":"ce4bgkh2rcd13ifvqbk0","pricing_plan_id":"free"},{"bike_id":"0ee00f70-8400-491b-8259-97b86342ead4","system_id":"levelo_inurba_marseille","lat":43.30303,"lon":5.39208,"is_reserved":false,"is_disabled":false,"rental_uris":{"android":"levelo://app?vid=0ee00f70-8400-491b-8259-97b86342ead4","ios":"levelo://app?vid=0ee00f70-8400-491b-8259-97b86342ead4"},"vehicle_type_id":"4","last_reported":1690484697,"current_range_meters":26000,"station_id":"ce4bgkh2rcd13ifvqbk0","pricing_plan_id":"free"},{"bike_id":"aa4fdac0-97f2-48dd-ab2e-718e4af0c251","system_id":"levelo_inurba_marseille","lat":43.303,"lon":5.39206,"is_reserved":false,"is_disabled":false,"rental_uris":{"android":"levelo://app?vid=aa4fdac0-97f2-48dd-ab2e-718e4af0c251","ios":"levelo://app?vid=aa4fdac0-97f2-48dd-ab2e-718e4af0c251"},"vehicle_type_id":"4","last_reported":1690484697,"current_range_meters":0,"station_id":"ce4bgkh2rcd13ifvqbk0","pricing_plan_id":"free"},{"bike_id":"b95ccb9c-881c-4f06-b804-d9f592f202d0","system_id":"levelo_inurba_marseille","lat":43.30304,"lon":5.39209,"is_reserved":false,"is_disabled":false,"rental_uris":{"android":"levelo://app?vid=b95ccb9c-881c-4f06-b804-d9f592f202d0","ios":"levelo://app?vid=b95ccb9c-881c-4f06-b804-d9f592f202d0"},"vehicle_type_id":"4","last_reported":1690484697,"current_range_meters":27200,"station_id":"ce4bgkh2rcd13ifvqbk0","pricing_plan_id":"free"},{"bike_id":"81897c8a-e9fc-446a-add0-fe5b1ebf6a3c","system_id":"levelo_inurba_marseille","lat":43.302992,"lon":5.392136,"is_reserved":false,"is_disabled":false,"rental_uris":{"android":"levelo://app?vid=81897c8a-e9fc-446a-add0-fe5b1ebf6a3c","ios":"levelo://app?vid=81897c8a-e9fc-446a-add0-fe5b1ebf6a3c"},"vehicle_type_id":"4","last_reported":1690484697,"current_range_meters":22800,"station_id":"ce4bgkh2rcd13ifvqbk0","pricing_plan_id":"free"},{"bike_id":"867188c7-013c-4d53-98e9-08a5fef6b6e5","system_id":"levelo_inurba_marseille","lat":43.30299,"lon":5.39212,"is_reserved":false,"is_disabled":false,"rental_uris":{"android":"levelo://app?vid=867188c7-013c-4d53-98e9-08a5fef6b6e5","ios":"levelo://app?vid=867188c7-013c-4d53-98e9-08a5fef6b6e5"},"vehicle_type_id":"4","last_reported":1690484697,"current_range_meters":0,"station_id":"ce4bgkh2rcd13ifvqbk0","pricing_plan_id":"free"},{"bike_id":"a4be670c-387a-4685-9e39-af8f821a85e6","system_id":"levelo_inurba_marseille","lat":43.302992,"lon":5.392136,"is_reserved":false,"is_disabled":false,"rental_uris":{"android":"levelo://app?vid=a4be670c-387a-4685-9e39-af8f821a85e6","ios":"levelo://app?vid=a4be670c-387a-4685-9e39-af8f821a85e6"},"vehicle_type_id":"4","last_reported":1690484697,"current_range_meters":11200,"station_id":"ce4bgkh2rcd13ifvqbk0","pricing_plan_id":"free"},{"bike_id":"bd640366-1ed6-4704-b380-76dd1769786f","system_id":"levelo_inurba_marseille","lat":43.302992,"lon":5.392136,"is_reserved":false,"is_disabled":false,"rental_uris":{"android":"levelo://app?vid=bd640366-1ed6-4704-b380-76dd1769786f","ios":"levelo://app?vid=bd640366-1ed6-4704-b380-76dd1769786f"},"vehicle_type_id":"4","last_reported":1690484697,"current_range_meters":12800,"station_id":"ce4bgkh2rcd13ifvqbk0","pricing_plan_id":"free"},{"bike_id":"231a4be4-e982-4079-af27-c3d577513074","system_id":"levelo_inurba_marseille","lat":43.29257,"lon":5.35963,"is_reserved":false,"is_disabled":false,"rental_uris":{"android":"levelo://app?vid=231a4be4-e982-4079-af27-c3d577513074","ios":"levelo://app?vid=231a4be4-e982-4079-af27-c3d577513074"},"vehicle_type_id":"4","last_reported":1690484697,"current_range_meters":22800,"station_id":"","pricing_plan_id":"free"},{"bike_id":"5c181e68-2619-4494-8fc3-18d0d3ece019","system_id":"levelo_inurba_marseille","lat":43.30085,"lon":5.390856,"is_reserved":false,"is_disabled":false,"rental_uris":{"android":"levelo://app?vid=5c181e68-2619-4494-8fc3-18d0d3ece019","ios":"levelo://app?vid=5c181e68-2619-4494-8fc3-18d0d3ece019"},"vehicle_type_id":"4","last_reported":1690484697,"current_range_meters":30400,"station_id":"ce4bh192rcd13ifvqdb0","pricing_plan_id":"free"},{"bike_id":"de9aaae1-eaed-4d48-958e-f53f2195daf2","system_id":"levelo_inurba_marseille","lat":43.29229,"lon":5.36065,"is_reserved":false,"is_disabled":false,"rental_uris":{"android":"levelo://app?vid=de9aaae1-eaed-4d48-958e-f53f2195daf2","ios":"levelo://app?vid=de9aaae1-eaed-4d48-958e-f53f2195daf2"},"vehicle_type_id":"4","last_reported":1690484697,"current_range_meters":31200,"station_id":"ce4bhbh2rcd13ifvqeqg","pricing_plan_id":"free"},{"bike_id":"de28aa28-8759-4d11-a639-b4142a237778","system_id":"levelo_inurba_marseille","lat":43.300852,"lon":5.390859,"is_reserved":false,"is_disabled":false,"rental_uris":{"android":"levelo://app?vid=de28aa28-8759-4d11-a639-b4142a237778","ios":"levelo://app?vid=de28aa28-8759-4d11-a639-b4142a237778"},"vehicle_type_id":"4","last_reported":1690484697,"current_range_meters":28000,"station_id":"ce4bh192rcd13ifvqdb0","pricing_plan_id":"free"},{"bike_id":"7d96f8ce-d573-4899-a9f1-c1ecb677a5dc","system_id":"levelo_inurba_marseille","lat":43.292311,"lon":5.360731,"is_reserved":false,"is_disabled":false,"rental_uris":{"android":"levelo://app?vid=7d96f8ce-d573-4899-a9f1-c1ecb677a5dc","ios":"levelo://app?vid=7d96f8ce-d573-4899-a9f1-c1ecb677a5dc"},"vehicle_type_id":"4","last_reported":1690484697,"current_range_meters":31200,"station_id":"ce4bhbh2rcd13ifvqeqg","pricing_plan_id":"free"},{"bike_id":"47e20f6e-38e1-4c5f-b0c6-fbc00ffe6693","system_id":"levelo_inurba_marseille","lat":43.292311,"lon":5.360731,"is_reserved":false,"is_disabled":false,"rental_uris":{"android":"levelo://app?vid=47e20f6e-38e1-4c5f-b0c6-fbc00ffe6693","ios":"levelo://app?vid=47e20f6e-38e1-4c5f-b0c6-fbc00ffe6693"},"vehicle_type_id":"4","last_reported":1690484697,"current_range_meters":7600,"station_id":"ce4bhbh2rcd13ifvqeqg","pricing_plan_id":"free"},{"bike_id":"f8ed1e6b-77aa-4e43-a661-c56c11b9209e","system_id":"levelo_inurba_marseille","lat":43.291671,"lon":5.371575,"is_reserved":false,"is_disabled":false,"rental_uris":{"android":"levelo://app?vid=f8ed1e6b-77aa-4e43-a661-c56c11b9209e","ios":"levelo://app?vid=f8ed1e6b-77aa-4e43-a661-c56c11b9209e"},"vehicle_type_id":"4","last_reported":1690484697,"current_range_meters":19200,"station_id":"ce4bha92rcd13ifvqeh0","pricing_plan_id":"free"},{"bike_id":"fc1d63b1-f14f-42a8-b400-887bb9b48c47","system_id":"levelo_inurba_marseille","lat":43.292663,"lon":5.376389,"is_reserved":false,"is_disabled":false,"rental_uris":{"android":"levelo://app?vid=fc1d63b1-f14f-42a8-b400-887bb9b48c47","ios":"levelo://app?vid=fc1d63b1-f14f-42a8-b400-887bb9b48c47"},"vehicle_type_id":"4","last_reported":1690484697,"current_range_meters":13200,"station_id":"ce4bgi12rcd13ifvqb80","pricing_plan_id":"free"},{"bike_id":"5aa7ef1c-e65e-408c-bbae-2a7582048086","system_id":"levelo_inurba_marseille","lat":43.292663,"lon":5.376389,"is_reserved":false,"is_disabled":false,"rental_uris":{"android":"levelo://app?vid=5aa7ef1c-e65e-408c-bbae-2a7582048086","ios":"levelo://app?vid=5aa7ef1c-e65e-408c-bbae-2a7582048086"},"vehicle_type_id":"4","last_reported":1690484697,"current_range_meters":2000,"station_id":"ce4bgi12rcd13ifvqb80","pricing_plan_id":"free"},{"bike_id":"895a655e-8cab-476f-ae4a-15dbfdb6de6e","system_id":"levelo_inurba_marseille","lat":43.291671,"lon":5.371575,"is_reserved":false,"is_disabled":false,"rental_uris":{"android":"levelo://app?vid=895a655e-8cab-476f-ae4a-15dbfdb6de6e","ios":"levelo://app?vid=895a655e-8cab-476f-ae4a-15dbfdb6de6e"},"vehicle_type_id":"4","last_reported":1690484697,"current_range_meters":6000,"station_id":"ce4bha92rcd13ifvqeh0","pricing_plan_id":"free"},{"bike_id":"c5e290ca-a731-497f-a849-3874caca4d07","system_id":"levelo_inurba_marseille","lat":43.31327,"lon":5.39703,"is_reserved":false,"is_disabled":false,"rental_uris":{"android":"levelo://app?vid=c5e290ca-a731-497f-a849-3874caca4d07","ios":"levelo://app?vid=c5e290ca-a731-497f-a849-3874caca4d07"},"vehicle_type_id":"4","last_reported":1690484697,"current_range_meters":7200,"station_id":"ce4bgvp2rcd13ifvqcu0","pricing_plan_id":"free"},{"bike_id":"413a06af-ecdf-457d-a58d-03c3e29cf289","system_id":"levelo_inurba_marseille","lat":43.29529,"lon":5.385581,"is_reserved":false,"is_disabled":false,"rental_uris":{"android":"levelo://app?vid=413a06af-ecdf-457d-a58d-03c3e29cf289","ios":"levelo://app?vid=413a06af-ecdf-457d-a58d-03c3e29cf289"},"vehicle_type_id":"4","last_reported":1690484697,"current_range_meters":22000,"station_id":"ce4bgih2rcd13ifvqba0","pricing_plan_id":"free"},{"bike_id":"7c6b2d07-0bc2-4051-af62-36da5345bb0c","system_id":"levelo_inurba_marseille","lat":43.290779,"lon":5.371482,"is_reserved":false,"is_disabled":false,"rental_uris":{"android":"levelo://app?vid=7c6b2d07-0bc2-4051-af62-36da5345bb0c","ios":"levelo://app?vid=7c6b2d07-0bc2-4051-af62-36da5345bb0c"},"vehicle_type_id":"4","last_reported":1690484697,"current_range_meters":26000,"station_id":"ce4bh5p2rcd13ifvqe4g","pricing_plan_id":"free"},{"bike_id":"cc9e45f5-89a3-4b42-8e95-be954b46672c","system_id":"levelo_inurba_marseille","lat":43.290779,"lon":5.371482,"is_reserved":false,"is_disabled":false,"rental_uris":{"android":"levelo://app?vid=cc9e45f5-89a3-4b42-8e95-be954b46672c","ios":"levelo://app?vid=cc9e45f5-89a3-4b42-8e95-be954b46672c"},"vehicle_type_id":"4","last_reported":1690484697,"current_range_meters":30000,"station_id":"ce4bh5p2rcd13ifvqe4g","pricing_plan_id":"free"},{"bike_id":"8ce17d97-6351-4ac2-8b4d-ea8a07b3c7e1","system_id":"levelo_inurba_marseille","lat":43.302008,"lon":5.394694,"is_reserved":false,"is_disabled":false,"rental_uris":{"android":"levelo://app?vid=8ce17d97-6351-4ac2-8b4d-ea8a07b3c7e1","ios":"levelo://app?vid=8ce17d97-6351-4ac2-8b4d-ea8a07b3c7e1"},"vehicle_type_id":"4","last_reported":1690484697,"current_range_meters":9600,"station_id":"ce4bh0p2rcd13ifvqd70","pricing_plan_id":"free"},{"bike_id":"798fc056-dc73-44d8-a72c-02b0a44ed49e","system_id":"levelo_inurba_marseille","lat":43.302008,"lon":5.394694,"is_reserved":false,"is_disabled":false,"rental_uris":{"android":"levelo://app?vid=798fc056-dc73-44d8-a72c-02b0a44ed49e","ios":"levelo://app?vid=798fc056-dc73-44d8-a72c-02b0a44ed49e"},"vehicle_type_id":"4","last_reported":1690484697,"current_range_meters":3200,"station_id":"ce4bh0p2rcd13ifvqd70","pricing_plan_id":"free"},{"bike_id":"cc789b55-78c0-4d3d-949f-2117cde5b0bc","system_id":"levelo_inurba_marseille","lat":43.290624,"lon":5.359245,"is_reserved":false,"is_disabled":false,"rental_uris":{"android":"levelo://app?vid=cc789b55-78c0-4d3d-949f-2117cde5b0bc","ios":"levelo://app?vid=cc789b55-78c0-4d3d-949f-2117cde5b0bc"},"vehicle_type_id":"4","last_reported":1690484697,"current_range_meters":18400,"station_id":"ce4bha92rcd13ifvqeg0","pricing_plan_id":"free"},{"bike_id":"11adf1e6-9db9-44a7-b7c6-f30b37727058","system_id":"levelo_inurba_marseille","lat":43.294153,"lon":5.386305,"is_reserved":false,"is_disabled":false,"rental_uris":{"android":"levelo://app?vid=11adf1e6-9db9-44a7-b7c6-f30b37727058","ios":"levelo://app?vid=11adf1e6-9db9-44a7-b7c6-f30b37727058"},"vehicle_type_id":"4","last_reported":1690484697,"current_range_meters":21200,"station_id":"ce4bh2h2rcd13ifvqdh0","pricing_plan_id":"free"},{"bike_id":"e12ccbcf-8aa2-4d61-adb5-73d01024dae8","system_id":"levelo_inurba_marseille","lat":43.294153,"lon":5.386305,"is_reserved":false,"is_disabled":false,"rental_uris":{"android":"levelo://app?vid=e12ccbcf-8aa2-4d61-adb5-73d01024dae8","ios":"levelo://app?vid=e12ccbcf-8aa2-4d61-adb5-73d01024dae8"},"vehicle_type_id":"4","last_reported":1690484697,"current_range_meters":13200,"station_id":"ce4bh2h2rcd13ifvqdh0","pricing_plan_id":"free"},{"bike_id":"f3723071-28aa-4e54-9d94-9f1d315b25c2","system_id":"levelo_inurba_marseille","lat":43.294153,"lon":5.386305,"is_reserved":false,"is_disabled":false,"rental_uris":{"android":"levelo://app?vid=f3723071-28aa-4e54-9d94-9f1d315b25c2","ios":"levelo://app?vid=f3723071-28aa-4e54-9d94-9f1d315b25c2"},"vehicle_type_id":"4","last_reported":1690484697,"current_range_meters":14800,"station_id":"ce4bh2h2rcd13ifvqdh0","pricing_plan_id":"free"},{"bike_id":"e025427c-4c99-4c02-8525-d905c905961e","system_id":"levelo_inurba_marseille","lat":43.294162,"lon":5.386292,"is_reserved":false,"is_disabled":false,"rental_uris":{"android":"levelo://app?vid=e025427c-4c99-4c02-8525-d905c905961e","ios":"levelo://app?vid=e025427c-4c99-4c02-8525-d905c905961e"},"vehicle_type_id":"4","last_reported":1690484697,"current_range_meters":10800,"station_id":"ce4bh2h2rcd13ifvqdh0","pricing_plan_id":"free"},{"bike_id":"ce0f92e4-08f0-4e44-af63-cbcaded6f7a7","system_id":"levelo_inurba_marseille","lat":43.289184,"lon":5.366408,"is_reserved":false,"is_disabled":false,"rental_uris":{"android":"levelo://app?vid=ce0f92e4-08f0-4e44-af63-cbcaded6f7a7","ios":"levelo://app?vid=ce0f92e4-08f0-4e44-af63-cbcaded6f7a7"},"vehicle_type_id":"4","last_reported":1690484697,"current_range_meters":12000,"station_id":"ce4bhap2rcd13ifvqek0","pricing_plan_id":"free"},{"bike_id":"71a593b1-8f06-415f-b514-b6a4f72a4d87","system_id":"levelo_inurba_marseille","lat":43.29418,"lon":5.38628,"is_reserved":false,"is_disabled":false,"rental_uris":{"android":"levelo://app?vid=71a593b1-8f06-415f-b514-b6a4f72a4d87","ios":"levelo://app?vid=71a593b1-8f06-415f-b514-b6a4f72a4d87"},"vehicle_type_id":"4","last_reported":1690484697,"current_range_meters":19600,"station_id":"ce4bh2h2rcd13ifvqdh0","pricing_plan_id":"free"},{"bike_id":"30337e9e-2bef-439e-851d-0a1f0776ce82","system_id":"levelo_inurba_marseille","lat":43.29413,"lon":5.3862,"is_reserved":false,"is_disabled":false,"rental_uris":{"android":"levelo://app?vid=30337e9e-2bef-439e-851d-0a1f0776ce82","ios":"levelo://app?vid=30337e9e-2bef-439e-851d-0a1f0776ce82"},"vehicle_type_id":"4","last_reported":1690484697,"current_range_meters":18400,"station_id":"ce4bh2h2rcd13ifvqdh0","pricing_plan_id":"free"},{"bike_id":"c5d0ba6d-bb75-4c7c-8021-b9b8c75f432b","system_id":"levelo_inurba_marseille","lat":43.289468,"lon":5.363719,"is_reserved":false,"is_disabled":false,"rental_uris":{"android":"levelo://app?vid=c5d0ba6d-bb75-4c7c-8021-b9b8c75f432b","ios":"levelo://app?vid=c5d0ba6d-bb75-4c7c-8021-b9b8c75f432b"},"vehicle_type_id":"4","last_reported":1690484697,"current_range_meters":6800,"station_id":"ce4bhc92rcd13ifvqetg","pricing_plan_id":"free"},{"bike_id":"e7cfcff1-1239-468d-b506-9d67dceade06","system_id":"levelo_inurba_marseille","lat":43.28941,"lon":5.36639,"is_reserved":false,"is_disabled":false,"rental_uris":{"android":"levelo://app?vid=e7cfcff1-1239-468d-b506-9d67dceade06","ios":"levelo://app?vid=e7cfcff1-1239-468d-b506-9d67dceade06"},"vehicle_type_id":"4","last_reported":1690484697,"current_range_meters":5600,"station_id":"ce4bhap2rcd13ifvqek0","pricing_plan_id":"free"},{"bike_id":"b08e28c7-55a5-491c-9057-04f5cbaa4672","system_id":"levelo_inurba_marseille","lat":43.28941,"lon":5.36623,"is_reserved":false,"is_disabled":false,"rental_uris":{"android":"levelo://app?vid=b08e28c7-55a5-491c-9057-04f5cbaa4672","ios":"levelo://app?vid=b08e28c7-55a5-491c-9057-04f5cbaa4672"},"vehicle_type_id":"4","last_reported":1690484697,"current_range_meters":16400,"station_id":"ce4bhap2rcd13ifvqek0","pricing_plan_id":"free"},{"bike_id":"1f62ca59-4d3e-41c5-95df-ea936ba105d3","system_id":"levelo_inurba_marseille","lat":43.294162,"lon":5.386292,"is_reserved":false,"is_disabled":false,"rental_uris":{"android":"levelo://app?vid=1f62ca59-4d3e-41c5-95df-ea936ba105d3","ios":"levelo://app?vid=1f62ca59-4d3e-41c5-95df-ea936ba105d3"},"vehicle_type_id":"4","last_reported":1690484697,"current_range_meters":28000,"station_id":"ce4bh2h2rcd13ifvqdh0","pricing_plan_id":"free"},{"bike_id":"e7e0e244-f460-44b6-9b24-6205f9e89771","system_id":"levelo_inurba_marseille","lat":43.294162,"lon":5.386292,"is_reserved":false,"is_disabled":false,"rental_uris":{"android":"levelo://app?vid=e7e0e244-f460-44b6-9b24-6205f9e89771","ios":"levelo://app?vid=e7e0e244-f460-44b6-9b24-6205f9e89771"},"vehicle_type_id":"4","last_reported":1690484697,"current_range_meters":6400,"station_id":"ce4bh2h2rcd13ifvqdh0","pricing_plan_id":"free"},{"bike_id":"b12be8a9-b823-49a8-af20-10efe0c7239d","system_id":"levelo_inurba_marseille","lat":43.289184,"lon":5.366408,"is_reserved":false,"is_disabled":false,"rental_uris":{"android":"levelo://app?vid=b12be8a9-b823-49a8-af20-10efe0c7239d","ios":"levelo://app?vid=b12be8a9-b823-49a8-af20-10efe0c7239d"},"vehicle_type_id":"4","last_reported":1690484697,"current_range_meters":5200,"station_id":"ce4bhap2rcd13ifvqek0","pricing_plan_id":"free"},{"bike_id":"57f21d0b-a746-45ab-96ee-2423844d141f","system_id":"levelo_inurba_marseille","lat":43.2941,"lon":5.3863,"is_reserved":false,"is_disabled":false,"rental_uris":{"android":"levelo://app?vid=57f21d0b-a746-45ab-96ee-2423844d141f","ios":"levelo://app?vid=57f21d0b-a746-45ab-96ee-2423844d141f"},"vehicle_type_id":"4","last_reported":1690484697,"current_range_meters":4800,"station_id":"ce4bh2h2rcd13ifvqdh0","pricing_plan_id":"free"},{"bike_id":"e58d53db-cfa2-411b-b8fe-3552f142170f","system_id":"levelo_inurba_marseille","lat":43.289184,"lon":5.366408,"is_reserved":false,"is_disabled":false,"rental_uris":{"android":"levelo://app?vid=e58d53db-cfa2-411b-b8fe-3552f142170f","ios":"levelo://app?vid=e58d53db-cfa2-411b-b8fe-3552f142170f"},"vehicle_type_id":"4","last_reported":1690484697,"current_range_meters":10000,"station_id":"ce4bhap2rcd13ifvqek0","pricing_plan_id":"free"},{"bike_id":"5da40791-464a-4262-9192-1788a0494d10","system_id":"levelo_inurba_marseille","lat":43.289184,"lon":5.366408,"is_reserved":false,"is_disabled":false,"rental_uris":{"android":"levelo://app?vid=5da40791-464a-4262-9192-1788a0494d10","ios":"levelo://app?vid=5da40791-464a-4262-9192-1788a0494d10"},"vehicle_type_id":"4","last_reported":1690484697,"current_range_meters":10000,"station_id":"ce4bhap2rcd13ifvqek0","pricing_plan_id":"free"},{"bike_id":"7dfe4857-7291-4e19-91bc-dc95f46cf824","system_id":"levelo_inurba_marseille","lat":43.289184,"lon":5.366408,"is_reserved":false,"is_disabled":false,"rental_uris":{"android":"levelo://app?vid=7dfe4857-7291-4e19-91bc-dc95f46cf824","ios":"levelo://app?vid=7dfe4857-7291-4e19-91bc-dc95f46cf824"},"vehicle_type_id":"4","last_reported":1690484697,"current_range_meters":0,"station_id":"ce4bhap2rcd13ifvqek0","pricing_plan_id":"free"},{"bike_id":"78807672-0954-4be8-8438-144d51c436ac","system_id":"levelo_inurba_marseille","lat":43.289468,"lon":5.363719,"is_reserved":false,"is_disabled":false,"rental_uris":{"android":"levelo://app?vid=78807672-0954-4be8-8438-144d51c436ac","ios":"levelo://app?vid=78807672-0954-4be8-8438-144d51c436ac"},"vehicle_type_id":"4","last_reported":1690484697,"current_range_meters":22800,"station_id":"ce4bhc92rcd13ifvqetg","pricing_plan_id":"free"},{"bike_id":"262f3490-cf15-495a-ba81-69c50709b8aa","system_id":"levelo_inurba_marseille","lat":43.29407,"lon":5.38633,"is_reserved":false,"is_disabled":false,"rental_uris":{"android":"levelo://app?vid=262f3490-cf15-495a-ba81-69c50709b8aa","ios":"levelo://app?vid=262f3490-cf15-495a-ba81-69c50709b8aa"},"vehicle_type_id":"4","last_reported":1690484697,"current_range_meters":9600,"station_id":"ce4bh2h2rcd13ifvqdh0","pricing_plan_id":"free"},{"bike_id":"4132e9ab-42b5-4751-96e5-6a1c5ae369f8","system_id":"levelo_inurba_marseille","lat":43.289184,"lon":5.366408,"is_reserved":false,"is_disabled":false,"rental_uris":{"android":"levelo://app?vid=4132e9ab-42b5-4751-96e5-6a1c5ae369f8","ios":"levelo://app?vid=4132e9ab-42b5-4751-96e5-6a1c5ae369f8"},"vehicle_type_id":"4","last_reported":1690484697,"current_range_meters":4400,"station_id":"ce4bhap2rcd13ifvqek0","pricing_plan_id":"free"},{"bike_id":"a8ff5e11-adcd-4b77-8f8c-781858112dfd","system_id":"levelo_inurba_marseille","lat":43.28944,"lon":5.3637,"is_reserved":false,"is_disabled":false,"rental_uris":{"android":"levelo://app?vid=a8ff5e11-adcd-4b77-8f8c-781858112dfd","ios":"levelo://app?vid=a8ff5e11-adcd-4b77-8f8c-781858112dfd"},"vehicle_type_id":"4","last_reported":1690484697,"current_range_meters":30000,"station_id":"","pricing_plan_id":"free"},{"bike_id":"3d780aec-42d3-4d1e-ba20-918ba51d2ab8","system_id":"levelo_inurba_marseille","lat":43.289468,"lon":5.363719,"is_reserved":false,"is_disabled":false,"rental_uris":{"android":"levelo://app?vid=3d780aec-42d3-4d1e-ba20-918ba51d2ab8","ios":"levelo://app?vid=3d780aec-42d3-4d1e-ba20-918ba51d2ab8"},"vehicle_type_id":"4","last_reported":1690484697,"current_range_meters":5600,"station_id":"ce4bhc92rcd13ifvqetg","pricing_plan_id":"free"},{"bike_id":"b16dd2e9-2ff0-412e-8299-90074be737aa","system_id":"levelo_inurba_marseille","lat":43.289468,"lon":5.363719,"is_reserved":false,"is_disabled":false,"rental_uris":{"android":"levelo://app?vid=b16dd2e9-2ff0-412e-8299-90074be737aa","ios":"levelo://app?vid=b16dd2e9-2ff0-412e-8299-90074be737aa"},"vehicle_type_id":"4","last_reported":1690484697,"current_range_meters":1200,"station_id":"ce4bhc92rcd13ifvqetg","pricing_plan_id":"free"},{"bike_id":"1ac16db6-5408-4b33-9b96-857ead7374da","system_id":"levelo_inurba_marseille","lat":43.28923,"lon":5.36337,"is_reserved":false,"is_disabled":false,"rental_uris":{"android":"levelo://app?vid=1ac16db6-5408-4b33-9b96-857ead7374da","ios":"levelo://app?vid=1ac16db6-5408-4b33-9b96-857ead7374da"},"vehicle_type_id":"4","last_reported":1690484697,"current_range_meters":27600,"station_id":"ce4bhc92rcd13ifvqetg","pricing_plan_id":"free"},{"bike_id":"e64f7185-9a6e-4425-8998-0959b4121792","system_id":"levelo_inurba_marseille","lat":43.29261,"lon":5.38442,"is_reserved":false,"is_disabled":false,"rental_uris":{"android":"levelo://app?vid=e64f7185-9a6e-4425-8998-0959b4121792","ios":"levelo://app?vid=e64f7185-9a6e-4425-8998-0959b4121792"},"vehicle_type_id":"4","last_reported":1690484697,"current_range_meters":2800,"station_id":"ce4bh692rcd13ifvqea0","pricing_plan_id":"free"},{"bike_id":"28bc65c8-6a66-4f7b-8d83-06724a367511","system_id":"levelo_inurba_marseille","lat":43.292642,"lon":5.384254,"is_reserved":false,"is_disabled":false,"rental_uris":{"android":"levelo://app?vid=28bc65c8-6a66-4f7b-8d83-06724a367511","ios":"levelo://app?vid=28bc65c8-6a66-4f7b-8d83-06724a367511"},"vehicle_type_id":"4","last_reported":1690484697,"current_range_meters":15600,"station_id":"ce4bh692rcd13ifvqea0","pricing_plan_id":"free"},{"bike_id":"8104bf8e-f86b-4476-9c08-8bb55304db57","system_id":"levelo_inurba_marseille","lat":43.292642,"lon":5.384254,"is_reserved":false,"is_disabled":false,"rental_uris":{"android":"levelo://app?vid=8104bf8e-f86b-4476-9c08-8bb55304db57","ios":"levelo://app?vid=8104bf8e-f86b-4476-9c08-8bb55304db57"},"vehicle_type_id":"4","last_reported":1690484697,"current_range_meters":5600,"station_id":"ce4bh692rcd13ifvqea0","pricing_plan_id":"free"},{"bike_id":"1ee50a69-15bf-40aa-9ecc-7340478d04ac","system_id":"levelo_inurba_marseille","lat":43.292642,"lon":5.384254,"is_reserved":false,"is_disabled":false,"rental_uris":{"android":"levelo://app?vid=1ee50a69-15bf-40aa-9ecc-7340478d04ac","ios":"levelo://app?vid=1ee50a69-15bf-40aa-9ecc-7340478d04ac"},"vehicle_type_id":"4","last_reported":1690484697,"current_range_meters":20800,"station_id":"ce4bh692rcd13ifvqea0","pricing_plan_id":"free"},{"bike_id":"b9a047aa-94fe-400d-8aaa-574c06fcdeba","system_id":"levelo_inurba_marseille","lat":43.29253,"lon":5.38447,"is_reserved":false,"is_disabled":false,"rental_uris":{"android":"levelo://app?vid=b9a047aa-94fe-400d-8aaa-574c06fcdeba","ios":"levelo://app?vid=b9a047aa-94fe-400d-8aaa-574c06fcdeba"},"vehicle_type_id":"4","last_reported":1690484697,"current_range_meters":5200,"station_id":"ce4bh692rcd13ifvqea0","pricing_plan_id":"free"},{"bike_id":"91968ac7-8a8f-40b0-b07b-8508661b31de","system_id":"levelo_inurba_marseille","lat":43.330442,"lon":5.389148,"is_reserved":false,"is_disabled":false,"rental_uris":{"android":"levelo://app?vid=91968ac7-8a8f-40b0-b07b-8508661b31de","ios":"levelo://app?vid=91968ac7-8a8f-40b0-b07b-8508661b31de"},"vehicle_type_id":"4","last_reported":1690484697,"current_range_meters":24800,"station_id":"ce4bhr92rcd13ifvqhrg","pricing_plan_id":"free"},{"bike_id":"b528eeb9-bc6b-4d03-8839-5e2cc94aa5a3","system_id":"levelo_inurba_marseille","lat":43.292642,"lon":5.384254,"is_reserved":false,"is_disabled":false,"rental_uris":{"android":"levelo://app?vid=b528eeb9-bc6b-4d03-8839-5e2cc94aa5a3","ios":"levelo://app?vid=b528eeb9-bc6b-4d03-8839-5e2cc94aa5a3"},"vehicle_type_id":"4","last_reported":1690484697,"current_range_meters":29600,"station_id":"ce4bh692rcd13ifvqea0","pricing_plan_id":"free"},{"bike_id":"766cd11b-923c-4640-ae67-2dfbbb18b931","system_id":"levelo_inurba_marseille","lat":43.33038,"lon":5.38917,"is_reserved":false,"is_disabled":false,"rental_uris":{"android":"levelo://app?vid=766cd11b-923c-4640-ae67-2dfbbb18b931","ios":"levelo://app?vid=766cd11b-923c-4640-ae67-2dfbbb18b931"},"vehicle_type_id":"4","last_reported":1690484697,"current_range_meters":18800,"station_id":"ce4bhr92rcd13ifvqhrg","pricing_plan_id":"free"},{"bike_id":"1032df60-bf44-488b-8714-b1725aad4771","system_id":"levelo_inurba_marseille","lat":43.29249,"lon":5.38448,"is_reserved":false,"is_disabled":false,"rental_uris":{"android":"levelo://app?vid=1032df60-bf44-488b-8714-b1725aad4771","ios":"levelo://app?vid=1032df60-bf44-488b-8714-b1725aad4771"},"vehicle_type_id":"4","last_reported":1690484697,"current_range_meters":29200,"station_id":"ce4bh692rcd13ifvqea0","pricing_plan_id":"free"},{"bike_id":"97da36c5-27ea-472f-8cbc-7fc89ccb0b45","system_id":"levelo_inurba_marseille","lat":43.3304,"lon":5.3892,"is_reserved":false,"is_disabled":false,"rental_uris":{"android":"levelo://app?vid=97da36c5-27ea-472f-8cbc-7fc89ccb0b45","ios":"levelo://app?vid=97da36c5-27ea-472f-8cbc-7fc89ccb0b45"},"vehicle_type_id":"4","last_reported":1690484697,"current_range_meters":29200,"station_id":"ce4bhr92rcd13ifvqhrg","pricing_plan_id":"free"},{"bike_id":"a3a42cf7-bd48-4cdc-b06d-04febd1ac94b","system_id":"levelo_inurba_marseille","lat":43.330442,"lon":5.389148,"is_reserved":false,"is_disabled":false,"rental_uris":{"android":"levelo://app?vid=a3a42cf7-bd48-4cdc-b06d-04febd1ac94b","ios":"levelo://app?vid=a3a42cf7-bd48-4cdc-b06d-04febd1ac94b"},"vehicle_type_id":"4","last_reported":1690484697,"current_range_meters":14000,"station_id":"ce4bhr92rcd13ifvqhrg","pricing_plan_id":"free"},{"bike_id":"bc7c9820-8024-4e74-8c0e-00caacc97dc6","system_id":"levelo_inurba_marseille","lat":43.33042,"lon":5.38918,"is_reserved":false,"is_disabled":false,"rental_uris":{"android":"levelo://app?vid=bc7c9820-8024-4e74-8c0e-00caacc97dc6","ios":"levelo://app?vid=bc7c9820-8024-4e74-8c0e-00caacc97dc6"},"vehicle_type_id":"4","last_reported":1690484697,"current_range_meters":4400,"station_id":"ce4bhr92rcd13ifvqhrg","pricing_plan_id":"free"},{"bike_id":"5a378b97-da55-48ac-b949-ccbbb3fc2124","system_id":"levelo_inurba_marseille","lat":43.33042,"lon":5.38919,"is_reserved":false,"is_disabled":false,"rental_uris":{"android":"levelo://app?vid=5a378b97-da55-48ac-b949-ccbbb3fc2124","ios":"levelo://app?vid=5a378b97-da55-48ac-b949-ccbbb3fc2124"},"vehicle_type_id":"4","last_reported":1690484697,"current_range_meters":18400,"station_id":"ce4bhr92rcd13ifvqhrg","pricing_plan_id":"free"},{"bike_id":"198a91cd-f90e-44b9-b124-d15f43d9259d","system_id":"levelo_inurba_marseille","lat":43.3304,"lon":5.38922,"is_reserved":false,"is_disabled":false,"rental_uris":{"android":"levelo://app?vid=198a91cd-f90e-44b9-b124-d15f43d9259d","ios":"levelo://app?vid=198a91cd-f90e-44b9-b124-d15f43d9259d"},"vehicle_type_id":"4","last_reported":1690484697,"current_range_meters":21600,"station_id":"ce4bhr92rcd13ifvqhrg","pricing_plan_id":"free"},{"bike_id":"bc43672c-780b-4c00-bb3d-3ee330a32fd9","system_id":"levelo_inurba_marseille","lat":43.290104,"lon":5.356111,"is_reserved":false,"is_disabled":false,"rental_uris":{"android":"levelo://app?vid=bc43672c-780b-4c00-bb3d-3ee330a32fd9","ios":"levelo://app?vid=bc43672c-780b-4c00-bb3d-3ee330a32fd9"},"vehicle_type_id":"4","last_reported":1690484697,"current_range_meters":10800,"station_id":"ce4bhb92rcd13ifvqen0","pricing_plan_id":"free"},{"bike_id":"5a361fbb-860b-41ba-b398-48ef228c09a4","system_id":"levelo_inurba_marseille","lat":43.33043,"lon":5.38919,"is_reserved":false,"is_disabled":false,"rental_uris":{"android":"levelo://app?vid=5a361fbb-860b-41ba-b398-48ef228c09a4","ios":"levelo://app?vid=5a361fbb-860b-41ba-b398-48ef228c09a4"},"vehicle_type_id":"4","last_reported":1690484697,"current_range_meters":12400,"station_id":"ce4bhr92rcd13ifvqhrg","pricing_plan_id":"free"},{"bike_id":"a846516f-cf51-4ac4-8674-44addcbde20b","system_id":"levelo_inurba_marseille","lat":43.330442,"lon":5.389148,"is_reserved":false,"is_disabled":false,"rental_uris":{"android":"levelo://app?vid=a846516f-cf51-4ac4-8674-44addcbde20b","ios":"levelo://app?vid=a846516f-cf51-4ac4-8674-44addcbde20b"},"vehicle_type_id":"4","last_reported":1690484697,"current_range_meters":31200,"station_id":"ce4bhr92rcd13ifvqhrg","pricing_plan_id":"free"},{"bike_id":"936f3c3e-6cd5-4fe8-b5a8-fe94f7be6310","system_id":"levelo_inurba_marseille","lat":43.33043,"lon":5.38921,"is_reserved":false,"is_disabled":false,"rental_uris":{"android":"levelo://app?vid=936f3c3e-6cd5-4fe8-b5a8-fe94f7be6310","ios":"levelo://app?vid=936f3c3e-6cd5-4fe8-b5a8-fe94f7be6310"},"vehicle_type_id":"4","last_reported":1690484697,"current_range_meters":20400,"station_id":"ce4bhr92rcd13ifvqhrg","pricing_plan_id":"free"},{"bike_id":"2c914af5-3f76-4c26-ae2e-a98cca55902c","system_id":"levelo_inurba_marseille","lat":43.33043,"lon":5.38924,"is_reserved":false,"is_disabled":false,"rental_uris":{"android":"levelo://app?vid=2c914af5-3f76-4c26-ae2e-a98cca55902c","ios":"levelo://app?vid=2c914af5-3f76-4c26-ae2e-a98cca55902c"},"vehicle_type_id":"4","last_reported":1690484697,"current_range_meters":16400,"station_id":"ce4bhr92rcd13ifvqhrg","pricing_plan_id":"free"},{"bike_id":"91fec792-a5a5-4820-af7d-3c6be3109af2","system_id":"levelo_inurba_marseille","lat":43.290104,"lon":5.356111,"is_reserved":false,"is_disabled":false,"rental_uris":{"android":"levelo://app?vid=91fec792-a5a5-4820-af7d-3c6be3109af2","ios":"levelo://app?vid=91fec792-a5a5-4820-af7d-3c6be3109af2"},"vehicle_type_id":"4","last_reported":1690484697,"current_range_meters":31600,"station_id":"ce4bhb92rcd13ifvqen0","pricing_plan_id":"free"},{"bike_id":"4662cbb0-1719-4d0e-b369-88f6f27dda30","system_id":"levelo_inurba_marseille","lat":43.290995,"lon":5.381361,"is_reserved":false,"is_disabled":false,"rental_uris":{"android":"levelo://app?vid=4662cbb0-1719-4d0e-b369-88f6f27dda30","ios":"levelo://app?vid=4662cbb0-1719-4d0e-b369-88f6f27dda30"},"vehicle_type_id":"4","last_reported":1690484697,"current_range_meters":0,"station_id":"ce4bh512rcd13ifvqe2g","pricing_plan_id":"free"},{"bike_id":"fab5cdf8-69f0-46e0-8547-17d9c7e8f4d5","system_id":"levelo_inurba_marseille","lat":43.290995,"lon":5.381361,"is_reserved":false,"is_disabled":false,"rental_uris":{"android":"levelo://app?vid=fab5cdf8-69f0-46e0-8547-17d9c7e8f4d5","ios":"levelo://app?vid=fab5cdf8-69f0-46e0-8547-17d9c7e8f4d5"},"vehicle_type_id":"4","last_reported":1690484697,"current_range_meters":9200,"station_id":"ce4bh512rcd13ifvqe2g","pricing_plan_id":"free"},{"bike_id":"af6dbfd3-9c12-43c9-baba-6dfb4a3d7582","system_id":"levelo_inurba_marseille","lat":43.290995,"lon":5.381361,"is_reserved":false,"is_disabled":false,"rental_uris":{"android":"levelo://app?vid=af6dbfd3-9c12-43c9-baba-6dfb4a3d7582","ios":"levelo://app?vid=af6dbfd3-9c12-43c9-baba-6dfb4a3d7582"},"vehicle_type_id":"4","last_reported":1690484697,"current_range_meters":25600,"station_id":"ce4bh512rcd13ifvqe2g","pricing_plan_id":"free"},{"bike_id":"d32d566c-df9f-4a96-8d48-f2933f0f8d01","system_id":"levelo_inurba_marseille","lat":43.29793,"lon":5.3933,"is_reserved":false,"is_disabled":false,"rental_uris":{"android":"levelo://app?vid=d32d566c-df9f-4a96-8d48-f2933f0f8d01","ios":"levelo://app?vid=d32d566c-df9f-4a96-8d48-f2933f0f8d01"},"vehicle_type_id":"4","last_reported":1690484697,"current_range_meters":20000,"station_id":"chh1huq6cuj3fo74tm60","pricing_plan_id":"free"},{"bike_id":"4174fe51-e153-458e-b93e-687eba8f25fe","system_id":"levelo_inurba_marseille","lat":43.297815,"lon":5.393548,"is_reserved":false,"is_disabled":false,"rental_uris":{"android":"levelo://app?vid=4174fe51-e153-458e-b93e-687eba8f25fe","ios":"levelo://app?vid=4174fe51-e153-458e-b93e-687eba8f25fe"},"vehicle_type_id":"4","last_reported":1690484697,"current_range_meters":11200,"station_id":"chh1huq6cuj3fo74tm60","pricing_plan_id":"free"},{"bike_id":"a2f7d9cf-6206-4119-b1d7-8bdd2a600569","system_id":"levelo_inurba_marseille","lat":43.297815,"lon":5.393548,"is_reserved":false,"is_disabled":false,"rental_uris":{"android":"levelo://app?vid=a2f7d9cf-6206-4119-b1d7-8bdd2a600569","ios":"levelo://app?vid=a2f7d9cf-6206-4119-b1d7-8bdd2a600569"},"vehicle_type_id":"4","last_reported":1690484697,"current_range_meters":13600,"station_id":"chh1huq6cuj3fo74tm60","pricing_plan_id":"free"},{"bike_id":"49f6f205-1705-400f-9c77-868daecea66f","system_id":"levelo_inurba_marseille","lat":43.289741,"lon":5.378306,"is_reserved":false,"is_disabled":false,"rental_uris":{"android":"levelo://app?vid=49f6f205-1705-400f-9c77-868daecea66f","ios":"levelo://app?vid=49f6f205-1705-400f-9c77-868daecea66f"},"vehicle_type_id":"4","last_reported":1690484697,"current_range_meters":6400,"station_id":"ce4bh9p2rcd13ifvqed0","pricing_plan_id":"free"},{"bike_id":"18a3c773-faa8-4cbb-832f-f1e92d417cdb","system_id":"levelo_inurba_marseille","lat":43.297815,"lon":5.393548,"is_reserved":false,"is_disabled":false,"rental_uris":{"android":"levelo://app?vid=18a3c773-faa8-4cbb-832f-f1e92d417cdb","ios":"levelo://app?vid=18a3c773-faa8-4cbb-832f-f1e92d417cdb"},"vehicle_type_id":"4","last_reported":1690484697,"current_range_meters":18000,"station_id":"chh1huq6cuj3fo74tm60","pricing_plan_id":"free"},{"bike_id":"61941682-b2f0-454d-9af5-2b679af9041d","system_id":"levelo_inurba_marseille","lat":43.295169,"lon":5.390426,"is_reserved":false,"is_disabled":false,"rental_uris":{"android":"levelo://app?vid=61941682-b2f0-454d-9af5-2b679af9041d","ios":"levelo://app?vid=61941682-b2f0-454d-9af5-2b679af9041d"},"vehicle_type_id":"4","last_reported":1690484697,"current_range_meters":10400,"station_id":"ce4bh3p2rcd13ifvqdp0","pricing_plan_id":"free"},{"bike_id":"26329ce2-2552-4008-9f80-286a0e915c4c","system_id":"levelo_inurba_marseille","lat":43.295169,"lon":5.390426,"is_reserved":false,"is_disabled":false,"rental_uris":{"android":"levelo://app?vid=26329ce2-2552-4008-9f80-286a0e915c4c","ios":"levelo://app?vid=26329ce2-2552-4008-9f80-286a0e915c4c"},"vehicle_type_id":"4","last_reported":1690484697,"current_range_meters":400,"station_id":"ce4bh3p2rcd13ifvqdp0","pricing_plan_id":"free"},{"bike_id":"b9825a4a-673b-4d0a-a658-f0d184e75d75","system_id":"levelo_inurba_marseille","lat":43.289741,"lon":5.378306,"is_reserved":false,"is_disabled":false,"rental_uris":{"android":"levelo://app?vid=b9825a4a-673b-4d0a-a658-f0d184e75d75","ios":"levelo://app?vid=b9825a4a-673b-4d0a-a658-f0d184e75d75"},"vehicle_type_id":"4","last_reported":1690484697,"current_range_meters":23200,"station_id":"ce4bh9p2rcd13ifvqed0","pricing_plan_id":"free"},{"bike_id":"327fd515-2cf1-49c9-98b0-05e6be427fdb","system_id":"levelo_inurba_marseille","lat":43.295169,"lon":5.390426,"is_reserved":false,"is_disabled":false,"rental_uris":{"android":"levelo://app?vid=327fd515-2cf1-49c9-98b0-05e6be427fdb","ios":"levelo://app?vid=327fd515-2cf1-49c9-98b0-05e6be427fdb"},"vehicle_type_id":"4","last_reported":1690484697,"current_range_meters":12400,"station_id":"ce4bh3p2rcd13ifvqdp0","pricing_plan_id":"free"},{"bike_id":"e0a11386-be98-49f2-a8c7-5e963b0d0ece","system_id":"levelo_inurba_marseille","lat":43.28963,"lon":5.37831,"is_reserved":false,"is_disabled":false,"rental_uris":{"android":"levelo://app?vid=e0a11386-be98-49f2-a8c7-5e963b0d0ece","ios":"levelo://app?vid=e0a11386-be98-49f2-a8c7-5e963b0d0ece"},"vehicle_type_id":"4","last_reported":1690484697,"current_range_meters":6000,"station_id":"ce4bh9p2rcd13ifvqed0","pricing_plan_id":"free"},{"bike_id":"02c42d6b-1fb6-45bd-9753-2eb10767fbf1","system_id":"levelo_inurba_marseille","lat":43.289741,"lon":5.378306,"is_reserved":false,"is_disabled":false,"rental_uris":{"android":"levelo://app?vid=02c42d6b-1fb6-45bd-9753-2eb10767fbf1","ios":"levelo://app?vid=02c42d6b-1fb6-45bd-9753-2eb10767fbf1"},"vehicle_type_id":"4","last_reported":1690484697,"current_range_meters":18800,"station_id":"ce4bh9p2rcd13ifvqed0","pricing_plan_id":"free"},{"bike_id":"eba7da8a-a554-44fc-bf5d-fd25ea2b7d1e","system_id":"levelo_inurba_marseille","lat":43.28875,"lon":5.35829,"is_reserved":false,"is_disabled":false,"rental_uris":{"android":"levelo://app?vid=eba7da8a-a554-44fc-bf5d-fd25ea2b7d1e","ios":"levelo://app?vid=eba7da8a-a554-44fc-bf5d-fd25ea2b7d1e"},"vehicle_type_id":"4","last_reported":1690484697,"current_range_meters":27600,"station_id":"ce4bhb12rcd13ifvqem0","pricing_plan_id":"free"},{"bike_id":"d01026d9-0b24-4901-892b-d85f4f77c50b","system_id":"levelo_inurba_marseille","lat":43.312609,"lon":5.401662,"is_reserved":false,"is_disabled":false,"rental_uris":{"android":"levelo://app?vid=d01026d9-0b24-4901-892b-d85f4f77c50b","ios":"levelo://app?vid=d01026d9-0b24-4901-892b-d85f4f77c50b"},"vehicle_type_id":"4","last_reported":1690484697,"current_range_meters":12000,"station_id":"ce4bh092rcd13ifvqd30","pricing_plan_id":"free"},{"bike_id":"800fc388-57a1-42c9-81cd-46ad6a07518f","system_id":"levelo_inurba_marseille","lat":43.31271,"lon":5.4017,"is_reserved":false,"is_disabled":false,"rental_uris":{"android":"levelo://app?vid=800fc388-57a1-42c9-81cd-46ad6a07518f","ios":"levelo://app?vid=800fc388-57a1-42c9-81cd-46ad6a07518f"},"vehicle_type_id":"4","last_reported":1690484697,"current_range_meters":0,"station_id":"ce4bh092rcd13ifvqd30","pricing_plan_id":"free"},{"bike_id":"1afea447-c7d2-4ca6-8b2c-47b8aecc9987","system_id":"levelo_inurba_marseille","lat":43.3127,"lon":5.40171,"is_reserved":false,"is_disabled":false,"rental_uris":{"android":"levelo://app?vid=1afea447-c7d2-4ca6-8b2c-47b8aecc9987","ios":"levelo://app?vid=1afea447-c7d2-4ca6-8b2c-47b8aecc9987"},"vehicle_type_id":"4","last_reported":1690484697,"current_range_meters":1200,"station_id":"ce4bh092rcd13ifvqd30","pricing_plan_id":"free"},{"bike_id":"cff8d381-e8d3-4d2c-8868-072723ec5613","system_id":"levelo_inurba_marseille","lat":43.30934,"lon":5.40146,"is_reserved":false,"is_disabled":false,"rental_uris":{"android":"levelo://app?vid=cff8d381-e8d3-4d2c-8868-072723ec5613","ios":"levelo://app?vid=cff8d381-e8d3-4d2c-8868-072723ec5613"},"vehicle_type_id":"4","last_reported":1690484697,"current_range_meters":21200,"station_id":"ce4bgvp2rcd13ifvqct0","pricing_plan_id":"free"},{"bike_id":"9f120159-de13-4694-9216-9dc32678e820","system_id":"levelo_inurba_marseille","lat":43.309371,"lon":5.401449,"is_reserved":false,"is_disabled":false,"rental_uris":{"android":"levelo://app?vid=9f120159-de13-4694-9216-9dc32678e820","ios":"levelo://app?vid=9f120159-de13-4694-9216-9dc32678e820"},"vehicle_type_id":"4","last_reported":1690484697,"current_range_meters":23600,"station_id":"ce4bgvp2rcd13ifvqct0","pricing_plan_id":"free"},{"bike_id":"1decd955-d844-4084-ae44-2c6d18b575e6","system_id":"levelo_inurba_marseille","lat":43.30939,"lon":5.40148,"is_reserved":false,"is_disabled":false,"rental_uris":{"android":"levelo://app?vid=1decd955-d844-4084-ae44-2c6d18b575e6","ios":"levelo://app?vid=1decd955-d844-4084-ae44-2c6d18b575e6"},"vehicle_type_id":"4","last_reported":1690484697,"current_range_meters":17600,"station_id":"ce4bgvp2rcd13ifvqct0","pricing_plan_id":"free"},{"bike_id":"2252818b-22fa-4af3-8b6b-bdf7cc885b75","system_id":"levelo_inurba_marseille","lat":43.30924,"lon":5.40147,"is_reserved":false,"is_disabled":false,"rental_uris":{"android":"levelo://app?vid=2252818b-22fa-4af3-8b6b-bdf7cc885b75","ios":"levelo://app?vid=2252818b-22fa-4af3-8b6b-bdf7cc885b75"},"vehicle_type_id":"4","last_reported":1690484697,"current_range_meters":26800,"station_id":"ce4bgvp2rcd13ifvqct0","pricing_plan_id":"free"},{"bike_id":"ca5fd2e1-8ffc-4b60-b61e-479d00af2a43","system_id":"levelo_inurba_marseille","lat":43.306412,"lon":5.401035,"is_reserved":false,"is_disabled":false,"rental_uris":{"android":"levelo://app?vid=ca5fd2e1-8ffc-4b60-b61e-479d00af2a43","ios":"levelo://app?vid=ca5fd2e1-8ffc-4b60-b61e-479d00af2a43"},"vehicle_type_id":"4","last_reported":1690484697,"current_range_meters":0,"station_id":"ce4bh112rcd13ifvqda0","pricing_plan_id":"free"},{"bike_id":"b243aa77-440a-4dc8-ba3f-70ba95b322cd","system_id":"levelo_inurba_marseille","lat":43.306412,"lon":5.401035,"is_reserved":false,"is_disabled":false,"rental_uris":{"android":"levelo://app?vid=b243aa77-440a-4dc8-ba3f-70ba95b322cd","ios":"levelo://app?vid=b243aa77-440a-4dc8-ba3f-70ba95b322cd"},"vehicle_type_id":"4","last_reported":1690484697,"current_range_meters":17600,"station_id":"ce4bh112rcd13ifvqda0","pricing_plan_id":"free"},{"bike_id":"eb6a362b-16a5-43c4-98c7-9efb9feec5de","system_id":"levelo_inurba_marseille","lat":43.30641,"lon":5.40091,"is_reserved":false,"is_disabled":false,"rental_uris":{"android":"levelo://app?vid=eb6a362b-16a5-43c4-98c7-9efb9feec5de","ios":"levelo://app?vid=eb6a362b-16a5-43c4-98c7-9efb9feec5de"},"vehicle_type_id":"4","last_reported":1690484697,"current_range_meters":29600,"station_id":"ce4bh112rcd13ifvqda0","pricing_plan_id":"free"},{"bike_id":"a166b2e5-9533-4d3d-b556-1c73b9d49bfd","system_id":"levelo_inurba_marseille","lat":43.306431,"lon":5.400949,"is_reserved":false,"is_disabled":false,"rental_uris":{"android":"levelo://app?vid=a166b2e5-9533-4d3d-b556-1c73b9d49bfd","ios":"levelo://app?vid=a166b2e5-9533-4d3d-b556-1c73b9d49bfd"},"vehicle_type_id":"4","last_reported":1690484697,"current_range_meters":18800,"station_id":"","pricing_plan_id":"free"},{"bike_id":"7541adfc-fdf8-482b-8d24-866af8b5a0d4","system_id":"levelo_inurba_marseille","lat":43.30126,"lon":5.39855,"is_reserved":false,"is_disabled":false,"rental_uris":{"android":"levelo://app?vid=7541adfc-fdf8-482b-8d24-866af8b5a0d4","ios":"levelo://app?vid=7541adfc-fdf8-482b-8d24-866af8b5a0d4"},"vehicle_type_id":"4","last_reported":1690484697,"current_range_meters":15600,"station_id":"","pricing_plan_id":"free"},{"bike_id":"ac8cd786-d336-4ea4-b5d1-0fb91ac3f05d","system_id":"levelo_inurba_marseille","lat":43.30128,"lon":5.39875,"is_reserved":false,"is_disabled":false,"rental_uris":{"android":"levelo://app?vid=ac8cd786-d336-4ea4-b5d1-0fb91ac3f05d","ios":"levelo://app?vid=ac8cd786-d336-4ea4-b5d1-0fb91ac3f05d"},"vehicle_type_id":"4","last_reported":1690484697,"current_range_meters":10000,"station_id":"ce4bh0h2rcd13ifvqd40","pricing_plan_id":"free"},{"bike_id":"a75d2ef2-f681-4862-a542-2077bb7b5d2b","system_id":"levelo_inurba_marseille","lat":43.30125,"lon":5.39873,"is_reserved":false,"is_disabled":false,"rental_uris":{"android":"levelo://app?vid=a75d2ef2-f681-4862-a542-2077bb7b5d2b","ios":"levelo://app?vid=a75d2ef2-f681-4862-a542-2077bb7b5d2b"},"vehicle_type_id":"4","last_reported":1690484697,"current_range_meters":13600,"station_id":"ce4bh0h2rcd13ifvqd40","pricing_plan_id":"free"},{"bike_id":"974b6a5d-6f4b-4c5b-86d6-058875779935","system_id":"levelo_inurba_marseille","lat":43.298681,"lon":5.397225,"is_reserved":false,"is_disabled":false,"rental_uris":{"android":"levelo://app?vid=974b6a5d-6f4b-4c5b-86d6-058875779935","ios":"levelo://app?vid=974b6a5d-6f4b-4c5b-86d6-058875779935"},"vehicle_type_id":"4","last_reported":1690484697,"current_range_meters":6800,"station_id":"ce4bh0h2rcd13ifvqd50","pricing_plan_id":"free"},{"bike_id":"4b910ca0-0b2f-4df0-9223-7975312a6d3a","system_id":"levelo_inurba_marseille","lat":43.298681,"lon":5.397225,"is_reserved":false,"is_disabled":false,"rental_uris":{"android":"levelo://app?vid=4b910ca0-0b2f-4df0-9223-7975312a6d3a","ios":"levelo://app?vid=4b910ca0-0b2f-4df0-9223-7975312a6d3a"},"vehicle_type_id":"4","last_reported":1690484697,"current_range_meters":19200,"station_id":"ce4bh0h2rcd13ifvqd50","pricing_plan_id":"free"},{"bike_id":"75199276-b705-4ad7-b6a9-49aeaa84628a","system_id":"levelo_inurba_marseille","lat":43.286591,"lon":5.363346,"is_reserved":false,"is_disabled":false,"rental_uris":{"android":"levelo://app?vid=75199276-b705-4ad7-b6a9-49aeaa84628a","ios":"levelo://app?vid=75199276-b705-4ad7-b6a9-49aeaa84628a"},"vehicle_type_id":"4","last_reported":1690484697,"current_range_meters":31200,"station_id":"ce4bhah2rcd13ifvqej0","pricing_plan_id":"free"},{"bike_id":"9ee017bf-d11e-4719-9879-d03890715eb9","system_id":"levelo_inurba_marseille","lat":43.286961,"lon":5.373785,"is_reserved":false,"is_disabled":false,"rental_uris":{"android":"levelo://app?vid=9ee017bf-d11e-4719-9879-d03890715eb9","ios":"levelo://app?vid=9ee017bf-d11e-4719-9879-d03890715eb9"},"vehicle_type_id":"4","last_reported":1690484697,"current_range_meters":8000,"station_id":"ce4bh3p2rcd13ifvqdq0","pricing_plan_id":"free"},{"bike_id":"04552312-9f22-4187-973f-bbf4f64f0589","system_id":"levelo_inurba_marseille","lat":43.298681,"lon":5.397225,"is_reserved":false,"is_disabled":false,"rental_uris":{"android":"levelo://app?vid=04552312-9f22-4187-973f-bbf4f64f0589","ios":"levelo://app?vid=04552312-9f22-4187-973f-bbf4f64f0589"},"vehicle_type_id":"4","last_reported":1690484697,"current_range_meters":15200,"station_id":"ce4bh0h2rcd13ifvqd50","pricing_plan_id":"free"},{"bike_id":"245c8166-20a7-4e53-97d3-298e6460adae","system_id":"levelo_inurba_marseille","lat":43.286593,"lon":5.363346,"is_reserved":false,"is_disabled":false,"rental_uris":{"android":"levelo://app?vid=245c8166-20a7-4e53-97d3-298e6460adae","ios":"levelo://app?vid=245c8166-20a7-4e53-97d3-298e6460adae"},"vehicle_type_id":"4","last_reported":1690484697,"current_range_meters":21200,"station_id":"ce4bhah2rcd13ifvqej0","pricing_plan_id":"free"},{"bike_id":"c640d663-b7df-4b69-a629-f14339c9237c","system_id":"levelo_inurba_marseille","lat":43.298681,"lon":5.397225,"is_reserved":false,"is_disabled":false,"rental_uris":{"android":"levelo://app?vid=c640d663-b7df-4b69-a629-f14339c9237c","ios":"levelo://app?vid=c640d663-b7df-4b69-a629-f14339c9237c"},"vehicle_type_id":"4","last_reported":1690484697,"current_range_meters":1200,"station_id":"ce4bh0h2rcd13ifvqd50","pricing_plan_id":"free"},{"bike_id":"3890bc1a-2eab-4da6-baf9-8323e743c2bd","system_id":"levelo_inurba_marseille","lat":43.286593,"lon":5.363346,"is_reserved":false,"is_disabled":false,"rental_uris":{"android":"levelo://app?vid=3890bc1a-2eab-4da6-baf9-8323e743c2bd","ios":"levelo://app?vid=3890bc1a-2eab-4da6-baf9-8323e743c2bd"},"vehicle_type_id":"4","last_reported":1690484697,"current_range_meters":21600,"station_id":"ce4bhah2rcd13ifvqej0","pricing_plan_id":"free"},{"bike_id":"585caa6b-efe4-42a5-8e3e-165babdf5ae5","system_id":"levelo_inurba_marseille","lat":43.298681,"lon":5.397225,"is_reserved":false,"is_disabled":false,"rental_uris":{"android":"levelo://app?vid=585caa6b-efe4-42a5-8e3e-165babdf5ae5","ios":"levelo://app?vid=585caa6b-efe4-42a5-8e3e-165babdf5ae5"},"vehicle_type_id":"4","last_reported":1690484697,"current_range_meters":20400,"station_id":"ce4bh0h2rcd13ifvqd50","pricing_plan_id":"free"},{"bike_id":"ca25ca78-544d-48d2-bcff-e4ed3f6df4c7","system_id":"levelo_inurba_marseille","lat":43.298681,"lon":5.397225,"is_reserved":false,"is_disabled":false,"rental_uris":{"android":"levelo://app?vid=ca25ca78-544d-48d2-bcff-e4ed3f6df4c7","ios":"levelo://app?vid=ca25ca78-544d-48d2-bcff-e4ed3f6df4c7"},"vehicle_type_id":"4","last_reported":1690484697,"current_range_meters":23200,"station_id":"ce4bh0h2rcd13ifvqd50","pricing_plan_id":"free"},