{"last_updated":1746832138,"ttl":60,"version":"2.2","data":{"bikes":[{"bike_id":"70fbb347-9150-487a-bc43-a6f4ea6a66b9","system_id":"levelo_inurba_marseille","lat":43.30967,"lon":5.39038,"is_reserved":false,"is_disabled":true,"rental_uris":{"android":"levelo://app?vid=70fbb347-9150-487a-bc43-a6f4ea6a66b9","ios":"levelo://app?vid=70fbb347-9150-487a-bc43-a6f4ea6a66b9"},"vehicle_type_id":"4","last_reported":1746832138,"current_range_meters":2800,"station_id":"ce4bgup2rcd13ifvqco0","pricing_plan_id":"cebpf4jnsgd1na2vs0mg"},{"bike_id":"25a96692-2520-4afa-9aa1-9349c25bb692","system_id":"levelo_inurba_marseille","lat":43.305454,"lon":5.365302,"is_reserved":false,"is_disabled":true,"rental_uris":{"android":"levelo://app?vid=25a96692-2520-4afa-9aa1-9349c25bb692","ios":"levelo://app?vid=25a96692-2520-4afa-9aa1-9349c25bb692"},"vehicle_type_id":"4","last_reported":1746832138,"current_range_meters":3600,"station_id":"ce4bgs12rcd13ifvqcag","pricing_plan_id":"cebpf4jnsgd1na2vs0mg"},{"bike_id":"3c6d0c37-471a-4ce7-b166-52edc6a87b8b","system_id":"levelo_inurba_marseille","lat":43.262284,"lon":5.404504,"is_reserved":false,"is_disabled":true,"rental_uris":{"android":"levelo://app?vid=3c6d0c37-471a-4ce7-b166-52edc6a87b8b","ios":"levelo://app?vid=3c6d0c37-471a-4ce7-b166-52edc6a87b8b"},"vehicle_type_id":"4","last_reported":1746832138,"current_range_meters":4000,"station_id":"ce4bhmh2rcd13ifvqgmg","pricing_plan_id":"cebpf4jnsgd1na2vs0mg"},{"bike_id":"23df4597-d10b-4e3f-bc67-09b2337813fb","system_id":"levelo_inurba_marseille","lat":43.28973,"lon":5.37828,"is_reserved":false,"is_disabled":false,"rental_uris":{"android":"levelo://app?vid=23df4597-d10b-4e3f-bc67-09b2337813fb","ios":"levelo://app?vid=23df4597-d10b-4e3f-bc67-09b2337813fb"},"vehicle_type_id":"4","last_reported":1746832138,"current_range_meters":4000,"station_id":"ce4bh9p2rcd13ifvqed0","pricing_plan_id":"cebpf4jnsgd1na2vs0mg"},{"bike_id":"1e3c7f59-fcfc-433c-8689-9dfe9bf305d6","system_id":"levelo_inurba_marseille","lat":43.295175,"lon":5.40543,"is_reserved":false,"is_disabled":false,"rental_uris":{"android":"levelo://app?vid=1e3c7f59-fcfc-433c-8689-9dfe9bf305d6","ios":"levelo://app?vid=1e3c7f59-fcfc-433c-8689-9dfe9bf305d6"},"vehicle_type_id":"4","last_reported":1746832138,"current_range_meters":4400,"station_id":"","pricing_plan_id":"cebpf4jnsgd1na2vs0mg"},{"bike_id":"ee5ac1d5-98a2-45e9-a424-c444b0be48b5","system_id":"levelo_inurba_marseille","lat":43.30324,"lon":5.40434,"is_reserved":false,"is_disabled":false,"rental_uris":{"android":"levelo://app?vid=ee5ac1d5-98a2-45e9-a424-c444b0be48b5","ios":"levelo://app?vid=ee5ac1d5-98a2-45e9-a424-c444b0be48b5"},"vehicle_type_id":"4","last_reported":1746832138,"current_range_meters":4400,"station_id":"ce4bh012rcd13ifvqd10","pricing_plan_id":"cebpf4jnsgd1na2vs0mg"},{"bike_id":"8a0eb219-0825-4873-8042-7ddafae48f5b","system_id":"levelo_inurba_marseille","lat":43.25859,"lon":5.39897,"is_reserved":false,"is_disabled":false,"rental_uris":{"android":"levelo://app?vid=8a0eb219-0825-4873-8042-7ddafae48f5b","ios":"levelo://app?vid=8a0eb219-0825-4873-8042-7ddafae48f5b"},"vehicle_type_id":"4","last_reported":1746832138,"current_range_meters":4800,"station_id":"ce4bhl92rcd13ifvqghg","pricing_plan_id":"cebpf4jnsgd1na2vs0mg"},{"bike_id":"fa78678f-f58c-4863-af6c-23f53b05e622","system_id":"levelo_inurba_marseille","lat":43.291518,"lon":5.354107,"is_reserved":false,"is_disabled":false,"rental_uris":{"android":"levelo://app?vid=fa78678f-f58c-4863-af6c-23f53b05e622","ios":"levelo://app?vid=fa78678f-f58c-4863-af6c-23f53b05e622"},"vehicle_type_id":"4","last_reported":1746832138,"current_range_meters":4800,"station_id":"ce4bhb92rcd13ifvqen0","pricing_plan_id":"cebpf4jnsgd1na2vs0mg"},{"bike_id":"dce24418-2aec-47dd-9bc8-5d7f1d3bf6af","system_id":"levelo_inurba_marseille","lat":43.24551,"lon":5.39524,"is_reserved":false,"is_disabled":false,"rental_uris":{"android":"levelo://app?vid=dce24418-2aec-47dd-9bc8-5d7f1d3bf6af","ios":"levelo://app?vid=dce24418-2aec-47dd-9bc8-5d7f1d3bf6af"},"vehicle_type_id":"4","last_reported":1746832138,"current_range_meters":5600,"station_id":"ce4bhlp2rcd13ifvqgjg","pricing_plan_id":"cebpf4jnsgd1na2vs0mg"},{"bike_id":"928bed07-e827-40ef-897c-7ba52991ba55","system_id":"levelo_inurba_marseille","lat":43.28651,"lon":5.36361,"is_reserved":false,"is_disabled":false,"rental_uris":{"android":"levelo://app?vid=928bed07-e827-40ef-897c-7ba52991ba55","ios":"levelo://app?vid=928bed07-e827-40ef-897c-7ba52991ba55"},"vehicle_type_id":"4","last_reported":1746832138,"current_range_meters":5600,"station_id":"ce4bhah2rcd13ifvqej0","pricing_plan_id":"cebpf4jnsgd1na2vs0mg"},{"bike_id":"afebc361-d16d-4faf-9cb6-e02aefba0610","system_id":"levelo_inurba_marseille","lat":43.302081,"lon":5.394669,"is_reserved":false,"is_disabled":false,"rental_uris":{"android":"levelo://app?vid=afebc361-d16d-4faf-9cb6-e02aefba0610","ios":"levelo://app?vid=afebc361-d16d-4faf-9cb6-e02aefba0610"},"vehicle_type_id":"4","last_reported":1746832138,"current_range_meters":6000,"station_id":"ce4bh0p2rcd13ifvqd70","pricing_plan_id":"cebpf4jnsgd1na2vs0mg"},{"bike_id":"42dd3507-359f-411b-9135-b8b87992f8a0","system_id":"levelo_inurba_marseille","lat":43.2857,"lon":5.369905,"is_reserved":false,"is_disabled":false,"rental_uris":{"android":"levelo://app?vid=42dd3507-359f-411b-9135-b8b87992f8a0","ios":"levelo://app?vid=42dd3507-359f-411b-9135-b8b87992f8a0"},"vehicle_type_id":"4","last_reported":1746832138,"current_range_meters":6000,"station_id":"","pricing_plan_id":"cebpf4jnsgd1na2vs0mg"},{"bike_id":"f673a50d-776a-4d4f-8bc2-0f75017ffb52","system_id":"levelo_inurba_marseille","lat":43.284499,"lon":5.358347,"is_reserved":false,"is_disabled":false,"rental_uris":{"android":"levelo://app?vid=f673a50d-776a-4d4f-8bc2-0f75017ffb52","ios":"levelo://app?vid=f673a50d-776a-4d4f-8bc2-0f75017ffb52"},"vehicle_type_id":"4","last_reported":1746832138,"current_range_meters":6400,"station_id":"ce4bhah2rcd13ifvqei0","pricing_plan_id":"cebpf4jnsgd1na2vs0mg"},{"bike_id":"9e4ccf65-2c18-41d7-93f6-003c2cda1d6c","system_id":"levelo_inurba_marseille","lat":43.27806,"lon":5.40712,"is_reserved":false,"is_disabled":false,"rental_uris":{"android":"levelo://app?vid=9e4ccf65-2c18-41d7-93f6-003c2cda1d6c","ios":"levelo://app?vid=9e4ccf65-2c18-41d7-93f6-003c2cda1d6c"},"vehicle_type_id":"4","last_reported":1746832138,"current_range_meters":6400,"station_id":"ce4bhnh2rcd13ifvqgtg","pricing_plan_id":"cebpf4jnsgd1na2vs0mg"},{"bike_id":"ce891d78-268d-4657-895e-e7d14c9c13da","system_id":"levelo_inurba_marseille","lat":43.255843,"lon":5.382393,"is_reserved":false,"is_disabled":false,"rental_uris":{"android":"levelo://app?vid=ce891d78-268d-4657-895e-e7d14c9c13da","ios":"levelo://app?vid=ce891d78-268d-4657-895e-e7d14c9c13da"},"vehicle_type_id":"4","last_reported":1746832138,"current_range_meters":6400,"station_id":"ce4bhih2rcd13ifvqfs0","pricing_plan_id":"cebpf4jnsgd1na2vs0mg"},{"bike_id":"f76d0e06-a922-41bb-9df5-d0a5c7d3f9fc","system_id":"levelo_inurba_marseille","lat":43.28923,"lon":5.38417,"is_reserved":false,"is_disabled":true,"rental_uris":{"android":"levelo://app?vid=f76d0e06-a922-41bb-9df5-d0a5c7d3f9fc","ios":"levelo://app?vid=f76d0e06-a922-41bb-9df5-d0a5c7d3f9fc"},"vehicle_type_id":"4","last_reported":1746832138,"current_range_meters":6800,"station_id":"ce4bh612rcd13ifvqe6g","pricing_plan_id":"cebpf4jnsgd1na2vs0mg"},{"bike_id":"6af774d7-2c64-48a1-ae08-54f823e2517c","system_id":"levelo_inurba_marseille","lat":43.31491,"lon":5.37309,"is_reserved":false,"is_disabled":false,"rental_uris":{"android":"levelo://app?vid=6af774d7-2c64-48a1-ae08-54f823e2517c","ios":"levelo://app?vid=6af774d7-2c64-48a1-ae08-54f823e2517c"},"vehicle_type_id":"4","last_reported":1746832138,"current_range_meters":6800,"station_id":"ce4bgt12rcd13ifvqcd0","pricing_plan_id":"cebpf4jnsgd1na2vs0mg"},{"bike_id":"ba32ee3a-6a49-437c-90fb-7756461a61f4","system_id":"levelo_inurba_marseille","lat":43.24182,"lon":5.36402,"is_reserved":false,"is_disabled":false,"rental_uris":{"android":"levelo://app?vid=ba32ee3a-6a49-437c-90fb-7756461a61f4","ios":"levelo://app?vid=ba32ee3a-6a49-437c-90fb-7756461a61f4"},"vehicle_type_id":"4","last_reported":1746832138,"current_range_meters":7200,"station_id":"cpo36qri1sfpv3e86is0","pricing_plan_id":"cebpf4jnsgd1na2vs0mg"},{"bike_id":"283c096d-9775-40df-9ef5-3ff56b9146cb","system_id":"levelo_inurba_marseille","lat":43.22943,"lon":5.35334,"is_reserved":false,"is_disabled":true,"rental_uris":{"android":"levelo://app?vid=283c096d-9775-40df-9ef5-3ff56b9146cb","ios":"levelo://app?vid=283c096d-9775-40df-9ef5-3ff56b9146cb"},"vehicle_type_id":"4","last_reported":1746832138,"current_range_meters":7200,"station_id":"cpo3532slgdg3j2ikp40","pricing_plan_id":"cebpf4jnsgd1na2vs0mg"},{"bike_id":"06af7eed-e121-4b01-a1d5-73b129d913ea","system_id":"levelo_inurba_marseille","lat":43.30244,"lon":5.39063,"is_reserved":false,"is_disabled":false,"rental_uris":{"android":"levelo://app?vid=06af7eed-e121-4b01-a1d5-73b129d913ea","ios":"levelo://app?vid=06af7eed-e121-4b01-a1d5-73b129d913ea"},"vehicle_type_id":"4","last_reported":1746832138,"current_range_meters":8400,"station_id":"ce4bgkh2rcd13ifvqbk0","pricing_plan_id":"cebpf4jnsgd1na2vs0mg"},{"bike_id":"31a2d2c8-f240-4ce3-9c3c-76d38878780b","system_id":"levelo_inurba_marseille","lat":43.314521,"lon":5.373777,"is_reserved":false,"is_disabled":false,"rental_uris":{"android":"levelo://app?vid=31a2d2c8-f240-4ce3-9c3c-76d38878780b","ios":"levelo://app?vid=31a2d2c8-f240-4ce3-9c3c-76d38878780b"},"vehicle_type_id":"4","last_reported":1746832138,"current_range_meters":7200,"station_id":"","pricing_plan_id":"cebpf4jnsgd1na2vs0mg"},{"bike_id":"41b1a32b-2cab-4ffc-b477-33d19a4dd033","system_id":"levelo_inurba_marseille","lat":43.24547,"lon":5.39537,"is_reserved":false,"is_disabled":false,"rental_uris":{"android":"levelo://app?vid=41b1a32b-2cab-4ffc-b477-33d19a4dd033","ios":"levelo://app?vid=41b1a32b-2cab-4ffc-b477-33d19a4dd033"},"vehicle_type_id":"4","last_reported":1746832138,"current_range_meters":8000,"station_id":"ce4bhlp2rcd13ifvqgjg","pricing_plan_id":"cebpf4jnsgd1na2vs0mg"},{"bike_id":"c885d7fb-f38c-4d2a-b65f-ee0dd56d91f3","system_id":"levelo_inurba_marseille","lat":43.31351,"lon":5.38495,"is_reserved":false,"is_disabled":false,"rental_uris":{"android":"levelo://app?vid=c885d7fb-f38c-4d2a-b65f-ee0dd56d91f3","ios":"levelo://app?vid=c885d7fb-f38c-4d2a-b65f-ee0dd56d91f3"},"vehicle_type_id":"4","last_reported":1746832138,"current_range_meters":8000,"station_id":"ce4bgt92rcd13ifvqcf0","pricing_plan_id":"cebpf4jnsgd1na2vs0mg"},{"bike_id":"caf9033d-5f00-49c3-b1ee-1328b62008dc","system_id":"levelo_inurba_marseille","lat":43.33588,"lon":5.4283,"is_reserved":false,"is_disabled":false,"rental_uris":{"android":"levelo://app?vid=caf9033d-5f00-49c3-b1ee-1328b62008dc","ios":"levelo://app?vid=caf9033d-5f00-49c3-b1ee-1328b62008dc"},"vehicle_type_id":"4","last_reported":1746832138,"current_range_meters":8000,"station_id":"","pricing_plan_id":"cebpf4jnsgd1na2vs0mg"},{"bike_id":"730113d7-e72b-4423-a22e-1832e56b04d0","system_id":"levelo_inurba_marseille","lat":43.29423,"lon":5.38683,"is_reserved":false,"is_disabled":true,"rental_uris":{"android":"levelo://app?vid=730113d7-e72b-4423-a22e-1832e56b04d0","ios":"levelo://app?vid=730113d7-e72b-4423-a22e-1832e56b04d0"},"vehicle_type_id":"4","last_reported":1746832138,"current_range_meters":8400,"station_id":"ce4bh2h2rcd13ifvqdh0","pricing_plan_id":"cebpf4jnsgd1na2vs0mg"},{"bike_id":"dd1b1ff0-ba6c-4744-a9f2-7be34f5a933e","system_id":"levelo_inurba_marseille","lat":43.279433,"lon":5.410363,"is_reserved":false,"is_disabled":false,"rental_uris":{"android":"levelo://app?vid=dd1b1ff0-ba6c-4744-a9f2-7be34f5a933e","ios":"levelo://app?vid=dd1b1ff0-ba6c-4744-a9f2-7be34f5a933e"},"vehicle_type_id":"4","last_reported":1746832138,"current_range_meters":8400,"station_id":"ce4bhnp2rcd13ifvqh0g","pricing_plan_id":"cebpf4jnsgd1na2vs0mg"},{"bike_id":"5ef9c87e-d345-4f11-b0b5-68191ebd1ab6","system_id":"levelo_inurba_marseille","lat":43.24556,"lon":5.39523,"is_reserved":false,"is_disabled":false,"rental_uris":{"android":"levelo://app?vid=5ef9c87e-d345-4f11-b0b5-68191ebd1ab6","ios":"levelo://app?vid=5ef9c87e-d345-4f11-b0b5-68191ebd1ab6"},"vehicle_type_id":"4","last_reported":1746832138,"current_range_meters":8400,"station_id":"ce4bhlp2rcd13ifvqgjg","pricing_plan_id":"cebpf4jnsgd1na2vs0mg"},{"bike_id":"025297fa-319c-4b3c-bfc9-76013a2734fc","system_id":"levelo_inurba_marseille","lat":43.2559,"lon":5.38233,"is_reserved":false,"is_disabled":false,"rental_uris":{"android":"levelo://app?vid=025297fa-319c-4b3c-bfc9-76013a2734fc","ios":"levelo://app?vid=025297fa-319c-4b3c-bfc9-76013a2734fc"},"vehicle_type_id":"4","last_reported":1746832138,"current_range_meters":8400,"station_id":"ce4bhih2rcd13ifvqfs0","pricing_plan_id":"cebpf4jnsgd1na2vs0mg"},{"bike_id":"9afc3232-cb2a-4c49-a74f-4fd74303c384","system_id":"levelo_inurba_marseille","lat":43.27838,"lon":5.39201,"is_reserved":false,"is_disabled":false,"rental_uris":{"android":"levelo://app?vid=9afc3232-cb2a-4c49-a74f-4fd74303c384","ios":"levelo://app?vid=9afc3232-cb2a-4c49-a74f-4fd74303c384"},"vehicle_type_id":"4","last_reported":1746832138,"current_range_meters":8800,"station_id":"ce4bhjp2rcd13ifvqga0","pricing_plan_id":"cebpf4jnsgd1na2vs0mg"},{"bike_id":"a5035683-e922-4659-b77f-9b07031bc84e","system_id":"levelo_inurba_marseille","lat":43.21752,"lon":5.34599,"is_reserved":false,"is_disabled":true,"rental_uris":{"android":"levelo://app?vid=a5035683-e922-4659-b77f-9b07031bc84e","ios":"levelo://app?vid=a5035683-e922-4659-b77f-9b07031bc84e"},"vehicle_type_id":"4","last_reported":1746832138,"current_range_meters":8800,"station_id":"st_cvj6r9ubvosntc0bgbag","pricing_plan_id":"cebpf4jnsgd1na2vs0mg"},{"bike_id":"ce972654-4647-4640-9be3-f6d267f881ec","system_id":"levelo_inurba_marseille","lat":43.27624,"lon":5.36115,"is_reserved":false,"is_disabled":false,"rental_uris":{"android":"levelo://app?vid=ce972654-4647-4640-9be3-f6d267f881ec","ios":"levelo://app?vid=ce972654-4647-4640-9be3-f6d267f881ec"},"vehicle_type_id":"4","last_reported":1746832138,"current_range_meters":8800,"station_id":"ce4bgj92rcd13ifvqbe0","pricing_plan_id":"cebpf4jnsgd1na2vs0mg"},{"bike_id":"eea55eaf-fd1e-4663-bf90-5a9fa76f1cf6","system_id":"levelo_inurba_marseille","lat":43.27416,"lon":5.39439,"is_reserved":false,"is_disabled":false,"rental_uris":{"android":"levelo://app?vid=eea55eaf-fd1e-4663-bf90-5a9fa76f1cf6","ios":"levelo://app?vid=eea55eaf-fd1e-4663-bf90-5a9fa76f1cf6"},"vehicle_type_id":"4","last_reported":1746832138,"current_range_meters":8800,"station_id":"ce4bhdp2rcd13ifvqf20","pricing_plan_id":"cebpf4jnsgd1na2vs0mg"},{"bike_id":"791cf852-cc2a-4381-a46c-d7afe4ceb6de","system_id":"levelo_inurba_marseille","lat":43.28996,"lon":5.35616,"is_reserved":false,"is_disabled":true,"rental_uris":{"android":"levelo://app?vid=791cf852-cc2a-4381-a46c-d7afe4ceb6de","ios":"levelo://app?vid=791cf852-cc2a-4381-a46c-d7afe4ceb6de"},"vehicle_type_id":"4","last_reported":1746832138,"current_range_meters":8800,"station_id":"ce4bhb92rcd13ifvqen0","pricing_plan_id":"cebpf4jnsgd1na2vs0mg"},{"bike_id":"42091268-e1c5-49fa-92ef-af1096d6f585","system_id":"levelo_inurba_marseille","lat":43.30928,"lon":5.40141,"is_reserved":false,"is_disabled":false,"rental_uris":{"android":"levelo://app?vid=42091268-e1c5-49fa-92ef-af1096d6f585","ios":"levelo://app?vid=42091268-e1c5-49fa-92ef-af1096d6f585"},"vehicle_type_id":"4","last_reported":1746832138,"current_range_meters":8800,"station_id":"ce4bgvp2rcd13ifvqct0","pricing_plan_id":"cebpf4jnsgd1na2vs0mg"},{"bike_id":"1555e2ad-6b7c-4908-882d-e64fa95642f5","system_id":"levelo_inurba_marseille","lat":43.29256,"lon":5.4091,"is_reserved":false,"is_disabled":false,"rental_uris":{"android":"levelo://app?vid=1555e2ad-6b7c-4908-882d-e64fa95642f5","ios":"levelo://app?vid=1555e2ad-6b7c-4908-882d-e64fa95642f5"},"vehicle_type_id":"4","last_reported":1746832138,"current_range_meters":9200,"station_id":"ce4bh192rcd13ifvqdc0","pricing_plan_id":"cebpf4jnsgd1na2vs0mg"},{"bike_id":"b0c54ead-2c9a-4d45-904a-5e1b9abf7338","system_id":"levelo_inurba_marseille","lat":43.27886,"lon":5.44102,"is_reserved":false,"is_disabled":false,"rental_uris":{"android":"levelo://app?vid=b0c54ead-2c9a-4d45-904a-5e1b9abf7338","ios":"levelo://app?vid=b0c54ead-2c9a-4d45-904a-5e1b9abf7338"},"vehicle_type_id":"4","last_reported":1746832138,"current_range_meters":9200,"station_id":"","pricing_plan_id":"cebpf4jnsgd1na2vs0mg"},{"bike_id":"3c7670ff-3628-42b4-8ea8-664d4fa357dd","system_id":"levelo_inurba_marseille","lat":43.279863,"lon":5.416678,"is_reserved":false,"is_disabled":false,"rental_uris":{"android":"levelo://app?vid=3c7670ff-3628-42b4-8ea8-664d4fa357dd","ios":"levelo://app?vid=3c7670ff-3628-42b4-8ea8-664d4fa357dd"},"vehicle_type_id":"4","last_reported":1746832138,"current_range_meters":9200,"station_id":"ce4bho12rcd13ifvqh1g","pricing_plan_id":"cebpf4jnsgd1na2vs0mg"},{"bike_id":"a91ffdf0-d2f6-41f8-9f20-aa84bc35df0e","system_id":"levelo_inurba_marseille","lat":43.28469,"lon":5.38396,"is_reserved":false,"is_disabled":false,"rental_uris":{"android":"levelo://app?vid=a91ffdf0-d2f6-41f8-9f20-aa84bc35df0e","ios":"levelo://app?vid=a91ffdf0-d2f6-41f8-9f20-aa84bc35df0e"},"vehicle_type_id":"4","last_reported":1746832138,"current_range_meters":9600,"station_id":"ce4bh512rcd13ifvqe3g","pricing_plan_id":"cebpf4jnsgd1na2vs0mg"},{"bike_id":"750853c3-5c7a-41ac-b4b9-21d83e878f6f","system_id":"levelo_inurba_marseille","lat":43.27694,"lon":5.41971,"is_reserved":false,"is_disabled":false,"rental_uris":{"android":"levelo://app?vid=750853c3-5c7a-41ac-b4b9-21d83e878f6f","ios":"levelo://app?vid=750853c3-5c7a-41ac-b4b9-21d83e878f6f"},"vehicle_type_id":"4","last_reported":1746832138,"current_range_meters":9600,"station_id":"","pricing_plan_id":"cebpf4jnsgd1na2vs0mg"},{"bike_id":"3ee8e499-f845-4c6b-aa75-107b3891d613","system_id":"levelo_inurba_marseille","lat":43.280343,"lon":5.369323,"is_reserved":false,"is_disabled":false,"rental_uris":{"android":"levelo://app?vid=3ee8e499-f845-4c6b-aa75-107b3891d613","ios":"levelo://app?vid=3ee8e499-f845-4c6b-aa75-107b3891d613"},"vehicle_type_id":"4","last_reported":1746832138,"current_range_meters":9600,"station_id":"ce4bha12rcd13ifvqef0","pricing_plan_id":"cebpf4jnsgd1na2vs0mg"},{"bike_id":"f8bd5ba1-0844-4c6d-9b78-f958f1313745","system_id":"levelo_inurba_marseille","lat":43.29344,"lon":5.42832,"is_reserved":false,"is_disabled":false,"rental_uris":{"android":"levelo://app?vid=f8bd5ba1-0844-4c6d-9b78-f958f1313745","ios":"levelo://app?vid=f8bd5ba1-0844-4c6d-9b78-f958f1313745"},"vehicle_type_id":"4","last_reported":1746832138,"current_range_meters":9600,"station_id":"","pricing_plan_id":"cebpf4jnsgd1na2vs0mg"},{"bike_id":"6a955a4d-cdb0-49af-a16f-adc9a5d0f466","system_id":"levelo_inurba_marseille","lat":43.27811,"lon":5.4071,"is_reserved":false,"is_disabled":false,"rental_uris":{"android":"levelo://app?vid=6a955a4d-cdb0-49af-a16f-adc9a5d0f466","ios":"levelo://app?vid=6a955a4d-cdb0-49af-a16f-adc9a5d0f466"},"vehicle_type_id":"4","last_reported":1746832138,"current_range_meters":10000,"station_id":"ce4bhnh2rcd13ifvqgtg","pricing_plan_id":"cebpf4jnsgd1na2vs0mg"},{"bike_id":"bdca530c-bd0d-472f-a06b-e690e9f2d295","system_id":"levelo_inurba_marseille","lat":43.30801,"lon":5.38144,"is_reserved":false,"is_disabled":false,"rental_uris":{"android":"levelo://app?vid=bdca530c-bd0d-472f-a06b-e690e9f2d295","ios":"levelo://app?vid=bdca530c-bd0d-472f-a06b-e690e9f2d295"},"vehicle_type_id":"4","last_reported":1746832138,"current_range_meters":10000,"station_id":"ce4bgt12rcd13ifvqce0","pricing_plan_id":"cebpf4jnsgd1na2vs0mg"},{"bike_id":"0ddf4b2c-72b6-4f8e-9b47-d95bac1d6154","system_id":"levelo_inurba_marseille","lat":43.28735,"lon":5.36092,"is_reserved":false,"is_disabled":false,"rental_uris":{"android":"levelo://app?vid=0ddf4b2c-72b6-4f8e-9b47-d95bac1d6154","ios":"levelo://app?vid=0ddf4b2c-72b6-4f8e-9b47-d95bac1d6154"},"vehicle_type_id":"4","last_reported":1746832138,"current_range_meters":10000,"station_id":"cki0cbj6b192h4jlfktg","pricing_plan_id":"cebpf4jnsgd1na2vs0mg"},{"bike_id":"8cb987f9-049d-46ae-9b26-cc9ab0572bed","system_id":"levelo_inurba_marseille","lat":43.27813,"lon":5.407,"is_reserved":false,"is_disabled":true,"rental_uris":{"android":"levelo://app?vid=8cb987f9-049d-46ae-9b26-cc9ab0572bed","ios":"levelo://app?vid=8cb987f9-049d-46ae-9b26-cc9ab0572bed"},"vehicle_type_id":"4","last_reported":1746832138,"current_range_meters":10000,"station_id":"ce4bhnh2rcd13ifvqgtg","pricing_plan_id":"cebpf4jnsgd1na2vs0mg"},{"bike_id":"044478cb-8194-4092-b984-4fc9c042ef68","system_id":"levelo_inurba_marseille","lat":43.28776,"lon":5.46481,"is_reserved":false,"is_disabled":false,"rental_uris":{"android":"levelo://app?vid=044478cb-8194-4092-b984-4fc9c042ef68","ios":"levelo://app?vid=044478cb-8194-4092-b984-4fc9c042ef68"},"vehicle_type_id":"4","last_reported":1746832138,"current_range_meters":10800,"station_id":"","pricing_plan_id":"cebpf4jnsgd1na2vs0mg"},{"bike_id":"a4e583e6-9bbc-4de0-8062-dae230520b80","system_id":"levelo_inurba_marseille","lat":43.317139,"lon":5.437051,"is_reserved":false,"is_disabled":false,"rental_uris":{"android":"levelo://app?vid=a4e583e6-9bbc-4de0-8062-dae230520b80","ios":"levelo://app?vid=a4e583e6-9bbc-4de0-8062-dae230520b80"},"vehicle_type_id":"4","last_reported":1746832138,"current_range_meters":10800,"station_id":"ce4bhp92rcd13ifvqhcg","pricing_plan_id":"cebpf4jnsgd1na2vs0mg"},{"bike_id":"02b78847-8c19-4c59-93ac-0179dd6fb8a4","system_id":"levelo_inurba_marseille","lat":43.28672,"lon":5.3635,"is_reserved":false,"is_disabled":false,"rental_uris":{"android":"levelo://app?vid=02b78847-8c19-4c59-93ac-0179dd6fb8a4","ios":"levelo://app?vid=02b78847-8c19-4c59-93ac-0179dd6fb8a4"},"vehicle_type_id":"4","last_reported":1746832138,"current_range_meters":10800,"station_id":"ce4bhah2rcd13ifvqej0","pricing_plan_id":"cebpf4jnsgd1na2vs0mg"},{"bike_id":"d31b2453-837a-4c8a-93f1-d5bdaea22f67","system_id":"levelo_inurba_marseille","lat":43.29258,"lon":5.40907,"is_reserved":false,"is_disabled":false,"rental_uris":{"android":"levelo://app?vid=d31b2453-837a-4c8a-93f1-d5bdaea22f67","ios":"levelo://app?vid=d31b2453-837a-4c8a-93f1-d5bdaea22f67"},"vehicle_type_id":"4","last_reported":1746832138,"current_range_meters":11200,"station_id":"ce4bh192rcd13ifvqdc0","pricing_plan_id":"cebpf4jnsgd1na2vs0mg"},{"bike_id":"a39d3fbc-8c5f-4938-abe2-b6f8bd058852","system_id":"levelo_inurba_marseille","lat":43.30948,"lon":5.39031,"is_reserved":false,"is_disabled":false,"rental_uris":{"android":"levelo://app?vid=a39d3fbc-8c5f-4938-abe2-b6f8bd058852","ios":"levelo://app?vid=a39d3fbc-8c5f-4938-abe2-b6f8bd058852"},"vehicle_type_id":"4","last_reported":1746832138,"current_range_meters":11200,"station_id":"ce4bgup2rcd13ifvqco0","pricing_plan_id":"cebpf4jnsgd1na2vs0mg"},{"bike_id":"1771c0e2-1fe6-49ff-8a23-2166fe76f883","system_id":"levelo_inurba_marseille","lat":43.231868,"lon":5.39976,"is_reserved":false,"is_disabled":false,"rental_uris":{"android":"levelo://app?vid=1771c0e2-1fe6-49ff-8a23-2166fe76f883","ios":"levelo://app?vid=1771c0e2-1fe6-49ff-8a23-2166fe76f883"},"vehicle_type_id":"4","last_reported":1746832138,"current_range_meters":11200,"station_id":"ce4bhn12rcd13ifvqgqg","pricing_plan_id":"cebpf4jnsgd1na2vs0mg"},{"bike_id":"0392f39f-088d-4253-b9da-36e5380ed4b2","system_id":"levelo_inurba_marseille","lat":43.23184,"lon":5.35561,"is_reserved":false,"is_disabled":false,"rental_uris":{"android":"levelo://app?vid=0392f39f-088d-4253-b9da-36e5380ed4b2","ios":"levelo://app?vid=0392f39f-088d-4253-b9da-36e5380ed4b2"},"vehicle_type_id":"4","last_reported":1746832138,"current_range_meters":11200,"station_id":"ce4bhu92rcd13ifvqi70","pricing_plan_id":"cebpf4jnsgd1na2vs0mg"},{"bike_id":"50d25eea-70ce-4592-8e42-6542caa6d6f8","system_id":"levelo_inurba_marseille","lat":43.30254,"lon":5.40075,"is_reserved":false,"is_disabled":false,"rental_uris":{"android":"levelo://app?vid=50d25eea-70ce-4592-8e42-6542caa6d6f8","ios":"levelo://app?vid=50d25eea-70ce-4592-8e42-6542caa6d6f8"},"vehicle_type_id":"4","last_reported":1746832138,"current_range_meters":11200,"station_id":"ce4bgvh2rcd13ifvqcs0","pricing_plan_id":"cebpf4jnsgd1na2vs0mg"},{"bike_id":"c23795ea-7683-4dec-afd8-7fe5848041e3","system_id":"levelo_inurba_marseille","lat":43.24159,"lon":5.39745,"is_reserved":false,"is_disabled":false,"rental_uris":{"android":"levelo://app?vid=c23795ea-7683-4dec-afd8-7fe5848041e3","ios":"levelo://app?vid=c23795ea-7683-4dec-afd8-7fe5848041e3"},"vehicle_type_id":"4","last_reported":1746832138,"current_range_meters":11200,"station_id":"ce4bhn12rcd13ifvqgpg","pricing_plan_id":"cebpf4jnsgd1na2vs0mg"},{"bike_id":"2d9cf84f-80e6-4273-bdb7-a817d129565a","system_id":"levelo_inurba_marseille","lat":43.28076,"lon":5.39655,"is_reserved":false,"is_disabled":false,"rental_uris":{"android":"levelo://app?vid=2d9cf84f-80e6-4273-bdb7-a817d129565a","ios":"levelo://app?vid=2d9cf84f-80e6-4273-bdb7-a817d129565a"},"vehicle_type_id":"4","last_reported":1746832138,"current_range_meters":11600,"station_id":"ce4bho12rcd13ifvqh2g","pricing_plan_id":"cebpf4jnsgd1na2vs0mg"},{"bike_id":"79c8d684-a425-4aab-8ca4-59e521e72013","system_id":"levelo_inurba_marseille","lat":43.24791,"lon":5.37472,"is_reserved":false,"is_disabled":false,"rental_uris":{"android":"levelo://app?vid=79c8d684-a425-4aab-8ca4-59e521e72013","ios":"levelo://app?vid=79c8d684-a425-4aab-8ca4-59e521e72013"},"vehicle_type_id":"4","last_reported":1746832138,"current_range_meters":11600,"station_id":"ce4bhgh2rcd13ifvqfb0","pricing_plan_id":"cebpf4jnsgd1na2vs0mg"},{"bike_id":"4c57f4ff-935f-4c37-99ad-2af09edac3f2","system_id":"levelo_inurba_marseille","lat":43.287294,"lon":5.382967,"is_reserved":false,"is_disabled":false,"rental_uris":{"android":"levelo://app?vid=4c57f4ff-935f-4c37-99ad-2af09edac3f2","ios":"levelo://app?vid=4c57f4ff-935f-4c37-99ad-2af09edac3f2"},"vehicle_type_id":"4","last_reported":1746832138,"current_range_meters":11600,"station_id":"ce4bh512rcd13ifvqe3g","pricing_plan_id":"cebpf4jnsgd1na2vs0mg"},{"bike_id":"4a1f9f14-d8a9-4728-9a31-d3a49c3c6d70","system_id":"levelo_inurba_marseille","lat":43.31488,"lon":5.3731,"is_reserved":false,"is_disabled":false,"rental_uris":{"android":"levelo://app?vid=4a1f9f14-d8a9-4728-9a31-d3a49c3c6d70","ios":"levelo://app?vid=4a1f9f14-d8a9-4728-9a31-d3a49c3c6d70"},"vehicle_type_id":"4","last_reported":1746832138,"current_range_meters":11600,"station_id":"ce4bgt12rcd13ifvqcd0","pricing_plan_id":"cebpf4jnsgd1na2vs0mg"},{"bike_id":"6a2c1acf-101b-4edd-841f-702b2c1d451d","system_id":"levelo_inurba_marseille","lat":43.27838,"lon":5.39213,"is_reserved":false,"is_disabled":false,"rental_uris":{"android":"levelo://app?vid=6a2c1acf-101b-4edd-841f-702b2c1d451d","ios":"levelo://app?vid=6a2c1acf-101b-4edd-841f-702b2c1d451d"},"vehicle_type_id":"4","last_reported":1746832138,"current_range_meters":12000,"station_id":"ce4bhjp2rcd13ifvqga0","pricing_plan_id":"cebpf4jnsgd1na2vs0mg"},{"bike_id":"e540dca9-f48b-48c3-9f93-139faf2bb68f","system_id":"levelo_inurba_marseille","lat":43.3149,"lon":5.37309,"is_reserved":false,"is_disabled":false,"rental_uris":{"android":"levelo://app?vid=e540dca9-f48b-48c3-9f93-139faf2bb68f","ios":"levelo://app?vid=e540dca9-f48b-48c3-9f93-139faf2bb68f"},"vehicle_type_id":"4","last_reported":1746832138,"current_range_meters":12000,"station_id":"ce4bgt12rcd13ifvqcd0","pricing_plan_id":"cebpf4jnsgd1na2vs0mg"},{"bike_id":"72f7daca-4a85-4b82-ae75-b2e694c51115","system_id":"levelo_inurba_marseille","lat":43.28707,"lon":5.39987,"is_reserved":false,"is_disabled":false,"rental_uris":{"android":"levelo://app?vid=72f7daca-4a85-4b82-ae75-b2e694c51115","ios":"levelo://app?vid=72f7daca-4a85-4b82-ae75-b2e694c51115"},"vehicle_type_id":"4","last_reported":1746832138,"current_range_meters":12000,"station_id":"ce4bho92rcd13ifvqh3g","pricing_plan_id":"cebpf4jnsgd1na2vs0mg"},{"bike_id":"86b478b2-1cf2-4e07-8a5c-76710e912a41","system_id":"levelo_inurba_marseille","lat":43.291198,"lon":5.36699,"is_reserved":false,"is_disabled":false,"rental_uris":{"android":"levelo://app?vid=86b478b2-1cf2-4e07-8a5c-76710e912a41","ios":"levelo://app?vid=86b478b2-1cf2-4e07-8a5c-76710e912a41"},"vehicle_type_id":"4","last_reported":1746832138,"current_range_meters":12000,"station_id":"","pricing_plan_id":"cebpf4jnsgd1na2vs0mg"},{"bike_id":"415e9364-a76c-40f9-843b-af71eee6179c","system_id":"levelo_inurba_marseille","lat":43.29251,"lon":5.40907,"is_reserved":false,"is_disabled":false,"rental_uris":{"android":"levelo://app?vid=415e9364-a76c-40f9-843b-af71eee6179c","ios":"levelo://app?vid=415e9364-a76c-40f9-843b-af71eee6179c"},"vehicle_type_id":"4","last_reported":1746832138,"current_range_meters":12000,"station_id":"ce4bh192rcd13ifvqdc0","pricing_plan_id":"cebpf4jnsgd1na2vs0mg"},{"bike_id":"a34bfce8-44ea-45a5-887b-d15f36896976","system_id":"levelo_inurba_marseille","lat":43.292601,"lon":5.408979,"is_reserved":false,"is_disabled":false,"rental_uris":{"android":"levelo://app?vid=a34bfce8-44ea-45a5-887b-d15f36896976","ios":"levelo://app?vid=a34bfce8-44ea-45a5-887b-d15f36896976"},"vehicle_type_id":"4","last_reported":1746832138,"current_range_meters":12000,"station_id":"ce4bh192rcd13ifvqdc0","pricing_plan_id":"cebpf4jnsgd1na2vs0mg"},{"bike_id":"fa17d631-a65c-44a8-be27-ba0c3b209e6d","system_id":"levelo_inurba_marseille","lat":43.30813,"lon":5.38158,"is_reserved":false,"is_disabled":false,"rental_uris":{"android":"levelo://app?vid=fa17d631-a65c-44a8-be27-ba0c3b209e6d","ios":"levelo://app?vid=fa17d631-a65c-44a8-be27-ba0c3b209e6d"},"vehicle_type_id":"4","last_reported":1746832138,"current_range_meters":12400,"station_id":"ce4bgt12rcd13ifvqce0","pricing_plan_id":"cebpf4jnsgd1na2vs0mg"},{"bike_id":"9319b99d-2325-4f39-8ac2-f7bd744620e2","system_id":"levelo_inurba_marseille","lat":43.2762,"lon":5.36104,"is_reserved":false,"is_disabled":false,"rental_uris":{"android":"levelo://app?vid=9319b99d-2325-4f39-8ac2-f7bd744620e2","ios":"levelo://app?vid=9319b99d-2325-4f39-8ac2-f7bd744620e2"},"vehicle_type_id":"4","last_reported":1746832138,"current_range_meters":12400,"station_id":"ce4bgj92rcd13ifvqbe0","pricing_plan_id":"cebpf4jnsgd1na2vs0mg"},{"bike_id":"688d7c08-3b6e-415c-8990-b857e2498ae0","system_id":"levelo_inurba_marseille","lat":43.30378,"lon":5.4249,"is_reserved":false,"is_disabled":false,"rental_uris":{"android":"levelo://app?vid=688d7c08-3b6e-415c-8990-b857e2498ae0","ios":"levelo://app?vid=688d7c08-3b6e-415c-8990-b857e2498ae0"},"vehicle_type_id":"4","last_reported":1746832138,"current_range_meters":12400,"station_id":"ce4bhoh2rcd13ifvqh6g","pricing_plan_id":"cebpf4jnsgd1na2vs0mg"},{"bike_id":"d388abd5-c0e6-48dd-a7fc-1d6206199050","system_id":"levelo_inurba_marseille","lat":43.34128,"lon":5.36075,"is_reserved":false,"is_disabled":false,"rental_uris":{"android":"levelo://app?vid=d388abd5-c0e6-48dd-a7fc-1d6206199050","ios":"levelo://app?vid=d388abd5-c0e6-48dd-a7fc-1d6206199050"},"vehicle_type_id":"4","last_reported":1746832138,"current_range_meters":12400,"station_id":"","pricing_plan_id":"cebpf4jnsgd1na2vs0mg"},{"bike_id":"81e1ccc0-c6a3-4b67-a28b-b34280067a48","system_id":"levelo_inurba_marseille","lat":43.29262,"lon":5.40911,"is_reserved":false,"is_disabled":false,"rental_uris":{"android":"levelo://app?vid=81e1ccc0-c6a3-4b67-a28b-b34280067a48","ios":"levelo://app?vid=81e1ccc0-c6a3-4b67-a28b-b34280067a48"},"vehicle_type_id":"4","last_reported":1746832138,"current_range_meters":12400,"station_id":"ce4bh192rcd13ifvqdc0","pricing_plan_id":"cebpf4jnsgd1na2vs0mg"},{"bike_id":"597beefa-8311-4d68-b0f3-88cd0a14dd08","system_id":"levelo_inurba_marseille","lat":43.27564,"lon":5.3957,"is_reserved":false,"is_disabled":false,"rental_uris":{"android":"levelo://app?vid=597beefa-8311-4d68-b0f3-88cd0a14dd08","ios":"levelo://app?vid=597beefa-8311-4d68-b0f3-88cd0a14dd08"},"vehicle_type_id":"4","last_reported":1746832138,"current_range_meters":12400,"station_id":"","pricing_plan_id":"cebpf4jnsgd1na2vs0mg"},{"bike_id":"5070bbf2-ec6f-43e9-a0b5-d1e484a904f0","system_id":"levelo_inurba_marseille","lat":43.2655,"lon":5.372966,"is_reserved":false,"is_disabled":true,"rental_uris":{"android":"levelo://app?vid=5070bbf2-ec6f-43e9-a0b5-d1e484a904f0","ios":"levelo://app?vid=5070bbf2-ec6f-43e9-a0b5-d1e484a904f0"},"vehicle_type_id":"4","last_reported":1746832138,"current_range_meters":12400,"station_id":"ce4bhg12rcd13ifvqf70","pricing_plan_id":"cebpf4jnsgd1na2vs0mg"},{"bike_id":"1745bdb6-c7db-49d1-af32-c80f487167fa","system_id":"levelo_inurba_marseille","lat":43.31366,"lon":5.38486,"is_reserved":false,"is_disabled":false,"rental_uris":{"android":"levelo://app?vid=1745bdb6-c7db-49d1-af32-c80f487167fa","ios":"levelo://app?vid=1745bdb6-c7db-49d1-af32-c80f487167fa"},"vehicle_type_id":"4","last_reported":1746832138,"current_range_meters":12400,"station_id":"ce4bgt92rcd13ifvqcf0","pricing_plan_id":"cebpf4jnsgd1na2vs0mg"},{"bike_id":"dabc5299-686c-437f-b1fe-4c4dcec4a3bc","system_id":"levelo_inurba_marseille","lat":43.24061,"lon":5.37771,"is_reserved":false,"is_disabled":false,"rental_uris":{"android":"levelo://app?vid=dabc5299-686c-437f-b1fe-4c4dcec4a3bc","ios":"levelo://app?vid=dabc5299-686c-437f-b1fe-4c4dcec4a3bc"},"vehicle_type_id":"4","last_reported":1746832138,"current_range_meters":12800,"station_id":"ce4bhnp2rcd13ifvqgvg","pricing_plan_id":"cebpf4jnsgd1na2vs0mg"},{"bike_id":"38422613-5297-41fa-8e34-3c6cd191aba3","system_id":"levelo_inurba_marseille","lat":43.274374,"lon":5.394072,"is_reserved":false,"is_disabled":false,"rental_uris":{"android":"levelo://app?vid=38422613-5297-41fa-8e34-3c6cd191aba3","ios":"levelo://app?vid=38422613-5297-41fa-8e34-3c6cd191aba3"},"vehicle_type_id":"4","last_reported":1746832138,"current_range_meters":12800,"station_id":"ce4bhdp2rcd13ifvqf20","pricing_plan_id":"cebpf4jnsgd1na2vs0mg"},{"bike_id":"09e1dc14-26ac-446e-add0-27edb09cfb56","system_id":"levelo_inurba_marseille","lat":43.29277,"lon":5.36848,"is_reserved":false,"is_disabled":false,"rental_uris":{"android":"levelo://app?vid=09e1dc14-26ac-446e-add0-27edb09cfb56","ios":"levelo://app?vid=09e1dc14-26ac-446e-add0-27edb09cfb56"},"vehicle_type_id":"4","last_reported":1746832138,"current_range_meters":12800,"station_id":"","pricing_plan_id":"cebpf4jnsgd1na2vs0mg"},{"bike_id":"cfb33b76-ff38-465f-96b4-8908aeb6f4a0","system_id":"levelo_inurba_marseille","lat":43.27364,"lon":5.36248,"is_reserved":false,"is_disabled":false,"rental_uris":{"android":"levelo://app?vid=cfb33b76-ff38-465f-96b4-8908aeb6f4a0","ios":"levelo://app?vid=cfb33b76-ff38-465f-96b4-8908aeb6f4a0"},"vehicle_type_id":"4","last_reported":1746832138,"current_range_meters":12800,"station_id":"ce4bhbh2rcd13ifvqeo0","pricing_plan_id":"cebpf4jnsgd1na2vs0mg"},{"bike_id":"a9eddaf6-7ba0-4dac-b67c-ef101994295e","system_id":"levelo_inurba_marseille","lat":43.29038,"lon":5.39958,"is_reserved":false,"is_disabled":false,"rental_uris":{"android":"levelo://app?vid=a9eddaf6-7ba0-4dac-b67c-ef101994295e","ios":"levelo://app?vid=a9eddaf6-7ba0-4dac-b67c-ef101994295e"},"vehicle_type_id":"4","last_reported":1746832138,"current_range_meters":12800,"station_id":"ce4bh392rcd13ifvqdm0","pricing_plan_id":"cebpf4jnsgd1na2vs0mg"},{"bike_id":"2bcd659a-611c-43e2-89ef-f7e699246180","system_id":"levelo_inurba_marseille","lat":43.302464,"lon":5.400464,"is_reserved":false,"is_disabled":true,"rental_uris":{"android":"levelo://app?vid=2bcd659a-611c-43e2-89ef-f7e699246180","ios":"levelo://app?vid=2bcd659a-611c-43e2-89ef-f7e699246180"},"vehicle_type_id":"4","last_reported":1746832138,"current_range_meters":13600,"station_id":"ce4bgvh2rcd13ifvqcs0","pricing_plan_id":"cebpf4jnsgd1na2vs0mg"},{"bike_id":"29b99ee3-82b0-4cb0-a9d6-8993ba8fcb2f","system_id":"levelo_inurba_marseille","lat":43.24639,"lon":5.38907,"is_reserved":false,"is_disabled":false,"rental_uris":{"android":"levelo://app?vid=29b99ee3-82b0-4cb0-a9d6-8993ba8fcb2f","ios":"levelo://app?vid=29b99ee3-82b0-4cb0-a9d6-8993ba8fcb2f"},"vehicle_type_id":"4","last_reported":1746832138,"current_range_meters":13600,"station_id":"ce4bhg12rcd13ifvqf60","pricing_plan_id":"cebpf4jnsgd1na2vs0mg"},{"bike_id":"425a71c2-3497-48ea-abb4-541b2f2a7c98","system_id":"levelo_inurba_marseille","lat":43.24657,"lon":5.38159,"is_reserved":false,"is_disabled":false,"rental_uris":{"android":"levelo://app?vid=425a71c2-3497-48ea-abb4-541b2f2a7c98","ios":"levelo://app?vid=425a71c2-3497-48ea-abb4-541b2f2a7c98"},"vehicle_type_id":"4","last_reported":1746832138,"current_range_meters":13600,"station_id":"ce4bhih2rcd13ifvqfr0","pricing_plan_id":"cebpf4jnsgd1na2vs0mg"},{"bike_id":"e03902f1-1fac-40bc-a214-87ce95182cf9","system_id":"levelo_inurba_marseille","lat":43.29975,"lon":5.3717,"is_reserved":false,"is_disabled":false,"rental_uris":{"android":"levelo://app?vid=e03902f1-1fac-40bc-a214-87ce95182cf9","ios":"levelo://app?vid=e03902f1-1fac-40bc-a214-87ce95182cf9"},"vehicle_type_id":"4","last_reported":1746832138,"current_range_meters":13600,"station_id":"ce4bgr92rcd13ifvqc7g","pricing_plan_id":"cebpf4jnsgd1na2vs0mg"},{"bike_id":"25853bdb-c4c4-484f-8797-cad762c04051","system_id":"levelo_inurba_marseille","lat":43.30659,"lon":5.40082,"is_reserved":false,"is_disabled":false,"rental_uris":{"android":"levelo://app?vid=25853bdb-c4c4-484f-8797-cad762c04051","ios":"levelo://app?vid=25853bdb-c4c4-484f-8797-cad762c04051"},"vehicle_type_id":"4","last_reported":1746832138,"current_range_meters":14000,"station_id":"ce4bh112rcd13ifvqda0","pricing_plan_id":"cebpf4jnsgd1na2vs0mg"},{"bike_id":"4f843d41-a1a7-47b7-9d0c-93da24c23bc8","system_id":"levelo_inurba_marseille","lat":43.29882,"lon":5.38885,"is_reserved":false,"is_disabled":false,"rental_uris":{"android":"levelo://app?vid=4f843d41-a1a7-47b7-9d0c-93da24c23bc8","ios":"levelo://app?vid=4f843d41-a1a7-47b7-9d0c-93da24c23bc8"},"vehicle_type_id":"4","last_reported":1746832138,"current_range_meters":14000,"station_id":"ce4bh392rcd13ifvqdl0","pricing_plan_id":"cebpf4jnsgd1na2vs0mg"},{"bike_id":"35a8516b-240a-4df8-a3a1-35d4da354b60","system_id":"levelo_inurba_marseille","lat":43.23964,"lon":5.36637,"is_reserved":false,"is_disabled":false,"rental_uris":{"android":"levelo://app?vid=35a8516b-240a-4df8-a3a1-35d4da354b60","ios":"levelo://app?vid=35a8516b-240a-4df8-a3a1-35d4da354b60"},"vehicle_type_id":"4","last_reported":1746832138,"current_range_meters":14400,"station_id":"ce4bhi12rcd13ifvqfp0","pricing_plan_id":"cebpf4jnsgd1na2vs0mg"},{"bike_id":"08c04ff9-e615-4d87-ba3e-6b0e2342cce5","system_id":"levelo_inurba_marseille","lat":43.29606,"lon":5.36735,"is_reserved":false,"is_disabled":true,"rental_uris":{"android":"levelo://app?vid=08c04ff9-e615-4d87-ba3e-6b0e2342cce5","ios":"levelo://app?vid=08c04ff9-e615-4d87-ba3e-6b0e2342cce5"},"vehicle_type_id":"4","last_reported":1746832138,"current_range_meters":14400,"station_id":"ce4bgph2rcd13ifvqc2g","pricing_plan_id":"cebpf4jnsgd1na2vs0mg"},{"bike_id":"e156e02d-51fe-4a3c-9b1e-691740bd2d7b","system_id":"levelo_inurba_marseille","lat":43.29968,"lon":5.38494,"is_reserved":false,"is_disabled":false,"rental_uris":{"android":"levelo://app?vid=e156e02d-51fe-4a3c-9b1e-691740bd2d7b","ios":"levelo://app?vid=e156e02d-51fe-4a3c-9b1e-691740bd2d7b"},"vehicle_type_id":"4","last_reported":1746832138,"current_range_meters":14400,"station_id":"ce4bgj92rcd13ifvqbd0","pricing_plan_id":"cebpf4jnsgd1na2vs0mg"},{"bike_id":"f1c7a456-d705-477a-b1e6-88d53834d2f1","system_id":"levelo_inurba_marseille","lat":43.31709,"lon":5.43691,"is_reserved":false,"is_disabled":true,"rental_uris":{"android":"levelo://app?vid=f1c7a456-d705-477a-b1e6-88d53834d2f1","ios":"levelo://app?vid=f1c7a456-d705-477a-b1e6-88d53834d2f1"},"vehicle_type_id":"4","last_reported":1746832138,"current_range_meters":14800,"station_id":"ce4bhp92rcd13ifvqhcg","pricing_plan_id":"cebpf4jnsgd1na2vs0mg"},{"bike_id":"c5bf6457-7a00-4d62-9165-cd5ce63d9661","system_id":"levelo_inurba_marseille","lat":43.24389,"lon":5.37056,"is_reserved":false,"is_disabled":false,"rental_uris":{"android":"levelo://app?vid=c5bf6457-7a00-4d62-9165-cd5ce63d9661","ios":"levelo://app?vid=c5bf6457-7a00-4d62-9165-cd5ce63d9661"},"vehicle_type_id":"4","last_reported":1746832138,"current_range_meters":14800,"station_id":"ce4bhhh2rcd13ifvqfk0","pricing_plan_id":"cebpf4jnsgd1na2vs0mg"},{"bike_id":"5361b7bd-f821-47d5-a565-a2d0aaaaa25e","system_id":"levelo_inurba_marseille","lat":43.306512,"lon":5.400842,"is_reserved":false,"is_disabled":false,"rental_uris":{"android":"levelo://app?vid=5361b7bd-f821-47d5-a565-a2d0aaaaa25e","ios":"levelo://app?vid=5361b7bd-f821-47d5-a565-a2d0aaaaa25e"},"vehicle_type_id":"4","last_reported":1746832138,"current_range_meters":14800,"station_id":"ce4bh112rcd13ifvqda0","pricing_plan_id":"cebpf4jnsgd1na2vs0mg"},{"bike_id":"df56ef2d-718a-45a6-8a7e-282a60e1aaaf","system_id":"levelo_inurba_marseille","lat":43.3172,"lon":5.42405,"is_reserved":false,"is_disabled":false,"rental_uris":{"android":"levelo://app?vid=df56ef2d-718a-45a6-8a7e-282a60e1aaaf","ios":"levelo://app?vid=df56ef2d-718a-45a6-8a7e-282a60e1aaaf"},"vehicle_type_id":"4","last_reported":1746832138,"current_range_meters":14800,"station_id":"ce4bhp92rcd13ifvqhbg","pricing_plan_id":"cebpf4jnsgd1na2vs0mg"},{"bike_id":"74b8d793-a3a5-459e-9049-ec3212c978a8","system_id":"levelo_inurba_marseille","lat":43.29555,"lon":5.42291,"is_reserved":false,"is_disabled":false,"rental_uris":{"android":"levelo://app?vid=74b8d793-a3a5-459e-9049-ec3212c978a8","ios":"levelo://app?vid=74b8d793-a3a5-459e-9049-ec3212c978a8"},"vehicle_type_id":"4","last_reported":1746832138,"current_range_meters":14800,"station_id":"ce4bhph2rcd13ifvqhdg","pricing_plan_id":"cebpf4jnsgd1na2vs0mg"},{"bike_id":"cf6bc856-5840-4cc7-87f8-ebcb25a380e4","system_id":"levelo_inurba_marseille","lat":43.25575,"lon":5.382427,"is_reserved":false,"is_disabled":false,"rental_uris":{"android":"levelo://app?vid=cf6bc856-5840-4cc7-87f8-ebcb25a380e4","ios":"levelo://app?vid=cf6bc856-5840-4cc7-87f8-ebcb25a380e4"},"vehicle_type_id":"4","last_reported":1746832138,"current_range_meters":15200,"station_id":"ce4bhih2rcd13ifvqfs0","pricing_plan_id":"cebpf4jnsgd1na2vs0mg"},{"bike_id":"a8ab4b7a-9df0-415f-84d0-d46d691e553d","system_id":"levelo_inurba_marseille","lat":43.28698,"lon":5.37378,"is_reserved":false,"is_disabled":false,"rental_uris":{"android":"levelo://app?vid=a8ab4b7a-9df0-415f-84d0-d46d691e553d","ios":"levelo://app?vid=a8ab4b7a-9df0-415f-84d0-d46d691e553d"},"vehicle_type_id":"4","last_reported":1746832138,"current_range_meters":16000,"station_id":"ce4bh3p2rcd13ifvqdq0","pricing_plan_id":"cebpf4jnsgd1na2vs0mg"},{"bike_id":"6a592c79-90d3-4c3a-8d32-667e71e7b710","system_id":"levelo_inurba_marseille","lat":43.31712,"lon":5.40463,"is_reserved":false,"is_disabled":false,"rental_uris":{"android":"levelo://app?vid=6a592c79-90d3-4c3a-8d32-667e71e7b710","ios":"levelo://app?vid=6a592c79-90d3-4c3a-8d32-667e71e7b710"},"vehicle_type_id":"4","last_reported":1746832138,"current_range_meters":15200,"station_id":"ce4bh012rcd13ifvqd00","pricing_plan_id":"cebpf4jnsgd1na2vs0mg"},{"bike_id":"9a919805-a5a4-497f-a929-c9e08814771d","system_id":"levelo_inurba_marseille","lat":43.27993,"lon":5.4167,"is_reserved":false,"is_disabled":true,"rental_uris":{"android":"levelo://app?vid=9a919805-a5a4-497f-a929-c9e08814771d","ios":"levelo://app?vid=9a919805-a5a4-497f-a929-c9e08814771d"},"vehicle_type_id":"4","last_reported":1746832138,"current_range_meters":16000,"station_id":"ce4bho12rcd13ifvqh1g","pricing_plan_id":"cebpf4jnsgd1na2vs0mg"},{"bike_id":"d58e2bca-9cc6-4497-82e6-997f2f8b2940","system_id":"levelo_inurba_marseille","lat":43.24679,"lon":5.38129,"is_reserved":false,"is_disabled":false,"rental_uris":{"android":"levelo://app?vid=d58e2bca-9cc6-4497-82e6-997f2f8b2940","ios":"levelo://app?vid=d58e2bca-9cc6-4497-82e6-997f2f8b2940"},"vehicle_type_id":"4","last_reported":1746832138,"current_range_meters":16000,"station_id":"ce4bhih2rcd13ifvqfr0","pricing_plan_id":"cebpf4jnsgd1na2vs0mg"},{"bike_id":"168f826e-1c62-47a9-a8b5-8c2228dbddb8","system_id":"levelo_inurba_marseille","lat":43.30273,"lon":5.38951,"is_reserved":false,"is_disabled":true,"rental_uris":{"android":"levelo://app?vid=168f826e-1c62-47a9-a8b5-8c2228dbddb8","ios":"levelo://app?vid=168f826e-1c62-47a9-a8b5-8c2228dbddb8"},"vehicle_type_id":"4","last_reported":1746832138,"current_range_meters":16000,"station_id":"","pricing_plan_id":"cebpf4jnsgd1na2vs0mg"},{"bike_id":"aaa6d7ec-b408-447b-a8a0-17b066d520e9","system_id":"levelo_inurba_marseille","lat":43.2695,"lon":5.38626,"is_reserved":false,"is_disabled":false,"rental_uris":{"android":"levelo://app?vid=aaa6d7ec-b408-447b-a8a0-17b066d520e9","ios":"levelo://app?vid=aaa6d7ec-b408-447b-a8a0-17b066d520e9"},"vehicle_type_id":"4","last_reported":1746832138,"current_range_meters":16000,"station_id":"ce4bhh92rcd13ifvqfh0","pricing_plan_id":"cebpf4jnsgd1na2vs0mg"},{"bike_id":"d9976382-1fce-4c25-8408-b45f488c59eb","system_id":"levelo_inurba_marseille","lat":43.31361,"lon":5.38498,"is_reserved":false,"is_disabled":false,"rental_uris":{"android":"levelo://app?vid=d9976382-1fce-4c25-8408-b45f488c59eb","ios":"levelo://app?vid=d9976382-1fce-4c25-8408-b45f488c59eb"},"vehicle_type_id":"4","last_reported":1746832138,"current_range_meters":16400,"station_id":"ce4bgt92rcd13ifvqcf0","pricing_plan_id":"cebpf4jnsgd1na2vs0mg"},{"bike_id":"bb9dd4d9-ef7c-411c-9ce2-6f0d8890189a","system_id":"levelo_inurba_marseille","lat":43.24178,"lon":5.36394,"is_reserved":false,"is_disabled":false,"rental_uris":{"android":"levelo://app?vid=bb9dd4d9-ef7c-411c-9ce2-6f0d8890189a","ios":"levelo://app?vid=bb9dd4d9-ef7c-411c-9ce2-6f0d8890189a"},"vehicle_type_id":"4","last_reported":1746832138,"current_range_meters":16400,"station_id":"cpo36qri1sfpv3e86is0","pricing_plan_id":"cebpf4jnsgd1na2vs0mg"},{"bike_id":"26c4cd85-b375-4132-8f53-93656adb5365","system_id":"levelo_inurba_marseille","lat":43.29268,"lon":5.3843,"is_reserved":false,"is_disabled":true,"rental_uris":{"android":"levelo://app?vid=26c4cd85-b375-4132-8f53-93656adb5365","ios":"levelo://app?vid=26c4cd85-b375-4132-8f53-93656adb5365"},"vehicle_type_id":"4","last_reported":1746832138,"current_range_meters":16400,"station_id":"ce4bh692rcd13ifvqea0","pricing_plan_id":"cebpf4jnsgd1na2vs0mg"},{"bike_id":"ece07e30-e520-4b99-bf83-e9b15b3a6b3f","system_id":"levelo_inurba_marseille","lat":43.28725,"lon":5.36087,"is_reserved":false,"is_disabled":false,"rental_uris":{"android":"levelo://app?vid=ece07e30-e520-4b99-bf83-e9b15b3a6b3f","ios":"levelo://app?vid=ece07e30-e520-4b99-bf83-e9b15b3a6b3f"},"vehicle_type_id":"4","last_reported":1746832138,"current_range_meters":16400,"station_id":"cki0cbj6b192h4jlfktg","pricing_plan_id":"cebpf4jnsgd1na2vs0mg"},{"bike_id":"93afa4a6-9fd3-4027-a992-2279faeabdcc","system_id":"levelo_inurba_marseille","lat":43.31075,"lon":5.38348,"is_reserved":false,"is_disabled":false,"rental_uris":{"android":"levelo://app?vid=93afa4a6-9fd3-4027-a992-2279faeabdcc","ios":"levelo://app?vid=93afa4a6-9fd3-4027-a992-2279faeabdcc"},"vehicle_type_id":"4","last_reported":1746832138,"current_range_meters":14000,"station_id":"ce4bgv92rcd13ifvqcr0","pricing_plan_id":"cebpf4jnsgd1na2vs0mg"},{"bike_id":"55fada9f-9015-4dd1-bfb4-be767a27b242","system_id":"levelo_inurba_marseille","lat":43.27933,"lon":5.39558,"is_reserved":false,"is_disabled":true,"rental_uris":{"android":"levelo://app?vid=55fada9f-9015-4dd1-bfb4-be767a27b242","ios":"levelo://app?vid=55fada9f-9015-4dd1-bfb4-be767a27b242"},"vehicle_type_id":"4","last_reported":1746832138,"current_range_meters":16400,"station_id":"ce4bhf92rcd13ifvqf40","pricing_plan_id":"cebpf4jnsgd1na2vs0mg"},{"bike_id":"98cfe22b-40e2-47d9-9417-af992af33c88","system_id":"levelo_inurba_marseille","lat":43.28465,"lon":5.35895,"is_reserved":false,"is_disabled":true,"rental_uris":{"android":"levelo://app?vid=98cfe22b-40e2-47d9-9417-af992af33c88","ios":"levelo://app?vid=98cfe22b-40e2-47d9-9417-af992af33c88"},"vehicle_type_id":"4","last_reported":1746832138,"current_range_meters":16800,"station_id":"ce4bhah2rcd13ifvqei0","pricing_plan_id":"cebpf4jnsgd1na2vs0mg"},{"bike_id":"5bee1775-528f-49e6-9c3e-19f7744c053e","system_id":"levelo_inurba_marseille","lat":43.279905,"lon":5.41647,"is_reserved":false,"is_disabled":false,"rental_uris":{"android":"levelo://app?vid=5bee1775-528f-49e6-9c3e-19f7744c053e","ios":"levelo://app?vid=5bee1775-528f-49e6-9c3e-19f7744c053e"},"vehicle_type_id":"4","last_reported":1746832138,"current_range_meters":16800,"station_id":"ce4bho12rcd13ifvqh1g","pricing_plan_id":"cebpf4jnsgd1na2vs0mg"},{"bike_id":"8c47b513-4733-46b0-8673-fa4cd8f10394","system_id":"levelo_inurba_marseille","lat":43.29259,"lon":5.38441,"is_reserved":false,"is_disabled":true,"rental_uris":{"android":"levelo://app?vid=8c47b513-4733-46b0-8673-fa4cd8f10394","ios":"levelo://app?vid=8c47b513-4733-46b0-8673-fa4cd8f10394"},"vehicle_type_id":"4","last_reported":1746832138,"current_range_meters":16800,"station_id":"ce4bh692rcd13ifvqea0","pricing_plan_id":"cebpf4jnsgd1na2vs0mg"},{"bike_id":"abbe6961-8403-4d63-ac93-1b1dcf4bf754","system_id":"levelo_inurba_marseille","lat":43.28726,"lon":5.36092,"is_reserved":false,"is_disabled":false,"rental_uris":{"android":"levelo://app?vid=abbe6961-8403-4d63-ac93-1b1dcf4bf754","ios":"levelo://app?vid=abbe6961-8403-4d63-ac93-1b1dcf4bf754"},"vehicle_type_id":"4","last_reported":1746832138,"current_range_meters":16800,"station_id":"cki0cbj6b192h4jlfktg","pricing_plan_id":"cebpf4jnsgd1na2vs0mg"},{"bike_id":"8dfe763f-2b56-4348-b766-788076babf15","system_id":"levelo_inurba_marseille","lat":43.307784,"lon":5.376454,"is_reserved":false,"is_disabled":false,"rental_uris":{"android":"levelo://app?vid=8dfe763f-2b56-4348-b766-788076babf15","ios":"levelo://app?vid=8dfe763f-2b56-4348-b766-788076babf15"},"vehicle_type_id":"4","last_reported":1746832138,"current_range_meters":17200,"station_id":"ce4bgv92rcd13ifvqcq0","pricing_plan_id":"cebpf4jnsgd1na2vs0mg"},{"bike_id":"fc2577e7-1497-425b-9d4f-ab8d7dc843c6","system_id":"levelo_inurba_marseille","lat":43.33771,"lon":5.37485,"is_reserved":false,"is_disabled":false,"rental_uris":{"android":"levelo://app?vid=fc2577e7-1497-425b-9d4f-ab8d7dc843c6","ios":"levelo://app?vid=fc2577e7-1497-425b-9d4f-ab8d7dc843c6"},"vehicle_type_id":"4","last_reported":1746832138,"current_range_meters":17200,"station_id":"","pricing_plan_id":"cebpf4jnsgd1na2vs0mg"},{"bike_id":"988217a7-40cc-4175-99a8-3abc98dd942c","system_id":"levelo_inurba_marseille","lat":43.24063,"lon":5.3777,"is_reserved":false,"is_disabled":false,"rental_uris":{"android":"levelo://app?vid=988217a7-40cc-4175-99a8-3abc98dd942c","ios":"levelo://app?vid=988217a7-40cc-4175-99a8-3abc98dd942c"},"vehicle_type_id":"4","last_reported":1746832138,"current_range_meters":17200,"station_id":"ce4bhnp2rcd13ifvqgvg","pricing_plan_id":"cebpf4jnsgd1na2vs0mg"},{"bike_id":"545e5687-b7df-4883-81be-75a8925d5f91","system_id":"levelo_inurba_marseille","lat":43.337444,"lon":5.374475,"is_reserved":false,"is_disabled":false,"rental_uris":{"android":"levelo://app?vid=545e5687-b7df-4883-81be-75a8925d5f91","ios":"levelo://app?vid=545e5687-b7df-4883-81be-75a8925d5f91"},"vehicle_type_id":"4","last_reported":1746832138,"current_range_meters":17200,"station_id":"","pricing_plan_id":"cebpf4jnsgd1na2vs0mg"},{"bike_id":"94cd8564-a06e-4cc5-88d9-996fbf8639fe","system_id":"levelo_inurba_marseille","lat":43.217528,"lon":5.346015,"is_reserved":false,"is_disabled":true,"rental_uris":{"android":"levelo://app?vid=94cd8564-a06e-4cc5-88d9-996fbf8639fe","ios":"levelo://app?vid=94cd8564-a06e-4cc5-88d9-996fbf8639fe"},"vehicle_type_id":"4","last_reported":1746832138,"current_range_meters":17600,"station_id":"st_cvj6r9ubvosntc0bgbag","pricing_plan_id":"cebpf4jnsgd1na2vs0mg"},{"bike_id":"8b922ca6-4c4c-4cce-b120-dfd10f864eda","system_id":"levelo_inurba_marseille","lat":43.29624,"lon":5.38095,"is_reserved":false,"is_disabled":true,"rental_uris":{"android":"levelo://app?vid=8b922ca6-4c4c-4cce-b120-dfd10f864eda","ios":"levelo://app?vid=8b922ca6-4c4c-4cce-b120-dfd10f864eda"},"vehicle_type_id":"4","last_reported":1746832138,"current_range_meters":17600,"station_id":"ce4bgl12rcd13ifvqbo0","pricing_plan_id":"cebpf4jnsgd1na2vs0mg"},{"bike_id":"6b93a0f9-2806-436b-9c43-07372a12e505","system_id":"levelo_inurba_marseille","lat":43.27669,"lon":5.38874,"is_reserved":false,"is_disabled":false,"rental_uris":{"android":"levelo://app?vid=6b93a0f9-2806-436b-9c43-07372a12e505","ios":"levelo://app?vid=6b93a0f9-2806-436b-9c43-07372a12e505"},"vehicle_type_id":"4","last_reported":1746832138,"current_range_meters":17200,"station_id":"ce4bhi12rcd13ifvqfo0","pricing_plan_id":"cebpf4jnsgd1na2vs0mg"},{"bike_id":"cf235328-7357-4821-ab08-7742ea23095c","system_id":"levelo_inurba_marseille","lat":43.23209,"lon":5.35567,"is_reserved":false,"is_disabled":false,"rental_uris":{"android":"levelo://app?vid=cf235328-7357-4821-ab08-7742ea23095c","ios":"levelo://app?vid=cf235328-7357-4821-ab08-7742ea23095c"},"vehicle_type_id":"4","last_reported":1746832138,"current_range_meters":17600,"station_id":"ce4bhu92rcd13ifvqi70","pricing_plan_id":"cebpf4jnsgd1na2vs0mg"},{"bike_id":"66d39f5f-1aac-423b-9ea7-bf9c1b0e5079","system_id":"levelo_inurba_marseille","lat":43.27521,"lon":5.41149,"is_reserved":false,"is_disabled":false,"rental_uris":{"android":"levelo://app?vid=66d39f5f-1aac-423b-9ea7-bf9c1b0e5079","ios":"levelo://app?vid=66d39f5f-1aac-423b-9ea7-bf9c1b0e5079"},"vehicle_type_id":"4","last_reported":1746832138,"current_range_meters":17600,"station_id":"","pricing_plan_id":"cebpf4jnsgd1na2vs0mg"},{"bike_id":"fc89cb65-da63-4086-84cf-2f95aeacd624","system_id":"levelo_inurba_marseille","lat":43.28699,"lon":5.39998,"is_reserved":false,"is_disabled":false,"rental_uris":{"android":"levelo://app?vid=fc89cb65-da63-4086-84cf-2f95aeacd624","ios":"levelo://app?vid=fc89cb65-da63-4086-84cf-2f95aeacd624"},"vehicle_type_id":"4","last_reported":1746832138,"current_range_meters":18000,"station_id":"ce4bho92rcd13ifvqh3g","pricing_plan_id":"cebpf4jnsgd1na2vs0mg"},{"bike_id":"25bd9db4-b151-496c-ba5d-8dcff47fadbf","system_id":"levelo_inurba_marseille","lat":43.319655,"lon":5.370951,"is_reserved":false,"is_disabled":false,"rental_uris":{"android":"levelo://app?vid=25bd9db4-b151-496c-ba5d-8dcff47fadbf","ios":"levelo://app?vid=25bd9db4-b151-496c-ba5d-8dcff47fadbf"},"vehicle_type_id":"4","last_reported":1746832138,"current_range_meters":18000,"station_id":"","pricing_plan_id":"cebpf4jnsgd1na2vs0mg"},{"bike_id":"14b71386-3c19-4513-8fbd-bce69f05d5fd","system_id":"levelo_inurba_marseille","lat":43.31358,"lon":5.38506,"is_reserved":false,"is_disabled":false,"rental_uris":{"android":"levelo://app?vid=14b71386-3c19-4513-8fbd-bce69f05d5fd","ios":"levelo://app?vid=14b71386-3c19-4513-8fbd-bce69f05d5fd"},"vehicle_type_id":"4","last_reported":1746832138,"current_range_meters":18000,"station_id":"ce4bgt92rcd13ifvqcf0","pricing_plan_id":"cebpf4jnsgd1na2vs0mg"},{"bike_id":"b9adf51f-6113-4e7a-9aab-e48b10640df4","system_id":"levelo_inurba_marseille","lat":43.24393,"lon":5.370632,"is_reserved":false,"is_disabled":false,"rental_uris":{"android":"levelo://app?vid=b9adf51f-6113-4e7a-9aab-e48b10640df4","ios":"levelo://app?vid=b9adf51f-6113-4e7a-9aab-e48b10640df4"},"vehicle_type_id":"4","last_reported":1746832138,"current_range_meters":18000,"station_id":"ce4bhhh2rcd13ifvqfk0","pricing_plan_id":"cebpf4jnsgd1na2vs0mg"},{"bike_id":"796ef36e-55a7-4cb9-844d-596a7e2f3fa6","system_id":"levelo_inurba_marseille","lat":43.283787,"lon":5.364643,"is_reserved":false,"is_disabled":false,"rental_uris":{"android":"levelo://app?vid=796ef36e-55a7-4cb9-844d-596a7e2f3fa6","ios":"levelo://app?vid=796ef36e-55a7-4cb9-844d-596a7e2f3fa6"},"vehicle_type_id":"4","last_reported":1746832138,"current_range_meters":18000,"station_id":"","pricing_plan_id":"cebpf4jnsgd1na2vs0mg"},{"bike_id":"8af4b88d-091f-4883-a950-3e14de86d879","system_id":"levelo_inurba_marseille","lat":43.31702,"lon":5.40472,"is_reserved":false,"is_disabled":false,"rental_uris":{"android":"levelo://app?vid=8af4b88d-091f-4883-a950-3e14de86d879","ios":"levelo://app?vid=8af4b88d-091f-4883-a950-3e14de86d879"},"vehicle_type_id":"4","last_reported":1746832138,"current_range_meters":18000,"station_id":"ce4bh012rcd13ifvqd00","pricing_plan_id":"cebpf4jnsgd1na2vs0mg"},{"bike_id":"cb65cf3d-57ec-4c04-adea-57c5b526dfc9","system_id":"levelo_inurba_marseille","lat":43.27072,"lon":5.42278,"is_reserved":false,"is_disabled":false,"rental_uris":{"android":"levelo://app?vid=cb65cf3d-57ec-4c04-adea-57c5b526dfc9","ios":"levelo://app?vid=cb65cf3d-57ec-4c04-adea-57c5b526dfc9"},"vehicle_type_id":"4","last_reported":1746832138,"current_range_meters":18000,"station_id":"ce4bhk92rcd13ifvqgb0","pricing_plan_id":"cebpf4jnsgd1na2vs0mg"},{"bike_id":"c2986ec7-82d0-464b-aacf-f51f322b45f8","system_id":"levelo_inurba_marseille","lat":43.30889,"lon":5.39656,"is_reserved":false,"is_disabled":false,"rental_uris":{"android":"levelo://app?vid=c2986ec7-82d0-464b-aacf-f51f322b45f8","ios":"levelo://app?vid=c2986ec7-82d0-464b-aacf-f51f322b45f8"},"vehicle_type_id":"4","last_reported":1746832138,"current_range_meters":18800,"station_id":"ce4bh012rcd13ifvqcv0","pricing_plan_id":"cebpf4jnsgd1na2vs0mg"},{"bike_id":"611984cb-882a-46b7-8fab-e6350303c611","system_id":"levelo_inurba_marseille","lat":43.241682,"lon":5.363943,"is_reserved":false,"is_disabled":false,"rental_uris":{"android":"levelo://app?vid=611984cb-882a-46b7-8fab-e6350303c611","ios":"levelo://app?vid=611984cb-882a-46b7-8fab-e6350303c611"},"vehicle_type_id":"4","last_reported":1746832138,"current_range_meters":18800,"station_id":"cpo36qri1sfpv3e86is0","pricing_plan_id":"cebpf4jnsgd1na2vs0mg"},{"bike_id":"50f5e02d-7e3d-4bd6-8a5e-360e84f51370","system_id":"levelo_inurba_marseille","lat":43.251234,"lon":5.40325,"is_reserved":false,"is_disabled":false,"rental_uris":{"android":"levelo://app?vid=50f5e02d-7e3d-4bd6-8a5e-360e84f51370","ios":"levelo://app?vid=50f5e02d-7e3d-4bd6-8a5e-360e84f51370"},"vehicle_type_id":"4","last_reported":1746832138,"current_range_meters":18800,"station_id":"ce4bhlh2rcd13ifvqgig","pricing_plan_id":"cebpf4jnsgd1na2vs0mg"},{"bike_id":"8be5d6c3-c34a-44d3-aaae-68f41c57e172","system_id":"levelo_inurba_marseille","lat":43.23964,"lon":5.36628,"is_reserved":false,"is_disabled":false,"rental_uris":{"android":"levelo://app?vid=8be5d6c3-c34a-44d3-aaae-68f41c57e172","ios":"levelo://app?vid=8be5d6c3-c34a-44d3-aaae-68f41c57e172"},"vehicle_type_id":"4","last_reported":1746832138,"current_range_meters":18800,"station_id":"ce4bhi12rcd13ifvqfp0","pricing_plan_id":"cebpf4jnsgd1na2vs0mg"},{"bike_id":"34fb3a5b-cc5c-48bc-9ccd-5e13c4a43395","system_id":"levelo_inurba_marseille","lat":43.32564,"lon":5.39108,"is_reserved":false,"is_disabled":false,"rental_uris":{"android":"levelo://app?vid=34fb3a5b-cc5c-48bc-9ccd-5e13c4a43395","ios":"levelo://app?vid=34fb3a5b-cc5c-48bc-9ccd-5e13c4a43395"},"vehicle_type_id":"4","last_reported":1746832138,"current_range_meters":18800,"station_id":"","pricing_plan_id":"cebpf4jnsgd1na2vs0mg"},{"bike_id":"5cab8d09-0439-4dcf-8b6c-b4bfbff12d0b","system_id":"levelo_inurba_marseille","lat":43.32004,"lon":5.38178,"is_reserved":false,"is_disabled":true,"rental_uris":{"android":"levelo://app?vid=5cab8d09-0439-4dcf-8b6c-b4bfbff12d0b","ios":"levelo://app?vid=5cab8d09-0439-4dcf-8b6c-b4bfbff12d0b"},"vehicle_type_id":"4","last_reported":1746832138,"current_range_meters":19200,"station_id":"ce4bhr12rcd13ifvqhpg","pricing_plan_id":"cebpf4jnsgd1na2vs0mg"},{"bike_id":"a1121b36-b5cd-4dda-96ef-13a3dfaa55e1","system_id":"levelo_inurba_marseille","lat":43.301401,"lon":5.387791,"is_reserved":false,"is_disabled":false,"rental_uris":{"android":"levelo://app?vid=a1121b36-b5cd-4dda-96ef-13a3dfaa55e1","ios":"levelo://app?vid=a1121b36-b5cd-4dda-96ef-13a3dfaa55e1"},"vehicle_type_id":"4","last_reported":1746832138,"current_range_meters":19200,"station_id":"","pricing_plan_id":"cebpf4jnsgd1na2vs0mg"},{"bike_id":"462336e2-a4e8-4882-be35-4ed6969a7cd6","system_id":"levelo_inurba_marseille","lat":43.299405,"lon":5.386405,"is_reserved":false,"is_disabled":false,"rental_uris":{"android":"levelo://app?vid=462336e2-a4e8-4882-be35-4ed6969a7cd6","ios":"levelo://app?vid=462336e2-a4e8-4882-be35-4ed6969a7cd6"},"vehicle_type_id":"4","last_reported":1746832138,"current_range_meters":19200,"station_id":"","pricing_plan_id":"cebpf4jnsgd1na2vs0mg"},{"bike_id":"9c9da47e-7b2c-4714-8414-a3fb2390d50b","system_id":"levelo_inurba_marseille","lat":43.28338,"lon":5.38108,"is_reserved":false,"is_disabled":false,"rental_uris":{"android":"levelo://app?vid=9c9da47e-7b2c-4714-8414-a3fb2390d50b","ios":"levelo://app?vid=9c9da47e-7b2c-4714-8414-a3fb2390d50b"},"vehicle_type_id":"4","last_reported":1746832138,"current_range_meters":19200,"station_id":"ce4bh412rcd13ifvqdr0","pricing_plan_id":"cebpf4jnsgd1na2vs0mg"},{"bike_id":"971e8964-f5fa-4560-932b-c14bfa11569b","system_id":"levelo_inurba_marseille","lat":43.241833,"lon":5.397604,"is_reserved":false,"is_disabled":false,"rental_uris":{"android":"levelo://app?vid=971e8964-f5fa-4560-932b-c14bfa11569b","ios":"levelo://app?vid=971e8964-f5fa-4560-932b-c14bfa11569b"},"vehicle_type_id":"4","last_reported":1746832138,"current_range_meters":19200,"station_id":"ce4bhlp2rcd13ifvqgjg","pricing_plan_id":"cebpf4jnsgd1na2vs0mg"},{"bike_id":"f34a79fb-9a2a-4d46-9bae-b3621d640434","system_id":"levelo_inurba_marseille","lat":43.31076,"lon":5.42435,"is_reserved":false,"is_disabled":true,"rental_uris":{"android":"levelo://app?vid=f34a79fb-9a2a-4d46-9bae-b3621d640434","ios":"levelo://app?vid=f34a79fb-9a2a-4d46-9bae-b3621d640434"},"vehicle_type_id":"4","last_reported":1746832138,"current_range_meters":19200,"station_id":"ce4bhp92rcd13ifvqhag","pricing_plan_id":"cebpf4jnsgd1na2vs0mg"},{"bike_id":"c945a78b-184d-40bb-9e70-8cbfc115a24f","system_id":"levelo_inurba_marseille","lat":43.27921,"lon":5.39594,"is_reserved":false,"is_disabled":false,"rental_uris":{"android":"levelo://app?vid=c945a78b-184d-40bb-9e70-8cbfc115a24f","ios":"levelo://app?vid=c945a78b-184d-40bb-9e70-8cbfc115a24f"},"vehicle_type_id":"4","last_reported":1746832138,"current_range_meters":19200,"station_id":"ce4bhf92rcd13ifvqf40","pricing_plan_id":"cebpf4jnsgd1na2vs0mg"},{"bike_id":"eb2ce52b-29be-4c82-b32c-90086c844fc1","system_id":"levelo_inurba_marseille","lat":43.3135,"lon":5.384872,"is_reserved":false,"is_disabled":false,"rental_uris":{"android":"levelo://app?vid=eb2ce52b-29be-4c82-b32c-90086c844fc1","ios":"levelo://app?vid=eb2ce52b-29be-4c82-b32c-90086c844fc1"},"vehicle_type_id":"4","last_reported":1746832138,"current_range_meters":19200,"station_id":"ce4bgt92rcd13ifvqcf0","pricing_plan_id":"cebpf4jnsgd1na2vs0mg"},{"bike_id":"11bac9a6-0e04-4c68-9615-f13539342864","system_id":"levelo_inurba_marseille","lat":43.21197,"lon":5.35062,"is_reserved":false,"is_disabled":false,"rental_uris":{"android":"levelo://app?vid=11bac9a6-0e04-4c68-9615-f13539342864","ios":"levelo://app?vid=11bac9a6-0e04-4c68-9615-f13539342864"},"vehicle_type_id":"4","last_reported":1746832138,"current_range_meters":19600,"station_id":"st_cvj6sg6p6f1abm77japg","pricing_plan_id":"cebpf4jnsgd1na2vs0mg"},{"bike_id":"540b073a-9228-4696-a942-43defe045e24","system_id":"levelo_inurba_marseille","lat":43.29873,"lon":5.39737,"is_reserved":false,"is_disabled":false,"rental_uris":{"android":"levelo://app?vid=540b073a-9228-4696-a942-43defe045e24","ios":"levelo://app?vid=540b073a-9228-4696-a942-43defe045e24"},"vehicle_type_id":"4","last_reported":1746832138,"current_range_meters":19600,"station_id":"ce4bh0h2rcd13ifvqd50","pricing_plan_id":"cebpf4jnsgd1na2vs0mg"},{"bike_id":"bbaee734-daa3-4138-860b-4ea792b63633","system_id":"levelo_inurba_marseille","lat":43.33606,"lon":5.41033,"is_reserved":false,"is_disabled":false,"rental_uris":{"android":"levelo://app?vid=bbaee734-daa3-4138-860b-4ea792b63633","ios":"levelo://app?vid=bbaee734-daa3-4138-860b-4ea792b63633"},"vehicle_type_id":"4","last_reported":1746832138,"current_range_meters":19200,"station_id":"ce4bhqh2rcd13ifvqhmg","pricing_plan_id":"cebpf4jnsgd1na2vs0mg"},{"bike_id":"0fb6b147-e9a8-4345-a220-93d47a47a517","system_id":"levelo_inurba_marseille","lat":43.22924,"lon":5.35385,"is_reserved":false,"is_disabled":false,"rental_uris":{"android":"levelo://app?vid=0fb6b147-e9a8-4345-a220-93d47a47a517","ios":"levelo://app?vid=0fb6b147-e9a8-4345-a220-93d47a47a517"},"vehicle_type_id":"4","last_reported":1746832138,"current_range_meters":19600,"station_id":"cpo3532slgdg3j2ikp40","pricing_plan_id":"cebpf4jnsgd1na2vs0mg"},{"bike_id":"e5f9e08b-c7e4-484f-8cb5-f829be2d4c56","system_id":"levelo_inurba_marseille","lat":43.29747,"lon":5.38364,"is_reserved":false,"is_disabled":false,"rental_uris":{"android":"levelo://app?vid=e5f9e08b-c7e4-484f-8cb5-f829be2d4c56","ios":"levelo://app?vid=e5f9e08b-c7e4-484f-8cb5-f829be2d4c56"},"vehicle_type_id":"4","last_reported":1746832138,"current_range_meters":19600,"station_id":"","pricing_plan_id":"cebpf4jnsgd1na2vs0mg"},{"bike_id":"f44042ec-2f55-46a8-ac37-47677a64d341","system_id":"levelo_inurba_marseille","lat":43.30042,"lon":5.38457,"is_reserved":false,"is_disabled":false,"rental_uris":{"android":"levelo://app?vid=f44042ec-2f55-46a8-ac37-47677a64d341","ios":"levelo://app?vid=f44042ec-2f55-46a8-ac37-47677a64d341"},"vehicle_type_id":"4","last_reported":1746832138,"current_range_meters":20000,"station_id":"","pricing_plan_id":"cebpf4jnsgd1na2vs0mg"},{"bike_id":"63c52170-046e-4640-bcac-7efe36817223","system_id":"levelo_inurba_marseille","lat":43.31361,"lon":5.38514,"is_reserved":false,"is_disabled":false,"rental_uris":{"android":"levelo://app?vid=63c52170-046e-4640-bcac-7efe36817223","ios":"levelo://app?vid=63c52170-046e-4640-bcac-7efe36817223"},"vehicle_type_id":"4","last_reported":1746832138,"current_range_meters":20000,"station_id":"ce4bgt92rcd13ifvqcf0","pricing_plan_id":"cebpf4jnsgd1na2vs0mg"},{"bike_id":"d1c1ed26-54ba-4f75-be18-0373df4ef7c7","system_id":"levelo_inurba_marseille","lat":43.303,"lon":5.39207,"is_reserved":false,"is_disabled":false,"rental_uris":{"android":"levelo://app?vid=d1c1ed26-54ba-4f75-be18-0373df4ef7c7","ios":"levelo://app?vid=d1c1ed26-54ba-4f75-be18-0373df4ef7c7"},"vehicle_type_id":"4","last_reported":1746832138,"current_range_meters":20400,"station_id":"ce4bgkh2rcd13ifvqbk0","pricing_plan_id":"cebpf4jnsgd1na2vs0mg"},{"bike_id":"fd73930d-8357-4a8b-b173-7e8a5db40490","system_id":"levelo_inurba_marseille","lat":43.30097,"lon":5.39088,"is_reserved":false,"is_disabled":false,"rental_uris":{"android":"levelo://app?vid=fd73930d-8357-4a8b-b173-7e8a5db40490","ios":"levelo://app?vid=fd73930d-8357-4a8b-b173-7e8a5db40490"},"vehicle_type_id":"4","last_reported":1746832138,"current_range_meters":20000,"station_id":"ce4bh192rcd13ifvqdb0","pricing_plan_id":"cebpf4jnsgd1na2vs0mg"},{"bike_id":"84d6d09b-93e4-474d-8419-0970f485a129","system_id":"levelo_inurba_marseille","lat":43.29712,"lon":5.37704,"is_reserved":false,"is_disabled":false,"rental_uris":{"android":"levelo://app?vid=84d6d09b-93e4-474d-8419-0970f485a129","ios":"levelo://app?vid=84d6d09b-93e4-474d-8419-0970f485a129"},"vehicle_type_id":"4","last_reported":1746832138,"current_range_meters":20000,"station_id":"ce4bgkh2rcd13ifvqbl0","pricing_plan_id":"cebpf4jnsgd1na2vs0mg"},{"bike_id":"5940e404-cab4-4bf8-b54b-b62016fc7fe1","system_id":"levelo_inurba_marseille","lat":43.31357,"lon":5.38484,"is_reserved":false,"is_disabled":false,"rental_uris":{"android":"levelo://app?vid=5940e404-cab4-4bf8-b54b-b62016fc7fe1","ios":"levelo://app?vid=5940e404-cab4-4bf8-b54b-b62016fc7fe1"},"vehicle_type_id":"4","last_reported":1746832138,"current_range_meters":20000,"station_id":"ce4bgt92rcd13ifvqcf0","pricing_plan_id":"cebpf4jnsgd1na2vs0mg"},{"bike_id":"f62b06c8-9c5f-415b-9650-144cf9e0f9b6","system_id":"levelo_inurba_marseille","lat":43.30778,"lon":5.37652,"is_reserved":false,"is_disabled":false,"rental_uris":{"android":"levelo://app?vid=f62b06c8-9c5f-415b-9650-144cf9e0f9b6","ios":"levelo://app?vid=f62b06c8-9c5f-415b-9650-144cf9e0f9b6"},"vehicle_type_id":"4","last_reported":1746832138,"current_range_meters":20000,"station_id":"ce4bgv92rcd13ifvqcq0","pricing_plan_id":"cebpf4jnsgd1na2vs0mg"},{"bike_id":"adad1c39-0cfd-4e36-9a00-8017416df03c","system_id":"levelo_inurba_marseille","lat":43.34031,"lon":5.375,"is_reserved":false,"is_disabled":false,"rental_uris":{"android":"levelo://app?vid=adad1c39-0cfd-4e36-9a00-8017416df03c","ios":"levelo://app?vid=adad1c39-0cfd-4e36-9a00-8017416df03c"},"vehicle_type_id":"4","last_reported":1746832138,"current_range_meters":20000,"station_id":"","pricing_plan_id":"cebpf4jnsgd1na2vs0mg"},{"bike_id":"d415e7e2-f909-4c4f-94d7-56d33e682e41","system_id":"levelo_inurba_marseille","lat":43.24426,"lon":5.37116,"is_reserved":false,"is_disabled":true,"rental_uris":{"android":"levelo://app?vid=d415e7e2-f909-4c4f-94d7-56d33e682e41","ios":"levelo://app?vid=d415e7e2-f909-4c4f-94d7-56d33e682e41"},"vehicle_type_id":"4","last_reported":1746832138,"current_range_meters":20000,"station_id":"ce4bhhh2rcd13ifvqfk0","pricing_plan_id":"cebpf4jnsgd1na2vs0mg"},{"bike_id":"d669e399-9a5c-4e60-8060-f2c70f3ae62b","system_id":"levelo_inurba_marseille","lat":43.30645,"lon":5.40096,"is_reserved":false,"is_disabled":false,"rental_uris":{"android":"levelo://app?vid=d669e399-9a5c-4e60-8060-f2c70f3ae62b","ios":"levelo://app?vid=d669e399-9a5c-4e60-8060-f2c70f3ae62b"},"vehicle_type_id":"4","last_reported":1746832138,"current_range_meters":20000,"station_id":"ce4bh112rcd13ifvqda0","pricing_plan_id":"cebpf4jnsgd1na2vs0mg"},{"bike_id":"13a7a66a-2de9-4c43-8bc1-c323c6bc7e4a","system_id":"levelo_inurba_marseille","lat":43.30799,"lon":5.38154,"is_reserved":false,"is_disabled":false,"rental_uris":{"android":"levelo://app?vid=13a7a66a-2de9-4c43-8bc1-c323c6bc7e4a","ios":"levelo://app?vid=13a7a66a-2de9-4c43-8bc1-c323c6bc7e4a"},"vehicle_type_id":"4","last_reported":1746832138,"current_range_meters":20000,"station_id":"ce4bgt12rcd13ifvqce0","pricing_plan_id":"cebpf4jnsgd1na2vs0mg"},{"bike_id":"262e6897-a0b5-4f99-9b2e-85969c2170cc","system_id":"levelo_inurba_marseille","lat":43.28403,"lon":5.37514,"is_reserved":false,"is_disabled":false,"rental_uris":{"android":"levelo://app?vid=262e6897-a0b5-4f99-9b2e-85969c2170cc","ios":"levelo://app?vid=262e6897-a0b5-4f99-9b2e-85969c2170cc"},"vehicle_type_id":"4","last_reported":1746832138,"current_range_meters":20000,"station_id":"ce4bh412rcd13ifvqds0","pricing_plan_id":"cebpf4jnsgd1na2vs0mg"},{"bike_id":"ba4e9974-425a-44fd-a865-c9aa7b778e1c","system_id":"levelo_inurba_marseille","lat":43.31769,"lon":5.38998,"is_reserved":false,"is_disabled":false,"rental_uris":{"android":"levelo://app?vid=ba4e9974-425a-44fd-a865-c9aa7b778e1c","ios":"levelo://app?vid=ba4e9974-425a-44fd-a865-c9aa7b778e1c"},"vehicle_type_id":"4","last_reported":1746832138,"current_range_meters":20800,"station_id":"ce4bhqp2rcd13ifvqhng","pricing_plan_id":"cebpf4jnsgd1na2vs0mg"},{"bike_id":"1fc00dbb-fc6e-4e8f-a09d-16a53b350d47","system_id":"levelo_inurba_marseille","lat":43.28675,"lon":5.3633,"is_reserved":false,"is_disabled":false,"rental_uris":{"android":"levelo://app?vid=1fc00dbb-fc6e-4e8f-a09d-16a53b350d47","ios":"levelo://app?vid=1fc00dbb-fc6e-4e8f-a09d-16a53b350d47"},"vehicle_type_id":"4","last_reported":1746832138,"current_range_meters":20800,"station_id":"ce4bhah2rcd13ifvqej0","pricing_plan_id":"cebpf4jnsgd1na2vs0mg"},{"bike_id":"ea539628-4702-4ad6-8d60-3a8543151d99","system_id":"levelo_inurba_marseille","lat":43.31274,"lon":5.40172,"is_reserved":false,"is_disabled":false,"rental_uris":{"android":"levelo://app?vid=ea539628-4702-4ad6-8d60-3a8543151d99","ios":"levelo://app?vid=ea539628-4702-4ad6-8d60-3a8543151d99"},"vehicle_type_id":"4","last_reported":1746832138,"current_range_meters":20400,"station_id":"ce4bh092rcd13ifvqd30","pricing_plan_id":"cebpf4jnsgd1na2vs0mg"},{"bike_id":"a379e14b-4ead-47ab-bfbe-623a85e5fb37","system_id":"levelo_inurba_marseille","lat":43.2512,"lon":5.40308,"is_reserved":false,"is_disabled":false,"rental_uris":{"android":"levelo://app?vid=a379e14b-4ead-47ab-bfbe-623a85e5fb37","ios":"levelo://app?vid=a379e14b-4ead-47ab-bfbe-623a85e5fb37"},"vehicle_type_id":"4","last_reported":1746832138,"current_range_meters":21600,"station_id":"ce4bhlh2rcd13ifvqgig","pricing_plan_id":"cebpf4jnsgd1na2vs0mg"},{"bike_id":"ab1b070d-846c-47c4-b481-c3f07c997114","system_id":"levelo_inurba_marseille","lat":43.30948,"lon":5.39024,"is_reserved":false,"is_disabled":false,"rental_uris":{"android":"levelo://app?vid=ab1b070d-846c-47c4-b481-c3f07c997114","ios":"levelo://app?vid=ab1b070d-846c-47c4-b481-c3f07c997114"},"vehicle_type_id":"4","last_reported":1746832138,"current_range_meters":21600,"station_id":"ce4bgup2rcd13ifvqco0","pricing_plan_id":"cebpf4jnsgd1na2vs0mg"},{"bike_id":"37046ee1-5e7a-43ae-aef7-3eff08cab435","system_id":"levelo_inurba_marseille","lat":43.29868,"lon":5.39726,"is_reserved":false,"is_disabled":false,"rental_uris":{"android":"levelo://app?vid=37046ee1-5e7a-43ae-aef7-3eff08cab435","ios":"levelo://app?vid=37046ee1-5e7a-43ae-aef7-3eff08cab435"},"vehicle_type_id":"4","last_reported":1746832138,"current_range_meters":21600,"station_id":"ce4bh0h2rcd13ifvqd50","pricing_plan_id":"cebpf4jnsgd1na2vs0mg"},{"bike_id":"1f6a620b-50f9-48c1-a5f8-75dd0869ee85","system_id":"levelo_inurba_marseille","lat":43.295265,"lon":5.3854,"is_reserved":false,"is_disabled":false,"rental_uris":{"android":"levelo://app?vid=1f6a620b-50f9-48c1-a5f8-75dd0869ee85","ios":"levelo://app?vid=1f6a620b-50f9-48c1-a5f8-75dd0869ee85"},"vehicle_type_id":"4","last_reported":1746832138,"current_range_meters":21600,"station_id":"ce4bgih2rcd13ifvqba0","pricing_plan_id":"cebpf4jnsgd1na2vs0mg"},{"bike_id":"65cdc33f-682f-435d-ab0b-adc12a488467","system_id":"levelo_inurba_marseille","lat":43.30426,"lon":5.39739,"is_reserved":false,"is_disabled":false,"rental_uris":{"android":"levelo://app?vid=65cdc33f-682f-435d-ab0b-adc12a488467","ios":"levelo://app?vid=65cdc33f-682f-435d-ab0b-adc12a488467"},"vehicle_type_id":"4","last_reported":1746832138,"current_range_meters":22000,"station_id":"ce4bh092rcd13ifvqd20","pricing_plan_id":"cebpf4jnsgd1na2vs0mg"},{"bike_id":"1358fe00-59ea-491d-a870-8cc988be5dc1","system_id":"levelo_inurba_marseille","lat":43.286892,"lon":5.39986,"is_reserved":false,"is_disabled":false,"rental_uris":{"android":"levelo://app?vid=1358fe00-59ea-491d-a870-8cc988be5dc1","ios":"levelo://app?vid=1358fe00-59ea-491d-a870-8cc988be5dc1"},"vehicle_type_id":"4","last_reported":1746832138,"current_range_meters":22000,"station_id":"ce4bho92rcd13ifvqh3g","pricing_plan_id":"cebpf4jnsgd1na2vs0mg"},{"bike_id":"133a7fda-01de-42d7-b0e2-2faf9d52a1c9","system_id":"levelo_inurba_marseille","lat":43.287045,"lon":5.39988,"is_reserved":false,"is_disabled":false,"rental_uris":{"android":"levelo://app?vid=133a7fda-01de-42d7-b0e2-2faf9d52a1c9","ios":"levelo://app?vid=133a7fda-01de-42d7-b0e2-2faf9d52a1c9"},"vehicle_type_id":"4","last_reported":1746832138,"current_range_meters":22400,"station_id":"ce4bho92rcd13ifvqh3g","pricing_plan_id":"cebpf4jnsgd1na2vs0mg"},{"bike_id":"4801d1fb-4564-4cdf-afea-e49b3a763b19","system_id":"levelo_inurba_marseille","lat":43.24647,"lon":5.389,"is_reserved":false,"is_disabled":false,"rental_uris":{"android":"levelo://app?vid=4801d1fb-4564-4cdf-afea-e49b3a763b19","ios":"levelo://app?vid=4801d1fb-4564-4cdf-afea-e49b3a763b19"},"vehicle_type_id":"4","last_reported":1746832138,"current_range_meters":22000,"station_id":"ce4bhg12rcd13ifvqf60","pricing_plan_id":"cebpf4jnsgd1na2vs0mg"},{"bike_id":"540742cc-e00e-4249-8a9b-4c70d470e113","system_id":"levelo_inurba_marseille","lat":43.30643,"lon":5.40093,"is_reserved":false,"is_disabled":false,"rental_uris":{"android":"levelo://app?vid=540742cc-e00e-4249-8a9b-4c70d470e113","ios":"levelo://app?vid=540742cc-e00e-4249-8a9b-4c70d470e113"},"vehicle_type_id":"4","last_reported":1746832138,"current_range_meters":22000,"station_id":"ce4bh112rcd13ifvqda0","pricing_plan_id":"cebpf4jnsgd1na2vs0mg"},{"bike_id":"f52c819d-ca4b-4640-b458-b877db1bf990","system_id":"levelo_inurba_marseille","lat":43.298653,"lon":5.410138,"is_reserved":false,"is_disabled":false,"rental_uris":{"android":"levelo://app?vid=f52c819d-ca4b-4640-b458-b877db1bf990","ios":"levelo://app?vid=f52c819d-ca4b-4640-b458-b877db1bf990"},"vehicle_type_id":"4","last_reported":1746832138,"current_range_meters":22800,"station_id":"","pricing_plan_id":"cebpf4jnsgd1na2vs0mg"},{"bike_id":"b3b79af9-a508-4cb8-bf57-80b52df9e161","system_id":"levelo_inurba_marseille","lat":43.26566,"lon":5.39005,"is_reserved":false,"is_disabled":false,"rental_uris":{"android":"levelo://app?vid=b3b79af9-a508-4cb8-bf57-80b52df9e161","ios":"levelo://app?vid=b3b79af9-a508-4cb8-bf57-80b52df9e161"},"vehicle_type_id":"4","last_reported":1746832138,"current_range_meters":22800,"station_id":"ce4bhe12rcd13ifvqf30","pricing_plan_id":"cebpf4jnsgd1na2vs0mg"},{"bike_id":"907acb34-6b17-4ecf-b39d-b17534e70a15","system_id":"levelo_inurba_marseille","lat":43.29967,"lon":5.38473,"is_reserved":false,"is_disabled":false,"rental_uris":{"android":"levelo://app?vid=907acb34-6b17-4ecf-b39d-b17534e70a15","ios":"levelo://app?vid=907acb34-6b17-4ecf-b39d-b17534e70a15"},"vehicle_type_id":"4","last_reported":1746832138,"current_range_meters":22800,"station_id":"ce4bgj92rcd13ifvqbd0","pricing_plan_id":"cebpf4jnsgd1na2vs0mg"},{"bike_id":"acc9e613-f3ab-462c-94c6-a13f35416d65","system_id":"levelo_inurba_marseille","lat":43.2873,"lon":5.36079,"is_reserved":false,"is_disabled":false,"rental_uris":{"android":"levelo://app?vid=acc9e613-f3ab-462c-94c6-a13f35416d65","ios":"levelo://app?vid=acc9e613-f3ab-462c-94c6-a13f35416d65"},"vehicle_type_id":"4","last_reported":1746832138,"current_range_meters":22800,"station_id":"cki0cbj6b192h4jlfktg","pricing_plan_id":"cebpf4jnsgd1na2vs0mg"},{"bike_id":"7714198e-3829-4f40-bc45-13d5ca323b6e","system_id":"levelo_inurba_marseille","lat":43.30933,"lon":5.40145,"is_reserved":false,"is_disabled":false,"rental_uris":{"android":"levelo://app?vid=7714198e-3829-4f40-bc45-13d5ca323b6e","ios":"levelo://app?vid=7714198e-3829-4f40-bc45-13d5ca323b6e"},"vehicle_type_id":"4","last_reported":1746832138,"current_range_meters":22800,"station_id":"ce4bgvp2rcd13ifvqct0","pricing_plan_id":"cebpf4jnsgd1na2vs0mg"},{"bike_id":"70cc606f-f857-4755-a742-0a237b1e34c7","system_id":"levelo_inurba_marseille","lat":43.26943,"lon":5.40257,"is_reserved":false,"is_disabled":false,"rental_uris":{"android":"levelo://app?vid=70cc606f-f857-4755-a742-0a237b1e34c7","ios":"levelo://app?vid=70cc606f-f857-4755-a742-0a237b1e34c7"},"vehicle_type_id":"4","last_reported":1746832138,"current_range_meters":22800,"station_id":"cjm6bp8fraef2m0cb0m0","pricing_plan_id":"cebpf4jnsgd1na2vs0mg"},{"bike_id":"eeae9a2f-bc9a-4394-bca2-cff4e58e46b3","system_id":"levelo_inurba_marseille","lat":43.29593,"lon":5.38109,"is_reserved":false,"is_disabled":true,"rental_uris":{"android":"levelo://app?vid=eeae9a2f-bc9a-4394-bca2-cff4e58e46b3","ios":"levelo://app?vid=eeae9a2f-bc9a-4394-bca2-cff4e58e46b3"},"vehicle_type_id":"4","last_reported":1746832138,"current_range_meters":22800,"station_id":"ce4bgl12rcd13ifvqbo0","pricing_plan_id":"cebpf4jnsgd1na2vs0mg"},{"bike_id":"2664426f-fee2-4dce-96ea-d8d517130aac","system_id":"levelo_inurba_marseille","lat":43.28487,"lon":5.38417,"is_reserved":false,"is_disabled":false,"rental_uris":{"android":"levelo://app?vid=2664426f-fee2-4dce-96ea-d8d517130aac","ios":"levelo://app?vid=2664426f-fee2-4dce-96ea-d8d517130aac"},"vehicle_type_id":"4","last_reported":1746832138,"current_range_meters":22800,"station_id":"ce4bh512rcd13ifvqe3g","pricing_plan_id":"cebpf4jnsgd1na2vs0mg"},{"bike_id":"2fc3cf4e-73e4-43db-9d5e-d3d4b8da6f2a","system_id":"levelo_inurba_marseille","lat":43.275717,"lon":5.384053,"is_reserved":false,"is_disabled":false,"rental_uris":{"android":"levelo://app?vid=2fc3cf4e-73e4-43db-9d5e-d3d4b8da6f2a","ios":"levelo://app?vid=2fc3cf4e-73e4-43db-9d5e-d3d4b8da6f2a"},"vehicle_type_id":"4","last_reported":1746832138,"current_range_meters":22800,"station_id":"ce4bhh92rcd13ifvqfi0","pricing_plan_id":"cebpf4jnsgd1na2vs0mg"},{"bike_id":"720c5f67-45b4-469a-91a2-d9defbd217f2","system_id":"levelo_inurba_marseille","lat":43.29037,"lon":5.39967,"is_reserved":false,"is_disabled":false,"rental_uris":{"android":"levelo://app?vid=720c5f67-45b4-469a-91a2-d9defbd217f2","ios":"levelo://app?vid=720c5f67-45b4-469a-91a2-d9defbd217f2"},"vehicle_type_id":"4","last_reported":1746832138,"current_range_meters":22400,"station_id":"ce4bh392rcd13ifvqdm0","pricing_plan_id":"cebpf4jnsgd1na2vs0mg"},{"bike_id":"5442662c-7f0e-4508-8066-e25bc15e8939","system_id":"levelo_inurba_marseille","lat":43.28696,"lon":5.37379,"is_reserved":false,"is_disabled":false,"rental_uris":{"android":"levelo://app?vid=5442662c-7f0e-4508-8066-e25bc15e8939","ios":"levelo://app?vid=5442662c-7f0e-4508-8066-e25bc15e8939"},"vehicle_type_id":"4","last_reported":1746832138,"current_range_meters":23200,"station_id":"ce4bh3p2rcd13ifvqdq0","pricing_plan_id":"cebpf4jnsgd1na2vs0mg"},{"bike_id":"64753928-f998-4224-bb81-d32fce4b1021","system_id":"levelo_inurba_marseille","lat":43.31366,"lon":5.38505,"is_reserved":false,"is_disabled":false,"rental_uris":{"android":"levelo://app?vid=64753928-f998-4224-bb81-d32fce4b1021","ios":"levelo://app?vid=64753928-f998-4224-bb81-d32fce4b1021"},"vehicle_type_id":"4","last_reported":1746832138,"current_range_meters":23200,"station_id":"ce4bgt92rcd13ifvqcf0","pricing_plan_id":"cebpf4jnsgd1na2vs0mg"},{"bike_id":"6a9f1c69-6f44-48d0-a025-be61725e6a3c","system_id":"levelo_inurba_marseille","lat":43.25118,"lon":5.40299,"is_reserved":false,"is_disabled":false,"rental_uris":{"android":"levelo://app?vid=6a9f1c69-6f44-48d0-a025-be61725e6a3c","ios":"levelo://app?vid=6a9f1c69-6f44-48d0-a025-be61725e6a3c"},"vehicle_type_id":"4","last_reported":1746832138,"current_range_meters":22800,"station_id":"ce4bhlh2rcd13ifvqgig","pricing_plan_id":"cebpf4jnsgd1na2vs0mg"},{"bike_id":"7ef9c380-74be-455d-a6e8-d8f5bf01ceee","system_id":"levelo_inurba_marseille","lat":43.31077,"lon":5.3837,"is_reserved":false,"is_disabled":false,"rental_uris":{"android":"levelo://app?vid=7ef9c380-74be-455d-a6e8-d8f5bf01ceee","ios":"levelo://app?vid=7ef9c380-74be-455d-a6e8-d8f5bf01ceee"},"vehicle_type_id":"4","last_reported":1746832138,"current_range_meters":23200,"station_id":"ce4bgv92rcd13ifvqcr0","pricing_plan_id":"cebpf4jnsgd1na2vs0mg"},{"bike_id":"e372757b-b03e-4a38-a409-5bc6cf05440a","system_id":"levelo_inurba_marseille","lat":43.23957,"lon":5.36638,"is_reserved":false,"is_disabled":false,"rental_uris":{"android":"levelo://app?vid=e372757b-b03e-4a38-a409-5bc6cf05440a","ios":"levelo://app?vid=e372757b-b03e-4a38-a409-5bc6cf05440a"},"vehicle_type_id":"4","last_reported":1746832138,"current_range_meters":23200,"station_id":"ce4bhi12rcd13ifvqfp0","pricing_plan_id":"cebpf4jnsgd1na2vs0mg"},{"bike_id":"73ded412-1ade-4c78-acbe-a9afd038932d","system_id":"levelo_inurba_marseille","lat":43.241673,"lon":5.363931,"is_reserved":false,"is_disabled":false,"rental_uris":{"android":"levelo://app?vid=73ded412-1ade-4c78-acbe-a9afd038932d","ios":"levelo://app?vid=73ded412-1ade-4c78-acbe-a9afd038932d"},"vehicle_type_id":"4","last_reported":1746832138,"current_range_meters":23200,"station_id":"cpo36qri1sfpv3e86is0","pricing_plan_id":"cebpf4jnsgd1na2vs0mg"},{"bike_id":"b370d7bc-4088-4d8c-93da-20c058d91ad5","system_id":"levelo_inurba_marseille","lat":43.30639,"lon":5.40065,"is_reserved":false,"is_disabled":false,"rental_uris":{"android":"levelo://app?vid=b370d7bc-4088-4d8c-93da-20c058d91ad5","ios":"levelo://app?vid=b370d7bc-4088-4d8c-93da-20c058d91ad5"},"vehicle_type_id":"4","last_reported":1746832138,"current_range_meters":22800,"station_id":"ce4bh112rcd13ifvqda0","pricing_plan_id":"cebpf4jnsgd1na2vs0mg"},{"bike_id":"46e5d6ef-e523-4415-9b42-9be4fb9067a8","system_id":"levelo_inurba_marseille","lat":43.28675,"lon":5.38653,"is_reserved":false,"is_disabled":false,"rental_uris":{"android":"levelo://app?vid=46e5d6ef-e523-4415-9b42-9be4fb9067a8","ios":"levelo://app?vid=46e5d6ef-e523-4415-9b42-9be4fb9067a8"},"vehicle_type_id":"4","last_reported":1746832138,"current_range_meters":23200,"station_id":"ce4bh492rcd13ifvqdug","pricing_plan_id":"cebpf4jnsgd1na2vs0mg"},{"bike_id":"08d77d12-dc1c-4467-b552-66a314984924","system_id":"levelo_inurba_marseille","lat":43.30893,"lon":5.39651,"is_reserved":false,"is_disabled":false,"rental_uris":{"android":"levelo://app?vid=08d77d12-dc1c-4467-b552-66a314984924","ios":"levelo://app?vid=08d77d12-dc1c-4467-b552-66a314984924"},"vehicle_type_id":"4","last_reported":1746832138,"current_range_meters":23200,"station_id":"ce4bh012rcd13ifvqcv0","pricing_plan_id":"cebpf4jnsgd1na2vs0mg"},{"bike_id":"830ca2f3-14a2-40d4-b14d-f14634d8ac66","system_id":"levelo_inurba_marseille","lat":43.31717,"lon":5.43673,"is_reserved":false,"is_disabled":true,"rental_uris":{"android":"levelo://app?vid=830ca2f3-14a2-40d4-b14d-f14634d8ac66","ios":"levelo://app?vid=830ca2f3-14a2-40d4-b14d-f14634d8ac66"},"vehicle_type_id":"4","last_reported":1746832138,"current_range_meters":24000,"station_id":"ce4bhp92rcd13ifvqhcg","pricing_plan_id":"cebpf4jnsgd1na2vs0mg"},{"bike_id":"e437b1e5-b9b4-411f-acb1-3f544f17d458","system_id":"levelo_inurba_marseille","lat":43.28465,"lon":5.35899,"is_reserved":false,"is_disabled":false,"rental_uris":{"android":"levelo://app?vid=e437b1e5-b9b4-411f-acb1-3f544f17d458","ios":"levelo://app?vid=e437b1e5-b9b4-411f-acb1-3f544f17d458"},"vehicle_type_id":"4","last_reported":1746832138,"current_range_meters":23200,"station_id":"ce4bhah2rcd13ifvqei0","pricing_plan_id":"cebpf4jnsgd1na2vs0mg"},{"bike_id":"dba0e3ef-aca2-40ad-b692-23f49bae9842","system_id":"levelo_inurba_marseille","lat":43.33718,"lon":5.39181,"is_reserved":false,"is_disabled":false,"rental_uris":{"android":"levelo://app?vid=dba0e3ef-aca2-40ad-b692-23f49bae9842","ios":"levelo://app?vid=dba0e3ef-aca2-40ad-b692-23f49bae9842"},"vehicle_type_id":"4","last_reported":1746832138,"current_range_meters":24000,"station_id":"ce4bhr92rcd13ifvqhsg","pricing_plan_id":"cebpf4jnsgd1na2vs0mg"},{"bike_id":"df0b7799-b5bd-45fc-89c4-782b54d9e9e3","system_id":"levelo_inurba_marseille","lat":43.30945,"lon":5.39039,"is_reserved":false,"is_disabled":false,"rental_uris":{"android":"levelo://app?vid=df0b7799-b5bd-45fc-89c4-782b54d9e9e3","ios":"levelo://app?vid=df0b7799-b5bd-45fc-89c4-782b54d9e9e3"},"vehicle_type_id":"4","last_reported":1746832138,"current_range_meters":24000,"station_id":"ce4bgup2rcd13ifvqco0","pricing_plan_id":"cebpf4jnsgd1na2vs0mg"},{"bike_id":"3850ebdd-1763-447e-98da-74889cef1d2c","system_id":"levelo_inurba_marseille","lat":43.31166,"lon":5.38714,"is_reserved":false,"is_disabled":false,"rental_uris":{"android":"levelo://app?vid=3850ebdd-1763-447e-98da-74889cef1d2c","ios":"levelo://app?vid=3850ebdd-1763-447e-98da-74889cef1d2c"},"vehicle_type_id":"4","last_reported":1746832138,"current_range_meters":24000,"station_id":"ce4bgv12rcd13ifvqcp0","pricing_plan_id":"cebpf4jnsgd1na2vs0mg"},{"bike_id":"fafc54e7-80d4-4bec-ab8a-c43ff95a1fa5","system_id":"levelo_inurba_marseille","lat":43.314934,"lon":5.37309,"is_reserved":false,"is_disabled":false,"rental_uris":{"android":"levelo://app?vid=fafc54e7-80d4-4bec-ab8a-c43ff95a1fa5","ios":"levelo://app?vid=fafc54e7-80d4-4bec-ab8a-c43ff95a1fa5"},"vehicle_type_id":"4","last_reported":1746832138,"current_range_meters":24000,"station_id":"ce4bgt12rcd13ifvqcd0","pricing_plan_id":"cebpf4jnsgd1na2vs0mg"},{"bike_id":"5ea6bced-8df0-4364-8dd2-3d1fdcc8c821","system_id":"levelo_inurba_marseille","lat":43.30283,"lon":5.37688,"is_reserved":false,"is_disabled":true,"rental_uris":{"android":"levelo://app?vid=5ea6bced-8df0-4364-8dd2-3d1fdcc8c821","ios":"levelo://app?vid=5ea6bced-8df0-4364-8dd2-3d1fdcc8c821"},"vehicle_type_id":"4","last_reported":1746832138,"current_range_meters":24000,"station_id":"ce4bguh2rcd13ifvqcj0","pricing_plan_id":"cebpf4jnsgd1na2vs0mg"},{"bike_id":"8836a1a3-8c5d-4a51-84c1-995eedc0e08f","system_id":"levelo_inurba_marseille","lat":43.24379,"lon":5.37078,"is_reserved":false,"is_disabled":false,"rental_uris":{"android":"levelo://app?vid=8836a1a3-8c5d-4a51-84c1-995eedc0e08f","ios":"levelo://app?vid=8836a1a3-8c5d-4a51-84c1-995eedc0e08f"},"vehicle_type_id":"4","last_reported":1746832138,"current_range_meters":24000,"station_id":"ce4bhhh2rcd13ifvqfk0","pricing_plan_id":"cebpf4jnsgd1na2vs0mg"},{"bike_id":"8fda7305-5141-4f84-92bd-428484e39574","system_id":"levelo_inurba_marseille","lat":43.243911,"lon":5.370618,"is_reserved":false,"is_disabled":false,"rental_uris":{"android":"levelo://app?vid=8fda7305-5141-4f84-92bd-428484e39574","ios":"levelo://app?vid=8fda7305-5141-4f84-92bd-428484e39574"},"vehicle_type_id":"4","last_reported":1746832138,"current_range_meters":24000,"station_id":"ce4bhhh2rcd13ifvqfk0","pricing_plan_id":"cebpf4jnsgd1na2vs0mg"},{"bike_id":"5e4184c3-d08e-452c-9867-5d017b069682","system_id":"levelo_inurba_marseille","lat":43.23961,"lon":5.36645,"is_reserved":false,"is_disabled":false,"rental_uris":{"android":"levelo://app?vid=5e4184c3-d08e-452c-9867-5d017b069682","ios":"levelo://app?vid=5e4184c3-d08e-452c-9867-5d017b069682"},"vehicle_type_id":"4","last_reported":1746832138,"current_range_meters":24000,"station_id":"ce4bhi12rcd13ifvqfp0","pricing_plan_id":"cebpf4jnsgd1na2vs0mg"},{"bike_id":"d747c0f2-a1c0-480b-bdc4-4cda643364df","system_id":"levelo_inurba_marseille","lat":43.28729,"lon":5.36079,"is_reserved":false,"is_disabled":false,"rental_uris":{"android":"levelo://app?vid=d747c0f2-a1c0-480b-bdc4-4cda643364df","ios":"levelo://app?vid=d747c0f2-a1c0-480b-bdc4-4cda643364df"},"vehicle_type_id":"4","last_reported":1746832138,"current_range_meters":24000,"station_id":"cki0cbj6b192h4jlfktg","pricing_plan_id":"cebpf4jnsgd1na2vs0mg"},{"bike_id":"48ed43fb-4ad0-4001-acee-f6ea4523cfc5","system_id":"levelo_inurba_marseille","lat":43.286293,"lon":5.476905,"is_reserved":false,"is_disabled":false,"rental_uris":{"android":"levelo://app?vid=48ed43fb-4ad0-4001-acee-f6ea4523cfc5","ios":"levelo://app?vid=48ed43fb-4ad0-4001-acee-f6ea4523cfc5"},"vehicle_type_id":"4","last_reported":1746832138,"current_range_meters":24400,"station_id":"","pricing_plan_id":"cebpf4jnsgd1na2vs0mg"},{"bike_id":"628c9361-3d68-4678-b48b-1aeec419f7df","system_id":"levelo_inurba_marseille","lat":43.31358,"lon":5.38497,"is_reserved":false,"is_disabled":false,"rental_uris":{"android":"levelo://app?vid=628c9361-3d68-4678-b48b-1aeec419f7df","ios":"levelo://app?vid=628c9361-3d68-4678-b48b-1aeec419f7df"},"vehicle_type_id":"4","last_reported":1746832138,"current_range_meters":24400,"station_id":"ce4bgt92rcd13ifvqcf0","pricing_plan_id":"cebpf4jnsgd1na2vs0mg"},{"bike_id":"a04abe7e-b462-4918-91dc-8fde571ab7c9","system_id":"levelo_inurba_marseille","lat":43.30597,"lon":5.37217,"is_reserved":false,"is_disabled":false,"rental_uris":{"android":"levelo://app?vid=a04abe7e-b462-4918-91dc-8fde571ab7c9","ios":"levelo://app?vid=a04abe7e-b462-4918-91dc-8fde571ab7c9"},"vehicle_type_id":"4","last_reported":1746832138,"current_range_meters":24400,"station_id":"ce4bgqh2rcd13ifvqc4g","pricing_plan_id":"cebpf4jnsgd1na2vs0mg"},{"bike_id":"a10e6ba4-7aa1-41c8-88ba-8579c25d57b4","system_id":"levelo_inurba_marseille","lat":43.31366,"lon":5.38497,"is_reserved":false,"is_disabled":false,"rental_uris":{"android":"levelo://app?vid=a10e6ba4-7aa1-41c8-88ba-8579c25d57b4","ios":"levelo://app?vid=a10e6ba4-7aa1-41c8-88ba-8579c25d57b4"},"vehicle_type_id":"4","last_reported":1746832138,"current_range_meters":24400,"station_id":"ce4bgt92rcd13ifvqcf0","pricing_plan_id":"cebpf4jnsgd1na2vs0mg"},{"bike_id":"0f6cf203-018f-4c9d-815f-955803b8d64f","system_id":"levelo_inurba_marseille","lat":43.2316,"lon":5.43703,"is_reserved":false,"is_disabled":false,"rental_uris":{"android":"levelo://app?vid=0f6cf203-018f-4c9d-815f-955803b8d64f","ios":"levelo://app?vid=0f6cf203-018f-4c9d-815f-955803b8d64f"},"vehicle_type_id":"4","last_reported":1746832138,"current_range_meters":24400,"station_id":"ce4bhmp2rcd13ifvqgog","pricing_plan_id":"cebpf4jnsgd1na2vs0mg"},{"bike_id":"4629799c-f1b4-4fe2-81f4-6cae2e77c918","system_id":"levelo_inurba_marseille","lat":43.28703,"lon":5.37944,"is_reserved":false,"is_disabled":false,"rental_uris":{"android":"levelo://app?vid=4629799c-f1b4-4fe2-81f4-6cae2e77c918","ios":"levelo://app?vid=4629799c-f1b4-4fe2-81f4-6cae2e77c918"},"vehicle_type_id":"4","last_reported":1746832138,"current_range_meters":24400,"station_id":"ce4bh9p2rcd13ifvqec0","pricing_plan_id":"cebpf4jnsgd1na2vs0mg"},{"bike_id":"02bac07a-9186-49eb-a666-f70d86d99978","system_id":"levelo_inurba_marseille","lat":43.21207,"lon":5.35072,"is_reserved":false,"is_disabled":false,"rental_uris":{"android":"levelo://app?vid=02bac07a-9186-49eb-a666-f70d86d99978","ios":"levelo://app?vid=02bac07a-9186-49eb-a666-f70d86d99978"},"vehicle_type_id":"4","last_reported":1746832138,"current_range_meters":24400,"station_id":"st_cvj6sg6p6f1abm77japg","pricing_plan_id":"cebpf4jnsgd1na2vs0mg"},{"bike_id":"dea91c64-8cd5-448b-a552-a026a3701963","system_id":"levelo_inurba_marseille","lat":43.292631,"lon":5.376211,"is_reserved":false,"is_disabled":false,"rental_uris":{"android":"levelo://app?vid=dea91c64-8cd5-448b-a552-a026a3701963","ios":"levelo://app?vid=dea91c64-8cd5-448b-a552-a026a3701963"},"vehicle_type_id":"4","last_reported":1746832138,"current_range_meters":24400,"station_id":"ce4bgi12rcd13ifvqb80","pricing_plan_id":"cebpf4jnsgd1na2vs0mg"},{"bike_id":"4a7daf22-7d20-4473-9189-f63e44977c69","system_id":"levelo_inurba_marseille","lat":43.28368,"lon":5.38631,"is_reserved":false,"is_disabled":false,"rental_uris":{"android":"levelo://app?vid=4a7daf22-7d20-4473-9189-f63e44977c69","ios":"levelo://app?vid=4a7daf22-7d20-4473-9189-f63e44977c69"},"vehicle_type_id":"4","last_reported":1746832138,"current_range_meters":24400,"station_id":"ce4bh492rcd13ifvqdvg","pricing_plan_id":"cebpf4jnsgd1na2vs0mg"},{"bike_id":"5ee6c3e3-5c35-4884-80c1-71cd7d0fa4fd","system_id":"levelo_inurba_marseille","lat":43.33055,"lon":5.40675,"is_reserved":false,"is_disabled":false,"rental_uris":{"android":"levelo://app?vid=5ee6c3e3-5c35-4884-80c1-71cd7d0fa4fd","ios":"levelo://app?vid=5ee6c3e3-5c35-4884-80c1-71cd7d0fa4fd"},"vehicle_type_id":"4","last_reported":1746832138,"current_range_meters":24400,"station_id":"","pricing_plan_id":"cebpf4jnsgd1na2vs0mg"},{"bike_id":"ce808109-3a33-42b9-94bd-9d2185c0cbf5","system_id":"levelo_inurba_marseille","lat":43.28402,"lon":5.37493,"is_reserved":false,"is_disabled":false,"rental_uris":{"android":"levelo://app?vid=ce808109-3a33-42b9-94bd-9d2185c0cbf5","ios":"levelo://app?vid=ce808109-3a33-42b9-94bd-9d2185c0cbf5"},"vehicle_type_id":"4","last_reported":1746832138,"current_range_meters":24800,"station_id":"ce4bh412rcd13ifvqds0","pricing_plan_id":"cebpf4jnsgd1na2vs0mg"},{"bike_id":"1eee94a5-e10d-4f9f-8262-b514c57aa896","system_id":"levelo_inurba_marseille","lat":43.28065,"lon":5.39638,"is_reserved":false,"is_disabled":false,"rental_uris":{"android":"levelo://app?vid=1eee94a5-e10d-4f9f-8262-b514c57aa896","ios":"levelo://app?vid=1eee94a5-e10d-4f9f-8262-b514c57aa896"},"vehicle_type_id":"4","last_reported":1746832138,"current_range_meters":24800,"station_id":"ce4bho12rcd13ifvqh2g","pricing_plan_id":"cebpf4jnsgd1na2vs0mg"},{"bike_id":"75091ba4-b888-4419-9840-ccfc1301ea98","system_id":"levelo_inurba_marseille","lat":43.28365,"lon":5.38633,"is_reserved":false,"is_disabled":false,"rental_uris":{"android":"levelo://app?vid=75091ba4-b888-4419-9840-ccfc1301ea98","ios":"levelo://app?vid=75091ba4-b888-4419-9840-ccfc1301ea98"},"vehicle_type_id":"4","last_reported":1746832138,"current_range_meters":24800,"station_id":"ce4bh492rcd13ifvqdvg","pricing_plan_id":"cebpf4jnsgd1na2vs0mg"},{"bike_id":"33fe45c6-e01b-4688-b652-5409ce6eb3ad","system_id":"levelo_inurba_marseille","lat":43.27668,"lon":5.38858,"is_reserved":false,"is_disabled":false,"rental_uris":{"android":"levelo://app?vid=33fe45c6-e01b-4688-b652-5409ce6eb3ad","ios":"levelo://app?vid=33fe45c6-e01b-4688-b652-5409ce6eb3ad"},"vehicle_type_id":"4","last_reported":1746832138,"current_range_meters":24800,"station_id":"ce4bhi12rcd13ifvqfo0","pricing_plan_id":"cebpf4jnsgd1na2vs0mg"},{"bike_id":"4847d81f-d50e-4609-8983-6082c307ddc0","system_id":"levelo_inurba_marseille","lat":43.317119,"lon":5.437054,"is_reserved":false,"is_disabled":false,"rental_uris":{"android":"levelo://app?vid=4847d81f-d50e-4609-8983-6082c307ddc0","ios":"levelo://app?vid=4847d81f-d50e-4609-8983-6082c307ddc0"},"vehicle_type_id":"4","last_reported":1746832138,"current_range_meters":24800,"station_id":"ce4bhp92rcd13ifvqhcg","pricing_plan_id":"cebpf4jnsgd1na2vs0mg"},{"bike_id":"351ef218-24e5-4670-825d-fc1ac5cd3c19","system_id":"levelo_inurba_marseille","lat":43.314836,"lon":5.372993,"is_reserved":false,"is_disabled":false,"rental_uris":{"android":"levelo://app?vid=351ef218-24e5-4670-825d-fc1ac5cd3c19","ios":"levelo://app?vid=351ef218-24e5-4670-825d-fc1ac5cd3c19"},"vehicle_type_id":"4","last_reported":1746832138,"current_range_meters":24800,"station_id":"ce4bgt12rcd13ifvqcd0","pricing_plan_id":"cebpf4jnsgd1na2vs0mg"},{"bike_id":"58319066-8688-4017-ad1b-c917092237ab","system_id":"levelo_inurba_marseille","lat":43.31898,"lon":5.4074,"is_reserved":false,"is_disabled":false,"rental_uris":{"android":"levelo://app?vid=58319066-8688-4017-ad1b-c917092237ab","ios":"levelo://app?vid=58319066-8688-4017-ad1b-c917092237ab"},"vehicle_type_id":"4","last_reported":1746832138,"current_range_meters":24800,"station_id":"ce4bhq12rcd13ifvqhig","pricing_plan_id":"cebpf4jnsgd1na2vs0mg"},{"bike_id":"37733380-909a-4cd2-9eb0-0b16569a89f4","system_id":"levelo_inurba_marseille","lat":43.2945,"lon":5.39745,"is_reserved":false,"is_disabled":true,"rental_uris":{"android":"levelo://app?vid=37733380-909a-4cd2-9eb0-0b16569a89f4","ios":"levelo://app?vid=37733380-909a-4cd2-9eb0-0b16569a89f4"},"vehicle_type_id":"4","last_reported":1746832138,"current_range_meters":24800,"station_id":"ce4bh3h2rcd13ifvqdo0","pricing_plan_id":"cebpf4jnsgd1na2vs0mg"},{"bike_id":"7d7c9ad2-a27b-4682-a342-bd426a5f70e1","system_id":"levelo_inurba_marseille","lat":43.28705,"lon":5.39978,"is_reserved":false,"is_disabled":false,"rental_uris":{"android":"levelo://app?vid=7d7c9ad2-a27b-4682-a342-bd426a5f70e1","ios":"levelo://app?vid=7d7c9ad2-a27b-4682-a342-bd426a5f70e1"},"vehicle_type_id":"4","last_reported":1746832138,"current_range_meters":24800,"station_id":"ce4bho92rcd13ifvqh3g","pricing_plan_id":"cebpf4jnsgd1na2vs0mg"},{"bike_id":"cb360625-bf99-4647-86fd-aa2204d2019f","system_id":"levelo_inurba_marseille","lat":43.24403,"lon":5.3706,"is_reserved":false,"is_disabled":false,"rental_uris":{"android":"levelo://app?vid=cb360625-bf99-4647-86fd-aa2204d2019f","ios":"levelo://app?vid=cb360625-bf99-4647-86fd-aa2204d2019f"},"vehicle_type_id":"4","last_reported":1746832138,"current_range_meters":25200,"station_id":"ce4bhhh2rcd13ifvqfk0","pricing_plan_id":"cebpf4jnsgd1na2vs0mg"},{"bike_id":"09a59cf2-bd61-4ec3-b1a4-14a090763645","system_id":"levelo_inurba_marseille","lat":43.28946,"lon":5.36396,"is_reserved":false,"is_disabled":false,"rental_uris":{"android":"levelo://app?vid=09a59cf2-bd61-4ec3-b1a4-14a090763645","ios":"levelo://app?vid=09a59cf2-bd61-4ec3-b1a4-14a090763645"},"vehicle_type_id":"4","last_reported":1746832138,"current_range_meters":24000,"station_id":"ce4bhc92rcd13ifvqetg","pricing_plan_id":"cebpf4jnsgd1na2vs0mg"},{"bike_id":"6755debe-282d-4034-9706-e4e2d4660e30","system_id":"levelo_inurba_marseille","lat":43.3133,"lon":5.39695,"is_reserved":false,"is_disabled":false,"rental_uris":{"android":"levelo://app?vid=6755debe-282d-4034-9706-e4e2d4660e30","ios":"levelo://app?vid=6755debe-282d-4034-9706-e4e2d4660e30"},"vehicle_type_id":"4","last_reported":1746832138,"current_range_meters":25200,"station_id":"ce4bgvp2rcd13ifvqcu0","pricing_plan_id":"cebpf4jnsgd1na2vs0mg"},{"bike_id":"23da8155-6dda-439c-a15e-a8021246f18b","system_id":"levelo_inurba_marseille","lat":43.24808,"lon":5.37458,"is_reserved":false,"is_disabled":false,"rental_uris":{"android":"levelo://app?vid=23da8155-6dda-439c-a15e-a8021246f18b","ios":"levelo://app?vid=23da8155-6dda-439c-a15e-a8021246f18b"},"vehicle_type_id":"4","last_reported":1746832138,"current_range_meters":25200,"station_id":"ce4bhgh2rcd13ifvqfb0","pricing_plan_id":"cebpf4jnsgd1na2vs0mg"},{"bike_id":"1351a89e-a202-4047-adf9-211118374a4c","system_id":"levelo_inurba_marseille","lat":43.30324,"lon":5.40432,"is_reserved":false,"is_disabled":false,"rental_uris":{"android":"levelo://app?vid=1351a89e-a202-4047-adf9-211118374a4c","ios":"levelo://app?vid=1351a89e-a202-4047-adf9-211118374a4c"},