{"last_updated":1741702209,"ttl":60,"version":"2.2","data":{"bikes":[{"bike_id":"5859a5da-ae47-41b6-8932-8e8f4f758122","system_id":"levelo_inurba_marseille","lat":43.28851,"lon":5.35857,"is_reserved":false,"is_disabled":false,"rental_uris":{"android":"levelo://app?vid=5859a5da-ae47-41b6-8932-8e8f4f758122","ios":"levelo://app?vid=5859a5da-ae47-41b6-8932-8e8f4f758122"},"vehicle_type_id":"4","last_reported":1741702209,"current_range_meters":2800,"station_id":"ce4bhb12rcd13ifvqem0","pricing_plan_id":"cebpf4jnsgd1na2vs0mg"},{"bike_id":"9ca55634-bb08-42a8-ba0e-edd2059844df","system_id":"levelo_inurba_marseille","lat":43.29305,"lon":5.37186,"is_reserved":false,"is_disabled":false,"rental_uris":{"android":"levelo://app?vid=9ca55634-bb08-42a8-ba0e-edd2059844df","ios":"levelo://app?vid=9ca55634-bb08-42a8-ba0e-edd2059844df"},"vehicle_type_id":"4","last_reported":1741702209,"current_range_meters":3200,"station_id":"ce4bgh92rcd13ifvqb40","pricing_plan_id":"cebpf4jnsgd1na2vs0mg"},{"bike_id":"74360224-ea3a-4b94-b4d3-5af106cd79fa","system_id":"levelo_inurba_marseille","lat":43.29633,"lon":5.40596,"is_reserved":false,"is_disabled":false,"rental_uris":{"android":"levelo://app?vid=74360224-ea3a-4b94-b4d3-5af106cd79fa","ios":"levelo://app?vid=74360224-ea3a-4b94-b4d3-5af106cd79fa"},"vehicle_type_id":"4","last_reported":1741702209,"current_range_meters":3600,"station_id":"ce4bh0h2rcd13ifvqd60","pricing_plan_id":"cebpf4jnsgd1na2vs0mg"},{"bike_id":"b104001a-10f7-4c93-b613-2b76cb885027","system_id":"levelo_inurba_marseille","lat":43.31161,"lon":5.37104,"is_reserved":false,"is_disabled":false,"rental_uris":{"android":"levelo://app?vid=b104001a-10f7-4c93-b613-2b76cb885027","ios":"levelo://app?vid=b104001a-10f7-4c93-b613-2b76cb885027"},"vehicle_type_id":"4","last_reported":1741702209,"current_range_meters":3600,"station_id":"","pricing_plan_id":"cebpf4jnsgd1na2vs0mg"},{"bike_id":"168cbdfd-bccb-4788-9213-16ff3f19dcd3","system_id":"levelo_inurba_marseille","lat":43.3107,"lon":5.38353,"is_reserved":false,"is_disabled":false,"rental_uris":{"android":"levelo://app?vid=168cbdfd-bccb-4788-9213-16ff3f19dcd3","ios":"levelo://app?vid=168cbdfd-bccb-4788-9213-16ff3f19dcd3"},"vehicle_type_id":"4","last_reported":1741702209,"current_range_meters":3600,"station_id":"ce4bgv92rcd13ifvqcr0","pricing_plan_id":"cebpf4jnsgd1na2vs0mg"},{"bike_id":"970771d0-665e-4468-98fc-68584e8af67f","system_id":"levelo_inurba_marseille","lat":43.28044,"lon":5.36952,"is_reserved":false,"is_disabled":false,"rental_uris":{"android":"levelo://app?vid=970771d0-665e-4468-98fc-68584e8af67f","ios":"levelo://app?vid=970771d0-665e-4468-98fc-68584e8af67f"},"vehicle_type_id":"4","last_reported":1741702209,"current_range_meters":3600,"station_id":"ce4bha12rcd13ifvqef0","pricing_plan_id":"cebpf4jnsgd1na2vs0mg"},{"bike_id":"2fbb2f0e-b64e-445e-a2b3-ee5227dc63e4","system_id":"levelo_inurba_marseille","lat":43.26932,"lon":5.36693,"is_reserved":false,"is_disabled":false,"rental_uris":{"android":"levelo://app?vid=2fbb2f0e-b64e-445e-a2b3-ee5227dc63e4","ios":"levelo://app?vid=2fbb2f0e-b64e-445e-a2b3-ee5227dc63e4"},"vehicle_type_id":"4","last_reported":1741702209,"current_range_meters":4000,"station_id":"","pricing_plan_id":"cebpf4jnsgd1na2vs0mg"},{"bike_id":"48276c2c-b976-459c-9b1a-8a6fe78dda19","system_id":"levelo_inurba_marseille","lat":43.27322,"lon":5.39079,"is_reserved":false,"is_disabled":false,"rental_uris":{"android":"levelo://app?vid=48276c2c-b976-459c-9b1a-8a6fe78dda19","ios":"levelo://app?vid=48276c2c-b976-459c-9b1a-8a6fe78dda19"},"vehicle_type_id":"4","last_reported":1741702209,"current_range_meters":4000,"station_id":"ce4bhgp2rcd13ifvqfe0","pricing_plan_id":"cebpf4jnsgd1na2vs0mg"},{"bike_id":"46c805d2-7df9-4baa-9f19-301b216cc990","system_id":"levelo_inurba_marseille","lat":43.28676,"lon":5.38659,"is_reserved":false,"is_disabled":false,"rental_uris":{"android":"levelo://app?vid=46c805d2-7df9-4baa-9f19-301b216cc990","ios":"levelo://app?vid=46c805d2-7df9-4baa-9f19-301b216cc990"},"vehicle_type_id":"4","last_reported":1741702209,"current_range_meters":4400,"station_id":"ce4bh492rcd13ifvqdug","pricing_plan_id":"cebpf4jnsgd1na2vs0mg"},{"bike_id":"7f08542c-3622-4bee-8852-d0974c0ec085","system_id":"levelo_inurba_marseille","lat":43.24184,"lon":5.36319,"is_reserved":false,"is_disabled":false,"rental_uris":{"android":"levelo://app?vid=7f08542c-3622-4bee-8852-d0974c0ec085","ios":"levelo://app?vid=7f08542c-3622-4bee-8852-d0974c0ec085"},"vehicle_type_id":"4","last_reported":1741702209,"current_range_meters":4400,"station_id":"","pricing_plan_id":"cebpf4jnsgd1na2vs0mg"},{"bike_id":"4e347704-a355-4b49-8cb3-ebeb8b8a53b3","system_id":"levelo_inurba_marseille","lat":43.26195,"lon":5.37935,"is_reserved":false,"is_disabled":false,"rental_uris":{"android":"levelo://app?vid=4e347704-a355-4b49-8cb3-ebeb8b8a53b3","ios":"levelo://app?vid=4e347704-a355-4b49-8cb3-ebeb8b8a53b3"},"vehicle_type_id":"4","last_reported":1741702209,"current_range_meters":4400,"station_id":"ce4bhjp2rcd13ifvqg90","pricing_plan_id":"cebpf4jnsgd1na2vs0mg"},{"bike_id":"b34bcea4-26b7-4a4a-b6db-08b382228d54","system_id":"levelo_inurba_marseille","lat":43.29707,"lon":5.37705,"is_reserved":false,"is_disabled":false,"rental_uris":{"android":"levelo://app?vid=b34bcea4-26b7-4a4a-b6db-08b382228d54","ios":"levelo://app?vid=b34bcea4-26b7-4a4a-b6db-08b382228d54"},"vehicle_type_id":"4","last_reported":1741702209,"current_range_meters":4400,"station_id":"ce4bgkh2rcd13ifvqbl0","pricing_plan_id":"cebpf4jnsgd1na2vs0mg"},{"bike_id":"470cf260-84ce-48b0-8842-92ba134da379","system_id":"levelo_inurba_marseille","lat":43.29626,"lon":5.40597,"is_reserved":false,"is_disabled":false,"rental_uris":{"android":"levelo://app?vid=470cf260-84ce-48b0-8842-92ba134da379","ios":"levelo://app?vid=470cf260-84ce-48b0-8842-92ba134da379"},"vehicle_type_id":"4","last_reported":1741702209,"current_range_meters":4800,"station_id":"ce4bh0h2rcd13ifvqd60","pricing_plan_id":"cebpf4jnsgd1na2vs0mg"},{"bike_id":"4206379a-3bae-4c9e-9a0a-0f4f4c7fe9c5","system_id":"levelo_inurba_marseille","lat":43.30131,"lon":5.39882,"is_reserved":false,"is_disabled":false,"rental_uris":{"android":"levelo://app?vid=4206379a-3bae-4c9e-9a0a-0f4f4c7fe9c5","ios":"levelo://app?vid=4206379a-3bae-4c9e-9a0a-0f4f4c7fe9c5"},"vehicle_type_id":"4","last_reported":1741702209,"current_range_meters":5600,"station_id":"ce4bh0h2rcd13ifvqd40","pricing_plan_id":"cebpf4jnsgd1na2vs0mg"},{"bike_id":"bdacdb33-37c4-4496-9db3-1fbd19416c15","system_id":"levelo_inurba_marseille","lat":43.324782,"lon":5.365704,"is_reserved":false,"is_disabled":false,"rental_uris":{"android":"levelo://app?vid=bdacdb33-37c4-4496-9db3-1fbd19416c15","ios":"levelo://app?vid=bdacdb33-37c4-4496-9db3-1fbd19416c15"},"vehicle_type_id":"4","last_reported":1741702209,"current_range_meters":5600,"station_id":"ce4bgl92rcd13ifvqbq0","pricing_plan_id":"cebpf4jnsgd1na2vs0mg"},{"bike_id":"4db736b9-68d3-4f2a-9431-002ce7a44183","system_id":"levelo_inurba_marseille","lat":43.23157,"lon":5.43723,"is_reserved":false,"is_disabled":false,"rental_uris":{"android":"levelo://app?vid=4db736b9-68d3-4f2a-9431-002ce7a44183","ios":"levelo://app?vid=4db736b9-68d3-4f2a-9431-002ce7a44183"},"vehicle_type_id":"4","last_reported":1741702209,"current_range_meters":5600,"station_id":"ce4bhmp2rcd13ifvqgog","pricing_plan_id":"cebpf4jnsgd1na2vs0mg"},{"bike_id":"3a5f45b2-9e5f-4b8c-acda-a10ea5dadf24","system_id":"levelo_inurba_marseille","lat":43.2807,"lon":5.41264,"is_reserved":false,"is_disabled":false,"rental_uris":{"android":"levelo://app?vid=3a5f45b2-9e5f-4b8c-acda-a10ea5dadf24","ios":"levelo://app?vid=3a5f45b2-9e5f-4b8c-acda-a10ea5dadf24"},"vehicle_type_id":"4","last_reported":1741702209,"current_range_meters":6000,"station_id":"ce4bho12rcd13ifvqh1g","pricing_plan_id":"cebpf4jnsgd1na2vs0mg"},{"bike_id":"017caf35-88cf-4e8c-bd82-117b55b8355c","system_id":"levelo_inurba_marseille","lat":43.30938,"lon":5.40128,"is_reserved":false,"is_disabled":false,"rental_uris":{"android":"levelo://app?vid=017caf35-88cf-4e8c-bd82-117b55b8355c","ios":"levelo://app?vid=017caf35-88cf-4e8c-bd82-117b55b8355c"},"vehicle_type_id":"4","last_reported":1741702209,"current_range_meters":6000,"station_id":"ce4bgvp2rcd13ifvqct0","pricing_plan_id":"cebpf4jnsgd1na2vs0mg"},{"bike_id":"09c08ade-89aa-4169-a7b1-d869e5b3cd6d","system_id":"levelo_inurba_marseille","lat":43.27925,"lon":5.38746,"is_reserved":false,"is_disabled":false,"rental_uris":{"android":"levelo://app?vid=09c08ade-89aa-4169-a7b1-d869e5b3cd6d","ios":"levelo://app?vid=09c08ade-89aa-4169-a7b1-d869e5b3cd6d"},"vehicle_type_id":"4","last_reported":1741702209,"current_range_meters":6000,"station_id":"ce4bhg12rcd13ifvqf80","pricing_plan_id":"cebpf4jnsgd1na2vs0mg"},{"bike_id":"ed4641d5-eec4-4773-936c-1ea58542d8bb","system_id":"levelo_inurba_marseille","lat":43.29626,"lon":5.37718,"is_reserved":false,"is_disabled":false,"rental_uris":{"android":"levelo://app?vid=ed4641d5-eec4-4773-936c-1ea58542d8bb","ios":"levelo://app?vid=ed4641d5-eec4-4773-936c-1ea58542d8bb"},"vehicle_type_id":"4","last_reported":1741702209,"current_range_meters":6400,"station_id":"cki0cbj6b192h4jlfktg","pricing_plan_id":"cebpf4jnsgd1na2vs0mg"},{"bike_id":"edb857b4-1bfb-4342-b5b8-95cfecfaa77c","system_id":"levelo_inurba_marseille","lat":43.25006,"lon":5.38933,"is_reserved":false,"is_disabled":false,"rental_uris":{"android":"levelo://app?vid=edb857b4-1bfb-4342-b5b8-95cfecfaa77c","ios":"levelo://app?vid=edb857b4-1bfb-4342-b5b8-95cfecfaa77c"},"vehicle_type_id":"4","last_reported":1741702209,"current_range_meters":6400,"station_id":"ce4bhgp2rcd13ifvqfd0","pricing_plan_id":"cebpf4jnsgd1na2vs0mg"},{"bike_id":"e2111d68-6b13-4bda-8d79-8537217dfd9e","system_id":"levelo_inurba_marseille","lat":43.30084,"lon":5.39073,"is_reserved":false,"is_disabled":false,"rental_uris":{"android":"levelo://app?vid=e2111d68-6b13-4bda-8d79-8537217dfd9e","ios":"levelo://app?vid=e2111d68-6b13-4bda-8d79-8537217dfd9e"},"vehicle_type_id":"4","last_reported":1741702209,"current_range_meters":6400,"station_id":"ce4bh192rcd13ifvqdb0","pricing_plan_id":"cebpf4jnsgd1na2vs0mg"},{"bike_id":"af7cad9e-fa8d-48b7-9985-2a246121bd34","system_id":"levelo_inurba_marseille","lat":43.28633,"lon":5.3508,"is_reserved":false,"is_disabled":false,"rental_uris":{"android":"levelo://app?vid=af7cad9e-fa8d-48b7-9985-2a246121bd34","ios":"levelo://app?vid=af7cad9e-fa8d-48b7-9985-2a246121bd34"},"vehicle_type_id":"4","last_reported":1741702209,"current_range_meters":6400,"station_id":"ce4bhch2rcd13ifvqeug","pricing_plan_id":"cebpf4jnsgd1na2vs0mg"},{"bike_id":"1b96382b-9e2b-4f86-9f60-203340a59506","system_id":"levelo_inurba_marseille","lat":43.30088,"lon":5.39073,"is_reserved":false,"is_disabled":false,"rental_uris":{"android":"levelo://app?vid=1b96382b-9e2b-4f86-9f60-203340a59506","ios":"levelo://app?vid=1b96382b-9e2b-4f86-9f60-203340a59506"},"vehicle_type_id":"4","last_reported":1741702209,"current_range_meters":6400,"station_id":"ce4bh192rcd13ifvqdb0","pricing_plan_id":"cebpf4jnsgd1na2vs0mg"},{"bike_id":"aad095c1-e5ad-4fd2-976b-e3414c3a6270","system_id":"levelo_inurba_marseille","lat":43.29271,"lon":5.38446,"is_reserved":false,"is_disabled":false,"rental_uris":{"android":"levelo://app?vid=aad095c1-e5ad-4fd2-976b-e3414c3a6270","ios":"levelo://app?vid=aad095c1-e5ad-4fd2-976b-e3414c3a6270"},"vehicle_type_id":"4","last_reported":1741702209,"current_range_meters":6400,"station_id":"ce4bh692rcd13ifvqea0","pricing_plan_id":"cebpf4jnsgd1na2vs0mg"},{"bike_id":"f1459b28-1738-42f1-b12a-1bb0ad48378e","system_id":"levelo_inurba_marseille","lat":43.2467,"lon":5.3817,"is_reserved":false,"is_disabled":false,"rental_uris":{"android":"levelo://app?vid=f1459b28-1738-42f1-b12a-1bb0ad48378e","ios":"levelo://app?vid=f1459b28-1738-42f1-b12a-1bb0ad48378e"},"vehicle_type_id":"4","last_reported":1741702209,"current_range_meters":6800,"station_id":"ce4bhih2rcd13ifvqfr0","pricing_plan_id":"cebpf4jnsgd1na2vs0mg"},{"bike_id":"3e8548d0-c20a-4c38-8349-eb0dc1e1f497","system_id":"levelo_inurba_marseille","lat":43.30599,"lon":5.39356,"is_reserved":false,"is_disabled":false,"rental_uris":{"android":"levelo://app?vid=3e8548d0-c20a-4c38-8349-eb0dc1e1f497","ios":"levelo://app?vid=3e8548d0-c20a-4c38-8349-eb0dc1e1f497"},"vehicle_type_id":"4","last_reported":1741702209,"current_range_meters":6800,"station_id":"ce4bh0p2rcd13ifvqd80","pricing_plan_id":"cebpf4jnsgd1na2vs0mg"},{"bike_id":"fedb551e-7f3c-4b1c-bb6c-078cb7c5e9de","system_id":"levelo_inurba_marseille","lat":43.29015,"lon":5.38138,"is_reserved":false,"is_disabled":false,"rental_uris":{"android":"levelo://app?vid=fedb551e-7f3c-4b1c-bb6c-078cb7c5e9de","ios":"levelo://app?vid=fedb551e-7f3c-4b1c-bb6c-078cb7c5e9de"},"vehicle_type_id":"4","last_reported":1741702209,"current_range_meters":6400,"station_id":"ce4bh4p2rcd13ifvqe1g","pricing_plan_id":"cebpf4jnsgd1na2vs0mg"},{"bike_id":"7f7f989a-4e24-4449-9f9c-f493bba043cf","system_id":"levelo_inurba_marseille","lat":43.28443,"lon":5.39193,"is_reserved":false,"is_disabled":false,"rental_uris":{"android":"levelo://app?vid=7f7f989a-4e24-4449-9f9c-f493bba043cf","ios":"levelo://app?vid=7f7f989a-4e24-4449-9f9c-f493bba043cf"},"vehicle_type_id":"4","last_reported":1741702209,"current_range_meters":6800,"station_id":"ce4bhoh2rcd13ifvqh5g","pricing_plan_id":"cebpf4jnsgd1na2vs0mg"},{"bike_id":"42b8606a-5a39-4c18-ab8e-ae2998dcaace","system_id":"levelo_inurba_marseille","lat":43.29898,"lon":5.43666,"is_reserved":false,"is_disabled":false,"rental_uris":{"android":"levelo://app?vid=42b8606a-5a39-4c18-ab8e-ae2998dcaace","ios":"levelo://app?vid=42b8606a-5a39-4c18-ab8e-ae2998dcaace"},"vehicle_type_id":"4","last_reported":1741702209,"current_range_meters":7200,"station_id":"ce4bhpp2rcd13ifvqhfg","pricing_plan_id":"cebpf4jnsgd1na2vs0mg"},{"bike_id":"ffdd3460-ecd3-4034-b6d2-c8913101cd14","system_id":"levelo_inurba_marseille","lat":43.29277,"lon":5.36847,"is_reserved":false,"is_disabled":false,"rental_uris":{"android":"levelo://app?vid=ffdd3460-ecd3-4034-b6d2-c8913101cd14","ios":"levelo://app?vid=ffdd3460-ecd3-4034-b6d2-c8913101cd14"},"vehicle_type_id":"4","last_reported":1741702209,"current_range_meters":7200,"station_id":"ce4bhbp2rcd13ifvqesg","pricing_plan_id":"cebpf4jnsgd1na2vs0mg"},{"bike_id":"1773a6a5-bc6c-4b7b-961f-d16b36776ed2","system_id":"levelo_inurba_marseille","lat":43.284271,"lon":5.384331,"is_reserved":false,"is_disabled":false,"rental_uris":{"android":"levelo://app?vid=1773a6a5-bc6c-4b7b-961f-d16b36776ed2","ios":"levelo://app?vid=1773a6a5-bc6c-4b7b-961f-d16b36776ed2"},"vehicle_type_id":"4","last_reported":1741702209,"current_range_meters":7200,"station_id":"ce4bh4p2rcd13ifvqe1g","pricing_plan_id":"cebpf4jnsgd1na2vs0mg"},{"bike_id":"ab35a3de-0005-4dff-a78e-95fd52c7f44e","system_id":"levelo_inurba_marseille","lat":43.28933,"lon":5.36642,"is_reserved":false,"is_disabled":false,"rental_uris":{"android":"levelo://app?vid=ab35a3de-0005-4dff-a78e-95fd52c7f44e","ios":"levelo://app?vid=ab35a3de-0005-4dff-a78e-95fd52c7f44e"},"vehicle_type_id":"4","last_reported":1741702209,"current_range_meters":7200,"station_id":"ce4bhap2rcd13ifvqek0","pricing_plan_id":"cebpf4jnsgd1na2vs0mg"},{"bike_id":"54afd193-ee95-4f5e-975a-c9018d9dcb98","system_id":"levelo_inurba_marseille","lat":43.32359,"lon":5.36758,"is_reserved":false,"is_disabled":false,"rental_uris":{"android":"levelo://app?vid=54afd193-ee95-4f5e-975a-c9018d9dcb98","ios":"levelo://app?vid=54afd193-ee95-4f5e-975a-c9018d9dcb98"},"vehicle_type_id":"4","last_reported":1741702209,"current_range_meters":7200,"station_id":"ce4bhsh2rcd13ifvqi2g","pricing_plan_id":"cebpf4jnsgd1na2vs0mg"},{"bike_id":"7cecce82-aef5-4c98-be0e-f1c5f315ee7b","system_id":"levelo_inurba_marseille","lat":43.30134,"lon":5.3988,"is_reserved":false,"is_disabled":false,"rental_uris":{"android":"levelo://app?vid=7cecce82-aef5-4c98-be0e-f1c5f315ee7b","ios":"levelo://app?vid=7cecce82-aef5-4c98-be0e-f1c5f315ee7b"},"vehicle_type_id":"4","last_reported":1741702209,"current_range_meters":7200,"station_id":"ce4bh0h2rcd13ifvqd40","pricing_plan_id":"cebpf4jnsgd1na2vs0mg"},{"bike_id":"c86d68f5-55ee-4a68-ba82-758fa1373f1d","system_id":"levelo_inurba_marseille","lat":43.3171,"lon":5.43696,"is_reserved":false,"is_disabled":false,"rental_uris":{"android":"levelo://app?vid=c86d68f5-55ee-4a68-ba82-758fa1373f1d","ios":"levelo://app?vid=c86d68f5-55ee-4a68-ba82-758fa1373f1d"},"vehicle_type_id":"4","last_reported":1741702209,"current_range_meters":8000,"station_id":"ce4bhp92rcd13ifvqhcg","pricing_plan_id":"cebpf4jnsgd1na2vs0mg"},{"bike_id":"f6e5f833-2a81-46fa-9e20-7a1622e08d14","system_id":"levelo_inurba_marseille","lat":43.26557,"lon":5.37284,"is_reserved":false,"is_disabled":false,"rental_uris":{"android":"levelo://app?vid=f6e5f833-2a81-46fa-9e20-7a1622e08d14","ios":"levelo://app?vid=f6e5f833-2a81-46fa-9e20-7a1622e08d14"},"vehicle_type_id":"4","last_reported":1741702209,"current_range_meters":8000,"station_id":"ce4bhg12rcd13ifvqf70","pricing_plan_id":"cebpf4jnsgd1na2vs0mg"},{"bike_id":"cbd6f8ee-d91a-4c06-a50f-8aefa40d8ceb","system_id":"levelo_inurba_marseille","lat":43.29898,"lon":5.43664,"is_reserved":false,"is_disabled":false,"rental_uris":{"android":"levelo://app?vid=cbd6f8ee-d91a-4c06-a50f-8aefa40d8ceb","ios":"levelo://app?vid=cbd6f8ee-d91a-4c06-a50f-8aefa40d8ceb"},"vehicle_type_id":"4","last_reported":1741702209,"current_range_meters":8000,"station_id":"ce4bhpp2rcd13ifvqhfg","pricing_plan_id":"cebpf4jnsgd1na2vs0mg"},{"bike_id":"9d410888-5b43-43fc-9107-db7cb5fff0b1","system_id":"levelo_inurba_marseille","lat":43.31213,"lon":5.36888,"is_reserved":false,"is_disabled":false,"rental_uris":{"android":"levelo://app?vid=9d410888-5b43-43fc-9107-db7cb5fff0b1","ios":"levelo://app?vid=9d410888-5b43-43fc-9107-db7cb5fff0b1"},"vehicle_type_id":"4","last_reported":1741702209,"current_range_meters":8000,"station_id":"ce4bgl92rcd13ifvqbq0","pricing_plan_id":"cebpf4jnsgd1na2vs0mg"},{"bike_id":"27a81ae8-2db8-457f-b320-1ad76b2c0006","system_id":"levelo_inurba_marseille","lat":43.2841,"lon":5.37521,"is_reserved":false,"is_disabled":false,"rental_uris":{"android":"levelo://app?vid=27a81ae8-2db8-457f-b320-1ad76b2c0006","ios":"levelo://app?vid=27a81ae8-2db8-457f-b320-1ad76b2c0006"},"vehicle_type_id":"4","last_reported":1741702209,"current_range_meters":8000,"station_id":"ce4bh412rcd13ifvqds0","pricing_plan_id":"cebpf4jnsgd1na2vs0mg"},{"bike_id":"4f0370e9-4ecb-48a3-a3dc-47efe18ea0f8","system_id":"levelo_inurba_marseille","lat":43.27492,"lon":5.42457,"is_reserved":false,"is_disabled":false,"rental_uris":{"android":"levelo://app?vid=4f0370e9-4ecb-48a3-a3dc-47efe18ea0f8","ios":"levelo://app?vid=4f0370e9-4ecb-48a3-a3dc-47efe18ea0f8"},"vehicle_type_id":"4","last_reported":1741702209,"current_range_meters":8000,"station_id":"ce4bhn92rcd13ifvqgrg","pricing_plan_id":"cebpf4jnsgd1na2vs0mg"},{"bike_id":"e3baacf6-55c8-4579-a42b-05afbe5b73a2","system_id":"levelo_inurba_marseille","lat":43.29096,"lon":5.38142,"is_reserved":false,"is_disabled":false,"rental_uris":{"android":"levelo://app?vid=e3baacf6-55c8-4579-a42b-05afbe5b73a2","ios":"levelo://app?vid=e3baacf6-55c8-4579-a42b-05afbe5b73a2"},"vehicle_type_id":"4","last_reported":1741702209,"current_range_meters":8400,"station_id":"ce4bh512rcd13ifvqe2g","pricing_plan_id":"cebpf4jnsgd1na2vs0mg"},{"bike_id":"8dc2c2dc-de0f-4fd2-b739-faf253fff5e5","system_id":"levelo_inurba_marseille","lat":43.23137,"lon":5.43723,"is_reserved":false,"is_disabled":false,"rental_uris":{"android":"levelo://app?vid=8dc2c2dc-de0f-4fd2-b739-faf253fff5e5","ios":"levelo://app?vid=8dc2c2dc-de0f-4fd2-b739-faf253fff5e5"},"vehicle_type_id":"4","last_reported":1741702209,"current_range_meters":8400,"station_id":"ce4bhmp2rcd13ifvqgog","pricing_plan_id":"cebpf4jnsgd1na2vs0mg"},{"bike_id":"adfd359d-2dee-4c20-83a0-584ec5b6059b","system_id":"levelo_inurba_marseille","lat":43.30221,"lon":5.3948,"is_reserved":false,"is_disabled":false,"rental_uris":{"android":"levelo://app?vid=adfd359d-2dee-4c20-83a0-584ec5b6059b","ios":"levelo://app?vid=adfd359d-2dee-4c20-83a0-584ec5b6059b"},"vehicle_type_id":"4","last_reported":1741702209,"current_range_meters":8400,"station_id":"ce4bh0p2rcd13ifvqd70","pricing_plan_id":"cebpf4jnsgd1na2vs0mg"},{"bike_id":"15e74b16-5d2e-47fd-9cbd-c8ed22a04a66","system_id":"levelo_inurba_marseille","lat":43.28714,"lon":5.37935,"is_reserved":false,"is_disabled":false,"rental_uris":{"android":"levelo://app?vid=15e74b16-5d2e-47fd-9cbd-c8ed22a04a66","ios":"levelo://app?vid=15e74b16-5d2e-47fd-9cbd-c8ed22a04a66"},"vehicle_type_id":"4","last_reported":1741702209,"current_range_meters":8400,"station_id":"ce4bh9p2rcd13ifvqec0","pricing_plan_id":"cebpf4jnsgd1na2vs0mg"},{"bike_id":"09bbb690-af86-458c-bbad-70d10e2033ee","system_id":"levelo_inurba_marseille","lat":43.23065,"lon":5.35501,"is_reserved":false,"is_disabled":false,"rental_uris":{"android":"levelo://app?vid=09bbb690-af86-458c-bbad-70d10e2033ee","ios":"levelo://app?vid=09bbb690-af86-458c-bbad-70d10e2033ee"},"vehicle_type_id":"4","last_reported":1741702209,"current_range_meters":8400,"station_id":"cpo3342slgdg3j2ifvpg","pricing_plan_id":"cebpf4jnsgd1na2vs0mg"},{"bike_id":"9cd8ccf2-616c-44cd-8c19-24777655c8a9","system_id":"levelo_inurba_marseille","lat":43.28109,"lon":5.37833,"is_reserved":false,"is_disabled":false,"rental_uris":{"android":"levelo://app?vid=9cd8ccf2-616c-44cd-8c19-24777655c8a9","ios":"levelo://app?vid=9cd8ccf2-616c-44cd-8c19-24777655c8a9"},"vehicle_type_id":"4","last_reported":1741702209,"current_range_meters":8400,"station_id":"ce4bha12rcd13ifvqee0","pricing_plan_id":"cebpf4jnsgd1na2vs0mg"},{"bike_id":"e6bfedde-b8d3-483f-9c12-e45beb87d7c9","system_id":"levelo_inurba_marseille","lat":43.23148,"lon":5.43718,"is_reserved":false,"is_disabled":false,"rental_uris":{"android":"levelo://app?vid=e6bfedde-b8d3-483f-9c12-e45beb87d7c9","ios":"levelo://app?vid=e6bfedde-b8d3-483f-9c12-e45beb87d7c9"},"vehicle_type_id":"4","last_reported":1741702209,"current_range_meters":8400,"station_id":"ce4bhmp2rcd13ifvqgog","pricing_plan_id":"cebpf4jnsgd1na2vs0mg"},{"bike_id":"7967c65f-c8a6-43c6-9b08-5a1f5b9319e4","system_id":"levelo_inurba_marseille","lat":43.28617,"lon":5.3509,"is_reserved":false,"is_disabled":false,"rental_uris":{"android":"levelo://app?vid=7967c65f-c8a6-43c6-9b08-5a1f5b9319e4","ios":"levelo://app?vid=7967c65f-c8a6-43c6-9b08-5a1f5b9319e4"},"vehicle_type_id":"4","last_reported":1741702209,"current_range_meters":8400,"station_id":"ce4bhch2rcd13ifvqeug","pricing_plan_id":"cebpf4jnsgd1na2vs0mg"},{"bike_id":"acc1658b-7ea3-44a5-a65b-40f1faa0438d","system_id":"levelo_inurba_marseille","lat":43.32539,"lon":5.41487,"is_reserved":false,"is_disabled":false,"rental_uris":{"android":"levelo://app?vid=acc1658b-7ea3-44a5-a65b-40f1faa0438d","ios":"levelo://app?vid=acc1658b-7ea3-44a5-a65b-40f1faa0438d"},"vehicle_type_id":"4","last_reported":1741702209,"current_range_meters":8800,"station_id":"ce4bhq12rcd13ifvqhhg","pricing_plan_id":"cebpf4jnsgd1na2vs0mg"},{"bike_id":"e48e56d9-61a9-456b-b913-7e3385259a62","system_id":"levelo_inurba_marseille","lat":43.30785,"lon":5.37652,"is_reserved":false,"is_disabled":false,"rental_uris":{"android":"levelo://app?vid=e48e56d9-61a9-456b-b913-7e3385259a62","ios":"levelo://app?vid=e48e56d9-61a9-456b-b913-7e3385259a62"},"vehicle_type_id":"4","last_reported":1741702209,"current_range_meters":8800,"station_id":"ce4bgv92rcd13ifvqcq0","pricing_plan_id":"cebpf4jnsgd1na2vs0mg"},{"bike_id":"79f51b89-608d-42fc-9457-860b0569ad19","system_id":"levelo_inurba_marseille","lat":43.2841,"lon":5.37517,"is_reserved":false,"is_disabled":true,"rental_uris":{"android":"levelo://app?vid=79f51b89-608d-42fc-9457-860b0569ad19","ios":"levelo://app?vid=79f51b89-608d-42fc-9457-860b0569ad19"},"vehicle_type_id":"4","last_reported":1741702209,"current_range_meters":8800,"station_id":"ce4bh412rcd13ifvqds0","pricing_plan_id":"cebpf4jnsgd1na2vs0mg"},{"bike_id":"d4358009-e3a2-45e6-94b5-b3a1713e6221","system_id":"levelo_inurba_marseille","lat":43.27842,"lon":5.39205,"is_reserved":false,"is_disabled":false,"rental_uris":{"android":"levelo://app?vid=d4358009-e3a2-45e6-94b5-b3a1713e6221","ios":"levelo://app?vid=d4358009-e3a2-45e6-94b5-b3a1713e6221"},"vehicle_type_id":"4","last_reported":1741702209,"current_range_meters":8800,"station_id":"ce4bhjp2rcd13ifvqga0","pricing_plan_id":"cebpf4jnsgd1na2vs0mg"},{"bike_id":"a4aebd27-51a7-4d96-a29a-50e2f14eebd4","system_id":"levelo_inurba_marseille","lat":43.29792,"lon":5.39339,"is_reserved":false,"is_disabled":false,"rental_uris":{"android":"levelo://app?vid=a4aebd27-51a7-4d96-a29a-50e2f14eebd4","ios":"levelo://app?vid=a4aebd27-51a7-4d96-a29a-50e2f14eebd4"},"vehicle_type_id":"4","last_reported":1741702209,"current_range_meters":8800,"station_id":"chh1huq6cuj3fo74tm60","pricing_plan_id":"cebpf4jnsgd1na2vs0mg"},{"bike_id":"80771939-f406-42f7-81c5-33180fd8a338","system_id":"levelo_inurba_marseille","lat":43.23206,"lon":5.35527,"is_reserved":false,"is_disabled":false,"rental_uris":{"android":"levelo://app?vid=80771939-f406-42f7-81c5-33180fd8a338","ios":"levelo://app?vid=80771939-f406-42f7-81c5-33180fd8a338"},"vehicle_type_id":"4","last_reported":1741702209,"current_range_meters":8800,"station_id":"ce4bhu92rcd13ifvqi70","pricing_plan_id":"cebpf4jnsgd1na2vs0mg"},{"bike_id":"c1bda9e2-cfd4-46ef-b129-54b2ad3b2e00","system_id":"levelo_inurba_marseille","lat":43.2695,"lon":5.38635,"is_reserved":false,"is_disabled":false,"rental_uris":{"android":"levelo://app?vid=c1bda9e2-cfd4-46ef-b129-54b2ad3b2e00","ios":"levelo://app?vid=c1bda9e2-cfd4-46ef-b129-54b2ad3b2e00"},"vehicle_type_id":"4","last_reported":1741702209,"current_range_meters":8800,"station_id":"ce4bhh92rcd13ifvqfh0","pricing_plan_id":"cebpf4jnsgd1na2vs0mg"},{"bike_id":"f8772176-aecc-4b5f-8d3d-ee9a047cd9f4","system_id":"levelo_inurba_marseille","lat":43.29875,"lon":5.39729,"is_reserved":false,"is_disabled":false,"rental_uris":{"android":"levelo://app?vid=f8772176-aecc-4b5f-8d3d-ee9a047cd9f4","ios":"levelo://app?vid=f8772176-aecc-4b5f-8d3d-ee9a047cd9f4"},"vehicle_type_id":"4","last_reported":1741702209,"current_range_meters":8800,"station_id":"ce4bh0h2rcd13ifvqd50","pricing_plan_id":"cebpf4jnsgd1na2vs0mg"},{"bike_id":"c30a5f55-cc1b-4590-b8ef-3b9f2512cc45","system_id":"levelo_inurba_marseille","lat":43.26073,"lon":5.39394,"is_reserved":false,"is_disabled":false,"rental_uris":{"android":"levelo://app?vid=c30a5f55-cc1b-4590-b8ef-3b9f2512cc45","ios":"levelo://app?vid=c30a5f55-cc1b-4590-b8ef-3b9f2512cc45"},"vehicle_type_id":"4","last_reported":1741702209,"current_range_meters":9200,"station_id":"ce4bhh92rcd13ifvqfj0","pricing_plan_id":"cebpf4jnsgd1na2vs0mg"},{"bike_id":"a6907114-91e5-4406-958d-4b895c3084d0","system_id":"levelo_inurba_marseille","lat":43.29892,"lon":5.4367,"is_reserved":false,"is_disabled":false,"rental_uris":{"android":"levelo://app?vid=a6907114-91e5-4406-958d-4b895c3084d0","ios":"levelo://app?vid=a6907114-91e5-4406-958d-4b895c3084d0"},"vehicle_type_id":"4","last_reported":1741702209,"current_range_meters":9200,"station_id":"ce4bhpp2rcd13ifvqhfg","pricing_plan_id":"cebpf4jnsgd1na2vs0mg"},{"bike_id":"bcf2c972-114e-411f-8261-6e54fe7e5705","system_id":"levelo_inurba_marseille","lat":43.28157,"lon":5.42637,"is_reserved":false,"is_disabled":false,"rental_uris":{"android":"levelo://app?vid=bcf2c972-114e-411f-8261-6e54fe7e5705","ios":"levelo://app?vid=bcf2c972-114e-411f-8261-6e54fe7e5705"},"vehicle_type_id":"4","last_reported":1741702209,"current_range_meters":9200,"station_id":"ce4bhnh2rcd13ifvqgug","pricing_plan_id":"cebpf4jnsgd1na2vs0mg"},{"bike_id":"1a589cdc-e7df-433b-a856-feb2242273ae","system_id":"levelo_inurba_marseille","lat":43.31226,"lon":5.36874,"is_reserved":false,"is_disabled":false,"rental_uris":{"android":"levelo://app?vid=1a589cdc-e7df-433b-a856-feb2242273ae","ios":"levelo://app?vid=1a589cdc-e7df-433b-a856-feb2242273ae"},"vehicle_type_id":"4","last_reported":1741702209,"current_range_meters":9200,"station_id":"ce4bgl92rcd13ifvqbq0","pricing_plan_id":"cebpf4jnsgd1na2vs0mg"},{"bike_id":"6ccdf2f5-414f-41cc-bb56-6956a18cbb51","system_id":"levelo_inurba_marseille","lat":43.26769,"lon":5.39422,"is_reserved":false,"is_disabled":false,"rental_uris":{"android":"levelo://app?vid=6ccdf2f5-414f-41cc-bb56-6956a18cbb51","ios":"levelo://app?vid=6ccdf2f5-414f-41cc-bb56-6956a18cbb51"},"vehicle_type_id":"4","last_reported":1741702209,"current_range_meters":9200,"station_id":"ce4bhh12rcd13ifvqfg0","pricing_plan_id":"cebpf4jnsgd1na2vs0mg"},{"bike_id":"ffb286e2-62fa-45b6-a590-5e88edf52383","system_id":"levelo_inurba_marseille","lat":43.29294,"lon":5.37446,"is_reserved":false,"is_disabled":false,"rental_uris":{"android":"levelo://app?vid=ffb286e2-62fa-45b6-a590-5e88edf52383","ios":"levelo://app?vid=ffb286e2-62fa-45b6-a590-5e88edf52383"},"vehicle_type_id":"4","last_reported":1741702209,"current_range_meters":9600,"station_id":"","pricing_plan_id":"cebpf4jnsgd1na2vs0mg"},{"bike_id":"0d9431e1-f868-427a-acb7-8ddd048ba317","system_id":"levelo_inurba_marseille","lat":43.29857,"lon":5.36272,"is_reserved":false,"is_disabled":false,"rental_uris":{"android":"levelo://app?vid=0d9431e1-f868-427a-acb7-8ddd048ba317","ios":"levelo://app?vid=0d9431e1-f868-427a-acb7-8ddd048ba317"},"vehicle_type_id":"4","last_reported":1741702209,"current_range_meters":9600,"station_id":"ce4bgpp2rcd13ifvqc3g","pricing_plan_id":"cebpf4jnsgd1na2vs0mg"},{"bike_id":"58d1b5b3-d322-4418-97d0-3066ec3d9afc","system_id":"levelo_inurba_marseille","lat":43.23204,"lon":5.35548,"is_reserved":false,"is_disabled":false,"rental_uris":{"android":"levelo://app?vid=58d1b5b3-d322-4418-97d0-3066ec3d9afc","ios":"levelo://app?vid=58d1b5b3-d322-4418-97d0-3066ec3d9afc"},"vehicle_type_id":"4","last_reported":1741702209,"current_range_meters":9600,"station_id":"ce4bhu92rcd13ifvqi70","pricing_plan_id":"cebpf4jnsgd1na2vs0mg"},{"bike_id":"b9680ac6-d12e-4a12-9dd8-1396db5e067b","system_id":"levelo_inurba_marseille","lat":43.231525,"lon":5.43701,"is_reserved":false,"is_disabled":false,"rental_uris":{"android":"levelo://app?vid=b9680ac6-d12e-4a12-9dd8-1396db5e067b","ios":"levelo://app?vid=b9680ac6-d12e-4a12-9dd8-1396db5e067b"},"vehicle_type_id":"4","last_reported":1741702209,"current_range_meters":10000,"station_id":"ce4bhmp2rcd13ifvqgog","pricing_plan_id":"cebpf4jnsgd1na2vs0mg"},{"bike_id":"bfe76b26-4cce-4a8d-8e2e-190cbae21f24","system_id":"levelo_inurba_marseille","lat":43.271881,"lon":5.409905,"is_reserved":false,"is_disabled":false,"rental_uris":{"android":"levelo://app?vid=bfe76b26-4cce-4a8d-8e2e-190cbae21f24","ios":"levelo://app?vid=bfe76b26-4cce-4a8d-8e2e-190cbae21f24"},"vehicle_type_id":"4","last_reported":1741702209,"current_range_meters":10000,"station_id":"ce4bhl12rcd13ifvqgf0","pricing_plan_id":"cebpf4jnsgd1na2vs0mg"},{"bike_id":"c835eee2-01bf-4ff1-a164-4c90e0a065d9","system_id":"levelo_inurba_marseille","lat":43.25009,"lon":5.38938,"is_reserved":false,"is_disabled":false,"rental_uris":{"android":"levelo://app?vid=c835eee2-01bf-4ff1-a164-4c90e0a065d9","ios":"levelo://app?vid=c835eee2-01bf-4ff1-a164-4c90e0a065d9"},"vehicle_type_id":"4","last_reported":1741702209,"current_range_meters":10000,"station_id":"ce4bhgp2rcd13ifvqfd0","pricing_plan_id":"cebpf4jnsgd1na2vs0mg"},{"bike_id":"f640465e-8c9e-425a-8e36-08d8d5201bf6","system_id":"levelo_inurba_marseille","lat":43.2319,"lon":5.35548,"is_reserved":false,"is_disabled":false,"rental_uris":{"android":"levelo://app?vid=f640465e-8c9e-425a-8e36-08d8d5201bf6","ios":"levelo://app?vid=f640465e-8c9e-425a-8e36-08d8d5201bf6"},"vehicle_type_id":"4","last_reported":1741702209,"current_range_meters":10000,"station_id":"ce4bhu92rcd13ifvqi70","pricing_plan_id":"cebpf4jnsgd1na2vs0mg"},{"bike_id":"6443b02f-22ef-45d3-b61b-24a41c747b79","system_id":"levelo_inurba_marseille","lat":43.28938,"lon":5.36621,"is_reserved":false,"is_disabled":false,"rental_uris":{"android":"levelo://app?vid=6443b02f-22ef-45d3-b61b-24a41c747b79","ios":"levelo://app?vid=6443b02f-22ef-45d3-b61b-24a41c747b79"},"vehicle_type_id":"4","last_reported":1741702209,"current_range_meters":10800,"station_id":"ce4bhap2rcd13ifvqek0","pricing_plan_id":"cebpf4jnsgd1na2vs0mg"},{"bike_id":"fcdbd6fd-a307-4567-97ce-0c574afc5fbc","system_id":"levelo_inurba_marseille","lat":43.28472,"lon":5.39433,"is_reserved":false,"is_disabled":false,"rental_uris":{"android":"levelo://app?vid=fcdbd6fd-a307-4567-97ce-0c574afc5fbc","ios":"levelo://app?vid=fcdbd6fd-a307-4567-97ce-0c574afc5fbc"},"vehicle_type_id":"4","last_reported":1741702209,"current_range_meters":10800,"station_id":"ce4bh292rcd13ifvqdg0","pricing_plan_id":"cebpf4jnsgd1na2vs0mg"},{"bike_id":"c66cc751-cdfa-4024-91c9-be58dad0ac0d","system_id":"levelo_inurba_marseille","lat":43.27497,"lon":5.42452,"is_reserved":false,"is_disabled":false,"rental_uris":{"android":"levelo://app?vid=c66cc751-cdfa-4024-91c9-be58dad0ac0d","ios":"levelo://app?vid=c66cc751-cdfa-4024-91c9-be58dad0ac0d"},"vehicle_type_id":"4","last_reported":1741702209,"current_range_meters":10800,"station_id":"ce4bhn92rcd13ifvqgrg","pricing_plan_id":"cebpf4jnsgd1na2vs0mg"},{"bike_id":"8b247aa2-93c4-4945-a3c3-e200b81b95a3","system_id":"levelo_inurba_marseille","lat":43.32373,"lon":5.38876,"is_reserved":false,"is_disabled":false,"rental_uris":{"android":"levelo://app?vid=8b247aa2-93c4-4945-a3c3-e200b81b95a3","ios":"levelo://app?vid=8b247aa2-93c4-4945-a3c3-e200b81b95a3"},"vehicle_type_id":"4","last_reported":1741702209,"current_range_meters":10800,"station_id":"ce4bhqp2rcd13ifvqhog","pricing_plan_id":"cebpf4jnsgd1na2vs0mg"},{"bike_id":"edb3920a-fcef-42b0-96fd-39dcdda2a77b","system_id":"levelo_inurba_marseille","lat":43.27496,"lon":5.42452,"is_reserved":false,"is_disabled":false,"rental_uris":{"android":"levelo://app?vid=edb3920a-fcef-42b0-96fd-39dcdda2a77b","ios":"levelo://app?vid=edb3920a-fcef-42b0-96fd-39dcdda2a77b"},"vehicle_type_id":"4","last_reported":1741702209,"current_range_meters":10800,"station_id":"ce4bhn92rcd13ifvqgrg","pricing_plan_id":"cebpf4jnsgd1na2vs0mg"},{"bike_id":"bf2feb02-4272-4476-92f9-9420844c4078","system_id":"levelo_inurba_marseille","lat":43.31083,"lon":5.37512,"is_reserved":false,"is_disabled":false,"rental_uris":{"android":"levelo://app?vid=bf2feb02-4272-4476-92f9-9420844c4078","ios":"levelo://app?vid=bf2feb02-4272-4476-92f9-9420844c4078"},"vehicle_type_id":"4","last_reported":1741702209,"current_range_meters":10800,"station_id":"","pricing_plan_id":"cebpf4jnsgd1na2vs0mg"},{"bike_id":"415e7a31-245d-4ead-9f33-dad092a04302","system_id":"levelo_inurba_marseille","lat":43.23068,"lon":5.35482,"is_reserved":false,"is_disabled":false,"rental_uris":{"android":"levelo://app?vid=415e7a31-245d-4ead-9f33-dad092a04302","ios":"levelo://app?vid=415e7a31-245d-4ead-9f33-dad092a04302"},"vehicle_type_id":"4","last_reported":1741702209,"current_range_meters":11200,"station_id":"cpo3342slgdg3j2ifvpg","pricing_plan_id":"cebpf4jnsgd1na2vs0mg"},{"bike_id":"51bead88-7696-4efb-9522-148994f0510e","system_id":"levelo_inurba_marseille","lat":43.32539,"lon":5.41454,"is_reserved":false,"is_disabled":false,"rental_uris":{"android":"levelo://app?vid=51bead88-7696-4efb-9522-148994f0510e","ios":"levelo://app?vid=51bead88-7696-4efb-9522-148994f0510e"},"vehicle_type_id":"4","last_reported":1741702209,"current_range_meters":11200,"station_id":"ce4bhq12rcd13ifvqhhg","pricing_plan_id":"cebpf4jnsgd1na2vs0mg"},{"bike_id":"85f00b2d-76d2-472d-8f9a-66085d50506c","system_id":"levelo_inurba_marseille","lat":43.29228,"lon":5.36062,"is_reserved":false,"is_disabled":false,"rental_uris":{"android":"levelo://app?vid=85f00b2d-76d2-472d-8f9a-66085d50506c","ios":"levelo://app?vid=85f00b2d-76d2-472d-8f9a-66085d50506c"},"vehicle_type_id":"4","last_reported":1741702209,"current_range_meters":11200,"station_id":"ce4bhbh2rcd13ifvqeqg","pricing_plan_id":"cebpf4jnsgd1na2vs0mg"},{"bike_id":"b146f5c4-1e39-47d2-91e5-727e395dcaf0","system_id":"levelo_inurba_marseille","lat":43.25934,"lon":5.40907,"is_reserved":false,"is_disabled":false,"rental_uris":{"android":"levelo://app?vid=b146f5c4-1e39-47d2-91e5-727e395dcaf0","ios":"levelo://app?vid=b146f5c4-1e39-47d2-91e5-727e395dcaf0"},"vehicle_type_id":"4","last_reported":1741702209,"current_range_meters":11200,"station_id":"ce4bhm92rcd13ifvqglg","pricing_plan_id":"cebpf4jnsgd1na2vs0mg"},{"bike_id":"69af4c50-9077-436a-8c73-2ffdc4c386f1","system_id":"levelo_inurba_marseille","lat":43.24184,"lon":5.39735,"is_reserved":false,"is_disabled":false,"rental_uris":{"android":"levelo://app?vid=69af4c50-9077-436a-8c73-2ffdc4c386f1","ios":"levelo://app?vid=69af4c50-9077-436a-8c73-2ffdc4c386f1"},"vehicle_type_id":"4","last_reported":1741702209,"current_range_meters":11200,"station_id":"ce4bhn12rcd13ifvqgpg","pricing_plan_id":"cebpf4jnsgd1na2vs0mg"},{"bike_id":"9acab34d-76c9-4fd5-bed6-0265a89df8bb","system_id":"levelo_inurba_marseille","lat":43.25743,"lon":5.4111,"is_reserved":false,"is_disabled":false,"rental_uris":{"android":"levelo://app?vid=9acab34d-76c9-4fd5-bed6-0265a89df8bb","ios":"levelo://app?vid=9acab34d-76c9-4fd5-bed6-0265a89df8bb"},"vehicle_type_id":"4","last_reported":1741702209,"current_range_meters":11200,"station_id":"ce4bhkp2rcd13ifvqgd0","pricing_plan_id":"cebpf4jnsgd1na2vs0mg"},{"bike_id":"4f4b5ef4-acef-44eb-8850-c3fc7f77be7b","system_id":"levelo_inurba_marseille","lat":43.27819,"lon":5.40715,"is_reserved":false,"is_disabled":false,"rental_uris":{"android":"levelo://app?vid=4f4b5ef4-acef-44eb-8850-c3fc7f77be7b","ios":"levelo://app?vid=4f4b5ef4-acef-44eb-8850-c3fc7f77be7b"},"vehicle_type_id":"4","last_reported":1741702209,"current_range_meters":11200,"station_id":"ce4bhnh2rcd13ifvqgtg","pricing_plan_id":"cebpf4jnsgd1na2vs0mg"},{"bike_id":"36cb524c-1b80-40c5-a077-8069e8df473d","system_id":"levelo_inurba_marseille","lat":43.29796,"lon":5.38104,"is_reserved":false,"is_disabled":false,"rental_uris":{"android":"levelo://app?vid=36cb524c-1b80-40c5-a077-8069e8df473d","ios":"levelo://app?vid=36cb524c-1b80-40c5-a077-8069e8df473d"},"vehicle_type_id":"4","last_reported":1741702209,"current_range_meters":11200,"station_id":"ce4bgip2rcd13ifvqbb0","pricing_plan_id":"cebpf4jnsgd1na2vs0mg"},{"bike_id":"e71ac1a8-4774-47aa-8382-83aa2d120751","system_id":"levelo_inurba_marseille","lat":43.2981,"lon":5.38126,"is_reserved":false,"is_disabled":false,"rental_uris":{"android":"levelo://app?vid=e71ac1a8-4774-47aa-8382-83aa2d120751","ios":"levelo://app?vid=e71ac1a8-4774-47aa-8382-83aa2d120751"},"vehicle_type_id":"4","last_reported":1741702209,"current_range_meters":11200,"station_id":"ce4bgip2rcd13ifvqbb0","pricing_plan_id":"cebpf4jnsgd1na2vs0mg"},{"bike_id":"602d068b-17ec-4c43-a941-51f4b635d1bf","system_id":"levelo_inurba_marseille","lat":43.2591,"lon":5.40896,"is_reserved":false,"is_disabled":false,"rental_uris":{"android":"levelo://app?vid=602d068b-17ec-4c43-a941-51f4b635d1bf","ios":"levelo://app?vid=602d068b-17ec-4c43-a941-51f4b635d1bf"},"vehicle_type_id":"4","last_reported":1741702209,"current_range_meters":11200,"station_id":"ce4bhm92rcd13ifvqglg","pricing_plan_id":"cebpf4jnsgd1na2vs0mg"},{"bike_id":"2f72571f-91af-499e-8005-1984eb825b89","system_id":"levelo_inurba_marseille","lat":43.29309,"lon":5.37454,"is_reserved":false,"is_disabled":false,"rental_uris":{"android":"levelo://app?vid=2f72571f-91af-499e-8005-1984eb825b89","ios":"levelo://app?vid=2f72571f-91af-499e-8005-1984eb825b89"},"vehicle_type_id":"4","last_reported":1741702209,"current_range_meters":11600,"station_id":"ce4bgi12rcd13ifvqb70","pricing_plan_id":"cebpf4jnsgd1na2vs0mg"},{"bike_id":"aa6a8059-7215-46f8-9114-165b688ed82b","system_id":"levelo_inurba_marseille","lat":43.27836,"lon":5.39214,"is_reserved":false,"is_disabled":false,"rental_uris":{"android":"levelo://app?vid=aa6a8059-7215-46f8-9114-165b688ed82b","ios":"levelo://app?vid=aa6a8059-7215-46f8-9114-165b688ed82b"},"vehicle_type_id":"4","last_reported":1741702209,"current_range_meters":11600,"station_id":"ce4bhjp2rcd13ifvqga0","pricing_plan_id":"cebpf4jnsgd1na2vs0mg"},{"bike_id":"fb629ba8-b376-4f9a-a280-fa2aa29efcd1","system_id":"levelo_inurba_marseille","lat":43.29853,"lon":5.36272,"is_reserved":false,"is_disabled":false,"rental_uris":{"android":"levelo://app?vid=fb629ba8-b376-4f9a-a280-fa2aa29efcd1","ios":"levelo://app?vid=fb629ba8-b376-4f9a-a280-fa2aa29efcd1"},"vehicle_type_id":"4","last_reported":1741702209,"current_range_meters":11600,"station_id":"ce4bgpp2rcd13ifvqc3g","pricing_plan_id":"cebpf4jnsgd1na2vs0mg"},{"bike_id":"716492ae-81b6-4ed5-8177-f4759b370b67","system_id":"levelo_inurba_marseille","lat":43.28147,"lon":5.42657,"is_reserved":false,"is_disabled":false,"rental_uris":{"android":"levelo://app?vid=716492ae-81b6-4ed5-8177-f4759b370b67","ios":"levelo://app?vid=716492ae-81b6-4ed5-8177-f4759b370b67"},"vehicle_type_id":"4","last_reported":1741702209,"current_range_meters":11600,"station_id":"ce4bhnh2rcd13ifvqgug","pricing_plan_id":"cebpf4jnsgd1na2vs0mg"},{"bike_id":"e19127be-c06f-4480-92e3-147fb2d71cc2","system_id":"levelo_inurba_marseille","lat":43.30094,"lon":5.39074,"is_reserved":false,"is_disabled":false,"rental_uris":{"android":"levelo://app?vid=e19127be-c06f-4480-92e3-147fb2d71cc2","ios":"levelo://app?vid=e19127be-c06f-4480-92e3-147fb2d71cc2"},"vehicle_type_id":"4","last_reported":1741702209,"current_range_meters":12400,"station_id":"ce4bh192rcd13ifvqdb0","pricing_plan_id":"cebpf4jnsgd1na2vs0mg"},{"bike_id":"228482f1-6808-4ced-8b21-3f22c088c97f","system_id":"levelo_inurba_marseille","lat":43.2819,"lon":5.40233,"is_reserved":false,"is_disabled":false,"rental_uris":{"android":"levelo://app?vid=228482f1-6808-4ced-8b21-3f22c088c97f","ios":"levelo://app?vid=228482f1-6808-4ced-8b21-3f22c088c97f"},"vehicle_type_id":"4","last_reported":1741702209,"current_range_meters":11600,"station_id":"","pricing_plan_id":"cebpf4jnsgd1na2vs0mg"},{"bike_id":"7383ab11-8a2a-4b64-816e-55818da3d76c","system_id":"levelo_inurba_marseille","lat":43.29638,"lon":5.37737,"is_reserved":false,"is_disabled":false,"rental_uris":{"android":"levelo://app?vid=7383ab11-8a2a-4b64-816e-55818da3d76c","ios":"levelo://app?vid=7383ab11-8a2a-4b64-816e-55818da3d76c"},"vehicle_type_id":"4","last_reported":1741702209,"current_range_meters":12400,"station_id":"ce4bgi92rcd13ifvqb90","pricing_plan_id":"cebpf4jnsgd1na2vs0mg"},{"bike_id":"fc45885e-ad11-4aa4-9560-a9bc49e3a59c","system_id":"levelo_inurba_marseille","lat":43.24668,"lon":5.38164,"is_reserved":false,"is_disabled":false,"rental_uris":{"android":"levelo://app?vid=fc45885e-ad11-4aa4-9560-a9bc49e3a59c","ios":"levelo://app?vid=fc45885e-ad11-4aa4-9560-a9bc49e3a59c"},"vehicle_type_id":"4","last_reported":1741702209,"current_range_meters":12000,"station_id":"ce4bhih2rcd13ifvqfr0","pricing_plan_id":"cebpf4jnsgd1na2vs0mg"},{"bike_id":"f1a81e40-e9a8-45e7-bd37-da1fca8494f2","system_id":"levelo_inurba_marseille","lat":43.30552,"lon":5.36544,"is_reserved":false,"is_disabled":false,"rental_uris":{"android":"levelo://app?vid=f1a81e40-e9a8-45e7-bd37-da1fca8494f2","ios":"levelo://app?vid=f1a81e40-e9a8-45e7-bd37-da1fca8494f2"},"vehicle_type_id":"4","last_reported":1741702209,"current_range_meters":12000,"station_id":"ce4bgs12rcd13ifvqcag","pricing_plan_id":"cebpf4jnsgd1na2vs0mg"},{"bike_id":"bf431789-d89e-470f-bc03-eaa828c0427b","system_id":"levelo_inurba_marseille","lat":43.32533,"lon":5.41474,"is_reserved":false,"is_disabled":false,"rental_uris":{"android":"levelo://app?vid=bf431789-d89e-470f-bc03-eaa828c0427b","ios":"levelo://app?vid=bf431789-d89e-470f-bc03-eaa828c0427b"},"vehicle_type_id":"4","last_reported":1741702209,"current_range_meters":12000,"station_id":"ce4bhq12rcd13ifvqhhg","pricing_plan_id":"cebpf4jnsgd1na2vs0mg"},{"bike_id":"2931d81f-abb3-45b8-9224-dc3fce2fae31","system_id":"levelo_inurba_marseille","lat":43.3237,"lon":5.36763,"is_reserved":false,"is_disabled":false,"rental_uris":{"android":"levelo://app?vid=2931d81f-abb3-45b8-9224-dc3fce2fae31","ios":"levelo://app?vid=2931d81f-abb3-45b8-9224-dc3fce2fae31"},"vehicle_type_id":"4","last_reported":1741702209,"current_range_meters":12000,"station_id":"ce4bhsh2rcd13ifvqi2g","pricing_plan_id":"cebpf4jnsgd1na2vs0mg"},{"bike_id":"4b19b6d9-fe46-44e6-8c71-98c5b5e0fc06","system_id":"levelo_inurba_marseille","lat":43.27654,"lon":5.38919,"is_reserved":false,"is_disabled":false,"rental_uris":{"android":"levelo://app?vid=4b19b6d9-fe46-44e6-8c71-98c5b5e0fc06","ios":"levelo://app?vid=4b19b6d9-fe46-44e6-8c71-98c5b5e0fc06"},"vehicle_type_id":"4","last_reported":1741702209,"current_range_meters":12800,"station_id":"ce4bhi12rcd13ifvqfo0","pricing_plan_id":"cebpf4jnsgd1na2vs0mg"},{"bike_id":"a1a61f35-c835-4ebd-8124-f5eb60ba2e4c","system_id":"levelo_inurba_marseille","lat":43.27208,"lon":5.39197,"is_reserved":false,"is_disabled":false,"rental_uris":{"android":"levelo://app?vid=a1a61f35-c835-4ebd-8124-f5eb60ba2e4c","ios":"levelo://app?vid=a1a61f35-c835-4ebd-8124-f5eb60ba2e4c"},"vehicle_type_id":"4","last_reported":1741702209,"current_range_meters":12000,"station_id":"ce4bhhp2rcd13ifvqfm0","pricing_plan_id":"cebpf4jnsgd1na2vs0mg"},{"bike_id":"132d16ce-ae64-4e50-b6b7-8e1ec220cc55","system_id":"levelo_inurba_marseille","lat":43.3014,"lon":5.39882,"is_reserved":false,"is_disabled":false,"rental_uris":{"android":"levelo://app?vid=132d16ce-ae64-4e50-b6b7-8e1ec220cc55","ios":"levelo://app?vid=132d16ce-ae64-4e50-b6b7-8e1ec220cc55"},"vehicle_type_id":"4","last_reported":1741702209,"current_range_meters":12400,"station_id":"ce4bh0h2rcd13ifvqd40","pricing_plan_id":"cebpf4jnsgd1na2vs0mg"},{"bike_id":"1fe58056-11e6-4165-86f6-583fccec9c03","system_id":"levelo_inurba_marseille","lat":43.29261,"lon":5.38439,"is_reserved":false,"is_disabled":false,"rental_uris":{"android":"levelo://app?vid=1fe58056-11e6-4165-86f6-583fccec9c03","ios":"levelo://app?vid=1fe58056-11e6-4165-86f6-583fccec9c03"},"vehicle_type_id":"4","last_reported":1741702209,"current_range_meters":12400,"station_id":"ce4bh692rcd13ifvqea0","pricing_plan_id":"cebpf4jnsgd1na2vs0mg"},{"bike_id":"18805641-1442-4977-b3a8-2a34b37bc787","system_id":"levelo_inurba_marseille","lat":43.28938,"lon":5.36638,"is_reserved":false,"is_disabled":false,"rental_uris":{"android":"levelo://app?vid=18805641-1442-4977-b3a8-2a34b37bc787","ios":"levelo://app?vid=18805641-1442-4977-b3a8-2a34b37bc787"},"vehicle_type_id":"4","last_reported":1741702209,"current_range_meters":13600,"station_id":"ce4bhap2rcd13ifvqek0","pricing_plan_id":"cebpf4jnsgd1na2vs0mg"},{"bike_id":"0b244dd2-03ae-4f3b-a114-b8a9401f7027","system_id":"levelo_inurba_marseille","lat":43.29601,"lon":5.38105,"is_reserved":false,"is_disabled":false,"rental_uris":{"android":"levelo://app?vid=0b244dd2-03ae-4f3b-a114-b8a9401f7027","ios":"levelo://app?vid=0b244dd2-03ae-4f3b-a114-b8a9401f7027"},"vehicle_type_id":"4","last_reported":1741702209,"current_range_meters":12400,"station_id":"ce4bgl12rcd13ifvqbo0","pricing_plan_id":"cebpf4jnsgd1na2vs0mg"},{"bike_id":"cd5b2799-bc30-4344-ac6d-e0d61f27b5a0","system_id":"levelo_inurba_marseille","lat":43.2904,"lon":5.37578,"is_reserved":false,"is_disabled":false,"rental_uris":{"android":"levelo://app?vid=cd5b2799-bc30-4344-ac6d-e0d61f27b5a0","ios":"levelo://app?vid=cd5b2799-bc30-4344-ac6d-e0d61f27b5a0"},"vehicle_type_id":"4","last_reported":1741702209,"current_range_meters":12400,"station_id":"ce4bh692rcd13ifvqe90","pricing_plan_id":"cebpf4jnsgd1na2vs0mg"},{"bike_id":"29a2eadf-a51e-4030-aaa6-2edfad4c2148","system_id":"levelo_inurba_marseille","lat":43.28474,"lon":5.35897,"is_reserved":false,"is_disabled":true,"rental_uris":{"android":"levelo://app?vid=29a2eadf-a51e-4030-aaa6-2edfad4c2148","ios":"levelo://app?vid=29a2eadf-a51e-4030-aaa6-2edfad4c2148"},"vehicle_type_id":"4","last_reported":1741702209,"current_range_meters":12400,"station_id":"ce4bhah2rcd13ifvqei0","pricing_plan_id":"cebpf4jnsgd1na2vs0mg"},{"bike_id":"ebdc0adc-86d4-4882-8983-2d6c86413625","system_id":"levelo_inurba_marseille","lat":43.23164,"lon":5.43714,"is_reserved":false,"is_disabled":false,"rental_uris":{"android":"levelo://app?vid=ebdc0adc-86d4-4882-8983-2d6c86413625","ios":"levelo://app?vid=ebdc0adc-86d4-4882-8983-2d6c86413625"},"vehicle_type_id":"4","last_reported":1741702209,"current_range_meters":12400,"station_id":"ce4bhmp2rcd13ifvqgog","pricing_plan_id":"cebpf4jnsgd1na2vs0mg"},{"bike_id":"20c1e358-1c7f-4912-9588-5a74dcb84090","system_id":"levelo_inurba_marseille","lat":43.25006,"lon":5.38927,"is_reserved":false,"is_disabled":false,"rental_uris":{"android":"levelo://app?vid=20c1e358-1c7f-4912-9588-5a74dcb84090","ios":"levelo://app?vid=20c1e358-1c7f-4912-9588-5a74dcb84090"},"vehicle_type_id":"4","last_reported":1741702209,"current_range_meters":12400,"station_id":"ce4bhgp2rcd13ifvqfd0","pricing_plan_id":"cebpf4jnsgd1na2vs0mg"},{"bike_id":"dadd7d6b-c383-4d47-8b72-946b7933fe43","system_id":"levelo_inurba_marseille","lat":43.29697,"lon":5.36599,"is_reserved":false,"is_disabled":false,"rental_uris":{"android":"levelo://app?vid=dadd7d6b-c383-4d47-8b72-946b7933fe43","ios":"levelo://app?vid=dadd7d6b-c383-4d47-8b72-946b7933fe43"},"vehicle_type_id":"4","last_reported":1741702209,"current_range_meters":12400,"station_id":"ce4bgn12rcd13ifvqbt0","pricing_plan_id":"cebpf4jnsgd1na2vs0mg"},{"bike_id":"f3bb8725-4b68-4c77-94ca-e14587dc5a22","system_id":"levelo_inurba_marseille","lat":43.24183,"lon":5.39721,"is_reserved":false,"is_disabled":false,"rental_uris":{"android":"levelo://app?vid=f3bb8725-4b68-4c77-94ca-e14587dc5a22","ios":"levelo://app?vid=f3bb8725-4b68-4c77-94ca-e14587dc5a22"},"vehicle_type_id":"4","last_reported":1741702209,"current_range_meters":12400,"station_id":"ce4bhn12rcd13ifvqgpg","pricing_plan_id":"cebpf4jnsgd1na2vs0mg"},{"bike_id":"11cdaade-4836-4802-b7cf-22f2329127d2","system_id":"levelo_inurba_marseille","lat":43.30422,"lon":5.41277,"is_reserved":false,"is_disabled":false,"rental_uris":{"android":"levelo://app?vid=11cdaade-4836-4802-b7cf-22f2329127d2","ios":"levelo://app?vid=11cdaade-4836-4802-b7cf-22f2329127d2"},"vehicle_type_id":"4","last_reported":1741702209,"current_range_meters":12800,"station_id":"ce4bhop2rcd13ifvqh8g","pricing_plan_id":"cebpf4jnsgd1na2vs0mg"},{"bike_id":"d4e44a73-dd1d-49de-bc82-8cfaa3a37170","system_id":"levelo_inurba_marseille","lat":43.30086,"lon":5.39075,"is_reserved":false,"is_disabled":false,"rental_uris":{"android":"levelo://app?vid=d4e44a73-dd1d-49de-bc82-8cfaa3a37170","ios":"levelo://app?vid=d4e44a73-dd1d-49de-bc82-8cfaa3a37170"},"vehicle_type_id":"4","last_reported":1741702209,"current_range_meters":12800,"station_id":"ce4bh192rcd13ifvqdb0","pricing_plan_id":"cebpf4jnsgd1na2vs0mg"},{"bike_id":"9776d519-3376-4f51-aaa3-2da63911d7cc","system_id":"levelo_inurba_marseille","lat":43.25092,"lon":5.39512,"is_reserved":false,"is_disabled":false,"rental_uris":{"android":"levelo://app?vid=9776d519-3376-4f51-aaa3-2da63911d7cc","ios":"levelo://app?vid=9776d519-3376-4f51-aaa3-2da63911d7cc"},"vehicle_type_id":"4","last_reported":1741702209,"current_range_meters":12800,"station_id":"ce4bhm12rcd13ifvqgkg","pricing_plan_id":"cebpf4jnsgd1na2vs0mg"},{"bike_id":"21a98077-97a5-4182-b1fc-3570e927fac1","system_id":"levelo_inurba_marseille","lat":43.25831,"lon":5.39435,"is_reserved":false,"is_disabled":false,"rental_uris":{"android":"levelo://app?vid=21a98077-97a5-4182-b1fc-3570e927fac1","ios":"levelo://app?vid=21a98077-97a5-4182-b1fc-3570e927fac1"},"vehicle_type_id":"4","last_reported":1741702209,"current_range_meters":12800,"station_id":"ce4bhip2rcd13ifvqft0","pricing_plan_id":"cebpf4jnsgd1na2vs0mg"},{"bike_id":"1f4164dd-d377-44a5-b6ae-b5c9910d9cf7","system_id":"levelo_inurba_marseille","lat":43.30539,"lon":5.3667,"is_reserved":false,"is_disabled":false,"rental_uris":{"android":"levelo://app?vid=1f4164dd-d377-44a5-b6ae-b5c9910d9cf7","ios":"levelo://app?vid=1f4164dd-d377-44a5-b6ae-b5c9910d9cf7"},"vehicle_type_id":"4","last_reported":1741702209,"current_range_meters":12800,"station_id":"ce4bgrp2rcd13ifvqc9g","pricing_plan_id":"cebpf4jnsgd1na2vs0mg"},{"bike_id":"6eac0327-e0f3-4662-b223-bb841fbd198a","system_id":"levelo_inurba_marseille","lat":43.296233,"lon":5.377237,"is_reserved":false,"is_disabled":false,"rental_uris":{"android":"levelo://app?vid=6eac0327-e0f3-4662-b223-bb841fbd198a","ios":"levelo://app?vid=6eac0327-e0f3-4662-b223-bb841fbd198a"},"vehicle_type_id":"4","last_reported":1741702209,"current_range_meters":18000,"station_id":"ce4bgi92rcd13ifvqb90","pricing_plan_id":"cebpf4jnsgd1na2vs0mg"},{"bike_id":"a3e991cd-2936-493d-9fcb-48f77e04aeb1","system_id":"levelo_inurba_marseille","lat":43.30541,"lon":5.36524,"is_reserved":false,"is_disabled":false,"rental_uris":{"android":"levelo://app?vid=a3e991cd-2936-493d-9fcb-48f77e04aeb1","ios":"levelo://app?vid=a3e991cd-2936-493d-9fcb-48f77e04aeb1"},"vehicle_type_id":"4","last_reported":1741702209,"current_range_meters":14000,"station_id":"ce4bgs12rcd13ifvqcag","pricing_plan_id":"cebpf4jnsgd1na2vs0mg"},{"bike_id":"34d2d8fb-1e91-4c52-b7ba-5445622bfc39","system_id":"levelo_inurba_marseille","lat":43.29721,"lon":5.37695,"is_reserved":false,"is_disabled":false,"rental_uris":{"android":"levelo://app?vid=34d2d8fb-1e91-4c52-b7ba-5445622bfc39","ios":"levelo://app?vid=34d2d8fb-1e91-4c52-b7ba-5445622bfc39"},"vehicle_type_id":"4","last_reported":1741702209,"current_range_meters":14000,"station_id":"ce4bgkh2rcd13ifvqbl0","pricing_plan_id":"cebpf4jnsgd1na2vs0mg"},{"bike_id":"87d8d514-93e1-44ca-9048-c115564ac71b","system_id":"levelo_inurba_marseille","lat":43.3014,"lon":5.37436,"is_reserved":false,"is_disabled":false,"rental_uris":{"android":"levelo://app?vid=87d8d514-93e1-44ca-9048-c115564ac71b","ios":"levelo://app?vid=87d8d514-93e1-44ca-9048-c115564ac71b"},"vehicle_type_id":"4","last_reported":1741702209,"current_range_meters":14000,"station_id":"ce4bgs92rcd13ifvqcc0","pricing_plan_id":"cebpf4jnsgd1na2vs0mg"},{"bike_id":"5c2aa1ed-67ce-4ac7-a122-1eabfecc0b35","system_id":"levelo_inurba_marseille","lat":43.32101,"lon":5.36779,"is_reserved":false,"is_disabled":false,"rental_uris":{"android":"levelo://app?vid=5c2aa1ed-67ce-4ac7-a122-1eabfecc0b35","ios":"levelo://app?vid=5c2aa1ed-67ce-4ac7-a122-1eabfecc0b35"},"vehicle_type_id":"4","last_reported":1741702209,"current_range_meters":14000,"station_id":"ce4bhrh2rcd13ifvqhug","pricing_plan_id":"cebpf4jnsgd1na2vs0mg"},{"bike_id":"c1fdf776-5ff6-4f38-96ad-d3bee4a7cebb","system_id":"levelo_inurba_marseille","lat":43.23138,"lon":5.43731,"is_reserved":false,"is_disabled":false,"rental_uris":{"android":"levelo://app?vid=c1fdf776-5ff6-4f38-96ad-d3bee4a7cebb","ios":"levelo://app?vid=c1fdf776-5ff6-4f38-96ad-d3bee4a7cebb"},"vehicle_type_id":"4","last_reported":1741702209,"current_range_meters":14000,"station_id":"ce4bhmp2rcd13ifvqgog","pricing_plan_id":"cebpf4jnsgd1na2vs0mg"},{"bike_id":"2a042781-c7f2-4e7d-8584-fc7b539687b4","system_id":"levelo_inurba_marseille","lat":43.30134,"lon":5.37439,"is_reserved":false,"is_disabled":false,"rental_uris":{"android":"levelo://app?vid=2a042781-c7f2-4e7d-8584-fc7b539687b4","ios":"levelo://app?vid=2a042781-c7f2-4e7d-8584-fc7b539687b4"},"vehicle_type_id":"4","last_reported":1741702209,"current_range_meters":14000,"station_id":"ce4bgs92rcd13ifvqcc0","pricing_plan_id":"cebpf4jnsgd1na2vs0mg"},{"bike_id":"ac77d297-9010-4c98-9bf9-ce85b1fc5faf","system_id":"levelo_inurba_marseille","lat":43.23185,"lon":5.39993,"is_reserved":false,"is_disabled":false,"rental_uris":{"android":"levelo://app?vid=ac77d297-9010-4c98-9bf9-ce85b1fc5faf","ios":"levelo://app?vid=ac77d297-9010-4c98-9bf9-ce85b1fc5faf"},"vehicle_type_id":"4","last_reported":1741702209,"current_range_meters":15200,"station_id":"ce4bhn12rcd13ifvqgqg","pricing_plan_id":"cebpf4jnsgd1na2vs0mg"},{"bike_id":"511a478b-16c6-4549-a89d-177a4b1ec633","system_id":"levelo_inurba_marseille","lat":43.26556,"lon":5.37284,"is_reserved":false,"is_disabled":false,"rental_uris":{"android":"levelo://app?vid=511a478b-16c6-4549-a89d-177a4b1ec633","ios":"levelo://app?vid=511a478b-16c6-4549-a89d-177a4b1ec633"},"vehicle_type_id":"4","last_reported":1741702209,"current_range_meters":14000,"station_id":"ce4bhg12rcd13ifvqf70","pricing_plan_id":"cebpf4jnsgd1na2vs0mg"},{"bike_id":"a268dcbc-ddd2-4b2c-89cc-fbb307910755","system_id":"levelo_inurba_marseille","lat":43.30509,"lon":5.3791,"is_reserved":false,"is_disabled":false,"rental_uris":{"android":"levelo://app?vid=a268dcbc-ddd2-4b2c-89cc-fbb307910755","ios":"levelo://app?vid=a268dcbc-ddd2-4b2c-89cc-fbb307910755"},"vehicle_type_id":"4","last_reported":1741702209,"current_range_meters":14000,"station_id":"ce4bgup2rcd13ifvqcn0","pricing_plan_id":"cebpf4jnsgd1na2vs0mg"},{"bike_id":"adac0423-058c-49b4-9f61-240a5c2d7271","system_id":"levelo_inurba_marseille","lat":43.29799,"lon":5.381,"is_reserved":false,"is_disabled":false,"rental_uris":{"android":"levelo://app?vid=adac0423-058c-49b4-9f61-240a5c2d7271","ios":"levelo://app?vid=adac0423-058c-49b4-9f61-240a5c2d7271"},"vehicle_type_id":"4","last_reported":1741702209,"current_range_meters":14400,"station_id":"ce4bgip2rcd13ifvqbb0","pricing_plan_id":"cebpf4jnsgd1na2vs0mg"},{"bike_id":"fd92b730-09c3-460a-a0ef-ad06c08a5b15","system_id":"levelo_inurba_marseille","lat":43.31223,"lon":5.36878,"is_reserved":false,"is_disabled":false,"rental_uris":{"android":"levelo://app?vid=fd92b730-09c3-460a-a0ef-ad06c08a5b15","ios":"levelo://app?vid=fd92b730-09c3-460a-a0ef-ad06c08a5b15"},"vehicle_type_id":"4","last_reported":1741702209,"current_range_meters":14400,"station_id":"ce4bgl92rcd13ifvqbq0","pricing_plan_id":"cebpf4jnsgd1na2vs0mg"},{"bike_id":"c44e8f74-8833-41f0-8243-79e5f05acb78","system_id":"levelo_inurba_marseille","lat":43.28724,"lon":5.37941,"is_reserved":false,"is_disabled":false,"rental_uris":{"android":"levelo://app?vid=c44e8f74-8833-41f0-8243-79e5f05acb78","ios":"levelo://app?vid=c44e8f74-8833-41f0-8243-79e5f05acb78"},"vehicle_type_id":"4","last_reported":1741702209,"current_range_meters":14400,"station_id":"ce4bh9p2rcd13ifvqec0","pricing_plan_id":"cebpf4jnsgd1na2vs0mg"},{"bike_id":"90e4636f-5acf-4803-a3ed-f0ba6d29d559","system_id":"levelo_inurba_marseille","lat":43.30444,"lon":5.38905,"is_reserved":false,"is_disabled":false,"rental_uris":{"android":"levelo://app?vid=90e4636f-5acf-4803-a3ed-f0ba6d29d559","ios":"levelo://app?vid=90e4636f-5acf-4803-a3ed-f0ba6d29d559"},"vehicle_type_id":"4","last_reported":1741702209,"current_range_meters":14800,"station_id":"ce4bgk12rcd13ifvqbi0","pricing_plan_id":"cebpf4jnsgd1na2vs0mg"},{"bike_id":"28ddcdf4-024a-4f42-80ff-fb3bac3f5f61","system_id":"levelo_inurba_marseille","lat":43.24173,"lon":5.36389,"is_reserved":false,"is_disabled":false,"rental_uris":{"android":"levelo://app?vid=28ddcdf4-024a-4f42-80ff-fb3bac3f5f61","ios":"levelo://app?vid=28ddcdf4-024a-4f42-80ff-fb3bac3f5f61"},"vehicle_type_id":"4","last_reported":1741702209,"current_range_meters":15200,"station_id":"cpo36qri1sfpv3e86is0","pricing_plan_id":"cebpf4jnsgd1na2vs0mg"},{"bike_id":"962ae7aa-984f-4c54-8e49-a1222a22267a","system_id":"levelo_inurba_marseille","lat":43.3054,"lon":5.36707,"is_reserved":false,"is_disabled":false,"rental_uris":{"android":"levelo://app?vid=962ae7aa-984f-4c54-8e49-a1222a22267a","ios":"levelo://app?vid=962ae7aa-984f-4c54-8e49-a1222a22267a"},"vehicle_type_id":"4","last_reported":1741702209,"current_range_meters":15200,"station_id":"ce4bgrp2rcd13ifvqc9g","pricing_plan_id":"cebpf4jnsgd1na2vs0mg"},{"bike_id":"44f257e9-ff17-4c8d-8747-07e7faddde01","system_id":"levelo_inurba_marseille","lat":43.28,"lon":5.41651,"is_reserved":false,"is_disabled":false,"rental_uris":{"android":"levelo://app?vid=44f257e9-ff17-4c8d-8747-07e7faddde01","ios":"levelo://app?vid=44f257e9-ff17-4c8d-8747-07e7faddde01"},"vehicle_type_id":"4","last_reported":1741702209,"current_range_meters":15200,"station_id":"ce4bho12rcd13ifvqh1g","pricing_plan_id":"cebpf4jnsgd1na2vs0mg"},{"bike_id":"dde5be23-6c08-4fa2-bc65-daafc99079b4","system_id":"levelo_inurba_marseille","lat":43.29875,"lon":5.39738,"is_reserved":false,"is_disabled":false,"rental_uris":{"android":"levelo://app?vid=dde5be23-6c08-4fa2-bc65-daafc99079b4","ios":"levelo://app?vid=dde5be23-6c08-4fa2-bc65-daafc99079b4"},"vehicle_type_id":"4","last_reported":1741702209,"current_range_meters":15200,"station_id":"ce4bh0h2rcd13ifvqd50","pricing_plan_id":"cebpf4jnsgd1na2vs0mg"},{"bike_id":"aac30127-a1e3-4c73-9272-f3afaf1d3a7f","system_id":"levelo_inurba_marseille","lat":43.24085,"lon":5.37747,"is_reserved":false,"is_disabled":false,"rental_uris":{"android":"levelo://app?vid=aac30127-a1e3-4c73-9272-f3afaf1d3a7f","ios":"levelo://app?vid=aac30127-a1e3-4c73-9272-f3afaf1d3a7f"},"vehicle_type_id":"4","last_reported":1741702209,"current_range_meters":15200,"station_id":"ce4bhnp2rcd13ifvqgvg","pricing_plan_id":"cebpf4jnsgd1na2vs0mg"},{"bike_id":"03fcef79-f017-4d15-a10d-891c5cd96db2","system_id":"levelo_inurba_marseille","lat":43.23064,"lon":5.35491,"is_reserved":false,"is_disabled":false,"rental_uris":{"android":"levelo://app?vid=03fcef79-f017-4d15-a10d-891c5cd96db2","ios":"levelo://app?vid=03fcef79-f017-4d15-a10d-891c5cd96db2"},"vehicle_type_id":"4","last_reported":1741702209,"current_range_meters":15200,"station_id":"cpo3342slgdg3j2ifvpg","pricing_plan_id":"cebpf4jnsgd1na2vs0mg"},{"bike_id":"f829a819-671e-4b71-9c22-56c5f8047725","system_id":"levelo_inurba_marseille","lat":43.32362,"lon":5.36753,"is_reserved":false,"is_disabled":false,"rental_uris":{"android":"levelo://app?vid=f829a819-671e-4b71-9c22-56c5f8047725","ios":"levelo://app?vid=f829a819-671e-4b71-9c22-56c5f8047725"},"vehicle_type_id":"4","last_reported":1741702209,"current_range_meters":15200,"station_id":"ce4bhsh2rcd13ifvqi2g","pricing_plan_id":"cebpf4jnsgd1na2vs0mg"},{"bike_id":"8bca6b52-28c0-4932-8ec1-82b13d2e0c6d","system_id":"levelo_inurba_marseille","lat":43.29256,"lon":5.37607,"is_reserved":false,"is_disabled":false,"rental_uris":{"android":"levelo://app?vid=8bca6b52-28c0-4932-8ec1-82b13d2e0c6d","ios":"levelo://app?vid=8bca6b52-28c0-4932-8ec1-82b13d2e0c6d"},"vehicle_type_id":"4","last_reported":1741702209,"current_range_meters":16000,"station_id":"ce4bgi12rcd13ifvqb80","pricing_plan_id":"cebpf4jnsgd1na2vs0mg"},{"bike_id":"51bb4d06-8f06-4c81-9967-3f775de2b65e","system_id":"levelo_inurba_marseille","lat":43.24176,"lon":5.36411,"is_reserved":false,"is_disabled":false,"rental_uris":{"android":"levelo://app?vid=51bb4d06-8f06-4c81-9967-3f775de2b65e","ios":"levelo://app?vid=51bb4d06-8f06-4c81-9967-3f775de2b65e"},"vehicle_type_id":"4","last_reported":1741702209,"current_range_meters":16000,"station_id":"cpo36qri1sfpv3e86is0","pricing_plan_id":"cebpf4jnsgd1na2vs0mg"},{"bike_id":"dc5ea03d-97d6-427d-bb05-9da694c327a0","system_id":"levelo_inurba_marseille","lat":43.31519,"lon":5.37279,"is_reserved":false,"is_disabled":false,"rental_uris":{"android":"levelo://app?vid=dc5ea03d-97d6-427d-bb05-9da694c327a0","ios":"levelo://app?vid=dc5ea03d-97d6-427d-bb05-9da694c327a0"},"vehicle_type_id":"4","last_reported":1741702209,"current_range_meters":16000,"station_id":"ce4bgt12rcd13ifvqcd0","pricing_plan_id":"cebpf4jnsgd1na2vs0mg"},{"bike_id":"f73fc35c-bb76-4a21-a460-fedd0ae029ad","system_id":"levelo_inurba_marseille","lat":43.28005,"lon":5.40008,"is_reserved":false,"is_disabled":false,"rental_uris":{"android":"levelo://app?vid=f73fc35c-bb76-4a21-a460-fedd0ae029ad","ios":"levelo://app?vid=f73fc35c-bb76-4a21-a460-fedd0ae029ad"},"vehicle_type_id":"4","last_reported":1741702209,"current_range_meters":16000,"station_id":"ce4bho92rcd13ifvqh4g","pricing_plan_id":"cebpf4jnsgd1na2vs0mg"},{"bike_id":"81c0e1ec-e0cb-49fa-b94a-6f6b1c28b3dd","system_id":"levelo_inurba_marseille","lat":43.30156,"lon":5.39878,"is_reserved":false,"is_disabled":false,"rental_uris":{"android":"levelo://app?vid=81c0e1ec-e0cb-49fa-b94a-6f6b1c28b3dd","ios":"levelo://app?vid=81c0e1ec-e0cb-49fa-b94a-6f6b1c28b3dd"},"vehicle_type_id":"4","last_reported":1741702209,"current_range_meters":16000,"station_id":"ce4bh0h2rcd13ifvqd40","pricing_plan_id":"cebpf4jnsgd1na2vs0mg"},{"bike_id":"be04fb7b-49e7-491b-ab49-5893cbae4799","system_id":"levelo_inurba_marseille","lat":43.25027,"lon":5.38924,"is_reserved":false,"is_disabled":false,"rental_uris":{"android":"levelo://app?vid=be04fb7b-49e7-491b-ab49-5893cbae4799","ios":"levelo://app?vid=be04fb7b-49e7-491b-ab49-5893cbae4799"},"vehicle_type_id":"4","last_reported":1741702209,"current_range_meters":16000,"station_id":"ce4bhgp2rcd13ifvqfd0","pricing_plan_id":"cebpf4jnsgd1na2vs0mg"},{"bike_id":"d1dab548-e6e0-4589-ba56-49c689da7b0c","system_id":"levelo_inurba_marseille","lat":43.28028,"lon":5.36952,"is_reserved":false,"is_disabled":false,"rental_uris":{"android":"levelo://app?vid=d1dab548-e6e0-4589-ba56-49c689da7b0c","ios":"levelo://app?vid=d1dab548-e6e0-4589-ba56-49c689da7b0c"},"vehicle_type_id":"4","last_reported":1741702209,"current_range_meters":16000,"station_id":"ce4bha12rcd13ifvqef0","pricing_plan_id":"cebpf4jnsgd1na2vs0mg"},{"bike_id":"6f47f575-56b9-4d02-80b8-deca40ed0e8e","system_id":"levelo_inurba_marseille","lat":43.30291,"lon":5.39214,"is_reserved":false,"is_disabled":false,"rental_uris":{"android":"levelo://app?vid=6f47f575-56b9-4d02-80b8-deca40ed0e8e","ios":"levelo://app?vid=6f47f575-56b9-4d02-80b8-deca40ed0e8e"},"vehicle_type_id":"4","last_reported":1741702209,"current_range_meters":16000,"station_id":"ce4bgkh2rcd13ifvqbk0","pricing_plan_id":"cebpf4jnsgd1na2vs0mg"},{"bike_id":"5b40fcbb-5339-4d09-8622-7ef474631ab1","system_id":"levelo_inurba_marseille","lat":43.30553,"lon":5.36688,"is_reserved":false,"is_disabled":false,"rental_uris":{"android":"levelo://app?vid=5b40fcbb-5339-4d09-8622-7ef474631ab1","ios":"levelo://app?vid=5b40fcbb-5339-4d09-8622-7ef474631ab1"},"vehicle_type_id":"4","last_reported":1741702209,"current_range_meters":16000,"station_id":"ce4bgrp2rcd13ifvqc9g","pricing_plan_id":"cebpf4jnsgd1na2vs0mg"},{"bike_id":"064a7988-ef05-4b3d-80d9-de2409a89127","system_id":"levelo_inurba_marseille","lat":43.25084,"lon":5.39527,"is_reserved":false,"is_disabled":false,"rental_uris":{"android":"levelo://app?vid=064a7988-ef05-4b3d-80d9-de2409a89127","ios":"levelo://app?vid=064a7988-ef05-4b3d-80d9-de2409a89127"},"vehicle_type_id":"4","last_reported":1741702209,"current_range_meters":16400,"station_id":"ce4bhm12rcd13ifvqgkg","pricing_plan_id":"cebpf4jnsgd1na2vs0mg"},{"bike_id":"bd61afa9-c73c-4c27-baad-5bbcf752eafb","system_id":"levelo_inurba_marseille","lat":43.266819,"lon":5.382729,"is_reserved":false,"is_disabled":false,"rental_uris":{"android":"levelo://app?vid=bd61afa9-c73c-4c27-baad-5bbcf752eafb","ios":"levelo://app?vid=bd61afa9-c73c-4c27-baad-5bbcf752eafb"},"vehicle_type_id":"4","last_reported":1741702209,"current_range_meters":16400,"station_id":"ce4bhg92rcd13ifvqf90","pricing_plan_id":"cebpf4jnsgd1na2vs0mg"},{"bike_id":"0a6985ed-b84c-4033-8e3e-05aa091718f5","system_id":"levelo_inurba_marseille","lat":43.29845,"lon":5.39758,"is_reserved":false,"is_disabled":false,"rental_uris":{"android":"levelo://app?vid=0a6985ed-b84c-4033-8e3e-05aa091718f5","ios":"levelo://app?vid=0a6985ed-b84c-4033-8e3e-05aa091718f5"},"vehicle_type_id":"4","last_reported":1741702209,"current_range_meters":16400,"station_id":"ce4bh0h2rcd13ifvqd50","pricing_plan_id":"cebpf4jnsgd1na2vs0mg"},{"bike_id":"97a476ec-ebb2-47e9-9d47-3f7832a2c8e6","system_id":"levelo_inurba_marseille","lat":43.2984,"lon":5.36264,"is_reserved":false,"is_disabled":false,"rental_uris":{"android":"levelo://app?vid=97a476ec-ebb2-47e9-9d47-3f7832a2c8e6","ios":"levelo://app?vid=97a476ec-ebb2-47e9-9d47-3f7832a2c8e6"},"vehicle_type_id":"4","last_reported":1741702209,"current_range_meters":16400,"station_id":"ce4bgpp2rcd13ifvqc3g","pricing_plan_id":"cebpf4jnsgd1na2vs0mg"},{"bike_id":"7bbfe361-6f6a-4e97-80c2-4c46436117b6","system_id":"levelo_inurba_marseille","lat":43.291992,"lon":5.35809,"is_reserved":false,"is_disabled":false,"rental_uris":{"android":"levelo://app?vid=7bbfe361-6f6a-4e97-80c2-4c46436117b6","ios":"levelo://app?vid=7bbfe361-6f6a-4e97-80c2-4c46436117b6"},"vehicle_type_id":"4","last_reported":1741702209,"current_range_meters":16400,"station_id":"ce4bhb12rcd13ifvqel0","pricing_plan_id":"cebpf4jnsgd1na2vs0mg"},{"bike_id":"f3b197bc-36e4-4968-b987-704264304381","system_id":"levelo_inurba_marseille","lat":43.27055,"lon":5.40261,"is_reserved":false,"is_disabled":false,"rental_uris":{"android":"levelo://app?vid=f3b197bc-36e4-4968-b987-704264304381","ios":"levelo://app?vid=f3b197bc-36e4-4968-b987-704264304381"},"vehicle_type_id":"4","last_reported":1741702209,"current_range_meters":16400,"station_id":"ce4bhk92rcd13ifvqgc0","pricing_plan_id":"cebpf4jnsgd1na2vs0mg"},{"bike_id":"0eecd69f-4814-4099-9308-41706ca678d7","system_id":"levelo_inurba_marseille","lat":43.299291,"lon":5.365306,"is_reserved":false,"is_disabled":false,"rental_uris":{"android":"levelo://app?vid=0eecd69f-4814-4099-9308-41706ca678d7","ios":"levelo://app?vid=0eecd69f-4814-4099-9308-41706ca678d7"},"vehicle_type_id":"4","last_reported":1741702209,"current_range_meters":16400,"station_id":"ce4bgm92rcd13ifvqbr0","pricing_plan_id":"cebpf4jnsgd1na2vs0mg"},{"bike_id":"78cb8786-1e67-4d63-90df-4d7f0d56dec1","system_id":"levelo_inurba_marseille","lat":43.29876,"lon":5.3977,"is_reserved":false,"is_disabled":false,"rental_uris":{"android":"levelo://app?vid=78cb8786-1e67-4d63-90df-4d7f0d56dec1","ios":"levelo://app?vid=78cb8786-1e67-4d63-90df-4d7f0d56dec1"},"vehicle_type_id":"4","last_reported":1741702209,"current_range_meters":16400,"station_id":"ce4bh0h2rcd13ifvqd50","pricing_plan_id":"cebpf4jnsgd1na2vs0mg"},{"bike_id":"5348a7ea-5305-4810-ac6c-1f273fa36b5e","system_id":"levelo_inurba_marseille","lat":43.29706,"lon":5.36622,"is_reserved":false,"is_disabled":false,"rental_uris":{"android":"levelo://app?vid=5348a7ea-5305-4810-ac6c-1f273fa36b5e","ios":"levelo://app?vid=5348a7ea-5305-4810-ac6c-1f273fa36b5e"},"vehicle_type_id":"4","last_reported":1741702209,"current_range_meters":16400,"station_id":"ce4bgn12rcd13ifvqbt0","pricing_plan_id":"cebpf4jnsgd1na2vs0mg"},{"bike_id":"312dd01b-28b9-4330-bdff-d9bb6f321fde","system_id":"levelo_inurba_marseille","lat":43.32538,"lon":5.41458,"is_reserved":false,"is_disabled":false,"rental_uris":{"android":"levelo://app?vid=312dd01b-28b9-4330-bdff-d9bb6f321fde","ios":"levelo://app?vid=312dd01b-28b9-4330-bdff-d9bb6f321fde"},"vehicle_type_id":"4","last_reported":1741702209,"current_range_meters":16400,"station_id":"ce4bhq12rcd13ifvqhhg","pricing_plan_id":"cebpf4jnsgd1na2vs0mg"},{"bike_id":"b44022d5-a3c8-45f9-9984-eaba76929c7b","system_id":"levelo_inurba_marseille","lat":43.27823,"lon":5.40717,"is_reserved":false,"is_disabled":false,"rental_uris":{"android":"levelo://app?vid=b44022d5-a3c8-45f9-9984-eaba76929c7b","ios":"levelo://app?vid=b44022d5-a3c8-45f9-9984-eaba76929c7b"},"vehicle_type_id":"4","last_reported":1741702209,"current_range_meters":16400,"station_id":"ce4bhnh2rcd13ifvqgtg","pricing_plan_id":"cebpf4jnsgd1na2vs0mg"},{"bike_id":"5e8b40e1-68bd-4f6a-8ce1-429044f48aa6","system_id":"levelo_inurba_marseille","lat":43.2767,"lon":5.38886,"is_reserved":false,"is_disabled":false,"rental_uris":{"android":"levelo://app?vid=5e8b40e1-68bd-4f6a-8ce1-429044f48aa6","ios":"levelo://app?vid=5e8b40e1-68bd-4f6a-8ce1-429044f48aa6"},"vehicle_type_id":"4","last_reported":1741702209,"current_range_meters":16400,"station_id":"ce4bhi12rcd13ifvqfo0","pricing_plan_id":"cebpf4jnsgd1na2vs0mg"},{"bike_id":"a4ce6389-69c8-41eb-a2cb-27e113df5153","system_id":"levelo_inurba_marseille","lat":43.286177,"lon":5.351021,"is_reserved":false,"is_disabled":false,"rental_uris":{"android":"levelo://app?vid=a4ce6389-69c8-41eb-a2cb-27e113df5153","ios":"levelo://app?vid=a4ce6389-69c8-41eb-a2cb-27e113df5153"},"vehicle_type_id":"4","last_reported":1741702209,"current_range_meters":16800,"station_id":"ce4bhch2rcd13ifvqeug","pricing_plan_id":"cebpf4jnsgd1na2vs0mg"},{"bike_id":"0a995a9a-6122-4f4b-b298-a8b06cbca7e2","system_id":"levelo_inurba_marseille","lat":43.25021,"lon":5.389,"is_reserved":false,"is_disabled":false,"rental_uris":{"android":"levelo://app?vid=0a995a9a-6122-4f4b-b298-a8b06cbca7e2","ios":"levelo://app?vid=0a995a9a-6122-4f4b-b298-a8b06cbca7e2"},"vehicle_type_id":"4","last_reported":1741702209,"current_range_meters":16800,"station_id":"ce4bhgp2rcd13ifvqfd0","pricing_plan_id":"cebpf4jnsgd1na2vs0mg"},{"bike_id":"4f23cdcb-4a0c-482b-92b2-ae01477750dd","system_id":"levelo_inurba_marseille","lat":43.29639,"lon":5.37549,"is_reserved":false,"is_disabled":false,"rental_uris":{"android":"levelo://app?vid=4f23cdcb-4a0c-482b-92b2-ae01477750dd","ios":"levelo://app?vid=4f23cdcb-4a0c-482b-92b2-ae01477750dd"},"vehicle_type_id":"4","last_reported":1741702209,"current_range_meters":16800,"station_id":"","pricing_plan_id":"cebpf4jnsgd1na2vs0mg"},{"bike_id":"292679cf-4c79-499f-8e09-13226be06ef7","system_id":"levelo_inurba_marseille","lat":43.30136,"lon":5.39876,"is_reserved":false,"is_disabled":false,"rental_uris":{"android":"levelo://app?vid=292679cf-4c79-499f-8e09-13226be06ef7","ios":"levelo://app?vid=292679cf-4c79-499f-8e09-13226be06ef7"},"vehicle_type_id":"4","last_reported":1741702209,"current_range_meters":16800,"station_id":"ce4bh0h2rcd13ifvqd40","pricing_plan_id":"cebpf4jnsgd1na2vs0mg"},{"bike_id":"24b4b104-5c89-4fc6-8924-6d1684e13415","system_id":"levelo_inurba_marseille","lat":43.2315,"lon":5.43715,"is_reserved":false,"is_disabled":false,"rental_uris":{"android":"levelo://app?vid=24b4b104-5c89-4fc6-8924-6d1684e13415","ios":"levelo://app?vid=24b4b104-5c89-4fc6-8924-6d1684e13415"},"vehicle_type_id":"4","last_reported":1741702209,"current_range_meters":16800,"station_id":"ce4bhmp2rcd13ifvqgog","pricing_plan_id":"cebpf4jnsgd1na2vs0mg"},{"bike_id":"e16b05d9-1853-455a-be62-19208ab4ead2","system_id":"levelo_inurba_marseille","lat":43.29801,"lon":5.38099,"is_reserved":false,"is_disabled":false,"rental_uris":{"android":"levelo://app?vid=e16b05d9-1853-455a-be62-19208ab4ead2","ios":"levelo://app?vid=e16b05d9-1853-455a-be62-19208ab4ead2"},"vehicle_type_id":"4","last_reported":1741702209,"current_range_meters":16800,"station_id":"ce4bgip2rcd13ifvqbb0","pricing_plan_id":"cebpf4jnsgd1na2vs0mg"},{"bike_id":"6dbc9b4a-c5a1-4dbf-a00f-5bb7462d2694","system_id":"levelo_inurba_marseille","lat":43.2811,"lon":5.39866,"is_reserved":false,"is_disabled":false,"rental_uris":{"android":"levelo://app?vid=6dbc9b4a-c5a1-4dbf-a00f-5bb7462d2694","ios":"levelo://app?vid=6dbc9b4a-c5a1-4dbf-a00f-5bb7462d2694"},"vehicle_type_id":"4","last_reported":1741702209,"current_range_meters":16800,"station_id":"","pricing_plan_id":"cebpf4jnsgd1na2vs0mg"},{"bike_id":"de853cc0-e651-49af-981b-5f45bfd887eb","system_id":"levelo_inurba_marseille","lat":43.2903,"lon":5.35915,"is_reserved":false,"is_disabled":false,"rental_uris":{"android":"levelo://app?vid=de853cc0-e651-49af-981b-5f45bfd887eb","ios":"levelo://app?vid=de853cc0-e651-49af-981b-5f45bfd887eb"},"vehicle_type_id":"4","last_reported":1741702209,"current_range_meters":16800,"station_id":"ce4bha92rcd13ifvqeg0","pricing_plan_id":"cebpf4jnsgd1na2vs0mg"},{"bike_id":"0e8b0eb9-28cc-40e9-a96d-bf971f563ec3","system_id":"levelo_inurba_marseille","lat":43.29834,"lon":5.38104,"is_reserved":false,"is_disabled":false,"rental_uris":{"android":"levelo://app?vid=0e8b0eb9-28cc-40e9-a96d-bf971f563ec3","ios":"levelo://app?vid=0e8b0eb9-28cc-40e9-a96d-bf971f563ec3"},"vehicle_type_id":"4","last_reported":1741702209,"current_range_meters":16800,"station_id":"ce4bgip2rcd13ifvqbb0","pricing_plan_id":"cebpf4jnsgd1na2vs0mg"},{"bike_id":"1f1826a3-f54a-4534-a067-4e1ce319471b","system_id":"levelo_inurba_marseille","lat":43.29739,"lon":5.37668,"is_reserved":false,"is_disabled":false,"rental_uris":{"android":"levelo://app?vid=1f1826a3-f54a-4534-a067-4e1ce319471b","ios":"levelo://app?vid=1f1826a3-f54a-4534-a067-4e1ce319471b"},"vehicle_type_id":"4","last_reported":1741702209,"current_range_meters":16800,"station_id":"ce4bgkh2rcd13ifvqbl0","pricing_plan_id":"cebpf4jnsgd1na2vs0mg"},{"bike_id":"b7be7e99-3a4c-4f4e-87dc-37abd18cdc18","system_id":"levelo_inurba_marseille","lat":43.29934,"lon":5.36552,"is_reserved":false,"is_disabled":false,"rental_uris":{"android":"levelo://app?vid=b7be7e99-3a4c-4f4e-87dc-37abd18cdc18","ios":"levelo://app?vid=b7be7e99-3a4c-4f4e-87dc-37abd18cdc18"},"vehicle_type_id":"4","last_reported":1741702209,"current_range_meters":16800,"station_id":"ce4bgm92rcd13ifvqbr0","pricing_plan_id":"cebpf4jnsgd1na2vs0mg"},{"bike_id":"a9e14f31-9bd1-4ba5-b97a-cccc23cd8e0c","system_id":"levelo_inurba_marseille","lat":43.26223,"lon":5.40452,"is_reserved":false,"is_disabled":false,"rental_uris":{"android":"levelo://app?vid=a9e14f31-9bd1-4ba5-b97a-cccc23cd8e0c","ios":"levelo://app?vid=a9e14f31-9bd1-4ba5-b97a-cccc23cd8e0c"},"vehicle_type_id":"4","last_reported":1741702209,"current_range_meters":17200,"station_id":"ce4bhmh2rcd13ifvqgmg","pricing_plan_id":"cebpf4jnsgd1na2vs0mg"},{"bike_id":"d927fc07-dae3-4a33-823e-664a59ce84fe","system_id":"levelo_inurba_marseille","lat":43.28155,"lon":5.4266,"is_reserved":false,"is_disabled":false,"rental_uris":{"android":"levelo://app?vid=d927fc07-dae3-4a33-823e-664a59ce84fe","ios":"levelo://app?vid=d927fc07-dae3-4a33-823e-664a59ce84fe"},"vehicle_type_id":"4","last_reported":1741702209,"current_range_meters":17200,"station_id":"ce4bhnh2rcd13ifvqgug","pricing_plan_id":"cebpf4jnsgd1na2vs0mg"},{"bike_id":"2f93c42c-c88d-476b-a3a3-2eee2d201720","system_id":"levelo_inurba_marseille","lat":43.23081,"lon":5.35508,"is_reserved":false,"is_disabled":false,"rental_uris":{"android":"levelo://app?vid=2f93c42c-c88d-476b-a3a3-2eee2d201720","ios":"levelo://app?vid=2f93c42c-c88d-476b-a3a3-2eee2d201720"},"vehicle_type_id":"4","last_reported":1741702209,"current_range_meters":17200,"station_id":"cpo3342slgdg3j2ifvpg","pricing_plan_id":"cebpf4jnsgd1na2vs0mg"},{"bike_id":"c4250e82-8c81-4e44-ba6b-37b6bdb4676e","system_id":"levelo_inurba_marseille","lat":43.3052,"lon":5.367,"is_reserved":false,"is_disabled":false,"rental_uris":{"android":"levelo://app?vid=c4250e82-8c81-4e44-ba6b-37b6bdb4676e","ios":"levelo://app?vid=c4250e82-8c81-4e44-ba6b-37b6bdb4676e"},"vehicle_type_id":"4","last_reported":1741702209,"current_range_meters":17200,"station_id":"ce4bgrp2rcd13ifvqc9g","pricing_plan_id":"cebpf4jnsgd1na2vs0mg"},{"bike_id":"25937fb7-9dcc-40e4-8919-d293a5121ca0","system_id":"levelo_inurba_marseille","lat":43.28712,"lon":5.37944,"is_reserved":false,"is_disabled":false,"rental_uris":{"android":"levelo://app?vid=25937fb7-9dcc-40e4-8919-d293a5121ca0","ios":"levelo://app?vid=25937fb7-9dcc-40e4-8919-d293a5121ca0"},"vehicle_type_id":"4","last_reported":1741702209,"current_range_meters":17200,"station_id":"ce4bh9p2rcd13ifvqec0","pricing_plan_id":"cebpf4jnsgd1na2vs0mg"},{"bike_id":"75a77a0a-1b85-4dd3-a8c8-8848bbf371dc","system_id":"levelo_inurba_marseille","lat":43.29046,"lon":5.35923,"is_reserved":false,"is_disabled":false,"rental_uris":{"android":"levelo://app?vid=75a77a0a-1b85-4dd3-a8c8-8848bbf371dc","ios":"levelo://app?vid=75a77a0a-1b85-4dd3-a8c8-8848bbf371dc"},"vehicle_type_id":"4","last_reported":1741702209,"current_range_meters":17200,"station_id":"ce4bha92rcd13ifvqeg0","pricing_plan_id":"cebpf4jnsgd1na2vs0mg"},{"bike_id":"24526035-95ab-40e9-88c7-da58c659f6ae","system_id":"levelo_inurba_marseille","lat":43.29556,"lon":5.4229,"is_reserved":false,"is_disabled":false,"rental_uris":{"android":"levelo://app?vid=24526035-95ab-40e9-88c7-da58c659f6ae","ios":"levelo://app?vid=24526035-95ab-40e9-88c7-da58c659f6ae"},"vehicle_type_id":"4","last_reported":1741702209,"current_range_meters":17200,"station_id":"ce4bhph2rcd13ifvqhdg","pricing_plan_id":"cebpf4jnsgd1na2vs0mg"},{"bike_id":"fe6f7921-3d30-4807-b07a-70e9a8ca71f8","system_id":"levelo_inurba_marseille","lat":43.25086,"lon":5.39505,"is_reserved":false,"is_disabled":false,"rental_uris":{"android":"levelo://app?vid=fe6f7921-3d30-4807-b07a-70e9a8ca71f8","ios":"levelo://app?vid=fe6f7921-3d30-4807-b07a-70e9a8ca71f8"},"vehicle_type_id":"4","last_reported":1741702209,"current_range_meters":17600,"station_id":"ce4bhm12rcd13ifvqgkg","pricing_plan_id":"cebpf4jnsgd1na2vs0mg"},{"bike_id":"e4931863-5260-45a0-8b87-0dc6dcdfe252","system_id":"levelo_inurba_marseille","lat":43.24077,"lon":5.37745,"is_reserved":false,"is_disabled":false,"rental_uris":{"android":"levelo://app?vid=e4931863-5260-45a0-8b87-0dc6dcdfe252","ios":"levelo://app?vid=e4931863-5260-45a0-8b87-0dc6dcdfe252"},"vehicle_type_id":"4","last_reported":1741702209,"current_range_meters":16400,"station_id":"ce4bhnp2rcd13ifvqgvg","pricing_plan_id":"cebpf4jnsgd1na2vs0mg"},{"bike_id":"bbc3b890-debc-4a19-a72e-170063e098c1","system_id":"levelo_inurba_marseille","lat":43.298718,"lon":5.397348,"is_reserved":false,"is_disabled":false,"rental_uris":{"android":"levelo://app?vid=bbc3b890-debc-4a19-a72e-170063e098c1","ios":"levelo://app?vid=bbc3b890-debc-4a19-a72e-170063e098c1"},"vehicle_type_id":"4","last_reported":1741702209,"current_range_meters":17600,"station_id":"ce4bh0h2rcd13ifvqd50","pricing_plan_id":"cebpf4jnsgd1na2vs0mg"},{"bike_id":"fb55f9d1-18dc-4569-919c-3c5a2e705317","system_id":"levelo_inurba_marseille","lat":43.32476,"lon":5.36611,"is_reserved":false,"is_disabled":false,"rental_uris":{"android":"levelo://app?vid=fb55f9d1-18dc-4569-919c-3c5a2e705317","ios":"levelo://app?vid=fb55f9d1-18dc-4569-919c-3c5a2e705317"},"vehicle_type_id":"4","last_reported":1741702209,"current_range_meters":17600,"station_id":"ce4bhs12rcd13ifvqhvg","pricing_plan_id":"cebpf4jnsgd1na2vs0mg"},{"bike_id":"c8f7b58b-3d6c-4a5e-ae4b-d89af2399191","system_id":"levelo_inurba_marseille","lat":43.30428,"lon":5.38887,"is_reserved":false,"is_disabled":false,"rental_uris":{"android":"levelo://app?vid=c8f7b58b-3d6c-4a5e-ae4b-d89af2399191","ios":"levelo://app?vid=c8f7b58b-3d6c-4a5e-ae4b-d89af2399191"},"vehicle_type_id":"4","last_reported":1741702209,"current_range_meters":18000,"station_id":"ce4bgk12rcd13ifvqbi0","pricing_plan_id":"cebpf4jnsgd1na2vs0mg"},{"bike_id":"d6326976-356b-466b-b4bd-02623d903922","system_id":"levelo_inurba_marseille","lat":43.28724,"lon":5.36087,"is_reserved":false,"is_disabled":false,"rental_uris":{"android":"levelo://app?vid=d6326976-356b-466b-b4bd-02623d903922","ios":"levelo://app?vid=d6326976-356b-466b-b4bd-02623d903922"},"vehicle_type_id":"4","last_reported":1741702209,"current_range_meters":18000,"station_id":"cki0cbj6b192h4jlfktg","pricing_plan_id":"cebpf4jnsgd1na2vs0mg"},{"bike_id":"4ac2caed-67c0-4a4f-ab4c-86dfa96f88e5","system_id":"levelo_inurba_marseille","lat":43.23154,"lon":5.43708,"is_reserved":false,"is_disabled":false,"rental_uris":{"android":"levelo://app?vid=4ac2caed-67c0-4a4f-ab4c-86dfa96f88e5","ios":"levelo://app?vid=4ac2caed-67c0-4a4f-ab4c-86dfa96f88e5"},"vehicle_type_id":"4","last_reported":1741702209,"current_range_meters":18000,"station_id":"ce4bhmp2rcd13ifvqgog","pricing_plan_id":"cebpf4jnsgd1na2vs0mg"},{"bike_id":"336d0b1e-6b77-472f-864f-159fe1cfa46f","system_id":"levelo_inurba_marseille","lat":43.23965,"lon":5.36638,"is_reserved":false,"is_disabled":false,"rental_uris":{"android":"levelo://app?vid=336d0b1e-6b77-472f-864f-159fe1cfa46f","ios":"levelo://app?vid=336d0b1e-6b77-472f-864f-159fe1cfa46f"},"vehicle_type_id":"4","last_reported":1741702209,"current_range_meters":18000,"station_id":"ce4bhi12rcd13ifvqfp0","pricing_plan_id":"cebpf4jnsgd1na2vs0mg"},{"bike_id":"93c8757a-b079-4429-9df1-8556ee987cba","system_id":"levelo_inurba_marseille","lat":43.29602,"lon":5.38107,"is_reserved":false,"is_disabled":false,"rental_uris":{"android":"levelo://app?vid=93c8757a-b079-4429-9df1-8556ee987cba","ios":"levelo://app?vid=93c8757a-b079-4429-9df1-8556ee987cba"},"vehicle_type_id":"4","last_reported":1741702209,"current_range_meters":18000,"station_id":"ce4bgl12rcd13ifvqbo0","pricing_plan_id":"cebpf4jnsgd1na2vs0mg"},{"bike_id":"227e5c15-b4e1-4cd5-9064-82ae1505a980","system_id":"levelo_inurba_marseille","lat":43.29178,"lon":5.38494,"is_reserved":false,"is_disabled":false,"rental_uris":{"android":"levelo://app?vid=227e5c15-b4e1-4cd5-9064-82ae1505a980","ios":"levelo://app?vid=227e5c15-b4e1-4cd5-9064-82ae1505a980"},"vehicle_type_id":"4","last_reported":1741702209,"current_range_meters":18000,"station_id":"ce4bh692rcd13ifvqea0","pricing_plan_id":"cebpf4jnsgd1na2vs0mg"},{"bike_id":"0ac78fb3-ba05-4a66-81f6-f1b2103535ec","system_id":"levelo_inurba_marseille","lat":43.30553,"lon":5.36555,"is_reserved":false,"is_disabled":false,"rental_uris":{"android":"levelo://app?vid=0ac78fb3-ba05-4a66-81f6-f1b2103535ec","ios":"levelo://app?vid=0ac78fb3-ba05-4a66-81f6-f1b2103535ec"},"vehicle_type_id":"4","last_reported":1741702209,"current_range_meters":18000,"station_id":"ce4bgs12rcd13ifvqcag","pricing_plan_id":"cebpf4jnsgd1na2vs0mg"},{"bike_id":"7d7fd250-2656-4ccc-858d-cdf57d351781","system_id":"levelo_inurba_marseille","lat":43.28503,"lon":5.38573,"is_reserved":false,"is_disabled":false,"rental_uris":{"android":"levelo://app?vid=7d7fd250-2656-4ccc-858d-cdf57d351781","ios":"levelo://app?vid=7d7fd250-2656-4ccc-858d-cdf57d351781"},"vehicle_type_id":"4","last_reported":1741702209,"current_range_meters":18000,"station_id":"ce4bh8p2rcd13ifvqeb0","pricing_plan_id":"cebpf4jnsgd1na2vs0mg"},{"bike_id":"ebd4e792-a666-46a2-98a2-c70e9b7feb24","system_id":"levelo_inurba_marseille","lat":43.30536,"lon":5.36715,"is_reserved":false,"is_disabled":false,"rental_uris":{"android":"levelo://app?vid=ebd4e792-a666-46a2-98a2-c70e9b7feb24","ios":"levelo://app?vid=ebd4e792-a666-46a2-98a2-c70e9b7feb24"},"vehicle_type_id":"4","last_reported":1741702209,"current_range_meters":18000,"station_id":"ce4bgrp2rcd13ifvqc9g","pricing_plan_id":"cebpf4jnsgd1na2vs0mg"},{"bike_id":"8cb98100-8339-480d-872a-e2c4b7cea00c","system_id":"levelo_inurba_marseille","lat":43.28093,"lon":5.39879,"is_reserved":false,"is_disabled":false,"rental_uris":{"android":"levelo://app?vid=8cb98100-8339-480d-872a-e2c4b7cea00c","ios":"levelo://app?vid=8cb98100-8339-480d-872a-e2c4b7cea00c"},"vehicle_type_id":"4","last_reported":1741702209,"current_range_meters":18000,"station_id":"","pricing_plan_id":"cebpf4jnsgd1na2vs0mg"},{"bike_id":"4c90015f-4884-41fc-8169-0311c0dfd31c","system_id":"levelo_inurba_marseille","lat":43.25007,"lon":5.38919,"is_reserved":false,"is_disabled":false,"rental_uris":{"android":"levelo://app?vid=4c90015f-4884-41fc-8169-0311c0dfd31c","ios":"levelo://app?vid=4c90015f-4884-41fc-8169-0311c0dfd31c"},"vehicle_type_id":"4","last_reported":1741702209,"current_range_meters":18000,"station_id":"ce4bhgp2rcd13ifvqfd0","pricing_plan_id":"cebpf4jnsgd1na2vs0mg"},{"bike_id":"1e76aacf-c39c-4549-ba59-bf75e06feb96","system_id":"levelo_inurba_marseille","lat":43.30497,"lon":5.37901,"is_reserved":false,"is_disabled":false,"rental_uris":{"android":"levelo://app?vid=1e76aacf-c39c-4549-ba59-bf75e06feb96","ios":"levelo://app?vid=1e76aacf-c39c-4549-ba59-bf75e06feb96"},"vehicle_type_id":"4","last_reported":1741702209,"current_range_meters":18000,"station_id":"ce4bgup2rcd13ifvqcn0","pricing_plan_id":"cebpf4jnsgd1na2vs0mg"},{"bike_id":"1228bc0f-8433-4f84-9af7-572f5423d5f7","system_id":"levelo_inurba_marseille","lat":43.2798,"lon":5.38759,"is_reserved":false,"is_disabled":false,"rental_uris":{"android":"levelo://app?vid=1228bc0f-8433-4f84-9af7-572f5423d5f7","ios":"levelo://app?vid=1228bc0f-8433-4f84-9af7-572f5423d5f7"},"vehicle_type_id":"4","last_reported":1741702209,"current_range_meters":18000,"station_id":"ce4bhg12rcd13ifvqf80","pricing_plan_id":"cebpf4jnsgd1na2vs0mg"},{"bike_id":"91f112f8-26ae-4b09-ac1e-9493ad0c33fa","system_id":"levelo_inurba_marseille","lat":43.30798,"lon":5.38161,"is_reserved":false,"is_disabled":false,"rental_uris":{"android":"levelo://app?vid=91f112f8-26ae-4b09-ac1e-9493ad0c33fa","ios":"levelo://app?vid=91f112f8-26ae-4b09-ac1e-9493ad0c33fa"},"vehicle_type_id":"4","last_reported":1741702209,"current_range_meters":18800,"station_id":"ce4bgt12rcd13ifvqce0","pricing_plan_id":"cebpf4jnsgd1na2vs0mg"},{"bike_id":"084d116f-7741-4539-a42c-610d81f1fdf8","system_id":"levelo_inurba_marseille","lat":43.29567,"lon":5.37511,"is_reserved":false,"is_disabled":false,"rental_uris":{"android":"levelo://app?vid=084d116f-7741-4539-a42c-610d81f1fdf8","ios":"levelo://app?vid=084d116f-7741-4539-a42c-610d81f1fdf8"},"vehicle_type_id":"4","last_reported":1741702209,"current_range_meters":18800,"station_id":"ce4bgh92rcd13ifvqb50","pricing_plan_id":"cebpf4jnsgd1na2vs0mg"},{"bike_id":"e0718395-0e2e-4a7a-a474-5a05d3f79c13","system_id":"levelo_inurba_marseille","lat":43.28413,"lon":5.37524,"is_reserved":false,"is_disabled":false,"rental_uris":{"android":"levelo://app?vid=e0718395-0e2e-4a7a-a474-5a05d3f79c13","ios":"levelo://app?vid=e0718395-0e2e-4a7a-a474-5a05d3f79c13"},"vehicle_type_id":"4","last_reported":1741702209,"current_range_meters":18800,"station_id":"ce4bh412rcd13ifvqds0","pricing_plan_id":"cebpf4jnsgd1na2vs0mg"},{"bike_id":"43e68270-89e8-45fa-961c-78d4430bbd60","system_id":"levelo_inurba_marseille","lat":43.29881,"lon":5.39724,"is_reserved":false,"is_disabled":false,"rental_uris":{"android":"levelo://app?vid=43e68270-89e8-45fa-961c-78d4430bbd60","ios":"levelo://app?vid=43e68270-89e8-45fa-961c-78d4430bbd60"},"vehicle_type_id":"4","last_reported":1741702209,"current_range_meters":18800,"station_id":"ce4bh0h2rcd13ifvqd50","pricing_plan_id":"cebpf4jnsgd1na2vs0mg"},{"bike_id":"09b3bb0c-0d57-4819-9b14-a019df447f2f","system_id":"levelo_inurba_marseille","lat":43.26955,"lon":5.38635,"is_reserved":false,"is_disabled":false,"rental_uris":{"android":"levelo://app?vid=09b3bb0c-0d57-4819-9b14-a019df447f2f","ios":"levelo://app?vid=09b3bb0c-0d57-4819-9b14-a019df447f2f"},"vehicle_type_id":"4","last_reported":1741702209,"current_range_meters":18800,"station_id":"ce4bhh92rcd13ifvqfh0","pricing_plan_id":"cebpf4jnsgd1na2vs0mg"},{"bike_id":"d7112025-e3cd-4143-b2ca-4d819826a0df","system_id":"levelo_inurba_marseille","lat":43.31393,"lon":5.36651,"is_reserved":false,"is_disabled":false,"rental_uris":{"android":"levelo://app?vid=d7112025-e3cd-4143-b2ca-4d819826a0df","ios":"levelo://app?vid=d7112025-e3cd-4143-b2ca-4d819826a0df"},"vehicle_type_id":"4","last_reported":1741702209,"current_range_meters":18800,"station_id":"","pricing_plan_id":"cebpf4jnsgd1na2vs0mg"},{"bike_id":"6f3d7979-1941-425d-a7ad-7098bdc17d80","system_id":"levelo_inurba_marseille","lat":43.31346,"lon":5.36755,"is_reserved":false,"is_disabled":false,"rental_uris":{"android":"levelo://app?vid=6f3d7979-1941-425d-a7ad-7098bdc17d80","ios":"levelo://app?vid=6f3d7979-1941-425d-a7ad-7098bdc17d80"},"vehicle_type_id":"4","last_reported":1741702209,"current_range_meters":18800,"station_id":"ce4bgr92rcd13ifvqc6g","pricing_plan_id":"cebpf4jnsgd1na2vs0mg"},{"bike_id":"8ca8d784-c19f-4af3-8ead-b2f17f91f696","system_id":"levelo_inurba_marseille","lat":43.30537,"lon":5.36701,"is_reserved":false,"is_disabled":false,"rental_uris":{"android":"levelo://app?vid=8ca8d784-c19f-4af3-8ead-b2f17f91f696","ios":"levelo://app?vid=8ca8d784-c19f-4af3-8ead-b2f17f91f696"},"vehicle_type_id":"4","last_reported":1741702209,"current_range_meters":18800,"station_id":"ce4bgrp2rcd13ifvqc9g","pricing_plan_id":"cebpf4jnsgd1na2vs0mg"},{"bike_id":"6788ac72-97ba-4670-850c-82f03a027689","system_id":"levelo_inurba_marseille","lat":43.25084,"lon":5.39517,"is_reserved":false,"is_disabled":false,"rental_uris":{"android":"levelo://app?vid=6788ac72-97ba-4670-850c-82f03a027689","ios":"levelo://app?vid=6788ac72-97ba-4670-850c-82f03a027689"},"vehicle_type_id":"4","last_reported":1741702209,"current_range_meters":18800,"station_id":"ce4bhm12rcd13ifvqgkg","pricing_plan_id":"cebpf4jnsgd1na2vs0mg"},{"bike_id":"0196d479-6c1f-49e4-b7c0-c2f275915119","system_id":"levelo_inurba_marseille","lat":43.2804,"lon":5.36952,"is_reserved":false,"is_disabled":false,"rental_uris":{"android":"levelo://app?vid=0196d479-6c1f-49e4-b7c0-c2f275915119","ios":"levelo://app?vid=0196d479-6c1f-49e4-b7c0-c2f275915119"},"vehicle_type_id":"4","last_reported":1741702209,"current_range_meters":18800,"station_id":"ce4bha12rcd13ifvqef0","pricing_plan_id":"cebpf4jnsgd1na2vs0mg"},{"bike_id":"ab512144-565f-4e01-88e4-e8c242ff8c2c","system_id":"levelo_inurba_marseille","lat":43.28699,"lon":5.37396,"is_reserved":false,"is_disabled":false,"rental_uris":{"android":"levelo://app?vid=ab512144-565f-4e01-88e4-e8c242ff8c2c","ios":"levelo://app?vid=ab512144-565f-4e01-88e4-e8c242ff8c2c"},"vehicle_type_id":"4","last_reported":1741702209,"current_range_meters":19200,"station_id":"ce4bh3p2rcd13ifvqdq0","pricing_plan_id":"cebpf4jnsgd1na2vs0mg"},{"bike_id":"11db01fd-3f47-4880-b0c3-ebfc2afb21f8","system_id":"levelo_inurba_marseille","lat":43.30542,"lon":5.36699,"is_reserved":false,"is_disabled":false,"rental_uris":{"android":"levelo://app?vid=11db01fd-3f47-4880-b0c3-ebfc2afb21f8","ios":"levelo://app?vid=11db01fd-3f47-4880-b0c3-ebfc2afb21f8"},"vehicle_type_id":"4","last_reported":1741702209,"current_range_meters":19200,"station_id":"ce4bgrp2rcd13ifvqc9g","pricing_plan_id":"cebpf4jnsgd1na2vs0mg"},{"bike_id":"febafa61-9fca-4f05-8642-7cd522524da9","system_id":"levelo_inurba_marseille","lat":43.31497,"lon":5.37307,"is_reserved":false,"is_disabled":false,"rental_uris":{"android":"levelo://app?vid=febafa61-9fca-4f05-8642-7cd522524da9","ios":"levelo://app?vid=febafa61-9fca-4f05-8642-7cd522524da9"},"vehicle_type_id":"4","last_reported":1741702209,"current_range_meters":19200,"station_id":"ce4bgt12rcd13ifvqcd0","pricing_plan_id":"cebpf4jnsgd1na2vs0mg"},{"bike_id":"e93eb725-d6f9-4158-a4f8-f92489931730","system_id":"levelo_inurba_marseille","lat":43.28352,"lon":5.38115,"is_reserved":false,"is_disabled":false,"rental_uris":{"android":"levelo://app?vid=e93eb725-d6f9-4158-a4f8-f92489931730","ios":"levelo://app?vid=e93eb725-d6f9-4158-a4f8-f92489931730"},"vehicle_type_id":"4","last_reported":1741702209,"current_range_meters":19200,"station_id":"ce4bh412rcd13ifvqdr0","pricing_plan_id":"cebpf4jnsgd1na2vs0mg"},{"bike_id":"559b862d-e665-427a-a00e-72d2e934fb6f","system_id":"levelo_inurba_marseille","lat":43.26052,"lon":5.39379,"is_reserved":false,"is_disabled":false,"rental_uris":{"android":"levelo://app?vid=559b862d-e665-427a-a00e-72d2e934fb6f","ios":"levelo://app?vid=559b862d-e665-427a-a00e-72d2e934fb6f"},"vehicle_type_id":"4","last_reported":1741702209,"current_range_meters":19200,"station_id":"ce4bhh92rcd13ifvqfj0","pricing_plan_id":"cebpf4jnsgd1na2vs0mg"},{"bike_id":"5e36b6b8-6e77-45ed-9597-025342e46c0b","system_id":"levelo_inurba_marseille","lat":43.25461,"lon":5.37685,"is_reserved":false,"is_disabled":false,"rental_uris":{"android":"levelo://app?vid=5e36b6b8-6e77-45ed-9597-025342e46c0b","ios":"levelo://app?vid=5e36b6b8-6e77-45ed-9597-025342e46c0b"},"vehicle_type_id":"4","last_reported":1741702209,"current_range_meters":19200,"station_id":"ce4bhh12rcd13ifvqff0","pricing_plan_id":"cebpf4jnsgd1na2vs0mg"},{"bike_id":"5081aff6-b63e-4805-8cf7-0006cb4878ab","system_id":"levelo_inurba_marseille","lat":43.28438,"lon":5.39197,"is_reserved":false,"is_disabled":false,"rental_uris":{"android":"levelo://app?vid=5081aff6-b63e-4805-8cf7-0006cb4878ab","ios":"levelo://app?vid=5081aff6-b63e-4805-8cf7-0006cb4878ab"},"vehicle_type_id":"4","last_reported":1741702209,"current_range_meters":19200,"station_id":"ce4bhoh2rcd13ifvqh5g","pricing_plan_id":"cebpf4jnsgd1na2vs0mg"},{"bike_id":"d99dd91c-ab29-4dbf-897f-3184d2af819c","system_id":"levelo_inurba_marseille","lat":43.27208,"lon":5.39176,"is_reserved":false,"is_disabled":false,"rental_uris":{"android":"levelo://app?vid=d99dd91c-ab29-4dbf-897f-3184d2af819c","ios":"levelo://app?vid=d99dd91c-ab29-4dbf-897f-3184d2af819c"},"vehicle_type_id":"4","last_reported":1741702209,"current_range_meters":19200,"station_id":"ce4bhhp2rcd13ifvqfm0","pricing_plan_id":"cebpf4jnsgd1na2vs0mg"},{"bike_id":"80ed522e-a704-4033-be24-41d5f4c753ed","system_id":"levelo_inurba_marseille","lat":43.28721,"lon":5.37949,"is_reserved":false,"is_disabled":false,"rental_uris":{"android":"levelo://app?vid=80ed522e-a704-4033-be24-41d5f4c753ed","ios":"levelo://app?vid=80ed522e-a704-4033-be24-41d5f4c753ed"},"vehicle_type_id":"4","last_reported":1741702209,"current_range_meters":19600,"station_id":"ce4bh9p2rcd13ifvqec0","pricing_plan_id":"cebpf4jnsgd1na2vs0mg"},{"bike_id":"0a0f7e3c-7736-45d4-93bb-27f3c0db4db1","system_id":"levelo_inurba_marseille","lat":43.25832,"lon":5.39444,"is_reserved":false,"is_disabled":false,"rental_uris":{"android":"levelo://app?vid=0a0f7e3c-7736-45d4-93bb-27f3c0db4db1","ios":"levelo://app?vid=0a0f7e3c-7736-45d4-93bb-27f3c0db4db1"},"vehicle_type_id":"4","last_reported":1741702209,"current_range_meters":19600,"station_id":"ce4bhip2rcd13ifvqft0","pricing_plan_id":"cebpf4jnsgd1na2vs0mg"},{"bike_id":"a7063367-88b4-4f70-8a13-bbd78a86f142","system_id":"levelo_inurba_marseille","lat":43.28716,"lon":5.37938,"is_reserved":false,"is_disabled":false,"rental_uris":{"android":"levelo://app?vid=a7063367-88b4-4f70-8a13-bbd78a86f142","ios":"levelo://app?vid=a7063367-88b4-4f70-8a13-bbd78a86f142"},"vehicle_type_id":"4","last_reported":1741702209,"current_range_meters":19600,"station_id":"ce4bh9p2rcd13ifvqec0","pricing_plan_id":"cebpf4jnsgd1na2vs0mg"},{"bike_id":"9f2ce902-aeaf-42a8-85f6-4895d845dc40","system_id":"levelo_inurba_marseille","lat":43.30151,"lon":5.3989,"is_reserved":false,"is_disabled":false,"rental_uris":{"android":"levelo://app?vid=9f2ce902-aeaf-42a8-85f6-4895d845dc40","ios":"levelo://app?vid=9f2ce902-aeaf-42a8-85f6-4895d845dc40"},"vehicle_type_id":"4","last_reported":1741702209,"current_range_meters":19600,"station_id":"ce4bh0h2rcd13ifvqd40","pricing_plan_id":"cebpf4jnsgd1na2vs0mg"},{"bike_id":"d3ac1ba6-6349-4d47-99e4-9f85d3ef1aa5","system_id":"levelo_inurba_marseille","lat":43.28512,"lon":5.36864,"is_reserved":false,"is_disabled":false,"rental_uris":{"android":"levelo://app?vid=d3ac1ba6-6349-4d47-99e4-9f85d3ef1aa5","ios":"levelo://app?vid=d3ac1ba6-6349-4d47-99e4-9f85d3ef1aa5"},"vehicle_type_id":"4","last_reported":1741702209,"current_range_meters":19600,"station_id":"","pricing_plan_id":"cebpf4jnsgd1na2vs0mg"},{"bike_id":"20d7179d-655c-4f33-adc8-045f64577fdd","system_id":"levelo_inurba_marseille","lat":43.2844,"lon":5.39187,"is_reserved":false,"is_disabled":false,"rental_uris":{"android":"levelo://app?vid=20d7179d-655c-4f33-adc8-045f64577fdd","ios":"levelo://app?vid=20d7179d-655c-4f33-adc8-045f64577fdd"},"vehicle_type_id":"4","last_reported":1741702209,"current_range_meters":20000,"station_id":"ce4bhoh2rcd13ifvqh5g","pricing_plan_id":"cebpf4jnsgd1na2vs0mg"},{"bike_id":"d8f290bf-b8c9-41d2-8ebf-28724e84e7c2","system_id":"levelo_inurba_marseille","lat":43.28004,"lon":5.39992,"is_reserved":false,"is_disabled":false,"rental_uris":{"android":"levelo://app?vid=d8f290bf-b8c9-41d2-8ebf-28724e84e7c2","ios":"levelo://app?vid=d8f290bf-b8c9-41d2-8ebf-28724e84e7c2"},"vehicle_type_id":"4","last_reported":1741702209,"current_range_meters":19600,"station_id":"ce4bho92rcd13ifvqh4g","pricing_plan_id":"cebpf4jnsgd1na2vs0mg"},{"bike_id":"a1afebd4-af2a-4e30-af2e-1c83772cdf3d","system_id":"levelo_inurba_marseille","lat":43.23158,"lon":5.4371,"is_reserved":false,"is_disabled":false,"rental_uris":{"android":"levelo://app?vid=a1afebd4-af2a-4e30-af2e-1c83772cdf3d","ios":"levelo://app?vid=a1afebd4-af2a-4e30-af2e-1c83772cdf3d"},"vehicle_type_id":"4","last_reported":1741702209,"current_range_meters":19600,"station_id":"ce4bhmp2rcd13ifvqgog","pricing_plan_id":"cebpf4jnsgd1na2vs0mg"},{"bike_id":"9d5c6f66-5ffc-4f1c-98ec-076956a105d4","system_id":"levelo_inurba_marseille","lat":43.28714,"lon":5.37944,"is_reserved":false,"is_disabled":false,"rental_uris":{"android":"levelo://app?vid=9d5c6f66-5ffc-4f1c-98ec-076956a105d4","ios":"levelo://app?vid=9d5c6f66-5ffc-4f1c-98ec-076956a105d4"},"vehicle_type_id":"4","last_reported":1741702209,"current_range_meters":19600,"station_id":"ce4bh9p2rcd13ifvqec0","pricing_plan_id":"cebpf4jnsgd1na2vs0mg"},{"bike_id":"b163a897-2123-480a-9769-19ef64f50813","system_id":"levelo_inurba_marseille","lat":43.25925,"lon":5.40904,"is_reserved":false,"is_disabled":false,"rental_uris":{"android":"levelo://app?vid=b163a897-2123-480a-9769-19ef64f50813","ios":"levelo://app?vid=b163a897-2123-480a-9769-19ef64f50813"},"vehicle_type_id":"4","last_reported":1741702209,"current_range_meters":19600,"station_id":"ce4bhm92rcd13ifvqglg","pricing_plan_id":"cebpf4jnsgd1na2vs0mg"},{"bike_id":"91dad30c-9458-4ad6-82af-3f418daa7538","system_id":"levelo_inurba_marseille","lat":43.2468,"lon":5.38169,"is_reserved":false,"is_disabled":false,"rental_uris":{"android":"levelo://app?vid=91dad30c-9458-4ad6-82af-3f418daa7538","ios":"levelo://app?vid=91dad30c-9458-4ad6-82af-3f418daa7538"},"vehicle_type_id":"4","last_reported":1741702209,"current_range_meters":19600,"station_id":"ce4bhih2rcd13ifvqfr0","pricing_plan_id":"cebpf4jnsgd1na2vs0mg"},