{"last_updated":1685379965,"ttl":30,"version":"2.2","data":{"bikes":[{"bike_id":"d10b16f5-ba97-42ae-886b-495e015ce447","system_id":"levelo_inurba_marseille","lat":43.31341,"lon":5.367098,"is_reserved":false,"is_disabled":false,"rental_uris":{"android":"levelo://app?vid=d10b16f5-ba97-42ae-886b-495e015ce447","ios":"levelo://app?vid=d10b16f5-ba97-42ae-886b-495e015ce447"},"vehicle_type_id":"4","last_reported":1685379966,"current_range_meters":800,"station_id":"ce4bgr92rcd13ifvqc6g","pricing_plan_id":"free"},{"bike_id":"8d2725f3-3270-49de-b611-78b4ff41f32b","system_id":"levelo_inurba_marseille","lat":43.313391,"lon":5.36706,"is_reserved":false,"is_disabled":false,"rental_uris":{"android":"levelo://app?vid=8d2725f3-3270-49de-b611-78b4ff41f32b","ios":"levelo://app?vid=8d2725f3-3270-49de-b611-78b4ff41f32b"},"vehicle_type_id":"4","last_reported":1685379966,"current_range_meters":14400,"station_id":"ce4bgr92rcd13ifvqc6g","pricing_plan_id":"free"},{"bike_id":"d7794d8e-799f-40cf-bc17-0f2d998c2c21","system_id":"levelo_inurba_marseille","lat":43.314811,"lon":5.373103,"is_reserved":false,"is_disabled":false,"rental_uris":{"android":"levelo://app?vid=d7794d8e-799f-40cf-bc17-0f2d998c2c21","ios":"levelo://app?vid=d7794d8e-799f-40cf-bc17-0f2d998c2c21"},"vehicle_type_id":"4","last_reported":1685379966,"current_range_meters":9600,"station_id":"ce4bgt12rcd13ifvqcd0","pricing_plan_id":"free"},{"bike_id":"6ea3122f-b4c2-4dcb-8ee2-41cb7d21511d","system_id":"levelo_inurba_marseille","lat":43.31483,"lon":5.37303,"is_reserved":false,"is_disabled":false,"rental_uris":{"android":"levelo://app?vid=6ea3122f-b4c2-4dcb-8ee2-41cb7d21511d","ios":"levelo://app?vid=6ea3122f-b4c2-4dcb-8ee2-41cb7d21511d"},"vehicle_type_id":"4","last_reported":1685379966,"current_range_meters":20000,"station_id":"ce4bgt12rcd13ifvqcd0","pricing_plan_id":"free"},{"bike_id":"d2072e2c-9401-4476-ac46-b2d6bd8a4646","system_id":"levelo_inurba_marseille","lat":43.314811,"lon":5.373104,"is_reserved":false,"is_disabled":false,"rental_uris":{"android":"levelo://app?vid=d2072e2c-9401-4476-ac46-b2d6bd8a4646","ios":"levelo://app?vid=d2072e2c-9401-4476-ac46-b2d6bd8a4646"},"vehicle_type_id":"4","last_reported":1685379966,"current_range_meters":2800,"station_id":"ce4bgt12rcd13ifvqcd0","pricing_plan_id":"free"},{"bike_id":"d226e977-3f0b-4b0c-a0e0-157c44aec210","system_id":"levelo_inurba_marseille","lat":43.31493,"lon":5.37309,"is_reserved":false,"is_disabled":false,"rental_uris":{"android":"levelo://app?vid=d226e977-3f0b-4b0c-a0e0-157c44aec210","ios":"levelo://app?vid=d226e977-3f0b-4b0c-a0e0-157c44aec210"},"vehicle_type_id":"4","last_reported":1685379966,"current_range_meters":27600,"station_id":"ce4bgt12rcd13ifvqcd0","pricing_plan_id":"free"},{"bike_id":"cfe8b94b-e6f8-4730-bb47-d0b7129b7594","system_id":"levelo_inurba_marseille","lat":43.30916,"lon":5.37668,"is_reserved":false,"is_disabled":false,"rental_uris":{"android":"levelo://app?vid=cfe8b94b-e6f8-4730-bb47-d0b7129b7594","ios":"levelo://app?vid=cfe8b94b-e6f8-4730-bb47-d0b7129b7594"},"vehicle_type_id":"4","last_reported":1685379966,"current_range_meters":20000,"station_id":"","pricing_plan_id":"free"},{"bike_id":"b1f0749a-4ea1-4ae5-848c-aa45b4715897","system_id":"levelo_inurba_marseille","lat":43.31531,"lon":5.38032,"is_reserved":false,"is_disabled":false,"rental_uris":{"android":"levelo://app?vid=b1f0749a-4ea1-4ae5-848c-aa45b4715897","ios":"levelo://app?vid=b1f0749a-4ea1-4ae5-848c-aa45b4715897"},"vehicle_type_id":"4","last_reported":1685379966,"current_range_meters":23600,"station_id":"ce4bhsp2rcd13ifvqi50","pricing_plan_id":"free"},{"bike_id":"d03dfde3-848d-4a12-b8c5-302f4c16e8c3","system_id":"levelo_inurba_marseille","lat":43.31552,"lon":5.38054,"is_reserved":false,"is_disabled":false,"rental_uris":{"android":"levelo://app?vid=d03dfde3-848d-4a12-b8c5-302f4c16e8c3","ios":"levelo://app?vid=d03dfde3-848d-4a12-b8c5-302f4c16e8c3"},"vehicle_type_id":"4","last_reported":1685379966,"current_range_meters":16800,"station_id":"","pricing_plan_id":"free"},{"bike_id":"2b651255-47da-4042-afe0-11acc45c33d6","system_id":"levelo_inurba_marseille","lat":43.30807,"lon":5.38144,"is_reserved":false,"is_disabled":false,"rental_uris":{"android":"levelo://app?vid=2b651255-47da-4042-afe0-11acc45c33d6","ios":"levelo://app?vid=2b651255-47da-4042-afe0-11acc45c33d6"},"vehicle_type_id":"4","last_reported":1685379966,"current_range_meters":0,"station_id":"ce4bgt12rcd13ifvqce0","pricing_plan_id":"free"},{"bike_id":"5e9ec2ba-fb46-4eac-9f5e-3972060db014","system_id":"levelo_inurba_marseille","lat":43.308012,"lon":5.381511,"is_reserved":false,"is_disabled":false,"rental_uris":{"android":"levelo://app?vid=5e9ec2ba-fb46-4eac-9f5e-3972060db014","ios":"levelo://app?vid=5e9ec2ba-fb46-4eac-9f5e-3972060db014"},"vehicle_type_id":"4","last_reported":1685379966,"current_range_meters":0,"station_id":"ce4bgt12rcd13ifvqce0","pricing_plan_id":"free"},{"bike_id":"4179a864-5663-41f8-9bfa-d75035c4a3ee","system_id":"levelo_inurba_marseille","lat":43.30803,"lon":5.38154,"is_reserved":false,"is_disabled":false,"rental_uris":{"android":"levelo://app?vid=4179a864-5663-41f8-9bfa-d75035c4a3ee","ios":"levelo://app?vid=4179a864-5663-41f8-9bfa-d75035c4a3ee"},"vehicle_type_id":"4","last_reported":1685379966,"current_range_meters":0,"station_id":"ce4bgt12rcd13ifvqce0","pricing_plan_id":"free"},{"bike_id":"21f294fd-568a-4b7d-8af2-79378f988567","system_id":"levelo_inurba_marseille","lat":43.308012,"lon":5.381511,"is_reserved":false,"is_disabled":false,"rental_uris":{"android":"levelo://app?vid=21f294fd-568a-4b7d-8af2-79378f988567","ios":"levelo://app?vid=21f294fd-568a-4b7d-8af2-79378f988567"},"vehicle_type_id":"4","last_reported":1685379966,"current_range_meters":11600,"station_id":"ce4bgt12rcd13ifvqce0","pricing_plan_id":"free"},{"bike_id":"c400e462-a4de-4542-ac86-b99081db2f1e","system_id":"levelo_inurba_marseille","lat":43.31634,"lon":5.38324,"is_reserved":false,"is_disabled":false,"rental_uris":{"android":"levelo://app?vid=c400e462-a4de-4542-ac86-b99081db2f1e","ios":"levelo://app?vid=c400e462-a4de-4542-ac86-b99081db2f1e"},"vehicle_type_id":"4","last_reported":1685379966,"current_range_meters":9200,"station_id":"","pricing_plan_id":"free"},{"bike_id":"d11da2d4-50ab-475d-a497-999f76f85bd5","system_id":"levelo_inurba_marseille","lat":43.31637,"lon":5.38337,"is_reserved":false,"is_disabled":false,"rental_uris":{"android":"levelo://app?vid=d11da2d4-50ab-475d-a497-999f76f85bd5","ios":"levelo://app?vid=d11da2d4-50ab-475d-a497-999f76f85bd5"},"vehicle_type_id":"4","last_reported":1685379966,"current_range_meters":21600,"station_id":"","pricing_plan_id":"free"},{"bike_id":"5895156f-f83a-4b54-a0b5-57f02c18ef1a","system_id":"levelo_inurba_marseille","lat":43.32826,"lon":5.36679,"is_reserved":false,"is_disabled":false,"rental_uris":{"android":"levelo://app?vid=5895156f-f83a-4b54-a0b5-57f02c18ef1a","ios":"levelo://app?vid=5895156f-f83a-4b54-a0b5-57f02c18ef1a"},"vehicle_type_id":"4","last_reported":1685379966,"current_range_meters":21600,"station_id":"ce4bhs92rcd13ifvqi0g","pricing_plan_id":"free"},{"bike_id":"51560919-cfc2-4520-8975-d8c7f03ec0a5","system_id":"levelo_inurba_marseille","lat":43.29714,"lon":5.3661,"is_reserved":false,"is_disabled":false,"rental_uris":{"android":"levelo://app?vid=51560919-cfc2-4520-8975-d8c7f03ec0a5","ios":"levelo://app?vid=51560919-cfc2-4520-8975-d8c7f03ec0a5"},"vehicle_type_id":"4","last_reported":1685379966,"current_range_meters":22800,"station_id":"","pricing_plan_id":"free"},{"bike_id":"916ddcfb-742e-48fa-9f2d-06e0823530d6","system_id":"levelo_inurba_marseille","lat":43.309589,"lon":5.390258,"is_reserved":false,"is_disabled":false,"rental_uris":{"android":"levelo://app?vid=916ddcfb-742e-48fa-9f2d-06e0823530d6","ios":"levelo://app?vid=916ddcfb-742e-48fa-9f2d-06e0823530d6"},"vehicle_type_id":"4","last_reported":1685379966,"current_range_meters":4000,"station_id":"ce4bgup2rcd13ifvqco0","pricing_plan_id":"free"},{"bike_id":"92a55489-d865-4166-9f1f-b6990d19a167","system_id":"levelo_inurba_marseille","lat":43.296263,"lon":5.377094,"is_reserved":false,"is_disabled":false,"rental_uris":{"android":"levelo://app?vid=92a55489-d865-4166-9f1f-b6990d19a167","ios":"levelo://app?vid=92a55489-d865-4166-9f1f-b6990d19a167"},"vehicle_type_id":"4","last_reported":1685379966,"current_range_meters":21200,"station_id":"ce4bgi92rcd13ifvqb90","pricing_plan_id":"free"},{"bike_id":"d080ccbb-2916-48af-a231-8a6fc3f6ad8f","system_id":"levelo_inurba_marseille","lat":43.295221,"lon":5.374958,"is_reserved":false,"is_disabled":false,"rental_uris":{"android":"levelo://app?vid=d080ccbb-2916-48af-a231-8a6fc3f6ad8f","ios":"levelo://app?vid=d080ccbb-2916-48af-a231-8a6fc3f6ad8f"},"vehicle_type_id":"4","last_reported":1685379966,"current_range_meters":1600,"station_id":"ce4bhh12rcd13ifvqff0","pricing_plan_id":"free"},{"bike_id":"ed40d64e-64c2-4c38-a93a-aa9a9eb0d5ad","system_id":"levelo_inurba_marseille","lat":43.299717,"lon":5.384845,"is_reserved":false,"is_disabled":false,"rental_uris":{"android":"levelo://app?vid=ed40d64e-64c2-4c38-a93a-aa9a9eb0d5ad","ios":"levelo://app?vid=ed40d64e-64c2-4c38-a93a-aa9a9eb0d5ad"},"vehicle_type_id":"4","last_reported":1685379966,"current_range_meters":0,"station_id":"ce4bgj92rcd13ifvqbd0","pricing_plan_id":"free"},{"bike_id":"db9d0b8c-a66e-4144-a40d-f2a5f8a93f17","system_id":"levelo_inurba_marseille","lat":43.29728,"lon":5.38106,"is_reserved":false,"is_disabled":false,"rental_uris":{"android":"levelo://app?vid=db9d0b8c-a66e-4144-a40d-f2a5f8a93f17","ios":"levelo://app?vid=db9d0b8c-a66e-4144-a40d-f2a5f8a93f17"},"vehicle_type_id":"4","last_reported":1685379966,"current_range_meters":5600,"station_id":"","pricing_plan_id":"free"},{"bike_id":"00c9b202-b5b6-4f69-8084-db1f9466ee79","system_id":"levelo_inurba_marseille","lat":43.32367,"lon":5.388836,"is_reserved":false,"is_disabled":false,"rental_uris":{"android":"levelo://app?vid=00c9b202-b5b6-4f69-8084-db1f9466ee79","ios":"levelo://app?vid=00c9b202-b5b6-4f69-8084-db1f9466ee79"},"vehicle_type_id":"4","last_reported":1685379966,"current_range_meters":25200,"station_id":"ce4bhqp2rcd13ifvqhog","pricing_plan_id":"free"},{"bike_id":"950f3a0b-8466-40bf-8f81-5f5cf1a96632","system_id":"levelo_inurba_marseille","lat":43.32367,"lon":5.388836,"is_reserved":false,"is_disabled":false,"rental_uris":{"android":"levelo://app?vid=950f3a0b-8466-40bf-8f81-5f5cf1a96632","ios":"levelo://app?vid=950f3a0b-8466-40bf-8f81-5f5cf1a96632"},"vehicle_type_id":"4","last_reported":1685379966,"current_range_meters":8000,"station_id":"ce4bhqp2rcd13ifvqhog","pricing_plan_id":"free"},{"bike_id":"bf5f18dc-4111-479b-ab07-2b4a279d2f84","system_id":"levelo_inurba_marseille","lat":43.32367,"lon":5.388836,"is_reserved":false,"is_disabled":false,"rental_uris":{"android":"levelo://app?vid=bf5f18dc-4111-479b-ab07-2b4a279d2f84","ios":"levelo://app?vid=bf5f18dc-4111-479b-ab07-2b4a279d2f84"},"vehicle_type_id":"4","last_reported":1685379966,"current_range_meters":20400,"station_id":"ce4bhqp2rcd13ifvqhog","pricing_plan_id":"free"},{"bike_id":"c0795b6f-bd50-4a36-bb7d-fa2aea3b8578","system_id":"levelo_inurba_marseille","lat":43.29281,"lon":5.36846,"is_reserved":false,"is_disabled":false,"rental_uris":{"android":"levelo://app?vid=c0795b6f-bd50-4a36-bb7d-fa2aea3b8578","ios":"levelo://app?vid=c0795b6f-bd50-4a36-bb7d-fa2aea3b8578"},"vehicle_type_id":"4","last_reported":1685379966,"current_range_meters":24400,"station_id":"ce4bhbp2rcd13ifvqesg","pricing_plan_id":"free"},{"bike_id":"09a2345f-a145-484e-999f-0047c2235769","system_id":"levelo_inurba_marseille","lat":43.305994,"lon":5.393687,"is_reserved":false,"is_disabled":false,"rental_uris":{"android":"levelo://app?vid=09a2345f-a145-484e-999f-0047c2235769","ios":"levelo://app?vid=09a2345f-a145-484e-999f-0047c2235769"},"vehicle_type_id":"4","last_reported":1685379966,"current_range_meters":2800,"station_id":"ce4bh0p2rcd13ifvqd80","pricing_plan_id":"free"},{"bike_id":"21ad558d-35d3-4be7-a15b-e627160e4791","system_id":"levelo_inurba_marseille","lat":43.302992,"lon":5.392136,"is_reserved":false,"is_disabled":false,"rental_uris":{"android":"levelo://app?vid=21ad558d-35d3-4be7-a15b-e627160e4791","ios":"levelo://app?vid=21ad558d-35d3-4be7-a15b-e627160e4791"},"vehicle_type_id":"4","last_reported":1685379966,"current_range_meters":14000,"station_id":"ce4bgkh2rcd13ifvqbk0","pricing_plan_id":"free"},{"bike_id":"76677361-15d4-47d4-8eaa-63a5294ef818","system_id":"levelo_inurba_marseille","lat":43.303002,"lon":5.392142,"is_reserved":false,"is_disabled":false,"rental_uris":{"android":"levelo://app?vid=76677361-15d4-47d4-8eaa-63a5294ef818","ios":"levelo://app?vid=76677361-15d4-47d4-8eaa-63a5294ef818"},"vehicle_type_id":"4","last_reported":1685379966,"current_range_meters":17600,"station_id":"ce4bgkh2rcd13ifvqbk0","pricing_plan_id":"free"},{"bike_id":"a313cfe3-776d-4e32-8a54-028c50b6527c","system_id":"levelo_inurba_marseille","lat":43.2936,"lon":5.37835,"is_reserved":false,"is_disabled":false,"rental_uris":{"android":"levelo://app?vid=a313cfe3-776d-4e32-8a54-028c50b6527c","ios":"levelo://app?vid=a313cfe3-776d-4e32-8a54-028c50b6527c"},"vehicle_type_id":"4","last_reported":1685379966,"current_range_meters":0,"station_id":"ce4bgjh2rcd13ifvqbf0","pricing_plan_id":"free"},{"bike_id":"a29c8394-0b6f-4923-bcc8-bb116a55bfa3","system_id":"levelo_inurba_marseille","lat":43.292318,"lon":5.36114,"is_reserved":false,"is_disabled":false,"rental_uris":{"android":"levelo://app?vid=a29c8394-0b6f-4923-bcc8-bb116a55bfa3","ios":"levelo://app?vid=a29c8394-0b6f-4923-bcc8-bb116a55bfa3"},"vehicle_type_id":"4","last_reported":1685379966,"current_range_meters":9200,"station_id":"","pricing_plan_id":"free"},{"bike_id":"36f17020-cec1-4831-a9eb-edb1990b28d0","system_id":"levelo_inurba_marseille","lat":43.292311,"lon":5.360731,"is_reserved":false,"is_disabled":false,"rental_uris":{"android":"levelo://app?vid=36f17020-cec1-4831-a9eb-edb1990b28d0","ios":"levelo://app?vid=36f17020-cec1-4831-a9eb-edb1990b28d0"},"vehicle_type_id":"4","last_reported":1685379966,"current_range_meters":0,"station_id":"ce4bhbh2rcd13ifvqeqg","pricing_plan_id":"free"},{"bike_id":"acc7efb6-f797-4f2f-82dc-add5cda824ea","system_id":"levelo_inurba_marseille","lat":43.29268,"lon":5.3764,"is_reserved":false,"is_disabled":false,"rental_uris":{"android":"levelo://app?vid=acc7efb6-f797-4f2f-82dc-add5cda824ea","ios":"levelo://app?vid=acc7efb6-f797-4f2f-82dc-add5cda824ea"},"vehicle_type_id":"4","last_reported":1685379966,"current_range_meters":12000,"station_id":"ce4bgi12rcd13ifvqb80","pricing_plan_id":"free"},{"bike_id":"d84748ca-56de-4c39-8d97-8763d6af5c17","system_id":"levelo_inurba_marseille","lat":43.313291,"lon":5.396838,"is_reserved":false,"is_disabled":false,"rental_uris":{"android":"levelo://app?vid=d84748ca-56de-4c39-8d97-8763d6af5c17","ios":"levelo://app?vid=d84748ca-56de-4c39-8d97-8763d6af5c17"},"vehicle_type_id":"4","last_reported":1685379966,"current_range_meters":19600,"station_id":"ce4bgvp2rcd13ifvqcu0","pricing_plan_id":"free"},{"bike_id":"2fe5d32d-6572-4080-a12b-37460be1a262","system_id":"levelo_inurba_marseille","lat":43.309038,"lon":5.396546,"is_reserved":false,"is_disabled":false,"rental_uris":{"android":"levelo://app?vid=2fe5d32d-6572-4080-a12b-37460be1a262","ios":"levelo://app?vid=2fe5d32d-6572-4080-a12b-37460be1a262"},"vehicle_type_id":"4","last_reported":1685379966,"current_range_meters":0,"station_id":"ce4bh012rcd13ifvqcv0","pricing_plan_id":"free"},{"bike_id":"f0c72ee3-9138-4c37-a483-8155904270c0","system_id":"levelo_inurba_marseille","lat":43.29188,"lon":5.35802,"is_reserved":false,"is_disabled":false,"rental_uris":{"android":"levelo://app?vid=f0c72ee3-9138-4c37-a483-8155904270c0","ios":"levelo://app?vid=f0c72ee3-9138-4c37-a483-8155904270c0"},"vehicle_type_id":"4","last_reported":1685379966,"current_range_meters":0,"station_id":"ce4bhb12rcd13ifvqel0","pricing_plan_id":"free"},{"bike_id":"30c1dcc4-516e-4733-a331-dc940127796a","system_id":"levelo_inurba_marseille","lat":43.30886,"lon":5.39654,"is_reserved":false,"is_disabled":false,"rental_uris":{"android":"levelo://app?vid=30c1dcc4-516e-4733-a331-dc940127796a","ios":"levelo://app?vid=30c1dcc4-516e-4733-a331-dc940127796a"},"vehicle_type_id":"4","last_reported":1685379966,"current_range_meters":2800,"station_id":"ce4bh012rcd13ifvqcv0","pricing_plan_id":"free"},{"bike_id":"8649da42-9253-42c3-adef-ebe24c61f84f","system_id":"levelo_inurba_marseille","lat":43.309038,"lon":5.396546,"is_reserved":false,"is_disabled":false,"rental_uris":{"android":"levelo://app?vid=8649da42-9253-42c3-adef-ebe24c61f84f","ios":"levelo://app?vid=8649da42-9253-42c3-adef-ebe24c61f84f"},"vehicle_type_id":"4","last_reported":1685379966,"current_range_meters":10000,"station_id":"ce4bh012rcd13ifvqcv0","pricing_plan_id":"free"},{"bike_id":"33326cf2-9b12-4d06-b2b2-c1b9020e9be9","system_id":"levelo_inurba_marseille","lat":43.29536,"lon":5.38546,"is_reserved":false,"is_disabled":false,"rental_uris":{"android":"levelo://app?vid=33326cf2-9b12-4d06-b2b2-c1b9020e9be9","ios":"levelo://app?vid=33326cf2-9b12-4d06-b2b2-c1b9020e9be9"},"vehicle_type_id":"4","last_reported":1685379966,"current_range_meters":10400,"station_id":"ce4bgih2rcd13ifvqba0","pricing_plan_id":"free"},{"bike_id":"4ec9ade4-2f75-430c-b812-7b95de75704b","system_id":"levelo_inurba_marseille","lat":43.290779,"lon":5.371482,"is_reserved":false,"is_disabled":false,"rental_uris":{"android":"levelo://app?vid=4ec9ade4-2f75-430c-b812-7b95de75704b","ios":"levelo://app?vid=4ec9ade4-2f75-430c-b812-7b95de75704b"},"vehicle_type_id":"4","last_reported":1685379966,"current_range_meters":800,"station_id":"ce4bh5p2rcd13ifvqe4g","pricing_plan_id":"free"},{"bike_id":"22848c25-42a4-4c2e-b989-383efb099e6e","system_id":"levelo_inurba_marseille","lat":43.302008,"lon":5.394694,"is_reserved":false,"is_disabled":false,"rental_uris":{"android":"levelo://app?vid=22848c25-42a4-4c2e-b989-383efb099e6e","ios":"levelo://app?vid=22848c25-42a4-4c2e-b989-383efb099e6e"},"vehicle_type_id":"4","last_reported":1685379966,"current_range_meters":24400,"station_id":"ce4bh0p2rcd13ifvqd70","pricing_plan_id":"free"},{"bike_id":"4f21613f-4e46-459b-abc0-6d0466b40a4e","system_id":"levelo_inurba_marseille","lat":43.290624,"lon":5.359245,"is_reserved":false,"is_disabled":false,"rental_uris":{"android":"levelo://app?vid=4f21613f-4e46-459b-abc0-6d0466b40a4e","ios":"levelo://app?vid=4f21613f-4e46-459b-abc0-6d0466b40a4e"},"vehicle_type_id":"4","last_reported":1685379966,"current_range_meters":23200,"station_id":"ce4bha92rcd13ifvqeg0","pricing_plan_id":"free"},{"bike_id":"dcd9aa04-7430-459b-9eb5-e8b1dc4a9363","system_id":"levelo_inurba_marseille","lat":43.294153,"lon":5.386305,"is_reserved":false,"is_disabled":false,"rental_uris":{"android":"levelo://app?vid=dcd9aa04-7430-459b-9eb5-e8b1dc4a9363","ios":"levelo://app?vid=dcd9aa04-7430-459b-9eb5-e8b1dc4a9363"},"vehicle_type_id":"4","last_reported":1685379966,"current_range_meters":16400,"station_id":"ce4bh2h2rcd13ifvqdh0","pricing_plan_id":"free"},{"bike_id":"af2124fc-066a-4935-be04-de8e2f15bcce","system_id":"levelo_inurba_marseille","lat":43.290327,"lon":5.375711,"is_reserved":false,"is_disabled":false,"rental_uris":{"android":"levelo://app?vid=af2124fc-066a-4935-be04-de8e2f15bcce","ios":"levelo://app?vid=af2124fc-066a-4935-be04-de8e2f15bcce"},"vehicle_type_id":"4","last_reported":1685379966,"current_range_meters":17200,"station_id":"ce4bh692rcd13ifvqe90","pricing_plan_id":"free"},{"bike_id":"86e2f5e8-9189-449e-8c1d-9f2d9b1a9baa","system_id":"levelo_inurba_marseille","lat":43.29415,"lon":5.38622,"is_reserved":false,"is_disabled":false,"rental_uris":{"android":"levelo://app?vid=86e2f5e8-9189-449e-8c1d-9f2d9b1a9baa","ios":"levelo://app?vid=86e2f5e8-9189-449e-8c1d-9f2d9b1a9baa"},"vehicle_type_id":"4","last_reported":1685379966,"current_range_meters":0,"station_id":"ce4bh2h2rcd13ifvqdh0","pricing_plan_id":"free"},{"bike_id":"804c0efa-7d21-4388-bde8-f28927ba9919","system_id":"levelo_inurba_marseille","lat":43.29415,"lon":5.38627,"is_reserved":false,"is_disabled":false,"rental_uris":{"android":"levelo://app?vid=804c0efa-7d21-4388-bde8-f28927ba9919","ios":"levelo://app?vid=804c0efa-7d21-4388-bde8-f28927ba9919"},"vehicle_type_id":"4","last_reported":1685379966,"current_range_meters":0,"station_id":"ce4bh2h2rcd13ifvqdh0","pricing_plan_id":"free"},{"bike_id":"e893c663-9f35-432c-8d0b-01bfcc23823b","system_id":"levelo_inurba_marseille","lat":43.292644,"lon":5.384257,"is_reserved":false,"is_disabled":false,"rental_uris":{"android":"levelo://app?vid=e893c663-9f35-432c-8d0b-01bfcc23823b","ios":"levelo://app?vid=e893c663-9f35-432c-8d0b-01bfcc23823b"},"vehicle_type_id":"4","last_reported":1685379966,"current_range_meters":15600,"station_id":"ce4bh692rcd13ifvqea0","pricing_plan_id":"free"},{"bike_id":"15e26bc7-7b45-4063-b6a9-64c715303478","system_id":"levelo_inurba_marseille","lat":43.29261,"lon":5.3843,"is_reserved":false,"is_disabled":false,"rental_uris":{"android":"levelo://app?vid=15e26bc7-7b45-4063-b6a9-64c715303478","ios":"levelo://app?vid=15e26bc7-7b45-4063-b6a9-64c715303478"},"vehicle_type_id":"4","last_reported":1685379966,"current_range_meters":12800,"station_id":"","pricing_plan_id":"free"},{"bike_id":"7429f2d7-883a-43f1-855a-5e894a8b98aa","system_id":"levelo_inurba_marseille","lat":43.29529,"lon":5.385581,"is_reserved":false,"is_disabled":false,"rental_uris":{"android":"levelo://app?vid=7429f2d7-883a-43f1-855a-5e894a8b98aa","ios":"levelo://app?vid=7429f2d7-883a-43f1-855a-5e894a8b98aa"},"vehicle_type_id":"4","last_reported":1685379966,"current_range_meters":14800,"station_id":"ce4bgih2rcd13ifvqba0","pricing_plan_id":"free"},{"bike_id":"eb164a15-1845-4567-9589-4404c8d2585b","system_id":"levelo_inurba_marseille","lat":43.292644,"lon":5.384257,"is_reserved":false,"is_disabled":false,"rental_uris":{"android":"levelo://app?vid=eb164a15-1845-4567-9589-4404c8d2585b","ios":"levelo://app?vid=eb164a15-1845-4567-9589-4404c8d2585b"},"vehicle_type_id":"4","last_reported":1685379966,"current_range_meters":20000,"station_id":"ce4bh692rcd13ifvqea0","pricing_plan_id":"free"},{"bike_id":"1c858d70-9166-4792-950e-e778783c48d8","system_id":"levelo_inurba_marseille","lat":43.29257,"lon":5.3844,"is_reserved":false,"is_disabled":false,"rental_uris":{"android":"levelo://app?vid=1c858d70-9166-4792-950e-e778783c48d8","ios":"levelo://app?vid=1c858d70-9166-4792-950e-e778783c48d8"},"vehicle_type_id":"4","last_reported":1685379966,"current_range_meters":19200,"station_id":"ce4bh692rcd13ifvqea0","pricing_plan_id":"free"},{"bike_id":"a99eed9f-78cf-408d-8a02-a73a3f149b6a","system_id":"levelo_inurba_marseille","lat":43.290103,"lon":5.356114,"is_reserved":false,"is_disabled":false,"rental_uris":{"android":"levelo://app?vid=a99eed9f-78cf-408d-8a02-a73a3f149b6a","ios":"levelo://app?vid=a99eed9f-78cf-408d-8a02-a73a3f149b6a"},"vehicle_type_id":"4","last_reported":1685379966,"current_range_meters":13600,"station_id":"ce4bhb92rcd13ifvqen0","pricing_plan_id":"free"},{"bike_id":"eb2ddfe4-4895-492a-9ef3-9d8d5fc8230b","system_id":"levelo_inurba_marseille","lat":43.33043,"lon":5.38917,"is_reserved":false,"is_disabled":false,"rental_uris":{"android":"levelo://app?vid=eb2ddfe4-4895-492a-9ef3-9d8d5fc8230b","ios":"levelo://app?vid=eb2ddfe4-4895-492a-9ef3-9d8d5fc8230b"},"vehicle_type_id":"4","last_reported":1685379966,"current_range_meters":400,"station_id":"ce4bhr92rcd13ifvqhrg","pricing_plan_id":"free"},{"bike_id":"2a15d4a3-534c-47a0-8a63-2bfb5c878e8b","system_id":"levelo_inurba_marseille","lat":43.290104,"lon":5.356111,"is_reserved":false,"is_disabled":false,"rental_uris":{"android":"levelo://app?vid=2a15d4a3-534c-47a0-8a63-2bfb5c878e8b","ios":"levelo://app?vid=2a15d4a3-534c-47a0-8a63-2bfb5c878e8b"},"vehicle_type_id":"4","last_reported":1685379966,"current_range_meters":400,"station_id":"ce4bhb92rcd13ifvqen0","pricing_plan_id":"free"},{"bike_id":"287bc98b-85d4-4ae0-929c-5a65def02e13","system_id":"levelo_inurba_marseille","lat":43.33047,"lon":5.38917,"is_reserved":false,"is_disabled":false,"rental_uris":{"android":"levelo://app?vid=287bc98b-85d4-4ae0-929c-5a65def02e13","ios":"levelo://app?vid=287bc98b-85d4-4ae0-929c-5a65def02e13"},"vehicle_type_id":"4","last_reported":1685379966,"current_range_meters":24400,"station_id":"ce4bhr92rcd13ifvqhrg","pricing_plan_id":"free"},{"bike_id":"832342a9-6460-4dd5-8782-2d2fcb738c7a","system_id":"levelo_inurba_marseille","lat":43.290104,"lon":5.356111,"is_reserved":false,"is_disabled":false,"rental_uris":{"android":"levelo://app?vid=832342a9-6460-4dd5-8782-2d2fcb738c7a","ios":"levelo://app?vid=832342a9-6460-4dd5-8782-2d2fcb738c7a"},"vehicle_type_id":"4","last_reported":1685379966,"current_range_meters":10400,"station_id":"ce4bhb92rcd13ifvqen0","pricing_plan_id":"free"},{"bike_id":"8ff4cbcf-5a9e-4d6f-be82-347b1477f2f0","system_id":"levelo_inurba_marseille","lat":43.290104,"lon":5.356111,"is_reserved":false,"is_disabled":false,"rental_uris":{"android":"levelo://app?vid=8ff4cbcf-5a9e-4d6f-be82-347b1477f2f0","ios":"levelo://app?vid=8ff4cbcf-5a9e-4d6f-be82-347b1477f2f0"},"vehicle_type_id":"4","last_reported":1685379966,"current_range_meters":800,"station_id":"ce4bhb92rcd13ifvqen0","pricing_plan_id":"free"},{"bike_id":"dd1c2f3d-44db-4ff0-af4d-241ad0d6f41e","system_id":"levelo_inurba_marseille","lat":43.289743,"lon":5.378304,"is_reserved":false,"is_disabled":false,"rental_uris":{"android":"levelo://app?vid=dd1c2f3d-44db-4ff0-af4d-241ad0d6f41e","ios":"levelo://app?vid=dd1c2f3d-44db-4ff0-af4d-241ad0d6f41e"},"vehicle_type_id":"4","last_reported":1685379966,"current_range_meters":0,"station_id":"ce4bh9p2rcd13ifvqed0","pricing_plan_id":"free"},{"bike_id":"bfc84b9b-6e3a-4eef-81a8-6673e8dab845","system_id":"levelo_inurba_marseille","lat":43.286591,"lon":5.363346,"is_reserved":false,"is_disabled":false,"rental_uris":{"android":"levelo://app?vid=bfc84b9b-6e3a-4eef-81a8-6673e8dab845","ios":"levelo://app?vid=bfc84b9b-6e3a-4eef-81a8-6673e8dab845"},"vehicle_type_id":"4","last_reported":1685379966,"current_range_meters":13200,"station_id":"ce4bhah2rcd13ifvqej0","pricing_plan_id":"free"},{"bike_id":"141c14ea-594b-43ee-894e-8c44af1dcd73","system_id":"levelo_inurba_marseille","lat":43.33741,"lon":5.37457,"is_reserved":false,"is_disabled":false,"rental_uris":{"android":"levelo://app?vid=141c14ea-594b-43ee-894e-8c44af1dcd73","ios":"levelo://app?vid=141c14ea-594b-43ee-894e-8c44af1dcd73"},"vehicle_type_id":"4","last_reported":1685379966,"current_range_meters":31200,"station_id":"","pricing_plan_id":"free"},{"bike_id":"493860ce-e063-4684-ab33-c360eaf64153","system_id":"levelo_inurba_marseille","lat":43.33744,"lon":5.37451,"is_reserved":false,"is_disabled":false,"rental_uris":{"android":"levelo://app?vid=493860ce-e063-4684-ab33-c360eaf64153","ios":"levelo://app?vid=493860ce-e063-4684-ab33-c360eaf64153"},"vehicle_type_id":"4","last_reported":1685379966,"current_range_meters":13600,"station_id":"","pricing_plan_id":"free"},{"bike_id":"c67b547c-3fcb-4384-8614-e15f558fec55","system_id":"levelo_inurba_marseille","lat":43.33744,"lon":5.37451,"is_reserved":false,"is_disabled":false,"rental_uris":{"android":"levelo://app?vid=c67b547c-3fcb-4384-8614-e15f558fec55","ios":"levelo://app?vid=c67b547c-3fcb-4384-8614-e15f558fec55"},"vehicle_type_id":"4","last_reported":1685379966,"current_range_meters":22800,"station_id":"","pricing_plan_id":"free"},{"bike_id":"7ba5b17d-bed3-4f47-8e26-7755741e8c1c","system_id":"levelo_inurba_marseille","lat":43.30642,"lon":5.401031,"is_reserved":false,"is_disabled":false,"rental_uris":{"android":"levelo://app?vid=7ba5b17d-bed3-4f47-8e26-7755741e8c1c","ios":"levelo://app?vid=7ba5b17d-bed3-4f47-8e26-7755741e8c1c"},"vehicle_type_id":"4","last_reported":1685379966,"current_range_meters":15200,"station_id":"ce4bh112rcd13ifvqda0","pricing_plan_id":"free"},{"bike_id":"556c6db1-2600-4c2b-9521-aae8453517c1","system_id":"levelo_inurba_marseille","lat":43.33754,"lon":5.3745,"is_reserved":false,"is_disabled":false,"rental_uris":{"android":"levelo://app?vid=556c6db1-2600-4c2b-9521-aae8453517c1","ios":"levelo://app?vid=556c6db1-2600-4c2b-9521-aae8453517c1"},"vehicle_type_id":"4","last_reported":1685379966,"current_range_meters":9200,"station_id":"","pricing_plan_id":"free"},{"bike_id":"386ca095-818e-4fee-952d-fc0975cd10d1","system_id":"levelo_inurba_marseille","lat":43.301117,"lon":5.398795,"is_reserved":false,"is_disabled":false,"rental_uris":{"android":"levelo://app?vid=386ca095-818e-4fee-952d-fc0975cd10d1","ios":"levelo://app?vid=386ca095-818e-4fee-952d-fc0975cd10d1"},"vehicle_type_id":"4","last_reported":1685379966,"current_range_meters":6400,"station_id":"ce4bh0h2rcd13ifvqd40","pricing_plan_id":"free"},{"bike_id":"e9e884b6-e469-48fc-9235-6a91d4e50ee0","system_id":"levelo_inurba_marseille","lat":43.298681,"lon":5.397225,"is_reserved":false,"is_disabled":false,"rental_uris":{"android":"levelo://app?vid=e9e884b6-e469-48fc-9235-6a91d4e50ee0","ios":"levelo://app?vid=e9e884b6-e469-48fc-9235-6a91d4e50ee0"},"vehicle_type_id":"4","last_reported":1685379966,"current_range_meters":8400,"station_id":"ce4bh0h2rcd13ifvqd50","pricing_plan_id":"free"},{"bike_id":"9ed9902f-1fdc-4984-8765-91e27c5f8d6f","system_id":"levelo_inurba_marseille","lat":43.29538,"lon":5.39392,"is_reserved":false,"is_disabled":false,"rental_uris":{"android":"levelo://app?vid=9ed9902f-1fdc-4984-8765-91e27c5f8d6f","ios":"levelo://app?vid=9ed9902f-1fdc-4984-8765-91e27c5f8d6f"},"vehicle_type_id":"4","last_reported":1685379966,"current_range_meters":10400,"station_id":"ce4bh292rcd13ifvqdf0","pricing_plan_id":"free"},{"bike_id":"05a56d19-2095-46ab-b4fa-0b229cfb8671","system_id":"levelo_inurba_marseille","lat":43.286593,"lon":5.363346,"is_reserved":false,"is_disabled":false,"rental_uris":{"android":"levelo://app?vid=05a56d19-2095-46ab-b4fa-0b229cfb8671","ios":"levelo://app?vid=05a56d19-2095-46ab-b4fa-0b229cfb8671"},"vehicle_type_id":"4","last_reported":1685379966,"current_range_meters":6000,"station_id":"ce4bhah2rcd13ifvqej0","pricing_plan_id":"free"},{"bike_id":"625f1f96-aa49-4018-94e4-2069513eb838","system_id":"levelo_inurba_marseille","lat":43.298681,"lon":5.397225,"is_reserved":false,"is_disabled":false,"rental_uris":{"android":"levelo://app?vid=625f1f96-aa49-4018-94e4-2069513eb838","ios":"levelo://app?vid=625f1f96-aa49-4018-94e4-2069513eb838"},"vehicle_type_id":"4","last_reported":1685379966,"current_range_meters":1600,"station_id":"ce4bh0h2rcd13ifvqd50","pricing_plan_id":"free"},{"bike_id":"f1e922e6-3079-4243-bd4e-2a4f3a34c552","system_id":"levelo_inurba_marseille","lat":43.286593,"lon":5.363346,"is_reserved":false,"is_disabled":false,"rental_uris":{"android":"levelo://app?vid=f1e922e6-3079-4243-bd4e-2a4f3a34c552","ios":"levelo://app?vid=f1e922e6-3079-4243-bd4e-2a4f3a34c552"},"vehicle_type_id":"4","last_reported":1685379966,"current_range_meters":0,"station_id":"ce4bhah2rcd13ifvqej0","pricing_plan_id":"free"},{"bike_id":"51234527-e694-4bd1-a474-653e7141d580","system_id":"levelo_inurba_marseille","lat":43.295194,"lon":5.39397,"is_reserved":false,"is_disabled":false,"rental_uris":{"android":"levelo://app?vid=51234527-e694-4bd1-a474-653e7141d580","ios":"levelo://app?vid=51234527-e694-4bd1-a474-653e7141d580"},"vehicle_type_id":"4","last_reported":1685379966,"current_range_meters":28000,"station_id":"ce4bh292rcd13ifvqdf0","pricing_plan_id":"free"},{"bike_id":"a38a90f9-4ce4-49a4-84f7-00438bdaf184","system_id":"levelo_inurba_marseille","lat":43.295194,"lon":5.39397,"is_reserved":false,"is_disabled":false,"rental_uris":{"android":"levelo://app?vid=a38a90f9-4ce4-49a4-84f7-00438bdaf184","ios":"levelo://app?vid=a38a90f9-4ce4-49a4-84f7-00438bdaf184"},"vehicle_type_id":"4","last_reported":1685379966,"current_range_meters":0,"station_id":"ce4bh292rcd13ifvqdf0","pricing_plan_id":"free"},{"bike_id":"e5a9e789-c58a-4372-b0c2-13a7a2d671e4","system_id":"levelo_inurba_marseille","lat":43.290345,"lon":5.38646,"is_reserved":false,"is_disabled":false,"rental_uris":{"android":"levelo://app?vid=e5a9e789-c58a-4372-b0c2-13a7a2d671e4","ios":"levelo://app?vid=e5a9e789-c58a-4372-b0c2-13a7a2d671e4"},"vehicle_type_id":"4","last_reported":1685379966,"current_range_meters":3600,"station_id":"ce4bh4p2rcd13ifvqe0g","pricing_plan_id":"free"},{"bike_id":"7db1732e-af11-4f3b-b3ac-f3ebdafb7b7a","system_id":"levelo_inurba_marseille","lat":43.290345,"lon":5.38646,"is_reserved":false,"is_disabled":false,"rental_uris":{"android":"levelo://app?vid=7db1732e-af11-4f3b-b3ac-f3ebdafb7b7a","ios":"levelo://app?vid=7db1732e-af11-4f3b-b3ac-f3ebdafb7b7a"},"vehicle_type_id":"4","last_reported":1685379966,"current_range_meters":12800,"station_id":"ce4bh4p2rcd13ifvqe0g","pricing_plan_id":"free"},{"bike_id":"790accda-3ed2-4bf3-b46f-897ec38b487a","system_id":"levelo_inurba_marseille","lat":43.290345,"lon":5.38646,"is_reserved":false,"is_disabled":false,"rental_uris":{"android":"levelo://app?vid=790accda-3ed2-4bf3-b46f-897ec38b487a","ios":"levelo://app?vid=790accda-3ed2-4bf3-b46f-897ec38b487a"},"vehicle_type_id":"4","last_reported":1685379966,"current_range_meters":800,"station_id":"ce4bh4p2rcd13ifvqe0g","pricing_plan_id":"free"},{"bike_id":"9bf85c55-8931-4522-85de-97ca163732cf","system_id":"levelo_inurba_marseille","lat":43.302759,"lon":5.400793,"is_reserved":false,"is_disabled":false,"rental_uris":{"android":"levelo://app?vid=9bf85c55-8931-4522-85de-97ca163732cf","ios":"levelo://app?vid=9bf85c55-8931-4522-85de-97ca163732cf"},"vehicle_type_id":"4","last_reported":1685379966,"current_range_meters":0,"station_id":"ce4bgvh2rcd13ifvqcs0","pricing_plan_id":"free"},{"bike_id":"2d02d31f-875d-4b15-aa02-9859001e3a41","system_id":"levelo_inurba_marseille","lat":43.302759,"lon":5.400793,"is_reserved":false,"is_disabled":false,"rental_uris":{"android":"levelo://app?vid=2d02d31f-875d-4b15-aa02-9859001e3a41","ios":"levelo://app?vid=2d02d31f-875d-4b15-aa02-9859001e3a41"},"vehicle_type_id":"4","last_reported":1685379966,"current_range_meters":13600,"station_id":"ce4bgvh2rcd13ifvqcs0","pricing_plan_id":"free"},{"bike_id":"55a24541-7e28-4ebe-b2e4-a5f1908f245f","system_id":"levelo_inurba_marseille","lat":43.286039,"lon":5.370679,"is_reserved":false,"is_disabled":false,"rental_uris":{"android":"levelo://app?vid=55a24541-7e28-4ebe-b2e4-a5f1908f245f","ios":"levelo://app?vid=55a24541-7e28-4ebe-b2e4-a5f1908f245f"},"vehicle_type_id":"4","last_reported":1685379966,"current_range_meters":10800,"station_id":"ce4bht12rcd13ifvqi60","pricing_plan_id":"free"},{"bike_id":"aaad4c95-c655-4ace-a173-fdea32177f06","system_id":"levelo_inurba_marseille","lat":43.286039,"lon":5.370679,"is_reserved":false,"is_disabled":false,"rental_uris":{"android":"levelo://app?vid=aaad4c95-c655-4ace-a173-fdea32177f06","ios":"levelo://app?vid=aaad4c95-c655-4ace-a173-fdea32177f06"},"vehicle_type_id":"4","last_reported":1685379966,"current_range_meters":3600,"station_id":"ce4bht12rcd13ifvqi60","pricing_plan_id":"free"},{"bike_id":"f134b70a-92ba-4c91-b58b-0054e3786f2a","system_id":"levelo_inurba_marseille","lat":43.286039,"lon":5.370679,"is_reserved":false,"is_disabled":false,"rental_uris":{"android":"levelo://app?vid=f134b70a-92ba-4c91-b58b-0054e3786f2a","ios":"levelo://app?vid=f134b70a-92ba-4c91-b58b-0054e3786f2a"},"vehicle_type_id":"4","last_reported":1685379966,"current_range_meters":28400,"station_id":"ce4bht12rcd13ifvqi60","pricing_plan_id":"free"},{"bike_id":"ded3ba71-3619-4741-951c-4cad1ff259ac","system_id":"levelo_inurba_marseille","lat":43.286039,"lon":5.370679,"is_reserved":false,"is_disabled":false,"rental_uris":{"android":"levelo://app?vid=ded3ba71-3619-4741-951c-4cad1ff259ac","ios":"levelo://app?vid=ded3ba71-3619-4741-951c-4cad1ff259ac"},"vehicle_type_id":"4","last_reported":1685379966,"current_range_meters":16800,"station_id":"ce4bht12rcd13ifvqi60","pricing_plan_id":"free"},{"bike_id":"53e79114-6ecd-4716-8a93-1b72fa49db14","system_id":"levelo_inurba_marseille","lat":43.290345,"lon":5.38646,"is_reserved":false,"is_disabled":false,"rental_uris":{"android":"levelo://app?vid=53e79114-6ecd-4716-8a93-1b72fa49db14","ios":"levelo://app?vid=53e79114-6ecd-4716-8a93-1b72fa49db14"},"vehicle_type_id":"4","last_reported":1685379966,"current_range_meters":17600,"station_id":"ce4bh4p2rcd13ifvqe0g","pricing_plan_id":"free"},{"bike_id":"74aa9a20-63c9-47b4-873e-d5874cece590","system_id":"levelo_inurba_marseille","lat":43.286039,"lon":5.370681,"is_reserved":false,"is_disabled":false,"rental_uris":{"android":"levelo://app?vid=74aa9a20-63c9-47b4-873e-d5874cece590","ios":"levelo://app?vid=74aa9a20-63c9-47b4-873e-d5874cece590"},"vehicle_type_id":"4","last_reported":1685379966,"current_range_meters":3200,"station_id":"ce4bht12rcd13ifvqi60","pricing_plan_id":"free"},{"bike_id":"23247a5f-6327-4e86-be63-538844eae251","system_id":"levelo_inurba_marseille","lat":43.291994,"lon":5.392907,"is_reserved":false,"is_disabled":false,"rental_uris":{"android":"levelo://app?vid=23247a5f-6327-4e86-be63-538844eae251","ios":"levelo://app?vid=23247a5f-6327-4e86-be63-538844eae251"},"vehicle_type_id":"4","last_reported":1685379966,"current_range_meters":19200,"station_id":"ce4bh192rcd13ifvqdd0","pricing_plan_id":"free"},{"bike_id":"395bf458-2d01-4997-b563-a1d6c587ddac","system_id":"levelo_inurba_marseille","lat":43.28464,"lon":5.3589,"is_reserved":false,"is_disabled":false,"rental_uris":{"android":"levelo://app?vid=395bf458-2d01-4997-b563-a1d6c587ddac","ios":"levelo://app?vid=395bf458-2d01-4997-b563-a1d6c587ddac"},"vehicle_type_id":"4","last_reported":1685379966,"current_range_meters":26800,"station_id":"ce4bhah2rcd13ifvqei0","pricing_plan_id":"free"},{"bike_id":"8009ad0b-0dff-4d3e-a0e7-eb38a44e9133","system_id":"levelo_inurba_marseille","lat":43.28463,"lon":5.35893,"is_reserved":false,"is_disabled":false,"rental_uris":{"android":"levelo://app?vid=8009ad0b-0dff-4d3e-a0e7-eb38a44e9133","ios":"levelo://app?vid=8009ad0b-0dff-4d3e-a0e7-eb38a44e9133"},"vehicle_type_id":"4","last_reported":1685379966,"current_range_meters":9200,"station_id":"","pricing_plan_id":"free"},{"bike_id":"3d3b9e9f-ede3-4e6d-8726-fc71977032a2","system_id":"levelo_inurba_marseille","lat":43.28454,"lon":5.35888,"is_reserved":false,"is_disabled":false,"rental_uris":{"android":"levelo://app?vid=3d3b9e9f-ede3-4e6d-8726-fc71977032a2","ios":"levelo://app?vid=3d3b9e9f-ede3-4e6d-8726-fc71977032a2"},"vehicle_type_id":"4","last_reported":1685379966,"current_range_meters":24800,"station_id":"ce4bhah2rcd13ifvqei0","pricing_plan_id":"free"},{"bike_id":"6b8102e4-12b1-482d-ac65-7c2707eafae0","system_id":"levelo_inurba_marseille","lat":43.284534,"lon":5.358662,"is_reserved":false,"is_disabled":false,"rental_uris":{"android":"levelo://app?vid=6b8102e4-12b1-482d-ac65-7c2707eafae0","ios":"levelo://app?vid=6b8102e4-12b1-482d-ac65-7c2707eafae0"},"vehicle_type_id":"4","last_reported":1685379966,"current_range_meters":15200,"station_id":"ce4bhah2rcd13ifvqei0","pricing_plan_id":"free"},{"bike_id":"fe752201-c96b-4ae8-a073-9a092ab6cf8b","system_id":"levelo_inurba_marseille","lat":43.2845,"lon":5.35884,"is_reserved":false,"is_disabled":false,"rental_uris":{"android":"levelo://app?vid=fe752201-c96b-4ae8-a073-9a092ab6cf8b","ios":"levelo://app?vid=fe752201-c96b-4ae8-a073-9a092ab6cf8b"},"vehicle_type_id":"4","last_reported":1685379966,"current_range_meters":11200,"station_id":"ce4bhah2rcd13ifvqei0","pricing_plan_id":"free"},{"bike_id":"e2fc3e02-c01e-4cf9-b6e1-91c460e6e31b","system_id":"levelo_inurba_marseille","lat":43.323464,"lon":5.406297,"is_reserved":false,"is_disabled":false,"rental_uris":{"android":"levelo://app?vid=e2fc3e02-c01e-4cf9-b6e1-91c460e6e31b","ios":"levelo://app?vid=e2fc3e02-c01e-4cf9-b6e1-91c460e6e31b"},"vehicle_type_id":"4","last_reported":1685379966,"current_range_meters":1600,"station_id":"ce4bhq92rcd13ifvqhjg","pricing_plan_id":"free"},{"bike_id":"c69acdbd-428b-4e1b-8045-efc7bba4dcff","system_id":"levelo_inurba_marseille","lat":43.283498,"lon":5.380948,"is_reserved":false,"is_disabled":false,"rental_uris":{"android":"levelo://app?vid=c69acdbd-428b-4e1b-8045-efc7bba4dcff","ios":"levelo://app?vid=c69acdbd-428b-4e1b-8045-efc7bba4dcff"},"vehicle_type_id":"4","last_reported":1685379966,"current_range_meters":15600,"station_id":"ce4bh412rcd13ifvqdr0","pricing_plan_id":"free"},{"bike_id":"2b59cd01-a64d-4fba-accb-4e4c3d728692","system_id":"levelo_inurba_marseille","lat":43.288497,"lon":5.393089,"is_reserved":false,"is_disabled":false,"rental_uris":{"android":"levelo://app?vid=2b59cd01-a64d-4fba-accb-4e4c3d728692","ios":"levelo://app?vid=2b59cd01-a64d-4fba-accb-4e4c3d728692"},"vehicle_type_id":"4","last_reported":1685379966,"current_range_meters":16800,"station_id":"ce4bh2p2rcd13ifvqdi0","pricing_plan_id":"free"},{"bike_id":"0771ef21-71fc-4446-a252-230c65099127","system_id":"levelo_inurba_marseille","lat":43.288501,"lon":5.393087,"is_reserved":false,"is_disabled":false,"rental_uris":{"android":"levelo://app?vid=0771ef21-71fc-4446-a252-230c65099127","ios":"levelo://app?vid=0771ef21-71fc-4446-a252-230c65099127"},"vehicle_type_id":"4","last_reported":1685379966,"current_range_meters":22000,"station_id":"ce4bh2p2rcd13ifvqdi0","pricing_plan_id":"free"},{"bike_id":"791ebffa-7fa8-43d5-9b63-ad4952b0a9c9","system_id":"levelo_inurba_marseille","lat":43.288501,"lon":5.393087,"is_reserved":false,"is_disabled":false,"rental_uris":{"android":"levelo://app?vid=791ebffa-7fa8-43d5-9b63-ad4952b0a9c9","ios":"levelo://app?vid=791ebffa-7fa8-43d5-9b63-ad4952b0a9c9"},"vehicle_type_id":"4","last_reported":1685379966,"current_range_meters":17600,"station_id":"ce4bh2p2rcd13ifvqdi0","pricing_plan_id":"free"},{"bike_id":"7e80aed1-91b2-49f7-babd-b81c4f1f582a","system_id":"levelo_inurba_marseille","lat":43.288497,"lon":5.393089,"is_reserved":false,"is_disabled":false,"rental_uris":{"android":"levelo://app?vid=7e80aed1-91b2-49f7-babd-b81c4f1f582a","ios":"levelo://app?vid=7e80aed1-91b2-49f7-babd-b81c4f1f582a"},"vehicle_type_id":"4","last_reported":1685379966,"current_range_meters":15200,"station_id":"ce4bh2p2rcd13ifvqdi0","pricing_plan_id":"free"},{"bike_id":"2644833c-9d1e-4774-91e6-b0ea6536c006","system_id":"levelo_inurba_marseille","lat":43.283494,"lon":5.380945,"is_reserved":false,"is_disabled":false,"rental_uris":{"android":"levelo://app?vid=2644833c-9d1e-4774-91e6-b0ea6536c006","ios":"levelo://app?vid=2644833c-9d1e-4774-91e6-b0ea6536c006"},"vehicle_type_id":"4","last_reported":1685379966,"current_range_meters":10800,"station_id":"ce4bh412rcd13ifvqdr0","pricing_plan_id":"free"},{"bike_id":"25fd7b7c-e443-453c-9692-74b0ee638f0b","system_id":"levelo_inurba_marseille","lat":43.28351,"lon":5.38094,"is_reserved":false,"is_disabled":false,"rental_uris":{"android":"levelo://app?vid=25fd7b7c-e443-453c-9692-74b0ee638f0b","ios":"levelo://app?vid=25fd7b7c-e443-453c-9692-74b0ee638f0b"},"vehicle_type_id":"4","last_reported":1685379966,"current_range_meters":3600,"station_id":"ce4bh412rcd13ifvqdr0","pricing_plan_id":"free"},{"bike_id":"cdf50f2b-3ca8-42a7-8c97-fb85ff501561","system_id":"levelo_inurba_marseille","lat":43.292724,"lon":5.401131,"is_reserved":false,"is_disabled":false,"rental_uris":{"android":"levelo://app?vid=cdf50f2b-3ca8-42a7-8c97-fb85ff501561","ios":"levelo://app?vid=cdf50f2b-3ca8-42a7-8c97-fb85ff501561"},"vehicle_type_id":"4","last_reported":1685379966,"current_range_meters":400,"station_id":"ce4bh312rcd13ifvqdk0","pricing_plan_id":"free"},{"bike_id":"47e21dbb-4e78-46be-81c9-c6bc07e4f10a","system_id":"levelo_inurba_marseille","lat":43.282754,"lon":5.350519,"is_reserved":false,"is_disabled":false,"rental_uris":{"android":"levelo://app?vid=47e21dbb-4e78-46be-81c9-c6bc07e4f10a","ios":"levelo://app?vid=47e21dbb-4e78-46be-81c9-c6bc07e4f10a"},"vehicle_type_id":"4","last_reported":1685379966,"current_range_meters":400,"station_id":"ce4bhbp2rcd13ifvqerg","pricing_plan_id":"free"},{"bike_id":"cedb3bde-2670-4092-a38e-afafd4e6c2d5","system_id":"levelo_inurba_marseille","lat":43.282744,"lon":5.350533,"is_reserved":false,"is_disabled":false,"rental_uris":{"android":"levelo://app?vid=cedb3bde-2670-4092-a38e-afafd4e6c2d5","ios":"levelo://app?vid=cedb3bde-2670-4092-a38e-afafd4e6c2d5"},"vehicle_type_id":"4","last_reported":1685379966,"current_range_meters":0,"station_id":"ce4bhbp2rcd13ifvqerg","pricing_plan_id":"free"},{"bike_id":"448b7e4e-0538-423e-82f5-0ac70407a8b3","system_id":"levelo_inurba_marseille","lat":43.2803,"lon":5.36938,"is_reserved":false,"is_disabled":false,"rental_uris":{"android":"levelo://app?vid=448b7e4e-0538-423e-82f5-0ac70407a8b3","ios":"levelo://app?vid=448b7e4e-0538-423e-82f5-0ac70407a8b3"},"vehicle_type_id":"4","last_reported":1685379966,"current_range_meters":800,"station_id":"ce4bha12rcd13ifvqef0","pricing_plan_id":"free"},{"bike_id":"8ebd3d8a-8cef-43b3-88b0-573b4ea45e1d","system_id":"levelo_inurba_marseille","lat":43.281044,"lon":5.378308,"is_reserved":false,"is_disabled":false,"rental_uris":{"android":"levelo://app?vid=8ebd3d8a-8cef-43b3-88b0-573b4ea45e1d","ios":"levelo://app?vid=8ebd3d8a-8cef-43b3-88b0-573b4ea45e1d"},"vehicle_type_id":"4","last_reported":1685379966,"current_range_meters":17600,"station_id":"ce4bha12rcd13ifvqee0","pricing_plan_id":"free"},{"bike_id":"971ed3cc-3b28-4216-81fe-046c44a956ec","system_id":"levelo_inurba_marseille","lat":43.281044,"lon":5.378308,"is_reserved":false,"is_disabled":false,"rental_uris":{"android":"levelo://app?vid=971ed3cc-3b28-4216-81fe-046c44a956ec","ios":"levelo://app?vid=971ed3cc-3b28-4216-81fe-046c44a956ec"},"vehicle_type_id":"4","last_reported":1685379966,"current_range_meters":6800,"station_id":"ce4bha12rcd13ifvqee0","pricing_plan_id":"free"},{"bike_id":"caa21cc0-dee7-4c23-b1cf-9dac9fbadfb0","system_id":"levelo_inurba_marseille","lat":43.281044,"lon":5.378308,"is_reserved":false,"is_disabled":false,"rental_uris":{"android":"levelo://app?vid=caa21cc0-dee7-4c23-b1cf-9dac9fbadfb0","ios":"levelo://app?vid=caa21cc0-dee7-4c23-b1cf-9dac9fbadfb0"},"vehicle_type_id":"4","last_reported":1685379966,"current_range_meters":28400,"station_id":"ce4bha12rcd13ifvqee0","pricing_plan_id":"free"},{"bike_id":"a58a5910-b4f5-490a-bbd7-038ce7c04af8","system_id":"levelo_inurba_marseille","lat":43.281044,"lon":5.378308,"is_reserved":false,"is_disabled":false,"rental_uris":{"android":"levelo://app?vid=a58a5910-b4f5-490a-bbd7-038ce7c04af8","ios":"levelo://app?vid=a58a5910-b4f5-490a-bbd7-038ce7c04af8"},"vehicle_type_id":"4","last_reported":1685379966,"current_range_meters":24000,"station_id":"ce4bha12rcd13ifvqee0","pricing_plan_id":"free"},{"bike_id":"f76c0686-61f9-4a8a-be7a-ab685e168a08","system_id":"levelo_inurba_marseille","lat":43.281044,"lon":5.378308,"is_reserved":false,"is_disabled":false,"rental_uris":{"android":"levelo://app?vid=f76c0686-61f9-4a8a-be7a-ab685e168a08","ios":"levelo://app?vid=f76c0686-61f9-4a8a-be7a-ab685e168a08"},"vehicle_type_id":"4","last_reported":1685379966,"current_range_meters":2800,"station_id":"ce4bha12rcd13ifvqee0","pricing_plan_id":"free"},{"bike_id":"d0e9319e-2a62-4093-928f-bb1950859c22","system_id":"levelo_inurba_marseille","lat":43.28454,"lon":5.3921,"is_reserved":false,"is_disabled":false,"rental_uris":{"android":"levelo://app?vid=d0e9319e-2a62-4093-928f-bb1950859c22","ios":"levelo://app?vid=d0e9319e-2a62-4093-928f-bb1950859c22"},"vehicle_type_id":"4","last_reported":1685379966,"current_range_meters":8000,"station_id":"ce4bhoh2rcd13ifvqh5g","pricing_plan_id":"free"},{"bike_id":"9d835ed8-1041-49e2-8d8e-ccde1a696b7f","system_id":"levelo_inurba_marseille","lat":43.284462,"lon":5.392121,"is_reserved":false,"is_disabled":false,"rental_uris":{"android":"levelo://app?vid=9d835ed8-1041-49e2-8d8e-ccde1a696b7f","ios":"levelo://app?vid=9d835ed8-1041-49e2-8d8e-ccde1a696b7f"},"vehicle_type_id":"4","last_reported":1685379966,"current_range_meters":0,"station_id":"ce4bhoh2rcd13ifvqh5g","pricing_plan_id":"free"},{"bike_id":"29344326-8e0a-468a-92f1-53537638d295","system_id":"levelo_inurba_marseille","lat":43.28444,"lon":5.39202,"is_reserved":false,"is_disabled":false,"rental_uris":{"android":"levelo://app?vid=29344326-8e0a-468a-92f1-53537638d295","ios":"levelo://app?vid=29344326-8e0a-468a-92f1-53537638d295"},"vehicle_type_id":"4","last_reported":1685379966,"current_range_meters":12400,"station_id":"ce4bhoh2rcd13ifvqh5g","pricing_plan_id":"free"},{"bike_id":"56411c74-edf9-47ad-bae6-cdd455d8c98e","system_id":"levelo_inurba_marseille","lat":43.284462,"lon":5.392121,"is_reserved":false,"is_disabled":false,"rental_uris":{"android":"levelo://app?vid=56411c74-edf9-47ad-bae6-cdd455d8c98e","ios":"levelo://app?vid=56411c74-edf9-47ad-bae6-cdd455d8c98e"},"vehicle_type_id":"4","last_reported":1685379966,"current_range_meters":14800,"station_id":"ce4bhoh2rcd13ifvqh5g","pricing_plan_id":"free"},{"bike_id":"c1f668d9-36ed-49a5-a68d-cc72bd26cf34","system_id":"levelo_inurba_marseille","lat":43.28573,"lon":5.394992,"is_reserved":false,"is_disabled":false,"rental_uris":{"android":"levelo://app?vid=c1f668d9-36ed-49a5-a68d-cc72bd26cf34","ios":"levelo://app?vid=c1f668d9-36ed-49a5-a68d-cc72bd26cf34"},"vehicle_type_id":"4","last_reported":1685379966,"current_range_meters":26800,"station_id":"ce4bh292rcd13ifvqdg0","pricing_plan_id":"free"},{"bike_id":"d5393470-f9a8-46cf-91e2-bd05e7da73c8","system_id":"levelo_inurba_marseille","lat":43.27898,"lon":5.38008,"is_reserved":false,"is_disabled":false,"rental_uris":{"android":"levelo://app?vid=d5393470-f9a8-46cf-91e2-bd05e7da73c8","ios":"levelo://app?vid=d5393470-f9a8-46cf-91e2-bd05e7da73c8"},"vehicle_type_id":"4","last_reported":1685379966,"current_range_meters":9600,"station_id":"","pricing_plan_id":"free"},{"bike_id":"0662f16e-91a6-4c76-adfa-7c2c7d8c3adb","system_id":"levelo_inurba_marseille","lat":43.287154,"lon":5.399979,"is_reserved":false,"is_disabled":false,"rental_uris":{"android":"levelo://app?vid=0662f16e-91a6-4c76-adfa-7c2c7d8c3adb","ios":"levelo://app?vid=0662f16e-91a6-4c76-adfa-7c2c7d8c3adb"},"vehicle_type_id":"4","last_reported":1685379966,"current_range_meters":24400,"station_id":"ce4bho92rcd13ifvqh3g","pricing_plan_id":"free"},{"bike_id":"872d02e2-7ffd-414a-be18-1dae33d87920","system_id":"levelo_inurba_marseille","lat":43.287154,"lon":5.399979,"is_reserved":false,"is_disabled":false,"rental_uris":{"android":"levelo://app?vid=872d02e2-7ffd-414a-be18-1dae33d87920","ios":"levelo://app?vid=872d02e2-7ffd-414a-be18-1dae33d87920"},"vehicle_type_id":"4","last_reported":1685379966,"current_range_meters":31200,"station_id":"ce4bho92rcd13ifvqh3g","pricing_plan_id":"free"},{"bike_id":"744c3dea-17d1-42d0-9695-efe6d8fa51df","system_id":"levelo_inurba_marseille","lat":43.287154,"lon":5.399979,"is_reserved":false,"is_disabled":false,"rental_uris":{"android":"levelo://app?vid=744c3dea-17d1-42d0-9695-efe6d8fa51df","ios":"levelo://app?vid=744c3dea-17d1-42d0-9695-efe6d8fa51df"},"vehicle_type_id":"4","last_reported":1685379966,"current_range_meters":19200,"station_id":"ce4bho92rcd13ifvqh3g","pricing_plan_id":"free"},{"bike_id":"86f39116-c28c-4f3e-9a87-f9c6d4f92e56","system_id":"levelo_inurba_marseille","lat":43.287154,"lon":5.399979,"is_reserved":false,"is_disabled":false,"rental_uris":{"android":"levelo://app?vid=86f39116-c28c-4f3e-9a87-f9c6d4f92e56","ios":"levelo://app?vid=86f39116-c28c-4f3e-9a87-f9c6d4f92e56"},"vehicle_type_id":"4","last_reported":1685379966,"current_range_meters":1200,"station_id":"ce4bho92rcd13ifvqh3g","pricing_plan_id":"free"},{"bike_id":"54d10071-30ad-4ece-bf56-f4527f790899","system_id":"levelo_inurba_marseille","lat":43.28708,"lon":5.39995,"is_reserved":false,"is_disabled":false,"rental_uris":{"android":"levelo://app?vid=54d10071-30ad-4ece-bf56-f4527f790899","ios":"levelo://app?vid=54d10071-30ad-4ece-bf56-f4527f790899"},"vehicle_type_id":"4","last_reported":1685379966,"current_range_meters":0,"station_id":"ce4bho92rcd13ifvqh3g","pricing_plan_id":"free"},{"bike_id":"81b93723-efc3-4acd-bae2-bcf605d5ada9","system_id":"levelo_inurba_marseille","lat":43.287154,"lon":5.399979,"is_reserved":false,"is_disabled":false,"rental_uris":{"android":"levelo://app?vid=81b93723-efc3-4acd-bae2-bcf605d5ada9","ios":"levelo://app?vid=81b93723-efc3-4acd-bae2-bcf605d5ada9"},"vehicle_type_id":"4","last_reported":1685379966,"current_range_meters":30000,"station_id":"ce4bho92rcd13ifvqh3g","pricing_plan_id":"free"},{"bike_id":"b5dbab1b-d029-4196-b3ad-b96102c2c222","system_id":"levelo_inurba_marseille","lat":43.287154,"lon":5.399979,"is_reserved":false,"is_disabled":false,"rental_uris":{"android":"levelo://app?vid=b5dbab1b-d029-4196-b3ad-b96102c2c222","ios":"levelo://app?vid=b5dbab1b-d029-4196-b3ad-b96102c2c222"},"vehicle_type_id":"4","last_reported":1685379966,"current_range_meters":11200,"station_id":"ce4bho92rcd13ifvqh3g","pricing_plan_id":"free"},{"bike_id":"b3731a02-05b6-4732-bca4-13c7c9250806","system_id":"levelo_inurba_marseille","lat":43.287154,"lon":5.399979,"is_reserved":false,"is_disabled":false,"rental_uris":{"android":"levelo://app?vid=b3731a02-05b6-4732-bca4-13c7c9250806","ios":"levelo://app?vid=b3731a02-05b6-4732-bca4-13c7c9250806"},"vehicle_type_id":"4","last_reported":1685379966,"current_range_meters":17200,"station_id":"ce4bho92rcd13ifvqh3g","pricing_plan_id":"free"},{"bike_id":"18ff4981-317d-4dfc-bb50-81edaffd5633","system_id":"levelo_inurba_marseille","lat":43.287154,"lon":5.399979,"is_reserved":false,"is_disabled":false,"rental_uris":{"android":"levelo://app?vid=18ff4981-317d-4dfc-bb50-81edaffd5633","ios":"levelo://app?vid=18ff4981-317d-4dfc-bb50-81edaffd5633"},"vehicle_type_id":"4","last_reported":1685379966,"current_range_meters":28800,"station_id":"ce4bho92rcd13ifvqh3g","pricing_plan_id":"free"},{"bike_id":"13f43f16-14c3-4651-9771-370af029c10d","system_id":"levelo_inurba_marseille","lat":43.320045,"lon":5.415046,"is_reserved":false,"is_disabled":false,"rental_uris":{"android":"levelo://app?vid=13f43f16-14c3-4651-9771-370af029c10d","ios":"levelo://app?vid=13f43f16-14c3-4651-9771-370af029c10d"},"vehicle_type_id":"4","last_reported":1685379966,"current_range_meters":17600,"station_id":"ce4bhq92rcd13ifvqhkg","pricing_plan_id":"free"},{"bike_id":"78ad04a1-ec06-439f-a349-f7010b6f75a5","system_id":"levelo_inurba_marseille","lat":43.320045,"lon":5.415048,"is_reserved":false,"is_disabled":false,"rental_uris":{"android":"levelo://app?vid=78ad04a1-ec06-439f-a349-f7010b6f75a5","ios":"levelo://app?vid=78ad04a1-ec06-439f-a349-f7010b6f75a5"},"vehicle_type_id":"4","last_reported":1685379966,"current_range_meters":0,"station_id":"ce4bhq92rcd13ifvqhkg","pricing_plan_id":"free"},{"bike_id":"a9ecd1ca-9235-491c-9c8f-5ee8238559ba","system_id":"levelo_inurba_marseille","lat":43.279742,"lon":5.38744,"is_reserved":false,"is_disabled":false,"rental_uris":{"android":"levelo://app?vid=a9ecd1ca-9235-491c-9c8f-5ee8238559ba","ios":"levelo://app?vid=a9ecd1ca-9235-491c-9c8f-5ee8238559ba"},"vehicle_type_id":"4","last_reported":1685379966,"current_range_meters":8400,"station_id":"ce4bhg12rcd13ifvqf80","pricing_plan_id":"free"},{"bike_id":"43e751b2-af47-482c-b4ff-066feca566a0","system_id":"levelo_inurba_marseille","lat":43.280769,"lon":5.39653,"is_reserved":false,"is_disabled":false,"rental_uris":{"android":"levelo://app?vid=43e751b2-af47-482c-b4ff-066feca566a0","ios":"levelo://app?vid=43e751b2-af47-482c-b4ff-066feca566a0"},"vehicle_type_id":"4","last_reported":1685379966,"current_range_meters":10400,"station_id":"","pricing_plan_id":"free"},{"bike_id":"f8ade504-2445-46ee-b746-9dd238ac4c44","system_id":"levelo_inurba_marseille","lat":43.280784,"lon":5.396622,"is_reserved":false,"is_disabled":false,"rental_uris":{"android":"levelo://app?vid=f8ade504-2445-46ee-b746-9dd238ac4c44","ios":"levelo://app?vid=f8ade504-2445-46ee-b746-9dd238ac4c44"},"vehicle_type_id":"4","last_reported":1685379966,"current_range_meters":31200,"station_id":"ce4bho12rcd13ifvqh2g","pricing_plan_id":"free"},{"bike_id":"1bbb0df5-28da-46dd-a4f4-9a10f849f52c","system_id":"levelo_inurba_marseille","lat":43.280784,"lon":5.396622,"is_reserved":false,"is_disabled":false,"rental_uris":{"android":"levelo://app?vid=1bbb0df5-28da-46dd-a4f4-9a10f849f52c","ios":"levelo://app?vid=1bbb0df5-28da-46dd-a4f4-9a10f849f52c"},"vehicle_type_id":"4","last_reported":1685379966,"current_range_meters":15200,"station_id":"ce4bho12rcd13ifvqh2g","pricing_plan_id":"free"},{"bike_id":"5a170531-1e07-4abf-96b9-c97279cd36b7","system_id":"levelo_inurba_marseille","lat":43.273613,"lon":5.362705,"is_reserved":false,"is_disabled":false,"rental_uris":{"android":"levelo://app?vid=5a170531-1e07-4abf-96b9-c97279cd36b7","ios":"levelo://app?vid=5a170531-1e07-4abf-96b9-c97279cd36b7"},"vehicle_type_id":"4","last_reported":1685379966,"current_range_meters":14800,"station_id":"ce4bhbh2rcd13ifvqeo0","pricing_plan_id":"free"},{"bike_id":"5e6cf538-3217-4cc9-b871-d1c43f1b848a","system_id":"levelo_inurba_marseille","lat":43.273609,"lon":5.362708,"is_reserved":false,"is_disabled":false,"rental_uris":{"android":"levelo://app?vid=5e6cf538-3217-4cc9-b871-d1c43f1b848a","ios":"levelo://app?vid=5e6cf538-3217-4cc9-b871-d1c43f1b848a"},"vehicle_type_id":"4","last_reported":1685379966,"current_range_meters":5600,"station_id":"ce4bhbh2rcd13ifvqeo0","pricing_plan_id":"free"},{"bike_id":"91b49189-18df-431a-bbbf-f0b2350181de","system_id":"levelo_inurba_marseille","lat":43.28411,"lon":5.40782,"is_reserved":false,"is_disabled":false,"rental_uris":{"android":"levelo://app?vid=91b49189-18df-431a-bbbf-f0b2350181de","ios":"levelo://app?vid=91b49189-18df-431a-bbbf-f0b2350181de"},"vehicle_type_id":"4","last_reported":1685379966,"current_range_meters":2800,"station_id":"","pricing_plan_id":"free"},{"bike_id":"ed059e8d-bec4-45b8-b370-d06b70adcb4e","system_id":"levelo_inurba_marseille","lat":43.317121,"lon":5.423936,"is_reserved":false,"is_disabled":false,"rental_uris":{"android":"levelo://app?vid=ed059e8d-bec4-45b8-b370-d06b70adcb4e","ios":"levelo://app?vid=ed059e8d-bec4-45b8-b370-d06b70adcb4e"},"vehicle_type_id":"4","last_reported":1685379966,"current_range_meters":7200,"station_id":"ce4bhp92rcd13ifvqhbg","pricing_plan_id":"free"},{"bike_id":"14e42639-21e9-4652-9263-84a0c212d112","system_id":"levelo_inurba_marseille","lat":43.317121,"lon":5.423936,"is_reserved":false,"is_disabled":false,"rental_uris":{"android":"levelo://app?vid=14e42639-21e9-4652-9263-84a0c212d112","ios":"levelo://app?vid=14e42639-21e9-4652-9263-84a0c212d112"},"vehicle_type_id":"4","last_reported":1685379966,"current_range_meters":27200,"station_id":"ce4bhp92rcd13ifvqhbg","pricing_plan_id":"free"},{"bike_id":"f7063054-0984-443f-b8cd-74493b1d801f","system_id":"levelo_inurba_marseille","lat":43.310785,"lon":5.424305,"is_reserved":false,"is_disabled":false,"rental_uris":{"android":"levelo://app?vid=f7063054-0984-443f-b8cd-74493b1d801f","ios":"levelo://app?vid=f7063054-0984-443f-b8cd-74493b1d801f"},"vehicle_type_id":"4","last_reported":1685379966,"current_range_meters":20800,"station_id":"ce4bhp92rcd13ifvqhag","pricing_plan_id":"free"},{"bike_id":"6b078a86-75f1-49af-b883-28e82c74d2cc","system_id":"levelo_inurba_marseille","lat":43.317121,"lon":5.423936,"is_reserved":false,"is_disabled":false,"rental_uris":{"android":"levelo://app?vid=6b078a86-75f1-49af-b883-28e82c74d2cc","ios":"levelo://app?vid=6b078a86-75f1-49af-b883-28e82c74d2cc"},"vehicle_type_id":"4","last_reported":1685379966,"current_range_meters":29200,"station_id":"ce4bhp92rcd13ifvqhbg","pricing_plan_id":"free"},{"bike_id":"204393cd-3a67-4b44-a96c-b3c4c5c27605","system_id":"levelo_inurba_marseille","lat":43.295523,"lon":5.422926,"is_reserved":false,"is_disabled":false,"rental_uris":{"android":"levelo://app?vid=204393cd-3a67-4b44-a96c-b3c4c5c27605","ios":"levelo://app?vid=204393cd-3a67-4b44-a96c-b3c4c5c27605"},"vehicle_type_id":"4","last_reported":1685379966,"current_range_meters":11200,"station_id":"ce4bhph2rcd13ifvqhdg","pricing_plan_id":"free"},{"bike_id":"ef1bb59e-3c8c-4d9e-8100-5bede90b247d","system_id":"levelo_inurba_marseille","lat":43.27221,"lon":5.39159,"is_reserved":false,"is_disabled":false,"rental_uris":{"android":"levelo://app?vid=ef1bb59e-3c8c-4d9e-8100-5bede90b247d","ios":"levelo://app?vid=ef1bb59e-3c8c-4d9e-8100-5bede90b247d"},"vehicle_type_id":"4","last_reported":1685379966,"current_range_meters":14400,"station_id":"ce4bhhp2rcd13ifvqfm0","pricing_plan_id":"free"},{"bike_id":"acc9d9b3-f6e2-4cd8-80ee-037838509fd7","system_id":"levelo_inurba_marseille","lat":43.272118,"lon":5.391758,"is_reserved":false,"is_disabled":false,"rental_uris":{"android":"levelo://app?vid=acc9d9b3-f6e2-4cd8-80ee-037838509fd7","ios":"levelo://app?vid=acc9d9b3-f6e2-4cd8-80ee-037838509fd7"},"vehicle_type_id":"4","last_reported":1685379966,"current_range_meters":2000,"station_id":"ce4bhhp2rcd13ifvqfm0","pricing_plan_id":"free"},{"bike_id":"82d29e15-32ba-4d60-b693-f9c53a44f947","system_id":"levelo_inurba_marseille","lat":43.272118,"lon":5.391758,"is_reserved":false,"is_disabled":false,"rental_uris":{"android":"levelo://app?vid=82d29e15-32ba-4d60-b693-f9c53a44f947","ios":"levelo://app?vid=82d29e15-32ba-4d60-b693-f9c53a44f947"},"vehicle_type_id":"4","last_reported":1685379966,"current_range_meters":18400,"station_id":"ce4bhhp2rcd13ifvqfm0","pricing_plan_id":"free"},{"bike_id":"006b1477-59d9-4abf-bf30-fe468e8a0337","system_id":"levelo_inurba_marseille","lat":43.30688,"lon":5.42865,"is_reserved":false,"is_disabled":false,"rental_uris":{"android":"levelo://app?vid=006b1477-59d9-4abf-bf30-fe468e8a0337","ios":"levelo://app?vid=006b1477-59d9-4abf-bf30-fe468e8a0337"},"vehicle_type_id":"4","last_reported":1685379966,"current_range_meters":26000,"station_id":"","pricing_plan_id":"free"},{"bike_id":"d5dd3644-ecf4-433e-8139-84aa72f51b1a","system_id":"levelo_inurba_marseille","lat":43.278128,"lon":5.407195,"is_reserved":false,"is_disabled":false,"rental_uris":{"android":"levelo://app?vid=d5dd3644-ecf4-433e-8139-84aa72f51b1a","ios":"levelo://app?vid=d5dd3644-ecf4-433e-8139-84aa72f51b1a"},"vehicle_type_id":"4","last_reported":1685379966,"current_range_meters":0,"station_id":"ce4bhnh2rcd13ifvqgtg","pricing_plan_id":"free"},{"bike_id":"b4db6ef2-09e2-4116-9aa5-7dcc5a6fbd03","system_id":"levelo_inurba_marseille","lat":43.269467,"lon":5.386439,"is_reserved":false,"is_disabled":false,"rental_uris":{"android":"levelo://app?vid=b4db6ef2-09e2-4116-9aa5-7dcc5a6fbd03","ios":"levelo://app?vid=b4db6ef2-09e2-4116-9aa5-7dcc5a6fbd03"},"vehicle_type_id":"4","last_reported":1685379966,"current_range_meters":27200,"station_id":"ce4bhh92rcd13ifvqfh0","pricing_plan_id":"free"},{"bike_id":"c46e2d55-c8b7-4234-b399-d14346b8c6cb","system_id":"levelo_inurba_marseille","lat":43.269319,"lon":5.389397,"is_reserved":false,"is_disabled":false,"rental_uris":{"android":"levelo://app?vid=c46e2d55-c8b7-4234-b399-d14346b8c6cb","ios":"levelo://app?vid=c46e2d55-c8b7-4234-b399-d14346b8c6cb"},"vehicle_type_id":"4","last_reported":1685379966,"current_range_meters":16800,"station_id":"ce4bhhh2rcd13ifvqfl0","pricing_plan_id":"free"},{"bike_id":"4f8ed7dc-6ebf-403c-85b5-5c7d6530ad5d","system_id":"levelo_inurba_marseille","lat":43.269319,"lon":5.389397,"is_reserved":false,"is_disabled":false,"rental_uris":{"android":"levelo://app?vid=4f8ed7dc-6ebf-403c-85b5-5c7d6530ad5d","ios":"levelo://app?vid=4f8ed7dc-6ebf-403c-85b5-5c7d6530ad5d"},"vehicle_type_id":"4","last_reported":1685379966,"current_range_meters":14000,"station_id":"ce4bhhh2rcd13ifvqfl0","pricing_plan_id":"free"},{"bike_id":"69f3a55d-12af-4018-a576-9ba16c62ecf5","system_id":"levelo_inurba_marseille","lat":43.26681,"lon":5.382694,"is_reserved":false,"is_disabled":false,"rental_uris":{"android":"levelo://app?vid=69f3a55d-12af-4018-a576-9ba16c62ecf5","ios":"levelo://app?vid=69f3a55d-12af-4018-a576-9ba16c62ecf5"},"vehicle_type_id":"4","last_reported":1685379966,"current_range_meters":8400,"station_id":"ce4bhg92rcd13ifvqf90","pricing_plan_id":"free"},{"bike_id":"97643a3d-ffb5-4b9f-aed9-78ea08b7db4f","system_id":"levelo_inurba_marseille","lat":43.26559,"lon":5.37279,"is_reserved":false,"is_disabled":false,"rental_uris":{"android":"levelo://app?vid=97643a3d-ffb5-4b9f-aed9-78ea08b7db4f","ios":"levelo://app?vid=97643a3d-ffb5-4b9f-aed9-78ea08b7db4f"},"vehicle_type_id":"4","last_reported":1685379966,"current_range_meters":0,"station_id":"ce4bhg12rcd13ifvqf70","pricing_plan_id":"free"},{"bike_id":"d9d9b657-7cdd-4600-acb5-7fc6140ff404","system_id":"levelo_inurba_marseille","lat":43.26548,"lon":5.372857,"is_reserved":false,"is_disabled":false,"rental_uris":{"android":"levelo://app?vid=d9d9b657-7cdd-4600-acb5-7fc6140ff404","ios":"levelo://app?vid=d9d9b657-7cdd-4600-acb5-7fc6140ff404"},"vehicle_type_id":"4","last_reported":1685379966,"current_range_meters":2000,"station_id":"ce4bh492rcd13ifvqdvg","pricing_plan_id":"free"},{"bike_id":"97f92444-dc7f-4ac8-885e-43ac50454dc0","system_id":"levelo_inurba_marseille","lat":43.31679,"lon":5.4333,"is_reserved":false,"is_disabled":false,"rental_uris":{"android":"levelo://app?vid=97f92444-dc7f-4ac8-885e-43ac50454dc0","ios":"levelo://app?vid=97f92444-dc7f-4ac8-885e-43ac50454dc0"},"vehicle_type_id":"4","last_reported":1685379966,"current_range_meters":0,"station_id":"","pricing_plan_id":"free"},{"bike_id":"6fff0859-9d04-43ca-a6ea-680b800cd22a","system_id":"levelo_inurba_marseille","lat":43.27996,"lon":5.416624,"is_reserved":false,"is_disabled":false,"rental_uris":{"android":"levelo://app?vid=6fff0859-9d04-43ca-a6ea-680b800cd22a","ios":"levelo://app?vid=6fff0859-9d04-43ca-a6ea-680b800cd22a"},"vehicle_type_id":"4","last_reported":1685379966,"current_range_meters":1200,"station_id":"ce4bho12rcd13ifvqh1g","pricing_plan_id":"free"},{"bike_id":"ab0f4bc7-ed72-417f-a5fb-6e7a2d100ff6","system_id":"levelo_inurba_marseille","lat":43.27996,"lon":5.416624,"is_reserved":false,"is_disabled":false,"rental_uris":{"android":"levelo://app?vid=ab0f4bc7-ed72-417f-a5fb-6e7a2d100ff6","ios":"levelo://app?vid=ab0f4bc7-ed72-417f-a5fb-6e7a2d100ff6"},"vehicle_type_id":"4","last_reported":1685379966,"current_range_meters":2000,"station_id":"ce4bho12rcd13ifvqh1g","pricing_plan_id":"free"},{"bike_id":"929a7ea7-687a-47d5-95a3-67ab562ddaff","system_id":"levelo_inurba_marseille","lat":43.27989,"lon":5.4166,"is_reserved":false,"is_disabled":false,"rental_uris":{"android":"levelo://app?vid=929a7ea7-687a-47d5-95a3-67ab562ddaff","ios":"levelo://app?vid=929a7ea7-687a-47d5-95a3-67ab562ddaff"},"vehicle_type_id":"4","last_reported":1685379966,"current_range_meters":0,"station_id":"ce4bho12rcd13ifvqh1g","pricing_plan_id":"free"},{"bike_id":"d1851c0a-6e9b-458b-921f-ce85e914c0c7","system_id":"levelo_inurba_marseille","lat":43.308,"lon":5.43516,"is_reserved":false,"is_disabled":false,"rental_uris":{"android":"levelo://app?vid=d1851c0a-6e9b-458b-921f-ce85e914c0c7","ios":"levelo://app?vid=d1851c0a-6e9b-458b-921f-ce85e914c0c7"},"vehicle_type_id":"4","last_reported":1685379966,"current_range_meters":11600,"station_id":"","pricing_plan_id":"free"},{"bike_id":"3b2d01cf-1e5f-40ad-9104-de09ff87640d","system_id":"levelo_inurba_marseille","lat":43.265569,"lon":5.390047,"is_reserved":false,"is_disabled":false,"rental_uris":{"android":"levelo://app?vid=3b2d01cf-1e5f-40ad-9104-de09ff87640d","ios":"levelo://app?vid=3b2d01cf-1e5f-40ad-9104-de09ff87640d"},"vehicle_type_id":"4","last_reported":1685379966,"current_range_meters":16400,"station_id":"ce4bhe12rcd13ifvqf30","pricing_plan_id":"free"},{"bike_id":"60c18c84-3649-4205-947b-702d8f650b02","system_id":"levelo_inurba_marseille","lat":43.30793,"lon":5.43523,"is_reserved":false,"is_disabled":false,"rental_uris":{"android":"levelo://app?vid=60c18c84-3649-4205-947b-702d8f650b02","ios":"levelo://app?vid=60c18c84-3649-4205-947b-702d8f650b02"},"vehicle_type_id":"4","last_reported":1685379966,"current_range_meters":22800,"station_id":"","pricing_plan_id":"free"},{"bike_id":"020e9bac-1d44-4b98-b809-6bfdeb9de9d1","system_id":"levelo_inurba_marseille","lat":43.30798,"lon":5.43527,"is_reserved":false,"is_disabled":false,"rental_uris":{"android":"levelo://app?vid=020e9bac-1d44-4b98-b809-6bfdeb9de9d1","ios":"levelo://app?vid=020e9bac-1d44-4b98-b809-6bfdeb9de9d1"},"vehicle_type_id":"4","last_reported":1685379966,"current_range_meters":4400,"station_id":"","pricing_plan_id":"free"},{"bike_id":"25af3799-f62c-4816-bf4e-ff2f7413ba3c","system_id":"levelo_inurba_marseille","lat":43.265569,"lon":5.390047,"is_reserved":false,"is_disabled":false,"rental_uris":{"android":"levelo://app?vid=25af3799-f62c-4816-bf4e-ff2f7413ba3c","ios":"levelo://app?vid=25af3799-f62c-4816-bf4e-ff2f7413ba3c"},"vehicle_type_id":"4","last_reported":1685379966,"current_range_meters":25200,"station_id":"ce4bhe12rcd13ifvqf30","pricing_plan_id":"free"},{"bike_id":"e646a122-1ab5-4098-b436-c8487f9bbaf8","system_id":"levelo_inurba_marseille","lat":43.265569,"lon":5.390047,"is_reserved":false,"is_disabled":false,"rental_uris":{"android":"levelo://app?vid=e646a122-1ab5-4098-b436-c8487f9bbaf8","ios":"levelo://app?vid=e646a122-1ab5-4098-b436-c8487f9bbaf8"},"vehicle_type_id":"4","last_reported":1685379966,"current_range_meters":30400,"station_id":"ce4bhe12rcd13ifvqf30","pricing_plan_id":"free"},{"bike_id":"2417d51c-b925-4c9f-873e-e0a17fa60cbd","system_id":"levelo_inurba_marseille","lat":43.265569,"lon":5.390047,"is_reserved":false,"is_disabled":false,"rental_uris":{"android":"levelo://app?vid=2417d51c-b925-4c9f-873e-e0a17fa60cbd","ios":"levelo://app?vid=2417d51c-b925-4c9f-873e-e0a17fa60cbd"},"vehicle_type_id":"4","last_reported":1685379966,"current_range_meters":26800,"station_id":"ce4bhe12rcd13ifvqf30","pricing_plan_id":"free"},{"bike_id":"2fcc0c23-ac53-41eb-a2d4-d3336177ee7b","system_id":"levelo_inurba_marseille","lat":43.32316,"lon":5.4357,"is_reserved":false,"is_disabled":false,"rental_uris":{"android":"levelo://app?vid=2fcc0c23-ac53-41eb-a2d4-d3336177ee7b","ios":"levelo://app?vid=2fcc0c23-ac53-41eb-a2d4-d3336177ee7b"},"vehicle_type_id":"4","last_reported":1685379966,"current_range_meters":11200,"station_id":"","pricing_plan_id":"free"},{"bike_id":"b4de47a1-3c54-406b-8560-36af27f716a3","system_id":"levelo_inurba_marseille","lat":43.261782,"lon":5.374515,"is_reserved":false,"is_disabled":false,"rental_uris":{"android":"levelo://app?vid=b4de47a1-3c54-406b-8560-36af27f716a3","ios":"levelo://app?vid=b4de47a1-3c54-406b-8560-36af27f716a3"},"vehicle_type_id":"4","last_reported":1685379966,"current_range_meters":27600,"station_id":"ce4bhgp2rcd13ifvqfc0","pricing_plan_id":"free"},{"bike_id":"4473e714-2d80-4ff3-9575-8fd3c26f175a","system_id":"levelo_inurba_marseille","lat":43.261782,"lon":5.374515,"is_reserved":false,"is_disabled":false,"rental_uris":{"android":"levelo://app?vid=4473e714-2d80-4ff3-9575-8fd3c26f175a","ios":"levelo://app?vid=4473e714-2d80-4ff3-9575-8fd3c26f175a"},"vehicle_type_id":"4","last_reported":1685379966,"current_range_meters":21200,"station_id":"ce4bhgp2rcd13ifvqfc0","pricing_plan_id":"free"},{"bike_id":"c2ed7e93-cb21-4ad2-925d-9a27801d9f2a","system_id":"levelo_inurba_marseille","lat":43.26186,"lon":5.37441,"is_reserved":false,"is_disabled":false,"rental_uris":{"android":"levelo://app?vid=c2ed7e93-cb21-4ad2-925d-9a27801d9f2a","ios":"levelo://app?vid=c2ed7e93-cb21-4ad2-925d-9a27801d9f2a"},"vehicle_type_id":"4","last_reported":1685379966,"current_range_meters":0,"station_id":"ce4bhgp2rcd13ifvqfc0","pricing_plan_id":"free"},{"bike_id":"3c3a2fed-760c-44cd-95fe-e45d428ca40f","system_id":"levelo_inurba_marseille","lat":43.261782,"lon":5.374515,"is_reserved":false,"is_disabled":false,"rental_uris":{"android":"levelo://app?vid=3c3a2fed-760c-44cd-95fe-e45d428ca40f","ios":"levelo://app?vid=3c3a2fed-760c-44cd-95fe-e45d428ca40f"},"vehicle_type_id":"4","last_reported":1685379966,"current_range_meters":31200,"station_id":"ce4bhgp2rcd13ifvqfc0","pricing_plan_id":"free"},{"bike_id":"68ef17cc-5432-467c-a2db-51089d47987b","system_id":"levelo_inurba_marseille","lat":43.26202,"lon":5.379299,"is_reserved":false,"is_disabled":false,"rental_uris":{"android":"levelo://app?vid=68ef17cc-5432-467c-a2db-51089d47987b","ios":"levelo://app?vid=68ef17cc-5432-467c-a2db-51089d47987b"},"vehicle_type_id":"4","last_reported":1685379966,"current_range_meters":0,"station_id":"ce4bhjp2rcd13ifvqg90","pricing_plan_id":"free"},{"bike_id":"c886b0d7-6fb9-4c3b-80f3-9117998d8bdb","system_id":"levelo_inurba_marseille","lat":43.27182,"lon":5.40994,"is_reserved":false,"is_disabled":false,"rental_uris":{"android":"levelo://app?vid=c886b0d7-6fb9-4c3b-80f3-9117998d8bdb","ios":"levelo://app?vid=c886b0d7-6fb9-4c3b-80f3-9117998d8bdb"},"vehicle_type_id":"4","last_reported":1685379966,"current_range_meters":23600,"station_id":"","pricing_plan_id":"free"},{"bike_id":"98da6c2c-09bd-4a3f-a553-5cf147a649ee","system_id":"levelo_inurba_marseille","lat":43.262012,"lon":5.379307,"is_reserved":false,"is_disabled":false,"rental_uris":{"android":"levelo://app?vid=98da6c2c-09bd-4a3f-a553-5cf147a649ee","ios":"levelo://app?vid=98da6c2c-09bd-4a3f-a553-5cf147a649ee"},"vehicle_type_id":"4","last_reported":1685379966,"current_range_meters":26000,"station_id":"ce4bhjp2rcd13ifvqg90","pricing_plan_id":"free"},{"bike_id":"206e1a63-b37a-4dfc-821c-93798628a2a8","system_id":"levelo_inurba_marseille","lat":43.262012,"lon":5.379307,"is_reserved":false,"is_disabled":false,"rental_uris":{"android":"levelo://app?vid=206e1a63-b37a-4dfc-821c-93798628a2a8","ios":"levelo://app?vid=206e1a63-b37a-4dfc-821c-93798628a2a8"},"vehicle_type_id":"4","last_reported":1685379966,"current_range_meters":8400,"station_id":"ce4bhjp2rcd13ifvqg90","pricing_plan_id":"free"},{"bike_id":"4be642e2-f871-4e33-bb4a-fb2b0004c8cf","system_id":"levelo_inurba_marseille","lat":43.27174,"lon":5.40989,"is_reserved":false,"is_disabled":false,"rental_uris":{"android":"levelo://app?vid=4be642e2-f871-4e33-bb4a-fb2b0004c8cf","ios":"levelo://app?vid=4be642e2-f871-4e33-bb4a-fb2b0004c8cf"},"vehicle_type_id":"4","last_reported":1685379966,"current_range_meters":7600,"station_id":"","pricing_plan_id":"free"},{"bike_id":"e01e4add-9126-451a-9912-309c038cfc13","system_id":"levelo_inurba_marseille","lat":43.271388,"lon":5.409269,"is_reserved":false,"is_disabled":false,"rental_uris":{"android":"levelo://app?vid=e01e4add-9126-451a-9912-309c038cfc13","ios":"levelo://app?vid=e01e4add-9126-451a-9912-309c038cfc13"},"vehicle_type_id":"4","last_reported":1685379966,"current_range_meters":8800,"station_id":"ce4bhl12rcd13ifvqgf0","pricing_plan_id":"free"},{"bike_id":"01e3bdd2-e33f-49e8-83e3-caafd20a574a","system_id":"levelo_inurba_marseille","lat":43.267959,"lon":5.402685,"is_reserved":false,"is_disabled":false,"rental_uris":{"android":"levelo://app?vid=01e3bdd2-e33f-49e8-83e3-caafd20a574a","ios":"levelo://app?vid=01e3bdd2-e33f-49e8-83e3-caafd20a574a"},"vehicle_type_id":"4","last_reported":1685379966,"current_range_meters":21200,"station_id":"ce501612rcd8frsf0b60","pricing_plan_id":"free"},{"bike_id":"d5d7c90c-6818-4808-a42b-96107f21122e","system_id":"levelo_inurba_marseille","lat":43.267959,"lon":5.402687,"is_reserved":false,"is_disabled":false,"rental_uris":{"android":"levelo://app?vid=d5d7c90c-6818-4808-a42b-96107f21122e","ios":"levelo://app?vid=d5d7c90c-6818-4808-a42b-96107f21122e"},"vehicle_type_id":"4","last_reported":1685379966,"current_range_meters":31600,"station_id":"ce501612rcd8frsf0b60","pricing_plan_id":"free"},{"bike_id":"8d16cb84-fcf1-4c79-b13b-7f0c94596d9a","system_id":"levelo_inurba_marseille","lat":43.267959,"lon":5.402687,"is_reserved":false,"is_disabled":false,"rental_uris":{"android":"levelo://app?vid=8d16cb84-fcf1-4c79-b13b-7f0c94596d9a","ios":"levelo://app?vid=8d16cb84-fcf1-4c79-b13b-7f0c94596d9a"},"vehicle_type_id":"4","last_reported":1685379966,"current_range_meters":3200,"station_id":"ce501612rcd8frsf0b60","pricing_plan_id":"free"},{"bike_id":"a82f1f3d-cf3e-4acf-b3a8-5051bcebffad","system_id":"levelo_inurba_marseille","lat":43.267959,"lon":5.402687,"is_reserved":false,"is_disabled":false,"rental_uris":{"android":"levelo://app?vid=a82f1f3d-cf3e-4acf-b3a8-5051bcebffad","ios":"levelo://app?vid=a82f1f3d-cf3e-4acf-b3a8-5051bcebffad"},"vehicle_type_id":"4","last_reported":1685379966,"current_range_meters":28400,"station_id":"ce501612rcd8frsf0b60","pricing_plan_id":"free"},{"bike_id":"bfeded0a-2bd2-4b07-89f2-470113647832","system_id":"levelo_inurba_marseille","lat":43.267959,"lon":5.402685,"is_reserved":false,"is_disabled":false,"rental_uris":{"android":"levelo://app?vid=bfeded0a-2bd2-4b07-89f2-470113647832","ios":"levelo://app?vid=bfeded0a-2bd2-4b07-89f2-470113647832"},"vehicle_type_id":"4","last_reported":1685379966,"current_range_meters":28400,"station_id":"ce501612rcd8frsf0b60","pricing_plan_id":"free"},{"bike_id":"74474b43-2943-4493-a56d-39da3fa8faaa","system_id":"levelo_inurba_marseille","lat":43.267959,"lon":5.402687,"is_reserved":false,"is_disabled":false,"rental_uris":{"android":"levelo://app?vid=74474b43-2943-4493-a56d-39da3fa8faaa","ios":"levelo://app?vid=74474b43-2943-4493-a56d-39da3fa8faaa"},"vehicle_type_id":"4","last_reported":1685379966,"current_range_meters":20400,"station_id":"ce501612rcd8frsf0b60","pricing_plan_id":"free"},{"bike_id":"a3caeaaf-bcf4-404f-b917-458bebacb3ac","system_id":"levelo_inurba_marseille","lat":43.29886,"lon":5.43658,"is_reserved":false,"is_disabled":false,"rental_uris":{"android":"levelo://app?vid=a3caeaaf-bcf4-404f-b917-458bebacb3ac","ios":"levelo://app?vid=a3caeaaf-bcf4-404f-b917-458bebacb3ac"},"vehicle_type_id":"4","last_reported":1685379966,"current_range_meters":16800,"station_id":"ce4bhpp2rcd13ifvqhfg","pricing_plan_id":"free"},{"bike_id":"6b404443-757b-4b8d-9a78-a03ca59013fb","system_id":"levelo_inurba_marseille","lat":43.2592,"lon":5.37283,"is_reserved":false,"is_disabled":false,"rental_uris":{"android":"levelo://app?vid=6b404443-757b-4b8d-9a78-a03ca59013fb","ios":"levelo://app?vid=6b404443-757b-4b8d-9a78-a03ca59013fb"},"vehicle_type_id":"4","last_reported":1685379966,"current_range_meters":6000,"station_id":"","pricing_plan_id":"free"},{"bike_id":"a7719dfa-fb9f-41c7-b3ad-1fa956ebcb31","system_id":"levelo_inurba_marseille","lat":43.2607,"lon":5.393983,"is_reserved":false,"is_disabled":false,"rental_uris":{"android":"levelo://app?vid=a7719dfa-fb9f-41c7-b3ad-1fa956ebcb31","ios":"levelo://app?vid=a7719dfa-fb9f-41c7-b3ad-1fa956ebcb31"},"vehicle_type_id":"4","last_reported":1685379966,"current_range_meters":4400,"station_id":"ce4bhh92rcd13ifvqfj0","pricing_plan_id":"free"},{"bike_id":"568c6ebb-d286-467f-ad74-c4095265258d","system_id":"levelo_inurba_marseille","lat":43.2607,"lon":5.393983,"is_reserved":false,"is_disabled":false,"rental_uris":{"android":"levelo://app?vid=568c6ebb-d286-467f-ad74-c4095265258d","ios":"levelo://app?vid=568c6ebb-d286-467f-ad74-c4095265258d"},"vehicle_type_id":"4","last_reported":1685379966,"current_range_meters":3600,"station_id":"ce4bhh92rcd13ifvqfj0","pricing_plan_id":"free"},{"bike_id":"1aaa9893-ecfb-47b5-96a7-5161ee9c37b4","system_id":"levelo_inurba_marseille","lat":43.2607,"lon":5.393983,"is_reserved":false,"is_disabled":false,"rental_uris":{"android":"levelo://app?vid=1aaa9893-ecfb-47b5-96a7-5161ee9c37b4","ios":"levelo://app?vid=1aaa9893-ecfb-47b5-96a7-5161ee9c37b4"},"vehicle_type_id":"4","last_reported":1685379966,"current_range_meters":31600,"station_id":"ce4bhh92rcd13ifvqfj0","pricing_plan_id":"free"},{"bike_id":"45e18a47-944f-4248-9fe9-df4e0ba7ad4e","system_id":"levelo_inurba_marseille","lat":43.260909,"lon":5.397591,"is_reserved":false,"is_disabled":false,"rental_uris":{"android":"levelo://app?vid=45e18a47-944f-4248-9fe9-df4e0ba7ad4e","ios":"levelo://app?vid=45e18a47-944f-4248-9fe9-df4e0ba7ad4e"},"vehicle_type_id":"4","last_reported":1685379966,"current_range_meters":19600,"station_id":"ce4bhi12rcd13ifvqfq0","pricing_plan_id":"free"},{"bike_id":"698ab0fb-273c-45db-8f26-8de622cbb28a","system_id":"levelo_inurba_marseille","lat":43.255756,"lon":5.382303,"is_reserved":false,"is_disabled":false,"rental_uris":{"android":"levelo://app?vid=698ab0fb-273c-45db-8f26-8de622cbb28a","ios":"levelo://app?vid=698ab0fb-273c-45db-8f26-8de622cbb28a"},"vehicle_type_id":"4","last_reported":1685379966,"current_range_meters":6400,"station_id":"ce4bhih2rcd13ifvqfs0","pricing_plan_id":"free"},{"bike_id":"e3818fd3-d07a-4e34-b777-0a1453b723fd","system_id":"levelo_inurba_marseille","lat":43.255756,"lon":5.382303,"is_reserved":false,"is_disabled":false,"rental_uris":{"android":"levelo://app?vid=e3818fd3-d07a-4e34-b777-0a1453b723fd","ios":"levelo://app?vid=e3818fd3-d07a-4e34-b777-0a1453b723fd"},"vehicle_type_id":"4","last_reported":1685379966,"current_range_meters":29600,"station_id":"ce4bhih2rcd13ifvqfs0","pricing_plan_id":"free"},{"bike_id":"986d8381-a7b9-4ab2-ab0b-039c6f318ff1","system_id":"levelo_inurba_marseille","lat":43.25577,"lon":5.38239,"is_reserved":false,"is_disabled":false,"rental_uris":{"android":"levelo://app?vid=986d8381-a7b9-4ab2-ab0b-039c6f318ff1","ios":"levelo://app?vid=986d8381-a7b9-4ab2-ab0b-039c6f318ff1"},"vehicle_type_id":"4","last_reported":1685379966,"current_range_meters":19200,"station_id":"ce4bhih2rcd13ifvqfs0","pricing_plan_id":"free"},{"bike_id":"2c97b257-d928-4bd1-92f7-687718d6ad94","system_id":"levelo_inurba_marseille","lat":43.255756,"lon":5.382303,"is_reserved":false,"is_disabled":false,"rental_uris":{"android":"levelo://app?vid=2c97b257-d928-4bd1-92f7-687718d6ad94","ios":"levelo://app?vid=2c97b257-d928-4bd1-92f7-687718d6ad94"},"vehicle_type_id":"4","last_reported":1685379966,"current_range_meters":18000,"station_id":"ce4bhih2rcd13ifvqfs0","pricing_plan_id":"free"},{"bike_id":"1189cdf1-c11e-4098-a686-4bc23d05fa21","system_id":"levelo_inurba_marseille","lat":43.255756,"lon":5.382303,"is_reserved":false,"is_disabled":false,"rental_uris":{"android":"levelo://app?vid=1189cdf1-c11e-4098-a686-4bc23d05fa21","ios":"levelo://app?vid=1189cdf1-c11e-4098-a686-4bc23d05fa21"},"vehicle_type_id":"4","last_reported":1685379966,"current_range_meters":29200,"station_id":"ce4bhih2rcd13ifvqfs0","pricing_plan_id":"free"},{"bike_id":"320444f4-1c61-485c-9675-20784f63c106","system_id":"levelo_inurba_marseille","lat":43.255756,"lon":5.382303,"is_reserved":false,"is_disabled":false,"rental_uris":{"android":"levelo://app?vid=320444f4-1c61-485c-9675-20784f63c106","ios":"levelo://app?vid=320444f4-1c61-485c-9675-20784f63c106"},"vehicle_type_id":"4","last_reported":1685379966,"current_range_meters":28000,"station_id":"ce4bhih2rcd13ifvqfs0","pricing_plan_id":"free"},{"bike_id":"fc6d7634-f6c8-414f-99b6-8d9634c441cb","system_id":"levelo_inurba_marseille","lat":43.254947,"lon":5.376454,"is_reserved":false,"is_disabled":false,"rental_uris":{"android":"levelo://app?vid=fc6d7634-f6c8-414f-99b6-8d9634c441cb","ios":"levelo://app?vid=fc6d7634-f6c8-414f-99b6-8d9634c441cb"},"vehicle_type_id":"4","last_reported":1685379966,"current_range_meters":31200,"station_id":"ce4bhh12rcd13ifvqff0","pricing_plan_id":"free"},{"bike_id":"ca719178-8b73-426e-8932-5acfd018cf58","system_id":"levelo_inurba_marseille","lat":43.254947,"lon":5.376454,"is_reserved":false,"is_disabled":false,"rental_uris":{"android":"levelo://app?vid=ca719178-8b73-426e-8932-5acfd018cf58","ios":"levelo://app?vid=ca719178-8b73-426e-8932-5acfd018cf58"},"vehicle_type_id":"4","last_reported":1685379966,"current_range_meters":30800,"station_id":"ce4bhh12rcd13ifvqff0","pricing_plan_id":"free"},{"bike_id":"a8e61f92-042f-49c5-ba90-c0c1d336c795","system_id":"levelo_inurba_marseille","lat":43.258658,"lon":5.398935,"is_reserved":false,"is_disabled":false,"rental_uris":{"android":"levelo://app?vid=a8e61f92-042f-49c5-ba90-c0c1d336c795","ios":"levelo://app?vid=a8e61f92-042f-49c5-ba90-c0c1d336c795"},"vehicle_type_id":"4","last_reported":1685379966,"current_range_meters":24800,"station_id":"ce4bhl92rcd13ifvqghg","pricing_plan_id":"free"},{"bike_id":"9ad648bc-e8ed-49e2-a5ec-add1b46f412b","system_id":"levelo_inurba_marseille","lat":43.250023,"lon":5.38919,"is_reserved":false,"is_disabled":false,"rental_uris":{"android":"levelo://app?vid=9ad648bc-e8ed-49e2-a5ec-add1b46f412b","ios":"levelo://app?vid=9ad648bc-e8ed-49e2-a5ec-add1b46f412b"},"vehicle_type_id":"4","last_reported":1685379966,"current_range_meters":29200,"station_id":"ce4bhgp2rcd13ifvqfd0","pricing_plan_id":"free"},{"bike_id":"a732e2ee-0ecf-41ed-95ea-aa300ae3f57b","system_id":"levelo_inurba_marseille","lat":43.24813,"lon":5.37458,"is_reserved":false,"is_disabled":false,"rental_uris":{"android":"levelo://app?vid=a732e2ee-0ecf-41ed-95ea-aa300ae3f57b","ios":"levelo://app?vid=a732e2ee-0ecf-41ed-95ea-aa300ae3f57b"},"vehicle_type_id":"4","last_reported":1685379966,"current_range_meters":9600,"station_id":"ce4bhgh2rcd13ifvqfb0","pricing_plan_id":"free"},{"bike_id":"b1877dab-da46-46d0-a0a9-88af62e9285c","system_id":"levelo_inurba_marseille","lat":43.250023,"lon":5.38919,"is_reserved":false,"is_disabled":false,"rental_uris":{"android":"levelo://app?vid=b1877dab-da46-46d0-a0a9-88af62e9285c","ios":"levelo://app?vid=b1877dab-da46-46d0-a0a9-88af62e9285c"},"vehicle_type_id":"4","last_reported":1685379966,"current_range_meters":26000,"station_id":"ce4bhgp2rcd13ifvqfd0","pricing_plan_id":"free"},{"bike_id":"0714ebc4-5725-493c-8c71-f4b0a121f603","system_id":"levelo_inurba_marseille","lat":43.250023,"lon":5.38919,"is_reserved":false,"is_disabled":false,"rental_uris":{"android":"levelo://app?vid=0714ebc4-5725-493c-8c71-f4b0a121f603","ios":"levelo://app?vid=0714ebc4-5725-493c-8c71-f4b0a121f603"},"vehicle_type_id":"4","last_reported":1685379966,"current_range_meters":31200,"station_id":"ce4bhgp2rcd13ifvqfd0","pricing_plan_id":"free"},{"bike_id":"44937c0e-4019-4eca-a556-bf25959ffa29","system_id":"levelo_inurba_marseille","lat":43.250966,"lon":5.395186,"is_reserved":false,"is_disabled":false,"rental_uris":{"android":"levelo://app?vid=44937c0e-4019-4eca-a556-bf25959ffa29","ios":"levelo://app?vid=44937c0e-4019-4eca-a556-bf25959ffa29"},"vehicle_type_id":"4","last_reported":1685379966,"current_range_meters":6000,"station_id":"ce4bhm12rcd13ifvqgkg","pricing_plan_id":"free"},{"bike_id":"1b41f02f-e50a-4cab-8910-42a7f65fa9b2","system_id":"levelo_inurba_marseille","lat":43.250966,"lon":5.395186,"is_reserved":false,"is_disabled":false,"rental_uris":{"android":"levelo://app?vid=1b41f02f-e50a-4cab-8910-42a7f65fa9b2","ios":"levelo://app?vid=1b41f02f-e50a-4cab-8910-42a7f65fa9b2"},"vehicle_type_id":"4","last_reported":1685379966,"current_range_meters":17200,"station_id":"ce4bhm12rcd13ifvqgkg","pricing_plan_id":"free"},{"bike_id":"a05b00ef-7236-40a3-99bf-6c85ac4556e8","system_id":"levelo_inurba_marseille","lat":43.250966,"lon":5.395186,"is_reserved":false,"is_disabled":false,"rental_uris":{"android":"levelo://app?vid=a05b00ef-7236-40a3-99bf-6c85ac4556e8","ios":"levelo://app?vid=a05b00ef-7236-40a3-99bf-6c85ac4556e8"},"vehicle_type_id":"4","last_reported":1685379966,"current_range_meters":25600,"station_id":"ce4bhm12rcd13ifvqgkg","pricing_plan_id":"free"},{"bike_id":"2083719c-d28b-4a58-a603-44bd8cbfaddc","system_id":"levelo_inurba_marseille","lat":43.250966,"lon":5.395186,"is_reserved":false,"is_disabled":false,"rental_uris":{"android":"levelo://app?vid=2083719c-d28b-4a58-a603-44bd8cbfaddc","ios":"levelo://app?vid=2083719c-d28b-4a58-a603-44bd8cbfaddc"},"vehicle_type_id":"4","last_reported":1685379966,"current_range_meters":15600,"station_id":"ce4bhm12rcd13ifvqgkg","pricing_plan_id":"free"},{"bike_id":"7b006c35-5d45-4bce-8ad9-ca21301da14b","system_id":"levelo_inurba_marseille","lat":43.250966,"lon":5.395186,"is_reserved":false,"is_disabled":false,"rental_uris":{"android":"levelo://app?vid=7b006c35-5d45-4bce-8ad9-ca21301da14b","ios":"levelo://app?vid=7b006c35-5d45-4bce-8ad9-ca21301da14b"},"vehicle_type_id":"4","last_reported":1685379966,"current_range_meters":31200,"station_id":"ce4bhm12rcd13ifvqgkg","pricing_plan_id":"free"},{"bike_id":"295109d7-8f32-447b-a32d-fdd4a3375719","system_id":"levelo_inurba_marseille","lat":43.24669,"lon":5.38157,"is_reserved":false,"is_disabled":false,"rental_uris":{"android":"levelo://app?vid=295109d7-8f32-447b-a32d-fdd4a3375719","ios":"levelo://app?vid=295109d7-8f32-447b-a32d-fdd4a3375719"},"vehicle_type_id":"4","last_reported":1685379966,"current_range_meters":21200,"station_id":"","pricing_plan_id":"free"},{"bike_id":"6d2073a6-d325-48b2-a6bc-c5f818f0cdb3","system_id":"levelo_inurba_marseille","lat":43.24668,"lon":5.38157,"is_reserved":false,"is_disabled":false,"rental_uris":{"android":"levelo://app?vid=6d2073a6-d325-48b2-a6bc-c5f818f0cdb3","ios":"levelo://app?vid=6d2073a6-d325-48b2-a6bc-c5f818f0cdb3"},"vehicle_type_id":"4","last_reported":1685379966,"current_range_meters":19600,"station_id":"","pricing_plan_id":"free"},{"bike_id":"4332ab61-2b59-45b5-9ee7-69c10bf7a50d","system_id":"levelo_inurba_marseille","lat":43.24693,"lon":5.382096,"is_reserved":false,"is_disabled":false,"rental_uris":{"android":"levelo://app?vid=4332ab61-2b59-45b5-9ee7-69c10bf7a50d","ios":"levelo://app?vid=4332ab61-2b59-45b5-9ee7-69c10bf7a50d"},"vehicle_type_id":"4","last_reported":1685379966,"current_range_meters":31200,"station_id":"ce4bhih2rcd13ifvqfr0","pricing_plan_id":"free"},{"bike_id":"e356dcfd-325a-41ae-86cc-6b609e92c5fb","system_id":"levelo_inurba_marseille","lat":43.25102,"lon":5.403214,"is_reserved":false,"is_disabled":false,"rental_uris":{"android":"levelo://app?vid=e356dcfd-325a-41ae-86cc-6b609e92c5fb","ios":"levelo://app?vid=e356dcfd-325a-41ae-86cc-6b609e92c5fb"},"vehicle_type_id":"4","last_reported":1685379966,"current_range_meters":31200,"station_id":"ce4bhlh2rcd13ifvqgig","pricing_plan_id":"free"},{"bike_id":"1f3c9884-dd9f-492e-be44-0d6e973be08d","system_id":"levelo_inurba_marseille","lat":43.24665,"lon":5.38156,"is_reserved":false,"is_disabled":false,"rental_uris":{"android":"levelo://app?vid=1f3c9884-dd9f-492e-be44-0d6e973be08d","ios":"levelo://app?vid=1f3c9884-dd9f-492e-be44-0d6e973be08d"},"vehicle_type_id":"4","last_reported":1685379966,"current_range_meters":30400,"station_id":"","pricing_plan_id":"free"},{"bike_id":"1868bd4e-2cd0-428d-b2fc-38633cd6a2da","system_id":"levelo_inurba_marseille","lat":43.24693,"lon":5.382096,"is_reserved":false,"is_disabled":false,"rental_uris":{"android":"levelo://app?vid=1868bd4e-2cd0-428d-b2fc-38633cd6a2da","ios":"levelo://app?vid=1868bd4e-2cd0-428d-b2fc-38633cd6a2da"},"vehicle_type_id":"4","last_reported":1685379966,"current_range_meters":11200,"station_id":"ce4bhih2rcd13ifvqfr0","pricing_plan_id":"free"},{"bike_id":"63d53367-3882-45ce-8104-ad759e63cced","system_id":"levelo_inurba_marseille","lat":43.24693,"lon":5.382096,"is_reserved":false,"is_disabled":false,"rental_uris":{"android":"levelo://app?vid=63d53367-3882-45ce-8104-ad759e63cced","ios":"levelo://app?vid=63d53367-3882-45ce-8104-ad759e63cced"},"vehicle_type_id":"4","last_reported":1685379966,"current_range_meters":22400,"station_id":"ce4bhih2rcd13ifvqfr0","pricing_plan_id":"free"},{"bike_id":"a9bf446b-4c28-47ad-952b-c355ea16ce69","system_id":"levelo_inurba_marseille","lat":43.24663,"lon":5.38155,"is_reserved":false,"is_disabled":false,"rental_uris":{"android":"levelo://app?vid=a9bf446b-4c28-47ad-952b-c355ea16ce69","ios":"levelo://app?vid=a9bf446b-4c28-47ad-952b-c355ea16ce69"},"vehicle_type_id":"4","last_reported":1685379966,"current_range_meters":29200,"station_id":"","pricing_plan_id":"free"},{"bike_id":"79952baa-745e-49f2-ad07-8de9cb7e97b3","system_id":"levelo_inurba_marseille","lat":43.25102,"lon":5.403214,"is_reserved":false,"is_disabled":false,"rental_uris":{"android":"levelo://app?vid=79952baa-745e-49f2-ad07-8de9cb7e97b3","ios":"levelo://app?vid=79952baa-745e-49f2-ad07-8de9cb7e97b3"},"vehicle_type_id":"4","last_reported":1685379966,"current_range_meters":31200,"station_id":"ce4bhlh2rcd13ifvqgig","pricing_plan_id":"free"},{"bike_id":"6308c186-4e53-486a-9cfc-705929848aa4","system_id":"levelo_inurba_marseille","lat":43.24693,"lon":5.382096,"is_reserved":false,"is_disabled":false,"rental_uris":{"android":"levelo://app?vid=6308c186-4e53-486a-9cfc-705929848aa4","ios":"levelo://app?vid=6308c186-4e53-486a-9cfc-705929848aa4"},"vehicle_type_id":"4","last_reported":1685379966,"current_range_meters":7200,"station_id":"ce4bhih2rcd13ifvqfr0","pricing_plan_id":"free"},{"bike_id":"7951b879-a82d-409d-b502-147968454f15","system_id":"levelo_inurba_marseille","lat":43.24693,"lon":5.382096,"is_reserved":false,"is_disabled":false,"rental_uris":{"android":"levelo://app?vid=7951b879-a82d-409d-b502-147968454f15","ios":"levelo://app?vid=7951b879-a82d-409d-b502-147968454f15"},"vehicle_type_id":"4","last_reported":1685379966,"current_range_meters":14000,"station_id":"ce4bhih2rcd13ifvqfr0","pricing_plan_id":"free"},{"bike_id":"adbc55b5-a2d0-4d8a-a97c-8804ee309a81","system_id":"levelo_inurba_marseille","lat":43.24662,"lon":5.38164,"is_reserved":false,"is_disabled":false,"rental_uris":{"android":"levelo://app?vid=adbc55b5-a2d0-4d8a-a97c-8804ee309a81","ios":"levelo://app?vid=adbc55b5-a2d0-4d8a-a97c-8804ee309a81"},"vehicle_type_id":"4","last_reported":1685379966,"current_range_meters":1200,"station_id":"","pricing_plan_id":"free"},{"bike_id":"f0f34558-87ba-4daf-894f-6ef924b9176d","system_id":"levelo_inurba_marseille","lat":43.24693,"lon":5.382096,"is_reserved":false,"is_disabled":false,"rental_uris":{"android":"levelo://app?vid=f0f34558-87ba-4daf-894f-6ef924b9176d","ios":"levelo://app?vid=f0f34558-87ba-4daf-894f-6ef924b9176d"},"vehicle_type_id":"4","last_reported":1685379966,"current_range_meters":31600,"station_id":"ce4bhih2rcd13ifvqfr0","pricing_plan_id":"free"},{"bike_id":"1d3a1dc5-30ce-4cb3-92a2-df90e2828158","system_id":"levelo_inurba_marseille","lat":43.24693,"lon":5.382096,"is_reserved":false,"is_disabled":false,"rental_uris":{"android":"levelo://app?vid=1d3a1dc5-30ce-4cb3-92a2-df90e2828158","ios":"levelo://app?vid=1d3a1dc5-30ce-4cb3-92a2-df90e2828158"},"vehicle_type_id":"4","last_reported":1685379966,"current_range_meters":31600,"station_id":"ce4bhih2rcd13ifvqfr0","pricing_plan_id":"free"},{"bike_id":"bfeb42c6-e813-4d24-b7ea-5911a96d4b18","system_id":"levelo_inurba_marseille","lat":43.24658,"lon":5.3816,"is_reserved":false,"is_disabled":false,"rental_uris":{"android":"levelo://app?vid=bfeb42c6-e813-4d24-b7ea-5911a96d4b18","ios":"levelo://app?vid=bfeb42c6-e813-4d24-b7ea-5911a96d4b18"},"vehicle_type_id":"4","last_reported":1685379966,"current_range_meters":29200,"station_id":"","pricing_plan_id":"free"},{"bike_id":"4f443948-a1bf-48fb-8579-010eb091273c","system_id":"levelo_inurba_marseille","lat":43.24693,"lon":5.382096,"is_reserved":false,"is_disabled":false,"rental_uris":{"android":"levelo://app?vid=4f443948-a1bf-48fb-8579-010eb091273c","ios":"levelo://app?vid=4f443948-a1bf-48fb-8579-010eb091273c"},"vehicle_type_id":"4","last_reported":1685379966,"current_range_meters":30000,"station_id":"ce4bhih2rcd13ifvqfr0","pricing_plan_id":"free"},{"bike_id":"d17d2e94-6a2f-4898-a2a1-9ad82a606528","system_id":"levelo_inurba_marseille","lat":43.25102,"lon":5.403214,"is_reserved":false,"is_disabled":false,"rental_uris":{"android":"levelo://app?vid=d17d2e94-6a2f-4898-a2a1-9ad82a606528","ios":"levelo://app?vid=d17d2e94-6a2f-4898-a2a1-9ad82a606528"},"vehicle_type_id":"4","last_reported":1685379966,"current_range_meters":30000,"station_id":"ce4bhlh2rcd13ifvqgig","pricing_plan_id":"free"},{"bike_id":"9a420799-435f-4970-9f6c-faa1409f8b8c","system_id":"levelo_inurba_marseille","lat":43.24656,"lon":5.38158,"is_reserved":false,"is_disabled":false,"rental_uris":{"android":"levelo://app?vid=9a420799-435f-4970-9f6c-faa1409f8b8c","ios":"levelo://app?vid=9a420799-435f-4970-9f6c-faa1409f8b8c"},"vehicle_type_id":"4","last_reported":1685379966,"current_range_meters":30000,"station_id":"","pricing_plan_id":"free"},{"bike_id":"145dbaf2-1fdc-4e41-adf6-5c3bbe4e658e","system_id":"levelo_inurba_marseille","lat":43.24654,"lon":5.38156,"is_reserved":false,"is_disabled":false,"rental_uris":{"android":"levelo://app?vid=145dbaf2-1fdc-4e41-adf6-5c3bbe4e658e","ios":"levelo://app?vid=145dbaf2-1fdc-4e41-adf6-5c3bbe4e658e"},"vehicle_type_id":"4","last_reported":1685379966,"current_range_meters":21600,"station_id":"","pricing_plan_id":"free"},{"bike_id":"cd310b8e-6eae-4d1f-a350-af1d435456f6","system_id":"levelo_inurba_marseille","lat":43.246461,"lon":5.389014,"is_reserved":false,"is_disabled":false,"rental_uris":{"android":"levelo://app?vid=cd310b8e-6eae-4d1f-a350-af1d435456f6","ios":"levelo://app?vid=cd310b8e-6eae-4d1f-a350-af1d435456f6"},"vehicle_type_id":"4","last_reported":1685379966,"current_range_meters":29200,"station_id":"ce4bhg12rcd13ifvqf60","pricing_plan_id":"free"},{"bike_id":"7ddaaae3-3c81-4929-8c81-2e0bc9834816","system_id":"levelo_inurba_marseille","lat":43.246467,"lon":5.388984,"is_reserved":false,"is_disabled":false,"rental_uris":{"android":"levelo://app?vid=7ddaaae3-3c81-4929-8c81-2e0bc9834816","ios":"levelo://app?vid=7ddaaae3-3c81-4929-8c81-2e0bc9834816"},"vehicle_type_id":"4","last_reported":1685379966,"current_range_meters":31200,"station_id":"ce4bhg12rcd13ifvqf60","pricing_plan_id":"free"},{"bike_id":"da00aa5e-3522-4077-a8fa-d94ae705a022","system_id":"levelo_inurba_marseille","lat":43.246461,"lon":5.389014,"is_reserved":false,"is_disabled":false,"rental_uris":{"android":"levelo://app?vid=da00aa5e-3522-4077-a8fa-d94ae705a022","ios":"levelo://app?vid=da00aa5e-3522-4077-a8fa-d94ae705a022"},"vehicle_type_id":"4","last_reported":1685379966,"current_range_meters":13600,"station_id":"ce4bhg12rcd13ifvqf60","pricing_plan_id":"free"},{"bike_id":"1bc1445b-532f-4275-8ed4-ae5a30613b98","system_id":"levelo_inurba_marseille","lat":43.29829,"lon":5.45922,"is_reserved":false,"is_disabled":false,"rental_uris":{"android":"levelo://app?vid=1bc1445b-532f-4275-8ed4-ae5a30613b98","ios":"levelo://app?vid=1bc1445b-532f-4275-8ed4-ae5a30613b98"},"vehicle_type_id":"4","last_reported":1685379966,"current_range_meters":22800,"station_id":"","pricing_plan_id":"free"},{"bike_id":"24703bd2-a853-4d84-b982-be16b48094f9","system_id":"levelo_inurba_marseille","lat":43.239588,"lon":5.366238,"is_reserved":false,"is_disabled":false,"rental_uris":{"android":"levelo://app?vid=24703bd2-a853-4d84-b982-be16b48094f9","ios":"levelo://app?vid=24703bd2-a853-4d84-b982-be16b48094f9"},"vehicle_type_id":"4","last_reported":1685379966,"current_range_meters":2800,"station_id":"ce4bhi12rcd13ifvqfp0","pricing_plan_id":"free"},{"bike_id":"03e04a8a-c2a3-4d62-af2d-242bc25e5069","system_id":"levelo_inurba_marseille","lat":43.243884,"lon":5.370737,"is_reserved":false,"is_disabled":false,"rental_uris":{"android":"levelo://app?vid=03e04a8a-c2a3-4d62-af2d-242bc25e5069","ios":"levelo://app?vid=03e04a8a-c2a3-4d62-af2d-242bc25e5069"},"vehicle_type_id":"4","last_reported":1685379966,"current_range_meters":0,"station_id":"ce4bhhh2rcd13ifvqfk0","pricing_plan_id":"free"},{"bike_id":"bf07edbb-b830-4667-9faf-2a1fa4e949f9","system_id":"levelo_inurba_marseille","lat":43.24623,"lon":5.39325,"is_reserved":false,"is_disabled":false,"rental_uris":{"android":"levelo://app?vid=bf07edbb-b830-4667-9faf-2a1fa4e949f9","ios":"levelo://app?vid=bf07edbb-b830-4667-9faf-2a1fa4e949f9"},"vehicle_type_id":"4","last_reported":1685379966,"current_range_meters":19200,"station_id":"","pricing_plan_id":"free"},{"bike_id":"8045018d-bfcc-4261-bc9e-370a5aebdec5","system_id":"levelo_inurba_marseille","lat":43.24623,"lon":5.39333,"is_reserved":false,"is_disabled":false,"rental_uris":{"android":"levelo://app?vid=8045018d-bfcc-4261-bc9e-370a5aebdec5","ios":"levelo://app?vid=8045018d-bfcc-4261-bc9e-370a5aebdec5"},"vehicle_type_id":"4","last_reported":1685379966,"current_range_meters":31200,"station_id":"","pricing_plan_id":"free"},{"bike_id":"d04409f4-1b7e-4bd7-b364-b5a32bd9fa3b","system_id":"levelo_inurba_marseille","lat":43.29743,"lon":5.45999,"is_reserved":false,"is_disabled":false,"rental_uris":{"android":"levelo://app?vid=d04409f4-1b7e-4bd7-b364-b5a32bd9fa3b","ios":"levelo://app?vid=d04409f4-1b7e-4bd7-b364-b5a32bd9fa3b"},"vehicle_type_id":"4","last_reported":1685379966,"current_range_meters":29200,"station_id":"","pricing_plan_id":"free"},{"bike_id":"cb2c0e1c-4eae-40c4-ad5e-0e043a329451","system_id":"levelo_inurba_marseille","lat":43.24549,"lon":5.39524,"is_reserved":false,"is_disabled":false,"rental_uris":{"android":"levelo://app?vid=cb2c0e1c-4eae-40c4-ad5e-0e043a329451","ios":"levelo://app?vid=cb2c0e1c-4eae-40c4-ad5e-0e043a329451"},"vehicle_type_id":"4","last_reported":1685379966,"current_range_meters":31200,"station_id":"ce4bhlp2rcd13ifvqgjg","pricing_plan_id":"free"},{"bike_id":"0bde4716-a24d-46b7-94ce-1b99917ceb05","system_id":"levelo_inurba_marseille","lat":43.24548,"lon":5.39522,"is_reserved":false,"is_disabled":false,"rental_uris":{"android":"levelo://app?vid=0bde4716-a24d-46b7-94ce-1b99917ceb05","ios":"levelo://app?vid=0bde4716-a24d-46b7-94ce-1b99917ceb05"},"vehicle_type_id":"4","last_reported":1685379966,"current_range_meters":31200,"station_id":"ce4bhlp2rcd13ifvqgjg","pricing_plan_id":"free"},