{"last_updated":1747390275,"ttl":60,"version":"2.2","data":{"bikes":[{"bike_id":"c0b9fd4f-e181-46ce-b0bf-f5119973334f","system_id":"levelo_inurba_marseille","lat":43.33771,"lon":5.37424,"is_reserved":false,"is_disabled":false,"rental_uris":{"android":"levelo://app?vid=c0b9fd4f-e181-46ce-b0bf-f5119973334f","ios":"levelo://app?vid=c0b9fd4f-e181-46ce-b0bf-f5119973334f"},"vehicle_type_id":"4","last_reported":1747390275,"current_range_meters":10800,"station_id":"","pricing_plan_id":"cebpf4jnsgd1na2vs0mg"},{"bike_id":"fc2577e7-1497-425b-9d4f-ab8d7dc843c6","system_id":"levelo_inurba_marseille","lat":43.33771,"lon":5.37485,"is_reserved":false,"is_disabled":true,"rental_uris":{"android":"levelo://app?vid=fc2577e7-1497-425b-9d4f-ab8d7dc843c6","ios":"levelo://app?vid=fc2577e7-1497-425b-9d4f-ab8d7dc843c6"},"vehicle_type_id":"4","last_reported":1747390275,"current_range_meters":0,"station_id":"","pricing_plan_id":"cebpf4jnsgd1na2vs0mg"},{"bike_id":"ce4325af-2448-4172-bdec-81d552ee0b62","system_id":"levelo_inurba_marseille","lat":43.26159,"lon":5.42014,"is_reserved":false,"is_disabled":true,"rental_uris":{"android":"levelo://app?vid=ce4325af-2448-4172-bdec-81d552ee0b62","ios":"levelo://app?vid=ce4325af-2448-4172-bdec-81d552ee0b62"},"vehicle_type_id":"4","last_reported":1747390275,"current_range_meters":0,"station_id":"","pricing_plan_id":"cebpf4jnsgd1na2vs0mg"},{"bike_id":"2b8fbf5f-4106-421b-bd48-29543ccb14db","system_id":"levelo_inurba_marseille","lat":43.23703,"lon":5.36276,"is_reserved":false,"is_disabled":true,"rental_uris":{"android":"levelo://app?vid=2b8fbf5f-4106-421b-bd48-29543ccb14db","ios":"levelo://app?vid=2b8fbf5f-4106-421b-bd48-29543ccb14db"},"vehicle_type_id":"4","last_reported":1747390275,"current_range_meters":0,"station_id":"","pricing_plan_id":"cebpf4jnsgd1na2vs0mg"},{"bike_id":"5de4311e-acc0-4747-9be3-06bcfa4d137e","system_id":"levelo_inurba_marseille","lat":43.31965,"lon":5.38684,"is_reserved":false,"is_disabled":true,"rental_uris":{"android":"levelo://app?vid=5de4311e-acc0-4747-9be3-06bcfa4d137e","ios":"levelo://app?vid=5de4311e-acc0-4747-9be3-06bcfa4d137e"},"vehicle_type_id":"4","last_reported":1747390275,"current_range_meters":0,"station_id":"","pricing_plan_id":"cebpf4jnsgd1na2vs0mg"},{"bike_id":"792567c6-0442-4011-aff0-9c05e25deb48","system_id":"levelo_inurba_marseille","lat":43.337444,"lon":5.374475,"is_reserved":false,"is_disabled":true,"rental_uris":{"android":"levelo://app?vid=792567c6-0442-4011-aff0-9c05e25deb48","ios":"levelo://app?vid=792567c6-0442-4011-aff0-9c05e25deb48"},"vehicle_type_id":"4","last_reported":1747390275,"current_range_meters":0,"station_id":"","pricing_plan_id":"cebpf4jnsgd1na2vs0mg"},{"bike_id":"2a5dafaf-54ec-4df0-8510-39053ad2d582","system_id":"levelo_inurba_marseille","lat":43.3317,"lon":5.39207,"is_reserved":false,"is_disabled":true,"rental_uris":{"android":"levelo://app?vid=2a5dafaf-54ec-4df0-8510-39053ad2d582","ios":"levelo://app?vid=2a5dafaf-54ec-4df0-8510-39053ad2d582"},"vehicle_type_id":"4","last_reported":1747390275,"current_range_meters":0,"station_id":"","pricing_plan_id":"cebpf4jnsgd1na2vs0mg"},{"bike_id":"0fd4bff8-7683-40d4-b0ae-c129cdc72cba","system_id":"levelo_inurba_marseille","lat":43.30735,"lon":5.40439,"is_reserved":false,"is_disabled":true,"rental_uris":{"android":"levelo://app?vid=0fd4bff8-7683-40d4-b0ae-c129cdc72cba","ios":"levelo://app?vid=0fd4bff8-7683-40d4-b0ae-c129cdc72cba"},"vehicle_type_id":"4","last_reported":1747390275,"current_range_meters":0,"station_id":"","pricing_plan_id":"cebpf4jnsgd1na2vs0mg"},{"bike_id":"08a39d3b-470a-434b-b28e-9faac8d40b5e","system_id":"levelo_inurba_marseille","lat":43.301392,"lon":5.387778,"is_reserved":false,"is_disabled":true,"rental_uris":{"android":"levelo://app?vid=08a39d3b-470a-434b-b28e-9faac8d40b5e","ios":"levelo://app?vid=08a39d3b-470a-434b-b28e-9faac8d40b5e"},"vehicle_type_id":"4","last_reported":1747390275,"current_range_meters":0,"station_id":"ce4bghh2rcd13ifvqb60","pricing_plan_id":"cebpf4jnsgd1na2vs0mg"},{"bike_id":"c989c2d7-92f3-4c20-a038-e0a602bdee81","system_id":"levelo_inurba_marseille","lat":43.30953,"lon":5.39029,"is_reserved":false,"is_disabled":true,"rental_uris":{"android":"levelo://app?vid=c989c2d7-92f3-4c20-a038-e0a602bdee81","ios":"levelo://app?vid=c989c2d7-92f3-4c20-a038-e0a602bdee81"},"vehicle_type_id":"4","last_reported":1747390275,"current_range_meters":0,"station_id":"ce4bgup2rcd13ifvqco0","pricing_plan_id":"cebpf4jnsgd1na2vs0mg"},{"bike_id":"1382616f-42e6-41a3-8d79-6b8977124ea6","system_id":"levelo_inurba_marseille","lat":43.273103,"lon":5.390853,"is_reserved":false,"is_disabled":true,"rental_uris":{"android":"levelo://app?vid=1382616f-42e6-41a3-8d79-6b8977124ea6","ios":"levelo://app?vid=1382616f-42e6-41a3-8d79-6b8977124ea6"},"vehicle_type_id":"4","last_reported":1747390275,"current_range_meters":0,"station_id":"ce4bhgp2rcd13ifvqfe0","pricing_plan_id":"cebpf4jnsgd1na2vs0mg"},{"bike_id":"845db46f-0de8-42d3-af6a-4ad282877a52","system_id":"levelo_inurba_marseille","lat":43.23962,"lon":5.36654,"is_reserved":false,"is_disabled":true,"rental_uris":{"android":"levelo://app?vid=845db46f-0de8-42d3-af6a-4ad282877a52","ios":"levelo://app?vid=845db46f-0de8-42d3-af6a-4ad282877a52"},"vehicle_type_id":"4","last_reported":1747390275,"current_range_meters":0,"station_id":"ce4bhi12rcd13ifvqfp0","pricing_plan_id":"cebpf4jnsgd1na2vs0mg"},{"bike_id":"bb960bb1-8513-465e-8a9a-4307aef7ddf7","system_id":"levelo_inurba_marseille","lat":43.217508,"lon":5.346023,"is_reserved":false,"is_disabled":true,"rental_uris":{"android":"levelo://app?vid=bb960bb1-8513-465e-8a9a-4307aef7ddf7","ios":"levelo://app?vid=bb960bb1-8513-465e-8a9a-4307aef7ddf7"},"vehicle_type_id":"4","last_reported":1747390275,"current_range_meters":0,"station_id":"st_cvj6r9ubvosntc0bgbag","pricing_plan_id":"cebpf4jnsgd1na2vs0mg"},{"bike_id":"ddf9b91b-585e-4ff1-a186-65c2ce3a90e0","system_id":"levelo_inurba_marseille","lat":43.28653,"lon":5.351448,"is_reserved":false,"is_disabled":true,"rental_uris":{"android":"levelo://app?vid=ddf9b91b-585e-4ff1-a186-65c2ce3a90e0","ios":"levelo://app?vid=ddf9b91b-585e-4ff1-a186-65c2ce3a90e0"},"vehicle_type_id":"4","last_reported":1747390275,"current_range_meters":400,"station_id":"ce4bhch2rcd13ifvqeug","pricing_plan_id":"cebpf4jnsgd1na2vs0mg"},{"bike_id":"a73d127f-5b1e-4c85-b09d-7b4a39558bb7","system_id":"levelo_inurba_marseille","lat":43.29891,"lon":5.38376,"is_reserved":false,"is_disabled":true,"rental_uris":{"android":"levelo://app?vid=a73d127f-5b1e-4c85-b09d-7b4a39558bb7","ios":"levelo://app?vid=a73d127f-5b1e-4c85-b09d-7b4a39558bb7"},"vehicle_type_id":"4","last_reported":1747390275,"current_range_meters":800,"station_id":"","pricing_plan_id":"cebpf4jnsgd1na2vs0mg"},{"bike_id":"7a13e12b-90ff-449d-a285-d6a40c132896","system_id":"levelo_inurba_marseille","lat":43.30215,"lon":5.39463,"is_reserved":false,"is_disabled":true,"rental_uris":{"android":"levelo://app?vid=7a13e12b-90ff-449d-a285-d6a40c132896","ios":"levelo://app?vid=7a13e12b-90ff-449d-a285-d6a40c132896"},"vehicle_type_id":"4","last_reported":1747390275,"current_range_meters":800,"station_id":"ce4bh0p2rcd13ifvqd70","pricing_plan_id":"cebpf4jnsgd1na2vs0mg"},{"bike_id":"f9e7d873-88bb-4f94-a0d6-3fcae7d05021","system_id":"levelo_inurba_marseille","lat":43.30811,"lon":5.36999,"is_reserved":false,"is_disabled":true,"rental_uris":{"android":"levelo://app?vid=f9e7d873-88bb-4f94-a0d6-3fcae7d05021","ios":"levelo://app?vid=f9e7d873-88bb-4f94-a0d6-3fcae7d05021"},"vehicle_type_id":"4","last_reported":1747390275,"current_range_meters":1200,"station_id":"","pricing_plan_id":"cebpf4jnsgd1na2vs0mg"},{"bike_id":"fe099644-59e4-438f-a009-e4740039a77d","system_id":"levelo_inurba_marseille","lat":43.3081,"lon":5.38162,"is_reserved":false,"is_disabled":true,"rental_uris":{"android":"levelo://app?vid=fe099644-59e4-438f-a009-e4740039a77d","ios":"levelo://app?vid=fe099644-59e4-438f-a009-e4740039a77d"},"vehicle_type_id":"4","last_reported":1747390275,"current_range_meters":1200,"station_id":"ce4bgt12rcd13ifvqce0","pricing_plan_id":"cebpf4jnsgd1na2vs0mg"},{"bike_id":"07927c1d-3927-4cb6-a434-27fbf6818363","system_id":"levelo_inurba_marseille","lat":43.28998,"lon":5.35618,"is_reserved":false,"is_disabled":true,"rental_uris":{"android":"levelo://app?vid=07927c1d-3927-4cb6-a434-27fbf6818363","ios":"levelo://app?vid=07927c1d-3927-4cb6-a434-27fbf6818363"},"vehicle_type_id":"4","last_reported":1747390275,"current_range_meters":1200,"station_id":"ce4bhb92rcd13ifvqen0","pricing_plan_id":"cebpf4jnsgd1na2vs0mg"},{"bike_id":"aa8baf82-bc49-498b-842b-69b5285a08ca","system_id":"levelo_inurba_marseille","lat":43.27081,"lon":5.42273,"is_reserved":false,"is_disabled":true,"rental_uris":{"android":"levelo://app?vid=aa8baf82-bc49-498b-842b-69b5285a08ca","ios":"levelo://app?vid=aa8baf82-bc49-498b-842b-69b5285a08ca"},"vehicle_type_id":"4","last_reported":1747390275,"current_range_meters":1200,"station_id":"ce4bhk92rcd13ifvqgb0","pricing_plan_id":"cebpf4jnsgd1na2vs0mg"},{"bike_id":"3d935568-c4c2-4f30-b225-540125acdb95","system_id":"levelo_inurba_marseille","lat":43.303052,"lon":5.368952,"is_reserved":false,"is_disabled":true,"rental_uris":{"android":"levelo://app?vid=3d935568-c4c2-4f30-b225-540125acdb95","ios":"levelo://app?vid=3d935568-c4c2-4f30-b225-540125acdb95"},"vehicle_type_id":"4","last_reported":1747390275,"current_range_meters":2000,"station_id":"ce4bgqh2rcd13ifvqc5g","pricing_plan_id":"cebpf4jnsgd1na2vs0mg"},{"bike_id":"fbdc44a2-2e29-4296-a66f-9de6e01baa78","system_id":"levelo_inurba_marseille","lat":43.32356,"lon":5.36759,"is_reserved":false,"is_disabled":true,"rental_uris":{"android":"levelo://app?vid=fbdc44a2-2e29-4296-a66f-9de6e01baa78","ios":"levelo://app?vid=fbdc44a2-2e29-4296-a66f-9de6e01baa78"},"vehicle_type_id":"4","last_reported":1747390275,"current_range_meters":2000,"station_id":"ce4bhsh2rcd13ifvqi2g","pricing_plan_id":"cebpf4jnsgd1na2vs0mg"},{"bike_id":"8f40e22d-41ee-49c8-937c-360bd59129f1","system_id":"levelo_inurba_marseille","lat":43.2997,"lon":5.38481,"is_reserved":false,"is_disabled":false,"rental_uris":{"android":"levelo://app?vid=8f40e22d-41ee-49c8-937c-360bd59129f1","ios":"levelo://app?vid=8f40e22d-41ee-49c8-937c-360bd59129f1"},"vehicle_type_id":"4","last_reported":1747390275,"current_range_meters":3200,"station_id":"ce4bgj92rcd13ifvqbd0","pricing_plan_id":"cebpf4jnsgd1na2vs0mg"},{"bike_id":"6dc7f3f1-0092-43e8-b26d-6c0dcbbf0654","system_id":"levelo_inurba_marseille","lat":43.26226,"lon":5.40449,"is_reserved":false,"is_disabled":false,"rental_uris":{"android":"levelo://app?vid=6dc7f3f1-0092-43e8-b26d-6c0dcbbf0654","ios":"levelo://app?vid=6dc7f3f1-0092-43e8-b26d-6c0dcbbf0654"},"vehicle_type_id":"4","last_reported":1747390275,"current_range_meters":3200,"station_id":"ce4bhmh2rcd13ifvqgmg","pricing_plan_id":"cebpf4jnsgd1na2vs0mg"},{"bike_id":"1969268d-e937-48e8-8955-92640b22144b","system_id":"levelo_inurba_marseille","lat":43.27312,"lon":5.39059,"is_reserved":false,"is_disabled":false,"rental_uris":{"android":"levelo://app?vid=1969268d-e937-48e8-8955-92640b22144b","ios":"levelo://app?vid=1969268d-e937-48e8-8955-92640b22144b"},"vehicle_type_id":"4","last_reported":1747390275,"current_range_meters":3600,"station_id":"ce4bhgp2rcd13ifvqfe0","pricing_plan_id":"cebpf4jnsgd1na2vs0mg"},{"bike_id":"c52484e6-1630-45aa-a1c4-77197d870f5f","system_id":"levelo_inurba_marseille","lat":43.259381,"lon":5.409039,"is_reserved":false,"is_disabled":false,"rental_uris":{"android":"levelo://app?vid=c52484e6-1630-45aa-a1c4-77197d870f5f","ios":"levelo://app?vid=c52484e6-1630-45aa-a1c4-77197d870f5f"},"vehicle_type_id":"4","last_reported":1747390275,"current_range_meters":3600,"station_id":"ce4bhm92rcd13ifvqglg","pricing_plan_id":"cebpf4jnsgd1na2vs0mg"},{"bike_id":"8f086fba-c793-4b2a-a4df-9561e2dce5ce","system_id":"levelo_inurba_marseille","lat":43.30541,"lon":5.36554,"is_reserved":false,"is_disabled":false,"rental_uris":{"android":"levelo://app?vid=8f086fba-c793-4b2a-a4df-9561e2dce5ce","ios":"levelo://app?vid=8f086fba-c793-4b2a-a4df-9561e2dce5ce"},"vehicle_type_id":"4","last_reported":1747390275,"current_range_meters":4000,"station_id":"ce4bgs12rcd13ifvqcag","pricing_plan_id":"cebpf4jnsgd1na2vs0mg"},{"bike_id":"17f55130-5ec8-4b57-971f-d6772b713efc","system_id":"levelo_inurba_marseille","lat":43.25924,"lon":5.40902,"is_reserved":false,"is_disabled":false,"rental_uris":{"android":"levelo://app?vid=17f55130-5ec8-4b57-971f-d6772b713efc","ios":"levelo://app?vid=17f55130-5ec8-4b57-971f-d6772b713efc"},"vehicle_type_id":"4","last_reported":1747390275,"current_range_meters":4000,"station_id":"ce4bhm92rcd13ifvqglg","pricing_plan_id":"cebpf4jnsgd1na2vs0mg"},{"bike_id":"18e2ab6e-8fae-4f1f-b9c7-a4adc527cf67","system_id":"levelo_inurba_marseille","lat":43.33039,"lon":5.37993,"is_reserved":false,"is_disabled":false,"rental_uris":{"android":"levelo://app?vid=18e2ab6e-8fae-4f1f-b9c7-a4adc527cf67","ios":"levelo://app?vid=18e2ab6e-8fae-4f1f-b9c7-a4adc527cf67"},"vehicle_type_id":"4","last_reported":1747390275,"current_range_meters":4400,"station_id":"","pricing_plan_id":"cebpf4jnsgd1na2vs0mg"},{"bike_id":"90ac8c73-beef-4db4-8502-efafd4c0d94e","system_id":"levelo_inurba_marseille","lat":43.30437,"lon":5.39753,"is_reserved":false,"is_disabled":false,"rental_uris":{"android":"levelo://app?vid=90ac8c73-beef-4db4-8502-efafd4c0d94e","ios":"levelo://app?vid=90ac8c73-beef-4db4-8502-efafd4c0d94e"},"vehicle_type_id":"4","last_reported":1747390275,"current_range_meters":4400,"station_id":"ce4bh092rcd13ifvqd20","pricing_plan_id":"cebpf4jnsgd1na2vs0mg"},{"bike_id":"380b2726-0301-4590-8a6b-b69b7221c0f6","system_id":"levelo_inurba_marseille","lat":43.28618,"lon":5.35108,"is_reserved":false,"is_disabled":false,"rental_uris":{"android":"levelo://app?vid=380b2726-0301-4590-8a6b-b69b7221c0f6","ios":"levelo://app?vid=380b2726-0301-4590-8a6b-b69b7221c0f6"},"vehicle_type_id":"4","last_reported":1747390275,"current_range_meters":4800,"station_id":"","pricing_plan_id":"cebpf4jnsgd1na2vs0mg"},{"bike_id":"e7c12f27-7a74-4238-92fa-cb1c1c598a23","system_id":"levelo_inurba_marseille","lat":43.29271,"lon":5.37627,"is_reserved":false,"is_disabled":false,"rental_uris":{"android":"levelo://app?vid=e7c12f27-7a74-4238-92fa-cb1c1c598a23","ios":"levelo://app?vid=e7c12f27-7a74-4238-92fa-cb1c1c598a23"},"vehicle_type_id":"4","last_reported":1747390275,"current_range_meters":4800,"station_id":"ce4bgi12rcd13ifvqb80","pricing_plan_id":"cebpf4jnsgd1na2vs0mg"},{"bike_id":"eb15e616-8264-420e-b67b-22dc4a501f6c","system_id":"levelo_inurba_marseille","lat":43.29416,"lon":5.38627,"is_reserved":false,"is_disabled":false,"rental_uris":{"android":"levelo://app?vid=eb15e616-8264-420e-b67b-22dc4a501f6c","ios":"levelo://app?vid=eb15e616-8264-420e-b67b-22dc4a501f6c"},"vehicle_type_id":"4","last_reported":1747390275,"current_range_meters":4800,"station_id":"ce4bh2h2rcd13ifvqdh0","pricing_plan_id":"cebpf4jnsgd1na2vs0mg"},{"bike_id":"58a773b6-d300-4890-a9d2-bea6a1be8ea1","system_id":"levelo_inurba_marseille","lat":43.259404,"lon":5.409038,"is_reserved":false,"is_disabled":false,"rental_uris":{"android":"levelo://app?vid=58a773b6-d300-4890-a9d2-bea6a1be8ea1","ios":"levelo://app?vid=58a773b6-d300-4890-a9d2-bea6a1be8ea1"},"vehicle_type_id":"4","last_reported":1747390275,"current_range_meters":4800,"station_id":"ce4bhm92rcd13ifvqglg","pricing_plan_id":"cebpf4jnsgd1na2vs0mg"},{"bike_id":"f752227c-3df6-44d5-abd3-4a633d5341e0","system_id":"levelo_inurba_marseille","lat":43.22928,"lon":5.35376,"is_reserved":false,"is_disabled":false,"rental_uris":{"android":"levelo://app?vid=f752227c-3df6-44d5-abd3-4a633d5341e0","ios":"levelo://app?vid=f752227c-3df6-44d5-abd3-4a633d5341e0"},"vehicle_type_id":"4","last_reported":1747390275,"current_range_meters":4800,"station_id":"cpo3532slgdg3j2ikp40","pricing_plan_id":"cebpf4jnsgd1na2vs0mg"},{"bike_id":"0ef21186-6006-47a1-bf5d-e23947054c39","system_id":"levelo_inurba_marseille","lat":43.3027,"lon":5.37698,"is_reserved":false,"is_disabled":false,"rental_uris":{"android":"levelo://app?vid=0ef21186-6006-47a1-bf5d-e23947054c39","ios":"levelo://app?vid=0ef21186-6006-47a1-bf5d-e23947054c39"},"vehicle_type_id":"4","last_reported":1747390275,"current_range_meters":5600,"station_id":"ce4bguh2rcd13ifvqcj0","pricing_plan_id":"cebpf4jnsgd1na2vs0mg"},{"bike_id":"a5f9a89b-e8a5-49df-ac96-a30dd4bb49ed","system_id":"levelo_inurba_marseille","lat":43.30886,"lon":5.37196,"is_reserved":false,"is_disabled":false,"rental_uris":{"android":"levelo://app?vid=a5f9a89b-e8a5-49df-ac96-a30dd4bb49ed","ios":"levelo://app?vid=a5f9a89b-e8a5-49df-ac96-a30dd4bb49ed"},"vehicle_type_id":"4","last_reported":1747390275,"current_range_meters":5600,"station_id":"ce4bguh2rcd13ifvqckg","pricing_plan_id":"cebpf4jnsgd1na2vs0mg"},{"bike_id":"5a436db1-513a-4a97-b0da-a15052b9f6d4","system_id":"levelo_inurba_marseille","lat":43.24806,"lon":5.37456,"is_reserved":false,"is_disabled":false,"rental_uris":{"android":"levelo://app?vid=5a436db1-513a-4a97-b0da-a15052b9f6d4","ios":"levelo://app?vid=5a436db1-513a-4a97-b0da-a15052b9f6d4"},"vehicle_type_id":"4","last_reported":1747390275,"current_range_meters":6000,"station_id":"ce4bhgh2rcd13ifvqfb0","pricing_plan_id":"cebpf4jnsgd1na2vs0mg"},{"bike_id":"4401af9f-290a-49ec-90d0-085d63d39bf6","system_id":"levelo_inurba_marseille","lat":43.292637,"lon":5.376297,"is_reserved":false,"is_disabled":false,"rental_uris":{"android":"levelo://app?vid=4401af9f-290a-49ec-90d0-085d63d39bf6","ios":"levelo://app?vid=4401af9f-290a-49ec-90d0-085d63d39bf6"},"vehicle_type_id":"4","last_reported":1747390275,"current_range_meters":6400,"station_id":"ce4bgi12rcd13ifvqb80","pricing_plan_id":"cebpf4jnsgd1na2vs0mg"},{"bike_id":"b1b27c1c-4b30-4737-9f5a-e6dbbfe47d42","system_id":"levelo_inurba_marseille","lat":43.26782,"lon":5.39413,"is_reserved":false,"is_disabled":false,"rental_uris":{"android":"levelo://app?vid=b1b27c1c-4b30-4737-9f5a-e6dbbfe47d42","ios":"levelo://app?vid=b1b27c1c-4b30-4737-9f5a-e6dbbfe47d42"},"vehicle_type_id":"4","last_reported":1747390275,"current_range_meters":6400,"station_id":"ce4bhh12rcd13ifvqfg0","pricing_plan_id":"cebpf4jnsgd1na2vs0mg"},{"bike_id":"a806a656-2426-419e-9a0e-9452a70a5a76","system_id":"levelo_inurba_marseille","lat":43.315117,"lon":5.373141,"is_reserved":false,"is_disabled":false,"rental_uris":{"android":"levelo://app?vid=a806a656-2426-419e-9a0e-9452a70a5a76","ios":"levelo://app?vid=a806a656-2426-419e-9a0e-9452a70a5a76"},"vehicle_type_id":"4","last_reported":1747390275,"current_range_meters":6800,"station_id":"ce4bgt12rcd13ifvqcd0","pricing_plan_id":"cebpf4jnsgd1na2vs0mg"},{"bike_id":"30724e78-5fa7-433d-b719-465253fc87fe","system_id":"levelo_inurba_marseille","lat":43.245443,"lon":5.395221,"is_reserved":false,"is_disabled":false,"rental_uris":{"android":"levelo://app?vid=30724e78-5fa7-433d-b719-465253fc87fe","ios":"levelo://app?vid=30724e78-5fa7-433d-b719-465253fc87fe"},"vehicle_type_id":"4","last_reported":1747390275,"current_range_meters":6800,"station_id":"ce4bhlp2rcd13ifvqgjg","pricing_plan_id":"cebpf4jnsgd1na2vs0mg"},{"bike_id":"18d39871-3431-48f2-a505-c6b5d77d9419","system_id":"levelo_inurba_marseille","lat":43.33609,"lon":5.41035,"is_reserved":false,"is_disabled":false,"rental_uris":{"android":"levelo://app?vid=18d39871-3431-48f2-a505-c6b5d77d9419","ios":"levelo://app?vid=18d39871-3431-48f2-a505-c6b5d77d9419"},"vehicle_type_id":"4","last_reported":1747390275,"current_range_meters":6800,"station_id":"ce4bhqh2rcd13ifvqhmg","pricing_plan_id":"cebpf4jnsgd1na2vs0mg"},{"bike_id":"561549a2-798d-4052-830a-279630f71645","system_id":"levelo_inurba_marseille","lat":43.28436,"lon":5.35541,"is_reserved":false,"is_disabled":false,"rental_uris":{"android":"levelo://app?vid=561549a2-798d-4052-830a-279630f71645","ios":"levelo://app?vid=561549a2-798d-4052-830a-279630f71645"},"vehicle_type_id":"4","last_reported":1747390275,"current_range_meters":7200,"station_id":"","pricing_plan_id":"cebpf4jnsgd1na2vs0mg"},{"bike_id":"353bd693-9ae6-442d-b7b0-208060e1b07d","system_id":"levelo_inurba_marseille","lat":43.29621,"lon":5.37738,"is_reserved":false,"is_disabled":false,"rental_uris":{"android":"levelo://app?vid=353bd693-9ae6-442d-b7b0-208060e1b07d","ios":"levelo://app?vid=353bd693-9ae6-442d-b7b0-208060e1b07d"},"vehicle_type_id":"4","last_reported":1747390275,"current_range_meters":7200,"station_id":"ce4bgi92rcd13ifvqb90","pricing_plan_id":"cebpf4jnsgd1na2vs0mg"},{"bike_id":"7c0575b2-6385-4d33-91c0-8cbf5ee04aac","system_id":"levelo_inurba_marseille","lat":43.29531,"lon":5.38545,"is_reserved":false,"is_disabled":false,"rental_uris":{"android":"levelo://app?vid=7c0575b2-6385-4d33-91c0-8cbf5ee04aac","ios":"levelo://app?vid=7c0575b2-6385-4d33-91c0-8cbf5ee04aac"},"vehicle_type_id":"4","last_reported":1747390275,"current_range_meters":7200,"station_id":"ce4bgih2rcd13ifvqba0","pricing_plan_id":"cebpf4jnsgd1na2vs0mg"},{"bike_id":"086497d5-b541-4f2d-a197-7bc0a9fd8183","system_id":"levelo_inurba_marseille","lat":43.30895,"lon":5.37191,"is_reserved":false,"is_disabled":false,"rental_uris":{"android":"levelo://app?vid=086497d5-b541-4f2d-a197-7bc0a9fd8183","ios":"levelo://app?vid=086497d5-b541-4f2d-a197-7bc0a9fd8183"},"vehicle_type_id":"4","last_reported":1747390275,"current_range_meters":7200,"station_id":"ce4bguh2rcd13ifvqckg","pricing_plan_id":"cebpf4jnsgd1na2vs0mg"},{"bike_id":"63277b50-f04d-4c39-885e-06a0f879bf4a","system_id":"levelo_inurba_marseille","lat":43.29267,"lon":5.38437,"is_reserved":false,"is_disabled":false,"rental_uris":{"android":"levelo://app?vid=63277b50-f04d-4c39-885e-06a0f879bf4a","ios":"levelo://app?vid=63277b50-f04d-4c39-885e-06a0f879bf4a"},"vehicle_type_id":"4","last_reported":1747390275,"current_range_meters":7200,"station_id":"ce4bh692rcd13ifvqea0","pricing_plan_id":"cebpf4jnsgd1na2vs0mg"},{"bike_id":"1e68c884-7599-4b1d-9ee3-43521a53a137","system_id":"levelo_inurba_marseille","lat":43.27505,"lon":5.42462,"is_reserved":false,"is_disabled":false,"rental_uris":{"android":"levelo://app?vid=1e68c884-7599-4b1d-9ee3-43521a53a137","ios":"levelo://app?vid=1e68c884-7599-4b1d-9ee3-43521a53a137"},"vehicle_type_id":"4","last_reported":1747390275,"current_range_meters":7200,"station_id":"ce4bhn92rcd13ifvqgrg","pricing_plan_id":"cebpf4jnsgd1na2vs0mg"},{"bike_id":"614a6166-1760-4980-853c-86035facd777","system_id":"levelo_inurba_marseille","lat":43.33209,"lon":5.3793,"is_reserved":false,"is_disabled":false,"rental_uris":{"android":"levelo://app?vid=614a6166-1760-4980-853c-86035facd777","ios":"levelo://app?vid=614a6166-1760-4980-853c-86035facd777"},"vehicle_type_id":"4","last_reported":1747390275,"current_range_meters":8000,"station_id":"","pricing_plan_id":"cebpf4jnsgd1na2vs0mg"},{"bike_id":"4e716133-12bd-48ef-8462-cdade112f10c","system_id":"levelo_inurba_marseille","lat":43.27118,"lon":5.40012,"is_reserved":false,"is_disabled":false,"rental_uris":{"android":"levelo://app?vid=4e716133-12bd-48ef-8462-cdade112f10c","ios":"levelo://app?vid=4e716133-12bd-48ef-8462-cdade112f10c"},"vehicle_type_id":"4","last_reported":1747390275,"current_range_meters":8000,"station_id":"","pricing_plan_id":"cebpf4jnsgd1na2vs0mg"},{"bike_id":"1b7221c0-8ac2-4a43-8cec-a3d475250f85","system_id":"levelo_inurba_marseille","lat":43.2992,"lon":5.3749,"is_reserved":false,"is_disabled":false,"rental_uris":{"android":"levelo://app?vid=1b7221c0-8ac2-4a43-8cec-a3d475250f85","ios":"levelo://app?vid=1b7221c0-8ac2-4a43-8cec-a3d475250f85"},"vehicle_type_id":"4","last_reported":1747390275,"current_range_meters":8000,"station_id":"ce4bgjh2rcd13ifvqbg0","pricing_plan_id":"cebpf4jnsgd1na2vs0mg"},{"bike_id":"0077f398-56b6-43bb-8eeb-9798d08de05c","system_id":"levelo_inurba_marseille","lat":43.30956,"lon":5.37269,"is_reserved":false,"is_disabled":false,"rental_uris":{"android":"levelo://app?vid=0077f398-56b6-43bb-8eeb-9798d08de05c","ios":"levelo://app?vid=0077f398-56b6-43bb-8eeb-9798d08de05c"},"vehicle_type_id":"4","last_reported":1747390275,"current_range_meters":8400,"station_id":"","pricing_plan_id":"cebpf4jnsgd1na2vs0mg"},{"bike_id":"66f7c9e7-57f3-4b5a-934e-baf9a34e5e1f","system_id":"levelo_inurba_marseille","lat":43.298451,"lon":5.362672,"is_reserved":false,"is_disabled":false,"rental_uris":{"android":"levelo://app?vid=66f7c9e7-57f3-4b5a-934e-baf9a34e5e1f","ios":"levelo://app?vid=66f7c9e7-57f3-4b5a-934e-baf9a34e5e1f"},"vehicle_type_id":"4","last_reported":1747390275,"current_range_meters":8400,"station_id":"ce4bgpp2rcd13ifvqc3g","pricing_plan_id":"cebpf4jnsgd1na2vs0mg"},{"bike_id":"11a9676f-af5a-491d-9e5b-9f7ae52235e2","system_id":"levelo_inurba_marseille","lat":43.306,"lon":5.37228,"is_reserved":false,"is_disabled":false,"rental_uris":{"android":"levelo://app?vid=11a9676f-af5a-491d-9e5b-9f7ae52235e2","ios":"levelo://app?vid=11a9676f-af5a-491d-9e5b-9f7ae52235e2"},"vehicle_type_id":"4","last_reported":1747390275,"current_range_meters":8400,"station_id":"ce4bgqh2rcd13ifvqc4g","pricing_plan_id":"cebpf4jnsgd1na2vs0mg"},{"bike_id":"430d6f1f-4c5b-4d14-8ccb-e5d0fd165eae","system_id":"levelo_inurba_marseille","lat":43.28478,"lon":5.38398,"is_reserved":false,"is_disabled":false,"rental_uris":{"android":"levelo://app?vid=430d6f1f-4c5b-4d14-8ccb-e5d0fd165eae","ios":"levelo://app?vid=430d6f1f-4c5b-4d14-8ccb-e5d0fd165eae"},"vehicle_type_id":"4","last_reported":1747390275,"current_range_meters":8400,"station_id":"ce4bh512rcd13ifvqe3g","pricing_plan_id":"cebpf4jnsgd1na2vs0mg"},{"bike_id":"57e994b2-8252-4cc6-a548-eba1f5a30d7c","system_id":"levelo_inurba_marseille","lat":43.25928,"lon":5.4091,"is_reserved":false,"is_disabled":false,"rental_uris":{"android":"levelo://app?vid=57e994b2-8252-4cc6-a548-eba1f5a30d7c","ios":"levelo://app?vid=57e994b2-8252-4cc6-a548-eba1f5a30d7c"},"vehicle_type_id":"4","last_reported":1747390275,"current_range_meters":8400,"station_id":"ce4bhm92rcd13ifvqglg","pricing_plan_id":"cebpf4jnsgd1na2vs0mg"},{"bike_id":"f768f02c-a770-46ed-b9fb-ed1e435a3c0f","system_id":"levelo_inurba_marseille","lat":43.32943,"lon":5.38993,"is_reserved":false,"is_disabled":false,"rental_uris":{"android":"levelo://app?vid=f768f02c-a770-46ed-b9fb-ed1e435a3c0f","ios":"levelo://app?vid=f768f02c-a770-46ed-b9fb-ed1e435a3c0f"},"vehicle_type_id":"4","last_reported":1747390275,"current_range_meters":8800,"station_id":"","pricing_plan_id":"cebpf4jnsgd1na2vs0mg"},{"bike_id":"d285a076-3b89-4ab3-9fac-ecd2171e4c2b","system_id":"levelo_inurba_marseille","lat":43.24388,"lon":5.37056,"is_reserved":false,"is_disabled":false,"rental_uris":{"android":"levelo://app?vid=d285a076-3b89-4ab3-9fac-ecd2171e4c2b","ios":"levelo://app?vid=d285a076-3b89-4ab3-9fac-ecd2171e4c2b"},"vehicle_type_id":"4","last_reported":1747390275,"current_range_meters":8800,"station_id":"ce4bhhh2rcd13ifvqfk0","pricing_plan_id":"cebpf4jnsgd1na2vs0mg"},{"bike_id":"632ffc35-3a5e-4dda-861e-517e896a461f","system_id":"levelo_inurba_marseille","lat":43.23964,"lon":5.36637,"is_reserved":false,"is_disabled":false,"rental_uris":{"android":"levelo://app?vid=632ffc35-3a5e-4dda-861e-517e896a461f","ios":"levelo://app?vid=632ffc35-3a5e-4dda-861e-517e896a461f"},"vehicle_type_id":"4","last_reported":1747390275,"current_range_meters":8800,"station_id":"ce4bhi12rcd13ifvqfp0","pricing_plan_id":"cebpf4jnsgd1na2vs0mg"},{"bike_id":"31bedb95-5fc4-4b24-91b1-10c9cd7506c0","system_id":"levelo_inurba_marseille","lat":43.2583,"lon":5.39436,"is_reserved":false,"is_disabled":false,"rental_uris":{"android":"levelo://app?vid=31bedb95-5fc4-4b24-91b1-10c9cd7506c0","ios":"levelo://app?vid=31bedb95-5fc4-4b24-91b1-10c9cd7506c0"},"vehicle_type_id":"4","last_reported":1747390275,"current_range_meters":8800,"station_id":"ce4bhip2rcd13ifvqft0","pricing_plan_id":"cebpf4jnsgd1na2vs0mg"},{"bike_id":"4df021ed-f1f8-475b-8edf-dd2aeb71309d","system_id":"levelo_inurba_marseille","lat":43.27815,"lon":5.40712,"is_reserved":false,"is_disabled":false,"rental_uris":{"android":"levelo://app?vid=4df021ed-f1f8-475b-8edf-dd2aeb71309d","ios":"levelo://app?vid=4df021ed-f1f8-475b-8edf-dd2aeb71309d"},"vehicle_type_id":"4","last_reported":1747390275,"current_range_meters":8800,"station_id":"ce4bhnh2rcd13ifvqgtg","pricing_plan_id":"cebpf4jnsgd1na2vs0mg"},{"bike_id":"01638126-3c79-4aa8-b344-42085231ebd4","system_id":"levelo_inurba_marseille","lat":43.34156,"lon":5.40912,"is_reserved":false,"is_disabled":false,"rental_uris":{"android":"levelo://app?vid=01638126-3c79-4aa8-b344-42085231ebd4","ios":"levelo://app?vid=01638126-3c79-4aa8-b344-42085231ebd4"},"vehicle_type_id":"4","last_reported":1747390275,"current_range_meters":8800,"station_id":"ce4bhqh2rcd13ifvqhlg","pricing_plan_id":"cebpf4jnsgd1na2vs0mg"},{"bike_id":"eeb0e6bc-1be6-4966-aae4-7f8c21bc3d5f","system_id":"levelo_inurba_marseille","lat":43.33615,"lon":5.41024,"is_reserved":false,"is_disabled":false,"rental_uris":{"android":"levelo://app?vid=eeb0e6bc-1be6-4966-aae4-7f8c21bc3d5f","ios":"levelo://app?vid=eeb0e6bc-1be6-4966-aae4-7f8c21bc3d5f"},"vehicle_type_id":"4","last_reported":1747390275,"current_range_meters":8800,"station_id":"ce4bhqh2rcd13ifvqhmg","pricing_plan_id":"cebpf4jnsgd1na2vs0mg"},{"bike_id":"f8708533-c882-424d-919c-8da02599e742","system_id":"levelo_inurba_marseille","lat":43.32313,"lon":5.3901,"is_reserved":false,"is_disabled":false,"rental_uris":{"android":"levelo://app?vid=f8708533-c882-424d-919c-8da02599e742","ios":"levelo://app?vid=f8708533-c882-424d-919c-8da02599e742"},"vehicle_type_id":"4","last_reported":1747390275,"current_range_meters":8800,"station_id":"ce4bhqp2rcd13ifvqhog","pricing_plan_id":"cebpf4jnsgd1na2vs0mg"},{"bike_id":"fbff2a26-d251-4c9a-a323-83cc2cdd8572","system_id":"levelo_inurba_marseille","lat":43.30207,"lon":5.39475,"is_reserved":false,"is_disabled":false,"rental_uris":{"android":"levelo://app?vid=fbff2a26-d251-4c9a-a323-83cc2cdd8572","ios":"levelo://app?vid=fbff2a26-d251-4c9a-a323-83cc2cdd8572"},"vehicle_type_id":"4","last_reported":1747390275,"current_range_meters":9200,"station_id":"ce4bh0p2rcd13ifvqd70","pricing_plan_id":"cebpf4jnsgd1na2vs0mg"},{"bike_id":"253ad97e-efa9-4530-b082-6a7bf31d9808","system_id":"levelo_inurba_marseille","lat":43.27489,"lon":5.42464,"is_reserved":false,"is_disabled":false,"rental_uris":{"android":"levelo://app?vid=253ad97e-efa9-4530-b082-6a7bf31d9808","ios":"levelo://app?vid=253ad97e-efa9-4530-b082-6a7bf31d9808"},"vehicle_type_id":"4","last_reported":1747390275,"current_range_meters":9200,"station_id":"ce4bhn92rcd13ifvqgrg","pricing_plan_id":"cebpf4jnsgd1na2vs0mg"},{"bike_id":"5bb37305-51a1-4fc1-b086-0a7961313d91","system_id":"levelo_inurba_marseille","lat":43.27937,"lon":5.41052,"is_reserved":false,"is_disabled":false,"rental_uris":{"android":"levelo://app?vid=5bb37305-51a1-4fc1-b086-0a7961313d91","ios":"levelo://app?vid=5bb37305-51a1-4fc1-b086-0a7961313d91"},"vehicle_type_id":"4","last_reported":1747390275,"current_range_meters":9200,"station_id":"ce4bhnp2rcd13ifvqh0g","pricing_plan_id":"cebpf4jnsgd1na2vs0mg"},{"bike_id":"e64e4484-2db6-41f4-beb8-e0c0ae1263cd","system_id":"levelo_inurba_marseille","lat":43.285181,"lon":5.430343,"is_reserved":false,"is_disabled":false,"rental_uris":{"android":"levelo://app?vid=e64e4484-2db6-41f4-beb8-e0c0ae1263cd","ios":"levelo://app?vid=e64e4484-2db6-41f4-beb8-e0c0ae1263cd"},"vehicle_type_id":"4","last_reported":1747390275,"current_range_meters":9600,"station_id":"","pricing_plan_id":"cebpf4jnsgd1na2vs0mg"},{"bike_id":"f8e4732a-2ecf-431c-8f66-abc7aabb8aa1","system_id":"levelo_inurba_marseille","lat":43.3296,"lon":5.39008,"is_reserved":false,"is_disabled":false,"rental_uris":{"android":"levelo://app?vid=f8e4732a-2ecf-431c-8f66-abc7aabb8aa1","ios":"levelo://app?vid=f8e4732a-2ecf-431c-8f66-abc7aabb8aa1"},"vehicle_type_id":"4","last_reported":1747390275,"current_range_meters":9600,"station_id":"","pricing_plan_id":"cebpf4jnsgd1na2vs0mg"},{"bike_id":"8f694187-4696-4c76-887a-2da1fe782255","system_id":"levelo_inurba_marseille","lat":43.29792,"lon":5.38098,"is_reserved":false,"is_disabled":false,"rental_uris":{"android":"levelo://app?vid=8f694187-4696-4c76-887a-2da1fe782255","ios":"levelo://app?vid=8f694187-4696-4c76-887a-2da1fe782255"},"vehicle_type_id":"4","last_reported":1747390275,"current_range_meters":9600,"station_id":"ce4bgip2rcd13ifvqbb0","pricing_plan_id":"cebpf4jnsgd1na2vs0mg"},{"bike_id":"ff0ddda7-012b-48a4-8337-8eced7869973","system_id":"levelo_inurba_marseille","lat":43.28467,"lon":5.38563,"is_reserved":false,"is_disabled":false,"rental_uris":{"android":"levelo://app?vid=ff0ddda7-012b-48a4-8337-8eced7869973","ios":"levelo://app?vid=ff0ddda7-012b-48a4-8337-8eced7869973"},"vehicle_type_id":"4","last_reported":1747390275,"current_range_meters":9600,"station_id":"ce4bh8p2rcd13ifvqeb0","pricing_plan_id":"cebpf4jnsgd1na2vs0mg"},{"bike_id":"6d9e8b8f-5676-478a-87a2-87c82b3b5a6a","system_id":"levelo_inurba_marseille","lat":43.29974,"lon":5.38498,"is_reserved":false,"is_disabled":false,"rental_uris":{"android":"levelo://app?vid=6d9e8b8f-5676-478a-87a2-87c82b3b5a6a","ios":"levelo://app?vid=6d9e8b8f-5676-478a-87a2-87c82b3b5a6a"},"vehicle_type_id":"4","last_reported":1747390275,"current_range_meters":10000,"station_id":"ce4bgj92rcd13ifvqbd0","pricing_plan_id":"cebpf4jnsgd1na2vs0mg"},{"bike_id":"6f08251b-0b38-461f-b469-2bcbcf5fd96e","system_id":"levelo_inurba_marseille","lat":43.29919,"lon":5.36522,"is_reserved":false,"is_disabled":false,"rental_uris":{"android":"levelo://app?vid=6f08251b-0b38-461f-b469-2bcbcf5fd96e","ios":"levelo://app?vid=6f08251b-0b38-461f-b469-2bcbcf5fd96e"},"vehicle_type_id":"4","last_reported":1747390275,"current_range_meters":10000,"station_id":"ce4bgm92rcd13ifvqbr0","pricing_plan_id":"cebpf4jnsgd1na2vs0mg"},{"bike_id":"7ffdce2c-ca16-4450-83a4-b24987ae253a","system_id":"levelo_inurba_marseille","lat":43.29783,"lon":5.37104,"is_reserved":false,"is_disabled":false,"rental_uris":{"android":"levelo://app?vid=7ffdce2c-ca16-4450-83a4-b24987ae253a","ios":"levelo://app?vid=7ffdce2c-ca16-4450-83a4-b24987ae253a"},"vehicle_type_id":"4","last_reported":1747390275,"current_range_meters":10000,"station_id":"ce4bgop2rcd13ifvqc1g","pricing_plan_id":"cebpf4jnsgd1na2vs0mg"},{"bike_id":"f61bd56c-7ebc-4c8b-98f1-3e21ec8b29d4","system_id":"levelo_inurba_marseille","lat":43.307903,"lon":5.376477,"is_reserved":false,"is_disabled":false,"rental_uris":{"android":"levelo://app?vid=f61bd56c-7ebc-4c8b-98f1-3e21ec8b29d4","ios":"levelo://app?vid=f61bd56c-7ebc-4c8b-98f1-3e21ec8b29d4"},"vehicle_type_id":"4","last_reported":1747390275,"current_range_meters":10000,"station_id":"ce4bgv92rcd13ifvqcq0","pricing_plan_id":"cebpf4jnsgd1na2vs0mg"},{"bike_id":"c5c7121d-5235-491b-9b0c-da396259e3c0","system_id":"levelo_inurba_marseille","lat":43.29268,"lon":5.3843,"is_reserved":false,"is_disabled":false,"rental_uris":{"android":"levelo://app?vid=c5c7121d-5235-491b-9b0c-da396259e3c0","ios":"levelo://app?vid=c5c7121d-5235-491b-9b0c-da396259e3c0"},"vehicle_type_id":"4","last_reported":1747390275,"current_range_meters":10000,"station_id":"ce4bh692rcd13ifvqea0","pricing_plan_id":"cebpf4jnsgd1na2vs0mg"},{"bike_id":"8290c70d-48ac-4201-91d8-33c285076544","system_id":"levelo_inurba_marseille","lat":43.2721,"lon":5.39189,"is_reserved":false,"is_disabled":false,"rental_uris":{"android":"levelo://app?vid=8290c70d-48ac-4201-91d8-33c285076544","ios":"levelo://app?vid=8290c70d-48ac-4201-91d8-33c285076544"},"vehicle_type_id":"4","last_reported":1747390275,"current_range_meters":10000,"station_id":"ce4bhhp2rcd13ifvqfm0","pricing_plan_id":"cebpf4jnsgd1na2vs0mg"},{"bike_id":"2afe07c9-417f-4b2a-b4cf-115a063ee7e8","system_id":"levelo_inurba_marseille","lat":43.25942,"lon":5.40888,"is_reserved":false,"is_disabled":false,"rental_uris":{"android":"levelo://app?vid=2afe07c9-417f-4b2a-b4cf-115a063ee7e8","ios":"levelo://app?vid=2afe07c9-417f-4b2a-b4cf-115a063ee7e8"},"vehicle_type_id":"4","last_reported":1747390275,"current_range_meters":10000,"station_id":"ce4bhm92rcd13ifvqglg","pricing_plan_id":"cebpf4jnsgd1na2vs0mg"},{"bike_id":"1c401a2a-0a48-4469-bc75-119f07cba5a8","system_id":"levelo_inurba_marseille","lat":43.30157,"lon":5.38107,"is_reserved":false,"is_disabled":false,"rental_uris":{"android":"levelo://app?vid=1c401a2a-0a48-4469-bc75-119f07cba5a8","ios":"levelo://app?vid=1c401a2a-0a48-4469-bc75-119f07cba5a8"},"vehicle_type_id":"4","last_reported":1747390275,"current_range_meters":10800,"station_id":"ce4bgjp2rcd13ifvqbh0","pricing_plan_id":"cebpf4jnsgd1na2vs0mg"},{"bike_id":"62b982c7-0779-4d9d-b25e-70b6ecdaf1bc","system_id":"levelo_inurba_marseille","lat":43.24999,"lon":5.38947,"is_reserved":false,"is_disabled":false,"rental_uris":{"android":"levelo://app?vid=62b982c7-0779-4d9d-b25e-70b6ecdaf1bc","ios":"levelo://app?vid=62b982c7-0779-4d9d-b25e-70b6ecdaf1bc"},"vehicle_type_id":"4","last_reported":1747390275,"current_range_meters":10800,"station_id":"ce4bhgp2rcd13ifvqfd0","pricing_plan_id":"cebpf4jnsgd1na2vs0mg"},{"bike_id":"2c6ec7e7-ded9-4916-9df6-3deb51ccaee8","system_id":"levelo_inurba_marseille","lat":43.23965,"lon":5.36648,"is_reserved":false,"is_disabled":false,"rental_uris":{"android":"levelo://app?vid=2c6ec7e7-ded9-4916-9df6-3deb51ccaee8","ios":"levelo://app?vid=2c6ec7e7-ded9-4916-9df6-3deb51ccaee8"},"vehicle_type_id":"4","last_reported":1747390275,"current_range_meters":10800,"station_id":"ce4bhi12rcd13ifvqfp0","pricing_plan_id":"cebpf4jnsgd1na2vs0mg"},{"bike_id":"244cd4a3-95cd-423b-860b-4114d14c66d7","system_id":"levelo_inurba_marseille","lat":43.29962,"lon":5.41318,"is_reserved":false,"is_disabled":false,"rental_uris":{"android":"levelo://app?vid=244cd4a3-95cd-423b-860b-4114d14c66d7","ios":"levelo://app?vid=244cd4a3-95cd-423b-860b-4114d14c66d7"},"vehicle_type_id":"4","last_reported":1747390275,"current_range_meters":10800,"station_id":"ce4bhp12rcd13ifvqh9g","pricing_plan_id":"cebpf4jnsgd1na2vs0mg"},{"bike_id":"5879f203-1394-47e0-9f75-7c405ac331f5","system_id":"levelo_inurba_marseille","lat":43.32365,"lon":5.388863,"is_reserved":false,"is_disabled":false,"rental_uris":{"android":"levelo://app?vid=5879f203-1394-47e0-9f75-7c405ac331f5","ios":"levelo://app?vid=5879f203-1394-47e0-9f75-7c405ac331f5"},"vehicle_type_id":"4","last_reported":1747390275,"current_range_meters":10800,"station_id":"ce4bhqp2rcd13ifvqhog","pricing_plan_id":"cebpf4jnsgd1na2vs0mg"},{"bike_id":"39c7c348-baf3-417a-8df3-30f456f5c866","system_id":"levelo_inurba_marseille","lat":43.32113,"lon":5.36784,"is_reserved":false,"is_disabled":false,"rental_uris":{"android":"levelo://app?vid=39c7c348-baf3-417a-8df3-30f456f5c866","ios":"levelo://app?vid=39c7c348-baf3-417a-8df3-30f456f5c866"},"vehicle_type_id":"4","last_reported":1747390275,"current_range_meters":11200,"station_id":"ce4bhrh2rcd13ifvqhug","pricing_plan_id":"cebpf4jnsgd1na2vs0mg"},{"bike_id":"a488853e-8708-42f9-a9f1-40f4dc62e03d","system_id":"levelo_inurba_marseille","lat":43.305517,"lon":5.37283,"is_reserved":false,"is_disabled":false,"rental_uris":{"android":"levelo://app?vid=a488853e-8708-42f9-a9f1-40f4dc62e03d","ios":"levelo://app?vid=a488853e-8708-42f9-a9f1-40f4dc62e03d"},"vehicle_type_id":"4","last_reported":1747390275,"current_range_meters":11600,"station_id":"","pricing_plan_id":"cebpf4jnsgd1na2vs0mg"},{"bike_id":"bf977439-55e9-4e5d-86c5-2e0e8c9d549f","system_id":"levelo_inurba_marseille","lat":43.30214,"lon":5.3948,"is_reserved":false,"is_disabled":false,"rental_uris":{"android":"levelo://app?vid=bf977439-55e9-4e5d-86c5-2e0e8c9d549f","ios":"levelo://app?vid=bf977439-55e9-4e5d-86c5-2e0e8c9d549f"},"vehicle_type_id":"4","last_reported":1747390275,"current_range_meters":11600,"station_id":"ce4bh0p2rcd13ifvqd70","pricing_plan_id":"cebpf4jnsgd1na2vs0mg"},{"bike_id":"30b57fea-4fef-4847-a894-b33985757bf7","system_id":"levelo_inurba_marseille","lat":43.30126,"lon":5.3986,"is_reserved":false,"is_disabled":false,"rental_uris":{"android":"levelo://app?vid=30b57fea-4fef-4847-a894-b33985757bf7","ios":"levelo://app?vid=30b57fea-4fef-4847-a894-b33985757bf7"},"vehicle_type_id":"4","last_reported":1747390275,"current_range_meters":12000,"station_id":"ce4bh0h2rcd13ifvqd40","pricing_plan_id":"cebpf4jnsgd1na2vs0mg"},{"bike_id":"7f4fc273-1360-4a47-aa6f-29da663bd116","system_id":"levelo_inurba_marseille","lat":43.23195,"lon":5.39985,"is_reserved":false,"is_disabled":false,"rental_uris":{"android":"levelo://app?vid=7f4fc273-1360-4a47-aa6f-29da663bd116","ios":"levelo://app?vid=7f4fc273-1360-4a47-aa6f-29da663bd116"},"vehicle_type_id":"4","last_reported":1747390275,"current_range_meters":12000,"station_id":"ce4bhn12rcd13ifvqgqg","pricing_plan_id":"cebpf4jnsgd1na2vs0mg"},{"bike_id":"2c7220b8-513f-48bc-aa19-953395bc3b89","system_id":"levelo_inurba_marseille","lat":43.28071,"lon":5.39657,"is_reserved":false,"is_disabled":false,"rental_uris":{"android":"levelo://app?vid=2c7220b8-513f-48bc-aa19-953395bc3b89","ios":"levelo://app?vid=2c7220b8-513f-48bc-aa19-953395bc3b89"},"vehicle_type_id":"4","last_reported":1747390275,"current_range_meters":12000,"station_id":"ce4bho12rcd13ifvqh2g","pricing_plan_id":"cebpf4jnsgd1na2vs0mg"},{"bike_id":"6d886103-344e-431a-ac80-7f62879d2f7c","system_id":"levelo_inurba_marseille","lat":43.22937,"lon":5.35352,"is_reserved":false,"is_disabled":false,"rental_uris":{"android":"levelo://app?vid=6d886103-344e-431a-ac80-7f62879d2f7c","ios":"levelo://app?vid=6d886103-344e-431a-ac80-7f62879d2f7c"},"vehicle_type_id":"4","last_reported":1747390275,"current_range_meters":12000,"station_id":"cpo3532slgdg3j2ikp40","pricing_plan_id":"cebpf4jnsgd1na2vs0mg"},{"bike_id":"6ba72a80-bf5b-419d-941d-6bba42564cc2","system_id":"levelo_inurba_marseille","lat":43.29724,"lon":5.36624,"is_reserved":false,"is_disabled":false,"rental_uris":{"android":"levelo://app?vid=6ba72a80-bf5b-419d-941d-6bba42564cc2","ios":"levelo://app?vid=6ba72a80-bf5b-419d-941d-6bba42564cc2"},"vehicle_type_id":"4","last_reported":1747390275,"current_range_meters":12400,"station_id":"ce4bgn12rcd13ifvqbt0","pricing_plan_id":"cebpf4jnsgd1na2vs0mg"},{"bike_id":"47a47b3a-c95c-4f60-a6ee-e0271829d5f4","system_id":"levelo_inurba_marseille","lat":43.29522,"lon":5.39034,"is_reserved":false,"is_disabled":false,"rental_uris":{"android":"levelo://app?vid=47a47b3a-c95c-4f60-a6ee-e0271829d5f4","ios":"levelo://app?vid=47a47b3a-c95c-4f60-a6ee-e0271829d5f4"},"vehicle_type_id":"4","last_reported":1747390275,"current_range_meters":12400,"station_id":"ce4bh3p2rcd13ifvqdp0","pricing_plan_id":"cebpf4jnsgd1na2vs0mg"},{"bike_id":"765e0cfb-c888-4327-a53d-5a7e4b9b7d45","system_id":"levelo_inurba_marseille","lat":43.31351,"lon":5.36703,"is_reserved":false,"is_disabled":false,"rental_uris":{"android":"levelo://app?vid=765e0cfb-c888-4327-a53d-5a7e4b9b7d45","ios":"levelo://app?vid=765e0cfb-c888-4327-a53d-5a7e4b9b7d45"},"vehicle_type_id":"4","last_reported":1747390275,"current_range_meters":12800,"station_id":"ce4bgr92rcd13ifvqc6g","pricing_plan_id":"cebpf4jnsgd1na2vs0mg"},{"bike_id":"1be26261-33de-4b75-9ac5-674be4da47dc","system_id":"levelo_inurba_marseille","lat":43.308867,"lon":5.37187,"is_reserved":false,"is_disabled":false,"rental_uris":{"android":"levelo://app?vid=1be26261-33de-4b75-9ac5-674be4da47dc","ios":"levelo://app?vid=1be26261-33de-4b75-9ac5-674be4da47dc"},"vehicle_type_id":"4","last_reported":1747390275,"current_range_meters":12800,"station_id":"ce4bguh2rcd13ifvqckg","pricing_plan_id":"cebpf4jnsgd1na2vs0mg"},{"bike_id":"6ad1b360-bbb5-4b05-ac08-a97d0dc2a993","system_id":"levelo_inurba_marseille","lat":43.31487,"lon":5.37312,"is_reserved":false,"is_disabled":false,"rental_uris":{"android":"levelo://app?vid=6ad1b360-bbb5-4b05-ac08-a97d0dc2a993","ios":"levelo://app?vid=6ad1b360-bbb5-4b05-ac08-a97d0dc2a993"},"vehicle_type_id":"4","last_reported":1747390275,"current_range_meters":13600,"station_id":"ce4bgt12rcd13ifvqcd0","pricing_plan_id":"cebpf4jnsgd1na2vs0mg"},{"bike_id":"0c24d09f-ee1b-4d83-af33-562b6b2ca194","system_id":"levelo_inurba_marseille","lat":43.32365,"lon":5.38925,"is_reserved":false,"is_disabled":false,"rental_uris":{"android":"levelo://app?vid=0c24d09f-ee1b-4d83-af33-562b6b2ca194","ios":"levelo://app?vid=0c24d09f-ee1b-4d83-af33-562b6b2ca194"},"vehicle_type_id":"4","last_reported":1747390275,"current_range_meters":13600,"station_id":"ce4bhqp2rcd13ifvqhog","pricing_plan_id":"cebpf4jnsgd1na2vs0mg"},{"bike_id":"fe6e0595-445e-4841-ba05-d6e9bc0748b1","system_id":"levelo_inurba_marseille","lat":43.2953,"lon":5.38537,"is_reserved":false,"is_disabled":false,"rental_uris":{"android":"levelo://app?vid=fe6e0595-445e-4841-ba05-d6e9bc0748b1","ios":"levelo://app?vid=fe6e0595-445e-4841-ba05-d6e9bc0748b1"},"vehicle_type_id":"4","last_reported":1747390275,"current_range_meters":14000,"station_id":"ce4bgih2rcd13ifvqba0","pricing_plan_id":"cebpf4jnsgd1na2vs0mg"},{"bike_id":"7d644e8a-3214-4204-973d-0890777dd25b","system_id":"levelo_inurba_marseille","lat":43.25925,"lon":5.40896,"is_reserved":false,"is_disabled":false,"rental_uris":{"android":"levelo://app?vid=7d644e8a-3214-4204-973d-0890777dd25b","ios":"levelo://app?vid=7d644e8a-3214-4204-973d-0890777dd25b"},"vehicle_type_id":"4","last_reported":1747390275,"current_range_meters":14000,"station_id":"ce4bhm92rcd13ifvqglg","pricing_plan_id":"cebpf4jnsgd1na2vs0mg"},{"bike_id":"17e09c45-e010-421e-b6a6-600c87c5098c","system_id":"levelo_inurba_marseille","lat":43.27938,"lon":5.41055,"is_reserved":false,"is_disabled":false,"rental_uris":{"android":"levelo://app?vid=17e09c45-e010-421e-b6a6-600c87c5098c","ios":"levelo://app?vid=17e09c45-e010-421e-b6a6-600c87c5098c"},"vehicle_type_id":"4","last_reported":1747390275,"current_range_meters":14000,"station_id":"ce4bhnp2rcd13ifvqh0g","pricing_plan_id":"cebpf4jnsgd1na2vs0mg"},{"bike_id":"89bb8e35-fa47-49cd-9994-9caec791db72","system_id":"levelo_inurba_marseille","lat":43.31073,"lon":5.38352,"is_reserved":false,"is_disabled":false,"rental_uris":{"android":"levelo://app?vid=89bb8e35-fa47-49cd-9994-9caec791db72","ios":"levelo://app?vid=89bb8e35-fa47-49cd-9994-9caec791db72"},"vehicle_type_id":"4","last_reported":1747390275,"current_range_meters":14400,"station_id":"ce4bgv92rcd13ifvqcr0","pricing_plan_id":"cebpf4jnsgd1na2vs0mg"},{"bike_id":"d74e4218-5555-47fa-8093-783126a393b5","system_id":"levelo_inurba_marseille","lat":43.29003,"lon":5.35615,"is_reserved":false,"is_disabled":false,"rental_uris":{"android":"levelo://app?vid=d74e4218-5555-47fa-8093-783126a393b5","ios":"levelo://app?vid=d74e4218-5555-47fa-8093-783126a393b5"},"vehicle_type_id":"4","last_reported":1747390275,"current_range_meters":14400,"station_id":"ce4bhb92rcd13ifvqen0","pricing_plan_id":"cebpf4jnsgd1na2vs0mg"},{"bike_id":"88378c0e-4dd9-4f14-b2c9-5746129a3668","system_id":"levelo_inurba_marseille","lat":43.32476,"lon":5.36586,"is_reserved":false,"is_disabled":false,"rental_uris":{"android":"levelo://app?vid=88378c0e-4dd9-4f14-b2c9-5746129a3668","ios":"levelo://app?vid=88378c0e-4dd9-4f14-b2c9-5746129a3668"},"vehicle_type_id":"4","last_reported":1747390275,"current_range_meters":14400,"station_id":"ce4bhs12rcd13ifvqhvg","pricing_plan_id":"cebpf4jnsgd1na2vs0mg"},{"bike_id":"225d88a7-bbb1-45c7-845f-1fd1816815a2","system_id":"levelo_inurba_marseille","lat":43.346942,"lon":5.345241,"is_reserved":false,"is_disabled":false,"rental_uris":{"android":"levelo://app?vid=225d88a7-bbb1-45c7-845f-1fd1816815a2","ios":"levelo://app?vid=225d88a7-bbb1-45c7-845f-1fd1816815a2"},"vehicle_type_id":"4","last_reported":1747390275,"current_range_meters":14800,"station_id":"","pricing_plan_id":"cebpf4jnsgd1na2vs0mg"},{"bike_id":"29542e64-d92f-4831-8961-ae7f1c7739a9","system_id":"levelo_inurba_marseille","lat":43.27064,"lon":5.40263,"is_reserved":false,"is_disabled":false,"rental_uris":{"android":"levelo://app?vid=29542e64-d92f-4831-8961-ae7f1c7739a9","ios":"levelo://app?vid=29542e64-d92f-4831-8961-ae7f1c7739a9"},"vehicle_type_id":"4","last_reported":1747390275,"current_range_meters":14800,"station_id":"ce4bhk92rcd13ifvqgc0","pricing_plan_id":"cebpf4jnsgd1na2vs0mg"},{"bike_id":"3873b14f-cf85-40c2-a5ee-b159102313b1","system_id":"levelo_inurba_marseille","lat":43.27492,"lon":5.4247,"is_reserved":false,"is_disabled":false,"rental_uris":{"android":"levelo://app?vid=3873b14f-cf85-40c2-a5ee-b159102313b1","ios":"levelo://app?vid=3873b14f-cf85-40c2-a5ee-b159102313b1"},"vehicle_type_id":"4","last_reported":1747390275,"current_range_meters":14800,"station_id":"ce4bhn92rcd13ifvqgrg","pricing_plan_id":"cebpf4jnsgd1na2vs0mg"},{"bike_id":"bcacd73e-31e9-4e0f-a9d1-894ebb30dfb1","system_id":"levelo_inurba_marseille","lat":43.33609,"lon":5.4103,"is_reserved":false,"is_disabled":false,"rental_uris":{"android":"levelo://app?vid=bcacd73e-31e9-4e0f-a9d1-894ebb30dfb1","ios":"levelo://app?vid=bcacd73e-31e9-4e0f-a9d1-894ebb30dfb1"},"vehicle_type_id":"4","last_reported":1747390275,"current_range_meters":14800,"station_id":"ce4bhqh2rcd13ifvqhmg","pricing_plan_id":"cebpf4jnsgd1na2vs0mg"},{"bike_id":"4c50a1f4-9b8f-4402-81a6-4b92fac2f424","system_id":"levelo_inurba_marseille","lat":43.32336,"lon":5.36722,"is_reserved":false,"is_disabled":false,"rental_uris":{"android":"levelo://app?vid=4c50a1f4-9b8f-4402-81a6-4b92fac2f424","ios":"levelo://app?vid=4c50a1f4-9b8f-4402-81a6-4b92fac2f424"},"vehicle_type_id":"4","last_reported":1747390275,"current_range_meters":14800,"station_id":"ce4bhsh2rcd13ifvqi2g","pricing_plan_id":"cebpf4jnsgd1na2vs0mg"},{"bike_id":"5241a758-5e7e-4727-9ed1-3ec725e43d59","system_id":"levelo_inurba_marseille","lat":43.21756,"lon":5.34588,"is_reserved":false,"is_disabled":false,"rental_uris":{"android":"levelo://app?vid=5241a758-5e7e-4727-9ed1-3ec725e43d59","ios":"levelo://app?vid=5241a758-5e7e-4727-9ed1-3ec725e43d59"},"vehicle_type_id":"4","last_reported":1747390275,"current_range_meters":14800,"station_id":"st_cvj6r9ubvosntc0bgbag","pricing_plan_id":"cebpf4jnsgd1na2vs0mg"},{"bike_id":"7c2f3fc4-21ba-4a03-ac61-ae18fc4619d9","system_id":"levelo_inurba_marseille","lat":43.21191,"lon":5.35074,"is_reserved":false,"is_disabled":false,"rental_uris":{"android":"levelo://app?vid=7c2f3fc4-21ba-4a03-ac61-ae18fc4619d9","ios":"levelo://app?vid=7c2f3fc4-21ba-4a03-ac61-ae18fc4619d9"},"vehicle_type_id":"4","last_reported":1747390275,"current_range_meters":14800,"station_id":"st_cvj6sg6p6f1abm77japg","pricing_plan_id":"cebpf4jnsgd1na2vs0mg"},{"bike_id":"fb691759-c1d0-4bca-b625-bfe47a6ceed7","system_id":"levelo_inurba_marseille","lat":43.29282,"lon":5.38236,"is_reserved":false,"is_disabled":false,"rental_uris":{"android":"levelo://app?vid=fb691759-c1d0-4bca-b625-bfe47a6ceed7","ios":"levelo://app?vid=fb691759-c1d0-4bca-b625-bfe47a6ceed7"},"vehicle_type_id":"4","last_reported":1747390275,"current_range_meters":15200,"station_id":"","pricing_plan_id":"cebpf4jnsgd1na2vs0mg"},{"bike_id":"166caaf0-fc42-4b7e-ad92-a576c9dc5dc1","system_id":"levelo_inurba_marseille","lat":43.296209,"lon":5.371762,"is_reserved":false,"is_disabled":false,"rental_uris":{"android":"levelo://app?vid=166caaf0-fc42-4b7e-ad92-a576c9dc5dc1","ios":"levelo://app?vid=166caaf0-fc42-4b7e-ad92-a576c9dc5dc1"},"vehicle_type_id":"4","last_reported":1747390275,"current_range_meters":15200,"station_id":"ce4bgnh2rcd13ifvqc0g","pricing_plan_id":"cebpf4jnsgd1na2vs0mg"},{"bike_id":"aa53c5b9-c9b8-4906-989e-6e49a1f5abe6","system_id":"levelo_inurba_marseille","lat":43.22953,"lon":5.35388,"is_reserved":false,"is_disabled":false,"rental_uris":{"android":"levelo://app?vid=aa53c5b9-c9b8-4906-989e-6e49a1f5abe6","ios":"levelo://app?vid=aa53c5b9-c9b8-4906-989e-6e49a1f5abe6"},"vehicle_type_id":"4","last_reported":1747390275,"current_range_meters":15200,"station_id":"cpo3532slgdg3j2ikp40","pricing_plan_id":"cebpf4jnsgd1na2vs0mg"},{"bike_id":"6d812bb8-7c84-4b9d-aa7e-2e32f2e0ab84","system_id":"levelo_inurba_marseille","lat":43.23941,"lon":5.37583,"is_reserved":false,"is_disabled":false,"rental_uris":{"android":"levelo://app?vid=6d812bb8-7c84-4b9d-aa7e-2e32f2e0ab84","ios":"levelo://app?vid=6d812bb8-7c84-4b9d-aa7e-2e32f2e0ab84"},"vehicle_type_id":"4","last_reported":1747390275,"current_range_meters":16000,"station_id":"","pricing_plan_id":"cebpf4jnsgd1na2vs0mg"},{"bike_id":"9196138d-55a3-4512-a1f4-1d217474163b","system_id":"levelo_inurba_marseille","lat":43.30643,"lon":5.40101,"is_reserved":false,"is_disabled":false,"rental_uris":{"android":"levelo://app?vid=9196138d-55a3-4512-a1f4-1d217474163b","ios":"levelo://app?vid=9196138d-55a3-4512-a1f4-1d217474163b"},"vehicle_type_id":"4","last_reported":1747390275,"current_range_meters":16000,"station_id":"ce4bh112rcd13ifvqda0","pricing_plan_id":"cebpf4jnsgd1na2vs0mg"},{"bike_id":"0d21f29f-a9ef-4544-bd6b-9ad0edeab91d","system_id":"levelo_inurba_marseille","lat":43.291976,"lon":5.393274,"is_reserved":false,"is_disabled":false,"rental_uris":{"android":"levelo://app?vid=0d21f29f-a9ef-4544-bd6b-9ad0edeab91d","ios":"levelo://app?vid=0d21f29f-a9ef-4544-bd6b-9ad0edeab91d"},"vehicle_type_id":"4","last_reported":1747390275,"current_range_meters":16000,"station_id":"ce4bh192rcd13ifvqdd0","pricing_plan_id":"cebpf4jnsgd1na2vs0mg"},{"bike_id":"8dc9cc90-8c14-4d08-9bb3-ce4198def33f","system_id":"levelo_inurba_marseille","lat":43.27509,"lon":5.424547,"is_reserved":false,"is_disabled":false,"rental_uris":{"android":"levelo://app?vid=8dc9cc90-8c14-4d08-9bb3-ce4198def33f","ios":"levelo://app?vid=8dc9cc90-8c14-4d08-9bb3-ce4198def33f"},"vehicle_type_id":"4","last_reported":1747390275,"current_range_meters":16000,"station_id":"ce4bhn92rcd13ifvqgrg","pricing_plan_id":"cebpf4jnsgd1na2vs0mg"},{"bike_id":"3269ec54-d1e1-4dde-89e7-0f03154cab18","system_id":"levelo_inurba_marseille","lat":43.32654,"lon":5.40992,"is_reserved":false,"is_disabled":false,"rental_uris":{"android":"levelo://app?vid=3269ec54-d1e1-4dde-89e7-0f03154cab18","ios":"levelo://app?vid=3269ec54-d1e1-4dde-89e7-0f03154cab18"},"vehicle_type_id":"4","last_reported":1747390275,"current_range_meters":16000,"station_id":"ce4bhpp2rcd13ifvqhgg","pricing_plan_id":"cebpf4jnsgd1na2vs0mg"},{"bike_id":"385e683f-73df-4760-9ecb-0f2abdd208e1","system_id":"levelo_inurba_marseille","lat":43.267248,"lon":5.397177,"is_reserved":false,"is_disabled":false,"rental_uris":{"android":"levelo://app?vid=385e683f-73df-4760-9ecb-0f2abdd208e1","ios":"levelo://app?vid=385e683f-73df-4760-9ecb-0f2abdd208e1"},"vehicle_type_id":"4","last_reported":1747390275,"current_range_meters":16400,"station_id":"","pricing_plan_id":"cebpf4jnsgd1na2vs0mg"},{"bike_id":"ed354185-9947-439c-844a-5f08cf7c49f1","system_id":"levelo_inurba_marseille","lat":43.29621,"lon":5.37164,"is_reserved":false,"is_disabled":false,"rental_uris":{"android":"levelo://app?vid=ed354185-9947-439c-844a-5f08cf7c49f1","ios":"levelo://app?vid=ed354185-9947-439c-844a-5f08cf7c49f1"},"vehicle_type_id":"4","last_reported":1747390275,"current_range_meters":16400,"station_id":"ce4bgnh2rcd13ifvqc0g","pricing_plan_id":"cebpf4jnsgd1na2vs0mg"},{"bike_id":"b2f6d52e-8369-4a00-a176-a0d65c815f19","system_id":"levelo_inurba_marseille","lat":43.29264,"lon":5.37635,"is_reserved":false,"is_disabled":false,"rental_uris":{"android":"levelo://app?vid=b2f6d52e-8369-4a00-a176-a0d65c815f19","ios":"levelo://app?vid=b2f6d52e-8369-4a00-a176-a0d65c815f19"},"vehicle_type_id":"4","last_reported":1747390275,"current_range_meters":16800,"station_id":"ce4bgi12rcd13ifvqb80","pricing_plan_id":"cebpf4jnsgd1na2vs0mg"},{"bike_id":"fbf128c1-197c-43e4-9791-1b38ea5c9cf8","system_id":"levelo_inurba_marseille","lat":43.31691,"lon":5.4048,"is_reserved":false,"is_disabled":false,"rental_uris":{"android":"levelo://app?vid=fbf128c1-197c-43e4-9791-1b38ea5c9cf8","ios":"levelo://app?vid=fbf128c1-197c-43e4-9791-1b38ea5c9cf8"},"vehicle_type_id":"4","last_reported":1747390275,"current_range_meters":16800,"station_id":"ce4bh012rcd13ifvqd00","pricing_plan_id":"cebpf4jnsgd1na2vs0mg"},{"bike_id":"d9cf0daf-2b8c-44c0-ad88-67a126aa883b","system_id":"levelo_inurba_marseille","lat":43.25943,"lon":5.40871,"is_reserved":false,"is_disabled":false,"rental_uris":{"android":"levelo://app?vid=d9cf0daf-2b8c-44c0-ad88-67a126aa883b","ios":"levelo://app?vid=d9cf0daf-2b8c-44c0-ad88-67a126aa883b"},"vehicle_type_id":"4","last_reported":1747390275,"current_range_meters":16800,"station_id":"ce4bhm92rcd13ifvqglg","pricing_plan_id":"cebpf4jnsgd1na2vs0mg"},{"bike_id":"16748ab3-36ff-4772-bfcc-45d7b9aee659","system_id":"levelo_inurba_marseille","lat":43.27512,"lon":5.42461,"is_reserved":false,"is_disabled":false,"rental_uris":{"android":"levelo://app?vid=16748ab3-36ff-4772-bfcc-45d7b9aee659","ios":"levelo://app?vid=16748ab3-36ff-4772-bfcc-45d7b9aee659"},"vehicle_type_id":"4","last_reported":1747390275,"current_range_meters":16800,"station_id":"ce4bhn92rcd13ifvqgrg","pricing_plan_id":"cebpf4jnsgd1na2vs0mg"},{"bike_id":"d64f34df-ca91-4ef9-ac5c-1995b33b769d","system_id":"levelo_inurba_marseille","lat":43.28,"lon":5.40011,"is_reserved":false,"is_disabled":false,"rental_uris":{"android":"levelo://app?vid=d64f34df-ca91-4ef9-ac5c-1995b33b769d","ios":"levelo://app?vid=d64f34df-ca91-4ef9-ac5c-1995b33b769d"},"vehicle_type_id":"4","last_reported":1747390275,"current_range_meters":16800,"station_id":"ce4bho92rcd13ifvqh4g","pricing_plan_id":"cebpf4jnsgd1na2vs0mg"},{"bike_id":"c8a38f2f-aa6b-4b35-a189-77439d458a3a","system_id":"levelo_inurba_marseille","lat":43.28501,"lon":5.38936,"is_reserved":false,"is_disabled":false,"rental_uris":{"android":"levelo://app?vid=c8a38f2f-aa6b-4b35-a189-77439d458a3a","ios":"levelo://app?vid=c8a38f2f-aa6b-4b35-a189-77439d458a3a"},"vehicle_type_id":"4","last_reported":1747390275,"current_range_meters":17200,"station_id":"","pricing_plan_id":"cebpf4jnsgd1na2vs0mg"},{"bike_id":"786fa5e7-e1b5-4809-bf1e-c8607de40f42","system_id":"levelo_inurba_marseille","lat":43.301519,"lon":5.380915,"is_reserved":false,"is_disabled":false,"rental_uris":{"android":"levelo://app?vid=786fa5e7-e1b5-4809-bf1e-c8607de40f42","ios":"levelo://app?vid=786fa5e7-e1b5-4809-bf1e-c8607de40f42"},"vehicle_type_id":"4","last_reported":1747390275,"current_range_meters":17200,"station_id":"ce4bgjp2rcd13ifvqbh0","pricing_plan_id":"cebpf4jnsgd1na2vs0mg"},{"bike_id":"19ed7942-1307-43bc-a385-a1ca59e7cb8b","system_id":"levelo_inurba_marseille","lat":43.30218,"lon":5.39464,"is_reserved":false,"is_disabled":false,"rental_uris":{"android":"levelo://app?vid=19ed7942-1307-43bc-a385-a1ca59e7cb8b","ios":"levelo://app?vid=19ed7942-1307-43bc-a385-a1ca59e7cb8b"},"vehicle_type_id":"4","last_reported":1747390275,"current_range_meters":17200,"station_id":"ce4bh0p2rcd13ifvqd70","pricing_plan_id":"cebpf4jnsgd1na2vs0mg"},{"bike_id":"e7643645-44ff-4abf-942d-a4663797dbd7","system_id":"levelo_inurba_marseille","lat":43.2885,"lon":5.39337,"is_reserved":false,"is_disabled":false,"rental_uris":{"android":"levelo://app?vid=e7643645-44ff-4abf-942d-a4663797dbd7","ios":"levelo://app?vid=e7643645-44ff-4abf-942d-a4663797dbd7"},"vehicle_type_id":"4","last_reported":1747390275,"current_range_meters":17200,"station_id":"ce4bh2p2rcd13ifvqdi0","pricing_plan_id":"cebpf4jnsgd1na2vs0mg"},{"bike_id":"521b6c2a-4e72-4f95-bbdd-5ca1ab38c77f","system_id":"levelo_inurba_marseille","lat":43.28977,"lon":5.37836,"is_reserved":false,"is_disabled":false,"rental_uris":{"android":"levelo://app?vid=521b6c2a-4e72-4f95-bbdd-5ca1ab38c77f","ios":"levelo://app?vid=521b6c2a-4e72-4f95-bbdd-5ca1ab38c77f"},"vehicle_type_id":"4","last_reported":1747390275,"current_range_meters":17200,"station_id":"ce4bh9p2rcd13ifvqed0","pricing_plan_id":"cebpf4jnsgd1na2vs0mg"},{"bike_id":"58714f91-3082-4ce2-b619-a96c222cab2a","system_id":"levelo_inurba_marseille","lat":43.28998,"lon":5.35619,"is_reserved":false,"is_disabled":false,"rental_uris":{"android":"levelo://app?vid=58714f91-3082-4ce2-b619-a96c222cab2a","ios":"levelo://app?vid=58714f91-3082-4ce2-b619-a96c222cab2a"},"vehicle_type_id":"4","last_reported":1747390275,"current_range_meters":17200,"station_id":"ce4bhb92rcd13ifvqen0","pricing_plan_id":"cebpf4jnsgd1na2vs0mg"},{"bike_id":"b3bd186a-ae2a-4408-aab9-c24e5fe41ca9","system_id":"levelo_inurba_marseille","lat":43.27495,"lon":5.42458,"is_reserved":false,"is_disabled":false,"rental_uris":{"android":"levelo://app?vid=b3bd186a-ae2a-4408-aab9-c24e5fe41ca9","ios":"levelo://app?vid=b3bd186a-ae2a-4408-aab9-c24e5fe41ca9"},"vehicle_type_id":"4","last_reported":1747390275,"current_range_meters":17200,"station_id":"ce4bhn92rcd13ifvqgrg","pricing_plan_id":"cebpf4jnsgd1na2vs0mg"},{"bike_id":"852ea9ac-6507-488a-87c5-b27d54b34b2e","system_id":"levelo_inurba_marseille","lat":43.28159,"lon":5.42658,"is_reserved":false,"is_disabled":false,"rental_uris":{"android":"levelo://app?vid=852ea9ac-6507-488a-87c5-b27d54b34b2e","ios":"levelo://app?vid=852ea9ac-6507-488a-87c5-b27d54b34b2e"},"vehicle_type_id":"4","last_reported":1747390275,"current_range_meters":17200,"station_id":"ce4bhnh2rcd13ifvqgug","pricing_plan_id":"cebpf4jnsgd1na2vs0mg"},{"bike_id":"98106b70-6f8a-476d-962a-f2bed2e52f0a","system_id":"levelo_inurba_marseille","lat":43.32083,"lon":5.36791,"is_reserved":false,"is_disabled":false,"rental_uris":{"android":"levelo://app?vid=98106b70-6f8a-476d-962a-f2bed2e52f0a","ios":"levelo://app?vid=98106b70-6f8a-476d-962a-f2bed2e52f0a"},"vehicle_type_id":"4","last_reported":1747390275,"current_range_meters":17200,"station_id":"ce4bhrh2rcd13ifvqhug","pricing_plan_id":"cebpf4jnsgd1na2vs0mg"},{"bike_id":"78fb60cd-24e3-4c35-9b93-c850f1e037b4","system_id":"levelo_inurba_marseille","lat":43.30881,"lon":5.37199,"is_reserved":false,"is_disabled":false,"rental_uris":{"android":"levelo://app?vid=78fb60cd-24e3-4c35-9b93-c850f1e037b4","ios":"levelo://app?vid=78fb60cd-24e3-4c35-9b93-c850f1e037b4"},"vehicle_type_id":"4","last_reported":1747390275,"current_range_meters":17600,"station_id":"ce4bguh2rcd13ifvqckg","pricing_plan_id":"cebpf4jnsgd1na2vs0mg"},{"bike_id":"1bdcd1fa-bfdc-476e-a9d8-195741692523","system_id":"levelo_inurba_marseille","lat":43.31704,"lon":5.40461,"is_reserved":false,"is_disabled":false,"rental_uris":{"android":"levelo://app?vid=1bdcd1fa-bfdc-476e-a9d8-195741692523","ios":"levelo://app?vid=1bdcd1fa-bfdc-476e-a9d8-195741692523"},"vehicle_type_id":"4","last_reported":1747390275,"current_range_meters":17600,"station_id":"ce4bh012rcd13ifvqd00","pricing_plan_id":"cebpf4jnsgd1na2vs0mg"},{"bike_id":"4b98742d-2da6-47d9-a464-e6a92efef0a4","system_id":"levelo_inurba_marseille","lat":43.28484,"lon":5.38421,"is_reserved":false,"is_disabled":false,"rental_uris":{"android":"levelo://app?vid=4b98742d-2da6-47d9-a464-e6a92efef0a4","ios":"levelo://app?vid=4b98742d-2da6-47d9-a464-e6a92efef0a4"},"vehicle_type_id":"4","last_reported":1747390275,"current_range_meters":17600,"station_id":"ce4bh512rcd13ifvqe3g","pricing_plan_id":"cebpf4jnsgd1na2vs0mg"},{"bike_id":"d1a82e80-5e0c-4cd4-9dc4-90bf658da68f","system_id":"levelo_inurba_marseille","lat":43.23944,"lon":5.36656,"is_reserved":false,"is_disabled":false,"rental_uris":{"android":"levelo://app?vid=d1a82e80-5e0c-4cd4-9dc4-90bf658da68f","ios":"levelo://app?vid=d1a82e80-5e0c-4cd4-9dc4-90bf658da68f"},"vehicle_type_id":"4","last_reported":1747390275,"current_range_meters":17600,"station_id":"ce4bhi12rcd13ifvqfp0","pricing_plan_id":"cebpf4jnsgd1na2vs0mg"},{"bike_id":"eb315ca9-8b37-4a65-969b-3363bd5f25ab","system_id":"levelo_inurba_marseille","lat":43.27489,"lon":5.42457,"is_reserved":false,"is_disabled":false,"rental_uris":{"android":"levelo://app?vid=eb315ca9-8b37-4a65-969b-3363bd5f25ab","ios":"levelo://app?vid=eb315ca9-8b37-4a65-969b-3363bd5f25ab"},"vehicle_type_id":"4","last_reported":1747390275,"current_range_meters":17600,"station_id":"ce4bhn92rcd13ifvqgrg","pricing_plan_id":"cebpf4jnsgd1na2vs0mg"},{"bike_id":"d4a68f67-accc-4132-becd-c45a42937a18","system_id":"levelo_inurba_marseille","lat":43.29264,"lon":5.37618,"is_reserved":false,"is_disabled":false,"rental_uris":{"android":"levelo://app?vid=d4a68f67-accc-4132-becd-c45a42937a18","ios":"levelo://app?vid=d4a68f67-accc-4132-becd-c45a42937a18"},"vehicle_type_id":"4","last_reported":1747390275,"current_range_meters":18000,"station_id":"ce4bgi12rcd13ifvqb80","pricing_plan_id":"cebpf4jnsgd1na2vs0mg"},{"bike_id":"14b36eca-1823-453e-b465-51a98c2290e8","system_id":"levelo_inurba_marseille","lat":43.27056,"lon":5.4026,"is_reserved":false,"is_disabled":false,"rental_uris":{"android":"levelo://app?vid=14b36eca-1823-453e-b465-51a98c2290e8","ios":"levelo://app?vid=14b36eca-1823-453e-b465-51a98c2290e8"},"vehicle_type_id":"4","last_reported":1747390275,"current_range_meters":18000,"station_id":"ce4bhk92rcd13ifvqgc0","pricing_plan_id":"cebpf4jnsgd1na2vs0mg"},{"bike_id":"81ce395a-ca1c-43fa-b284-1ab7159452ff","system_id":"levelo_inurba_marseille","lat":43.2595,"lon":5.40888,"is_reserved":false,"is_disabled":false,"rental_uris":{"android":"levelo://app?vid=81ce395a-ca1c-43fa-b284-1ab7159452ff","ios":"levelo://app?vid=81ce395a-ca1c-43fa-b284-1ab7159452ff"},"vehicle_type_id":"4","last_reported":1747390275,"current_range_meters":18000,"station_id":"ce4bhm92rcd13ifvqglg","pricing_plan_id":"cebpf4jnsgd1na2vs0mg"},{"bike_id":"0b4dab94-79cc-49be-8085-fb2124a86407","system_id":"levelo_inurba_marseille","lat":43.321097,"lon":5.367743,"is_reserved":false,"is_disabled":false,"rental_uris":{"android":"levelo://app?vid=0b4dab94-79cc-49be-8085-fb2124a86407","ios":"levelo://app?vid=0b4dab94-79cc-49be-8085-fb2124a86407"},"vehicle_type_id":"4","last_reported":1747390275,"current_range_meters":18000,"station_id":"ce4bhrh2rcd13ifvqhug","pricing_plan_id":"cebpf4jnsgd1na2vs0mg"},{"bike_id":"9b7ad114-f9b9-470b-8df9-e92decdb49ff","system_id":"levelo_inurba_marseille","lat":43.24161,"lon":5.36413,"is_reserved":false,"is_disabled":false,"rental_uris":{"android":"levelo://app?vid=9b7ad114-f9b9-470b-8df9-e92decdb49ff","ios":"levelo://app?vid=9b7ad114-f9b9-470b-8df9-e92decdb49ff"},"vehicle_type_id":"4","last_reported":1747390275,"current_range_meters":18000,"station_id":"cpo36qri1sfpv3e86is0","pricing_plan_id":"cebpf4jnsgd1na2vs0mg"},{"bike_id":"e5987c5e-0f5a-46b5-9720-0973952d5bb5","system_id":"levelo_inurba_marseille","lat":43.29616,"lon":5.37738,"is_reserved":false,"is_disabled":false,"rental_uris":{"android":"levelo://app?vid=e5987c5e-0f5a-46b5-9720-0973952d5bb5","ios":"levelo://app?vid=e5987c5e-0f5a-46b5-9720-0973952d5bb5"},"vehicle_type_id":"4","last_reported":1747390275,"current_range_meters":18800,"station_id":"ce4bgi92rcd13ifvqb90","pricing_plan_id":"cebpf4jnsgd1na2vs0mg"},{"bike_id":"c3df9206-9c19-4bc1-9beb-c5a217139ffa","system_id":"levelo_inurba_marseille","lat":43.30597,"lon":5.37233,"is_reserved":false,"is_disabled":false,"rental_uris":{"android":"levelo://app?vid=c3df9206-9c19-4bc1-9beb-c5a217139ffa","ios":"levelo://app?vid=c3df9206-9c19-4bc1-9beb-c5a217139ffa"},"vehicle_type_id":"4","last_reported":1747390275,"current_range_meters":18800,"station_id":"ce4bgqh2rcd13ifvqc4g","pricing_plan_id":"cebpf4jnsgd1na2vs0mg"},{"bike_id":"99cad2f5-a208-4e49-b47b-1d3d5545ce19","system_id":"levelo_inurba_marseille","lat":43.30541,"lon":5.36556,"is_reserved":false,"is_disabled":false,"rental_uris":{"android":"levelo://app?vid=99cad2f5-a208-4e49-b47b-1d3d5545ce19","ios":"levelo://app?vid=99cad2f5-a208-4e49-b47b-1d3d5545ce19"},"vehicle_type_id":"4","last_reported":1747390275,"current_range_meters":18800,"station_id":"ce4bgs12rcd13ifvqcag","pricing_plan_id":"cebpf4jnsgd1na2vs0mg"},{"bike_id":"46576045-65e8-4382-872d-0c67c8b2931a","system_id":"levelo_inurba_marseille","lat":43.24177,"lon":5.3638,"is_reserved":false,"is_disabled":false,"rental_uris":{"android":"levelo://app?vid=46576045-65e8-4382-872d-0c67c8b2931a","ios":"levelo://app?vid=46576045-65e8-4382-872d-0c67c8b2931a"},"vehicle_type_id":"4","last_reported":1747390275,"current_range_meters":18800,"station_id":"cpo36qri1sfpv3e86is0","pricing_plan_id":"cebpf4jnsgd1na2vs0mg"},{"bike_id":"00bd8c96-83f1-4d61-9586-9da6bf35abf0","system_id":"levelo_inurba_marseille","lat":43.29204,"lon":5.35806,"is_reserved":false,"is_disabled":false,"rental_uris":{"android":"levelo://app?vid=00bd8c96-83f1-4d61-9586-9da6bf35abf0","ios":"levelo://app?vid=00bd8c96-83f1-4d61-9586-9da6bf35abf0"},"vehicle_type_id":"4","last_reported":1747390275,"current_range_meters":19200,"station_id":"","pricing_plan_id":"cebpf4jnsgd1na2vs0mg"},{"bike_id":"0a555982-422d-4cad-bf03-d9fc99bb97a7","system_id":"levelo_inurba_marseille","lat":43.31316,"lon":5.36753,"is_reserved":false,"is_disabled":false,"rental_uris":{"android":"levelo://app?vid=0a555982-422d-4cad-bf03-d9fc99bb97a7","ios":"levelo://app?vid=0a555982-422d-4cad-bf03-d9fc99bb97a7"},"vehicle_type_id":"4","last_reported":1747390275,"current_range_meters":19200,"station_id":"ce4bgr92rcd13ifvqc6g","pricing_plan_id":"cebpf4jnsgd1na2vs0mg"},{"bike_id":"44261da2-5281-4f5e-953b-98d6a661beb0","system_id":"levelo_inurba_marseille","lat":43.30945,"lon":5.39038,"is_reserved":false,"is_disabled":false,"rental_uris":{"android":"levelo://app?vid=44261da2-5281-4f5e-953b-98d6a661beb0","ios":"levelo://app?vid=44261da2-5281-4f5e-953b-98d6a661beb0"},"vehicle_type_id":"4","last_reported":1747390275,"current_range_meters":19200,"station_id":"ce4bgup2rcd13ifvqco0","pricing_plan_id":"cebpf4jnsgd1na2vs0mg"},{"bike_id":"2466a14b-471e-435e-a4d7-adcc5317f976","system_id":"levelo_inurba_marseille","lat":43.29629,"lon":5.40601,"is_reserved":false,"is_disabled":false,"rental_uris":{"android":"levelo://app?vid=2466a14b-471e-435e-a4d7-adcc5317f976","ios":"levelo://app?vid=2466a14b-471e-435e-a4d7-adcc5317f976"},"vehicle_type_id":"4","last_reported":1747390275,"current_range_meters":19200,"station_id":"ce4bh0h2rcd13ifvqd60","pricing_plan_id":"cebpf4jnsgd1na2vs0mg"},{"bike_id":"49af014f-61ea-4dd2-b6ab-b0bfecf19a0f","system_id":"levelo_inurba_marseille","lat":43.28721,"lon":5.36096,"is_reserved":false,"is_disabled":false,"rental_uris":{"android":"levelo://app?vid=49af014f-61ea-4dd2-b6ab-b0bfecf19a0f","ios":"levelo://app?vid=49af014f-61ea-4dd2-b6ab-b0bfecf19a0f"},"vehicle_type_id":"4","last_reported":1747390275,"current_range_meters":19200,"station_id":"cki0cbj6b192h4jlfktg","pricing_plan_id":"cebpf4jnsgd1na2vs0mg"},{"bike_id":"36c38849-1aa7-4d33-b5af-ed5962538437","system_id":"levelo_inurba_marseille","lat":43.264553,"lon":5.393145,"is_reserved":false,"is_disabled":false,"rental_uris":{"android":"levelo://app?vid=36c38849-1aa7-4d33-b5af-ed5962538437","ios":"levelo://app?vid=36c38849-1aa7-4d33-b5af-ed5962538437"},"vehicle_type_id":"4","last_reported":1747390275,"current_range_meters":20000,"station_id":"","pricing_plan_id":"cebpf4jnsgd1na2vs0mg"},{"bike_id":"512db903-9559-40c7-8902-6a98e3c8c53c","system_id":"levelo_inurba_marseille","lat":43.32938,"lon":5.38988,"is_reserved":false,"is_disabled":false,"rental_uris":{"android":"levelo://app?vid=512db903-9559-40c7-8902-6a98e3c8c53c","ios":"levelo://app?vid=512db903-9559-40c7-8902-6a98e3c8c53c"},"vehicle_type_id":"4","last_reported":1747390275,"current_range_meters":20000,"station_id":"","pricing_plan_id":"cebpf4jnsgd1na2vs0mg"},{"bike_id":"22fdd312-26a7-4b9f-b5f8-9f4eff071df7","system_id":"levelo_inurba_marseille","lat":43.3015,"lon":5.38099,"is_reserved":false,"is_disabled":false,"rental_uris":{"android":"levelo://app?vid=22fdd312-26a7-4b9f-b5f8-9f4eff071df7","ios":"levelo://app?vid=22fdd312-26a7-4b9f-b5f8-9f4eff071df7"},"vehicle_type_id":"4","last_reported":1747390275,"current_range_meters":20000,"station_id":"ce4bgjp2rcd13ifvqbh0","pricing_plan_id":"cebpf4jnsgd1na2vs0mg"},{"bike_id":"4c69767d-2649-49f1-8c0e-3b06591f2e05","system_id":"levelo_inurba_marseille","lat":43.26804,"lon":5.39464,"is_reserved":false,"is_disabled":false,"rental_uris":{"android":"levelo://app?vid=4c69767d-2649-49f1-8c0e-3b06591f2e05","ios":"levelo://app?vid=4c69767d-2649-49f1-8c0e-3b06591f2e05"},"vehicle_type_id":"4","last_reported":1747390275,"current_range_meters":20000,"station_id":"ce4bhh12rcd13ifvqfg0","pricing_plan_id":"cebpf4jnsgd1na2vs0mg"},{"bike_id":"d32fbd5e-db4a-44c5-b1c1-2052f4bcb96a","system_id":"levelo_inurba_marseille","lat":43.27812,"lon":5.407223,"is_reserved":false,"is_disabled":false,"rental_uris":{"android":"levelo://app?vid=d32fbd5e-db4a-44c5-b1c1-2052f4bcb96a","ios":"levelo://app?vid=d32fbd5e-db4a-44c5-b1c1-2052f4bcb96a"},"vehicle_type_id":"4","last_reported":1747390275,"current_range_meters":20000,"station_id":"ce4bhnh2rcd13ifvqgtg","pricing_plan_id":"cebpf4jnsgd1na2vs0mg"},{"bike_id":"ae1efad9-e0d1-40a3-8f37-9be23e1cbe66","system_id":"levelo_inurba_marseille","lat":43.29616,"lon":5.37736,"is_reserved":false,"is_disabled":false,"rental_uris":{"android":"levelo://app?vid=ae1efad9-e0d1-40a3-8f37-9be23e1cbe66","ios":"levelo://app?vid=ae1efad9-e0d1-40a3-8f37-9be23e1cbe66"},"vehicle_type_id":"4","last_reported":1747390275,"current_range_meters":20400,"station_id":"ce4bgi92rcd13ifvqb90","pricing_plan_id":"cebpf4jnsgd1na2vs0mg"},{"bike_id":"2c4aea80-5f71-4c87-b855-d14865b14335","system_id":"levelo_inurba_marseille","lat":43.28469,"lon":5.38415,"is_reserved":false,"is_disabled":false,"rental_uris":{"android":"levelo://app?vid=2c4aea80-5f71-4c87-b855-d14865b14335","ios":"levelo://app?vid=2c4aea80-5f71-4c87-b855-d14865b14335"},"vehicle_type_id":"4","last_reported":1747390275,"current_range_meters":20400,"station_id":"ce4bh512rcd13ifvqe3g","pricing_plan_id":"cebpf4jnsgd1na2vs0mg"},{"bike_id":"e96f792e-b6b3-4510-b7ad-030f24a4b9a4","system_id":"levelo_inurba_marseille","lat":43.28851,"lon":5.35863,"is_reserved":false,"is_disabled":false,"rental_uris":{"android":"levelo://app?vid=e96f792e-b6b3-4510-b7ad-030f24a4b9a4","ios":"levelo://app?vid=e96f792e-b6b3-4510-b7ad-030f24a4b9a4"},"vehicle_type_id":"4","last_reported":1747390275,"current_range_meters":20400,"station_id":"ce4bhb12rcd13ifvqem0","pricing_plan_id":"cebpf4jnsgd1na2vs0mg"},{"bike_id":"69591ad0-0daf-49a5-ba22-c07fe8c34326","system_id":"levelo_inurba_marseille","lat":43.29,"lon":5.35604,"is_reserved":false,"is_disabled":false,"rental_uris":{"android":"levelo://app?vid=69591ad0-0daf-49a5-ba22-c07fe8c34326","ios":"levelo://app?vid=69591ad0-0daf-49a5-ba22-c07fe8c34326"},"vehicle_type_id":"4","last_reported":1747390275,"current_range_meters":20400,"station_id":"ce4bhb92rcd13ifvqen0","pricing_plan_id":"cebpf4jnsgd1na2vs0mg"},{"bike_id":"d378532a-42d6-4c7e-b179-9f2907159464","system_id":"levelo_inurba_marseille","lat":43.2721,"lon":5.39175,"is_reserved":false,"is_disabled":false,"rental_uris":{"android":"levelo://app?vid=d378532a-42d6-4c7e-b179-9f2907159464","ios":"levelo://app?vid=d378532a-42d6-4c7e-b179-9f2907159464"},"vehicle_type_id":"4","last_reported":1747390275,"current_range_meters":20400,"station_id":"ce4bhhp2rcd13ifvqfm0","pricing_plan_id":"cebpf4jnsgd1na2vs0mg"},{"bike_id":"462b5739-db0c-4f45-ab29-842115c77cfe","system_id":"levelo_inurba_marseille","lat":43.286064,"lon":5.370621,"is_reserved":false,"is_disabled":false,"rental_uris":{"android":"levelo://app?vid=462b5739-db0c-4f45-ab29-842115c77cfe","ios":"levelo://app?vid=462b5739-db0c-4f45-ab29-842115c77cfe"},"vehicle_type_id":"4","last_reported":1747390275,"current_range_meters":20400,"station_id":"ce4bht12rcd13ifvqi60","pricing_plan_id":"cebpf4jnsgd1na2vs0mg"},{"bike_id":"8d5966cb-ce1e-46ab-bffc-0edd72416173","system_id":"levelo_inurba_marseille","lat":43.296204,"lon":5.406052,"is_reserved":false,"is_disabled":false,"rental_uris":{"android":"levelo://app?vid=8d5966cb-ce1e-46ab-bffc-0edd72416173","ios":"levelo://app?vid=8d5966cb-ce1e-46ab-bffc-0edd72416173"},"vehicle_type_id":"4","last_reported":1747390275,"current_range_meters":20800,"station_id":"ce4bh0h2rcd13ifvqd60","pricing_plan_id":"cebpf4jnsgd1na2vs0mg"},{"bike_id":"0374ddeb-603b-4778-ad67-dc1cf319257f","system_id":"levelo_inurba_marseille","lat":43.27341,"lon":5.39091,"is_reserved":false,"is_disabled":false,"rental_uris":{"android":"levelo://app?vid=0374ddeb-603b-4778-ad67-dc1cf319257f","ios":"levelo://app?vid=0374ddeb-603b-4778-ad67-dc1cf319257f"},"vehicle_type_id":"4","last_reported":1747390275,"current_range_meters":20800,"station_id":"ce4bhgp2rcd13ifvqfe0","pricing_plan_id":"cebpf4jnsgd1na2vs0mg"},{"bike_id":"47f510f6-43fb-4aaf-bd26-2671c7b8b85b","system_id":"levelo_inurba_marseille","lat":43.30523,"lon":5.38443,"is_reserved":false,"is_disabled":false,"rental_uris":{"android":"levelo://app?vid=47f510f6-43fb-4aaf-bd26-2671c7b8b85b","ios":"levelo://app?vid=47f510f6-43fb-4aaf-bd26-2671c7b8b85b"},"vehicle_type_id":"4","last_reported":1747390275,"current_range_meters":21600,"station_id":"ce4bgg92rcd13ifvqb30","pricing_plan_id":"cebpf4jnsgd1na2vs0mg"},{"bike_id":"74d605a6-c235-4ee3-83f6-e0394bfc55a5","system_id":"levelo_inurba_marseille","lat":43.29526,"lon":5.39408,"is_reserved":false,"is_disabled":false,"rental_uris":{"android":"levelo://app?vid=74d605a6-c235-4ee3-83f6-e0394bfc55a5","ios":"levelo://app?vid=74d605a6-c235-4ee3-83f6-e0394bfc55a5"},"vehicle_type_id":"4","last_reported":1747390275,"current_range_meters":21600,"station_id":"ce4bh292rcd13ifvqdf0","pricing_plan_id":"cebpf4jnsgd1na2vs0mg"},{"bike_id":"03bee684-51cb-4aee-a48f-4c3b7ad6e1a6","system_id":"levelo_inurba_marseille","lat":43.26209,"lon":5.37443,"is_reserved":false,"is_disabled":false,"rental_uris":{"android":"levelo://app?vid=03bee684-51cb-4aee-a48f-4c3b7ad6e1a6","ios":"levelo://app?vid=03bee684-51cb-4aee-a48f-4c3b7ad6e1a6"},"vehicle_type_id":"4","last_reported":1747390275,"current_range_meters":21600,"station_id":"ce4bhgp2rcd13ifvqfc0","pricing_plan_id":"cebpf4jnsgd1na2vs0mg"},{"bike_id":"0f8e3a6d-9a74-4437-b940-71902346e708","system_id":"levelo_inurba_marseille","lat":43.275927,"lon":5.384215,"is_reserved":false,"is_disabled":false,"rental_uris":{"android":"levelo://app?vid=0f8e3a6d-9a74-4437-b940-71902346e708","ios":"levelo://app?vid=0f8e3a6d-9a74-4437-b940-71902346e708"},"vehicle_type_id":"4","last_reported":1747390275,"current_range_meters":21600,"station_id":"ce4bhh92rcd13ifvqfi0","pricing_plan_id":"cebpf4jnsgd1na2vs0mg"},{"bike_id":"c81cf0e7-7090-48a7-8e8b-dad39e647e39","system_id":"levelo_inurba_marseille","lat":43.23155,"lon":5.43701,"is_reserved":false,"is_disabled":false,"rental_uris":{"android":"levelo://app?vid=c81cf0e7-7090-48a7-8e8b-dad39e647e39","ios":"levelo://app?vid=c81cf0e7-7090-48a7-8e8b-dad39e647e39"},"vehicle_type_id":"4","last_reported":1747390275,"current_range_meters":21600,"station_id":"ce4bhmp2rcd13ifvqgog","pricing_plan_id":"cebpf4jnsgd1na2vs0mg"},{"bike_id":"df19a046-bc8f-4751-980f-3fc4c19f613a","system_id":"levelo_inurba_marseille","lat":43.27479,"lon":5.42495,"is_reserved":false,"is_disabled":false,"rental_uris":{"android":"levelo://app?vid=df19a046-bc8f-4751-980f-3fc4c19f613a","ios":"levelo://app?vid=df19a046-bc8f-4751-980f-3fc4c19f613a"},"vehicle_type_id":"4","last_reported":1747390275,"current_range_meters":21600,"station_id":"ce4bhn92rcd13ifvqgrg","pricing_plan_id":"cebpf4jnsgd1na2vs0mg"},{"bike_id":"4d8eb989-a7ce-42a2-9771-4d1f1aecfedf","system_id":"levelo_inurba_marseille","lat":43.29625,"lon":5.37735,"is_reserved":false,"is_disabled":false,"rental_uris":{"android":"levelo://app?vid=4d8eb989-a7ce-42a2-9771-4d1f1aecfedf","ios":"levelo://app?vid=4d8eb989-a7ce-42a2-9771-4d1f1aecfedf"},"vehicle_type_id":"4","last_reported":1747390275,"current_range_meters":22000,"station_id":"ce4bgi92rcd13ifvqb90","pricing_plan_id":"cebpf4jnsgd1na2vs0mg"},{"bike_id":"39f9f2fa-5283-4407-b141-aede12eb0660","system_id":"levelo_inurba_marseille","lat":43.29969,"lon":5.38495,"is_reserved":false,"is_disabled":false,"rental_uris":{"android":"levelo://app?vid=39f9f2fa-5283-4407-b141-aede12eb0660","ios":"levelo://app?vid=39f9f2fa-5283-4407-b141-aede12eb0660"},"vehicle_type_id":"4","last_reported":1747390275,"current_range_meters":22000,"station_id":"ce4bgj92rcd13ifvqbd0","pricing_plan_id":"cebpf4jnsgd1na2vs0mg"},{"bike_id":"059aa6cf-2e57-455e-9e7e-69786189219f","system_id":"levelo_inurba_marseille","lat":43.30594,"lon":5.37217,"is_reserved":false,"is_disabled":false,"rental_uris":{"android":"levelo://app?vid=059aa6cf-2e57-455e-9e7e-69786189219f","ios":"levelo://app?vid=059aa6cf-2e57-455e-9e7e-69786189219f"},"vehicle_type_id":"4","last_reported":1747390275,"current_range_meters":22000,"station_id":"ce4bgqh2rcd13ifvqc4g","pricing_plan_id":"cebpf4jnsgd1na2vs0mg"},{"bike_id":"cee7b25b-c151-489c-b299-e26a3a8777a4","system_id":"levelo_inurba_marseille","lat":43.3149,"lon":5.3731,"is_reserved":false,"is_disabled":false,"rental_uris":{"android":"levelo://app?vid=cee7b25b-c151-489c-b299-e26a3a8777a4","ios":"levelo://app?vid=cee7b25b-c151-489c-b299-e26a3a8777a4"},"vehicle_type_id":"4","last_reported":1747390275,"current_range_meters":22000,"station_id":"ce4bgt12rcd13ifvqcd0","pricing_plan_id":"cebpf4jnsgd1na2vs0mg"},{"bike_id":"3e277f7c-a3e9-4a5a-bc73-5d77a3f423e0","system_id":"levelo_inurba_marseille","lat":43.29255,"lon":5.40067,"is_reserved":false,"is_disabled":false,"rental_uris":{"android":"levelo://app?vid=3e277f7c-a3e9-4a5a-bc73-5d77a3f423e0","ios":"levelo://app?vid=3e277f7c-a3e9-4a5a-bc73-5d77a3f423e0"},"vehicle_type_id":"4","last_reported":1747390275,"current_range_meters":22000,"station_id":"ce4bh312rcd13ifvqdk0","pricing_plan_id":"cebpf4jnsgd1na2vs0mg"},{"bike_id":"90c4f3ed-8a8f-43f5-98f1-53e172723336","system_id":"levelo_inurba_marseille","lat":43.28939,"lon":5.3962,"is_reserved":false,"is_disabled":false,"rental_uris":{"android":"levelo://app?vid=90c4f3ed-8a8f-43f5-98f1-53e172723336","ios":"levelo://app?vid=90c4f3ed-8a8f-43f5-98f1-53e172723336"},"vehicle_type_id":"4","last_reported":1747390275,"current_range_meters":22000,"station_id":"ce4bh3h2rcd13ifvqdn0","pricing_plan_id":"cebpf4jnsgd1na2vs0mg"},{"bike_id":"b49c46e4-b02a-4fb6-a939-e8eee6f4a650","system_id":"levelo_inurba_marseille","lat":43.24177,"lon":5.39728,"is_reserved":false,"is_disabled":false,"rental_uris":{"android":"levelo://app?vid=b49c46e4-b02a-4fb6-a939-e8eee6f4a650","ios":"levelo://app?vid=b49c46e4-b02a-4fb6-a939-e8eee6f4a650"},"vehicle_type_id":"4","last_reported":1747390275,"current_range_meters":22000,"station_id":"ce4bhn12rcd13ifvqgpg","pricing_plan_id":"cebpf4jnsgd1na2vs0mg"},{"bike_id":"bd73e106-8904-4073-a041-8d9e4933c9df","system_id":"levelo_inurba_marseille","lat":43.23183,"lon":5.39977,"is_reserved":false,"is_disabled":false,"rental_uris":{"android":"levelo://app?vid=bd73e106-8904-4073-a041-8d9e4933c9df","ios":"levelo://app?vid=bd73e106-8904-4073-a041-8d9e4933c9df"},"vehicle_type_id":"4","last_reported":1747390275,"current_range_meters":22000,"station_id":"ce4bhn12rcd13ifvqgqg","pricing_plan_id":"cebpf4jnsgd1na2vs0mg"},{"bike_id":"ba49636d-5d10-4efe-8e3a-e657d9279858","system_id":"levelo_inurba_marseille","lat":43.27492,"lon":5.42453,"is_reserved":false,"is_disabled":false,"rental_uris":{"android":"levelo://app?vid=ba49636d-5d10-4efe-8e3a-e657d9279858","ios":"levelo://app?vid=ba49636d-5d10-4efe-8e3a-e657d9279858"},"vehicle_type_id":"4","last_reported":1747390275,"current_range_meters":22000,"station_id":"ce4bhn92rcd13ifvqgrg","pricing_plan_id":"cebpf4jnsgd1na2vs0mg"},{"bike_id":"d9164cb2-37d4-400b-8fb8-a790777bcbbb","system_id":"levelo_inurba_marseille","lat":43.26936,"lon":5.40255,"is_reserved":false,"is_disabled":false,"rental_uris":{"android":"levelo://app?vid=d9164cb2-37d4-400b-8fb8-a790777bcbbb","ios":"levelo://app?vid=d9164cb2-37d4-400b-8fb8-a790777bcbbb"},"vehicle_type_id":"4","last_reported":1747390275,"current_range_meters":22000,"station_id":"cjm6bp8fraef2m0cb0m0","pricing_plan_id":"cebpf4jnsgd1na2vs0mg"},{"bike_id":"b66d27bc-3c5b-463f-8998-8ef0931b104b","system_id":"levelo_inurba_marseille","lat":43.29304,"lon":5.37446,"is_reserved":false,"is_disabled":false,"rental_uris":{"android":"levelo://app?vid=b66d27bc-3c5b-463f-8998-8ef0931b104b","ios":"levelo://app?vid=b66d27bc-3c5b-463f-8998-8ef0931b104b"},"vehicle_type_id":"4","last_reported":1747390275,"current_range_meters":22400,"station_id":"ce4bgi12rcd13ifvqb70","pricing_plan_id":"cebpf4jnsgd1na2vs0mg"},{"bike_id":"52baf98d-3419-4d1d-8e55-78fdd34e5077","system_id":"levelo_inurba_marseille","lat":43.30211,"lon":5.39464,"is_reserved":false,"is_disabled":false,"rental_uris":{"android":"levelo://app?vid=52baf98d-3419-4d1d-8e55-78fdd34e5077","ios":"levelo://app?vid=52baf98d-3419-4d1d-8e55-78fdd34e5077"},"vehicle_type_id":"4","last_reported":1747390275,"current_range_meters":22400,"station_id":"ce4bh0p2rcd13ifvqd70","pricing_plan_id":"cebpf4jnsgd1na2vs0mg"},{"bike_id":"19bd6c1f-a5f5-438c-9088-5ce5c412233d","system_id":"levelo_inurba_marseille","lat":43.27976,"lon":5.38748,"is_reserved":false,"is_disabled":false,"rental_uris":{"android":"levelo://app?vid=19bd6c1f-a5f5-438c-9088-5ce5c412233d","ios":"levelo://app?vid=19bd6c1f-a5f5-438c-9088-5ce5c412233d"},"vehicle_type_id":"4","last_reported":1747390275,"current_range_meters":22400,"station_id":"ce4bhg12rcd13ifvqf80","pricing_plan_id":"cebpf4jnsgd1na2vs0mg"},{"bike_id":"4c8352a4-7efe-4f73-82c3-980f3b57763f","system_id":"levelo_inurba_marseille","lat":43.30138,"lon":5.38076,"is_reserved":false,"is_disabled":false,"rental_uris":{"android":"levelo://app?vid=4c8352a4-7efe-4f73-82c3-980f3b57763f","ios":"levelo://app?vid=4c8352a4-7efe-4f73-82c3-980f3b57763f"},"vehicle_type_id":"4","last_reported":1747390275,"current_range_meters":22800,"station_id":"ce4bgjp2rcd13ifvqbh0","pricing_plan_id":"cebpf4jnsgd1na2vs0mg"},{"bike_id":"02a8d6bd-59ca-4100-ba9a-e35852c03ac4","system_id":"levelo_inurba_marseille","lat":43.31074,"lon":5.38364,"is_reserved":false,"is_disabled":false,"rental_uris":{"android":"levelo://app?vid=02a8d6bd-59ca-4100-ba9a-e35852c03ac4","ios":"levelo://app?vid=02a8d6bd-59ca-4100-ba9a-e35852c03ac4"},"vehicle_type_id":"4","last_reported":1747390275,"current_range_meters":22800,"station_id":"ce4bgv92rcd13ifvqcr0","pricing_plan_id":"cebpf4jnsgd1na2vs0mg"},{"bike_id":"95173506-5db7-435b-aee2-54f019b56a89","system_id":"levelo_inurba_marseille","lat":43.31706,"lon":5.40454,"is_reserved":false,"is_disabled":false,"rental_uris":{"android":"levelo://app?vid=95173506-5db7-435b-aee2-54f019b56a89","ios":"levelo://app?vid=95173506-5db7-435b-aee2-54f019b56a89"},"vehicle_type_id":"4","last_reported":1747390275,"current_range_meters":22800,"station_id":"ce4bh012rcd13ifvqd00","pricing_plan_id":"cebpf4jnsgd1na2vs0mg"},{"bike_id":"d2d9ca61-6882-45e4-8be5-ff0484b8b26b","system_id":"levelo_inurba_marseille","lat":43.28369,"lon":5.38624,"is_reserved":false,"is_disabled":false,"rental_uris":{"android":"levelo://app?vid=d2d9ca61-6882-45e4-8be5-ff0484b8b26b","ios":"levelo://app?vid=d2d9ca61-6882-45e4-8be5-ff0484b8b26b"},"vehicle_type_id":"4","last_reported":1747390275,"current_range_meters":22800,"station_id":"ce4bh492rcd13ifvqdvg","pricing_plan_id":"cebpf4jnsgd1na2vs0mg"},{"bike_id":"5b131ac0-16cb-4e56-a901-a3d07a2622f2","system_id":"levelo_inurba_marseille","lat":43.27805,"lon":5.40713,"is_reserved":false,"is_disabled":false,"rental_uris":{"android":"levelo://app?vid=5b131ac0-16cb-4e56-a901-a3d07a2622f2","ios":"levelo://app?vid=5b131ac0-16cb-4e56-a901-a3d07a2622f2"},"vehicle_type_id":"4","last_reported":1747390275,"current_range_meters":22800,"station_id":"ce4bhnh2rcd13ifvqgtg","pricing_plan_id":"cebpf4jnsgd1na2vs0mg"},{"bike_id":"84604906-3572-448a-848b-a6f5a7dc2055","system_id":"levelo_inurba_marseille","lat":43.32052,"lon":5.41531,"is_reserved":false,"is_disabled":false,"rental_uris":{"android":"levelo://app?vid=84604906-3572-448a-848b-a6f5a7dc2055","ios":"levelo://app?vid=84604906-3572-448a-848b-a6f5a7dc2055"},"vehicle_type_id":"4","last_reported":1747390275,"current_range_meters":22800,"station_id":"ce4bhq92rcd13ifvqhkg","pricing_plan_id":"cebpf4jnsgd1na2vs0mg"},{"bike_id":"3c3e1044-d47c-4919-9ae5-e65019cd3eb4","system_id":"levelo_inurba_marseille","lat":43.2716,"lon":5.42671,"is_reserved":false,"is_disabled":false,"rental_uris":{"android":"levelo://app?vid=3c3e1044-d47c-4919-9ae5-e65019cd3eb4","ios":"levelo://app?vid=3c3e1044-d47c-4919-9ae5-e65019cd3eb4"},"vehicle_type_id":"4","last_reported":1747390275,"current_range_meters":23200,"station_id":"","pricing_plan_id":"cebpf4jnsgd1na2vs0mg"},{"bike_id":"2a9e041d-23a6-48ab-a196-b5b728f9e749","system_id":"levelo_inurba_marseille","lat":43.31147,"lon":5.38287,"is_reserved":false,"is_disabled":false,"rental_uris":{"android":"levelo://app?vid=2a9e041d-23a6-48ab-a196-b5b728f9e749","ios":"levelo://app?vid=2a9e041d-23a6-48ab-a196-b5b728f9e749"},"vehicle_type_id":"4","last_reported":1747390275,"current_range_meters":24000,"station_id":"","pricing_plan_id":"cebpf4jnsgd1na2vs0mg"},{"bike_id":"f933ff1d-8b82-4da1-8590-98331bcaec09","system_id":"levelo_inurba_marseille","lat":43.29301,"lon":5.3746,"is_reserved":false,"is_disabled":false,"rental_uris":{"android":"levelo://app?vid=f933ff1d-8b82-4da1-8590-98331bcaec09","ios":"levelo://app?vid=f933ff1d-8b82-4da1-8590-98331bcaec09"},"vehicle_type_id":"4","last_reported":1747390275,"current_range_meters":24000,"station_id":"ce4bgi12rcd13ifvqb70","pricing_plan_id":"cebpf4jnsgd1na2vs0mg"},{"bike_id":"cb5a3ae1-8dca-4aec-b965-5425e22ee9cc","system_id":"levelo_inurba_marseille","lat":43.29529,"lon":5.37513,"is_reserved":false,"is_disabled":false,"rental_uris":{"android":"levelo://app?vid=cb5a3ae1-8dca-4aec-b965-5425e22ee9cc","ios":"levelo://app?vid=cb5a3ae1-8dca-4aec-b965-5425e22ee9cc"},"vehicle_type_id":"4","last_reported":1747390275,"current_range_meters":24000,"station_id":"ce4bgkp2rcd13ifvqbmg","pricing_plan_id":"cebpf4jnsgd1na2vs0mg"},{"bike_id":"f3e0c628-780f-4f3c-a76a-dd2700b8cd34","system_id":"levelo_inurba_marseille","lat":43.30283,"lon":5.3768,"is_reserved":false,"is_disabled":false,"rental_uris":{"android":"levelo://app?vid=f3e0c628-780f-4f3c-a76a-dd2700b8cd34","ios":"levelo://app?vid=f3e0c628-780f-4f3c-a76a-dd2700b8cd34"},"vehicle_type_id":"4","last_reported":1747390275,"current_range_meters":24000,"station_id":"ce4bguh2rcd13ifvqcj0","pricing_plan_id":"cebpf4jnsgd1na2vs0mg"},{"bike_id":"97cc9abd-599c-43fd-95bd-f61317988879","system_id":"levelo_inurba_marseille","lat":43.29417,"lon":5.3863,"is_reserved":false,"is_disabled":false,"rental_uris":{"android":"levelo://app?vid=97cc9abd-599c-43fd-95bd-f61317988879","ios":"levelo://app?vid=97cc9abd-599c-43fd-95bd-f61317988879"},"vehicle_type_id":"4","last_reported":1747390275,"current_range_meters":24000,"station_id":"ce4bh2h2rcd13ifvqdh0","pricing_plan_id":"cebpf4jnsgd1na2vs0mg"},{"bike_id":"15b596fe-37b5-49a1-9527-50ec65ef72dd","system_id":"levelo_inurba_marseille","lat":43.290023,"lon":5.356083,"is_reserved":false,"is_disabled":false,"rental_uris":{"android":"levelo://app?vid=15b596fe-37b5-49a1-9527-50ec65ef72dd","ios":"levelo://app?vid=15b596fe-37b5-49a1-9527-50ec65ef72dd"},"vehicle_type_id":"4","last_reported":1747390275,"current_range_meters":24000,"station_id":"ce4bhb92rcd13ifvqen0","pricing_plan_id":"cebpf4jnsgd1na2vs0mg"},{"bike_id":"49a2ea1f-f380-46e6-b47e-affd2a8e53b5","system_id":"levelo_inurba_marseille","lat":43.28273,"lon":5.35057,"is_reserved":false,"is_disabled":false,"rental_uris":{"android":"levelo://app?vid=49a2ea1f-f380-46e6-b47e-affd2a8e53b5","ios":"levelo://app?vid=49a2ea1f-f380-46e6-b47e-affd2a8e53b5"},"vehicle_type_id":"4","last_reported":1747390275,"current_range_meters":24000,"station_id":"ce4bhbp2rcd13ifvqerg","pricing_plan_id":"cebpf4jnsgd1na2vs0mg"},{"bike_id":"46547a43-ed0e-4b6c-9293-72652878cb52","system_id":"levelo_inurba_marseille","lat":43.27206,"lon":5.39186,"is_reserved":false,"is_disabled":false,"rental_uris":{"android":"levelo://app?vid=46547a43-ed0e-4b6c-9293-72652878cb52","ios":"levelo://app?vid=46547a43-ed0e-4b6c-9293-72652878cb52"},"vehicle_type_id":"4","last_reported":1747390275,"current_range_meters":24000,"station_id":"ce4bhhp2rcd13ifvqfm0","pricing_plan_id":"cebpf4jnsgd1na2vs0mg"},{"bike_id":"accd715f-72f9-4fee-9f64-f5569eaf2da4","system_id":"levelo_inurba_marseille","lat":43.2721,"lon":5.39181,"is_reserved":false,"is_disabled":false,"rental_uris":{"android":"levelo://app?vid=accd715f-72f9-4fee-9f64-f5569eaf2da4","ios":"levelo://app?vid=accd715f-72f9-4fee-9f64-f5569eaf2da4"},"vehicle_type_id":"4","last_reported":1747390275,"current_range_meters":24000,"station_id":"ce4bhhp2rcd13ifvqfm0","pricing_plan_id":"cebpf4jnsgd1na2vs0mg"},{"bike_id":"fb9b67ac-af75-4842-94de-9555f8e5a4f9","system_id":"levelo_inurba_marseille","lat":43.23148,"lon":5.43715,"is_reserved":false,"is_disabled":false,"rental_uris":{"android":"levelo://app?vid=fb9b67ac-af75-4842-94de-9555f8e5a4f9","ios":"levelo://app?vid=fb9b67ac-af75-4842-94de-9555f8e5a4f9"},"vehicle_type_id":"4","last_reported":1747390275,"current_range_meters":24000,"station_id":"ce4bhmp2rcd13ifvqgog","pricing_plan_id":"cebpf4jnsgd1na2vs0mg"},{"bike_id":"007f087c-c3f7-4b0d-bcc0-1d9d45e1ec16","system_id":"levelo_inurba_marseille","lat":43.23184,"lon":5.39982,"is_reserved":false,"is_disabled":false,"rental_uris":{"android":"levelo://app?vid=007f087c-c3f7-4b0d-bcc0-1d9d45e1ec16","ios":"levelo://app?vid=007f087c-c3f7-4b0d-bcc0-1d9d45e1ec16"},"vehicle_type_id":"4","last_reported":1747390275,"current_range_meters":24000,"station_id":"ce4bhn12rcd13ifvqgqg","pricing_plan_id":"cebpf4jnsgd1na2vs0mg"},{"bike_id":"f0c33de0-1898-482a-964b-eda9aa365877","system_id":"levelo_inurba_marseille","lat":43.2781,"lon":5.40715,"is_reserved":false,"is_disabled":false,"rental_uris":{"android":"levelo://app?vid=f0c33de0-1898-482a-964b-eda9aa365877","ios":"levelo://app?vid=f0c33de0-1898-482a-964b-eda9aa365877"},"vehicle_type_id":"4","last_reported":1747390275,"current_range_meters":24000,"station_id":"ce4bhnh2rcd13ifvqgtg","pricing_plan_id":"cebpf4jnsgd1na2vs0mg"},{"bike_id":"54fb5dd7-8f21-4363-ada4-243d7bc95b3b","system_id":"levelo_inurba_marseille","lat":43.326553,"lon":5.409936,"is_reserved":false,"is_disabled":false,"rental_uris":{"android":"levelo://app?vid=54fb5dd7-8f21-4363-ada4-243d7bc95b3b","ios":"levelo://app?vid=54fb5dd7-8f21-4363-ada4-243d7bc95b3b"},"vehicle_type_id":"4","last_reported":1747390275,"current_range_meters":24000,"station_id":"ce4bhpp2rcd13ifvqhgg","pricing_plan_id":"cebpf4jnsgd1na2vs0mg"},{"bike_id":"ac5cf0e7-0047-4184-a947-61c1221a383b","system_id":"levelo_inurba_marseille","lat":43.3248,"lon":5.36571,"is_reserved":false,"is_disabled":false,"rental_uris":{"android":"levelo://app?vid=ac5cf0e7-0047-4184-a947-61c1221a383b","ios":"levelo://app?vid=ac5cf0e7-0047-4184-a947-61c1221a383b"},"vehicle_type_id":"4","last_reported":1747390275,"current_range_meters":24000,"station_id":"ce4bhs12rcd13ifvqhvg","pricing_plan_id":"cebpf4jnsgd1na2vs0mg"},{"bike_id":"fb953460-9117-49ef-bbc3-519521f2e2dc","system_id":"levelo_inurba_marseille","lat":43.30817,"lon":5.36846,"is_reserved":false,"is_disabled":false,"rental_uris":{"android":"levelo://app?vid=fb953460-9117-49ef-bbc3-519521f2e2dc","ios":"levelo://app?vid=fb953460-9117-49ef-bbc3-519521f2e2dc"},"vehicle_type_id":"4","last_reported":1747390275,"current_range_meters":24400,"station_id":"","pricing_plan_id":"cebpf4jnsgd1na2vs0mg"},{"bike_id":"f49d50e3-4d83-4a75-9bd9-8ccf0f910dd3","system_id":"levelo_inurba_marseille","lat":43.29248,"lon":5.37619,"is_reserved":false,"is_disabled":false,"rental_uris":{"android":"levelo://app?vid=f49d50e3-4d83-4a75-9bd9-8ccf0f910dd3","ios":"levelo://app?vid=f49d50e3-4d83-4a75-9bd9-8ccf0f910dd3"},"vehicle_type_id":"4","last_reported":1747390275,"current_range_meters":24400,"station_id":"ce4bgi12rcd13ifvqb80","pricing_plan_id":"cebpf4jnsgd1na2vs0mg"},{"bike_id":"e44f832a-3f6b-468c-98ae-9fcd37290a35","system_id":"levelo_inurba_marseille","lat":43.29786,"lon":5.38106,"is_reserved":false,"is_disabled":false,"rental_uris":{"android":"levelo://app?vid=e44f832a-3f6b-468c-98ae-9fcd37290a35","ios":"levelo://app?vid=e44f832a-3f6b-468c-98ae-9fcd37290a35"},"vehicle_type_id":"4","last_reported":1747390275,"current_range_meters":24400,"station_id":"ce4bgip2rcd13ifvqbb0","pricing_plan_id":"cebpf4jnsgd1na2vs0mg"},{"bike_id":"11ba9a9a-9d48-417d-bcb9-ffebe98e16c2","system_id":"levelo_inurba_marseille","lat":43.30926,"lon":5.36834,"is_reserved":false,"is_disabled":false,"rental_uris":{"android":"levelo://app?vid=11ba9a9a-9d48-417d-bcb9-ffebe98e16c2","ios":"levelo://app?vid=11ba9a9a-9d48-417d-bcb9-ffebe98e16c2"},"vehicle_type_id":"4","last_reported":1747390275,"current_range_meters":24400,"station_id":"ce4bgn92rcd13ifvqbvg","pricing_plan_id":"cebpf4jnsgd1na2vs0mg"},{"bike_id":"157b08e3-6a8c-44cb-ac16-b6dd3be076a6","system_id":"levelo_inurba_marseille","lat":43.30908,"lon":5.36907,"is_reserved":false,"is_disabled":false,"rental_uris":{"android":"levelo://app?vid=157b08e3-6a8c-44cb-ac16-b6dd3be076a6","ios":"levelo://app?vid=157b08e3-6a8c-44cb-ac16-b6dd3be076a6"},"vehicle_type_id":"4","last_reported":1747390275,"current_range_meters":24400,"station_id":"ce4bgn92rcd13ifvqbvg","pricing_plan_id":"cebpf4jnsgd1na2vs0mg"},{"bike_id":"06a9579f-bc4f-4f31-818c-09f04e310e5c","system_id":"levelo_inurba_marseille","lat":43.30202,"lon":5.36615,"is_reserved":false,"is_disabled":false,"rental_uris":{"android":"levelo://app?vid=06a9579f-bc4f-4f31-818c-09f04e310e5c","ios":"levelo://app?vid=06a9579f-bc4f-4f31-818c-09f04e310e5c"},"vehicle_type_id":"4","last_reported":1747390275,"current_range_meters":24400,"station_id":"ce4bgrh2rcd13ifvqc8g","pricing_plan_id":"cebpf4jnsgd1na2vs0mg"},{"bike_id":"612408b1-06a9-4fc7-bc11-bb3df2d56236","system_id":"levelo_inurba_marseille","lat":43.30212,"lon":5.39473,"is_reserved":false,"is_disabled":false,"rental_uris":{"android":"levelo://app?vid=612408b1-06a9-4fc7-bc11-bb3df2d56236","ios":"levelo://app?vid=612408b1-06a9-4fc7-bc11-bb3df2d56236"},"vehicle_type_id":"4","last_reported":1747390275,"current_range_meters":24400,"station_id":"ce4bh0p2rcd13ifvqd70","pricing_plan_id":"cebpf4jnsgd1na2vs0mg"},{"bike_id":"86b0942a-23eb-4a18-96f0-454cf84c2408","system_id":"levelo_inurba_marseille","lat":43.28496,"lon":5.38572,"is_reserved":false,"is_disabled":false,"rental_uris":{"android":"levelo://app?vid=86b0942a-23eb-4a18-96f0-454cf84c2408","ios":"levelo://app?vid=86b0942a-23eb-4a18-96f0-454cf84c2408"},"vehicle_type_id":"4","last_reported":1747390275,"current_range_meters":24400,"station_id":"ce4bh8p2rcd13ifvqeb0","pricing_plan_id":"cebpf4jnsgd1na2vs0mg"},{"bike_id":"f18f6691-deb3-4aa8-a28d-2d06fc5e69a8","system_id":"levelo_inurba_marseille","lat":43.2923,"lon":5.36071,"is_reserved":false,"is_disabled":false,"rental_uris":{"android":"levelo://app?vid=f18f6691-deb3-4aa8-a28d-2d06fc5e69a8","ios":"levelo://app?vid=f18f6691-deb3-4aa8-a28d-2d06fc5e69a8"},"vehicle_type_id":"4","last_reported":1747390275,"current_range_meters":24400,"station_id":"ce4bhbh2rcd13ifvqeqg","pricing_plan_id":"cebpf4jnsgd1na2vs0mg"},{"bike_id":"d76ea7ed-4f02-4e97-93f6-de2659dab8ed","system_id":"levelo_inurba_marseille","lat":43.34145,"lon":5.40907,"is_reserved":false,"is_disabled":false,"rental_uris":{"android":"levelo://app?vid=d76ea7ed-4f02-4e97-93f6-de2659dab8ed","ios":"levelo://app?vid=d76ea7ed-4f02-4e97-93f6-de2659dab8ed"},"vehicle_type_id":"4","last_reported":1747390275,"current_range_meters":24400,"station_id":"ce4bhqh2rcd13ifvqhlg","pricing_plan_id":"cebpf4jnsgd1na2vs0mg"},{"bike_id":"0a01eb36-34ee-416f-b68d-e95eb40a9b3c","system_id":"levelo_inurba_marseille","lat":43.335986,"lon":5.41029,"is_reserved":false,"is_disabled":false,"rental_uris":{"android":"levelo://app?vid=0a01eb36-34ee-416f-b68d-e95eb40a9b3c","ios":"levelo://app?vid=0a01eb36-34ee-416f-b68d-e95eb40a9b3c"},"vehicle_type_id":"4","last_reported":1747390275,"current_range_meters":24400,"station_id":"ce4bhqh2rcd13ifvqhmg","pricing_plan_id":"cebpf4jnsgd1na2vs0mg"},{"bike_id":"ed886a9b-bd39-426c-a89e-1a2b32330dd7","system_id":"levelo_inurba_marseille","lat":43.30733,"lon":5.42443,"is_reserved":false,"is_disabled":false,"rental_uris":{"android":"levelo://app?vid=ed886a9b-bd39-426c-a89e-1a2b32330dd7","ios":"levelo://app?vid=ed886a9b-bd39-426c-a89e-1a2b32330dd7"},"vehicle_type_id":"4","last_reported":1747390275,"current_range_meters":24400,"station_id":"st_cvj6ca6bvosntc0bfgr0","pricing_plan_id":"cebpf4jnsgd1na2vs0mg"},{"bike_id":"19456222-7d38-48cf-a950-06daadd07927","system_id":"levelo_inurba_marseille","lat":43.25023,"lon":5.37544,"is_reserved":false,"is_disabled":false,"rental_uris":{"android":"levelo://app?vid=19456222-7d38-48cf-a950-06daadd07927","ios":"levelo://app?vid=19456222-7d38-48cf-a950-06daadd07927"},"vehicle_type_id":"4","last_reported":1747390275,"current_range_meters":24800,"station_id":"","pricing_plan_id":"cebpf4jnsgd1na2vs0mg"},{"bike_id":"393d49ee-005c-4f12-b61d-a8a859560c9f","system_id":"levelo_inurba_marseille","lat":43.30528,"lon":5.38424,"is_reserved":false,"is_disabled":false,"rental_uris":{"android":"levelo://app?vid=393d49ee-005c-4f12-b61d-a8a859560c9f","ios":"levelo://app?vid=393d49ee-005c-4f12-b61d-a8a859560c9f"},"vehicle_type_id":"4","last_reported":1747390275,"current_range_meters":24800,"station_id":"ce4bgg92rcd13ifvqb30","pricing_plan_id":"cebpf4jnsgd1na2vs0mg"},