{"last_updated":1758917471,"ttl":60,"version":"2.2","data":{"bikes":[{"bike_id":"4b8e5ac4-4ef4-4562-bc26-8c193a0b1403","system_id":"levelo_inurba_marseille","lat":43.278404,"lon":5.39222,"is_reserved":false,"is_disabled":false,"rental_uris":{"android":"levelo://app?vid=4b8e5ac4-4ef4-4562-bc26-8c193a0b1403","ios":"levelo://app?vid=4b8e5ac4-4ef4-4562-bc26-8c193a0b1403"},"vehicle_type_id":"4","last_reported":1758917471,"current_range_meters":2800,"station_id":"ce4bhjp2rcd13ifvqga0","pricing_plan_id":"cebpf4jnsgd1na2vs0mg"},{"bike_id":"0a46c758-fdbe-4cc3-a379-e5099d1b8e6c","system_id":"levelo_inurba_marseille","lat":43.27908,"lon":5.39578,"is_reserved":false,"is_disabled":false,"rental_uris":{"android":"levelo://app?vid=0a46c758-fdbe-4cc3-a379-e5099d1b8e6c","ios":"levelo://app?vid=0a46c758-fdbe-4cc3-a379-e5099d1b8e6c"},"vehicle_type_id":"4","last_reported":1758917471,"current_range_meters":2800,"station_id":"ce4bhf92rcd13ifvqf40","pricing_plan_id":"cebpf4jnsgd1na2vs0mg"},{"bike_id":"d48a7cce-412a-4df9-b3ae-f439f6c8af72","system_id":"levelo_inurba_marseille","lat":43.31222,"lon":5.36861,"is_reserved":false,"is_disabled":false,"rental_uris":{"android":"levelo://app?vid=d48a7cce-412a-4df9-b3ae-f439f6c8af72","ios":"levelo://app?vid=d48a7cce-412a-4df9-b3ae-f439f6c8af72"},"vehicle_type_id":"4","last_reported":1758917471,"current_range_meters":2000,"station_id":"ce4bgl92rcd13ifvqbq0","pricing_plan_id":"cebpf4jnsgd1na2vs0mg"},{"bike_id":"095ad649-af1d-47ba-8264-b108f919e33d","system_id":"levelo_inurba_marseille","lat":43.2558,"lon":5.3825,"is_reserved":false,"is_disabled":false,"rental_uris":{"android":"levelo://app?vid=095ad649-af1d-47ba-8264-b108f919e33d","ios":"levelo://app?vid=095ad649-af1d-47ba-8264-b108f919e33d"},"vehicle_type_id":"4","last_reported":1758917471,"current_range_meters":2800,"station_id":"ce4bhih2rcd13ifvqfs0","pricing_plan_id":"cebpf4jnsgd1na2vs0mg"},{"bike_id":"8e8da76b-32b2-4bc4-9a54-fd078d707b39","system_id":"levelo_inurba_marseille","lat":43.322922,"lon":5.382638,"is_reserved":false,"is_disabled":false,"rental_uris":{"android":"levelo://app?vid=8e8da76b-32b2-4bc4-9a54-fd078d707b39","ios":"levelo://app?vid=8e8da76b-32b2-4bc4-9a54-fd078d707b39"},"vehicle_type_id":"4","last_reported":1758917471,"current_range_meters":2800,"station_id":"ce4bhr12rcd13ifvqhqg","pricing_plan_id":"cebpf4jnsgd1na2vs0mg"},{"bike_id":"0917de5b-3ddd-4b25-92bb-460c6d717a5f","system_id":"levelo_inurba_marseille","lat":43.31267,"lon":5.4106,"is_reserved":false,"is_disabled":false,"rental_uris":{"android":"levelo://app?vid=0917de5b-3ddd-4b25-92bb-460c6d717a5f","ios":"levelo://app?vid=0917de5b-3ddd-4b25-92bb-460c6d717a5f"},"vehicle_type_id":"4","last_reported":1758917471,"current_range_meters":2800,"station_id":"","pricing_plan_id":"cebpf4jnsgd1na2vs0mg"},{"bike_id":"09f62ba6-af65-412e-aa52-83df4d376991","system_id":"levelo_inurba_marseille","lat":43.31109,"lon":5.36748,"is_reserved":false,"is_disabled":false,"rental_uris":{"android":"levelo://app?vid=09f62ba6-af65-412e-aa52-83df4d376991","ios":"levelo://app?vid=09f62ba6-af65-412e-aa52-83df4d376991"},"vehicle_type_id":"4","last_reported":1758917471,"current_range_meters":3200,"station_id":"","pricing_plan_id":"cebpf4jnsgd1na2vs0mg"},{"bike_id":"5001b619-8a21-45c9-8930-9794a5346fdb","system_id":"levelo_inurba_marseille","lat":43.28769,"lon":5.38567,"is_reserved":false,"is_disabled":false,"rental_uris":{"android":"levelo://app?vid=5001b619-8a21-45c9-8930-9794a5346fdb","ios":"levelo://app?vid=5001b619-8a21-45c9-8930-9794a5346fdb"},"vehicle_type_id":"4","last_reported":1758917471,"current_range_meters":3200,"station_id":"","pricing_plan_id":"cebpf4jnsgd1na2vs0mg"},{"bike_id":"e10df59f-cb2a-449c-be55-70e6cbf8a08c","system_id":"levelo_inurba_marseille","lat":43.29684,"lon":5.37707,"is_reserved":false,"is_disabled":false,"rental_uris":{"android":"levelo://app?vid=e10df59f-cb2a-449c-be55-70e6cbf8a08c","ios":"levelo://app?vid=e10df59f-cb2a-449c-be55-70e6cbf8a08c"},"vehicle_type_id":"4","last_reported":1758917471,"current_range_meters":3200,"station_id":"ce4bgkh2rcd13ifvqbl0","pricing_plan_id":"cebpf4jnsgd1na2vs0mg"},{"bike_id":"61134fa8-f132-4a88-83ce-8030b54e5447","system_id":"levelo_inurba_marseille","lat":43.30302,"lon":5.36881,"is_reserved":false,"is_disabled":false,"rental_uris":{"android":"levelo://app?vid=61134fa8-f132-4a88-83ce-8030b54e5447","ios":"levelo://app?vid=61134fa8-f132-4a88-83ce-8030b54e5447"},"vehicle_type_id":"4","last_reported":1758917471,"current_range_meters":2800,"station_id":"ce4bgqh2rcd13ifvqc5g","pricing_plan_id":"cebpf4jnsgd1na2vs0mg"},{"bike_id":"de4dc238-7f35-4c0f-8cdc-f1c985d38989","system_id":"levelo_inurba_marseille","lat":43.28859,"lon":5.42529,"is_reserved":false,"is_disabled":true,"rental_uris":{"android":"levelo://app?vid=de4dc238-7f35-4c0f-8cdc-f1c985d38989","ios":"levelo://app?vid=de4dc238-7f35-4c0f-8cdc-f1c985d38989"},"vehicle_type_id":"4","last_reported":1758917471,"current_range_meters":3200,"station_id":"","pricing_plan_id":"cebpf4jnsgd1na2vs0mg"},{"bike_id":"beba3815-8601-4ada-befa-147f6dc99e67","system_id":"levelo_inurba_marseille","lat":43.284851,"lon":5.394075,"is_reserved":false,"is_disabled":false,"rental_uris":{"android":"levelo://app?vid=beba3815-8601-4ada-befa-147f6dc99e67","ios":"levelo://app?vid=beba3815-8601-4ada-befa-147f6dc99e67"},"vehicle_type_id":"4","last_reported":1758917471,"current_range_meters":3200,"station_id":"ce4bh292rcd13ifvqdg0","pricing_plan_id":"cebpf4jnsgd1na2vs0mg"},{"bike_id":"0460712a-cbd6-4bd5-bc99-ba563ccb4675","system_id":"levelo_inurba_marseille","lat":43.26207,"lon":5.37925,"is_reserved":false,"is_disabled":false,"rental_uris":{"android":"levelo://app?vid=0460712a-cbd6-4bd5-bc99-ba563ccb4675","ios":"levelo://app?vid=0460712a-cbd6-4bd5-bc99-ba563ccb4675"},"vehicle_type_id":"4","last_reported":1758917471,"current_range_meters":3200,"station_id":"ce4bhjp2rcd13ifvqg90","pricing_plan_id":"cebpf4jnsgd1na2vs0mg"},{"bike_id":"c0e6a7ff-6589-41e9-9153-b1c51e3c2be5","system_id":"levelo_inurba_marseille","lat":43.28358,"lon":5.38102,"is_reserved":false,"is_disabled":false,"rental_uris":{"android":"levelo://app?vid=c0e6a7ff-6589-41e9-9153-b1c51e3c2be5","ios":"levelo://app?vid=c0e6a7ff-6589-41e9-9153-b1c51e3c2be5"},"vehicle_type_id":"4","last_reported":1758917471,"current_range_meters":3200,"station_id":"ce4bh412rcd13ifvqdr0","pricing_plan_id":"cebpf4jnsgd1na2vs0mg"},{"bike_id":"1e0adcb6-bf0d-4e61-b3f5-707adefe410e","system_id":"levelo_inurba_marseille","lat":43.29276,"lon":5.36853,"is_reserved":false,"is_disabled":false,"rental_uris":{"android":"levelo://app?vid=1e0adcb6-bf0d-4e61-b3f5-707adefe410e","ios":"levelo://app?vid=1e0adcb6-bf0d-4e61-b3f5-707adefe410e"},"vehicle_type_id":"4","last_reported":1758917471,"current_range_meters":3600,"station_id":"ce4bhbp2rcd13ifvqesg","pricing_plan_id":"cebpf4jnsgd1na2vs0mg"},{"bike_id":"7f78ea54-5a66-43c5-ba61-bc49c7d22fe9","system_id":"levelo_inurba_marseille","lat":43.29262,"lon":5.38443,"is_reserved":false,"is_disabled":false,"rental_uris":{"android":"levelo://app?vid=7f78ea54-5a66-43c5-ba61-bc49c7d22fe9","ios":"levelo://app?vid=7f78ea54-5a66-43c5-ba61-bc49c7d22fe9"},"vehicle_type_id":"4","last_reported":1758917471,"current_range_meters":4000,"station_id":"ce4bh692rcd13ifvqea0","pricing_plan_id":"cebpf4jnsgd1na2vs0mg"},{"bike_id":"644a928a-d267-4bf1-b438-b7f7eb2dc467","system_id":"levelo_inurba_marseille","lat":43.28703,"lon":5.37393,"is_reserved":false,"is_disabled":false,"rental_uris":{"android":"levelo://app?vid=644a928a-d267-4bf1-b438-b7f7eb2dc467","ios":"levelo://app?vid=644a928a-d267-4bf1-b438-b7f7eb2dc467"},"vehicle_type_id":"4","last_reported":1758917471,"current_range_meters":4000,"station_id":"ce4bh3p2rcd13ifvqdq0","pricing_plan_id":"cebpf4jnsgd1na2vs0mg"},{"bike_id":"194c48d5-6849-45bf-8a89-f8fcfbf6ac7f","system_id":"levelo_inurba_marseille","lat":43.22566,"lon":5.41629,"is_reserved":false,"is_disabled":false,"rental_uris":{"android":"levelo://app?vid=194c48d5-6849-45bf-8a89-f8fcfbf6ac7f","ios":"levelo://app?vid=194c48d5-6849-45bf-8a89-f8fcfbf6ac7f"},"vehicle_type_id":"4","last_reported":1758917471,"current_range_meters":4000,"station_id":"st_d2o4gvlbi1j2169b742g","pricing_plan_id":"cebpf4jnsgd1na2vs0mg"},{"bike_id":"9133277c-a4df-4a98-b37f-65e702660af6","system_id":"levelo_inurba_marseille","lat":43.29058,"lon":5.38884,"is_reserved":false,"is_disabled":false,"rental_uris":{"android":"levelo://app?vid=9133277c-a4df-4a98-b37f-65e702660af6","ios":"levelo://app?vid=9133277c-a4df-4a98-b37f-65e702660af6"},"vehicle_type_id":"4","last_reported":1758917471,"current_range_meters":4000,"station_id":"","pricing_plan_id":"cebpf4jnsgd1na2vs0mg"},{"bike_id":"4967fbfe-ba28-46be-a651-2ceddedb5e6e","system_id":"levelo_inurba_marseille","lat":43.26234,"lon":5.40454,"is_reserved":false,"is_disabled":false,"rental_uris":{"android":"levelo://app?vid=4967fbfe-ba28-46be-a651-2ceddedb5e6e","ios":"levelo://app?vid=4967fbfe-ba28-46be-a651-2ceddedb5e6e"},"vehicle_type_id":"4","last_reported":1758917471,"current_range_meters":4400,"station_id":"ce4bhmh2rcd13ifvqgmg","pricing_plan_id":"cebpf4jnsgd1na2vs0mg"},{"bike_id":"9ea748f3-afd6-40e3-8624-5f7118986ff2","system_id":"levelo_inurba_marseille","lat":43.28268,"lon":5.35061,"is_reserved":false,"is_disabled":false,"rental_uris":{"android":"levelo://app?vid=9ea748f3-afd6-40e3-8624-5f7118986ff2","ios":"levelo://app?vid=9ea748f3-afd6-40e3-8624-5f7118986ff2"},"vehicle_type_id":"4","last_reported":1758917471,"current_range_meters":4000,"station_id":"ce4bhbp2rcd13ifvqerg","pricing_plan_id":"cebpf4jnsgd1na2vs0mg"},{"bike_id":"2e379142-cb2c-4a52-a298-a5dbe9b1e7b1","system_id":"levelo_inurba_marseille","lat":43.2844,"lon":5.39201,"is_reserved":false,"is_disabled":false,"rental_uris":{"android":"levelo://app?vid=2e379142-cb2c-4a52-a298-a5dbe9b1e7b1","ios":"levelo://app?vid=2e379142-cb2c-4a52-a298-a5dbe9b1e7b1"},"vehicle_type_id":"4","last_reported":1758917471,"current_range_meters":4800,"station_id":"ce4bhoh2rcd13ifvqh5g","pricing_plan_id":"cebpf4jnsgd1na2vs0mg"},{"bike_id":"588bb5c6-d90f-4edd-b1de-2d2164a39c00","system_id":"levelo_inurba_marseille","lat":43.32948,"lon":5.39046,"is_reserved":false,"is_disabled":false,"rental_uris":{"android":"levelo://app?vid=588bb5c6-d90f-4edd-b1de-2d2164a39c00","ios":"levelo://app?vid=588bb5c6-d90f-4edd-b1de-2d2164a39c00"},"vehicle_type_id":"4","last_reported":1758917471,"current_range_meters":4800,"station_id":"","pricing_plan_id":"cebpf4jnsgd1na2vs0mg"},{"bike_id":"63f0fb0e-a32d-4d7f-822e-9bb11a603c14","system_id":"levelo_inurba_marseille","lat":43.280015,"lon":5.400053,"is_reserved":false,"is_disabled":false,"rental_uris":{"android":"levelo://app?vid=63f0fb0e-a32d-4d7f-822e-9bb11a603c14","ios":"levelo://app?vid=63f0fb0e-a32d-4d7f-822e-9bb11a603c14"},"vehicle_type_id":"4","last_reported":1758917471,"current_range_meters":4800,"station_id":"ce4bho92rcd13ifvqh4g","pricing_plan_id":"cebpf4jnsgd1na2vs0mg"},{"bike_id":"3cc8249a-b149-4ab0-8a3e-52241bb02fdd","system_id":"levelo_inurba_marseille","lat":43.29686,"lon":5.38031,"is_reserved":false,"is_disabled":false,"rental_uris":{"android":"levelo://app?vid=3cc8249a-b149-4ab0-8a3e-52241bb02fdd","ios":"levelo://app?vid=3cc8249a-b149-4ab0-8a3e-52241bb02fdd"},"vehicle_type_id":"4","last_reported":1758917471,"current_range_meters":5600,"station_id":"","pricing_plan_id":"cebpf4jnsgd1na2vs0mg"},{"bike_id":"152e7088-bc47-4113-9366-24eb32f78d94","system_id":"levelo_inurba_marseille","lat":43.29259,"lon":5.4091,"is_reserved":false,"is_disabled":false,"rental_uris":{"android":"levelo://app?vid=152e7088-bc47-4113-9366-24eb32f78d94","ios":"levelo://app?vid=152e7088-bc47-4113-9366-24eb32f78d94"},"vehicle_type_id":"4","last_reported":1758917471,"current_range_meters":5600,"station_id":"ce4bh192rcd13ifvqdc0","pricing_plan_id":"cebpf4jnsgd1na2vs0mg"},{"bike_id":"d143b4d9-94a5-4eca-bbe7-9d0fb7d3a215","system_id":"levelo_inurba_marseille","lat":43.28612,"lon":5.351,"is_reserved":false,"is_disabled":false,"rental_uris":{"android":"levelo://app?vid=d143b4d9-94a5-4eca-bbe7-9d0fb7d3a215","ios":"levelo://app?vid=d143b4d9-94a5-4eca-bbe7-9d0fb7d3a215"},"vehicle_type_id":"4","last_reported":1758917471,"current_range_meters":5600,"station_id":"ce4bhch2rcd13ifvqeug","pricing_plan_id":"cebpf4jnsgd1na2vs0mg"},{"bike_id":"64279a81-ee34-4c3b-b57a-9b62bb0c0a24","system_id":"levelo_inurba_marseille","lat":43.31549,"lon":5.4316,"is_reserved":false,"is_disabled":false,"rental_uris":{"android":"levelo://app?vid=64279a81-ee34-4c3b-b57a-9b62bb0c0a24","ios":"levelo://app?vid=64279a81-ee34-4c3b-b57a-9b62bb0c0a24"},"vehicle_type_id":"4","last_reported":1758917471,"current_range_meters":5600,"station_id":"","pricing_plan_id":"cebpf4jnsgd1na2vs0mg"},{"bike_id":"7d9c893e-52dd-45e6-aa9f-5fa5fcf1a192","system_id":"levelo_inurba_marseille","lat":43.3093,"lon":5.40148,"is_reserved":false,"is_disabled":true,"rental_uris":{"android":"levelo://app?vid=7d9c893e-52dd-45e6-aa9f-5fa5fcf1a192","ios":"levelo://app?vid=7d9c893e-52dd-45e6-aa9f-5fa5fcf1a192"},"vehicle_type_id":"4","last_reported":1758917471,"current_range_meters":6000,"station_id":"ce4bgvp2rcd13ifvqct0","pricing_plan_id":"cebpf4jnsgd1na2vs0mg"},{"bike_id":"d6a80654-a684-47a2-8ad6-232c95f3dfd6","system_id":"levelo_inurba_marseille","lat":43.306,"lon":5.39365,"is_reserved":false,"is_disabled":false,"rental_uris":{"android":"levelo://app?vid=d6a80654-a684-47a2-8ad6-232c95f3dfd6","ios":"levelo://app?vid=d6a80654-a684-47a2-8ad6-232c95f3dfd6"},"vehicle_type_id":"4","last_reported":1758917471,"current_range_meters":6000,"station_id":"ce4bh0p2rcd13ifvqd80","pricing_plan_id":"cebpf4jnsgd1na2vs0mg"},{"bike_id":"4da4889f-ab93-4287-b6f0-19bf21fe841b","system_id":"levelo_inurba_marseille","lat":43.30296,"lon":5.392142,"is_reserved":false,"is_disabled":false,"rental_uris":{"android":"levelo://app?vid=4da4889f-ab93-4287-b6f0-19bf21fe841b","ios":"levelo://app?vid=4da4889f-ab93-4287-b6f0-19bf21fe841b"},"vehicle_type_id":"4","last_reported":1758917471,"current_range_meters":6400,"station_id":"ce4bgkh2rcd13ifvqbk0","pricing_plan_id":"cebpf4jnsgd1na2vs0mg"},{"bike_id":"55ee1850-bdbd-4c15-a213-37a11009e3af","system_id":"levelo_inurba_marseille","lat":43.28103,"lon":5.37837,"is_reserved":false,"is_disabled":false,"rental_uris":{"android":"levelo://app?vid=55ee1850-bdbd-4c15-a213-37a11009e3af","ios":"levelo://app?vid=55ee1850-bdbd-4c15-a213-37a11009e3af"},"vehicle_type_id":"4","last_reported":1758917471,"current_range_meters":6800,"station_id":"ce4bha12rcd13ifvqee0","pricing_plan_id":"cebpf4jnsgd1na2vs0mg"},{"bike_id":"4ca91946-de8e-4b5f-aa87-8121b47f8941","system_id":"levelo_inurba_marseille","lat":43.25002,"lon":5.38925,"is_reserved":false,"is_disabled":false,"rental_uris":{"android":"levelo://app?vid=4ca91946-de8e-4b5f-aa87-8121b47f8941","ios":"levelo://app?vid=4ca91946-de8e-4b5f-aa87-8121b47f8941"},"vehicle_type_id":"4","last_reported":1758917471,"current_range_meters":6800,"station_id":"ce4bhgp2rcd13ifvqfd0","pricing_plan_id":"cebpf4jnsgd1na2vs0mg"},{"bike_id":"2b82848d-bb30-4c7d-b34b-27504ec0cde4","system_id":"levelo_inurba_marseille","lat":43.29313,"lon":5.37175,"is_reserved":false,"is_disabled":false,"rental_uris":{"android":"levelo://app?vid=2b82848d-bb30-4c7d-b34b-27504ec0cde4","ios":"levelo://app?vid=2b82848d-bb30-4c7d-b34b-27504ec0cde4"},"vehicle_type_id":"4","last_reported":1758917471,"current_range_meters":6800,"station_id":"ce4bgh92rcd13ifvqb40","pricing_plan_id":"cebpf4jnsgd1na2vs0mg"},{"bike_id":"01fb9aea-05d2-4291-ba22-8f91e7e551ce","system_id":"levelo_inurba_marseille","lat":43.28415,"lon":5.37507,"is_reserved":false,"is_disabled":false,"rental_uris":{"android":"levelo://app?vid=01fb9aea-05d2-4291-ba22-8f91e7e551ce","ios":"levelo://app?vid=01fb9aea-05d2-4291-ba22-8f91e7e551ce"},"vehicle_type_id":"4","last_reported":1758917471,"current_range_meters":6800,"station_id":"ce4bh412rcd13ifvqds0","pricing_plan_id":"cebpf4jnsgd1na2vs0mg"},{"bike_id":"d9961e53-1662-40e4-8c48-81a931aad7ad","system_id":"levelo_inurba_marseille","lat":43.29966,"lon":5.38499,"is_reserved":false,"is_disabled":false,"rental_uris":{"android":"levelo://app?vid=d9961e53-1662-40e4-8c48-81a931aad7ad","ios":"levelo://app?vid=d9961e53-1662-40e4-8c48-81a931aad7ad"},"vehicle_type_id":"4","last_reported":1758917471,"current_range_meters":6400,"station_id":"ce4bgj92rcd13ifvqbd0","pricing_plan_id":"cebpf4jnsgd1na2vs0mg"},{"bike_id":"42598cbd-c0f8-4b84-9c1b-1ffcdfcd6fe5","system_id":"levelo_inurba_marseille","lat":43.25716,"lon":5.41119,"is_reserved":false,"is_disabled":false,"rental_uris":{"android":"levelo://app?vid=42598cbd-c0f8-4b84-9c1b-1ffcdfcd6fe5","ios":"levelo://app?vid=42598cbd-c0f8-4b84-9c1b-1ffcdfcd6fe5"},"vehicle_type_id":"4","last_reported":1758917471,"current_range_meters":7200,"station_id":"ce4bhkp2rcd13ifvqgd0","pricing_plan_id":"cebpf4jnsgd1na2vs0mg"},{"bike_id":"003515e8-8117-44bb-979d-5f47e8d50fda","system_id":"levelo_inurba_marseille","lat":43.30639,"lon":5.37556,"is_reserved":false,"is_disabled":false,"rental_uris":{"android":"levelo://app?vid=003515e8-8117-44bb-979d-5f47e8d50fda","ios":"levelo://app?vid=003515e8-8117-44bb-979d-5f47e8d50fda"},"vehicle_type_id":"4","last_reported":1758917471,"current_range_meters":7200,"station_id":"","pricing_plan_id":"cebpf4jnsgd1na2vs0mg"},{"bike_id":"8eae954c-dab6-4303-94f5-569e1c483f62","system_id":"levelo_inurba_marseille","lat":43.294587,"lon":5.407357,"is_reserved":false,"is_disabled":false,"rental_uris":{"android":"levelo://app?vid=8eae954c-dab6-4303-94f5-569e1c483f62","ios":"levelo://app?vid=8eae954c-dab6-4303-94f5-569e1c483f62"},"vehicle_type_id":"4","last_reported":1758917471,"current_range_meters":7200,"station_id":"","pricing_plan_id":"cebpf4jnsgd1na2vs0mg"},{"bike_id":"e074ec6b-0ed3-4370-9175-f9719ed1cfdc","system_id":"levelo_inurba_marseille","lat":43.24652,"lon":5.43144,"is_reserved":false,"is_disabled":false,"rental_uris":{"android":"levelo://app?vid=e074ec6b-0ed3-4370-9175-f9719ed1cfdc","ios":"levelo://app?vid=e074ec6b-0ed3-4370-9175-f9719ed1cfdc"},"vehicle_type_id":"4","last_reported":1758917471,"current_range_meters":7200,"station_id":"st_d2m6c4gdas8pm72e190g","pricing_plan_id":"cebpf4jnsgd1na2vs0mg"},{"bike_id":"3c19536b-fb5b-4f9a-ab5d-bec9a9d3b963","system_id":"levelo_inurba_marseille","lat":43.24652,"lon":5.38904,"is_reserved":false,"is_disabled":false,"rental_uris":{"android":"levelo://app?vid=3c19536b-fb5b-4f9a-ab5d-bec9a9d3b963","ios":"levelo://app?vid=3c19536b-fb5b-4f9a-ab5d-bec9a9d3b963"},"vehicle_type_id":"4","last_reported":1758917471,"current_range_meters":7200,"station_id":"ce4bhg12rcd13ifvqf60","pricing_plan_id":"cebpf4jnsgd1na2vs0mg"},{"bike_id":"4fda2e29-3841-49e6-9e76-17a9d9e586d2","system_id":"levelo_inurba_marseille","lat":43.29599,"lon":5.38095,"is_reserved":false,"is_disabled":false,"rental_uris":{"android":"levelo://app?vid=4fda2e29-3841-49e6-9e76-17a9d9e586d2","ios":"levelo://app?vid=4fda2e29-3841-49e6-9e76-17a9d9e586d2"},"vehicle_type_id":"4","last_reported":1758917471,"current_range_meters":7200,"station_id":"ce4bgl12rcd13ifvqbo0","pricing_plan_id":"cebpf4jnsgd1na2vs0mg"},{"bike_id":"8e4ba026-a773-46c1-9bb9-14eb8b3b143a","system_id":"levelo_inurba_marseille","lat":43.25582,"lon":5.38231,"is_reserved":false,"is_disabled":false,"rental_uris":{"android":"levelo://app?vid=8e4ba026-a773-46c1-9bb9-14eb8b3b143a","ios":"levelo://app?vid=8e4ba026-a773-46c1-9bb9-14eb8b3b143a"},"vehicle_type_id":"4","last_reported":1758917471,"current_range_meters":7200,"station_id":"ce4bhih2rcd13ifvqfs0","pricing_plan_id":"cebpf4jnsgd1na2vs0mg"},{"bike_id":"5cddf758-8a6b-4867-a9f5-82508fe5a8a7","system_id":"levelo_inurba_marseille","lat":43.29515,"lon":5.38191,"is_reserved":false,"is_disabled":false,"rental_uris":{"android":"levelo://app?vid=5cddf758-8a6b-4867-a9f5-82508fe5a8a7","ios":"levelo://app?vid=5cddf758-8a6b-4867-a9f5-82508fe5a8a7"},"vehicle_type_id":"4","last_reported":1758917471,"current_range_meters":7200,"station_id":"","pricing_plan_id":"cebpf4jnsgd1na2vs0mg"},{"bike_id":"5dfe6188-cf51-49fc-b324-419cf8501486","system_id":"levelo_inurba_marseille","lat":43.29461,"lon":5.38669,"is_reserved":false,"is_disabled":false,"rental_uris":{"android":"levelo://app?vid=5dfe6188-cf51-49fc-b324-419cf8501486","ios":"levelo://app?vid=5dfe6188-cf51-49fc-b324-419cf8501486"},"vehicle_type_id":"4","last_reported":1758917471,"current_range_meters":7200,"station_id":"","pricing_plan_id":"cebpf4jnsgd1na2vs0mg"},{"bike_id":"212de2eb-8bbc-413c-b204-9fe1facd76e8","system_id":"levelo_inurba_marseille","lat":43.31304,"lon":5.37821,"is_reserved":false,"is_disabled":false,"rental_uris":{"android":"levelo://app?vid=212de2eb-8bbc-413c-b204-9fe1facd76e8","ios":"levelo://app?vid=212de2eb-8bbc-413c-b204-9fe1facd76e8"},"vehicle_type_id":"4","last_reported":1758917471,"current_range_meters":7200,"station_id":"","pricing_plan_id":"cebpf4jnsgd1na2vs0mg"},{"bike_id":"2cc74108-88d5-4750-bd59-0959bcf80f9b","system_id":"levelo_inurba_marseille","lat":43.29259,"lon":5.38445,"is_reserved":false,"is_disabled":false,"rental_uris":{"android":"levelo://app?vid=2cc74108-88d5-4750-bd59-0959bcf80f9b","ios":"levelo://app?vid=2cc74108-88d5-4750-bd59-0959bcf80f9b"},"vehicle_type_id":"4","last_reported":1758917471,"current_range_meters":7200,"station_id":"ce4bh692rcd13ifvqea0","pricing_plan_id":"cebpf4jnsgd1na2vs0mg"},{"bike_id":"79b57286-b5b2-435c-86bd-195d156f4421","system_id":"levelo_inurba_marseille","lat":43.284125,"lon":5.375075,"is_reserved":false,"is_disabled":false,"rental_uris":{"android":"levelo://app?vid=79b57286-b5b2-435c-86bd-195d156f4421","ios":"levelo://app?vid=79b57286-b5b2-435c-86bd-195d156f4421"},"vehicle_type_id":"4","last_reported":1758917471,"current_range_meters":8000,"station_id":"ce4bh412rcd13ifvqds0","pricing_plan_id":"cebpf4jnsgd1na2vs0mg"},{"bike_id":"d81cde07-af9b-4688-a0d8-07d0199d52d2","system_id":"levelo_inurba_marseille","lat":43.29605,"lon":5.38096,"is_reserved":false,"is_disabled":false,"rental_uris":{"android":"levelo://app?vid=d81cde07-af9b-4688-a0d8-07d0199d52d2","ios":"levelo://app?vid=d81cde07-af9b-4688-a0d8-07d0199d52d2"},"vehicle_type_id":"4","last_reported":1758917471,"current_range_meters":8000,"station_id":"ce4bgl12rcd13ifvqbo0","pricing_plan_id":"cebpf4jnsgd1na2vs0mg"},{"bike_id":"afde6d63-cca2-4077-99f5-e95283b499bd","system_id":"levelo_inurba_marseille","lat":43.32341,"lon":5.40622,"is_reserved":false,"is_disabled":false,"rental_uris":{"android":"levelo://app?vid=afde6d63-cca2-4077-99f5-e95283b499bd","ios":"levelo://app?vid=afde6d63-cca2-4077-99f5-e95283b499bd"},"vehicle_type_id":"4","last_reported":1758917471,"current_range_meters":8000,"station_id":"ce4bhq92rcd13ifvqhjg","pricing_plan_id":"cebpf4jnsgd1na2vs0mg"},{"bike_id":"8b67a3f9-96a4-4851-be82-ee3df57c9d39","system_id":"levelo_inurba_marseille","lat":43.29253,"lon":5.38451,"is_reserved":false,"is_disabled":false,"rental_uris":{"android":"levelo://app?vid=8b67a3f9-96a4-4851-be82-ee3df57c9d39","ios":"levelo://app?vid=8b67a3f9-96a4-4851-be82-ee3df57c9d39"},"vehicle_type_id":"4","last_reported":1758917471,"current_range_meters":8000,"station_id":"ce4bh692rcd13ifvqea0","pricing_plan_id":"cebpf4jnsgd1na2vs0mg"},{"bike_id":"62797352-7163-4b54-a86d-d01a13d401db","system_id":"levelo_inurba_marseille","lat":43.292662,"lon":5.384282,"is_reserved":false,"is_disabled":false,"rental_uris":{"android":"levelo://app?vid=62797352-7163-4b54-a86d-d01a13d401db","ios":"levelo://app?vid=62797352-7163-4b54-a86d-d01a13d401db"},"vehicle_type_id":"4","last_reported":1758917471,"current_range_meters":8000,"station_id":"ce4bh692rcd13ifvqea0","pricing_plan_id":"cebpf4jnsgd1na2vs0mg"},{"bike_id":"10570c5a-8e04-4e55-8478-90c821e94d73","system_id":"levelo_inurba_marseille","lat":43.33155,"lon":5.38183,"is_reserved":false,"is_disabled":false,"rental_uris":{"android":"levelo://app?vid=10570c5a-8e04-4e55-8478-90c821e94d73","ios":"levelo://app?vid=10570c5a-8e04-4e55-8478-90c821e94d73"},"vehicle_type_id":"4","last_reported":1758917471,"current_range_meters":8000,"station_id":"","pricing_plan_id":"cebpf4jnsgd1na2vs0mg"},{"bike_id":"339534b4-d6ce-428f-97c9-087d1b58c7b3","system_id":"levelo_inurba_marseille","lat":43.32642,"lon":5.40319,"is_reserved":false,"is_disabled":false,"rental_uris":{"android":"levelo://app?vid=339534b4-d6ce-428f-97c9-087d1b58c7b3","ios":"levelo://app?vid=339534b4-d6ce-428f-97c9-087d1b58c7b3"},"vehicle_type_id":"4","last_reported":1758917471,"current_range_meters":8000,"station_id":"","pricing_plan_id":"cebpf4jnsgd1na2vs0mg"},{"bike_id":"d8a2347c-225c-4028-b110-5b8c63be1a5a","system_id":"levelo_inurba_marseille","lat":43.288027,"lon":5.376481,"is_reserved":false,"is_disabled":false,"rental_uris":{"android":"levelo://app?vid=d8a2347c-225c-4028-b110-5b8c63be1a5a","ios":"levelo://app?vid=d8a2347c-225c-4028-b110-5b8c63be1a5a"},"vehicle_type_id":"4","last_reported":1758917471,"current_range_meters":8400,"station_id":"","pricing_plan_id":"cebpf4jnsgd1na2vs0mg"},{"bike_id":"97077d85-71b7-4186-accf-6b32288208e9","system_id":"levelo_inurba_marseille","lat":43.22553,"lon":5.41628,"is_reserved":false,"is_disabled":false,"rental_uris":{"android":"levelo://app?vid=97077d85-71b7-4186-accf-6b32288208e9","ios":"levelo://app?vid=97077d85-71b7-4186-accf-6b32288208e9"},"vehicle_type_id":"4","last_reported":1758917471,"current_range_meters":8400,"station_id":"st_d2o4gvlbi1j2169b742g","pricing_plan_id":"cebpf4jnsgd1na2vs0mg"},{"bike_id":"f897d300-643c-4c7a-951b-f56d70ef23ca","system_id":"levelo_inurba_marseille","lat":43.30311,"lon":5.39073,"is_reserved":false,"is_disabled":false,"rental_uris":{"android":"levelo://app?vid=f897d300-643c-4c7a-951b-f56d70ef23ca","ios":"levelo://app?vid=f897d300-643c-4c7a-951b-f56d70ef23ca"},"vehicle_type_id":"4","last_reported":1758917471,"current_range_meters":8400,"station_id":"","pricing_plan_id":"cebpf4jnsgd1na2vs0mg"},{"bike_id":"0f96c68f-6966-44f6-9fd1-c0c1d1c5e966","system_id":"levelo_inurba_marseille","lat":43.2925,"lon":5.3845,"is_reserved":false,"is_disabled":false,"rental_uris":{"android":"levelo://app?vid=0f96c68f-6966-44f6-9fd1-c0c1d1c5e966","ios":"levelo://app?vid=0f96c68f-6966-44f6-9fd1-c0c1d1c5e966"},"vehicle_type_id":"4","last_reported":1758917471,"current_range_meters":8400,"station_id":"ce4bh692rcd13ifvqea0","pricing_plan_id":"cebpf4jnsgd1na2vs0mg"},{"bike_id":"dbaa4160-10dc-4e74-af73-146d54ca2e45","system_id":"levelo_inurba_marseille","lat":43.24662,"lon":5.38166,"is_reserved":false,"is_disabled":false,"rental_uris":{"android":"levelo://app?vid=dbaa4160-10dc-4e74-af73-146d54ca2e45","ios":"levelo://app?vid=dbaa4160-10dc-4e74-af73-146d54ca2e45"},"vehicle_type_id":"4","last_reported":1758917471,"current_range_meters":8400,"station_id":"ce4bhih2rcd13ifvqfr0","pricing_plan_id":"cebpf4jnsgd1na2vs0mg"},{"bike_id":"e057a4ef-97bf-4e25-9a18-02598bbb0bbf","system_id":"levelo_inurba_marseille","lat":43.24544,"lon":5.39525,"is_reserved":false,"is_disabled":true,"rental_uris":{"android":"levelo://app?vid=e057a4ef-97bf-4e25-9a18-02598bbb0bbf","ios":"levelo://app?vid=e057a4ef-97bf-4e25-9a18-02598bbb0bbf"},"vehicle_type_id":"4","last_reported":1758917471,"current_range_meters":8400,"station_id":"ce4bhlp2rcd13ifvqgjg","pricing_plan_id":"cebpf4jnsgd1na2vs0mg"},{"bike_id":"f3dac6d8-b180-4928-85f1-c0e06c666299","system_id":"levelo_inurba_marseille","lat":43.26383,"lon":5.39642,"is_reserved":false,"is_disabled":false,"rental_uris":{"android":"levelo://app?vid=f3dac6d8-b180-4928-85f1-c0e06c666299","ios":"levelo://app?vid=f3dac6d8-b180-4928-85f1-c0e06c666299"},"vehicle_type_id":"4","last_reported":1758917471,"current_range_meters":8400,"station_id":"","pricing_plan_id":"cebpf4jnsgd1na2vs0mg"},{"bike_id":"76f77395-a2b4-436b-9bdb-39bc3427a485","system_id":"levelo_inurba_marseille","lat":43.28936,"lon":5.36413,"is_reserved":false,"is_disabled":false,"rental_uris":{"android":"levelo://app?vid=76f77395-a2b4-436b-9bdb-39bc3427a485","ios":"levelo://app?vid=76f77395-a2b4-436b-9bdb-39bc3427a485"},"vehicle_type_id":"4","last_reported":1758917471,"current_range_meters":8400,"station_id":"ce4bhc92rcd13ifvqetg","pricing_plan_id":"cebpf4jnsgd1na2vs0mg"},{"bike_id":"032b9fe1-6b54-4479-a046-3ea91605d595","system_id":"levelo_inurba_marseille","lat":43.292653,"lon":5.38448,"is_reserved":false,"is_disabled":false,"rental_uris":{"android":"levelo://app?vid=032b9fe1-6b54-4479-a046-3ea91605d595","ios":"levelo://app?vid=032b9fe1-6b54-4479-a046-3ea91605d595"},"vehicle_type_id":"4","last_reported":1758917471,"current_range_meters":8400,"station_id":"ce4bh692rcd13ifvqea0","pricing_plan_id":"cebpf4jnsgd1na2vs0mg"},{"bike_id":"e64ef812-4733-4676-89d8-07d7f84b2256","system_id":"levelo_inurba_marseille","lat":43.27003,"lon":5.3922,"is_reserved":false,"is_disabled":false,"rental_uris":{"android":"levelo://app?vid=e64ef812-4733-4676-89d8-07d7f84b2256","ios":"levelo://app?vid=e64ef812-4733-4676-89d8-07d7f84b2256"},"vehicle_type_id":"4","last_reported":1758917471,"current_range_meters":9200,"station_id":"","pricing_plan_id":"cebpf4jnsgd1na2vs0mg"},{"bike_id":"4d5339bd-8225-4c69-9c3d-30e0197404a9","system_id":"levelo_inurba_marseille","lat":43.30887,"lon":5.39654,"is_reserved":false,"is_disabled":false,"rental_uris":{"android":"levelo://app?vid=4d5339bd-8225-4c69-9c3d-30e0197404a9","ios":"levelo://app?vid=4d5339bd-8225-4c69-9c3d-30e0197404a9"},"vehicle_type_id":"4","last_reported":1758917471,"current_range_meters":8800,"station_id":"ce4bh012rcd13ifvqcv0","pricing_plan_id":"cebpf4jnsgd1na2vs0mg"},{"bike_id":"383632bc-d9ca-4489-ba25-f02ea96de2c6","system_id":"levelo_inurba_marseille","lat":43.295997,"lon":5.381102,"is_reserved":false,"is_disabled":false,"rental_uris":{"android":"levelo://app?vid=383632bc-d9ca-4489-ba25-f02ea96de2c6","ios":"levelo://app?vid=383632bc-d9ca-4489-ba25-f02ea96de2c6"},"vehicle_type_id":"4","last_reported":1758917471,"current_range_meters":11200,"station_id":"ce4bgl12rcd13ifvqbo0","pricing_plan_id":"cebpf4jnsgd1na2vs0mg"},{"bike_id":"8c58c873-ad44-4f99-83a7-925f3d68ea2a","system_id":"levelo_inurba_marseille","lat":43.292677,"lon":5.384446,"is_reserved":false,"is_disabled":false,"rental_uris":{"android":"levelo://app?vid=8c58c873-ad44-4f99-83a7-925f3d68ea2a","ios":"levelo://app?vid=8c58c873-ad44-4f99-83a7-925f3d68ea2a"},"vehicle_type_id":"4","last_reported":1758917471,"current_range_meters":8800,"station_id":"ce4bh692rcd13ifvqea0","pricing_plan_id":"cebpf4jnsgd1na2vs0mg"},{"bike_id":"c7f6a08b-c655-4213-b2ba-7d02e7f382fe","system_id":"levelo_inurba_marseille","lat":43.27988,"lon":5.39483,"is_reserved":false,"is_disabled":false,"rental_uris":{"android":"levelo://app?vid=c7f6a08b-c655-4213-b2ba-7d02e7f382fe","ios":"levelo://app?vid=c7f6a08b-c655-4213-b2ba-7d02e7f382fe"},"vehicle_type_id":"4","last_reported":1758917471,"current_range_meters":8800,"station_id":"","pricing_plan_id":"cebpf4jnsgd1na2vs0mg"},{"bike_id":"0a2e900d-0c9d-47e0-ba22-dd543681c0be","system_id":"levelo_inurba_marseille","lat":43.29261,"lon":5.38454,"is_reserved":false,"is_disabled":false,"rental_uris":{"android":"levelo://app?vid=0a2e900d-0c9d-47e0-ba22-dd543681c0be","ios":"levelo://app?vid=0a2e900d-0c9d-47e0-ba22-dd543681c0be"},"vehicle_type_id":"4","last_reported":1758917471,"current_range_meters":8800,"station_id":"ce4bh692rcd13ifvqea0","pricing_plan_id":"cebpf4jnsgd1na2vs0mg"},{"bike_id":"fe939078-5878-4cad-973e-1fc4284a436f","system_id":"levelo_inurba_marseille","lat":43.29323,"lon":5.38637,"is_reserved":false,"is_disabled":false,"rental_uris":{"android":"levelo://app?vid=fe939078-5878-4cad-973e-1fc4284a436f","ios":"levelo://app?vid=fe939078-5878-4cad-973e-1fc4284a436f"},"vehicle_type_id":"4","last_reported":1758917471,"current_range_meters":8800,"station_id":"","pricing_plan_id":"cebpf4jnsgd1na2vs0mg"},{"bike_id":"dd63b8db-9152-4bd9-98a0-8418f71eb102","system_id":"levelo_inurba_marseille","lat":43.29252,"lon":5.3844,"is_reserved":false,"is_disabled":false,"rental_uris":{"android":"levelo://app?vid=dd63b8db-9152-4bd9-98a0-8418f71eb102","ios":"levelo://app?vid=dd63b8db-9152-4bd9-98a0-8418f71eb102"},"vehicle_type_id":"4","last_reported":1758917471,"current_range_meters":8800,"station_id":"","pricing_plan_id":"cebpf4jnsgd1na2vs0mg"},{"bike_id":"f076f5da-06f7-406b-8425-ad25fb15142e","system_id":"levelo_inurba_marseille","lat":43.30146,"lon":5.37412,"is_reserved":false,"is_disabled":false,"rental_uris":{"android":"levelo://app?vid=f076f5da-06f7-406b-8425-ad25fb15142e","ios":"levelo://app?vid=f076f5da-06f7-406b-8425-ad25fb15142e"},"vehicle_type_id":"4","last_reported":1758917471,"current_range_meters":9200,"station_id":"ce4bgs92rcd13ifvqcc0","pricing_plan_id":"cebpf4jnsgd1na2vs0mg"},{"bike_id":"12269620-869e-4b65-8b33-72fa4f82b76d","system_id":"levelo_inurba_marseille","lat":43.28273,"lon":5.35073,"is_reserved":false,"is_disabled":false,"rental_uris":{"android":"levelo://app?vid=12269620-869e-4b65-8b33-72fa4f82b76d","ios":"levelo://app?vid=12269620-869e-4b65-8b33-72fa4f82b76d"},"vehicle_type_id":"4","last_reported":1758917471,"current_range_meters":9200,"station_id":"ce4bhbp2rcd13ifvqerg","pricing_plan_id":"cebpf4jnsgd1na2vs0mg"},{"bike_id":"174dfb4f-f618-4c2f-be1c-ae0d6b405e94","system_id":"levelo_inurba_marseille","lat":43.297115,"lon":5.382624,"is_reserved":false,"is_disabled":false,"rental_uris":{"android":"levelo://app?vid=174dfb4f-f618-4c2f-be1c-ae0d6b405e94","ios":"levelo://app?vid=174dfb4f-f618-4c2f-be1c-ae0d6b405e94"},"vehicle_type_id":"4","last_reported":1758917471,"current_range_meters":9200,"station_id":"","pricing_plan_id":"cebpf4jnsgd1na2vs0mg"},{"bike_id":"96d9d290-3482-406b-a187-2a8b12ccabb2","system_id":"levelo_inurba_marseille","lat":43.2901,"lon":5.37142,"is_reserved":false,"is_disabled":false,"rental_uris":{"android":"levelo://app?vid=96d9d290-3482-406b-a187-2a8b12ccabb2","ios":"levelo://app?vid=96d9d290-3482-406b-a187-2a8b12ccabb2"},"vehicle_type_id":"4","last_reported":1758917471,"current_range_meters":9200,"station_id":"","pricing_plan_id":"cebpf4jnsgd1na2vs0mg"},{"bike_id":"93c45366-c971-43fb-8538-8a09abd49d8b","system_id":"levelo_inurba_marseille","lat":43.2919,"lon":5.38501,"is_reserved":false,"is_disabled":false,"rental_uris":{"android":"levelo://app?vid=93c45366-c971-43fb-8538-8a09abd49d8b","ios":"levelo://app?vid=93c45366-c971-43fb-8538-8a09abd49d8b"},"vehicle_type_id":"4","last_reported":1758917471,"current_range_meters":9200,"station_id":"","pricing_plan_id":"cebpf4jnsgd1na2vs0mg"},{"bike_id":"d8188c10-fa44-48f3-80bc-0d7af47e2395","system_id":"levelo_inurba_marseille","lat":43.27991,"lon":5.41663,"is_reserved":false,"is_disabled":false,"rental_uris":{"android":"levelo://app?vid=d8188c10-fa44-48f3-80bc-0d7af47e2395","ios":"levelo://app?vid=d8188c10-fa44-48f3-80bc-0d7af47e2395"},"vehicle_type_id":"4","last_reported":1758917471,"current_range_meters":9200,"station_id":"ce4bho12rcd13ifvqh1g","pricing_plan_id":"cebpf4jnsgd1na2vs0mg"},{"bike_id":"b2232ec7-5958-4abb-80a1-80cd31fe88e9","system_id":"levelo_inurba_marseille","lat":43.29171,"lon":5.35755,"is_reserved":false,"is_disabled":false,"rental_uris":{"android":"levelo://app?vid=b2232ec7-5958-4abb-80a1-80cd31fe88e9","ios":"levelo://app?vid=b2232ec7-5958-4abb-80a1-80cd31fe88e9"},"vehicle_type_id":"4","last_reported":1758917471,"current_range_meters":9200,"station_id":"ce4bhb92rcd13ifvqen0","pricing_plan_id":"cebpf4jnsgd1na2vs0mg"},{"bike_id":"4b6cda96-33da-48e0-b890-29a987ca3c4e","system_id":"levelo_inurba_marseille","lat":43.31726,"lon":5.39035,"is_reserved":false,"is_disabled":false,"rental_uris":{"android":"levelo://app?vid=4b6cda96-33da-48e0-b890-29a987ca3c4e","ios":"levelo://app?vid=4b6cda96-33da-48e0-b890-29a987ca3c4e"},"vehicle_type_id":"4","last_reported":1758917471,"current_range_meters":9200,"station_id":"ce4bhqp2rcd13ifvqhng","pricing_plan_id":"cebpf4jnsgd1na2vs0mg"},{"bike_id":"8283bb8f-388f-49f8-a4e6-8d9fb228c890","system_id":"levelo_inurba_marseille","lat":43.29252,"lon":5.38441,"is_reserved":false,"is_disabled":false,"rental_uris":{"android":"levelo://app?vid=8283bb8f-388f-49f8-a4e6-8d9fb228c890","ios":"levelo://app?vid=8283bb8f-388f-49f8-a4e6-8d9fb228c890"},"vehicle_type_id":"4","last_reported":1758917471,"current_range_meters":9200,"station_id":"ce4bh692rcd13ifvqea0","pricing_plan_id":"cebpf4jnsgd1na2vs0mg"},{"bike_id":"78b43ab0-57e9-43ee-b7c6-fbbb1406e224","system_id":"levelo_inurba_marseille","lat":43.25727,"lon":5.41106,"is_reserved":false,"is_disabled":false,"rental_uris":{"android":"levelo://app?vid=78b43ab0-57e9-43ee-b7c6-fbbb1406e224","ios":"levelo://app?vid=78b43ab0-57e9-43ee-b7c6-fbbb1406e224"},"vehicle_type_id":"4","last_reported":1758917471,"current_range_meters":9200,"station_id":"ce4bhkp2rcd13ifvqgd0","pricing_plan_id":"cebpf4jnsgd1na2vs0mg"},{"bike_id":"e5303607-da03-4ac7-b81e-b332ede84cf7","system_id":"levelo_inurba_marseille","lat":43.31306,"lon":5.37816,"is_reserved":false,"is_disabled":false,"rental_uris":{"android":"levelo://app?vid=e5303607-da03-4ac7-b81e-b332ede84cf7","ios":"levelo://app?vid=e5303607-da03-4ac7-b81e-b332ede84cf7"},"vehicle_type_id":"4","last_reported":1758917471,"current_range_meters":9200,"station_id":"","pricing_plan_id":"cebpf4jnsgd1na2vs0mg"},{"bike_id":"75b5e78b-c42b-49a5-848a-c33e49f55b20","system_id":"levelo_inurba_marseille","lat":43.29258,"lon":5.38443,"is_reserved":false,"is_disabled":false,"rental_uris":{"android":"levelo://app?vid=75b5e78b-c42b-49a5-848a-c33e49f55b20","ios":"levelo://app?vid=75b5e78b-c42b-49a5-848a-c33e49f55b20"},"vehicle_type_id":"4","last_reported":1758917471,"current_range_meters":9600,"station_id":"ce4bh692rcd13ifvqea0","pricing_plan_id":"cebpf4jnsgd1na2vs0mg"},{"bike_id":"22e1526a-5d94-480e-9eef-c281aa35345c","system_id":"levelo_inurba_marseille","lat":43.21179,"lon":5.35092,"is_reserved":false,"is_disabled":false,"rental_uris":{"android":"levelo://app?vid=22e1526a-5d94-480e-9eef-c281aa35345c","ios":"levelo://app?vid=22e1526a-5d94-480e-9eef-c281aa35345c"},"vehicle_type_id":"4","last_reported":1758917471,"current_range_meters":9600,"station_id":"st_cvj6sg6p6f1abm77japg","pricing_plan_id":"cebpf4jnsgd1na2vs0mg"},{"bike_id":"83a81c2e-522e-4f17-909b-58acb9e41636","system_id":"levelo_inurba_marseille","lat":43.31987,"lon":5.38141,"is_reserved":false,"is_disabled":false,"rental_uris":{"android":"levelo://app?vid=83a81c2e-522e-4f17-909b-58acb9e41636","ios":"levelo://app?vid=83a81c2e-522e-4f17-909b-58acb9e41636"},"vehicle_type_id":"4","last_reported":1758917471,"current_range_meters":9600,"station_id":"ce4bhr12rcd13ifvqhpg","pricing_plan_id":"cebpf4jnsgd1na2vs0mg"},{"bike_id":"39bb99be-b25d-4119-b9e9-fa26430c15f1","system_id":"levelo_inurba_marseille","lat":43.29256,"lon":5.38446,"is_reserved":false,"is_disabled":false,"rental_uris":{"android":"levelo://app?vid=39bb99be-b25d-4119-b9e9-fa26430c15f1","ios":"levelo://app?vid=39bb99be-b25d-4119-b9e9-fa26430c15f1"},"vehicle_type_id":"4","last_reported":1758917471,"current_range_meters":9600,"station_id":"ce4bh692rcd13ifvqea0","pricing_plan_id":"cebpf4jnsgd1na2vs0mg"},{"bike_id":"c248d563-ef20-43ca-9ade-3af3fd90b48d","system_id":"levelo_inurba_marseille","lat":43.29249,"lon":5.38457,"is_reserved":false,"is_disabled":false,"rental_uris":{"android":"levelo://app?vid=c248d563-ef20-43ca-9ade-3af3fd90b48d","ios":"levelo://app?vid=c248d563-ef20-43ca-9ade-3af3fd90b48d"},"vehicle_type_id":"4","last_reported":1758917471,"current_range_meters":9600,"station_id":"ce4bh692rcd13ifvqea0","pricing_plan_id":"cebpf4jnsgd1na2vs0mg"},{"bike_id":"66fe3746-24d4-449c-b4e8-929432d04d37","system_id":"levelo_inurba_marseille","lat":43.30908,"lon":5.36849,"is_reserved":false,"is_disabled":false,"rental_uris":{"android":"levelo://app?vid=66fe3746-24d4-449c-b4e8-929432d04d37","ios":"levelo://app?vid=66fe3746-24d4-449c-b4e8-929432d04d37"},"vehicle_type_id":"4","last_reported":1758917471,"current_range_meters":9200,"station_id":"ce4bgn92rcd13ifvqbvg","pricing_plan_id":"cebpf4jnsgd1na2vs0mg"},{"bike_id":"041cd397-24ab-4e04-af23-07b961e161f4","system_id":"levelo_inurba_marseille","lat":43.337444,"lon":5.374475,"is_reserved":false,"is_disabled":false,"rental_uris":{"android":"levelo://app?vid=041cd397-24ab-4e04-af23-07b961e161f4","ios":"levelo://app?vid=041cd397-24ab-4e04-af23-07b961e161f4"},"vehicle_type_id":"4","last_reported":1758917471,"current_range_meters":9600,"station_id":"","pricing_plan_id":"cebpf4jnsgd1na2vs0mg"},{"bike_id":"6546a649-bee3-4dc7-9dce-2ed8390d2234","system_id":"levelo_inurba_marseille","lat":43.29608,"lon":5.37725,"is_reserved":false,"is_disabled":false,"rental_uris":{"android":"levelo://app?vid=6546a649-bee3-4dc7-9dce-2ed8390d2234","ios":"levelo://app?vid=6546a649-bee3-4dc7-9dce-2ed8390d2234"},"vehicle_type_id":"4","last_reported":1758917471,"current_range_meters":9600,"station_id":"ce4bgi92rcd13ifvqb90","pricing_plan_id":"cebpf4jnsgd1na2vs0mg"},{"bike_id":"65d5422b-72ef-4259-876a-6894095824a0","system_id":"levelo_inurba_marseille","lat":43.290802,"lon":5.380884,"is_reserved":false,"is_disabled":false,"rental_uris":{"android":"levelo://app?vid=65d5422b-72ef-4259-876a-6894095824a0","ios":"levelo://app?vid=65d5422b-72ef-4259-876a-6894095824a0"},"vehicle_type_id":"4","last_reported":1758917471,"current_range_meters":9600,"station_id":"ce4bh4p2rcd13ifvqe1g","pricing_plan_id":"cebpf4jnsgd1na2vs0mg"},{"bike_id":"9161aa57-d97e-4f9d-a8ee-dca8ab1ca0a5","system_id":"levelo_inurba_marseille","lat":43.23967,"lon":5.36631,"is_reserved":false,"is_disabled":false,"rental_uris":{"android":"levelo://app?vid=9161aa57-d97e-4f9d-a8ee-dca8ab1ca0a5","ios":"levelo://app?vid=9161aa57-d97e-4f9d-a8ee-dca8ab1ca0a5"},"vehicle_type_id":"4","last_reported":1758917471,"current_range_meters":10000,"station_id":"ce4bhi12rcd13ifvqfp0","pricing_plan_id":"cebpf4jnsgd1na2vs0mg"},{"bike_id":"9e4271da-7a19-449e-9773-3748754740e4","system_id":"levelo_inurba_marseille","lat":43.29257,"lon":5.38447,"is_reserved":false,"is_disabled":false,"rental_uris":{"android":"levelo://app?vid=9e4271da-7a19-449e-9773-3748754740e4","ios":"levelo://app?vid=9e4271da-7a19-449e-9773-3748754740e4"},"vehicle_type_id":"4","last_reported":1758917471,"current_range_meters":10000,"station_id":"ce4bh692rcd13ifvqea0","pricing_plan_id":"cebpf4jnsgd1na2vs0mg"},{"bike_id":"d85a21d7-1e65-4d76-b134-97a257d3c799","system_id":"levelo_inurba_marseille","lat":43.29082,"lon":5.38148,"is_reserved":false,"is_disabled":true,"rental_uris":{"android":"levelo://app?vid=d85a21d7-1e65-4d76-b134-97a257d3c799","ios":"levelo://app?vid=d85a21d7-1e65-4d76-b134-97a257d3c799"},"vehicle_type_id":"4","last_reported":1758917471,"current_range_meters":10000,"station_id":"ce4bh512rcd13ifvqe2g","pricing_plan_id":"cebpf4jnsgd1na2vs0mg"},{"bike_id":"ebc655ed-0c66-4d06-9ef0-50edf7466e72","system_id":"levelo_inurba_marseille","lat":43.28614,"lon":5.3706,"is_reserved":false,"is_disabled":false,"rental_uris":{"android":"levelo://app?vid=ebc655ed-0c66-4d06-9ef0-50edf7466e72","ios":"levelo://app?vid=ebc655ed-0c66-4d06-9ef0-50edf7466e72"},"vehicle_type_id":"4","last_reported":1758917471,"current_range_meters":9600,"station_id":"ce4bht12rcd13ifvqi60","pricing_plan_id":"cebpf4jnsgd1na2vs0mg"},{"bike_id":"57bcdc61-2a24-4379-befb-1f8ead26cf46","system_id":"levelo_inurba_marseille","lat":43.28437,"lon":5.37526,"is_reserved":false,"is_disabled":false,"rental_uris":{"android":"levelo://app?vid=57bcdc61-2a24-4379-befb-1f8ead26cf46","ios":"levelo://app?vid=57bcdc61-2a24-4379-befb-1f8ead26cf46"},"vehicle_type_id":"4","last_reported":1758917471,"current_range_meters":10000,"station_id":"ce4bh412rcd13ifvqds0","pricing_plan_id":"cebpf4jnsgd1na2vs0mg"},{"bike_id":"ee9d2190-6f40-43dc-8243-dd7b75e96ad8","system_id":"levelo_inurba_marseille","lat":43.29259,"lon":5.38448,"is_reserved":false,"is_disabled":false,"rental_uris":{"android":"levelo://app?vid=ee9d2190-6f40-43dc-8243-dd7b75e96ad8","ios":"levelo://app?vid=ee9d2190-6f40-43dc-8243-dd7b75e96ad8"},"vehicle_type_id":"4","last_reported":1758917471,"current_range_meters":10800,"station_id":"ce4bh692rcd13ifvqea0","pricing_plan_id":"cebpf4jnsgd1na2vs0mg"},{"bike_id":"75611fb7-df45-4d9f-9db0-a181136cc424","system_id":"levelo_inurba_marseille","lat":43.21753,"lon":5.34603,"is_reserved":false,"is_disabled":true,"rental_uris":{"android":"levelo://app?vid=75611fb7-df45-4d9f-9db0-a181136cc424","ios":"levelo://app?vid=75611fb7-df45-4d9f-9db0-a181136cc424"},"vehicle_type_id":"4","last_reported":1758917471,"current_range_meters":10800,"station_id":"st_cvj6r9ubvosntc0bgbag","pricing_plan_id":"cebpf4jnsgd1na2vs0mg"},{"bike_id":"b01b5bc6-6834-41fb-be97-f5b6fb7e9ec8","system_id":"levelo_inurba_marseille","lat":43.26311,"lon":5.39842,"is_reserved":false,"is_disabled":false,"rental_uris":{"android":"levelo://app?vid=b01b5bc6-6834-41fb-be97-f5b6fb7e9ec8","ios":"levelo://app?vid=b01b5bc6-6834-41fb-be97-f5b6fb7e9ec8"},"vehicle_type_id":"4","last_reported":1758917471,"current_range_meters":10800,"station_id":"","pricing_plan_id":"cebpf4jnsgd1na2vs0mg"},{"bike_id":"9fa2ff0d-0376-48a9-b6cd-4b59f4cfe3b8","system_id":"levelo_inurba_marseille","lat":43.2926,"lon":5.38446,"is_reserved":false,"is_disabled":false,"rental_uris":{"android":"levelo://app?vid=9fa2ff0d-0376-48a9-b6cd-4b59f4cfe3b8","ios":"levelo://app?vid=9fa2ff0d-0376-48a9-b6cd-4b59f4cfe3b8"},"vehicle_type_id":"4","last_reported":1758917471,"current_range_meters":10800,"station_id":"ce4bh692rcd13ifvqea0","pricing_plan_id":"cebpf4jnsgd1na2vs0mg"},{"bike_id":"fd7db3b2-bf6f-47a6-a193-d9e54fb8924d","system_id":"levelo_inurba_marseille","lat":43.31922,"lon":5.39293,"is_reserved":false,"is_disabled":false,"rental_uris":{"android":"levelo://app?vid=fd7db3b2-bf6f-47a6-a193-d9e54fb8924d","ios":"levelo://app?vid=fd7db3b2-bf6f-47a6-a193-d9e54fb8924d"},"vehicle_type_id":"4","last_reported":1758917471,"current_range_meters":10800,"station_id":"","pricing_plan_id":"cebpf4jnsgd1na2vs0mg"},{"bike_id":"60cc0df5-57f2-43c5-9a14-f1f8996126b5","system_id":"levelo_inurba_marseille","lat":43.282268,"lon":5.390662,"is_reserved":false,"is_disabled":false,"rental_uris":{"android":"levelo://app?vid=60cc0df5-57f2-43c5-9a14-f1f8996126b5","ios":"levelo://app?vid=60cc0df5-57f2-43c5-9a14-f1f8996126b5"},"vehicle_type_id":"4","last_reported":1758917471,"current_range_meters":10800,"station_id":"ce4bhn92rcd13ifvqgsg","pricing_plan_id":"cebpf4jnsgd1na2vs0mg"},{"bike_id":"8fb6b312-30ed-4765-90d6-32ed783bc889","system_id":"levelo_inurba_marseille","lat":43.29977,"lon":5.41323,"is_reserved":false,"is_disabled":true,"rental_uris":{"android":"levelo://app?vid=8fb6b312-30ed-4765-90d6-32ed783bc889","ios":"levelo://app?vid=8fb6b312-30ed-4765-90d6-32ed783bc889"},"vehicle_type_id":"4","last_reported":1758917471,"current_range_meters":10800,"station_id":"ce4bhp12rcd13ifvqh9g","pricing_plan_id":"cebpf4jnsgd1na2vs0mg"},{"bike_id":"ec19cd43-e389-40f7-a359-1fb928965a5b","system_id":"levelo_inurba_marseille","lat":43.30434,"lon":5.38892,"is_reserved":false,"is_disabled":false,"rental_uris":{"android":"levelo://app?vid=ec19cd43-e389-40f7-a359-1fb928965a5b","ios":"levelo://app?vid=ec19cd43-e389-40f7-a359-1fb928965a5b"},"vehicle_type_id":"4","last_reported":1758917471,"current_range_meters":10800,"station_id":"ce4bgk12rcd13ifvqbi0","pricing_plan_id":"cebpf4jnsgd1na2vs0mg"},{"bike_id":"2547ab0a-d261-4ba0-b20d-1172aa2ff3b2","system_id":"levelo_inurba_marseille","lat":43.24688,"lon":5.38135,"is_reserved":false,"is_disabled":false,"rental_uris":{"android":"levelo://app?vid=2547ab0a-d261-4ba0-b20d-1172aa2ff3b2","ios":"levelo://app?vid=2547ab0a-d261-4ba0-b20d-1172aa2ff3b2"},"vehicle_type_id":"4","last_reported":1758917471,"current_range_meters":10800,"station_id":"ce4bhih2rcd13ifvqfr0","pricing_plan_id":"cebpf4jnsgd1na2vs0mg"},{"bike_id":"4dbab9ee-1462-489e-8945-a5e5af73e235","system_id":"levelo_inurba_marseille","lat":43.2919,"lon":5.39314,"is_reserved":false,"is_disabled":false,"rental_uris":{"android":"levelo://app?vid=4dbab9ee-1462-489e-8945-a5e5af73e235","ios":"levelo://app?vid=4dbab9ee-1462-489e-8945-a5e5af73e235"},"vehicle_type_id":"4","last_reported":1758917471,"current_range_meters":11200,"station_id":"ce4bh192rcd13ifvqdd0","pricing_plan_id":"cebpf4jnsgd1na2vs0mg"},{"bike_id":"2907de3a-cdb7-4c49-945b-9d4546080cdd","system_id":"levelo_inurba_marseille","lat":43.29482,"lon":5.36225,"is_reserved":false,"is_disabled":false,"rental_uris":{"android":"levelo://app?vid=2907de3a-cdb7-4c49-945b-9d4546080cdd","ios":"levelo://app?vid=2907de3a-cdb7-4c49-945b-9d4546080cdd"},"vehicle_type_id":"4","last_reported":1758917471,"current_range_meters":11200,"station_id":"","pricing_plan_id":"cebpf4jnsgd1na2vs0mg"},{"bike_id":"79669a1b-f9c8-4963-81f0-156f8093e6fe","system_id":"levelo_inurba_marseille","lat":43.29305,"lon":5.37172,"is_reserved":false,"is_disabled":false,"rental_uris":{"android":"levelo://app?vid=79669a1b-f9c8-4963-81f0-156f8093e6fe","ios":"levelo://app?vid=79669a1b-f9c8-4963-81f0-156f8093e6fe"},"vehicle_type_id":"4","last_reported":1758917471,"current_range_meters":11200,"station_id":"ce4bgh92rcd13ifvqb40","pricing_plan_id":"cebpf4jnsgd1na2vs0mg"},{"bike_id":"aa066058-27ef-4849-a29c-739125c25159","system_id":"levelo_inurba_marseille","lat":43.28104,"lon":5.37843,"is_reserved":false,"is_disabled":false,"rental_uris":{"android":"levelo://app?vid=aa066058-27ef-4849-a29c-739125c25159","ios":"levelo://app?vid=aa066058-27ef-4849-a29c-739125c25159"},"vehicle_type_id":"4","last_reported":1758917471,"current_range_meters":11200,"station_id":"ce4bha12rcd13ifvqee0","pricing_plan_id":"cebpf4jnsgd1na2vs0mg"},{"bike_id":"c975862c-3721-4ac1-a6a4-5b86cf0364aa","system_id":"levelo_inurba_marseille","lat":43.21216,"lon":5.35075,"is_reserved":false,"is_disabled":false,"rental_uris":{"android":"levelo://app?vid=c975862c-3721-4ac1-a6a4-5b86cf0364aa","ios":"levelo://app?vid=c975862c-3721-4ac1-a6a4-5b86cf0364aa"},"vehicle_type_id":"4","last_reported":1758917471,"current_range_meters":11200,"station_id":"st_cvj6sg6p6f1abm77japg","pricing_plan_id":"cebpf4jnsgd1na2vs0mg"},{"bike_id":"a639c491-c436-478a-8d5d-bd2c30b918ff","system_id":"levelo_inurba_marseille","lat":43.297384,"lon":5.372085,"is_reserved":false,"is_disabled":false,"rental_uris":{"android":"levelo://app?vid=a639c491-c436-478a-8d5d-bd2c30b918ff","ios":"levelo://app?vid=a639c491-c436-478a-8d5d-bd2c30b918ff"},"vehicle_type_id":"4","last_reported":1758917471,"current_range_meters":11600,"station_id":"","pricing_plan_id":"cebpf4jnsgd1na2vs0mg"},{"bike_id":"3d8b1ca2-96f6-4d81-9d6e-41ecddf336d0","system_id":"levelo_inurba_marseille","lat":43.30288,"lon":5.36874,"is_reserved":false,"is_disabled":false,"rental_uris":{"android":"levelo://app?vid=3d8b1ca2-96f6-4d81-9d6e-41ecddf336d0","ios":"levelo://app?vid=3d8b1ca2-96f6-4d81-9d6e-41ecddf336d0"},"vehicle_type_id":"4","last_reported":1758917471,"current_range_meters":11200,"station_id":"ce4bgqh2rcd13ifvqc5g","pricing_plan_id":"cebpf4jnsgd1na2vs0mg"},{"bike_id":"8baeac13-7e80-456d-83aa-12e0372d0df5","system_id":"levelo_inurba_marseille","lat":43.3249,"lon":5.37554,"is_reserved":false,"is_disabled":false,"rental_uris":{"android":"levelo://app?vid=8baeac13-7e80-456d-83aa-12e0372d0df5","ios":"levelo://app?vid=8baeac13-7e80-456d-83aa-12e0372d0df5"},"vehicle_type_id":"4","last_reported":1758917471,"current_range_meters":11200,"station_id":"","pricing_plan_id":"cebpf4jnsgd1na2vs0mg"},{"bike_id":"429235c7-1abd-49c7-9ea9-407171828f0d","system_id":"levelo_inurba_marseille","lat":43.29022,"lon":5.38114,"is_reserved":false,"is_disabled":false,"rental_uris":{"android":"levelo://app?vid=429235c7-1abd-49c7-9ea9-407171828f0d","ios":"levelo://app?vid=429235c7-1abd-49c7-9ea9-407171828f0d"},"vehicle_type_id":"4","last_reported":1758917471,"current_range_meters":10800,"station_id":"ce4bh4p2rcd13ifvqe1g","pricing_plan_id":"cebpf4jnsgd1na2vs0mg"},{"bike_id":"b77c0c26-5543-49c5-acf9-741f709ee51a","system_id":"levelo_inurba_marseille","lat":43.26483,"lon":5.39548,"is_reserved":false,"is_disabled":true,"rental_uris":{"android":"levelo://app?vid=b77c0c26-5543-49c5-acf9-741f709ee51a","ios":"levelo://app?vid=b77c0c26-5543-49c5-acf9-741f709ee51a"},"vehicle_type_id":"4","last_reported":1758917471,"current_range_meters":11200,"station_id":"ce4bhi12rcd13ifvqfq0","pricing_plan_id":"cebpf4jnsgd1na2vs0mg"},{"bike_id":"a57b3feb-2354-42fe-87fd-e8fcee3a0260","system_id":"levelo_inurba_marseille","lat":43.26953,"lon":5.40241,"is_reserved":false,"is_disabled":false,"rental_uris":{"android":"levelo://app?vid=a57b3feb-2354-42fe-87fd-e8fcee3a0260","ios":"levelo://app?vid=a57b3feb-2354-42fe-87fd-e8fcee3a0260"},"vehicle_type_id":"4","last_reported":1758917471,"current_range_meters":11200,"station_id":"","pricing_plan_id":"cebpf4jnsgd1na2vs0mg"},{"bike_id":"6bcdfc7c-350c-4674-9ede-2928d75a3a1a","system_id":"levelo_inurba_marseille","lat":43.253317,"lon":5.421625,"is_reserved":false,"is_disabled":false,"rental_uris":{"android":"levelo://app?vid=6bcdfc7c-350c-4674-9ede-2928d75a3a1a","ios":"levelo://app?vid=6bcdfc7c-350c-4674-9ede-2928d75a3a1a"},"vehicle_type_id":"4","last_reported":1758917471,"current_range_meters":11200,"station_id":"st_d2m65c5bi1j21697t3ng","pricing_plan_id":"cebpf4jnsgd1na2vs0mg"},{"bike_id":"85ada73d-81bb-44b3-8b48-9a11bee35b9b","system_id":"levelo_inurba_marseille","lat":43.29185,"lon":5.35802,"is_reserved":false,"is_disabled":false,"rental_uris":{"android":"levelo://app?vid=85ada73d-81bb-44b3-8b48-9a11bee35b9b","ios":"levelo://app?vid=85ada73d-81bb-44b3-8b48-9a11bee35b9b"},"vehicle_type_id":"4","last_reported":1758917471,"current_range_meters":11600,"station_id":"ce4bhb12rcd13ifvqel0","pricing_plan_id":"cebpf4jnsgd1na2vs0mg"},{"bike_id":"dee81b5b-7c48-4c75-8249-0abe4ffef252","system_id":"levelo_inurba_marseille","lat":43.24943,"lon":5.40496,"is_reserved":false,"is_disabled":false,"rental_uris":{"android":"levelo://app?vid=dee81b5b-7c48-4c75-8249-0abe4ffef252","ios":"levelo://app?vid=dee81b5b-7c48-4c75-8249-0abe4ffef252"},"vehicle_type_id":"4","last_reported":1758917471,"current_range_meters":11600,"station_id":"st_d2ngiaodas8pm72gd1h0","pricing_plan_id":"cebpf4jnsgd1na2vs0mg"},{"bike_id":"376bcd1f-630a-4f4d-a49d-a8583356e5a2","system_id":"levelo_inurba_marseille","lat":43.28653,"lon":5.3933,"is_reserved":false,"is_disabled":false,"rental_uris":{"android":"levelo://app?vid=376bcd1f-630a-4f4d-a49d-a8583356e5a2","ios":"levelo://app?vid=376bcd1f-630a-4f4d-a49d-a8583356e5a2"},"vehicle_type_id":"4","last_reported":1758917471,"current_range_meters":11600,"station_id":"","pricing_plan_id":"cebpf4jnsgd1na2vs0mg"},{"bike_id":"d19bbf31-2033-4efa-9942-8cb338e53bde","system_id":"levelo_inurba_marseille","lat":43.31267,"lon":5.40169,"is_reserved":false,"is_disabled":false,"rental_uris":{"android":"levelo://app?vid=d19bbf31-2033-4efa-9942-8cb338e53bde","ios":"levelo://app?vid=d19bbf31-2033-4efa-9942-8cb338e53bde"},"vehicle_type_id":"4","last_reported":1758917471,"current_range_meters":11600,"station_id":"ce4bh092rcd13ifvqd30","pricing_plan_id":"cebpf4jnsgd1na2vs0mg"},{"bike_id":"04e1f2fc-a999-4e5d-b642-eb389a3f0235","system_id":"levelo_inurba_marseille","lat":43.30542,"lon":5.36545,"is_reserved":false,"is_disabled":true,"rental_uris":{"android":"levelo://app?vid=04e1f2fc-a999-4e5d-b642-eb389a3f0235","ios":"levelo://app?vid=04e1f2fc-a999-4e5d-b642-eb389a3f0235"},"vehicle_type_id":"4","last_reported":1758917471,"current_range_meters":11600,"station_id":"ce4bgs12rcd13ifvqcag","pricing_plan_id":"cebpf4jnsgd1na2vs0mg"},{"bike_id":"6c4b489e-a15e-4d09-99bb-610b1fca4c49","system_id":"levelo_inurba_marseille","lat":43.28994,"lon":5.37837,"is_reserved":false,"is_disabled":false,"rental_uris":{"android":"levelo://app?vid=6c4b489e-a15e-4d09-99bb-610b1fca4c49","ios":"levelo://app?vid=6c4b489e-a15e-4d09-99bb-610b1fca4c49"},"vehicle_type_id":"4","last_reported":1758917471,"current_range_meters":9200,"station_id":"ce4bh9p2rcd13ifvqed0","pricing_plan_id":"cebpf4jnsgd1na2vs0mg"},{"bike_id":"f2d58e6e-ea64-4860-80f7-b7018b4ff04d","system_id":"levelo_inurba_marseille","lat":43.29534,"lon":5.38549,"is_reserved":false,"is_disabled":false,"rental_uris":{"android":"levelo://app?vid=f2d58e6e-ea64-4860-80f7-b7018b4ff04d","ios":"levelo://app?vid=f2d58e6e-ea64-4860-80f7-b7018b4ff04d"},"vehicle_type_id":"4","last_reported":1758917471,"current_range_meters":12000,"station_id":"ce4bgih2rcd13ifvqba0","pricing_plan_id":"cebpf4jnsgd1na2vs0mg"},{"bike_id":"df649d25-1f44-4471-8cdd-9566da8ef9b9","system_id":"levelo_inurba_marseille","lat":43.31914,"lon":5.39296,"is_reserved":false,"is_disabled":false,"rental_uris":{"android":"levelo://app?vid=df649d25-1f44-4471-8cdd-9566da8ef9b9","ios":"levelo://app?vid=df649d25-1f44-4471-8cdd-9566da8ef9b9"},"vehicle_type_id":"4","last_reported":1758917471,"current_range_meters":12000,"station_id":"","pricing_plan_id":"cebpf4jnsgd1na2vs0mg"},{"bike_id":"fd18a301-a9dd-4600-afce-c6b935fa8b40","system_id":"levelo_inurba_marseille","lat":43.26173,"lon":5.37462,"is_reserved":false,"is_disabled":false,"rental_uris":{"android":"levelo://app?vid=fd18a301-a9dd-4600-afce-c6b935fa8b40","ios":"levelo://app?vid=fd18a301-a9dd-4600-afce-c6b935fa8b40"},"vehicle_type_id":"4","last_reported":1758917471,"current_range_meters":12000,"station_id":"ce4bhgp2rcd13ifvqfc0","pricing_plan_id":"cebpf4jnsgd1na2vs0mg"},{"bike_id":"a939b0a7-1013-4e44-8bfd-17ca87154341","system_id":"levelo_inurba_marseille","lat":43.27204,"lon":5.39185,"is_reserved":false,"is_disabled":false,"rental_uris":{"android":"levelo://app?vid=a939b0a7-1013-4e44-8bfd-17ca87154341","ios":"levelo://app?vid=a939b0a7-1013-4e44-8bfd-17ca87154341"},"vehicle_type_id":"4","last_reported":1758917471,"current_range_meters":12000,"station_id":"ce4bhhp2rcd13ifvqfm0","pricing_plan_id":"cebpf4jnsgd1na2vs0mg"},{"bike_id":"7266fb39-452a-4e7f-aafa-8725c9c5d955","system_id":"levelo_inurba_marseille","lat":43.27178,"lon":5.40993,"is_reserved":false,"is_disabled":false,"rental_uris":{"android":"levelo://app?vid=7266fb39-452a-4e7f-aafa-8725c9c5d955","ios":"levelo://app?vid=7266fb39-452a-4e7f-aafa-8725c9c5d955"},"vehicle_type_id":"4","last_reported":1758917471,"current_range_meters":12000,"station_id":"ce4bhl12rcd13ifvqgf0","pricing_plan_id":"cebpf4jnsgd1na2vs0mg"},{"bike_id":"3f51e03c-3abb-4dde-8cdd-da596aa3252f","system_id":"levelo_inurba_marseille","lat":43.27672,"lon":5.38893,"is_reserved":false,"is_disabled":true,"rental_uris":{"android":"levelo://app?vid=3f51e03c-3abb-4dde-8cdd-da596aa3252f","ios":"levelo://app?vid=3f51e03c-3abb-4dde-8cdd-da596aa3252f"},"vehicle_type_id":"4","last_reported":1758917471,"current_range_meters":12000,"station_id":"ce4bhi12rcd13ifvqfo0","pricing_plan_id":"cebpf4jnsgd1na2vs0mg"},{"bike_id":"f8128348-f3bf-41cc-8b6e-a6df8137ba43","system_id":"levelo_inurba_marseille","lat":43.29264,"lon":5.38454,"is_reserved":false,"is_disabled":false,"rental_uris":{"android":"levelo://app?vid=f8128348-f3bf-41cc-8b6e-a6df8137ba43","ios":"levelo://app?vid=f8128348-f3bf-41cc-8b6e-a6df8137ba43"},"vehicle_type_id":"4","last_reported":1758917471,"current_range_meters":12000,"station_id":"ce4bh692rcd13ifvqea0","pricing_plan_id":"cebpf4jnsgd1na2vs0mg"},{"bike_id":"ca7849f4-d722-49c8-ba75-9d23fe49404b","system_id":"levelo_inurba_marseille","lat":43.2927,"lon":5.3845,"is_reserved":false,"is_disabled":false,"rental_uris":{"android":"levelo://app?vid=ca7849f4-d722-49c8-ba75-9d23fe49404b","ios":"levelo://app?vid=ca7849f4-d722-49c8-ba75-9d23fe49404b"},"vehicle_type_id":"4","last_reported":1758917471,"current_range_meters":12000,"station_id":"ce4bh692rcd13ifvqea0","pricing_plan_id":"cebpf4jnsgd1na2vs0mg"},{"bike_id":"5814be27-5df6-4d46-8bc8-b7ef5f7b5364","system_id":"levelo_inurba_marseille","lat":43.28168,"lon":5.42643,"is_reserved":false,"is_disabled":false,"rental_uris":{"android":"levelo://app?vid=5814be27-5df6-4d46-8bc8-b7ef5f7b5364","ios":"levelo://app?vid=5814be27-5df6-4d46-8bc8-b7ef5f7b5364"},"vehicle_type_id":"4","last_reported":1758917471,"current_range_meters":11600,"station_id":"ce4bhnh2rcd13ifvqgug","pricing_plan_id":"cebpf4jnsgd1na2vs0mg"},{"bike_id":"492ad12c-b243-47af-8b99-b8dc1dc5237a","system_id":"levelo_inurba_marseille","lat":43.22886,"lon":5.35414,"is_reserved":false,"is_disabled":false,"rental_uris":{"android":"levelo://app?vid=492ad12c-b243-47af-8b99-b8dc1dc5237a","ios":"levelo://app?vid=492ad12c-b243-47af-8b99-b8dc1dc5237a"},"vehicle_type_id":"4","last_reported":1758917471,"current_range_meters":12000,"station_id":"cpo3532slgdg3j2ikp40","pricing_plan_id":"cebpf4jnsgd1na2vs0mg"},{"bike_id":"bc9c96f8-1998-46a3-ba0d-3411dda7801f","system_id":"levelo_inurba_marseille","lat":43.31176,"lon":5.38727,"is_reserved":false,"is_disabled":false,"rental_uris":{"android":"levelo://app?vid=bc9c96f8-1998-46a3-ba0d-3411dda7801f","ios":"levelo://app?vid=bc9c96f8-1998-46a3-ba0d-3411dda7801f"},"vehicle_type_id":"4","last_reported":1758917471,"current_range_meters":12000,"station_id":"ce4bgv12rcd13ifvqcp0","pricing_plan_id":"cebpf4jnsgd1na2vs0mg"},{"bike_id":"2d0a5d9e-0d2e-45c2-a2c1-c63df04b4a22","system_id":"levelo_inurba_marseille","lat":43.292728,"lon":5.368445,"is_reserved":false,"is_disabled":false,"rental_uris":{"android":"levelo://app?vid=2d0a5d9e-0d2e-45c2-a2c1-c63df04b4a22","ios":"levelo://app?vid=2d0a5d9e-0d2e-45c2-a2c1-c63df04b4a22"},"vehicle_type_id":"4","last_reported":1758917471,"current_range_meters":12400,"station_id":"ce4bhbp2rcd13ifvqesg","pricing_plan_id":"cebpf4jnsgd1na2vs0mg"},{"bike_id":"0c614797-7533-44b1-891c-fb79f84a2d57","system_id":"levelo_inurba_marseille","lat":43.29271,"lon":5.36847,"is_reserved":false,"is_disabled":false,"rental_uris":{"android":"levelo://app?vid=0c614797-7533-44b1-891c-fb79f84a2d57","ios":"levelo://app?vid=0c614797-7533-44b1-891c-fb79f84a2d57"},"vehicle_type_id":"4","last_reported":1758917471,"current_range_meters":12400,"station_id":"ce4bhbp2rcd13ifvqesg","pricing_plan_id":"cebpf4jnsgd1na2vs0mg"},{"bike_id":"08292ac0-f4a0-4778-9703-5ac015ee1e3a","system_id":"levelo_inurba_marseille","lat":43.24615,"lon":5.43145,"is_reserved":false,"is_disabled":false,"rental_uris":{"android":"levelo://app?vid=08292ac0-f4a0-4778-9703-5ac015ee1e3a","ios":"levelo://app?vid=08292ac0-f4a0-4778-9703-5ac015ee1e3a"},"vehicle_type_id":"4","last_reported":1758917471,"current_range_meters":12400,"station_id":"st_d2m6c4gdas8pm72e190g","pricing_plan_id":"cebpf4jnsgd1na2vs0mg"},{"bike_id":"32f5a784-dc21-4a38-af5c-86517689d1fc","system_id":"levelo_inurba_marseille","lat":43.29295,"lon":5.37455,"is_reserved":false,"is_disabled":false,"rental_uris":{"android":"levelo://app?vid=32f5a784-dc21-4a38-af5c-86517689d1fc","ios":"levelo://app?vid=32f5a784-dc21-4a38-af5c-86517689d1fc"},"vehicle_type_id":"4","last_reported":1758917471,"current_range_meters":12400,"station_id":"ce4bgi12rcd13ifvqb70","pricing_plan_id":"cebpf4jnsgd1na2vs0mg"},{"bike_id":"ffe7e82a-c1a4-44c5-8be6-3a108e61f1b1","system_id":"levelo_inurba_marseille","lat":43.29025,"lon":5.38641,"is_reserved":false,"is_disabled":false,"rental_uris":{"android":"levelo://app?vid=ffe7e82a-c1a4-44c5-8be6-3a108e61f1b1","ios":"levelo://app?vid=ffe7e82a-c1a4-44c5-8be6-3a108e61f1b1"},"vehicle_type_id":"4","last_reported":1758917471,"current_range_meters":12400,"station_id":"ce4bh4p2rcd13ifvqe0g","pricing_plan_id":"cebpf4jnsgd1na2vs0mg"},{"bike_id":"eddd3b02-959b-4f2e-a439-a3d8947e779b","system_id":"levelo_inurba_marseille","lat":43.29559,"lon":5.38534,"is_reserved":false,"is_disabled":false,"rental_uris":{"android":"levelo://app?vid=eddd3b02-959b-4f2e-a439-a3d8947e779b","ios":"levelo://app?vid=eddd3b02-959b-4f2e-a439-a3d8947e779b"},"vehicle_type_id":"4","last_reported":1758917471,"current_range_meters":12400,"station_id":"ce4bgih2rcd13ifvqba0","pricing_plan_id":"cebpf4jnsgd1na2vs0mg"},{"bike_id":"f59933d2-584b-4d31-b540-f48162f472e1","system_id":"levelo_inurba_marseille","lat":43.2861,"lon":5.35098,"is_reserved":false,"is_disabled":false,"rental_uris":{"android":"levelo://app?vid=f59933d2-584b-4d31-b540-f48162f472e1","ios":"levelo://app?vid=f59933d2-584b-4d31-b540-f48162f472e1"},"vehicle_type_id":"4","last_reported":1758917471,"current_range_meters":12400,"station_id":"ce4bhch2rcd13ifvqeug","pricing_plan_id":"cebpf4jnsgd1na2vs0mg"},{"bike_id":"9a4f92ed-e086-4038-a651-bbe0613f80bd","system_id":"levelo_inurba_marseille","lat":43.22575,"lon":5.41634,"is_reserved":false,"is_disabled":false,"rental_uris":{"android":"levelo://app?vid=9a4f92ed-e086-4038-a651-bbe0613f80bd","ios":"levelo://app?vid=9a4f92ed-e086-4038-a651-bbe0613f80bd"},"vehicle_type_id":"4","last_reported":1758917471,"current_range_meters":12400,"station_id":"st_d2o4gvlbi1j2169b742g","pricing_plan_id":"cebpf4jnsgd1na2vs0mg"},{"bike_id":"57dc4d48-a588-470d-9e76-731f989cf022","system_id":"levelo_inurba_marseille","lat":43.27171,"lon":5.40993,"is_reserved":false,"is_disabled":false,"rental_uris":{"android":"levelo://app?vid=57dc4d48-a588-470d-9e76-731f989cf022","ios":"levelo://app?vid=57dc4d48-a588-470d-9e76-731f989cf022"},"vehicle_type_id":"4","last_reported":1758917471,"current_range_meters":12400,"station_id":"ce4bhl12rcd13ifvqgf0","pricing_plan_id":"cebpf4jnsgd1na2vs0mg"},{"bike_id":"08fe2b08-b3fa-43f8-ae73-04061f76318d","system_id":"levelo_inurba_marseille","lat":43.305552,"lon":5.365395,"is_reserved":false,"is_disabled":false,"rental_uris":{"android":"levelo://app?vid=08fe2b08-b3fa-43f8-ae73-04061f76318d","ios":"levelo://app?vid=08fe2b08-b3fa-43f8-ae73-04061f76318d"},"vehicle_type_id":"4","last_reported":1758917471,"current_range_meters":12400,"station_id":"","pricing_plan_id":"cebpf4jnsgd1na2vs0mg"},{"bike_id":"10b8d871-07e9-4114-9eb9-6bcce40e7beb","system_id":"levelo_inurba_marseille","lat":43.27045,"lon":5.392226,"is_reserved":false,"is_disabled":false,"rental_uris":{"android":"levelo://app?vid=10b8d871-07e9-4114-9eb9-6bcce40e7beb","ios":"levelo://app?vid=10b8d871-07e9-4114-9eb9-6bcce40e7beb"},"vehicle_type_id":"4","last_reported":1758917471,"current_range_meters":12400,"station_id":"ce4bhe12rcd13ifvqf30","pricing_plan_id":"cebpf4jnsgd1na2vs0mg"},{"bike_id":"c2b9d126-7ce6-4e9d-a7b8-2d0264a529c7","system_id":"levelo_inurba_marseille","lat":43.262216,"lon":5.375124,"is_reserved":false,"is_disabled":false,"rental_uris":{"android":"levelo://app?vid=c2b9d126-7ce6-4e9d-a7b8-2d0264a529c7","ios":"levelo://app?vid=c2b9d126-7ce6-4e9d-a7b8-2d0264a529c7"},"vehicle_type_id":"4","last_reported":1758917471,"current_range_meters":14800,"station_id":"ce4bhjp2rcd13ifvqg90","pricing_plan_id":"cebpf4jnsgd1na2vs0mg"},{"bike_id":"b50adb50-84c5-4a4f-beec-c7ad065e5b4a","system_id":"levelo_inurba_marseille","lat":43.279968,"lon":5.416626,"is_reserved":false,"is_disabled":false,"rental_uris":{"android":"levelo://app?vid=b50adb50-84c5-4a4f-beec-c7ad065e5b4a","ios":"levelo://app?vid=b50adb50-84c5-4a4f-beec-c7ad065e5b4a"},"vehicle_type_id":"4","last_reported":1758917471,"current_range_meters":12400,"station_id":"ce4bho12rcd13ifvqh1g","pricing_plan_id":"cebpf4jnsgd1na2vs0mg"},{"bike_id":"f2fe1943-f40a-4ecf-a534-fbb1aecdddfe","system_id":"levelo_inurba_marseille","lat":43.29257,"lon":5.38442,"is_reserved":false,"is_disabled":false,"rental_uris":{"android":"levelo://app?vid=f2fe1943-f40a-4ecf-a534-fbb1aecdddfe","ios":"levelo://app?vid=f2fe1943-f40a-4ecf-a534-fbb1aecdddfe"},"vehicle_type_id":"4","last_reported":1758917471,"current_range_meters":12400,"station_id":"ce4bh692rcd13ifvqea0","pricing_plan_id":"cebpf4jnsgd1na2vs0mg"},{"bike_id":"3be1415e-65a3-4c87-9e41-bbfa45afed45","system_id":"levelo_inurba_marseille","lat":43.2989,"lon":5.43675,"is_reserved":false,"is_disabled":false,"rental_uris":{"android":"levelo://app?vid=3be1415e-65a3-4c87-9e41-bbfa45afed45","ios":"levelo://app?vid=3be1415e-65a3-4c87-9e41-bbfa45afed45"},"vehicle_type_id":"4","last_reported":1758917471,"current_range_meters":12800,"station_id":"ce4bhpp2rcd13ifvqhfg","pricing_plan_id":"cebpf4jnsgd1na2vs0mg"},{"bike_id":"a14e635a-9cde-473d-8504-3884d8a87d0c","system_id":"levelo_inurba_marseille","lat":43.28576,"lon":5.3949,"is_reserved":false,"is_disabled":false,"rental_uris":{"android":"levelo://app?vid=a14e635a-9cde-473d-8504-3884d8a87d0c","ios":"levelo://app?vid=a14e635a-9cde-473d-8504-3884d8a87d0c"},"vehicle_type_id":"4","last_reported":1758917471,"current_range_meters":12800,"station_id":"ce4bh292rcd13ifvqdg0","pricing_plan_id":"cebpf4jnsgd1na2vs0mg"},{"bike_id":"a0ed6d09-c57c-4e99-a7f9-b6cbbe669709","system_id":"levelo_inurba_marseille","lat":43.30392,"lon":5.42496,"is_reserved":false,"is_disabled":false,"rental_uris":{"android":"levelo://app?vid=a0ed6d09-c57c-4e99-a7f9-b6cbbe669709","ios":"levelo://app?vid=a0ed6d09-c57c-4e99-a7f9-b6cbbe669709"},"vehicle_type_id":"4","last_reported":1758917471,"current_range_meters":12800,"station_id":"ce4bhoh2rcd13ifvqh6g","pricing_plan_id":"cebpf4jnsgd1na2vs0mg"},{"bike_id":"ad933a39-4eb4-484e-8fba-b9dfb6db5eb6","system_id":"levelo_inurba_marseille","lat":43.299099,"lon":5.381431,"is_reserved":false,"is_disabled":false,"rental_uris":{"android":"levelo://app?vid=ad933a39-4eb4-484e-8fba-b9dfb6db5eb6","ios":"levelo://app?vid=ad933a39-4eb4-484e-8fba-b9dfb6db5eb6"},"vehicle_type_id":"4","last_reported":1758917471,"current_range_meters":12400,"station_id":"ce4bgj12rcd13ifvqbc0","pricing_plan_id":"cebpf4jnsgd1na2vs0mg"},{"bike_id":"de3747e9-e37c-4cdb-ad1a-9f67e8a91990","system_id":"levelo_inurba_marseille","lat":43.231843,"lon":5.399854,"is_reserved":false,"is_disabled":false,"rental_uris":{"android":"levelo://app?vid=de3747e9-e37c-4cdb-ad1a-9f67e8a91990","ios":"levelo://app?vid=de3747e9-e37c-4cdb-ad1a-9f67e8a91990"},"vehicle_type_id":"4","last_reported":1758917471,"current_range_meters":12800,"station_id":"ce4bhn12rcd13ifvqgqg","pricing_plan_id":"cebpf4jnsgd1na2vs0mg"},{"bike_id":"9ce5639d-47de-4867-9d92-1b26e8bf5e1c","system_id":"levelo_inurba_marseille","lat":43.29039,"lon":5.38631,"is_reserved":false,"is_disabled":false,"rental_uris":{"android":"levelo://app?vid=9ce5639d-47de-4867-9d92-1b26e8bf5e1c","ios":"levelo://app?vid=9ce5639d-47de-4867-9d92-1b26e8bf5e1c"},"vehicle_type_id":"4","last_reported":1758917471,"current_range_meters":12800,"station_id":"ce4bh4p2rcd13ifvqe0g","pricing_plan_id":"cebpf4jnsgd1na2vs0mg"},{"bike_id":"4407f0c7-f8f2-44c4-b16c-74d5984e3278","system_id":"levelo_inurba_marseille","lat":43.25566,"lon":5.38231,"is_reserved":false,"is_disabled":true,"rental_uris":{"android":"levelo://app?vid=4407f0c7-f8f2-44c4-b16c-74d5984e3278","ios":"levelo://app?vid=4407f0c7-f8f2-44c4-b16c-74d5984e3278"},"vehicle_type_id":"4","last_reported":1758917471,"current_range_meters":12800,"station_id":"ce4bhih2rcd13ifvqfs0","pricing_plan_id":"cebpf4jnsgd1na2vs0mg"},{"bike_id":"fee74e98-eb52-4f66-a612-109c75f34aa6","system_id":"levelo_inurba_marseille","lat":43.29607,"lon":5.37944,"is_reserved":false,"is_disabled":false,"rental_uris":{"android":"levelo://app?vid=fee74e98-eb52-4f66-a612-109c75f34aa6","ios":"levelo://app?vid=fee74e98-eb52-4f66-a612-109c75f34aa6"},"vehicle_type_id":"4","last_reported":1758917471,"current_range_meters":12800,"station_id":"","pricing_plan_id":"cebpf4jnsgd1na2vs0mg"},{"bike_id":"be2872ef-f5d9-4685-b95d-fb503bad1acd","system_id":"levelo_inurba_marseille","lat":43.301385,"lon":5.381001,"is_reserved":false,"is_disabled":true,"rental_uris":{"android":"levelo://app?vid=be2872ef-f5d9-4685-b95d-fb503bad1acd","ios":"levelo://app?vid=be2872ef-f5d9-4685-b95d-fb503bad1acd"},"vehicle_type_id":"4","last_reported":1758917471,"current_range_meters":12800,"station_id":"ce4bgjp2rcd13ifvqbh0","pricing_plan_id":"cebpf4jnsgd1na2vs0mg"},{"bike_id":"5ea12ce0-e32a-4146-9394-f72d7df2859d","system_id":"levelo_inurba_marseille","lat":43.30367,"lon":5.4249,"is_reserved":false,"is_disabled":false,"rental_uris":{"android":"levelo://app?vid=5ea12ce0-e32a-4146-9394-f72d7df2859d","ios":"levelo://app?vid=5ea12ce0-e32a-4146-9394-f72d7df2859d"},"vehicle_type_id":"4","last_reported":1758917471,"current_range_meters":12800,"station_id":"ce4bhoh2rcd13ifvqh6g","pricing_plan_id":"cebpf4jnsgd1na2vs0mg"},{"bike_id":"c717f042-ea61-467a-8c2d-e12bb518d5ac","system_id":"levelo_inurba_marseille","lat":43.2904,"lon":5.38649,"is_reserved":false,"is_disabled":false,"rental_uris":{"android":"levelo://app?vid=c717f042-ea61-467a-8c2d-e12bb518d5ac","ios":"levelo://app?vid=c717f042-ea61-467a-8c2d-e12bb518d5ac"},"vehicle_type_id":"4","last_reported":1758917471,"current_range_meters":13600,"station_id":"ce4bh4p2rcd13ifvqe0g","pricing_plan_id":"cebpf4jnsgd1na2vs0mg"},{"bike_id":"0b01e881-a275-45eb-a15a-645add1561c8","system_id":"levelo_inurba_marseille","lat":43.28587,"lon":5.35122,"is_reserved":false,"is_disabled":false,"rental_uris":{"android":"levelo://app?vid=0b01e881-a275-45eb-a15a-645add1561c8","ios":"levelo://app?vid=0b01e881-a275-45eb-a15a-645add1561c8"},"vehicle_type_id":"4","last_reported":1758917471,"current_range_meters":13600,"station_id":"ce4bhch2rcd13ifvqeug","pricing_plan_id":"cebpf4jnsgd1na2vs0mg"},{"bike_id":"e068fba2-d5f5-4586-981c-84563a6c6666","system_id":"levelo_inurba_marseille","lat":43.31319,"lon":5.39726,"is_reserved":false,"is_disabled":true,"rental_uris":{"android":"levelo://app?vid=e068fba2-d5f5-4586-981c-84563a6c6666","ios":"levelo://app?vid=e068fba2-d5f5-4586-981c-84563a6c6666"},"vehicle_type_id":"4","last_reported":1758917471,"current_range_meters":13600,"station_id":"ce4bgvp2rcd13ifvqcu0","pricing_plan_id":"cebpf4jnsgd1na2vs0mg"},{"bike_id":"5e514ebf-0526-442c-bf33-a28cdacf2bc5","system_id":"levelo_inurba_marseille","lat":43.27968,"lon":5.38759,"is_reserved":false,"is_disabled":false,"rental_uris":{"android":"levelo://app?vid=5e514ebf-0526-442c-bf33-a28cdacf2bc5","ios":"levelo://app?vid=5e514ebf-0526-442c-bf33-a28cdacf2bc5"},"vehicle_type_id":"4","last_reported":1758917471,"current_range_meters":13600,"station_id":"ce4bhg12rcd13ifvqf80","pricing_plan_id":"cebpf4jnsgd1na2vs0mg"},{"bike_id":"ee5efa6d-eaa3-46b9-841c-5f3e2e30db86","system_id":"levelo_inurba_marseille","lat":43.23177,"lon":5.3999,"is_reserved":false,"is_disabled":false,"rental_uris":{"android":"levelo://app?vid=ee5efa6d-eaa3-46b9-841c-5f3e2e30db86","ios":"levelo://app?vid=ee5efa6d-eaa3-46b9-841c-5f3e2e30db86"},"vehicle_type_id":"4","last_reported":1758917471,"current_range_meters":12800,"station_id":"ce4bhn12rcd13ifvqgqg","pricing_plan_id":"cebpf4jnsgd1na2vs0mg"},{"bike_id":"f626f457-0696-4e32-af9e-687030f53c6d","system_id":"levelo_inurba_marseille","lat":43.33767,"lon":5.37485,"is_reserved":false,"is_disabled":false,"rental_uris":{"android":"levelo://app?vid=f626f457-0696-4e32-af9e-687030f53c6d","ios":"levelo://app?vid=f626f457-0696-4e32-af9e-687030f53c6d"},"vehicle_type_id":"4","last_reported":1758917471,"current_range_meters":13600,"station_id":"","pricing_plan_id":"cebpf4jnsgd1na2vs0mg"},{"bike_id":"0b2fda4e-ac18-414b-8b05-54fcdd4fc421","system_id":"levelo_inurba_marseille","lat":43.32287,"lon":5.38271,"is_reserved":false,"is_disabled":false,"rental_uris":{"android":"levelo://app?vid=0b2fda4e-ac18-414b-8b05-54fcdd4fc421","ios":"levelo://app?vid=0b2fda4e-ac18-414b-8b05-54fcdd4fc421"},"vehicle_type_id":"4","last_reported":1758917471,"current_range_meters":13600,"station_id":"ce4bhr12rcd13ifvqhqg","pricing_plan_id":"cebpf4jnsgd1na2vs0mg"},{"bike_id":"27623baf-3f1d-454d-8961-43d2a2bff43f","system_id":"levelo_inurba_marseille","lat":43.29193,"lon":5.39325,"is_reserved":false,"is_disabled":false,"rental_uris":{"android":"levelo://app?vid=27623baf-3f1d-454d-8961-43d2a2bff43f","ios":"levelo://app?vid=27623baf-3f1d-454d-8961-43d2a2bff43f"},"vehicle_type_id":"4","last_reported":1758917471,"current_range_meters":13600,"station_id":"ce4bh192rcd13ifvqdd0","pricing_plan_id":"cebpf4jnsgd1na2vs0mg"},{"bike_id":"45e07bae-690f-4ff3-a8bd-511d32841972","system_id":"levelo_inurba_marseille","lat":43.24807,"lon":5.40121,"is_reserved":false,"is_disabled":false,"rental_uris":{"android":"levelo://app?vid=45e07bae-690f-4ff3-a8bd-511d32841972","ios":"levelo://app?vid=45e07bae-690f-4ff3-a8bd-511d32841972"},"vehicle_type_id":"4","last_reported":1758917471,"current_range_meters":14000,"station_id":"","pricing_plan_id":"cebpf4jnsgd1na2vs0mg"},{"bike_id":"0f78a3cc-49db-45bc-99ad-d3e120952dec","system_id":"levelo_inurba_marseille","lat":43.30358,"lon":5.41882,"is_reserved":false,"is_disabled":false,"rental_uris":{"android":"levelo://app?vid=0f78a3cc-49db-45bc-99ad-d3e120952dec","ios":"levelo://app?vid=0f78a3cc-49db-45bc-99ad-d3e120952dec"},"vehicle_type_id":"4","last_reported":1758917471,"current_range_meters":13600,"station_id":"ce4bhop2rcd13ifvqh7g","pricing_plan_id":"cebpf4jnsgd1na2vs0mg"},{"bike_id":"85782661-163d-4a8b-b5a4-1f0a766faaa2","system_id":"levelo_inurba_marseille","lat":43.24641,"lon":5.43145,"is_reserved":false,"is_disabled":false,"rental_uris":{"android":"levelo://app?vid=85782661-163d-4a8b-b5a4-1f0a766faaa2","ios":"levelo://app?vid=85782661-163d-4a8b-b5a4-1f0a766faaa2"},"vehicle_type_id":"4","last_reported":1758917471,"current_range_meters":14400,"station_id":"st_d2m6c4gdas8pm72e190g","pricing_plan_id":"cebpf4jnsgd1na2vs0mg"},{"bike_id":"22101d6a-73e8-4c4a-929a-f52c58b8a723","system_id":"levelo_inurba_marseille","lat":43.29718,"lon":5.37695,"is_reserved":false,"is_disabled":false,"rental_uris":{"android":"levelo://app?vid=22101d6a-73e8-4c4a-929a-f52c58b8a723","ios":"levelo://app?vid=22101d6a-73e8-4c4a-929a-f52c58b8a723"},"vehicle_type_id":"4","last_reported":1758917471,"current_range_meters":14000,"station_id":"ce4bgkh2rcd13ifvqbl0","pricing_plan_id":"cebpf4jnsgd1na2vs0mg"},{"bike_id":"cdac8367-fb75-47fa-853e-7df1470d3e85","system_id":"levelo_inurba_marseille","lat":43.28943,"lon":5.36629,"is_reserved":false,"is_disabled":false,"rental_uris":{"android":"levelo://app?vid=cdac8367-fb75-47fa-853e-7df1470d3e85","ios":"levelo://app?vid=cdac8367-fb75-47fa-853e-7df1470d3e85"},"vehicle_type_id":"4","last_reported":1758917471,"current_range_meters":13600,"station_id":"ce4bhap2rcd13ifvqek0","pricing_plan_id":"cebpf4jnsgd1na2vs0mg"},{"bike_id":"41fbe864-b9c2-4b8a-a22b-e40ee788b52e","system_id":"levelo_inurba_marseille","lat":43.25088,"lon":5.39513,"is_reserved":false,"is_disabled":false,"rental_uris":{"android":"levelo://app?vid=41fbe864-b9c2-4b8a-a22b-e40ee788b52e","ios":"levelo://app?vid=41fbe864-b9c2-4b8a-a22b-e40ee788b52e"},"vehicle_type_id":"4","last_reported":1758917471,"current_range_meters":14000,"station_id":"ce4bhm12rcd13ifvqgkg","pricing_plan_id":"cebpf4jnsgd1na2vs0mg"},{"bike_id":"f8f05e6e-6b2f-4a1f-aabd-e56e236b2b84","system_id":"levelo_inurba_marseille","lat":43.30418,"lon":5.41283,"is_reserved":false,"is_disabled":false,"rental_uris":{"android":"levelo://app?vid=f8f05e6e-6b2f-4a1f-aabd-e56e236b2b84","ios":"levelo://app?vid=f8f05e6e-6b2f-4a1f-aabd-e56e236b2b84"},"vehicle_type_id":"4","last_reported":1758917471,"current_range_meters":13600,"station_id":"ce4bhop2rcd13ifvqh8g","pricing_plan_id":"cebpf4jnsgd1na2vs0mg"},{"bike_id":"16ca026c-2e93-4109-b5ae-44d8ca80ce0b","system_id":"levelo_inurba_marseille","lat":43.30323,"lon":5.404448,"is_reserved":false,"is_disabled":false,"rental_uris":{"android":"levelo://app?vid=16ca026c-2e93-4109-b5ae-44d8ca80ce0b","ios":"levelo://app?vid=16ca026c-2e93-4109-b5ae-44d8ca80ce0b"},"vehicle_type_id":"4","last_reported":1758917471,"current_range_meters":13600,"station_id":"ce4bh012rcd13ifvqd10","pricing_plan_id":"cebpf4jnsgd1na2vs0mg"},{"bike_id":"ad6b199c-a2ce-4fc8-b4fd-ac6922964791","system_id":"levelo_inurba_marseille","lat":43.28036,"lon":5.36955,"is_reserved":false,"is_disabled":false,"rental_uris":{"android":"levelo://app?vid=ad6b199c-a2ce-4fc8-b4fd-ac6922964791","ios":"levelo://app?vid=ad6b199c-a2ce-4fc8-b4fd-ac6922964791"},"vehicle_type_id":"4","last_reported":1758917471,"current_range_meters":14000,"station_id":"ce4bha12rcd13ifvqef0","pricing_plan_id":"cebpf4jnsgd1na2vs0mg"},{"bike_id":"ab915236-e4e0-43d4-b3d0-7dc20b4ec838","system_id":"levelo_inurba_marseille","lat":43.31328,"lon":5.36727,"is_reserved":false,"is_disabled":false,"rental_uris":{"android":"levelo://app?vid=ab915236-e4e0-43d4-b3d0-7dc20b4ec838","ios":"levelo://app?vid=ab915236-e4e0-43d4-b3d0-7dc20b4ec838"},"vehicle_type_id":"4","last_reported":1758917471,"current_range_meters":14000,"station_id":"ce4bgr92rcd13ifvqc6g","pricing_plan_id":"cebpf4jnsgd1na2vs0mg"},{"bike_id":"8cf842e4-76c1-4a82-ad31-66529da65dba","system_id":"levelo_inurba_marseille","lat":43.267023,"lon":5.402007,"is_reserved":false,"is_disabled":false,"rental_uris":{"android":"levelo://app?vid=8cf842e4-76c1-4a82-ad31-66529da65dba","ios":"levelo://app?vid=8cf842e4-76c1-4a82-ad31-66529da65dba"},"vehicle_type_id":"4","last_reported":1758917471,"current_range_meters":14400,"station_id":"","pricing_plan_id":"cebpf4jnsgd1na2vs0mg"},{"bike_id":"71e53df6-932e-427a-bf3e-ecc2dfa51666","system_id":"levelo_inurba_marseille","lat":43.31536,"lon":5.38031,"is_reserved":false,"is_disabled":false,"rental_uris":{"android":"levelo://app?vid=71e53df6-932e-427a-bf3e-ecc2dfa51666","ios":"levelo://app?vid=71e53df6-932e-427a-bf3e-ecc2dfa51666"},"vehicle_type_id":"4","last_reported":1758917471,"current_range_meters":14000,"station_id":"ce4bhsp2rcd13ifvqi50","pricing_plan_id":"cebpf4jnsgd1na2vs0mg"},{"bike_id":"3652de56-c611-41c6-aa03-7fef6136da9d","system_id":"levelo_inurba_marseille","lat":43.25018,"lon":5.38922,"is_reserved":false,"is_disabled":false,"rental_uris":{"android":"levelo://app?vid=3652de56-c611-41c6-aa03-7fef6136da9d","ios":"levelo://app?vid=3652de56-c611-41c6-aa03-7fef6136da9d"},"vehicle_type_id":"4","last_reported":1758917471,"current_range_meters":14400,"station_id":"ce4bhgp2rcd13ifvqfd0","pricing_plan_id":"cebpf4jnsgd1na2vs0mg"},{"bike_id":"70b7ea01-eb7d-4ad4-9d7b-08819c9c9cd3","system_id":"levelo_inurba_marseille","lat":43.25566,"lon":5.38253,"is_reserved":false,"is_disabled":true,"rental_uris":{"android":"levelo://app?vid=70b7ea01-eb7d-4ad4-9d7b-08819c9c9cd3","ios":"levelo://app?vid=70b7ea01-eb7d-4ad4-9d7b-08819c9c9cd3"},"vehicle_type_id":"4","last_reported":1758917471,"current_range_meters":14400,"station_id":"ce4bhih2rcd13ifvqfs0","pricing_plan_id":"cebpf4jnsgd1na2vs0mg"},{"bike_id":"15b8abb9-1b82-439d-bef4-2444276aa7c3","system_id":"levelo_inurba_marseille","lat":43.310725,"lon":5.383441,"is_reserved":false,"is_disabled":true,"rental_uris":{"android":"levelo://app?vid=15b8abb9-1b82-439d-bef4-2444276aa7c3","ios":"levelo://app?vid=15b8abb9-1b82-439d-bef4-2444276aa7c3"},"vehicle_type_id":"4","last_reported":1758917471,"current_range_meters":14400,"station_id":"ce4bgv92rcd13ifvqcr0","pricing_plan_id":"cebpf4jnsgd1na2vs0mg"},{"bike_id":"117f6fd9-cf28-47ba-8ef3-e1c3a0076d6b","system_id":"levelo_inurba_marseille","lat":43.32056,"lon":5.41528,"is_reserved":false,"is_disabled":false,"rental_uris":{"android":"levelo://app?vid=117f6fd9-cf28-47ba-8ef3-e1c3a0076d6b","ios":"levelo://app?vid=117f6fd9-cf28-47ba-8ef3-e1c3a0076d6b"},"vehicle_type_id":"4","last_reported":1758917471,"current_range_meters":14000,"station_id":"ce4bhq92rcd13ifvqhkg","pricing_plan_id":"cebpf4jnsgd1na2vs0mg"},{"bike_id":"83c24ba8-e5e4-4dcf-945a-5a9ee254e274","system_id":"levelo_inurba_marseille","lat":43.27061,"lon":5.42273,"is_reserved":false,"is_disabled":false,"rental_uris":{"android":"levelo://app?vid=83c24ba8-e5e4-4dcf-945a-5a9ee254e274","ios":"levelo://app?vid=83c24ba8-e5e4-4dcf-945a-5a9ee254e274"},"vehicle_type_id":"4","last_reported":1758917471,"current_range_meters":14400,"station_id":"ce4bhk92rcd13ifvqgb0","pricing_plan_id":"cebpf4jnsgd1na2vs0mg"},{"bike_id":"63d52c35-c9c9-44eb-9780-1b2f9145123b","system_id":"levelo_inurba_marseille","lat":43.29627,"lon":5.377037,"is_reserved":false,"is_disabled":false,"rental_uris":{"android":"levelo://app?vid=63d52c35-c9c9-44eb-9780-1b2f9145123b","ios":"levelo://app?vid=63d52c35-c9c9-44eb-9780-1b2f9145123b"},"vehicle_type_id":"4","last_reported":1758917471,"current_range_meters":14400,"station_id":"","pricing_plan_id":"cebpf4jnsgd1na2vs0mg"},{"bike_id":"b0da57af-90e7-4025-805b-665bf2028460","system_id":"levelo_inurba_marseille","lat":43.28,"lon":5.41664,"is_reserved":false,"is_disabled":false,"rental_uris":{"android":"levelo://app?vid=b0da57af-90e7-4025-805b-665bf2028460","ios":"levelo://app?vid=b0da57af-90e7-4025-805b-665bf2028460"},"vehicle_type_id":"4","last_reported":1758917471,"current_range_meters":14000,"station_id":"ce4bho12rcd13ifvqh1g","pricing_plan_id":"cebpf4jnsgd1na2vs0mg"},{"bike_id":"2b4c6cfb-f077-466c-8802-0d0dabbed2d5","system_id":"levelo_inurba_marseille","lat":43.30775,"lon":5.37658,"is_reserved":false,"is_disabled":false,"rental_uris":{"android":"levelo://app?vid=2b4c6cfb-f077-466c-8802-0d0dabbed2d5","ios":"levelo://app?vid=2b4c6cfb-f077-466c-8802-0d0dabbed2d5"},"vehicle_type_id":"4","last_reported":1758917471,"current_range_meters":14400,"station_id":"ce4bgv92rcd13ifvqcq0","pricing_plan_id":"cebpf4jnsgd1na2vs0mg"},{"bike_id":"9bb4db31-0bf9-4171-bca1-76cb045f53a3","system_id":"levelo_inurba_marseille","lat":43.26924,"lon":5.389081,"is_reserved":false,"is_disabled":true,"rental_uris":{"android":"levelo://app?vid=9bb4db31-0bf9-4171-bca1-76cb045f53a3","ios":"levelo://app?vid=9bb4db31-0bf9-4171-bca1-76cb045f53a3"},"vehicle_type_id":"4","last_reported":1758917471,"current_range_meters":14400,"station_id":"ce4bhhh2rcd13ifvqfl0","pricing_plan_id":"cebpf4jnsgd1na2vs0mg"},{"bike_id":"bdf98283-e040-4f5f-94a3-6c902d369273","system_id":"levelo_inurba_marseille","lat":43.29714,"lon":5.3769,"is_reserved":false,"is_disabled":true,"rental_uris":{"android":"levelo://app?vid=bdf98283-e040-4f5f-94a3-6c902d369273","ios":"levelo://app?vid=bdf98283-e040-4f5f-94a3-6c902d369273"},"vehicle_type_id":"4","last_reported":1758917471,"current_range_meters":14400,"station_id":"ce4bgkh2rcd13ifvqbl0","pricing_plan_id":"cebpf4jnsgd1na2vs0mg"},{"bike_id":"0cc885c3-1b16-43b9-b714-4895572c29ab","system_id":"levelo_inurba_marseille","lat":43.29026,"lon":5.38638,"is_reserved":false,"is_disabled":false,"rental_uris":{"android":"levelo://app?vid=0cc885c3-1b16-43b9-b714-4895572c29ab","ios":"levelo://app?vid=0cc885c3-1b16-43b9-b714-4895572c29ab"},"vehicle_type_id":"4","last_reported":1758917471,"current_range_meters":14400,"station_id":"ce4bh4p2rcd13ifvqe0g","pricing_plan_id":"cebpf4jnsgd1na2vs0mg"},{"bike_id":"e9965d7f-c60b-4fbd-96cd-93282f8867aa","system_id":"levelo_inurba_marseille","lat":43.253375,"lon":5.421685,"is_reserved":false,"is_disabled":false,"rental_uris":{"android":"levelo://app?vid=e9965d7f-c60b-4fbd-96cd-93282f8867aa","ios":"levelo://app?vid=e9965d7f-c60b-4fbd-96cd-93282f8867aa"},"vehicle_type_id":"4","last_reported":1758917471,"current_range_meters":14400,"station_id":"st_d2m65c5bi1j21697t3ng","pricing_plan_id":"cebpf4jnsgd1na2vs0mg"},{"bike_id":"cd52d724-6e36-4c8e-9efa-f35ff15b1a8b","system_id":"levelo_inurba_marseille","lat":43.31724,"lon":5.42401,"is_reserved":false,"is_disabled":false,"rental_uris":{"android":"levelo://app?vid=cd52d724-6e36-4c8e-9efa-f35ff15b1a8b","ios":"levelo://app?vid=cd52d724-6e36-4c8e-9efa-f35ff15b1a8b"},"vehicle_type_id":"4","last_reported":1758917471,"current_range_meters":14400,"station_id":"ce4bhp92rcd13ifvqhbg","pricing_plan_id":"cebpf4jnsgd1na2vs0mg"},{"bike_id":"f2f91204-3ab9-4898-a21f-747c6901da91","system_id":"levelo_inurba_marseille","lat":43.31754,"lon":5.39013,"is_reserved":false,"is_disabled":false,"rental_uris":{"android":"levelo://app?vid=f2f91204-3ab9-4898-a21f-747c6901da91","ios":"levelo://app?vid=f2f91204-3ab9-4898-a21f-747c6901da91"},"vehicle_type_id":"4","last_reported":1758917471,"current_range_meters":14000,"station_id":"ce4bhqp2rcd13ifvqhng","pricing_plan_id":"cebpf4jnsgd1na2vs0mg"},{"bike_id":"2a416e7a-1803-402e-9523-74bfe690bd54","system_id":"levelo_inurba_marseille","lat":43.32365,"lon":5.36767,"is_reserved":false,"is_disabled":false,"rental_uris":{"android":"levelo://app?vid=2a416e7a-1803-402e-9523-74bfe690bd54","ios":"levelo://app?vid=2a416e7a-1803-402e-9523-74bfe690bd54"},"vehicle_type_id":"4","last_reported":1758917471,"current_range_meters":14400,"station_id":"ce4bhsh2rcd13ifvqi2g","pricing_plan_id":"cebpf4jnsgd1na2vs0mg"},{"bike_id":"4e1e257e-e26c-4e75-8395-d7f8970d0716","system_id":"levelo_inurba_marseille","lat":43.26692,"lon":5.38273,"is_reserved":false,"is_disabled":false,"rental_uris":{"android":"levelo://app?vid=4e1e257e-e26c-4e75-8395-d7f8970d0716","ios":"levelo://app?vid=4e1e257e-e26c-4e75-8395-d7f8970d0716"},"vehicle_type_id":"4","last_reported":1758917471,"current_range_meters":14800,"station_id":"ce4bhg92rcd13ifvqf90","pricing_plan_id":"cebpf4jnsgd1na2vs0mg"},{"bike_id":"35a0f256-02e6-4b4b-ba47-c0815c8c72fb","system_id":"levelo_inurba_marseille","lat":43.28113,"lon":5.37844,"is_reserved":false,"is_disabled":false,"rental_uris":{"android":"levelo://app?vid=35a0f256-02e6-4b4b-ba47-c0815c8c72fb","ios":"levelo://app?vid=35a0f256-02e6-4b4b-ba47-c0815c8c72fb"},"vehicle_type_id":"4","last_reported":1758917471,"current_range_meters":14800,"station_id":"ce4bha12rcd13ifvqee0","pricing_plan_id":"cebpf4jnsgd1na2vs0mg"},{"bike_id":"01bf55f2-4ac6-46f6-8504-3267bf31e1a6","system_id":"levelo_inurba_marseille","lat":43.2973,"lon":5.381787,"is_reserved":false,"is_disabled":false,"rental_uris":{"android":"levelo://app?vid=01bf55f2-4ac6-46f6-8504-3267bf31e1a6","ios":"levelo://app?vid=01bf55f2-4ac6-46f6-8504-3267bf31e1a6"},"vehicle_type_id":"4","last_reported":1758917471,"current_range_meters":14800,"station_id":"","pricing_plan_id":"cebpf4jnsgd1na2vs0mg"},{"bike_id":"62529f44-1407-45b5-a57d-0e6b577d523f","system_id":"levelo_inurba_marseille","lat":43.31719,"lon":5.4241,"is_reserved":false,"is_disabled":true,"rental_uris":{"android":"levelo://app?vid=62529f44-1407-45b5-a57d-0e6b577d523f","ios":"levelo://app?vid=62529f44-1407-45b5-a57d-0e6b577d523f"},"vehicle_type_id":"4","last_reported":1758917471,"current_range_meters":14800,"station_id":"ce4bhp92rcd13ifvqhbg","pricing_plan_id":"cebpf4jnsgd1na2vs0mg"},{"bike_id":"bec29ded-6ebc-47e2-8431-b3660973741c","system_id":"levelo_inurba_marseille","lat":43.29708,"lon":5.36619,"is_reserved":false,"is_disabled":false,"rental_uris":{"android":"levelo://app?vid=bec29ded-6ebc-47e2-8431-b3660973741c","ios":"levelo://app?vid=bec29ded-6ebc-47e2-8431-b3660973741c"},"vehicle_type_id":"4","last_reported":1758917471,"current_range_meters":14400,"station_id":"ce4bgn12rcd13ifvqbt0","pricing_plan_id":"cebpf4jnsgd1na2vs0mg"},{"bike_id":"3181866a-1952-49fb-b4ea-2e21fdf4bb0b","system_id":"levelo_inurba_marseille","lat":43.29321,"lon":5.37159,"is_reserved":false,"is_disabled":false,"rental_uris":{"android":"levelo://app?vid=3181866a-1952-49fb-b4ea-2e21fdf4bb0b","ios":"levelo://app?vid=3181866a-1952-49fb-b4ea-2e21fdf4bb0b"},"vehicle_type_id":"4","last_reported":1758917471,"current_range_meters":14800,"station_id":"ce4bgh92rcd13ifvqb40","pricing_plan_id":"cebpf4jnsgd1na2vs0mg"},{"bike_id":"ac894387-043b-42ef-96f2-3f279963ad27","system_id":"levelo_inurba_marseille","lat":43.25085,"lon":5.39526,"is_reserved":false,"is_disabled":false,"rental_uris":{"android":"levelo://app?vid=ac894387-043b-42ef-96f2-3f279963ad27","ios":"levelo://app?vid=ac894387-043b-42ef-96f2-3f279963ad27"},"vehicle_type_id":"4","last_reported":1758917471,"current_range_meters":14800,"station_id":"ce4bhm12rcd13ifvqgkg","pricing_plan_id":"cebpf4jnsgd1na2vs0mg"},{"bike_id":"ec348589-ff91-45a4-84f8-96a0dc2abb69","system_id":"levelo_inurba_marseille","lat":43.32739,"lon":5.39239,"is_reserved":false,"is_disabled":false,"rental_uris":{"android":"levelo://app?vid=ec348589-ff91-45a4-84f8-96a0dc2abb69","ios":"levelo://app?vid=ec348589-ff91-45a4-84f8-96a0dc2abb69"},"vehicle_type_id":"4","last_reported":1758917471,"current_range_meters":14800,"station_id":"","pricing_plan_id":"cebpf4jnsgd1na2vs0mg"},{"bike_id":"23b424f7-6ea7-43d1-80e0-29f85c1b3072","system_id":"levelo_inurba_marseille","lat":43.30901,"lon":5.36851,"is_reserved":false,"is_disabled":false,"rental_uris":{"android":"levelo://app?vid=23b424f7-6ea7-43d1-80e0-29f85c1b3072","ios":"levelo://app?vid=23b424f7-6ea7-43d1-80e0-29f85c1b3072"},"vehicle_type_id":"4","last_reported":1758917471,"current_range_meters":14400,"station_id":"ce4bgn92rcd13ifvqbvg","pricing_plan_id":"cebpf4jnsgd1na2vs0mg"},{"bike_id":"c20ac88d-cf05-498d-9c23-4070e07c41f7","system_id":"levelo_inurba_marseille","lat":43.28073,"lon":5.39669,"is_reserved":false,"is_disabled":false,"rental_uris":{"android":"levelo://app?vid=c20ac88d-cf05-498d-9c23-4070e07c41f7","ios":"levelo://app?vid=c20ac88d-cf05-498d-9c23-4070e07c41f7"},"vehicle_type_id":"4","last_reported":1758917471,"current_range_meters":14400,"station_id":"ce4bho12rcd13ifvqh2g","pricing_plan_id":"cebpf4jnsgd1na2vs0mg"},{"bike_id":"3b4c0876-9ce3-4577-8e33-c6d1665be917","system_id":"levelo_inurba_marseille","lat":43.2952,"lon":5.38544,"is_reserved":false,"is_disabled":false,"rental_uris":{"android":"levelo://app?vid=3b4c0876-9ce3-4577-8e33-c6d1665be917","ios":"levelo://app?vid=3b4c0876-9ce3-4577-8e33-c6d1665be917"},"vehicle_type_id":"4","last_reported":1758917471,"current_range_meters":15200,"station_id":"ce4bgih2rcd13ifvqba0","pricing_plan_id":"cebpf4jnsgd1na2vs0mg"},{"bike_id":"05053bc8-0101-4ffe-9b20-95250579a613","system_id":"levelo_inurba_marseille","lat":43.28935,"lon":5.36412,"is_reserved":false,"is_disabled":false,"rental_uris":{"android":"levelo://app?vid=05053bc8-0101-4ffe-9b20-95250579a613","ios":"levelo://app?vid=05053bc8-0101-4ffe-9b20-95250579a613"},"vehicle_type_id":"4","last_reported":1758917471,"current_range_meters":15200,"station_id":"ce4bhc92rcd13ifvqetg","pricing_plan_id":"cebpf4jnsgd1na2vs0mg"},{"bike_id":"e5342cae-8a32-45b3-a226-f5706bfac00b","system_id":"levelo_inurba_marseille","lat":43.29509,"lon":5.3905,"is_reserved":false,"is_disabled":false,"rental_uris":{"android":"levelo://app?vid=e5342cae-8a32-45b3-a226-f5706bfac00b","ios":"levelo://app?vid=e5342cae-8a32-45b3-a226-f5706bfac00b"},"vehicle_type_id":"4","last_reported":1758917471,"current_range_meters":15200,"station_id":"ce4bh3p2rcd13ifvqdp0","pricing_plan_id":"cebpf4jnsgd1na2vs0mg"},{"bike_id":"934ea1ec-b7f6-49a1-9efa-287317d4eb22","system_id":"levelo_inurba_marseille","lat":43.29048,"lon":5.35914,"is_reserved":false,"is_disabled":false,"rental_uris":{"android":"levelo://app?vid=934ea1ec-b7f6-49a1-9efa-287317d4eb22","ios":"levelo://app?vid=934ea1ec-b7f6-49a1-9efa-287317d4eb22"},"vehicle_type_id":"4","last_reported":1758917471,"current_range_meters":16000,"station_id":"","pricing_plan_id":"cebpf4jnsgd1na2vs0mg"},{"bike_id":"a6187c30-1c11-4309-be70-335b3ca8c646","system_id":"levelo_inurba_marseille","lat":43.21198,"lon":5.35074,"is_reserved":false,"is_disabled":false,"rental_uris":{"android":"levelo://app?vid=a6187c30-1c11-4309-be70-335b3ca8c646","ios":"levelo://app?vid=a6187c30-1c11-4309-be70-335b3ca8c646"},"vehicle_type_id":"4","last_reported":1758917471,"current_range_meters":16000,"station_id":"","pricing_plan_id":"cebpf4jnsgd1na2vs0mg"},{"bike_id":"1c14f608-9eb0-4b58-8221-e6e5ed28265b","system_id":"levelo_inurba_marseille","lat":43.24384,"lon":5.3708,"is_reserved":false,"is_disabled":false,"rental_uris":{"android":"levelo://app?vid=1c14f608-9eb0-4b58-8221-e6e5ed28265b","ios":"levelo://app?vid=1c14f608-9eb0-4b58-8221-e6e5ed28265b"},"vehicle_type_id":"4","last_reported":1758917471,"current_range_meters":16000,"station_id":"ce4bhhh2rcd13ifvqfk0","pricing_plan_id":"cebpf4jnsgd1na2vs0mg"},{"bike_id":"fd1364a5-ff73-488a-b72e-592513140002","system_id":"levelo_inurba_marseille","lat":43.25087,"lon":5.3952,"is_reserved":false,"is_disabled":false,"rental_uris":{"android":"levelo://app?vid=fd1364a5-ff73-488a-b72e-592513140002","ios":"levelo://app?vid=fd1364a5-ff73-488a-b72e-592513140002"},"vehicle_type_id":"4","last_reported":1758917471,"current_range_meters":16000,"station_id":"ce4bhm12rcd13ifvqgkg","pricing_plan_id":"cebpf4jnsgd1na2vs0mg"},{"bike_id":"80bdba63-46f3-4274-b0d9-d9711409b6a8","system_id":"levelo_inurba_marseille","lat":43.270752,"lon":5.402497,"is_reserved":false,"is_disabled":false,"rental_uris":{"android":"levelo://app?vid=80bdba63-46f3-4274-b0d9-d9711409b6a8","ios":"levelo://app?vid=80bdba63-46f3-4274-b0d9-d9711409b6a8"},"vehicle_type_id":"4","last_reported":1758917471,"current_range_meters":16000,"station_id":"","pricing_plan_id":"cebpf4jnsgd1na2vs0mg"},{"bike_id":"6b7e1c33-211d-4e2f-82bb-a142890d5748","system_id":"levelo_inurba_marseille","lat":43.29257,"lon":5.38451,"is_reserved":false,"is_disabled":false,"rental_uris":{"android":"levelo://app?vid=6b7e1c33-211d-4e2f-82bb-a142890d5748","ios":"levelo://app?vid=6b7e1c33-211d-4e2f-82bb-a142890d5748"},"vehicle_type_id":"4","last_reported":1758917471,"current_range_meters":16000,"station_id":"ce4bh692rcd13ifvqea0","pricing_plan_id":"cebpf4jnsgd1na2vs0mg"},{"bike_id":"68d7ef15-c513-4141-b067-ced60a6e0389","system_id":"levelo_inurba_marseille","lat":43.29254,"lon":5.38434,"is_reserved":false,"is_disabled":false,"rental_uris":{"android":"levelo://app?vid=68d7ef15-c513-4141-b067-ced60a6e0389","ios":"levelo://app?vid=68d7ef15-c513-4141-b067-ced60a6e0389"},"vehicle_type_id":"4","last_reported":1758917471,"current_range_meters":16000,"station_id":"ce4bh692rcd13ifvqea0","pricing_plan_id":"cebpf4jnsgd1na2vs0mg"},{"bike_id":"ee925a9c-c600-454e-8837-0da5956fd25f","system_id":"levelo_inurba_marseille","lat":43.229356,"lon":5.353808,"is_reserved":false,"is_disabled":false,"rental_uris":{"android":"levelo://app?vid=ee925a9c-c600-454e-8837-0da5956fd25f","ios":"levelo://app?vid=ee925a9c-c600-454e-8837-0da5956fd25f"},"vehicle_type_id":"4","last_reported":1758917471,"current_range_meters":16000,"station_id":"cpo3532slgdg3j2ikp40","pricing_plan_id":"cebpf4jnsgd1na2vs0mg"},{"bike_id":"08f1ae4d-4e31-4568-85b6-3312c7afb22a","system_id":"levelo_inurba_marseille","lat":43.29344,"lon":5.3785,"is_reserved":false,"is_disabled":false,"rental_uris":{"android":"levelo://app?vid=08f1ae4d-4e31-4568-85b6-3312c7afb22a","ios":"levelo://app?vid=08f1ae4d-4e31-4568-85b6-3312c7afb22a"},"vehicle_type_id":"4","last_reported":1758917471,"current_range_meters":16400,"station_id":"ce4bgjh2rcd13ifvqbf0","pricing_plan_id":"cebpf4jnsgd1na2vs0mg"},{"bike_id":"fc988c46-a363-4ce4-9a5e-1de858f2a70e","system_id":"levelo_inurba_marseille","lat":43.29385,"lon":5.37837,"is_reserved":false,"is_disabled":false,"rental_uris":{"android":"levelo://app?vid=fc988c46-a363-4ce4-9a5e-1de858f2a70e","ios":"levelo://app?vid=fc988c46-a363-4ce4-9a5e-1de858f2a70e"},"vehicle_type_id":"4","last_reported":1758917471,"current_range_meters":16400,"station_id":"ce4bgjh2rcd13ifvqbf0","pricing_plan_id":"cebpf4jnsgd1na2vs0mg"},{"bike_id":"4bf64cb5-3ee6-47b7-9825-a7132b4b8672","system_id":"levelo_inurba_marseille","lat":43.29249,"lon":5.38457,"is_reserved":false,"is_disabled":false,"rental_uris":{"android":"levelo://app?vid=4bf64cb5-3ee6-47b7-9825-a7132b4b8672","ios":"levelo://app?vid=4bf64cb5-3ee6-47b7-9825-a7132b4b8672"},"vehicle_type_id":"4","last_reported":1758917471,"current_range_meters":16400,"station_id":"ce4bh692rcd13ifvqea0","pricing_plan_id":"cebpf4jnsgd1na2vs0mg"},{"bike_id":"8f1c5fee-915d-4633-aa7e-696307419b4b","system_id":"levelo_inurba_marseille","lat":43.297791,"lon":5.371053,"is_reserved":false,"is_disabled":false,"rental_uris":{"android":"levelo://app?vid=8f1c5fee-915d-4633-aa7e-696307419b4b","ios":"levelo://app?vid=8f1c5fee-915d-4633-aa7e-696307419b4b"},"vehicle_type_id":"4","last_reported":1758917471,"current_range_meters":16400,"station_id":"ce4bgop2rcd13ifvqc1g","pricing_plan_id":"cebpf4jnsgd1na2vs0mg"},{"bike_id":"e241dfc8-d7f9-404e-a9fb-70b03889b507","system_id":"levelo_inurba_marseille","lat":43.31381,"lon":5.38498,"is_reserved":false,"is_disabled":true,"rental_uris":{"android":"levelo://app?vid=e241dfc8-d7f9-404e-a9fb-70b03889b507","ios":"levelo://app?vid=e241dfc8-d7f9-404e-a9fb-70b03889b507"},"vehicle_type_id":"4","last_reported":1758917471,"current_range_meters":16400,"station_id":"ce4bgt92rcd13ifvqcf0","pricing_plan_id":"cebpf4jnsgd1na2vs0mg"},{"bike_id":"855d7122-4824-46d3-b6c6-d8afb40dfca0","system_id":"levelo_inurba_marseille","lat":43.2407,"lon":5.37756,"is_reserved":false,"is_disabled":false,"rental_uris":{"android":"levelo://app?vid=855d7122-4824-46d3-b6c6-d8afb40dfca0","ios":"levelo://app?vid=855d7122-4824-46d3-b6c6-d8afb40dfca0"},"vehicle_type_id":"4","last_reported":1758917471,"current_range_meters":16400,"station_id":"ce4bhnp2rcd13ifvqgvg","pricing_plan_id":"cebpf4jnsgd1na2vs0mg"},{"bike_id":"052c59a7-1cc4-4bbc-97f5-180981a63118","system_id":"levelo_inurba_marseille","lat":43.24633,"lon":5.43154,"is_reserved":false,"is_disabled":false,"rental_uris":{"android":"levelo://app?vid=052c59a7-1cc4-4bbc-97f5-180981a63118","ios":"levelo://app?vid=052c59a7-1cc4-4bbc-97f5-180981a63118"},