{"last_updated":1736770755,"ttl":60,"version":"2.2","data":{"bikes":[{"bike_id":"2f4e0253-da65-48c9-961b-7746ab2ffb8d","system_id":"levelo_inurba_marseille","lat":43.32493,"lon":5.36572,"is_reserved":false,"is_disabled":false,"rental_uris":{"android":"levelo://app?vid=2f4e0253-da65-48c9-961b-7746ab2ffb8d","ios":"levelo://app?vid=2f4e0253-da65-48c9-961b-7746ab2ffb8d"},"vehicle_type_id":"4","last_reported":1736770755,"current_range_meters":12000,"station_id":"ce4bhs12rcd13ifvqhvg","pricing_plan_id":"cebpf4jnsgd1na2vs0mg"},{"bike_id":"e408b195-2f69-4a5c-a8c3-e3c3c692e423","system_id":"levelo_inurba_marseille","lat":43.24068,"lon":5.37768,"is_reserved":false,"is_disabled":false,"rental_uris":{"android":"levelo://app?vid=e408b195-2f69-4a5c-a8c3-e3c3c692e423","ios":"levelo://app?vid=e408b195-2f69-4a5c-a8c3-e3c3c692e423"},"vehicle_type_id":"4","last_reported":1736770755,"current_range_meters":31200,"station_id":"ce4bhnp2rcd13ifvqgvg","pricing_plan_id":"cebpf4jnsgd1na2vs0mg"},{"bike_id":"0b472cbb-e636-435a-a9ac-9bb7d2edf955","system_id":"levelo_inurba_marseille","lat":43.2782,"lon":5.40688,"is_reserved":false,"is_disabled":false,"rental_uris":{"android":"levelo://app?vid=0b472cbb-e636-435a-a9ac-9bb7d2edf955","ios":"levelo://app?vid=0b472cbb-e636-435a-a9ac-9bb7d2edf955"},"vehicle_type_id":"4","last_reported":1736770755,"current_range_meters":19200,"station_id":"ce4bhnh2rcd13ifvqgtg","pricing_plan_id":"cebpf4jnsgd1na2vs0mg"},{"bike_id":"40c6c6dd-e417-4070-a718-4ccb56307c52","system_id":"levelo_inurba_marseille","lat":43.29528,"lon":5.37499,"is_reserved":false,"is_disabled":false,"rental_uris":{"android":"levelo://app?vid=40c6c6dd-e417-4070-a718-4ccb56307c52","ios":"levelo://app?vid=40c6c6dd-e417-4070-a718-4ccb56307c52"},"vehicle_type_id":"4","last_reported":1736770755,"current_range_meters":32000,"station_id":"ce4bgkp2rcd13ifvqbmg","pricing_plan_id":"cebpf4jnsgd1na2vs0mg"},{"bike_id":"ecab3d52-66bc-455a-8fe1-a92b8f00c0b9","system_id":"levelo_inurba_marseille","lat":43.24065,"lon":5.37758,"is_reserved":false,"is_disabled":false,"rental_uris":{"android":"levelo://app?vid=ecab3d52-66bc-455a-8fe1-a92b8f00c0b9","ios":"levelo://app?vid=ecab3d52-66bc-455a-8fe1-a92b8f00c0b9"},"vehicle_type_id":"4","last_reported":1736770755,"current_range_meters":16800,"station_id":"ce4bhnp2rcd13ifvqgvg","pricing_plan_id":"cebpf4jnsgd1na2vs0mg"},{"bike_id":"07bc85c0-570a-4eb0-bb38-55d45fa69f2b","system_id":"levelo_inurba_marseille","lat":43.31362,"lon":5.38504,"is_reserved":false,"is_disabled":false,"rental_uris":{"android":"levelo://app?vid=07bc85c0-570a-4eb0-bb38-55d45fa69f2b","ios":"levelo://app?vid=07bc85c0-570a-4eb0-bb38-55d45fa69f2b"},"vehicle_type_id":"4","last_reported":1736770755,"current_range_meters":32400,"station_id":"ce4bgt92rcd13ifvqcf0","pricing_plan_id":"cebpf4jnsgd1na2vs0mg"},{"bike_id":"f5857a27-fe53-4a62-8f3b-b46d3f623206","system_id":"levelo_inurba_marseille","lat":43.28613,"lon":5.35111,"is_reserved":false,"is_disabled":false,"rental_uris":{"android":"levelo://app?vid=f5857a27-fe53-4a62-8f3b-b46d3f623206","ios":"levelo://app?vid=f5857a27-fe53-4a62-8f3b-b46d3f623206"},"vehicle_type_id":"4","last_reported":1736770755,"current_range_meters":32000,"station_id":"ce4bhch2rcd13ifvqeug","pricing_plan_id":"cebpf4jnsgd1na2vs0mg"},{"bike_id":"56f23761-8479-4b9f-a5fa-920fcd8fae47","system_id":"levelo_inurba_marseille","lat":43.29309,"lon":5.37471,"is_reserved":false,"is_disabled":false,"rental_uris":{"android":"levelo://app?vid=56f23761-8479-4b9f-a5fa-920fcd8fae47","ios":"levelo://app?vid=56f23761-8479-4b9f-a5fa-920fcd8fae47"},"vehicle_type_id":"4","last_reported":1736770755,"current_range_meters":21600,"station_id":"ce4bgi12rcd13ifvqb70","pricing_plan_id":"cebpf4jnsgd1na2vs0mg"},{"bike_id":"293ec4de-5838-4737-9f02-5edead901d0b","system_id":"levelo_inurba_marseille","lat":43.28563,"lon":5.39491,"is_reserved":false,"is_disabled":false,"rental_uris":{"android":"levelo://app?vid=293ec4de-5838-4737-9f02-5edead901d0b","ios":"levelo://app?vid=293ec4de-5838-4737-9f02-5edead901d0b"},"vehicle_type_id":"4","last_reported":1736770755,"current_range_meters":25200,"station_id":"ce4bh292rcd13ifvqdg0","pricing_plan_id":"cebpf4jnsgd1na2vs0mg"},{"bike_id":"0f318c5b-08b5-4836-9148-a4cbbeaae5d8","system_id":"levelo_inurba_marseille","lat":43.29978,"lon":5.38489,"is_reserved":false,"is_disabled":false,"rental_uris":{"android":"levelo://app?vid=0f318c5b-08b5-4836-9148-a4cbbeaae5d8","ios":"levelo://app?vid=0f318c5b-08b5-4836-9148-a4cbbeaae5d8"},"vehicle_type_id":"4","last_reported":1736770755,"current_range_meters":32000,"station_id":"ce4bgj92rcd13ifvqbd0","pricing_plan_id":"cebpf4jnsgd1na2vs0mg"},{"bike_id":"ff9091c9-e734-4cae-affb-800cf5da6951","system_id":"levelo_inurba_marseille","lat":43.30907,"lon":5.36859,"is_reserved":false,"is_disabled":false,"rental_uris":{"android":"levelo://app?vid=ff9091c9-e734-4cae-affb-800cf5da6951","ios":"levelo://app?vid=ff9091c9-e734-4cae-affb-800cf5da6951"},"vehicle_type_id":"4","last_reported":1736770755,"current_range_meters":39200,"station_id":"ce4bgn92rcd13ifvqbvg","pricing_plan_id":"cebpf4jnsgd1na2vs0mg"},{"bike_id":"5bb5758f-37be-496e-ac0a-3712e6b43125","system_id":"levelo_inurba_marseille","lat":43.26204,"lon":5.37946,"is_reserved":false,"is_disabled":false,"rental_uris":{"android":"levelo://app?vid=5bb5758f-37be-496e-ac0a-3712e6b43125","ios":"levelo://app?vid=5bb5758f-37be-496e-ac0a-3712e6b43125"},"vehicle_type_id":"4","last_reported":1736770755,"current_range_meters":39200,"station_id":"ce4bhjp2rcd13ifvqg90","pricing_plan_id":"cebpf4jnsgd1na2vs0mg"},{"bike_id":"fbdc1be9-0896-4827-9983-8a84e7013511","system_id":"levelo_inurba_marseille","lat":43.2513,"lon":5.40368,"is_reserved":false,"is_disabled":false,"rental_uris":{"android":"levelo://app?vid=fbdc1be9-0896-4827-9983-8a84e7013511","ios":"levelo://app?vid=fbdc1be9-0896-4827-9983-8a84e7013511"},"vehicle_type_id":"4","last_reported":1736770755,"current_range_meters":37600,"station_id":"ce4bhlh2rcd13ifvqgig","pricing_plan_id":"cebpf4jnsgd1na2vs0mg"},{"bike_id":"08414dc8-ca1a-4c55-a1fd-bdd61f70b47b","system_id":"levelo_inurba_marseille","lat":43.24688,"lon":5.38164,"is_reserved":false,"is_disabled":false,"rental_uris":{"android":"levelo://app?vid=08414dc8-ca1a-4c55-a1fd-bdd61f70b47b","ios":"levelo://app?vid=08414dc8-ca1a-4c55-a1fd-bdd61f70b47b"},"vehicle_type_id":"4","last_reported":1736770755,"current_range_meters":27200,"station_id":"ce4bhih2rcd13ifvqfr0","pricing_plan_id":"cebpf4jnsgd1na2vs0mg"},{"bike_id":"eef7da32-c1ce-4bb8-ad34-65e94b05905f","system_id":"levelo_inurba_marseille","lat":43.2679,"lon":5.3944,"is_reserved":false,"is_disabled":false,"rental_uris":{"android":"levelo://app?vid=eef7da32-c1ce-4bb8-ad34-65e94b05905f","ios":"levelo://app?vid=eef7da32-c1ce-4bb8-ad34-65e94b05905f"},"vehicle_type_id":"4","last_reported":1736770755,"current_range_meters":39200,"station_id":"ce4bhh12rcd13ifvqfg0","pricing_plan_id":"cebpf4jnsgd1na2vs0mg"},{"bike_id":"660b2e55-75a7-43af-ad92-d6e9be442618","system_id":"levelo_inurba_marseille","lat":43.303,"lon":5.3689,"is_reserved":false,"is_disabled":false,"rental_uris":{"android":"levelo://app?vid=660b2e55-75a7-43af-ad92-d6e9be442618","ios":"levelo://app?vid=660b2e55-75a7-43af-ad92-d6e9be442618"},"vehicle_type_id":"4","last_reported":1736770755,"current_range_meters":30400,"station_id":"ce4bgqh2rcd13ifvqc5g","pricing_plan_id":"cebpf4jnsgd1na2vs0mg"},{"bike_id":"da57df97-8fa9-4817-8ac5-6312919b6ac7","system_id":"levelo_inurba_marseille","lat":43.27497,"lon":5.42453,"is_reserved":false,"is_disabled":false,"rental_uris":{"android":"levelo://app?vid=da57df97-8fa9-4817-8ac5-6312919b6ac7","ios":"levelo://app?vid=da57df97-8fa9-4817-8ac5-6312919b6ac7"},"vehicle_type_id":"4","last_reported":1736770755,"current_range_meters":8000,"station_id":"ce4bhn92rcd13ifvqgrg","pricing_plan_id":"cebpf4jnsgd1na2vs0mg"},{"bike_id":"b5c8f85c-e9ae-462e-b017-013eb2d5b68f","system_id":"levelo_inurba_marseille","lat":43.23149,"lon":5.43741,"is_reserved":false,"is_disabled":false,"rental_uris":{"android":"levelo://app?vid=b5c8f85c-e9ae-462e-b017-013eb2d5b68f","ios":"levelo://app?vid=b5c8f85c-e9ae-462e-b017-013eb2d5b68f"},"vehicle_type_id":"4","last_reported":1736770755,"current_range_meters":17600,"station_id":"ce4bhmp2rcd13ifvqgog","pricing_plan_id":"cebpf4jnsgd1na2vs0mg"},{"bike_id":"639a3884-51cf-48bc-b586-11035b68cac1","system_id":"levelo_inurba_marseille","lat":43.27077,"lon":5.402667,"is_reserved":false,"is_disabled":false,"rental_uris":{"android":"levelo://app?vid=639a3884-51cf-48bc-b586-11035b68cac1","ios":"levelo://app?vid=639a3884-51cf-48bc-b586-11035b68cac1"},"vehicle_type_id":"4","last_reported":1736770755,"current_range_meters":3600,"station_id":"ce4bhk92rcd13ifvqgc0","pricing_plan_id":"cebpf4jnsgd1na2vs0mg"},{"bike_id":"25201559-3be6-490e-b049-639df5366fcd","system_id":"levelo_inurba_marseille","lat":43.2998,"lon":5.38504,"is_reserved":false,"is_disabled":true,"rental_uris":{"android":"levelo://app?vid=25201559-3be6-490e-b049-639df5366fcd","ios":"levelo://app?vid=25201559-3be6-490e-b049-639df5366fcd"},"vehicle_type_id":"4","last_reported":1736770755,"current_range_meters":38800,"station_id":"ce4bgj92rcd13ifvqbd0","pricing_plan_id":"cebpf4jnsgd1na2vs0mg"},{"bike_id":"94440fca-9d66-4315-a057-b48311229f6d","system_id":"levelo_inurba_marseille","lat":43.33615,"lon":5.41027,"is_reserved":false,"is_disabled":true,"rental_uris":{"android":"levelo://app?vid=94440fca-9d66-4315-a057-b48311229f6d","ios":"levelo://app?vid=94440fca-9d66-4315-a057-b48311229f6d"},"vehicle_type_id":"4","last_reported":1736770755,"current_range_meters":34800,"station_id":"ce4bhqh2rcd13ifvqhmg","pricing_plan_id":"cebpf4jnsgd1na2vs0mg"},{"bike_id":"55f4569d-d0f7-4e86-9dbf-be7de5143729","system_id":"levelo_inurba_marseille","lat":43.30598,"lon":5.39351,"is_reserved":false,"is_disabled":false,"rental_uris":{"android":"levelo://app?vid=55f4569d-d0f7-4e86-9dbf-be7de5143729","ios":"levelo://app?vid=55f4569d-d0f7-4e86-9dbf-be7de5143729"},"vehicle_type_id":"4","last_reported":1736770755,"current_range_meters":18000,"station_id":"ce4bh0p2rcd13ifvqd80","pricing_plan_id":"cebpf4jnsgd1na2vs0mg"},{"bike_id":"2ea2c228-0940-42c6-a0d3-d8191be146e6","system_id":"levelo_inurba_marseille","lat":43.30539,"lon":5.36716,"is_reserved":false,"is_disabled":false,"rental_uris":{"android":"levelo://app?vid=2ea2c228-0940-42c6-a0d3-d8191be146e6","ios":"levelo://app?vid=2ea2c228-0940-42c6-a0d3-d8191be146e6"},"vehicle_type_id":"4","last_reported":1736770755,"current_range_meters":38400,"station_id":"ce4bgrp2rcd13ifvqc9g","pricing_plan_id":"cebpf4jnsgd1na2vs0mg"},{"bike_id":"fff8389d-6087-44cb-8fc5-14fabbfc71ae","system_id":"levelo_inurba_marseille","lat":43.30319,"lon":5.36886,"is_reserved":false,"is_disabled":false,"rental_uris":{"android":"levelo://app?vid=fff8389d-6087-44cb-8fc5-14fabbfc71ae","ios":"levelo://app?vid=fff8389d-6087-44cb-8fc5-14fabbfc71ae"},"vehicle_type_id":"4","last_reported":1736770755,"current_range_meters":9600,"station_id":"ce4bgqh2rcd13ifvqc5g","pricing_plan_id":"cebpf4jnsgd1na2vs0mg"},{"bike_id":"6a8dc65c-8c47-4239-8815-8efa2acdc338","system_id":"levelo_inurba_marseille","lat":43.28,"lon":5.41659,"is_reserved":false,"is_disabled":true,"rental_uris":{"android":"levelo://app?vid=6a8dc65c-8c47-4239-8815-8efa2acdc338","ios":"levelo://app?vid=6a8dc65c-8c47-4239-8815-8efa2acdc338"},"vehicle_type_id":"4","last_reported":1736770755,"current_range_meters":3600,"station_id":"ce4bho12rcd13ifvqh1g","pricing_plan_id":"cebpf4jnsgd1na2vs0mg"},{"bike_id":"94d00723-79f7-443c-bc62-0c89ddbb1d1c","system_id":"levelo_inurba_marseille","lat":43.28163,"lon":5.42654,"is_reserved":false,"is_disabled":true,"rental_uris":{"android":"levelo://app?vid=94d00723-79f7-443c-bc62-0c89ddbb1d1c","ios":"levelo://app?vid=94d00723-79f7-443c-bc62-0c89ddbb1d1c"},"vehicle_type_id":"4","last_reported":1736770755,"current_range_meters":21600,"station_id":"ce4bhnh2rcd13ifvqgug","pricing_plan_id":"cebpf4jnsgd1na2vs0mg"},{"bike_id":"24022a08-1373-4555-a63f-bb0b727efa0a","system_id":"levelo_inurba_marseille","lat":43.24539,"lon":5.39526,"is_reserved":false,"is_disabled":false,"rental_uris":{"android":"levelo://app?vid=24022a08-1373-4555-a63f-bb0b727efa0a","ios":"levelo://app?vid=24022a08-1373-4555-a63f-bb0b727efa0a"},"vehicle_type_id":"4","last_reported":1736770755,"current_range_meters":37600,"station_id":"ce4bhlp2rcd13ifvqgjg","pricing_plan_id":"cebpf4jnsgd1na2vs0mg"},{"bike_id":"1d1453ac-9920-4217-9a89-34f1fcade485","system_id":"levelo_inurba_marseille","lat":43.23118,"lon":5.43738,"is_reserved":false,"is_disabled":false,"rental_uris":{"android":"levelo://app?vid=1d1453ac-9920-4217-9a89-34f1fcade485","ios":"levelo://app?vid=1d1453ac-9920-4217-9a89-34f1fcade485"},"vehicle_type_id":"4","last_reported":1736770755,"current_range_meters":8400,"station_id":"ce4bhmp2rcd13ifvqgog","pricing_plan_id":"cebpf4jnsgd1na2vs0mg"},{"bike_id":"936740fb-9b34-4884-80d6-b102868533e7","system_id":"levelo_inurba_marseille","lat":43.32484,"lon":5.36572,"is_reserved":false,"is_disabled":false,"rental_uris":{"android":"levelo://app?vid=936740fb-9b34-4884-80d6-b102868533e7","ios":"levelo://app?vid=936740fb-9b34-4884-80d6-b102868533e7"},"vehicle_type_id":"4","last_reported":1736770755,"current_range_meters":8000,"station_id":"ce4bhs12rcd13ifvqhvg","pricing_plan_id":"cebpf4jnsgd1na2vs0mg"},{"bike_id":"e35d110b-0ca6-4c99-b711-04ba364d3860","system_id":"levelo_inurba_marseille","lat":43.23177,"lon":5.35592,"is_reserved":false,"is_disabled":false,"rental_uris":{"android":"levelo://app?vid=e35d110b-0ca6-4c99-b711-04ba364d3860","ios":"levelo://app?vid=e35d110b-0ca6-4c99-b711-04ba364d3860"},"vehicle_type_id":"4","last_reported":1736770755,"current_range_meters":38000,"station_id":"ce4bhu92rcd13ifvqi70","pricing_plan_id":"cebpf4jnsgd1na2vs0mg"},{"bike_id":"d4d3c443-e2ef-4208-9bf5-76025c974d27","system_id":"levelo_inurba_marseille","lat":43.23152,"lon":5.43721,"is_reserved":false,"is_disabled":false,"rental_uris":{"android":"levelo://app?vid=d4d3c443-e2ef-4208-9bf5-76025c974d27","ios":"levelo://app?vid=d4d3c443-e2ef-4208-9bf5-76025c974d27"},"vehicle_type_id":"4","last_reported":1736770755,"current_range_meters":19600,"station_id":"ce4bhmp2rcd13ifvqgog","pricing_plan_id":"cebpf4jnsgd1na2vs0mg"},{"bike_id":"a16a4938-07a9-4f64-adf2-29a7e6f8a1c3","system_id":"levelo_inurba_marseille","lat":43.29078,"lon":5.40043,"is_reserved":false,"is_disabled":false,"rental_uris":{"android":"levelo://app?vid=a16a4938-07a9-4f64-adf2-29a7e6f8a1c3","ios":"levelo://app?vid=a16a4938-07a9-4f64-adf2-29a7e6f8a1c3"},"vehicle_type_id":"4","last_reported":1736770755,"current_range_meters":38800,"station_id":"","pricing_plan_id":"cebpf4jnsgd1na2vs0mg"},{"bike_id":"d1acb34f-26db-4cd3-80e0-094f964fcac7","system_id":"levelo_inurba_marseille","lat":43.29598,"lon":5.37728,"is_reserved":false,"is_disabled":false,"rental_uris":{"android":"levelo://app?vid=d1acb34f-26db-4cd3-80e0-094f964fcac7","ios":"levelo://app?vid=d1acb34f-26db-4cd3-80e0-094f964fcac7"},"vehicle_type_id":"4","last_reported":1736770755,"current_range_meters":36000,"station_id":"ce4bgi92rcd13ifvqb90","pricing_plan_id":"cebpf4jnsgd1na2vs0mg"},{"bike_id":"01e70311-2610-4c38-aa13-623b575799ab","system_id":"levelo_inurba_marseille","lat":43.32656,"lon":5.40994,"is_reserved":false,"is_disabled":false,"rental_uris":{"android":"levelo://app?vid=01e70311-2610-4c38-aa13-623b575799ab","ios":"levelo://app?vid=01e70311-2610-4c38-aa13-623b575799ab"},"vehicle_type_id":"4","last_reported":1736770755,"current_range_meters":38800,"station_id":"ce4bhpp2rcd13ifvqhgg","pricing_plan_id":"cebpf4jnsgd1na2vs0mg"},{"bike_id":"4536007d-0cfb-4e9d-a914-9b715b46ce6f","system_id":"levelo_inurba_marseille","lat":43.27331,"lon":5.39064,"is_reserved":false,"is_disabled":true,"rental_uris":{"android":"levelo://app?vid=4536007d-0cfb-4e9d-a914-9b715b46ce6f","ios":"levelo://app?vid=4536007d-0cfb-4e9d-a914-9b715b46ce6f"},"vehicle_type_id":"4","last_reported":1736770755,"current_range_meters":28400,"station_id":"ce4bhgp2rcd13ifvqfe0","pricing_plan_id":"cebpf4jnsgd1na2vs0mg"},{"bike_id":"347b61b6-00ba-4bd3-8c11-704f944da9c9","system_id":"levelo_inurba_marseille","lat":43.27815,"lon":5.40687,"is_reserved":false,"is_disabled":false,"rental_uris":{"android":"levelo://app?vid=347b61b6-00ba-4bd3-8c11-704f944da9c9","ios":"levelo://app?vid=347b61b6-00ba-4bd3-8c11-704f944da9c9"},"vehicle_type_id":"4","last_reported":1736770755,"current_range_meters":25200,"station_id":"ce4bhnh2rcd13ifvqgtg","pricing_plan_id":"cebpf4jnsgd1na2vs0mg"},{"bike_id":"6b750947-fb43-40e2-9931-495446cc2b3f","system_id":"levelo_inurba_marseille","lat":43.22932,"lon":5.35382,"is_reserved":false,"is_disabled":false,"rental_uris":{"android":"levelo://app?vid=6b750947-fb43-40e2-9931-495446cc2b3f","ios":"levelo://app?vid=6b750947-fb43-40e2-9931-495446cc2b3f"},"vehicle_type_id":"4","last_reported":1736770755,"current_range_meters":29600,"station_id":"cpo3532slgdg3j2ikp40","pricing_plan_id":"cebpf4jnsgd1na2vs0mg"},{"bike_id":"c8e997c0-8580-4d0f-8d9f-0766596381e1","system_id":"levelo_inurba_marseille","lat":43.34008,"lon":5.37555,"is_reserved":false,"is_disabled":true,"rental_uris":{"android":"levelo://app?vid=c8e997c0-8580-4d0f-8d9f-0766596381e1","ios":"levelo://app?vid=c8e997c0-8580-4d0f-8d9f-0766596381e1"},"vehicle_type_id":"4","last_reported":1736770755,"current_range_meters":0,"station_id":"","pricing_plan_id":"cebpf4jnsgd1na2vs0mg"},{"bike_id":"845452d4-db2e-43e9-9e50-438fbe40b7e2","system_id":"levelo_inurba_marseille","lat":43.30784,"lon":5.37658,"is_reserved":false,"is_disabled":false,"rental_uris":{"android":"levelo://app?vid=845452d4-db2e-43e9-9e50-438fbe40b7e2","ios":"levelo://app?vid=845452d4-db2e-43e9-9e50-438fbe40b7e2"},"vehicle_type_id":"4","last_reported":1736770755,"current_range_meters":17200,"station_id":"ce4bgv92rcd13ifvqcq0","pricing_plan_id":"cebpf4jnsgd1na2vs0mg"},{"bike_id":"bf45497b-71ba-445d-ac5b-cfeb8df54c7a","system_id":"levelo_inurba_marseille","lat":43.29054,"lon":5.39978,"is_reserved":false,"is_disabled":false,"rental_uris":{"android":"levelo://app?vid=bf45497b-71ba-445d-ac5b-cfeb8df54c7a","ios":"levelo://app?vid=bf45497b-71ba-445d-ac5b-cfeb8df54c7a"},"vehicle_type_id":"4","last_reported":1736770755,"current_range_meters":17600,"station_id":"ce4bh392rcd13ifvqdm0","pricing_plan_id":"cebpf4jnsgd1na2vs0mg"},{"bike_id":"ba5df164-d25c-4a1c-8679-1bd1a1db0642","system_id":"levelo_inurba_marseille","lat":43.33727,"lon":5.39195,"is_reserved":false,"is_disabled":false,"rental_uris":{"android":"levelo://app?vid=ba5df164-d25c-4a1c-8679-1bd1a1db0642","ios":"levelo://app?vid=ba5df164-d25c-4a1c-8679-1bd1a1db0642"},"vehicle_type_id":"4","last_reported":1736770755,"current_range_meters":19600,"station_id":"ce4bhr92rcd13ifvqhsg","pricing_plan_id":"cebpf4jnsgd1na2vs0mg"},{"bike_id":"5108b6cf-4ded-4fbc-8c1c-5e566aa11fad","system_id":"levelo_inurba_marseille","lat":43.29886,"lon":5.43667,"is_reserved":false,"is_disabled":false,"rental_uris":{"android":"levelo://app?vid=5108b6cf-4ded-4fbc-8c1c-5e566aa11fad","ios":"levelo://app?vid=5108b6cf-4ded-4fbc-8c1c-5e566aa11fad"},"vehicle_type_id":"4","last_reported":1736770755,"current_range_meters":38800,"station_id":"ce4bhpp2rcd13ifvqhfg","pricing_plan_id":"cebpf4jnsgd1na2vs0mg"},{"bike_id":"11f8911a-8720-432e-b830-8b59af40bd6e","system_id":"levelo_inurba_marseille","lat":43.30893,"lon":5.3683,"is_reserved":false,"is_disabled":false,"rental_uris":{"android":"levelo://app?vid=11f8911a-8720-432e-b830-8b59af40bd6e","ios":"levelo://app?vid=11f8911a-8720-432e-b830-8b59af40bd6e"},"vehicle_type_id":"4","last_reported":1736770755,"current_range_meters":38800,"station_id":"ce4bgn92rcd13ifvqbvg","pricing_plan_id":"cebpf4jnsgd1na2vs0mg"},{"bike_id":"5b3f1dfb-2aa0-4707-a42a-8674894db5c0","system_id":"levelo_inurba_marseille","lat":43.30542,"lon":5.36537,"is_reserved":false,"is_disabled":false,"rental_uris":{"android":"levelo://app?vid=5b3f1dfb-2aa0-4707-a42a-8674894db5c0","ios":"levelo://app?vid=5b3f1dfb-2aa0-4707-a42a-8674894db5c0"},"vehicle_type_id":"4","last_reported":1736770755,"current_range_meters":39200,"station_id":"ce4bgs12rcd13ifvqcag","pricing_plan_id":"cebpf4jnsgd1na2vs0mg"},{"bike_id":"58e504dd-3012-4e73-bb99-89945b895023","system_id":"levelo_inurba_marseille","lat":43.26204,"lon":5.37476,"is_reserved":false,"is_disabled":false,"rental_uris":{"android":"levelo://app?vid=58e504dd-3012-4e73-bb99-89945b895023","ios":"levelo://app?vid=58e504dd-3012-4e73-bb99-89945b895023"},"vehicle_type_id":"4","last_reported":1736770755,"current_range_meters":24800,"station_id":"ce4bhgp2rcd13ifvqfc0","pricing_plan_id":"cebpf4jnsgd1na2vs0mg"},{"bike_id":"7dd5dd5e-1d75-4c5b-b5b8-248a34302cca","system_id":"levelo_inurba_marseille","lat":43.30457,"lon":5.37896,"is_reserved":false,"is_disabled":true,"rental_uris":{"android":"levelo://app?vid=7dd5dd5e-1d75-4c5b-b5b8-248a34302cca","ios":"levelo://app?vid=7dd5dd5e-1d75-4c5b-b5b8-248a34302cca"},"vehicle_type_id":"4","last_reported":1736770755,"current_range_meters":26800,"station_id":"ce4bgup2rcd13ifvqcn0","pricing_plan_id":"cebpf4jnsgd1na2vs0mg"},{"bike_id":"d912dc3c-ecc3-4af2-8b7b-cb91a53c7e64","system_id":"levelo_inurba_marseille","lat":43.2601,"lon":5.37546,"is_reserved":false,"is_disabled":false,"rental_uris":{"android":"levelo://app?vid=d912dc3c-ecc3-4af2-8b7b-cb91a53c7e64","ios":"levelo://app?vid=d912dc3c-ecc3-4af2-8b7b-cb91a53c7e64"},"vehicle_type_id":"4","last_reported":1736770755,"current_range_meters":37600,"station_id":"ce4bhgh2rcd13ifvqfa0","pricing_plan_id":"cebpf4jnsgd1na2vs0mg"},{"bike_id":"930a345d-edfa-4b91-8b2d-a85599fd947e","system_id":"levelo_inurba_marseille","lat":43.303,"lon":5.37707,"is_reserved":false,"is_disabled":false,"rental_uris":{"android":"levelo://app?vid=930a345d-edfa-4b91-8b2d-a85599fd947e","ios":"levelo://app?vid=930a345d-edfa-4b91-8b2d-a85599fd947e"},"vehicle_type_id":"4","last_reported":1736770755,"current_range_meters":38000,"station_id":"ce4bguh2rcd13ifvqcj0","pricing_plan_id":"cebpf4jnsgd1na2vs0mg"},{"bike_id":"d8327471-e10e-4e1d-a46b-c43156fc0620","system_id":"levelo_inurba_marseille","lat":43.26839,"lon":5.39447,"is_reserved":false,"is_disabled":false,"rental_uris":{"android":"levelo://app?vid=d8327471-e10e-4e1d-a46b-c43156fc0620","ios":"levelo://app?vid=d8327471-e10e-4e1d-a46b-c43156fc0620"},"vehicle_type_id":"4","last_reported":1736770755,"current_range_meters":37600,"station_id":"ce4bhh12rcd13ifvqfg0","pricing_plan_id":"cebpf4jnsgd1na2vs0mg"},{"bike_id":"ef5c24c5-0102-4923-96b7-539ebdfdf7e3","system_id":"levelo_inurba_marseille","lat":43.27054,"lon":5.40258,"is_reserved":false,"is_disabled":false,"rental_uris":{"android":"levelo://app?vid=ef5c24c5-0102-4923-96b7-539ebdfdf7e3","ios":"levelo://app?vid=ef5c24c5-0102-4923-96b7-539ebdfdf7e3"},"vehicle_type_id":"4","last_reported":1736770755,"current_range_meters":26000,"station_id":"ce4bhk92rcd13ifvqgc0","pricing_plan_id":"cebpf4jnsgd1na2vs0mg"},{"bike_id":"471cb72e-d9c9-4f84-9602-6eb0baa39732","system_id":"levelo_inurba_marseille","lat":43.29037,"lon":5.39974,"is_reserved":false,"is_disabled":false,"rental_uris":{"android":"levelo://app?vid=471cb72e-d9c9-4f84-9602-6eb0baa39732","ios":"levelo://app?vid=471cb72e-d9c9-4f84-9602-6eb0baa39732"},"vehicle_type_id":"4","last_reported":1736770755,"current_range_meters":38000,"station_id":"ce4bh392rcd13ifvqdm0","pricing_plan_id":"cebpf4jnsgd1na2vs0mg"},{"bike_id":"5372dfef-da71-4e3b-8377-854fdc0e47f5","system_id":"levelo_inurba_marseille","lat":43.32495,"lon":5.36569,"is_reserved":false,"is_disabled":false,"rental_uris":{"android":"levelo://app?vid=5372dfef-da71-4e3b-8377-854fdc0e47f5","ios":"levelo://app?vid=5372dfef-da71-4e3b-8377-854fdc0e47f5"},"vehicle_type_id":"4","last_reported":1736770755,"current_range_meters":32400,"station_id":"ce4bhs12rcd13ifvqhvg","pricing_plan_id":"cebpf4jnsgd1na2vs0mg"},{"bike_id":"eba8df4c-8e39-465e-ad0d-7cbaf9b66a59","system_id":"levelo_inurba_marseille","lat":43.337444,"lon":5.374475,"is_reserved":false,"is_disabled":false,"rental_uris":{"android":"levelo://app?vid=eba8df4c-8e39-465e-ad0d-7cbaf9b66a59","ios":"levelo://app?vid=eba8df4c-8e39-465e-ad0d-7cbaf9b66a59"},"vehicle_type_id":"4","last_reported":1736770755,"current_range_meters":19600,"station_id":"","pricing_plan_id":"cebpf4jnsgd1na2vs0mg"},{"bike_id":"6ba8d844-4be9-4966-b91c-0b5bcfe6a94b","system_id":"levelo_inurba_marseille","lat":43.29165,"lon":5.37151,"is_reserved":false,"is_disabled":true,"rental_uris":{"android":"levelo://app?vid=6ba8d844-4be9-4966-b91c-0b5bcfe6a94b","ios":"levelo://app?vid=6ba8d844-4be9-4966-b91c-0b5bcfe6a94b"},"vehicle_type_id":"4","last_reported":1736770755,"current_range_meters":6000,"station_id":"ce4bha92rcd13ifvqeh0","pricing_plan_id":"cebpf4jnsgd1na2vs0mg"},{"bike_id":"0edce83f-b96e-4b0a-af3a-d85300d10ec7","system_id":"levelo_inurba_marseille","lat":43.30909,"lon":5.36841,"is_reserved":false,"is_disabled":false,"rental_uris":{"android":"levelo://app?vid=0edce83f-b96e-4b0a-af3a-d85300d10ec7","ios":"levelo://app?vid=0edce83f-b96e-4b0a-af3a-d85300d10ec7"},"vehicle_type_id":"4","last_reported":1736770755,"current_range_meters":36800,"station_id":"ce4bgn92rcd13ifvqbvg","pricing_plan_id":"cebpf4jnsgd1na2vs0mg"},{"bike_id":"3c381f83-2df7-465c-b50b-ed2f05a5d8ba","system_id":"levelo_inurba_marseille","lat":43.246486,"lon":5.38898,"is_reserved":false,"is_disabled":false,"rental_uris":{"android":"levelo://app?vid=3c381f83-2df7-465c-b50b-ed2f05a5d8ba","ios":"levelo://app?vid=3c381f83-2df7-465c-b50b-ed2f05a5d8ba"},"vehicle_type_id":"4","last_reported":1736770755,"current_range_meters":38800,"station_id":"ce4bhg12rcd13ifvqf60","pricing_plan_id":"cebpf4jnsgd1na2vs0mg"},{"bike_id":"426ee80e-06b0-4d0f-86a5-ea8ad64aaa11","system_id":"levelo_inurba_marseille","lat":43.28913,"lon":5.43825,"is_reserved":false,"is_disabled":false,"rental_uris":{"android":"levelo://app?vid=426ee80e-06b0-4d0f-86a5-ea8ad64aaa11","ios":"levelo://app?vid=426ee80e-06b0-4d0f-86a5-ea8ad64aaa11"},"vehicle_type_id":"4","last_reported":1736770755,"current_range_meters":8800,"station_id":"","pricing_plan_id":"cebpf4jnsgd1na2vs0mg"},{"bike_id":"d6e4ad9c-79f2-4688-909b-aa1d95c9db31","system_id":"levelo_inurba_marseille","lat":43.31363,"lon":5.38519,"is_reserved":false,"is_disabled":false,"rental_uris":{"android":"levelo://app?vid=d6e4ad9c-79f2-4688-909b-aa1d95c9db31","ios":"levelo://app?vid=d6e4ad9c-79f2-4688-909b-aa1d95c9db31"},"vehicle_type_id":"4","last_reported":1736770755,"current_range_meters":8400,"station_id":"ce4bgt92rcd13ifvqcf0","pricing_plan_id":"cebpf4jnsgd1na2vs0mg"},{"bike_id":"b29dca30-1f99-4556-8d02-1cd94cfb8ea1","system_id":"levelo_inurba_marseille","lat":43.33137,"lon":5.39606,"is_reserved":false,"is_disabled":false,"rental_uris":{"android":"levelo://app?vid=b29dca30-1f99-4556-8d02-1cd94cfb8ea1","ios":"levelo://app?vid=b29dca30-1f99-4556-8d02-1cd94cfb8ea1"},"vehicle_type_id":"4","last_reported":1736770755,"current_range_meters":9600,"station_id":"","pricing_plan_id":"cebpf4jnsgd1na2vs0mg"},{"bike_id":"9814023a-fbfd-430e-a624-071e90fc1982","system_id":"levelo_inurba_marseille","lat":43.27399,"lon":5.39393,"is_reserved":false,"is_disabled":false,"rental_uris":{"android":"levelo://app?vid=9814023a-fbfd-430e-a624-071e90fc1982","ios":"levelo://app?vid=9814023a-fbfd-430e-a624-071e90fc1982"},"vehicle_type_id":"4","last_reported":1736770755,"current_range_meters":27200,"station_id":"ce4bhdp2rcd13ifvqf20","pricing_plan_id":"cebpf4jnsgd1na2vs0mg"},{"bike_id":"969e27ab-5a9e-459e-9526-3b57e6f57682","system_id":"levelo_inurba_marseille","lat":43.22926,"lon":5.35386,"is_reserved":false,"is_disabled":false,"rental_uris":{"android":"levelo://app?vid=969e27ab-5a9e-459e-9526-3b57e6f57682","ios":"levelo://app?vid=969e27ab-5a9e-459e-9526-3b57e6f57682"},"vehicle_type_id":"4","last_reported":1736770755,"current_range_meters":22800,"station_id":"cpo3532slgdg3j2ikp40","pricing_plan_id":"cebpf4jnsgd1na2vs0mg"},{"bike_id":"0b6993d8-d7c7-433f-8cb7-8219979fd337","system_id":"levelo_inurba_marseille","lat":43.274,"lon":5.39404,"is_reserved":false,"is_disabled":false,"rental_uris":{"android":"levelo://app?vid=0b6993d8-d7c7-433f-8cb7-8219979fd337","ios":"levelo://app?vid=0b6993d8-d7c7-433f-8cb7-8219979fd337"},"vehicle_type_id":"4","last_reported":1736770755,"current_range_meters":38800,"station_id":"ce4bhdp2rcd13ifvqf20","pricing_plan_id":"cebpf4jnsgd1na2vs0mg"},{"bike_id":"fafa25b0-e75e-49ae-865e-60291b28c72d","system_id":"levelo_inurba_marseille","lat":43.28625,"lon":5.3511,"is_reserved":false,"is_disabled":false,"rental_uris":{"android":"levelo://app?vid=fafa25b0-e75e-49ae-865e-60291b28c72d","ios":"levelo://app?vid=fafa25b0-e75e-49ae-865e-60291b28c72d"},"vehicle_type_id":"4","last_reported":1736770755,"current_range_meters":26800,"station_id":"ce4bhch2rcd13ifvqeug","pricing_plan_id":"cebpf4jnsgd1na2vs0mg"},{"bike_id":"169bc2f2-5776-4755-8964-faba54ede842","system_id":"levelo_inurba_marseille","lat":43.30901,"lon":5.36845,"is_reserved":false,"is_disabled":false,"rental_uris":{"android":"levelo://app?vid=169bc2f2-5776-4755-8964-faba54ede842","ios":"levelo://app?vid=169bc2f2-5776-4755-8964-faba54ede842"},"vehicle_type_id":"4","last_reported":1736770755,"current_range_meters":8000,"station_id":"ce4bgn92rcd13ifvqbvg","pricing_plan_id":"cebpf4jnsgd1na2vs0mg"},{"bike_id":"7d017805-bd90-4d74-8fb6-c1c069ff67f1","system_id":"levelo_inurba_marseille","lat":43.29033,"lon":5.38134,"is_reserved":false,"is_disabled":false,"rental_uris":{"android":"levelo://app?vid=7d017805-bd90-4d74-8fb6-c1c069ff67f1","ios":"levelo://app?vid=7d017805-bd90-4d74-8fb6-c1c069ff67f1"},"vehicle_type_id":"4","last_reported":1736770755,"current_range_meters":9200,"station_id":"ce4bh4p2rcd13ifvqe1g","pricing_plan_id":"cebpf4jnsgd1na2vs0mg"},{"bike_id":"f4dbc556-58b0-4dfd-be99-18a51c032520","system_id":"levelo_inurba_marseille","lat":43.2419,"lon":5.39723,"is_reserved":false,"is_disabled":false,"rental_uris":{"android":"levelo://app?vid=f4dbc556-58b0-4dfd-be99-18a51c032520","ios":"levelo://app?vid=f4dbc556-58b0-4dfd-be99-18a51c032520"},"vehicle_type_id":"4","last_reported":1736770755,"current_range_meters":30800,"station_id":"ce4bhn12rcd13ifvqgpg","pricing_plan_id":"cebpf4jnsgd1na2vs0mg"},{"bike_id":"d6063853-841f-4cf0-af24-a68595e0fab2","system_id":"levelo_inurba_marseille","lat":43.23195,"lon":5.39982,"is_reserved":false,"is_disabled":false,"rental_uris":{"android":"levelo://app?vid=d6063853-841f-4cf0-af24-a68595e0fab2","ios":"levelo://app?vid=d6063853-841f-4cf0-af24-a68595e0fab2"},"vehicle_type_id":"4","last_reported":1736770755,"current_range_meters":24400,"station_id":"ce4bhn12rcd13ifvqgqg","pricing_plan_id":"cebpf4jnsgd1na2vs0mg"},{"bike_id":"298c270e-daf0-4810-a1d7-6e723865e4a1","system_id":"levelo_inurba_marseille","lat":43.25125,"lon":5.4034,"is_reserved":false,"is_disabled":false,"rental_uris":{"android":"levelo://app?vid=298c270e-daf0-4810-a1d7-6e723865e4a1","ios":"levelo://app?vid=298c270e-daf0-4810-a1d7-6e723865e4a1"},"vehicle_type_id":"4","last_reported":1736770755,"current_range_meters":26000,"station_id":"ce4bhlh2rcd13ifvqgig","pricing_plan_id":"cebpf4jnsgd1na2vs0mg"},{"bike_id":"805015b9-44ce-4c46-9c97-5e2e5cb2e61d","system_id":"levelo_inurba_marseille","lat":43.28713,"lon":5.361,"is_reserved":false,"is_disabled":false,"rental_uris":{"android":"levelo://app?vid=805015b9-44ce-4c46-9c97-5e2e5cb2e61d","ios":"levelo://app?vid=805015b9-44ce-4c46-9c97-5e2e5cb2e61d"},"vehicle_type_id":"4","last_reported":1736770755,"current_range_meters":37600,"station_id":"cki0cbj6b192h4jlfktg","pricing_plan_id":"cebpf4jnsgd1na2vs0mg"},{"bike_id":"45636413-29bd-43b6-bd8b-1246eb3c7c1a","system_id":"levelo_inurba_marseille","lat":43.2766,"lon":5.38888,"is_reserved":false,"is_disabled":false,"rental_uris":{"android":"levelo://app?vid=45636413-29bd-43b6-bd8b-1246eb3c7c1a","ios":"levelo://app?vid=45636413-29bd-43b6-bd8b-1246eb3c7c1a"},"vehicle_type_id":"4","last_reported":1736770755,"current_range_meters":4800,"station_id":"ce4bhi12rcd13ifvqfo0","pricing_plan_id":"cebpf4jnsgd1na2vs0mg"},{"bike_id":"71478264-8712-484d-8247-2f8bb8c015fd","system_id":"levelo_inurba_marseille","lat":43.28663,"lon":5.36359,"is_reserved":false,"is_disabled":false,"rental_uris":{"android":"levelo://app?vid=71478264-8712-484d-8247-2f8bb8c015fd","ios":"levelo://app?vid=71478264-8712-484d-8247-2f8bb8c015fd"},"vehicle_type_id":"4","last_reported":1736770755,"current_range_meters":22400,"station_id":"ce4bhah2rcd13ifvqej0","pricing_plan_id":"cebpf4jnsgd1na2vs0mg"},{"bike_id":"b43b7b34-35a8-4f3d-902b-ab77a73f48bd","system_id":"levelo_inurba_marseille","lat":43.33184,"lon":5.39594,"is_reserved":false,"is_disabled":false,"rental_uris":{"android":"levelo://app?vid=b43b7b34-35a8-4f3d-902b-ab77a73f48bd","ios":"levelo://app?vid=b43b7b34-35a8-4f3d-902b-ab77a73f48bd"},"vehicle_type_id":"4","last_reported":1736770755,"current_range_meters":10800,"station_id":"","pricing_plan_id":"cebpf4jnsgd1na2vs0mg"},{"bike_id":"f51f3616-6c33-4a5f-8b28-980818697bb0","system_id":"levelo_inurba_marseille","lat":43.23179,"lon":5.39988,"is_reserved":false,"is_disabled":false,"rental_uris":{"android":"levelo://app?vid=f51f3616-6c33-4a5f-8b28-980818697bb0","ios":"levelo://app?vid=f51f3616-6c33-4a5f-8b28-980818697bb0"},"vehicle_type_id":"4","last_reported":1736770755,"current_range_meters":37600,"station_id":"ce4bhn12rcd13ifvqgqg","pricing_plan_id":"cebpf4jnsgd1na2vs0mg"},{"bike_id":"38a88ea6-a94b-4e4b-81db-6e3ebb97fafa","system_id":"levelo_inurba_marseille","lat":43.246423,"lon":5.381803,"is_reserved":false,"is_disabled":false,"rental_uris":{"android":"levelo://app?vid=38a88ea6-a94b-4e4b-81db-6e3ebb97fafa","ios":"levelo://app?vid=38a88ea6-a94b-4e4b-81db-6e3ebb97fafa"},"vehicle_type_id":"4","last_reported":1736770755,"current_range_meters":38800,"station_id":"ce4bhih2rcd13ifvqfr0","pricing_plan_id":"cebpf4jnsgd1na2vs0mg"},{"bike_id":"d16284aa-fa71-49b9-82f2-16dc864a2eea","system_id":"levelo_inurba_marseille","lat":43.26678,"lon":5.38269,"is_reserved":false,"is_disabled":false,"rental_uris":{"android":"levelo://app?vid=d16284aa-fa71-49b9-82f2-16dc864a2eea","ios":"levelo://app?vid=d16284aa-fa71-49b9-82f2-16dc864a2eea"},"vehicle_type_id":"4","last_reported":1736770755,"current_range_meters":38800,"station_id":"ce4bhg92rcd13ifvqf90","pricing_plan_id":"cebpf4jnsgd1na2vs0mg"},{"bike_id":"82af5156-3c9f-43ad-8e6c-facb65bb17d8","system_id":"levelo_inurba_marseille","lat":43.32497,"lon":5.36584,"is_reserved":false,"is_disabled":false,"rental_uris":{"android":"levelo://app?vid=82af5156-3c9f-43ad-8e6c-facb65bb17d8","ios":"levelo://app?vid=82af5156-3c9f-43ad-8e6c-facb65bb17d8"},"vehicle_type_id":"4","last_reported":1736770755,"current_range_meters":24800,"station_id":"ce4bhs12rcd13ifvqhvg","pricing_plan_id":"cebpf4jnsgd1na2vs0mg"},{"bike_id":"65cf28ba-a69d-4f58-92bd-bef1a2a1102d","system_id":"levelo_inurba_marseille","lat":43.27213,"lon":5.39185,"is_reserved":false,"is_disabled":false,"rental_uris":{"android":"levelo://app?vid=65cf28ba-a69d-4f58-92bd-bef1a2a1102d","ios":"levelo://app?vid=65cf28ba-a69d-4f58-92bd-bef1a2a1102d"},"vehicle_type_id":"4","last_reported":1736770755,"current_range_meters":33600,"station_id":"ce4bhhp2rcd13ifvqfm0","pricing_plan_id":"cebpf4jnsgd1na2vs0mg"},{"bike_id":"755e5c0a-8de7-4ee5-9d4e-5ec609711170","system_id":"levelo_inurba_marseille","lat":43.295943,"lon":5.380982,"is_reserved":false,"is_disabled":true,"rental_uris":{"android":"levelo://app?vid=755e5c0a-8de7-4ee5-9d4e-5ec609711170","ios":"levelo://app?vid=755e5c0a-8de7-4ee5-9d4e-5ec609711170"},"vehicle_type_id":"4","last_reported":1736770755,"current_range_meters":35600,"station_id":"ce4bgl12rcd13ifvqbo0","pricing_plan_id":"cebpf4jnsgd1na2vs0mg"},{"bike_id":"0db12308-2c5d-44c0-bc20-918a3148f6cb","system_id":"levelo_inurba_marseille","lat":43.28278,"lon":5.35069,"is_reserved":false,"is_disabled":false,"rental_uris":{"android":"levelo://app?vid=0db12308-2c5d-44c0-bc20-918a3148f6cb","ios":"levelo://app?vid=0db12308-2c5d-44c0-bc20-918a3148f6cb"},"vehicle_type_id":"4","last_reported":1736770755,"current_range_meters":8800,"station_id":"ce4bhbp2rcd13ifvqerg","pricing_plan_id":"cebpf4jnsgd1na2vs0mg"},{"bike_id":"de182b8f-bf4c-4131-92a6-8407f3b6cc4c","system_id":"levelo_inurba_marseille","lat":43.29276,"lon":5.36851,"is_reserved":false,"is_disabled":false,"rental_uris":{"android":"levelo://app?vid=de182b8f-bf4c-4131-92a6-8407f3b6cc4c","ios":"levelo://app?vid=de182b8f-bf4c-4131-92a6-8407f3b6cc4c"},"vehicle_type_id":"4","last_reported":1736770755,"current_range_meters":32000,"station_id":"ce4bhbp2rcd13ifvqesg","pricing_plan_id":"cebpf4jnsgd1na2vs0mg"},{"bike_id":"b22d4251-efb6-43cd-8856-eca3de806557","system_id":"levelo_inurba_marseille","lat":43.31268,"lon":5.40178,"is_reserved":false,"is_disabled":false,"rental_uris":{"android":"levelo://app?vid=b22d4251-efb6-43cd-8856-eca3de806557","ios":"levelo://app?vid=b22d4251-efb6-43cd-8856-eca3de806557"},"vehicle_type_id":"4","last_reported":1736770755,"current_range_meters":29600,"station_id":"ce4bh092rcd13ifvqd30","pricing_plan_id":"cebpf4jnsgd1na2vs0mg"},{"bike_id":"f651011c-09df-4f8b-abec-30977567ef31","system_id":"levelo_inurba_marseille","lat":43.262104,"lon":5.374417,"is_reserved":false,"is_disabled":false,"rental_uris":{"android":"levelo://app?vid=f651011c-09df-4f8b-abec-30977567ef31","ios":"levelo://app?vid=f651011c-09df-4f8b-abec-30977567ef31"},"vehicle_type_id":"4","last_reported":1736770755,"current_range_meters":24000,"station_id":"ce4bhgp2rcd13ifvqfc0","pricing_plan_id":"cebpf4jnsgd1na2vs0mg"},{"bike_id":"9c8c0f19-6acd-4047-9b73-cd2d2daf7c61","system_id":"levelo_inurba_marseille","lat":43.32158,"lon":5.3674,"is_reserved":false,"is_disabled":false,"rental_uris":{"android":"levelo://app?vid=9c8c0f19-6acd-4047-9b73-cd2d2daf7c61","ios":"levelo://app?vid=9c8c0f19-6acd-4047-9b73-cd2d2daf7c61"},"vehicle_type_id":"4","last_reported":1736770755,"current_range_meters":18000,"station_id":"","pricing_plan_id":"cebpf4jnsgd1na2vs0mg"},{"bike_id":"4f4df74b-9ef4-4238-a489-ba3b1775b647","system_id":"levelo_inurba_marseille","lat":43.31493,"lon":5.37321,"is_reserved":false,"is_disabled":false,"rental_uris":{"android":"levelo://app?vid=4f4df74b-9ef4-4238-a489-ba3b1775b647","ios":"levelo://app?vid=4f4df74b-9ef4-4238-a489-ba3b1775b647"},"vehicle_type_id":"4","last_reported":1736770755,"current_range_meters":32400,"station_id":"ce4bgt12rcd13ifvqcd0","pricing_plan_id":"cebpf4jnsgd1na2vs0mg"},{"bike_id":"8fd6403a-176e-4007-a97c-e03dc19c490e","system_id":"levelo_inurba_marseille","lat":43.30327,"lon":5.40433,"is_reserved":false,"is_disabled":false,"rental_uris":{"android":"levelo://app?vid=8fd6403a-176e-4007-a97c-e03dc19c490e","ios":"levelo://app?vid=8fd6403a-176e-4007-a97c-e03dc19c490e"},"vehicle_type_id":"4","last_reported":1736770755,"current_range_meters":24000,"station_id":"ce4bh012rcd13ifvqd10","pricing_plan_id":"cebpf4jnsgd1na2vs0mg"},{"bike_id":"3b74a056-c0cf-4f44-8772-22ed33115fcd","system_id":"levelo_inurba_marseille","lat":43.23188,"lon":5.39984,"is_reserved":false,"is_disabled":false,"rental_uris":{"android":"levelo://app?vid=3b74a056-c0cf-4f44-8772-22ed33115fcd","ios":"levelo://app?vid=3b74a056-c0cf-4f44-8772-22ed33115fcd"},"vehicle_type_id":"4","last_reported":1736770755,"current_range_meters":12400,"station_id":"ce4bhn12rcd13ifvqgqg","pricing_plan_id":"cebpf4jnsgd1na2vs0mg"},{"bike_id":"437c086a-7ef5-4154-8521-f736381d9175","system_id":"levelo_inurba_marseille","lat":43.29291,"lon":5.3749,"is_reserved":false,"is_disabled":false,"rental_uris":{"android":"levelo://app?vid=437c086a-7ef5-4154-8521-f736381d9175","ios":"levelo://app?vid=437c086a-7ef5-4154-8521-f736381d9175"},"vehicle_type_id":"4","last_reported":1736770755,"current_range_meters":32400,"station_id":"ce4bgi12rcd13ifvqb70","pricing_plan_id":"cebpf4jnsgd1na2vs0mg"},{"bike_id":"c5e011b5-3ec1-4dfb-b3d1-b25cf4454153","system_id":"levelo_inurba_marseille","lat":43.30917,"lon":5.36839,"is_reserved":false,"is_disabled":false,"rental_uris":{"android":"levelo://app?vid=c5e011b5-3ec1-4dfb-b3d1-b25cf4454153","ios":"levelo://app?vid=c5e011b5-3ec1-4dfb-b3d1-b25cf4454153"},"vehicle_type_id":"4","last_reported":1736770755,"current_range_meters":39200,"station_id":"ce4bgn92rcd13ifvqbvg","pricing_plan_id":"cebpf4jnsgd1na2vs0mg"},{"bike_id":"ba9541a2-e758-4421-ab0e-82e12a5a60f9","system_id":"levelo_inurba_marseille","lat":43.28959,"lon":5.36407,"is_reserved":false,"is_disabled":false,"rental_uris":{"android":"levelo://app?vid=ba9541a2-e758-4421-ab0e-82e12a5a60f9","ios":"levelo://app?vid=ba9541a2-e758-4421-ab0e-82e12a5a60f9"},"vehicle_type_id":"4","last_reported":1736770755,"current_range_meters":16800,"station_id":"ce4bhc92rcd13ifvqetg","pricing_plan_id":"cebpf4jnsgd1na2vs0mg"},{"bike_id":"034d908a-db6b-465e-9059-3919761d8486","system_id":"levelo_inurba_marseille","lat":43.29658,"lon":5.37646,"is_reserved":false,"is_disabled":false,"rental_uris":{"android":"levelo://app?vid=034d908a-db6b-465e-9059-3919761d8486","ios":"levelo://app?vid=034d908a-db6b-465e-9059-3919761d8486"},"vehicle_type_id":"4","last_reported":1736770755,"current_range_meters":33200,"station_id":"ce4bh512rcd13ifvqe2g","pricing_plan_id":"cebpf4jnsgd1na2vs0mg"},{"bike_id":"51bb6953-dea8-4e82-96bf-52696267905f","system_id":"levelo_inurba_marseille","lat":43.23055,"lon":5.35498,"is_reserved":false,"is_disabled":true,"rental_uris":{"android":"levelo://app?vid=51bb6953-dea8-4e82-96bf-52696267905f","ios":"levelo://app?vid=51bb6953-dea8-4e82-96bf-52696267905f"},"vehicle_type_id":"4","last_reported":1736770755,"current_range_meters":12800,"station_id":"cpo3342slgdg3j2ifvpg","pricing_plan_id":"cebpf4jnsgd1na2vs0mg"},{"bike_id":"4e71e5ec-1e90-4b63-9152-6a9ea80e2150","system_id":"levelo_inurba_marseille","lat":43.231436,"lon":5.437316,"is_reserved":false,"is_disabled":false,"rental_uris":{"android":"levelo://app?vid=4e71e5ec-1e90-4b63-9152-6a9ea80e2150","ios":"levelo://app?vid=4e71e5ec-1e90-4b63-9152-6a9ea80e2150"},"vehicle_type_id":"4","last_reported":1736770755,"current_range_meters":20000,"station_id":"ce4bhmp2rcd13ifvqgog","pricing_plan_id":"cebpf4jnsgd1na2vs0mg"},{"bike_id":"697c0a33-e8a3-4893-bc01-c44ca5d914a9","system_id":"levelo_inurba_marseille","lat":43.27434,"lon":5.39405,"is_reserved":false,"is_disabled":false,"rental_uris":{"android":"levelo://app?vid=697c0a33-e8a3-4893-bc01-c44ca5d914a9","ios":"levelo://app?vid=697c0a33-e8a3-4893-bc01-c44ca5d914a9"},"vehicle_type_id":"4","last_reported":1736770755,"current_range_meters":38400,"station_id":"ce4bhdp2rcd13ifvqf20","pricing_plan_id":"cebpf4jnsgd1na2vs0mg"},{"bike_id":"dc388f0e-5ba4-4401-b2b7-3e59da087469","system_id":"levelo_inurba_marseille","lat":43.28619,"lon":5.35103,"is_reserved":false,"is_disabled":false,"rental_uris":{"android":"levelo://app?vid=dc388f0e-5ba4-4401-b2b7-3e59da087469","ios":"levelo://app?vid=dc388f0e-5ba4-4401-b2b7-3e59da087469"},"vehicle_type_id":"4","last_reported":1736770755,"current_range_meters":12000,"station_id":"ce4bhch2rcd13ifvqeug","pricing_plan_id":"cebpf4jnsgd1na2vs0mg"},{"bike_id":"02d80f06-d79c-4ffe-a4ee-17b582a49295","system_id":"levelo_inurba_marseille","lat":43.28958,"lon":5.36633,"is_reserved":false,"is_disabled":false,"rental_uris":{"android":"levelo://app?vid=02d80f06-d79c-4ffe-a4ee-17b582a49295","ios":"levelo://app?vid=02d80f06-d79c-4ffe-a4ee-17b582a49295"},"vehicle_type_id":"4","last_reported":1736770755,"current_range_meters":32000,"station_id":"ce4bhap2rcd13ifvqek0","pricing_plan_id":"cebpf4jnsgd1na2vs0mg"},{"bike_id":"50c67084-341b-43bf-812a-a38db4c86efa","system_id":"levelo_inurba_marseille","lat":43.30133,"lon":5.36628,"is_reserved":false,"is_disabled":false,"rental_uris":{"android":"levelo://app?vid=50c67084-341b-43bf-812a-a38db4c86efa","ios":"levelo://app?vid=50c67084-341b-43bf-812a-a38db4c86efa"},"vehicle_type_id":"4","last_reported":1736770755,"current_range_meters":38800,"station_id":"","pricing_plan_id":"cebpf4jnsgd1na2vs0mg"},{"bike_id":"0ddcad5f-3f06-409a-8373-bdaf129946e8","system_id":"levelo_inurba_marseille","lat":43.311756,"lon":5.387117,"is_reserved":false,"is_disabled":true,"rental_uris":{"android":"levelo://app?vid=0ddcad5f-3f06-409a-8373-bdaf129946e8","ios":"levelo://app?vid=0ddcad5f-3f06-409a-8373-bdaf129946e8"},"vehicle_type_id":"4","last_reported":1736770755,"current_range_meters":38800,"station_id":"ce4bgv12rcd13ifvqcp0","pricing_plan_id":"cebpf4jnsgd1na2vs0mg"},{"bike_id":"c84c60ce-c7f6-42eb-bb3c-f11a697bd396","system_id":"levelo_inurba_marseille","lat":43.30006,"lon":5.38477,"is_reserved":false,"is_disabled":true,"rental_uris":{"android":"levelo://app?vid=c84c60ce-c7f6-42eb-bb3c-f11a697bd396","ios":"levelo://app?vid=c84c60ce-c7f6-42eb-bb3c-f11a697bd396"},"vehicle_type_id":"4","last_reported":1736770755,"current_range_meters":38800,"station_id":"ce4bgj92rcd13ifvqbd0","pricing_plan_id":"cebpf4jnsgd1na2vs0mg"},{"bike_id":"5b6f32ca-27c0-4ddf-ba56-69f237bfef76","system_id":"levelo_inurba_marseille","lat":43.28626,"lon":5.35087,"is_reserved":false,"is_disabled":false,"rental_uris":{"android":"levelo://app?vid=5b6f32ca-27c0-4ddf-ba56-69f237bfef76","ios":"levelo://app?vid=5b6f32ca-27c0-4ddf-ba56-69f237bfef76"},"vehicle_type_id":"4","last_reported":1736770755,"current_range_meters":35200,"station_id":"ce4bhch2rcd13ifvqeug","pricing_plan_id":"cebpf4jnsgd1na2vs0mg"},{"bike_id":"bb2c6734-3bde-49c2-b205-412e6ed0ca55","system_id":"levelo_inurba_marseille","lat":43.23963,"lon":5.36636,"is_reserved":false,"is_disabled":false,"rental_uris":{"android":"levelo://app?vid=bb2c6734-3bde-49c2-b205-412e6ed0ca55","ios":"levelo://app?vid=bb2c6734-3bde-49c2-b205-412e6ed0ca55"},"vehicle_type_id":"4","last_reported":1736770755,"current_range_meters":36800,"station_id":"ce4bhi12rcd13ifvqfp0","pricing_plan_id":"cebpf4jnsgd1na2vs0mg"},{"bike_id":"b55bad1f-ac87-4b3e-aeb0-eb44d902eff4","system_id":"levelo_inurba_marseille","lat":43.23156,"lon":5.43741,"is_reserved":false,"is_disabled":false,"rental_uris":{"android":"levelo://app?vid=b55bad1f-ac87-4b3e-aeb0-eb44d902eff4","ios":"levelo://app?vid=b55bad1f-ac87-4b3e-aeb0-eb44d902eff4"},"vehicle_type_id":"4","last_reported":1736770755,"current_range_meters":16800,"station_id":"ce4bhmp2rcd13ifvqgog","pricing_plan_id":"cebpf4jnsgd1na2vs0mg"},{"bike_id":"bb66f2ca-ee74-4e0b-82cb-a826f7a41bf4","system_id":"levelo_inurba_marseille","lat":43.24081,"lon":5.37773,"is_reserved":false,"is_disabled":false,"rental_uris":{"android":"levelo://app?vid=bb66f2ca-ee74-4e0b-82cb-a826f7a41bf4","ios":"levelo://app?vid=bb66f2ca-ee74-4e0b-82cb-a826f7a41bf4"},"vehicle_type_id":"4","last_reported":1736770755,"current_range_meters":22000,"station_id":"ce4bhnp2rcd13ifvqgvg","pricing_plan_id":"cebpf4jnsgd1na2vs0mg"},{"bike_id":"85ec7523-a398-424f-b100-23f016dd845e","system_id":"levelo_inurba_marseille","lat":43.24094,"lon":5.37748,"is_reserved":false,"is_disabled":false,"rental_uris":{"android":"levelo://app?vid=85ec7523-a398-424f-b100-23f016dd845e","ios":"levelo://app?vid=85ec7523-a398-424f-b100-23f016dd845e"},"vehicle_type_id":"4","last_reported":1736770755,"current_range_meters":13600,"station_id":"ce4bhnp2rcd13ifvqgvg","pricing_plan_id":"cebpf4jnsgd1na2vs0mg"},{"bike_id":"c1c51f67-6348-4482-a3d4-31704cefaf37","system_id":"levelo_inurba_marseille","lat":43.28616,"lon":5.35107,"is_reserved":false,"is_disabled":false,"rental_uris":{"android":"levelo://app?vid=c1c51f67-6348-4482-a3d4-31704cefaf37","ios":"levelo://app?vid=c1c51f67-6348-4482-a3d4-31704cefaf37"},"vehicle_type_id":"4","last_reported":1736770755,"current_range_meters":33600,"station_id":"ce4bhch2rcd13ifvqeug","pricing_plan_id":"cebpf4jnsgd1na2vs0mg"},{"bike_id":"322399c8-b9e9-43a7-a0a7-e9daaffb0dcd","system_id":"levelo_inurba_marseille","lat":43.2505,"lon":5.39507,"is_reserved":false,"is_disabled":false,"rental_uris":{"android":"levelo://app?vid=322399c8-b9e9-43a7-a0a7-e9daaffb0dcd","ios":"levelo://app?vid=322399c8-b9e9-43a7-a0a7-e9daaffb0dcd"},"vehicle_type_id":"4","last_reported":1736770755,"current_range_meters":12800,"station_id":"","pricing_plan_id":"cebpf4jnsgd1na2vs0mg"},{"bike_id":"88902d91-b819-48cf-a55f-ab04a4bc19a7","system_id":"levelo_inurba_marseille","lat":43.28365,"lon":5.38101,"is_reserved":false,"is_disabled":false,"rental_uris":{"android":"levelo://app?vid=88902d91-b819-48cf-a55f-ab04a4bc19a7","ios":"levelo://app?vid=88902d91-b819-48cf-a55f-ab04a4bc19a7"},"vehicle_type_id":"4","last_reported":1736770755,"current_range_meters":19600,"station_id":"ce4bh412rcd13ifvqdr0","pricing_plan_id":"cebpf4jnsgd1na2vs0mg"},{"bike_id":"e5c826d2-6376-42fd-af40-df54dd21440b","system_id":"levelo_inurba_marseille","lat":43.2901,"lon":5.35614,"is_reserved":false,"is_disabled":false,"rental_uris":{"android":"levelo://app?vid=e5c826d2-6376-42fd-af40-df54dd21440b","ios":"levelo://app?vid=e5c826d2-6376-42fd-af40-df54dd21440b"},"vehicle_type_id":"4","last_reported":1736770755,"current_range_meters":11600,"station_id":"ce4bhb92rcd13ifvqen0","pricing_plan_id":"cebpf4jnsgd1na2vs0mg"},{"bike_id":"a77e0ec4-5fc1-4a37-82fc-0c2c8e9d8654","system_id":"levelo_inurba_marseille","lat":43.24161,"lon":5.36372,"is_reserved":false,"is_disabled":false,"rental_uris":{"android":"levelo://app?vid=a77e0ec4-5fc1-4a37-82fc-0c2c8e9d8654","ios":"levelo://app?vid=a77e0ec4-5fc1-4a37-82fc-0c2c8e9d8654"},"vehicle_type_id":"4","last_reported":1736770755,"current_range_meters":25200,"station_id":"cpo36qri1sfpv3e86is0","pricing_plan_id":"cebpf4jnsgd1na2vs0mg"},{"bike_id":"6ec2ebfc-0551-4872-b827-af987cc201ce","system_id":"levelo_inurba_marseille","lat":43.28719,"lon":5.37944,"is_reserved":false,"is_disabled":false,"rental_uris":{"android":"levelo://app?vid=6ec2ebfc-0551-4872-b827-af987cc201ce","ios":"levelo://app?vid=6ec2ebfc-0551-4872-b827-af987cc201ce"},"vehicle_type_id":"4","last_reported":1736770755,"current_range_meters":6400,"station_id":"ce4bh9p2rcd13ifvqec0","pricing_plan_id":"cebpf4jnsgd1na2vs0mg"},{"bike_id":"a754abf4-87cb-4915-a97f-0b4d0e8971f5","system_id":"levelo_inurba_marseille","lat":43.28619,"lon":5.35108,"is_reserved":false,"is_disabled":false,"rental_uris":{"android":"levelo://app?vid=a754abf4-87cb-4915-a97f-0b4d0e8971f5","ios":"levelo://app?vid=a754abf4-87cb-4915-a97f-0b4d0e8971f5"},"vehicle_type_id":"4","last_reported":1736770755,"current_range_meters":33200,"station_id":"ce4bhch2rcd13ifvqeug","pricing_plan_id":"cebpf4jnsgd1na2vs0mg"},{"bike_id":"b51b8509-c21e-40ac-802b-edd56e55cdd0","system_id":"levelo_inurba_marseille","lat":43.30362,"lon":5.41884,"is_reserved":false,"is_disabled":true,"rental_uris":{"android":"levelo://app?vid=b51b8509-c21e-40ac-802b-edd56e55cdd0","ios":"levelo://app?vid=b51b8509-c21e-40ac-802b-edd56e55cdd0"},"vehicle_type_id":"4","last_reported":1736770755,"current_range_meters":24000,"station_id":"ce4bhop2rcd13ifvqh7g","pricing_plan_id":"cebpf4jnsgd1na2vs0mg"},{"bike_id":"78fc2529-851e-44ea-9e17-e5a76c9197b1","system_id":"levelo_inurba_marseille","lat":43.29703,"lon":5.3773,"is_reserved":false,"is_disabled":true,"rental_uris":{"android":"levelo://app?vid=78fc2529-851e-44ea-9e17-e5a76c9197b1","ios":"levelo://app?vid=78fc2529-851e-44ea-9e17-e5a76c9197b1"},"vehicle_type_id":"4","last_reported":1736770755,"current_range_meters":38000,"station_id":"ce4bgkh2rcd13ifvqbl0","pricing_plan_id":"cebpf4jnsgd1na2vs0mg"},{"bike_id":"ebc55eb9-194f-4e99-8e23-b42fca6cc43d","system_id":"levelo_inurba_marseille","lat":43.27717,"lon":5.38907,"is_reserved":false,"is_disabled":false,"rental_uris":{"android":"levelo://app?vid=ebc55eb9-194f-4e99-8e23-b42fca6cc43d","ios":"levelo://app?vid=ebc55eb9-194f-4e99-8e23-b42fca6cc43d"},"vehicle_type_id":"4","last_reported":1736770755,"current_range_meters":38800,"station_id":"ce4bhi12rcd13ifvqfo0","pricing_plan_id":"cebpf4jnsgd1na2vs0mg"},{"bike_id":"4df89c5f-ad35-4858-8e73-2c663853f2e7","system_id":"levelo_inurba_marseille","lat":43.27509,"lon":5.42477,"is_reserved":false,"is_disabled":false,"rental_uris":{"android":"levelo://app?vid=4df89c5f-ad35-4858-8e73-2c663853f2e7","ios":"levelo://app?vid=4df89c5f-ad35-4858-8e73-2c663853f2e7"},"vehicle_type_id":"4","last_reported":1736770755,"current_range_meters":38800,"station_id":"ce4bhn92rcd13ifvqgrg","pricing_plan_id":"cebpf4jnsgd1na2vs0mg"},{"bike_id":"d1e84e6c-637d-40bc-9e66-fc9aeffccf04","system_id":"levelo_inurba_marseille","lat":43.29007,"lon":5.35614,"is_reserved":false,"is_disabled":false,"rental_uris":{"android":"levelo://app?vid=d1e84e6c-637d-40bc-9e66-fc9aeffccf04","ios":"levelo://app?vid=d1e84e6c-637d-40bc-9e66-fc9aeffccf04"},"vehicle_type_id":"4","last_reported":1736770755,"current_range_meters":12400,"station_id":"ce4bhb92rcd13ifvqen0","pricing_plan_id":"cebpf4jnsgd1na2vs0mg"},{"bike_id":"5258a8e3-c464-425f-be50-7ca7d7f6c754","system_id":"levelo_inurba_marseille","lat":43.31373,"lon":5.38484,"is_reserved":false,"is_disabled":false,"rental_uris":{"android":"levelo://app?vid=5258a8e3-c464-425f-be50-7ca7d7f6c754","ios":"levelo://app?vid=5258a8e3-c464-425f-be50-7ca7d7f6c754"},"vehicle_type_id":"4","last_reported":1736770755,"current_range_meters":26000,"station_id":"ce4bgt92rcd13ifvqcf0","pricing_plan_id":"cebpf4jnsgd1na2vs0mg"},{"bike_id":"367f8f08-374d-4421-a829-ed130ed9bd02","system_id":"levelo_inurba_marseille","lat":43.29718,"lon":5.37701,"is_reserved":false,"is_disabled":false,"rental_uris":{"android":"levelo://app?vid=367f8f08-374d-4421-a829-ed130ed9bd02","ios":"levelo://app?vid=367f8f08-374d-4421-a829-ed130ed9bd02"},"vehicle_type_id":"4","last_reported":1736770755,"current_range_meters":14000,"station_id":"ce4bgkh2rcd13ifvqbl0","pricing_plan_id":"cebpf4jnsgd1na2vs0mg"},{"bike_id":"81894d57-6961-4ca9-8a73-3302ecbe940c","system_id":"levelo_inurba_marseille","lat":43.24819,"lon":5.37462,"is_reserved":false,"is_disabled":false,"rental_uris":{"android":"levelo://app?vid=81894d57-6961-4ca9-8a73-3302ecbe940c","ios":"levelo://app?vid=81894d57-6961-4ca9-8a73-3302ecbe940c"},"vehicle_type_id":"4","last_reported":1736770755,"current_range_meters":9600,"station_id":"ce4bhgh2rcd13ifvqfb0","pricing_plan_id":"cebpf4jnsgd1na2vs0mg"},{"bike_id":"9a81ccfe-91c2-4f68-9e12-13b9ce6412b2","system_id":"levelo_inurba_marseille","lat":43.29896,"lon":5.43671,"is_reserved":false,"is_disabled":false,"rental_uris":{"android":"levelo://app?vid=9a81ccfe-91c2-4f68-9e12-13b9ce6412b2","ios":"levelo://app?vid=9a81ccfe-91c2-4f68-9e12-13b9ce6412b2"},"vehicle_type_id":"4","last_reported":1736770755,"current_range_meters":28000,"station_id":"ce4bhpp2rcd13ifvqhfg","pricing_plan_id":"cebpf4jnsgd1na2vs0mg"},{"bike_id":"45324790-abcf-4a91-8b9e-6b7c17eae013","system_id":"levelo_inurba_marseille","lat":43.27378,"lon":5.36257,"is_reserved":false,"is_disabled":false,"rental_uris":{"android":"levelo://app?vid=45324790-abcf-4a91-8b9e-6b7c17eae013","ios":"levelo://app?vid=45324790-abcf-4a91-8b9e-6b7c17eae013"},"vehicle_type_id":"4","last_reported":1736770755,"current_range_meters":9600,"station_id":"ce4bhbh2rcd13ifvqeo0","pricing_plan_id":"cebpf4jnsgd1na2vs0mg"},{"bike_id":"05dd90a7-88e4-4d1a-8bb2-a883637152d9","system_id":"levelo_inurba_marseille","lat":43.2905,"lon":5.3758,"is_reserved":false,"is_disabled":false,"rental_uris":{"android":"levelo://app?vid=05dd90a7-88e4-4d1a-8bb2-a883637152d9","ios":"levelo://app?vid=05dd90a7-88e4-4d1a-8bb2-a883637152d9"},"vehicle_type_id":"4","last_reported":1736770755,"current_range_meters":25600,"station_id":"ce4bh692rcd13ifvqe90","pricing_plan_id":"cebpf4jnsgd1na2vs0mg"},{"bike_id":"15e613f3-0746-4986-9c1e-c59aef4afe97","system_id":"levelo_inurba_marseille","lat":43.29621,"lon":5.37726,"is_reserved":false,"is_disabled":false,"rental_uris":{"android":"levelo://app?vid=15e613f3-0746-4986-9c1e-c59aef4afe97","ios":"levelo://app?vid=15e613f3-0746-4986-9c1e-c59aef4afe97"},"vehicle_type_id":"4","last_reported":1736770755,"current_range_meters":38800,"station_id":"ce4bgi92rcd13ifvqb90","pricing_plan_id":"cebpf4jnsgd1na2vs0mg"},{"bike_id":"32326507-dd2d-4f2d-9ce7-20b715968742","system_id":"levelo_inurba_marseille","lat":43.24072,"lon":5.37769,"is_reserved":false,"is_disabled":false,"rental_uris":{"android":"levelo://app?vid=32326507-dd2d-4f2d-9ce7-20b715968742","ios":"levelo://app?vid=32326507-dd2d-4f2d-9ce7-20b715968742"},"vehicle_type_id":"4","last_reported":1736770755,"current_range_meters":18000,"station_id":"ce4bhnp2rcd13ifvqgvg","pricing_plan_id":"cebpf4jnsgd1na2vs0mg"},{"bike_id":"8d78e74e-05fe-4c70-8d28-2b7a31931224","system_id":"levelo_inurba_marseille","lat":43.2932,"lon":5.37186,"is_reserved":false,"is_disabled":false,"rental_uris":{"android":"levelo://app?vid=8d78e74e-05fe-4c70-8d28-2b7a31931224","ios":"levelo://app?vid=8d78e74e-05fe-4c70-8d28-2b7a31931224"},"vehicle_type_id":"4","last_reported":1736770755,"current_range_meters":32000,"station_id":"ce4bgh92rcd13ifvqb40","pricing_plan_id":"cebpf4jnsgd1na2vs0mg"},{"bike_id":"fe4e33e9-18ce-49bc-9dc9-492f6460d462","system_id":"levelo_inurba_marseille","lat":43.30683,"lon":5.39277,"is_reserved":false,"is_disabled":false,"rental_uris":{"android":"levelo://app?vid=fe4e33e9-18ce-49bc-9dc9-492f6460d462","ios":"levelo://app?vid=fe4e33e9-18ce-49bc-9dc9-492f6460d462"},"vehicle_type_id":"4","last_reported":1736770755,"current_range_meters":24400,"station_id":"ce4bh0h2rcd13ifvqd40","pricing_plan_id":"cebpf4jnsgd1na2vs0mg"},{"bike_id":"1fed1ee0-1f33-49c9-9e57-1defe2a11fbc","system_id":"levelo_inurba_marseille","lat":43.2582,"lon":5.39436,"is_reserved":false,"is_disabled":false,"rental_uris":{"android":"levelo://app?vid=1fed1ee0-1f33-49c9-9e57-1defe2a11fbc","ios":"levelo://app?vid=1fed1ee0-1f33-49c9-9e57-1defe2a11fbc"},"vehicle_type_id":"4","last_reported":1736770755,"current_range_meters":2800,"station_id":"ce4bhip2rcd13ifvqft0","pricing_plan_id":"cebpf4jnsgd1na2vs0mg"},{"bike_id":"bc25e3ed-d031-4a9e-b649-ad61acfed1e5","system_id":"levelo_inurba_marseille","lat":43.28846,"lon":5.35831,"is_reserved":false,"is_disabled":false,"rental_uris":{"android":"levelo://app?vid=bc25e3ed-d031-4a9e-b649-ad61acfed1e5","ios":"levelo://app?vid=bc25e3ed-d031-4a9e-b649-ad61acfed1e5"},"vehicle_type_id":"4","last_reported":1736770755,"current_range_meters":32400,"station_id":"ce4bhb12rcd13ifvqem0","pricing_plan_id":"cebpf4jnsgd1na2vs0mg"},{"bike_id":"fed252d4-8a96-4918-8909-8c985d1de4fb","system_id":"levelo_inurba_marseille","lat":43.32492,"lon":5.36572,"is_reserved":false,"is_disabled":false,"rental_uris":{"android":"levelo://app?vid=fed252d4-8a96-4918-8909-8c985d1de4fb","ios":"levelo://app?vid=fed252d4-8a96-4918-8909-8c985d1de4fb"},"vehicle_type_id":"4","last_reported":1736770755,"current_range_meters":24400,"station_id":"ce4bhs12rcd13ifvqhvg","pricing_plan_id":"cebpf4jnsgd1na2vs0mg"},{"bike_id":"1ff4d6af-d168-4206-80a1-8f85ab0c0a00","system_id":"levelo_inurba_marseille","lat":43.2587,"lon":5.39902,"is_reserved":false,"is_disabled":false,"rental_uris":{"android":"levelo://app?vid=1ff4d6af-d168-4206-80a1-8f85ab0c0a00","ios":"levelo://app?vid=1ff4d6af-d168-4206-80a1-8f85ab0c0a00"},"vehicle_type_id":"4","last_reported":1736770755,"current_range_meters":39200,"station_id":"ce4bhl92rcd13ifvqghg","pricing_plan_id":"cebpf4jnsgd1na2vs0mg"},{"bike_id":"9fca92db-679b-43c9-b541-c410e12dd8ba","system_id":"levelo_inurba_marseille","lat":43.30473,"lon":5.37915,"is_reserved":false,"is_disabled":false,"rental_uris":{"android":"levelo://app?vid=9fca92db-679b-43c9-b541-c410e12dd8ba","ios":"levelo://app?vid=9fca92db-679b-43c9-b541-c410e12dd8ba"},"vehicle_type_id":"4","last_reported":1736770755,"current_range_meters":36000,"station_id":"ce4bgup2rcd13ifvqcn0","pricing_plan_id":"cebpf4jnsgd1na2vs0mg"},{"bike_id":"55e10a13-573c-4876-a3f3-1d7244726716","system_id":"levelo_inurba_marseille","lat":43.24811,"lon":5.37457,"is_reserved":false,"is_disabled":false,"rental_uris":{"android":"levelo://app?vid=55e10a13-573c-4876-a3f3-1d7244726716","ios":"levelo://app?vid=55e10a13-573c-4876-a3f3-1d7244726716"},"vehicle_type_id":"4","last_reported":1736770755,"current_range_meters":38800,"station_id":"ce4bhgh2rcd13ifvqfb0","pricing_plan_id":"cebpf4jnsgd1na2vs0mg"},{"bike_id":"1652603f-9a46-465a-91aa-7f6c537636fe","system_id":"levelo_inurba_marseille","lat":43.29534,"lon":5.37504,"is_reserved":false,"is_disabled":false,"rental_uris":{"android":"levelo://app?vid=1652603f-9a46-465a-91aa-7f6c537636fe","ios":"levelo://app?vid=1652603f-9a46-465a-91aa-7f6c537636fe"},"vehicle_type_id":"4","last_reported":1736770755,"current_range_meters":32400,"station_id":"ce4bgkp2rcd13ifvqbmg","pricing_plan_id":"cebpf4jnsgd1na2vs0mg"},{"bike_id":"92798966-bd49-4b5c-85d9-0f20e392e34e","system_id":"levelo_inurba_marseille","lat":43.26958,"lon":5.38635,"is_reserved":false,"is_disabled":false,"rental_uris":{"android":"levelo://app?vid=92798966-bd49-4b5c-85d9-0f20e392e34e","ios":"levelo://app?vid=92798966-bd49-4b5c-85d9-0f20e392e34e"},"vehicle_type_id":"4","last_reported":1736770755,"current_range_meters":16800,"station_id":"ce4bhh92rcd13ifvqfh0","pricing_plan_id":"cebpf4jnsgd1na2vs0mg"},{"bike_id":"0019e8f3-f14f-4be5-bb4d-dda6f8a007a0","system_id":"levelo_inurba_marseille","lat":43.24079,"lon":5.37762,"is_reserved":false,"is_disabled":false,"rental_uris":{"android":"levelo://app?vid=0019e8f3-f14f-4be5-bb4d-dda6f8a007a0","ios":"levelo://app?vid=0019e8f3-f14f-4be5-bb4d-dda6f8a007a0"},"vehicle_type_id":"4","last_reported":1736770755,"current_range_meters":22000,"station_id":"ce4bhnp2rcd13ifvqgvg","pricing_plan_id":"cebpf4jnsgd1na2vs0mg"},{"bike_id":"6a22576e-69a3-4d0e-9b9e-651926c7013d","system_id":"levelo_inurba_marseille","lat":43.27498,"lon":5.42448,"is_reserved":false,"is_disabled":false,"rental_uris":{"android":"levelo://app?vid=6a22576e-69a3-4d0e-9b9e-651926c7013d","ios":"levelo://app?vid=6a22576e-69a3-4d0e-9b9e-651926c7013d"},"vehicle_type_id":"4","last_reported":1736770755,"current_range_meters":18000,"station_id":"ce4bhn92rcd13ifvqgrg","pricing_plan_id":"cebpf4jnsgd1na2vs0mg"},{"bike_id":"cf771f6d-53f2-4ff7-a3af-98c328fbb4eb","system_id":"levelo_inurba_marseille","lat":43.25121,"lon":5.40316,"is_reserved":false,"is_disabled":false,"rental_uris":{"android":"levelo://app?vid=cf771f6d-53f2-4ff7-a3af-98c328fbb4eb","ios":"levelo://app?vid=cf771f6d-53f2-4ff7-a3af-98c328fbb4eb"},"vehicle_type_id":"4","last_reported":1736770755,"current_range_meters":34000,"station_id":"ce4bhlh2rcd13ifvqgig","pricing_plan_id":"cebpf4jnsgd1na2vs0mg"},{"bike_id":"c7a817d3-63e5-4652-8814-98e74bb31058","system_id":"levelo_inurba_marseille","lat":43.23961,"lon":5.3664,"is_reserved":false,"is_disabled":false,"rental_uris":{"android":"levelo://app?vid=c7a817d3-63e5-4652-8814-98e74bb31058","ios":"levelo://app?vid=c7a817d3-63e5-4652-8814-98e74bb31058"},"vehicle_type_id":"4","last_reported":1736770755,"current_range_meters":11600,"station_id":"ce4bhi12rcd13ifvqfp0","pricing_plan_id":"cebpf4jnsgd1na2vs0mg"},{"bike_id":"488e5d3f-7080-456a-8875-7f1a5dce4fa1","system_id":"levelo_inurba_marseille","lat":43.30146,"lon":5.38791,"is_reserved":false,"is_disabled":true,"rental_uris":{"android":"levelo://app?vid=488e5d3f-7080-456a-8875-7f1a5dce4fa1","ios":"levelo://app?vid=488e5d3f-7080-456a-8875-7f1a5dce4fa1"},"vehicle_type_id":"4","last_reported":1736770755,"current_range_meters":28400,"station_id":"ce4bghh2rcd13ifvqb60","pricing_plan_id":"cebpf4jnsgd1na2vs0mg"},{"bike_id":"d9511595-185a-4a3e-a81b-0634ec2f8091","system_id":"levelo_inurba_marseille","lat":43.28418,"lon":5.34982,"is_reserved":false,"is_disabled":false,"rental_uris":{"android":"levelo://app?vid=d9511595-185a-4a3e-a81b-0634ec2f8091","ios":"levelo://app?vid=d9511595-185a-4a3e-a81b-0634ec2f8091"},"vehicle_type_id":"4","last_reported":1736770755,"current_range_meters":26000,"station_id":"ce4bhbh2rcd13ifvqepg","pricing_plan_id":"cebpf4jnsgd1na2vs0mg"},{"bike_id":"295bd26f-64bb-4f9a-b1ce-9227768f18ec","system_id":"levelo_inurba_marseille","lat":43.29161,"lon":5.37144,"is_reserved":false,"is_disabled":true,"rental_uris":{"android":"levelo://app?vid=295bd26f-64bb-4f9a-b1ce-9227768f18ec","ios":"levelo://app?vid=295bd26f-64bb-4f9a-b1ce-9227768f18ec"},"vehicle_type_id":"4","last_reported":1736770755,"current_range_meters":28800,"station_id":"ce4bha92rcd13ifvqeh0","pricing_plan_id":"cebpf4jnsgd1na2vs0mg"},{"bike_id":"1bff2bac-4883-4019-adbe-2dc598af8aad","system_id":"levelo_inurba_marseille","lat":43.2744,"lon":5.39438,"is_reserved":false,"is_disabled":false,"rental_uris":{"android":"levelo://app?vid=1bff2bac-4883-4019-adbe-2dc598af8aad","ios":"levelo://app?vid=1bff2bac-4883-4019-adbe-2dc598af8aad"},"vehicle_type_id":"4","last_reported":1736770755,"current_range_meters":22000,"station_id":"ce4bhdp2rcd13ifvqf20","pricing_plan_id":"cebpf4jnsgd1na2vs0mg"},{"bike_id":"ae29e0de-7b5a-45d6-ace3-313c5e88010a","system_id":"levelo_inurba_marseille","lat":43.27989,"lon":5.41659,"is_reserved":false,"is_disabled":true,"rental_uris":{"android":"levelo://app?vid=ae29e0de-7b5a-45d6-ace3-313c5e88010a","ios":"levelo://app?vid=ae29e0de-7b5a-45d6-ace3-313c5e88010a"},"vehicle_type_id":"4","last_reported":1736770755,"current_range_meters":0,"station_id":"ce4bho12rcd13ifvqh1g","pricing_plan_id":"cebpf4jnsgd1na2vs0mg"},{"bike_id":"572f0254-11cf-4ef2-b3f9-66737ed8298a","system_id":"levelo_inurba_marseille","lat":43.28421,"lon":5.34987,"is_reserved":false,"is_disabled":true,"rental_uris":{"android":"levelo://app?vid=572f0254-11cf-4ef2-b3f9-66737ed8298a","ios":"levelo://app?vid=572f0254-11cf-4ef2-b3f9-66737ed8298a"},"vehicle_type_id":"4","last_reported":1736770755,"current_range_meters":0,"station_id":"ce4bhbh2rcd13ifvqepg","pricing_plan_id":"cebpf4jnsgd1na2vs0mg"},{"bike_id":"5e762b1b-b8de-4f44-8971-339a5eccc653","system_id":"levelo_inurba_marseille","lat":43.25941,"lon":5.40908,"is_reserved":false,"is_disabled":false,"rental_uris":{"android":"levelo://app?vid=5e762b1b-b8de-4f44-8971-339a5eccc653","ios":"levelo://app?vid=5e762b1b-b8de-4f44-8971-339a5eccc653"},"vehicle_type_id":"4","last_reported":1736770755,"current_range_meters":24000,"station_id":"ce4bhm92rcd13ifvqglg","pricing_plan_id":"cebpf4jnsgd1na2vs0mg"},{"bike_id":"432c3ea1-bacd-4bf6-9280-5777e35950d9","system_id":"levelo_inurba_marseille","lat":43.293523,"lon":5.37857,"is_reserved":false,"is_disabled":false,"rental_uris":{"android":"levelo://app?vid=432c3ea1-bacd-4bf6-9280-5777e35950d9","ios":"levelo://app?vid=432c3ea1-bacd-4bf6-9280-5777e35950d9"},"vehicle_type_id":"4","last_reported":1736770755,"current_range_meters":38800,"station_id":"ce4bgjh2rcd13ifvqbf0","pricing_plan_id":"cebpf4jnsgd1na2vs0mg"},{"bike_id":"82161f2b-450c-4bfa-a428-2ae8e25f5060","system_id":"levelo_inurba_marseille","lat":43.29579,"lon":5.36739,"is_reserved":false,"is_disabled":false,"rental_uris":{"android":"levelo://app?vid=82161f2b-450c-4bfa-a428-2ae8e25f5060","ios":"levelo://app?vid=82161f2b-450c-4bfa-a428-2ae8e25f5060"},"vehicle_type_id":"4","last_reported":1736770755,"current_range_meters":24800,"station_id":"ce4bgph2rcd13ifvqc2g","pricing_plan_id":"cebpf4jnsgd1na2vs0mg"},{"bike_id":"136c61aa-a244-4f82-9113-620a348666ce","system_id":"levelo_inurba_marseille","lat":43.27597,"lon":5.384,"is_reserved":false,"is_disabled":true,"rental_uris":{"android":"levelo://app?vid=136c61aa-a244-4f82-9113-620a348666ce","ios":"levelo://app?vid=136c61aa-a244-4f82-9113-620a348666ce"},"vehicle_type_id":"4","last_reported":1736770755,"current_range_meters":25200,"station_id":"ce4bhh92rcd13ifvqfi0","pricing_plan_id":"cebpf4jnsgd1na2vs0mg"},{"bike_id":"f3b72da2-1b76-4711-92c5-171d571e29c3","system_id":"levelo_inurba_marseille","lat":43.29609,"lon":5.37723,"is_reserved":false,"is_disabled":true,"rental_uris":{"android":"levelo://app?vid=f3b72da2-1b76-4711-92c5-171d571e29c3","ios":"levelo://app?vid=f3b72da2-1b76-4711-92c5-171d571e29c3"},"vehicle_type_id":"4","last_reported":1736770755,"current_range_meters":400,"station_id":"ce4bgi92rcd13ifvqb90","pricing_plan_id":"cebpf4jnsgd1na2vs0mg"},{"bike_id":"42ecc464-da44-487e-b0da-d25d9d2043d6","system_id":"levelo_inurba_marseille","lat":43.25713,"lon":5.41132,"is_reserved":false,"is_disabled":false,"rental_uris":{"android":"levelo://app?vid=42ecc464-da44-487e-b0da-d25d9d2043d6","ios":"levelo://app?vid=42ecc464-da44-487e-b0da-d25d9d2043d6"},"vehicle_type_id":"4","last_reported":1736770755,"current_range_meters":38800,"station_id":"ce4bhkp2rcd13ifvqgd0","pricing_plan_id":"cebpf4jnsgd1na2vs0mg"},{"bike_id":"929070cc-cdca-4b4b-9627-b6620eac885d","system_id":"levelo_inurba_marseille","lat":43.31114,"lon":5.37769,"is_reserved":false,"is_disabled":false,"rental_uris":{"android":"levelo://app?vid=929070cc-cdca-4b4b-9627-b6620eac885d","ios":"levelo://app?vid=929070cc-cdca-4b4b-9627-b6620eac885d"},"vehicle_type_id":"4","last_reported":1736770755,"current_range_meters":36800,"station_id":"ce4bgt92rcd13ifvqcg0","pricing_plan_id":"cebpf4jnsgd1na2vs0mg"},{"bike_id":"8e4e214a-bd36-4c9b-8d96-4f521006adc1","system_id":"levelo_inurba_marseille","lat":43.28666,"lon":5.36361,"is_reserved":false,"is_disabled":false,"rental_uris":{"android":"levelo://app?vid=8e4e214a-bd36-4c9b-8d96-4f521006adc1","ios":"levelo://app?vid=8e4e214a-bd36-4c9b-8d96-4f521006adc1"},"vehicle_type_id":"4","last_reported":1736770755,"current_range_meters":30400,"station_id":"ce4bhah2rcd13ifvqej0","pricing_plan_id":"cebpf4jnsgd1na2vs0mg"},{"bike_id":"65e8b99d-cb00-44f8-a57f-7740743f51e0","system_id":"levelo_inurba_marseille","lat":43.25013,"lon":5.38921,"is_reserved":false,"is_disabled":true,"rental_uris":{"android":"levelo://app?vid=65e8b99d-cb00-44f8-a57f-7740743f51e0","ios":"levelo://app?vid=65e8b99d-cb00-44f8-a57f-7740743f51e0"},"vehicle_type_id":"4","last_reported":1736770755,"current_range_meters":24400,"station_id":"ce4bhgp2rcd13ifvqfd0","pricing_plan_id":"cebpf4jnsgd1na2vs0mg"},{"bike_id":"e7bed24c-76b8-4bfe-8ea5-51efa81df6c2","system_id":"levelo_inurba_marseille","lat":43.27493,"lon":5.42474,"is_reserved":false,"is_disabled":true,"rental_uris":{"android":"levelo://app?vid=e7bed24c-76b8-4bfe-8ea5-51efa81df6c2","ios":"levelo://app?vid=e7bed24c-76b8-4bfe-8ea5-51efa81df6c2"},"vehicle_type_id":"4","last_reported":1736770755,"current_range_meters":0,"station_id":"ce4bhn92rcd13ifvqgrg","pricing_plan_id":"cebpf4jnsgd1na2vs0mg"},{"bike_id":"ea4c7416-6f72-4315-85a1-e18e99e580af","system_id":"levelo_inurba_marseille","lat":43.31247,"lon":5.36855,"is_reserved":false,"is_disabled":false,"rental_uris":{"android":"levelo://app?vid=ea4c7416-6f72-4315-85a1-e18e99e580af","ios":"levelo://app?vid=ea4c7416-6f72-4315-85a1-e18e99e580af"},"vehicle_type_id":"4","last_reported":1736770755,"current_range_meters":29600,"station_id":"ce4bgl92rcd13ifvqbq0","pricing_plan_id":"cebpf4jnsgd1na2vs0mg"},{"bike_id":"3db2fa11-1dd9-4dc9-ae46-77da55522d93","system_id":"levelo_inurba_marseille","lat":43.25116,"lon":5.40314,"is_reserved":false,"is_disabled":false,"rental_uris":{"android":"levelo://app?vid=3db2fa11-1dd9-4dc9-ae46-77da55522d93","ios":"levelo://app?vid=3db2fa11-1dd9-4dc9-ae46-77da55522d93"},"vehicle_type_id":"4","last_reported":1736770755,"current_range_meters":38800,"station_id":"ce4bhlh2rcd13ifvqgig","pricing_plan_id":"cebpf4jnsgd1na2vs0mg"},{"bike_id":"b52b7fb2-7786-4441-827f-0bdc4b671e91","system_id":"levelo_inurba_marseille","lat":43.32546,"lon":5.41448,"is_reserved":false,"is_disabled":false,"rental_uris":{"android":"levelo://app?vid=b52b7fb2-7786-4441-827f-0bdc4b671e91","ios":"levelo://app?vid=b52b7fb2-7786-4441-827f-0bdc4b671e91"},"vehicle_type_id":"4","last_reported":1736770755,"current_range_meters":35600,"station_id":"ce4bhq12rcd13ifvqhhg","pricing_plan_id":"cebpf4jnsgd1na2vs0mg"},{"bike_id":"daef0bf2-8981-4bd3-b145-68092be70396","system_id":"levelo_inurba_marseille","lat":43.27055,"lon":5.40261,"is_reserved":false,"is_disabled":false,"rental_uris":{"android":"levelo://app?vid=daef0bf2-8981-4bd3-b145-68092be70396","ios":"levelo://app?vid=daef0bf2-8981-4bd3-b145-68092be70396"},"vehicle_type_id":"4","last_reported":1736770755,"current_range_meters":4400,"station_id":"ce4bhk92rcd13ifvqgc0","pricing_plan_id":"cebpf4jnsgd1na2vs0mg"},{"bike_id":"d4157a94-2a68-4c54-99ec-cade8ce55d91","system_id":"levelo_inurba_marseille","lat":43.28729,"lon":5.36086,"is_reserved":false,"is_disabled":false,"rental_uris":{"android":"levelo://app?vid=d4157a94-2a68-4c54-99ec-cade8ce55d91","ios":"levelo://app?vid=d4157a94-2a68-4c54-99ec-cade8ce55d91"},"vehicle_type_id":"4","last_reported":1736770755,"current_range_meters":32400,"station_id":"cki0cbj6b192h4jlfktg","pricing_plan_id":"cebpf4jnsgd1na2vs0mg"},{"bike_id":"b704bf42-2bc7-4506-b669-8ca7a3330fef","system_id":"levelo_inurba_marseille","lat":43.281527,"lon":5.426424,"is_reserved":false,"is_disabled":true,"rental_uris":{"android":"levelo://app?vid=b704bf42-2bc7-4506-b669-8ca7a3330fef","ios":"levelo://app?vid=b704bf42-2bc7-4506-b669-8ca7a3330fef"},"vehicle_type_id":"4","last_reported":1736770755,"current_range_meters":24800,"station_id":"ce4bhnh2rcd13ifvqgug","pricing_plan_id":"cebpf4jnsgd1na2vs0mg"},{"bike_id":"0dd02e1e-bf1d-4a0f-88af-f415a3c859a0","system_id":"levelo_inurba_marseille","lat":43.30543,"lon":5.36543,"is_reserved":false,"is_disabled":false,"rental_uris":{"android":"levelo://app?vid=0dd02e1e-bf1d-4a0f-88af-f415a3c859a0","ios":"levelo://app?vid=0dd02e1e-bf1d-4a0f-88af-f415a3c859a0"},"vehicle_type_id":"4","last_reported":1736770755,"current_range_meters":38800,"station_id":"ce4bgs12rcd13ifvqcag","pricing_plan_id":"cebpf4jnsgd1na2vs0mg"},{"bike_id":"083aa833-6dbd-4cc6-99ca-b9c687707c91","system_id":"levelo_inurba_marseille","lat":43.29542,"lon":5.4227,"is_reserved":false,"is_disabled":false,"rental_uris":{"android":"levelo://app?vid=083aa833-6dbd-4cc6-99ca-b9c687707c91","ios":"levelo://app?vid=083aa833-6dbd-4cc6-99ca-b9c687707c91"},"vehicle_type_id":"4","last_reported":1736770755,"current_range_meters":38800,"station_id":"ce4bhph2rcd13ifvqhdg","pricing_plan_id":"cebpf4jnsgd1na2vs0mg"},{"bike_id":"afdd56c3-3985-40e3-983b-7c44914b8b02","system_id":"levelo_inurba_marseille","lat":43.29729,"lon":5.37698,"is_reserved":false,"is_disabled":false,"rental_uris":{"android":"levelo://app?vid=afdd56c3-3985-40e3-983b-7c44914b8b02","ios":"levelo://app?vid=afdd56c3-3985-40e3-983b-7c44914b8b02"},"vehicle_type_id":"4","last_reported":1736770755,"current_range_meters":12800,"station_id":"ce4bgkh2rcd13ifvqbl0","pricing_plan_id":"cebpf4jnsgd1na2vs0mg"},{"bike_id":"1cb623b7-90e5-4b8e-b567-ba3c36376715","system_id":"levelo_inurba_marseille","lat":43.28665,"lon":5.38661,"is_reserved":false,"is_disabled":false,"rental_uris":{"android":"levelo://app?vid=1cb623b7-90e5-4b8e-b567-ba3c36376715","ios":"levelo://app?vid=1cb623b7-90e5-4b8e-b567-ba3c36376715"},"vehicle_type_id":"4","last_reported":1736770755,"current_range_meters":16000,"station_id":"ce4bh492rcd13ifvqdug","pricing_plan_id":"cebpf4jnsgd1na2vs0mg"},{"bike_id":"f62a7ed4-7c80-4ed8-9568-a4dea62069d1","system_id":"levelo_inurba_marseille","lat":43.280834,"lon":5.396632,"is_reserved":false,"is_disabled":false,"rental_uris":{"android":"levelo://app?vid=f62a7ed4-7c80-4ed8-9568-a4dea62069d1","ios":"levelo://app?vid=f62a7ed4-7c80-4ed8-9568-a4dea62069d1"},"vehicle_type_id":"4","last_reported":1736770755,"current_range_meters":28400,"station_id":"ce4bho12rcd13ifvqh2g","pricing_plan_id":"cebpf4jnsgd1na2vs0mg"},{"bike_id":"1d93ca41-9a03-41dd-b07f-d54cba1b7254","system_id":"levelo_inurba_marseille","lat":43.28449,"lon":5.39204,"is_reserved":false,"is_disabled":false,"rental_uris":{"android":"levelo://app?vid=1d93ca41-9a03-41dd-b07f-d54cba1b7254","ios":"levelo://app?vid=1d93ca41-9a03-41dd-b07f-d54cba1b7254"},"vehicle_type_id":"4","last_reported":1736770755,"current_range_meters":31200,"station_id":"ce4bhoh2rcd13ifvqh5g","pricing_plan_id":"cebpf4jnsgd1na2vs0mg"},{"bike_id":"0f5aa17d-39c9-4258-b7d4-e488616e00ec","system_id":"levelo_inurba_marseille","lat":43.26567,"lon":5.39013,"is_reserved":false,"is_disabled":false,"rental_uris":{"android":"levelo://app?vid=0f5aa17d-39c9-4258-b7d4-e488616e00ec","ios":"levelo://app?vid=0f5aa17d-39c9-4258-b7d4-e488616e00ec"},"vehicle_type_id":"4","last_reported":1736770755,"current_range_meters":8400,"station_id":"ce4bhe12rcd13ifvqf30","pricing_plan_id":"cebpf4jnsgd1na2vs0mg"},{"bike_id":"b7e4d286-bf95-44b9-9094-8f6366cbca55","system_id":"levelo_inurba_marseille","lat":43.25002,"lon":5.38927,"is_reserved":false,"is_disabled":false,"rental_uris":{"android":"levelo://app?vid=b7e4d286-bf95-44b9-9094-8f6366cbca55","ios":"levelo://app?vid=b7e4d286-bf95-44b9-9094-8f6366cbca55"},"vehicle_type_id":"4","last_reported":1736770755,"current_range_meters":36800,"station_id":"ce4bhgp2rcd13ifvqfd0","pricing_plan_id":"cebpf4jnsgd1na2vs0mg"},{"bike_id":"302aecf2-f0cb-4a7b-84ab-a06b45364ca9","system_id":"levelo_inurba_marseille","lat":43.28849,"lon":5.35876,"is_reserved":false,"is_disabled":false,"rental_uris":{"android":"levelo://app?vid=302aecf2-f0cb-4a7b-84ab-a06b45364ca9","ios":"levelo://app?vid=302aecf2-f0cb-4a7b-84ab-a06b45364ca9"},"vehicle_type_id":"4","last_reported":1736770755,"current_range_meters":24400,"station_id":"ce4bhb12rcd13ifvqem0","pricing_plan_id":"cebpf4jnsgd1na2vs0mg"},{"bike_id":"1c386431-e3c2-4c9c-aa66-f49939c1313f","system_id":"levelo_inurba_marseille","lat":43.30199,"lon":5.38039,"is_reserved":false,"is_disabled":false,"rental_uris":{"android":"levelo://app?vid=1c386431-e3c2-4c9c-aa66-f49939c1313f","ios":"levelo://app?vid=1c386431-e3c2-4c9c-aa66-f49939c1313f"},"vehicle_type_id":"4","last_reported":1736770755,"current_range_meters":38400,"station_id":"","pricing_plan_id":"cebpf4jnsgd1na2vs0mg"},{"bike_id":"66c74e61-5f94-4d34-8844-39c7d31204c9","system_id":"levelo_inurba_marseille","lat":43.24184,"lon":5.39712,"is_reserved":false,"is_disabled":false,"rental_uris":{"android":"levelo://app?vid=66c74e61-5f94-4d34-8844-39c7d31204c9","ios":"levelo://app?vid=66c74e61-5f94-4d34-8844-39c7d31204c9"},"vehicle_type_id":"4","last_reported":1736770755,"current_range_meters":28000,"station_id":"ce4bhn12rcd13ifvqgpg","pricing_plan_id":"cebpf4jnsgd1na2vs0mg"},{"bike_id":"31240ca4-9f64-4406-9c52-14b4354e548c","system_id":"levelo_inurba_marseille","lat":43.28626,"lon":5.35095,"is_reserved":false,"is_disabled":false,"rental_uris":{"android":"levelo://app?vid=31240ca4-9f64-4406-9c52-14b4354e548c","ios":"levelo://app?vid=31240ca4-9f64-4406-9c52-14b4354e548c"},"vehicle_type_id":"4","last_reported":1736770755,"current_range_meters":33200,"station_id":"ce4bhch2rcd13ifvqeug","pricing_plan_id":"cebpf4jnsgd1na2vs0mg"},{"bike_id":"089a04ef-15a2-4c09-98ee-41fc60bacc6d","system_id":"levelo_inurba_marseille","lat":43.32471,"lon":5.36589,"is_reserved":false,"is_disabled":false,"rental_uris":{"android":"levelo://app?vid=089a04ef-15a2-4c09-98ee-41fc60bacc6d","ios":"levelo://app?vid=089a04ef-15a2-4c09-98ee-41fc60bacc6d"},"vehicle_type_id":"4","last_reported":1736770755,"current_range_meters":38000,"station_id":"ce4bhs12rcd13ifvqhvg","pricing_plan_id":"cebpf4jnsgd1na2vs0mg"},{"bike_id":"dd87fb50-7bdd-46f1-950c-ea717233bcb9","system_id":"levelo_inurba_marseille","lat":43.29304,"lon":5.37446,"is_reserved":false,"is_disabled":false,"rental_uris":{"android":"levelo://app?vid=dd87fb50-7bdd-46f1-950c-ea717233bcb9","ios":"levelo://app?vid=dd87fb50-7bdd-46f1-950c-ea717233bcb9"},"vehicle_type_id":"4","last_reported":1736770755,"current_range_meters":22000,"station_id":"ce4bgi12rcd13ifvqb70","pricing_plan_id":"cebpf4jnsgd1na2vs0mg"},{"bike_id":"d9b042e2-bbf3-47bf-851f-426caf4d0e01","system_id":"levelo_inurba_marseille","lat":43.24812,"lon":5.37464,"is_reserved":false,"is_disabled":false,"rental_uris":{"android":"levelo://app?vid=d9b042e2-bbf3-47bf-851f-426caf4d0e01","ios":"levelo://app?vid=d9b042e2-bbf3-47bf-851f-426caf4d0e01"},"vehicle_type_id":"4","last_reported":1736770755,"current_range_meters":34000,"station_id":"ce4bhgh2rcd13ifvqfb0","pricing_plan_id":"cebpf4jnsgd1na2vs0mg"},{"bike_id":"712fb1ac-a49b-4a1d-bf83-b2682dda137c","system_id":"levelo_inurba_marseille","lat":43.30601,"lon":5.37221,"is_reserved":false,"is_disabled":false,"rental_uris":{"android":"levelo://app?vid=712fb1ac-a49b-4a1d-bf83-b2682dda137c","ios":"levelo://app?vid=712fb1ac-a49b-4a1d-bf83-b2682dda137c"},"vehicle_type_id":"4","last_reported":1736770755,"current_range_meters":35600,"station_id":"ce4bgqh2rcd13ifvqc4g","pricing_plan_id":"cebpf4jnsgd1na2vs0mg"},{"bike_id":"440408fa-9829-4ebe-b684-3ba9d7ce9e01","system_id":"levelo_inurba_marseille","lat":43.27308,"lon":5.39085,"is_reserved":false,"is_disabled":false,"rental_uris":{"android":"levelo://app?vid=440408fa-9829-4ebe-b684-3ba9d7ce9e01","ios":"levelo://app?vid=440408fa-9829-4ebe-b684-3ba9d7ce9e01"},"vehicle_type_id":"4","last_reported":1736770755,"current_range_meters":39200,"station_id":"ce4bhgp2rcd13ifvqfe0","pricing_plan_id":"cebpf4jnsgd1na2vs0mg"},{"bike_id":"5f2cf356-122a-4d24-85ba-e38bc4612223","system_id":"levelo_inurba_marseille","lat":43.25583,"lon":5.38235,"is_reserved":false,"is_disabled":false,"rental_uris":{"android":"levelo://app?vid=5f2cf356-122a-4d24-85ba-e38bc4612223","ios":"levelo://app?vid=5f2cf356-122a-4d24-85ba-e38bc4612223"},"vehicle_type_id":"4","last_reported":1736770755,"current_range_meters":25200,"station_id":"ce4bhih2rcd13ifvqfs0","pricing_plan_id":"cebpf4jnsgd1na2vs0mg"},{"bike_id":"2ef3a583-2af2-4fbb-84f1-ea34fae96d7d","system_id":"levelo_inurba_marseille","lat":43.26228,"lon":5.37455,"is_reserved":false,"is_disabled":false,"rental_uris":{"android":"levelo://app?vid=2ef3a583-2af2-4fbb-84f1-ea34fae96d7d","ios":"levelo://app?vid=2ef3a583-2af2-4fbb-84f1-ea34fae96d7d"},"vehicle_type_id":"4","last_reported":1736770755,"current_range_meters":31200,"station_id":"ce4bhgp2rcd13ifvqfc0","pricing_plan_id":"cebpf4jnsgd1na2vs0mg"},{"bike_id":"f1c6aa85-6b94-4bc0-97cc-69eb9849c49c","system_id":"levelo_inurba_marseille","lat":43.28704,"lon":5.3999,"is_reserved":false,"is_disabled":false,"rental_uris":{"android":"levelo://app?vid=f1c6aa85-6b94-4bc0-97cc-69eb9849c49c","ios":"levelo://app?vid=f1c6aa85-6b94-4bc0-97cc-69eb9849c49c"},"vehicle_type_id":"4","last_reported":1736770755,"current_range_meters":37600,"station_id":"ce4bho92rcd13ifvqh3g","pricing_plan_id":"cebpf4jnsgd1na2vs0mg"},{"bike_id":"11f01b7b-c2a8-40ef-b67d-696681ee9c7f","system_id":"levelo_inurba_marseille","lat":43.30606,"lon":5.37203,"is_reserved":false,"is_disabled":false,"rental_uris":{"android":"levelo://app?vid=11f01b7b-c2a8-40ef-b67d-696681ee9c7f","ios":"levelo://app?vid=11f01b7b-c2a8-40ef-b67d-696681ee9c7f"},"vehicle_type_id":"4","last_reported":1736770755,"current_range_meters":37600,"station_id":"ce4bgqh2rcd13ifvqc4g","pricing_plan_id":"cebpf4jnsgd1na2vs0mg"},{"bike_id":"3b0c7591-c1f3-412f-9181-cb82602a89ed","system_id":"levelo_inurba_marseille","lat":43.24805,"lon":5.37454,"is_reserved":false,"is_disabled":false,"rental_uris":{"android":"levelo://app?vid=3b0c7591-c1f3-412f-9181-cb82602a89ed","ios":"levelo://app?vid=3b0c7591-c1f3-412f-9181-cb82602a89ed"},"vehicle_type_id":"4","last_reported":1736770755,"current_range_meters":10000,"station_id":"ce4bhgh2rcd13ifvqfb0","pricing_plan_id":"cebpf4jnsgd1na2vs0mg"},{"bike_id":"19ea2b3a-fba4-4ef4-889f-ef72743577e9","system_id":"levelo_inurba_marseille","lat":43.26933,"lon":5.389197,"is_reserved":false,"is_disabled":false,"rental_uris":{"android":"levelo://app?vid=19ea2b3a-fba4-4ef4-889f-ef72743577e9","ios":"levelo://app?vid=19ea2b3a-fba4-4ef4-889f-ef72743577e9"},"vehicle_type_id":"4","last_reported":1736770755,"current_range_meters":11200,"station_id":"ce4bhhh2rcd13ifvqfl0","pricing_plan_id":"cebpf4jnsgd1na2vs0mg"},{"bike_id":"bb9e99ce-48a1-4551-a814-d1c67643e278","system_id":"levelo_inurba_marseille","lat":43.23143,"lon":5.43718,"is_reserved":false,"is_disabled":true,"rental_uris":{"android":"levelo://app?vid=bb9e99ce-48a1-4551-a814-d1c67643e278","ios":"levelo://app?vid=bb9e99ce-48a1-4551-a814-d1c67643e278"},"vehicle_type_id":"4","last_reported":1736770755,"current_range_meters":0,"station_id":"ce4bhmp2rcd13ifvqgog","pricing_plan_id":"cebpf4jnsgd1na2vs0mg"},{"bike_id":"16833343-c45a-4aeb-bf79-1be93a70c331","system_id":"levelo_inurba_marseille","lat":43.33186,"lon":5.39581,"is_reserved":false,"is_disabled":false,"rental_uris":{"android":"levelo://app?vid=16833343-c45a-4aeb-bf79-1be93a70c331","ios":"levelo://app?vid=16833343-c45a-4aeb-bf79-1be93a70c331"},"vehicle_type_id":"4","last_reported":1736770755,"current_range_meters":37600,"station_id":"","pricing_plan_id":"cebpf4jnsgd1na2vs0mg"},{"bike_id":"321f52aa-ed5c-4bda-899e-0735b049a6ab","system_id":"levelo_inurba_marseille","lat":43.337444,"lon":5.374475,"is_reserved":false,"is_disabled":false,"rental_uris":{"android":"levelo://app?vid=321f52aa-ed5c-4bda-899e-0735b049a6ab","ios":"levelo://app?vid=321f52aa-ed5c-4bda-899e-0735b049a6ab"},"vehicle_type_id":"4","last_reported":1736770755,"current_range_meters":38400,"station_id":"","pricing_plan_id":"cebpf4jnsgd1na2vs0mg"},{"bike_id":"41922604-c7b8-4e93-9da5-3903771d7233","system_id":"levelo_inurba_marseille","lat":43.24815,"lon":5.37465,"is_reserved":false,"is_disabled":false,"rental_uris":{"android":"levelo://app?vid=41922604-c7b8-4e93-9da5-3903771d7233","ios":"levelo://app?vid=41922604-c7b8-4e93-9da5-3903771d7233"},"vehicle_type_id":"4","last_reported":1736770755,"current_range_meters":27200,"station_id":"ce4bhgh2rcd13ifvqfb0","pricing_plan_id":"cebpf4jnsgd1na2vs0mg"},{"bike_id":"c327d484-c524-4142-9386-6268c4e1d223","system_id":"levelo_inurba_marseille","lat":43.25597,"lon":5.38244,"is_reserved":false,"is_disabled":false,"rental_uris":{"android":"levelo://app?vid=c327d484-c524-4142-9386-6268c4e1d223","ios":"levelo://app?vid=c327d484-c524-4142-9386-6268c4e1d223"},"vehicle_type_id":"4","last_reported":1736770755,"current_range_meters":20000,"station_id":"ce4bhih2rcd13ifvqfs0","pricing_plan_id":"cebpf4jnsgd1na2vs0mg"},{"bike_id":"81e0d8c7-306a-4f12-8be5-a112827f5cb6","system_id":"levelo_inurba_marseille","lat":43.29046,"lon":5.37564,"is_reserved":false,"is_disabled":false,"rental_uris":{"android":"levelo://app?vid=81e0d8c7-306a-4f12-8be5-a112827f5cb6","ios":"levelo://app?vid=81e0d8c7-306a-4f12-8be5-a112827f5cb6"},"vehicle_type_id":"4","last_reported":1736770755,"current_range_meters":28800,"station_id":"ce4bh692rcd13ifvqe90","pricing_plan_id":"cebpf4jnsgd1na2vs0mg"},{"bike_id":"f4adad4f-7aa5-4610-baa3-fcb8ef974df8","system_id":"levelo_inurba_marseille","lat":43.28942,"lon":5.36642,"is_reserved":false,"is_disabled":false,"rental_uris":{"android":"levelo://app?vid=f4adad4f-7aa5-4610-baa3-fcb8ef974df8","ios":"levelo://app?vid=f4adad4f-7aa5-4610-baa3-fcb8ef974df8"},"vehicle_type_id":"4","last_reported":1736770755,"current_range_meters":30800,"station_id":"ce4bhap2rcd13ifvqek0","pricing_plan_id":"cebpf4jnsgd1na2vs0mg"},{"bike_id":"22cf95fc-0d41-47f7-88e9-b6326dbcbbe8","system_id":"levelo_inurba_marseille","lat":43.30217,"lon":5.39473,"is_reserved":false,"is_disabled":false,"rental_uris":{"android":"levelo://app?vid=22cf95fc-0d41-47f7-88e9-b6326dbcbbe8","ios":"levelo://app?vid=22cf95fc-0d41-47f7-88e9-b6326dbcbbe8"},"vehicle_type_id":"4","last_reported":1736770755,"current_range_meters":15200,"station_id":"ce4bh0p2rcd13ifvqd70","pricing_plan_id":"cebpf4jnsgd1na2vs0mg"},{"bike_id":"6f8d5613-68e8-453b-9903-0b6c2da05e2d","system_id":"levelo_inurba_marseille","lat":43.24174,"lon":5.36408,"is_reserved":false,"is_disabled":false,"rental_uris":{"android":"levelo://app?vid=6f8d5613-68e8-453b-9903-0b6c2da05e2d","ios":"levelo://app?vid=6f8d5613-68e8-453b-9903-0b6c2da05e2d"},"vehicle_type_id":"4","last_reported":1736770755,"current_range_meters":32400,"station_id":"cpo36qri1sfpv3e86is0","pricing_plan_id":"cebpf4jnsgd1na2vs0mg"},{"bike_id":"04d788bf-6a1e-4994-a7a2-ad85dcb4ea1c","system_id":"levelo_inurba_marseille","lat":43.26685,"lon":5.38266,"is_reserved":false,"is_disabled":false,"rental_uris":{"android":"levelo://app?vid=04d788bf-6a1e-4994-a7a2-ad85dcb4ea1c","ios":"levelo://app?vid=04d788bf-6a1e-4994-a7a2-ad85dcb4ea1c"},"vehicle_type_id":"4","last_reported":1736770755,"current_range_meters":38800,"station_id":"ce4bhg92rcd13ifvqf90","pricing_plan_id":"cebpf4jnsgd1na2vs0mg"},{"bike_id":"255cc0c6-67fd-4ee3-b6f8-109d99a3cfea","system_id":"levelo_inurba_marseille","lat":43.2885,"lon":5.35857,"is_reserved":false,"is_disabled":false,"rental_uris":{"android":"levelo://app?vid=255cc0c6-67fd-4ee3-b6f8-109d99a3cfea","ios":"levelo://app?vid=255cc0c6-67fd-4ee3-b6f8-109d99a3cfea"},"vehicle_type_id":"4","last_reported":1736770755,"current_range_meters":29600,"station_id":"ce4bhb12rcd13ifvqem0","pricing_plan_id":"cebpf4jnsgd1na2vs0mg"},{"bike_id":"2130fc74-9dbc-4976-b04b-ed38d5ae8110","system_id":"levelo_inurba_marseille","lat":43.24047,"lon":5.37722,"is_reserved":false,"is_disabled":false,"rental_uris":{"android":"levelo://app?vid=2130fc74-9dbc-4976-b04b-ed38d5ae8110","ios":"levelo://app?vid=2130fc74-9dbc-4976-b04b-ed38d5ae8110"},"vehicle_type_id":"4","last_reported":1736770755,"current_range_meters":36800,"station_id":"ce4bhnp2rcd13ifvqgvg","pricing_plan_id":"cebpf4jnsgd1na2vs0mg"},{"bike_id":"3fe1c7ab-6535-4a87-a5c5-4dc2bdd2f69f","system_id":"levelo_inurba_marseille","lat":43.30888,"lon":5.36859,"is_reserved":false,"is_disabled":false,"rental_uris":{"android":"levelo://app?vid=3fe1c7ab-6535-4a87-a5c5-4dc2bdd2f69f","ios":"levelo://app?vid=3fe1c7ab-6535-4a87-a5c5-4dc2bdd2f69f"},"vehicle_type_id":"4","last_reported":1736770755,"current_range_meters":39200,"station_id":"ce4bgn92rcd13ifvqbvg","pricing_plan_id":"cebpf4jnsgd1na2vs0mg"},{"bike_id":"85603f95-286b-4848-8682-ec6ae6094237","system_id":"levelo_inurba_marseille","lat":43.27007,"lon":5.40282,"is_reserved":false,"is_disabled":true,"rental_uris":{"android":"levelo://app?vid=85603f95-286b-4848-8682-ec6ae6094237","ios":"levelo://app?vid=85603f95-286b-4848-8682-ec6ae6094237"},"vehicle_type_id":"4","last_reported":1736770755,"current_range_meters":4000,"station_id":"ce4bhk92rcd13ifvqgc0","pricing_plan_id":"cebpf4jnsgd1na2vs0mg"},{"bike_id":"55178c83-e8c1-42d0-85eb-2ae9bbbd47cf","system_id":"levelo_inurba_marseille","lat":43.23185,"lon":5.35555,"is_reserved":false,"is_disabled":false,"rental_uris":{"android":"levelo://app?vid=55178c83-e8c1-42d0-85eb-2ae9bbbd47cf","ios":"levelo://app?vid=55178c83-e8c1-42d0-85eb-2ae9bbbd47cf"},"vehicle_type_id":"4","last_reported":1736770755,"current_range_meters":38000,"station_id":"ce4bhu92rcd13ifvqi70","pricing_plan_id":"cebpf4jnsgd1na2vs0mg"},{"bike_id":"832630fe-0afd-49e9-a2bb-dfd2acf0b91e","system_id":"levelo_inurba_marseille","lat":43.29584,"lon":5.36739,"is_reserved":false,"is_disabled":false,"rental_uris":{"android":"levelo://app?vid=832630fe-0afd-49e9-a2bb-dfd2acf0b91e","ios":"levelo://app?vid=832630fe-0afd-49e9-a2bb-dfd2acf0b91e"},"vehicle_type_id":"4","last_reported":1736770755,"current_range_meters":39200,"station_id":"ce4bgph2rcd13ifvqc2g","pricing_plan_id":"cebpf4jnsgd1na2vs0mg"},{"bike_id":"8b88170d-e695-4530-8583-a66b3ec41a93","system_id":"levelo_inurba_marseille","lat":43.33599,"lon":5.41007,"is_reserved":false,"is_disabled":true,"rental_uris":{"android":"levelo://app?vid=8b88170d-e695-4530-8583-a66b3ec41a93","ios":"levelo://app?vid=8b88170d-e695-4530-8583-a66b3ec41a93"},"vehicle_type_id":"4","last_reported":1736770755,"current_range_meters":4400,"station_id":"ce4bhqh2rcd13ifvqhmg","pricing_plan_id":"cebpf4jnsgd1na2vs0mg"},{"bike_id":"697e4ab4-20ea-4bca-b40d-c28710132512","system_id":"levelo_inurba_marseille","lat":43.31087,"lon":5.42427,"is_reserved":false,"is_disabled":false,"rental_uris":{"android":"levelo://app?vid=697e4ab4-20ea-4bca-b40d-c28710132512","ios":"levelo://app?vid=697e4ab4-20ea-4bca-b40d-c28710132512"},"vehicle_type_id":"4","last_reported":1736770755,"current_range_meters":38800,"station_id":"ce4bhp92rcd13ifvqhag","pricing_plan_id":"cebpf4jnsgd1na2vs0mg"},{"bike_id":"fc25fde7-34f6-479c-a853-ea6c1d431331","system_id":"levelo_inurba_marseille","lat":43.31723,"lon":5.37781,"is_reserved":false,"is_disabled":false,"rental_uris":{"android":"levelo://app?vid=fc25fde7-34f6-479c-a853-ea6c1d431331","ios":"levelo://app?vid=fc25fde7-34f6-479c-a853-ea6c1d431331"},"vehicle_type_id":"4","last_reported":1736770755,"current_range_meters":8000,"station_id":"ce4bgth2rcd13ifvqch0","pricing_plan_id":"cebpf4jnsgd1na2vs0mg"},{"bike_id":"093c5d37-1c8a-4f94-ab7f-4c150a77b725","system_id":"levelo_inurba_marseille","lat":43.24999,"lon":5.38936,"is_reserved":false,"is_disabled":false,"rental_uris":{"android":"levelo://app?vid=093c5d37-1c8a-4f94-ab7f-4c150a77b725","ios":"levelo://app?vid=093c5d37-1c8a-4f94-ab7f-4c150a77b725"},"vehicle_type_id":"4","last_reported":1736770755,"current_range_meters":15200,"station_id":"ce4bhgp2rcd13ifvqfd0","pricing_plan_id":"cebpf4jnsgd1na2vs0mg"},{"bike_id":"00150a96-dc89-46f4-959b-3cf2fa6e1a39","system_id":"levelo_inurba_marseille","lat":43.25005,"lon":5.38914,"is_reserved":false,"is_disabled":false,"rental_uris":{"android":"levelo://app?vid=00150a96-dc89-46f4-959b-3cf2fa6e1a39","ios":"levelo://app?vid=00150a96-dc89-46f4-959b-3cf2fa6e1a39"},"vehicle_type_id":"4","last_reported":1736770755,"current_range_meters":33600,"station_id":"ce4bhgp2rcd13ifvqfd0","pricing_plan_id":"cebpf4jnsgd1na2vs0mg"},{"bike_id":"ac386460-d734-49dc-a07d-5765a2b45256","system_id":"levelo_inurba_marseille","lat":43.29746,"lon":5.3768,"is_reserved":false,"is_disabled":false,"rental_uris":{"android":"levelo://app?vid=ac386460-d734-49dc-a07d-5765a2b45256","ios":"levelo://app?vid=ac386460-d734-49dc-a07d-5765a2b45256"},"vehicle_type_id":"4","last_reported":1736770755,"current_range_meters":38800,"station_id":"ce4bgkh2rcd13ifvqbl0","pricing_plan_id":"cebpf4jnsgd1na2vs0mg"},{"bike_id":"615a8105-b137-4bc1-bde3-fbaaa249b939","system_id":"levelo_inurba_marseille","lat":43.26033,"lon":5.39411,"is_reserved":false,"is_disabled":false,"rental_uris":{"android":"levelo://app?vid=615a8105-b137-4bc1-bde3-fbaaa249b939","ios":"levelo://app?vid=615a8105-b137-4bc1-bde3-fbaaa249b939"},"vehicle_type_id":"4","last_reported":1736770755,"current_range_meters":38800,"station_id":"ce4bhh92rcd13ifvqfj0","pricing_plan_id":"cebpf4jnsgd1na2vs0mg"},{"bike_id":"8a66da27-121c-4112-83e0-f3ac954fae15","system_id":"levelo_inurba_marseille","lat":43.29267,"lon":5.36854,"is_reserved":false,"is_disabled":false,"rental_uris":{"android":"levelo://app?vid=8a66da27-121c-4112-83e0-f3ac954fae15","ios":"levelo://app?vid=8a66da27-121c-4112-83e0-f3ac954fae15"},"vehicle_type_id":"4","last_reported":1736770755,"current_range_meters":38800,"station_id":"ce4bhbp2rcd13ifvqesg","pricing_plan_id":"cebpf4jnsgd1na2vs0mg"},{"bike_id":"377730c6-0336-4c78-9c46-cdee41ff19a9","system_id":"levelo_inurba_marseille","lat":43.27951,"lon":5.41105,"is_reserved":false,"is_disabled":false,"rental_uris":{"android":"levelo://app?vid=377730c6-0336-4c78-9c46-cdee41ff19a9","ios":"levelo://app?vid=377730c6-0336-4c78-9c46-cdee41ff19a9"},"vehicle_type_id":"4","last_reported":1736770755,"current_range_meters":38800,"station_id":"ce4bhnp2rcd13ifvqh0g","pricing_plan_id":"cebpf4jnsgd1na2vs0mg"},{"bike_id":"8bafb198-957c-40af-9c0e-1c71f1fa30c0","system_id":"levelo_inurba_marseille","lat":43.30114,"lon":5.39076,"is_reserved":false,"is_disabled":false,"rental_uris":{"android":"levelo://app?vid=8bafb198-957c-40af-9c0e-1c71f1fa30c0","ios":"levelo://app?vid=8bafb198-957c-40af-9c0e-1c71f1fa30c0"},"vehicle_type_id":"4","last_reported":1736770755,"current_range_meters":27200,"station_id":"ce4bh192rcd13ifvqdb0","pricing_plan_id":"cebpf4jnsgd1na2vs0mg"},{"bike_id":"1a1bbce5-7b4d-4365-9610-075b8edac38a","system_id":"levelo_inurba_marseille","lat":43.27613,"lon":5.36121,"is_reserved":false,"is_disabled":true,"rental_uris":{"android":"levelo://app?vid=1a1bbce5-7b4d-4365-9610-075b8edac38a","ios":"levelo://app?vid=1a1bbce5-7b4d-4365-9610-075b8edac38a"},"vehicle_type_id":"4","last_reported":1736770755,"current_range_meters":39200,"station_id":"ce4bgj92rcd13ifvqbe0","pricing_plan_id":"cebpf4jnsgd1na2vs0mg"},{"bike_id":"a39168b9-7e71-400e-8e34-965a870d57bc","system_id":"levelo_inurba_marseille","lat":43.29706,"lon":5.37699,"is_reserved":false,"is_disabled":false,"rental_uris":{"android":"levelo://app?vid=a39168b9-7e71-400e-8e34-965a870d57bc","ios":"levelo://app?vid=a39168b9-7e71-400e-8e34-965a870d57bc"},"vehicle_type_id":"4","last_reported":1736770755,"current_range_meters":30400,"station_id":"ce4bgkh2rcd13ifvqbl0","pricing_plan_id":"cebpf4jnsgd1na2vs0mg"},{"bike_id":"36b63943-2d1a-4e88-bcde-671d4008e2a1","system_id":"levelo_inurba_marseille","lat":43.26805,"lon":5.39442,"is_reserved":false,"is_disabled":false,"rental_uris":{"android":"levelo://app?vid=36b63943-2d1a-4e88-bcde-671d4008e2a1","ios":"levelo://app?vid=36b63943-2d1a-4e88-bcde-671d4008e2a1"},"vehicle_type_id":"4","last_reported":1736770755,"current_range_meters":39200,"station_id":"ce4bhh12rcd13ifvqfg0","pricing_plan_id":"cebpf4jnsgd1na2vs0mg"},{"bike_id":"4140ee2c-fd50-4219-a0fa-24c89e46eb54","system_id":"levelo_inurba_marseille","lat":43.30638,"lon":5.40094,"is_reserved":false,"is_disabled":false,"rental_uris":{"android":"levelo://app?vid=4140ee2c-fd50-4219-a0fa-24c89e46eb54","ios":"levelo://app?vid=4140ee2c-fd50-4219-a0fa-24c89e46eb54"},"vehicle_type_id":"4","last_reported":1736770755,"current_range_meters":30400,"station_id":"ce4bh112rcd13ifvqda0","pricing_plan_id":"cebpf4jnsgd1na2vs0mg"},{"bike_id":"675afeb0-5825-43be-a72d-fca09ccbe95f","system_id":"levelo_inurba_marseille","lat":43.31736,"lon":5.37739,"is_reserved":false,"is_disabled":false,"rental_uris":{"android":"levelo://app?vid=675afeb0-5825-43be-a72d-fca09ccbe95f","ios":"levelo://app?vid=675afeb0-5825-43be-a72d-fca09ccbe95f"},"vehicle_type_id":"4","last_reported":1736770755,"current_range_meters":36800,"station_id":"ce4bgth2rcd13ifvqch0","pricing_plan_id":"cebpf4jnsgd1na2vs0mg"},{"bike_id":"61911470-828b-4dbb-acb0-a97b63735e54","system_id":"levelo_inurba_marseille","lat":43.32367,"lon":5.36764,"is_reserved":false,"is_disabled":false,"rental_uris":{"android":"levelo://app?vid=61911470-828b-4dbb-acb0-a97b63735e54","ios":"levelo://app?vid=61911470-828b-4dbb-acb0-a97b63735e54"},"vehicle_type_id":"4","last_reported":1736770755,"current_range_meters":8400,"station_id":"ce4bhsh2rcd13ifvqi2g","pricing_plan_id":"cebpf4jnsgd1na2vs0mg"},{"bike_id":"46ab9a52-643e-4321-a999-d0dc6079ea33","system_id":"levelo_inurba_marseille","lat":43.3137,"lon":5.3851,"is_reserved":false,"is_disabled":false,"rental_uris":{"android":"levelo://app?vid=46ab9a52-643e-4321-a999-d0dc6079ea33","ios":"levelo://app?vid=46ab9a52-643e-4321-a999-d0dc6079ea33"},"vehicle_type_id":"4","last_reported":1736770755,"current_range_meters":12400,"station_id":"ce4bgt92rcd13ifvqcf0","pricing_plan_id":"cebpf4jnsgd1na2vs0mg"},{"bike_id":"b31c05a9-6487-4217-80a6-25821a78c060","system_id":"levelo_inurba_marseille","lat":43.232,"lon":5.35558,"is_reserved":false,"is_disabled":false,"rental_uris":{"android":"levelo://app?vid=b31c05a9-6487-4217-80a6-25821a78c060","ios":"levelo://app?vid=b31c05a9-6487-4217-80a6-25821a78c060"},"vehicle_type_id":"4","last_reported":1736770755,"current_range_meters":34800,"station_id":"ce4bhu92rcd13ifvqi70","pricing_plan_id":"cebpf4jnsgd1na2vs0mg"},{"bike_id":"f23647a8-ac32-4e08-be8d-dff2e243f4ac","system_id":"levelo_inurba_marseille","lat":43.2954,"lon":5.38891,"is_reserved":false,"is_disabled":true,"rental_uris":{"android":"levelo://app?vid=f23647a8-ac32-4e08-be8d-dff2e243f4ac","ios":"levelo://app?vid=f23647a8-ac32-4e08-be8d-dff2e243f4ac"},"vehicle_type_id":"4","last_reported":1736770755,"current_range_meters":0,"station_id":"","pricing_plan_id":"cebpf4jnsgd1na2vs0mg"},{"bike_id":"9178c025-cce2-4c28-9145-ea6d782a2dd4","system_id":"levelo_inurba_marseille","lat":43.2904,"lon":5.38135,"is_reserved":false,"is_disabled":false,"rental_uris":{"android":"levelo://app?vid=9178c025-cce2-4c28-9145-ea6d782a2dd4","ios":"levelo://app?vid=9178c025-cce2-4c28-9145-ea6d782a2dd4"},"vehicle_type_id":"4","last_reported":1736770755,"current_range_meters":29600,"station_id":"ce4bh4p2rcd13ifvqe1g","pricing_plan_id":"cebpf4jnsgd1na2vs0mg"},{"bike_id":"4a4d296c-e71a-4d73-8515-0b49a9079d8d","system_id":"levelo_inurba_marseille","lat":43.23191,"lon":5.39983,"is_reserved":false,"is_disabled":false,"rental_uris":{"android":"levelo://app?vid=4a4d296c-e71a-4d73-8515-0b49a9079d8d","ios":"levelo://app?vid=4a4d296c-e71a-4d73-8515-0b49a9079d8d"},"vehicle_type_id":"4","last_reported":1736770755,"current_range_meters":33600,"station_id":"ce4bhn12rcd13ifvqgqg","pricing_plan_id":"cebpf4jnsgd1na2vs0mg"},