{"last_updated":1702278433,"ttl":30,"version":"2.2","data":{"bikes":[{"bike_id":"b451756e-5943-4d7a-9841-6930fc479a5f","system_id":"levelo_inurba_marseille","lat":43.313391,"lon":5.36706,"is_reserved":false,"is_disabled":false,"rental_uris":{"android":"levelo://app?vid=b451756e-5943-4d7a-9841-6930fc479a5f","ios":"levelo://app?vid=b451756e-5943-4d7a-9841-6930fc479a5f"},"vehicle_type_id":"4","last_reported":1702278433,"current_range_meters":28000,"station_id":"ce4bgr92rcd13ifvqc6g","pricing_plan_id":"free"},{"bike_id":"5631c8f0-2d02-473f-b0c0-85e9c529d1d0","system_id":"levelo_inurba_marseille","lat":43.31404,"lon":5.37444,"is_reserved":false,"is_disabled":false,"rental_uris":{"android":"levelo://app?vid=5631c8f0-2d02-473f-b0c0-85e9c529d1d0","ios":"levelo://app?vid=5631c8f0-2d02-473f-b0c0-85e9c529d1d0"},"vehicle_type_id":"4","last_reported":1702278433,"current_range_meters":9600,"station_id":"","pricing_plan_id":"free"},{"bike_id":"be0e8b83-aba4-4252-acb8-e29c225b270b","system_id":"levelo_inurba_marseille","lat":43.305712,"lon":5.365641,"is_reserved":false,"is_disabled":false,"rental_uris":{"android":"levelo://app?vid=be0e8b83-aba4-4252-acb8-e29c225b270b","ios":"levelo://app?vid=be0e8b83-aba4-4252-acb8-e29c225b270b"},"vehicle_type_id":"4","last_reported":1702278433,"current_range_meters":5200,"station_id":"ce4bgs12rcd13ifvqcag","pricing_plan_id":"free"},{"bike_id":"4db13260-b8d3-44cc-8200-438470ed9027","system_id":"levelo_inurba_marseille","lat":43.305712,"lon":5.365641,"is_reserved":false,"is_disabled":false,"rental_uris":{"android":"levelo://app?vid=4db13260-b8d3-44cc-8200-438470ed9027","ios":"levelo://app?vid=4db13260-b8d3-44cc-8200-438470ed9027"},"vehicle_type_id":"4","last_reported":1702278433,"current_range_meters":26000,"station_id":"ce4bgs12rcd13ifvqcag","pricing_plan_id":"free"},{"bike_id":"9745a796-a930-4e60-980a-72238f197532","system_id":"levelo_inurba_marseille","lat":43.305714,"lon":5.365633,"is_reserved":false,"is_disabled":false,"rental_uris":{"android":"levelo://app?vid=9745a796-a930-4e60-980a-72238f197532","ios":"levelo://app?vid=9745a796-a930-4e60-980a-72238f197532"},"vehicle_type_id":"4","last_reported":1702278433,"current_range_meters":20800,"station_id":"ce4bgs12rcd13ifvqcag","pricing_plan_id":"free"},{"bike_id":"54fb56ab-b447-4ec0-a2a1-6ece217dff26","system_id":"levelo_inurba_marseille","lat":43.305706,"lon":5.365654,"is_reserved":false,"is_disabled":false,"rental_uris":{"android":"levelo://app?vid=54fb56ab-b447-4ec0-a2a1-6ece217dff26","ios":"levelo://app?vid=54fb56ab-b447-4ec0-a2a1-6ece217dff26"},"vehicle_type_id":"4","last_reported":1702278433,"current_range_meters":26000,"station_id":"ce4bgs12rcd13ifvqcag","pricing_plan_id":"free"},{"bike_id":"7407a2bc-d4c5-4ea8-bb96-7192bfb55c0e","system_id":"levelo_inurba_marseille","lat":43.305706,"lon":5.365654,"is_reserved":false,"is_disabled":false,"rental_uris":{"android":"levelo://app?vid=7407a2bc-d4c5-4ea8-bb96-7192bfb55c0e","ios":"levelo://app?vid=7407a2bc-d4c5-4ea8-bb96-7192bfb55c0e"},"vehicle_type_id":"4","last_reported":1702278433,"current_range_meters":21600,"station_id":"ce4bgs12rcd13ifvqcag","pricing_plan_id":"free"},{"bike_id":"25784a51-0995-4c53-a90b-e096069ed004","system_id":"levelo_inurba_marseille","lat":43.305706,"lon":5.365654,"is_reserved":false,"is_disabled":false,"rental_uris":{"android":"levelo://app?vid=25784a51-0995-4c53-a90b-e096069ed004","ios":"levelo://app?vid=25784a51-0995-4c53-a90b-e096069ed004"},"vehicle_type_id":"4","last_reported":1702278433,"current_range_meters":31200,"station_id":"ce4bgs12rcd13ifvqcag","pricing_plan_id":"free"},{"bike_id":"fa86253f-b3b4-44f1-8c3d-cc0d2f54cd90","system_id":"levelo_inurba_marseille","lat":43.305706,"lon":5.365654,"is_reserved":false,"is_disabled":false,"rental_uris":{"android":"levelo://app?vid=fa86253f-b3b4-44f1-8c3d-cc0d2f54cd90","ios":"levelo://app?vid=fa86253f-b3b4-44f1-8c3d-cc0d2f54cd90"},"vehicle_type_id":"4","last_reported":1702278433,"current_range_meters":22800,"station_id":"ce4bgs12rcd13ifvqcag","pricing_plan_id":"free"},{"bike_id":"8fc538b8-9440-4825-b24b-0e82329338d2","system_id":"levelo_inurba_marseille","lat":43.304554,"lon":5.365941,"is_reserved":false,"is_disabled":false,"rental_uris":{"android":"levelo://app?vid=8fc538b8-9440-4825-b24b-0e82329338d2","ios":"levelo://app?vid=8fc538b8-9440-4825-b24b-0e82329338d2"},"vehicle_type_id":"4","last_reported":1702278433,"current_range_meters":0,"station_id":"","pricing_plan_id":"free"},{"bike_id":"98c7773a-ac33-4088-a3f6-5333d9eb3e1a","system_id":"levelo_inurba_marseille","lat":43.317075,"lon":5.377367,"is_reserved":false,"is_disabled":false,"rental_uris":{"android":"levelo://app?vid=98c7773a-ac33-4088-a3f6-5333d9eb3e1a","ios":"levelo://app?vid=98c7773a-ac33-4088-a3f6-5333d9eb3e1a"},"vehicle_type_id":"4","last_reported":1702278433,"current_range_meters":31600,"station_id":"ce4bgth2rcd13ifvqch0","pricing_plan_id":"free"},{"bike_id":"77a6c46d-d898-4e4f-8846-efa91689c7f0","system_id":"levelo_inurba_marseille","lat":43.303658,"lon":5.366631,"is_reserved":false,"is_disabled":false,"rental_uris":{"android":"levelo://app?vid=77a6c46d-d898-4e4f-8846-efa91689c7f0","ios":"levelo://app?vid=77a6c46d-d898-4e4f-8846-efa91689c7f0"},"vehicle_type_id":"4","last_reported":1702278433,"current_range_meters":0,"station_id":"","pricing_plan_id":"free"},{"bike_id":"8c2db47e-60cc-4dfc-bf5f-bcef6be3ed6d","system_id":"levelo_inurba_marseille","lat":43.30304,"lon":5.368987,"is_reserved":false,"is_disabled":false,"rental_uris":{"android":"levelo://app?vid=8c2db47e-60cc-4dfc-bf5f-bcef6be3ed6d","ios":"levelo://app?vid=8c2db47e-60cc-4dfc-bf5f-bcef6be3ed6d"},"vehicle_type_id":"4","last_reported":1702278433,"current_range_meters":27600,"station_id":"ce4bgqh2rcd13ifvqc5g","pricing_plan_id":"free"},{"bike_id":"0bc12882-9fea-487c-a0cd-65ecdc25f51c","system_id":"levelo_inurba_marseille","lat":43.303046,"lon":5.368981,"is_reserved":false,"is_disabled":false,"rental_uris":{"android":"levelo://app?vid=0bc12882-9fea-487c-a0cd-65ecdc25f51c","ios":"levelo://app?vid=0bc12882-9fea-487c-a0cd-65ecdc25f51c"},"vehicle_type_id":"4","last_reported":1702278433,"current_range_meters":30800,"station_id":"ce4bgqh2rcd13ifvqc5g","pricing_plan_id":"free"},{"bike_id":"fd0d0460-d9d8-4462-a338-4be12208c0e6","system_id":"levelo_inurba_marseille","lat":43.30304,"lon":5.368987,"is_reserved":false,"is_disabled":false,"rental_uris":{"android":"levelo://app?vid=fd0d0460-d9d8-4462-a338-4be12208c0e6","ios":"levelo://app?vid=fd0d0460-d9d8-4462-a338-4be12208c0e6"},"vehicle_type_id":"4","last_reported":1702278433,"current_range_meters":30800,"station_id":"ce4bgqh2rcd13ifvqc5g","pricing_plan_id":"free"},{"bike_id":"26fa67f6-9e93-4b8b-9afc-894b5dca4335","system_id":"levelo_inurba_marseille","lat":43.303046,"lon":5.368981,"is_reserved":false,"is_disabled":false,"rental_uris":{"android":"levelo://app?vid=26fa67f6-9e93-4b8b-9afc-894b5dca4335","ios":"levelo://app?vid=26fa67f6-9e93-4b8b-9afc-894b5dca4335"},"vehicle_type_id":"4","last_reported":1702278433,"current_range_meters":24000,"station_id":"ce4bgqh2rcd13ifvqc5g","pricing_plan_id":"free"},{"bike_id":"dd8f1229-75a7-42d3-9640-5c12052a4cba","system_id":"levelo_inurba_marseille","lat":43.31535,"lon":5.38033,"is_reserved":false,"is_disabled":false,"rental_uris":{"android":"levelo://app?vid=dd8f1229-75a7-42d3-9640-5c12052a4cba","ios":"levelo://app?vid=dd8f1229-75a7-42d3-9640-5c12052a4cba"},"vehicle_type_id":"4","last_reported":1702278433,"current_range_meters":29600,"station_id":"ce4bhsp2rcd13ifvqi50","pricing_plan_id":"free"},{"bike_id":"56ebb620-65ef-4501-b2eb-5560c22883a8","system_id":"levelo_inurba_marseille","lat":43.301939,"lon":5.366286,"is_reserved":false,"is_disabled":false,"rental_uris":{"android":"levelo://app?vid=56ebb620-65ef-4501-b2eb-5560c22883a8","ios":"levelo://app?vid=56ebb620-65ef-4501-b2eb-5560c22883a8"},"vehicle_type_id":"4","last_reported":1702278433,"current_range_meters":12800,"station_id":"ce4bgrh2rcd13ifvqc8g","pricing_plan_id":"free"},{"bike_id":"0d761c4a-1811-41c5-80ba-0baa16ccfcd4","system_id":"levelo_inurba_marseille","lat":43.304606,"lon":5.379026,"is_reserved":false,"is_disabled":false,"rental_uris":{"android":"levelo://app?vid=0d761c4a-1811-41c5-80ba-0baa16ccfcd4","ios":"levelo://app?vid=0d761c4a-1811-41c5-80ba-0baa16ccfcd4"},"vehicle_type_id":"4","last_reported":1702278433,"current_range_meters":29200,"station_id":"ce4bgup2rcd13ifvqcn0","pricing_plan_id":"free"},{"bike_id":"ed742342-d636-40a9-a67b-c0693cd96bd9","system_id":"levelo_inurba_marseille","lat":43.304606,"lon":5.379026,"is_reserved":false,"is_disabled":false,"rental_uris":{"android":"levelo://app?vid=ed742342-d636-40a9-a67b-c0693cd96bd9","ios":"levelo://app?vid=ed742342-d636-40a9-a67b-c0693cd96bd9"},"vehicle_type_id":"4","last_reported":1702278433,"current_range_meters":28800,"station_id":"ce4bgup2rcd13ifvqcn0","pricing_plan_id":"free"},{"bike_id":"5627b5ac-c257-44ea-a459-3cc4c87eff15","system_id":"levelo_inurba_marseille","lat":43.304606,"lon":5.379026,"is_reserved":false,"is_disabled":false,"rental_uris":{"android":"levelo://app?vid=5627b5ac-c257-44ea-a459-3cc4c87eff15","ios":"levelo://app?vid=5627b5ac-c257-44ea-a459-3cc4c87eff15"},"vehicle_type_id":"4","last_reported":1702278433,"current_range_meters":31200,"station_id":"ce4bgup2rcd13ifvqcn0","pricing_plan_id":"free"},{"bike_id":"015c89e8-763d-4571-857f-a2841c5cbb42","system_id":"levelo_inurba_marseille","lat":43.304606,"lon":5.379026,"is_reserved":false,"is_disabled":false,"rental_uris":{"android":"levelo://app?vid=015c89e8-763d-4571-857f-a2841c5cbb42","ios":"levelo://app?vid=015c89e8-763d-4571-857f-a2841c5cbb42"},"vehicle_type_id":"4","last_reported":1702278433,"current_range_meters":6400,"station_id":"ce4bgup2rcd13ifvqcn0","pricing_plan_id":"free"},{"bike_id":"6ff55b9d-4010-459e-a335-1bd6f97c86df","system_id":"levelo_inurba_marseille","lat":43.304606,"lon":5.379026,"is_reserved":false,"is_disabled":false,"rental_uris":{"android":"levelo://app?vid=6ff55b9d-4010-459e-a335-1bd6f97c86df","ios":"levelo://app?vid=6ff55b9d-4010-459e-a335-1bd6f97c86df"},"vehicle_type_id":"4","last_reported":1702278433,"current_range_meters":12400,"station_id":"ce4bgup2rcd13ifvqcn0","pricing_plan_id":"free"},{"bike_id":"840a1b4d-6166-4c7d-8940-8de062f1cfc3","system_id":"levelo_inurba_marseille","lat":43.304606,"lon":5.379026,"is_reserved":false,"is_disabled":false,"rental_uris":{"android":"levelo://app?vid=840a1b4d-6166-4c7d-8940-8de062f1cfc3","ios":"levelo://app?vid=840a1b4d-6166-4c7d-8940-8de062f1cfc3"},"vehicle_type_id":"4","last_reported":1702278433,"current_range_meters":26400,"station_id":"ce4bgup2rcd13ifvqcn0","pricing_plan_id":"free"},{"bike_id":"7b40c181-4667-4501-874b-a1d36de3aede","system_id":"levelo_inurba_marseille","lat":43.324771,"lon":5.36557,"is_reserved":false,"is_disabled":false,"rental_uris":{"android":"levelo://app?vid=7b40c181-4667-4501-874b-a1d36de3aede","ios":"levelo://app?vid=7b40c181-4667-4501-874b-a1d36de3aede"},"vehicle_type_id":"4","last_reported":1702278433,"current_range_meters":30400,"station_id":"ce4bhs12rcd13ifvqhvg","pricing_plan_id":"free"},{"bike_id":"c0a64342-12aa-4bfb-966b-6688b6029cbf","system_id":"levelo_inurba_marseille","lat":43.324818,"lon":5.365662,"is_reserved":false,"is_disabled":false,"rental_uris":{"android":"levelo://app?vid=c0a64342-12aa-4bfb-966b-6688b6029cbf","ios":"levelo://app?vid=c0a64342-12aa-4bfb-966b-6688b6029cbf"},"vehicle_type_id":"4","last_reported":1702278433,"current_range_meters":30400,"station_id":"ce4bhs12rcd13ifvqhvg","pricing_plan_id":"free"},{"bike_id":"7b8115a2-e626-4674-9893-db6b949e4d54","system_id":"levelo_inurba_marseille","lat":43.301429,"lon":5.37413,"is_reserved":false,"is_disabled":false,"rental_uris":{"android":"levelo://app?vid=7b8115a2-e626-4674-9893-db6b949e4d54","ios":"levelo://app?vid=7b8115a2-e626-4674-9893-db6b949e4d54"},"vehicle_type_id":"4","last_reported":1702278433,"current_range_meters":18000,"station_id":"ce4bgs92rcd13ifvqcc0","pricing_plan_id":"free"},{"bike_id":"d507dc20-f3f0-485a-b520-e5ecd0effbe5","system_id":"levelo_inurba_marseille","lat":43.319935,"lon":5.381699,"is_reserved":false,"is_disabled":false,"rental_uris":{"android":"levelo://app?vid=d507dc20-f3f0-485a-b520-e5ecd0effbe5","ios":"levelo://app?vid=d507dc20-f3f0-485a-b520-e5ecd0effbe5"},"vehicle_type_id":"4","last_reported":1702278433,"current_range_meters":20000,"station_id":"ce4bhr12rcd13ifvqhpg","pricing_plan_id":"free"},{"bike_id":"d8be298e-f4c0-4479-a66b-e307c680d7cc","system_id":"levelo_inurba_marseille","lat":43.31356,"lon":5.38493,"is_reserved":false,"is_disabled":false,"rental_uris":{"android":"levelo://app?vid=d8be298e-f4c0-4479-a66b-e307c680d7cc","ios":"levelo://app?vid=d8be298e-f4c0-4479-a66b-e307c680d7cc"},"vehicle_type_id":"4","last_reported":1702278433,"current_range_meters":17200,"station_id":"ce4bgt92rcd13ifvqcf0","pricing_plan_id":"free"},{"bike_id":"d0cbd114-3297-46dc-9f7f-0acb036469d5","system_id":"levelo_inurba_marseille","lat":43.305455,"lon":5.38399,"is_reserved":false,"is_disabled":false,"rental_uris":{"android":"levelo://app?vid=d0cbd114-3297-46dc-9f7f-0acb036469d5","ios":"levelo://app?vid=d0cbd114-3297-46dc-9f7f-0acb036469d5"},"vehicle_type_id":"4","last_reported":1702278433,"current_range_meters":18400,"station_id":"ce4bgg92rcd13ifvqb30","pricing_plan_id":"free"},{"bike_id":"f0b304a7-2224-449a-afbc-168e02535e32","system_id":"levelo_inurba_marseille","lat":43.305364,"lon":5.384119,"is_reserved":false,"is_disabled":false,"rental_uris":{"android":"levelo://app?vid=f0b304a7-2224-449a-afbc-168e02535e32","ios":"levelo://app?vid=f0b304a7-2224-449a-afbc-168e02535e32"},"vehicle_type_id":"4","last_reported":1702278433,"current_range_meters":14400,"station_id":"ce4bgg92rcd13ifvqb30","pricing_plan_id":"free"},{"bike_id":"7b19c3bc-0d3b-4847-9fcf-eb2a3adbe391","system_id":"levelo_inurba_marseille","lat":43.305364,"lon":5.384119,"is_reserved":false,"is_disabled":false,"rental_uris":{"android":"levelo://app?vid=7b19c3bc-0d3b-4847-9fcf-eb2a3adbe391","ios":"levelo://app?vid=7b19c3bc-0d3b-4847-9fcf-eb2a3adbe391"},"vehicle_type_id":"4","last_reported":1702278433,"current_range_meters":28000,"station_id":"ce4bgg92rcd13ifvqb30","pricing_plan_id":"free"},{"bike_id":"db65b78f-e627-45f2-b1c2-69689eab17e2","system_id":"levelo_inurba_marseille","lat":43.298433,"lon":5.362774,"is_reserved":false,"is_disabled":false,"rental_uris":{"android":"levelo://app?vid=db65b78f-e627-45f2-b1c2-69689eab17e2","ios":"levelo://app?vid=db65b78f-e627-45f2-b1c2-69689eab17e2"},"vehicle_type_id":"4","last_reported":1702278433,"current_range_meters":19200,"station_id":"ce4bgpp2rcd13ifvqc3g","pricing_plan_id":"free"},{"bike_id":"06818594-0eae-49fd-b3b6-0d805ce04083","system_id":"levelo_inurba_marseille","lat":43.299243,"lon":5.374807,"is_reserved":false,"is_disabled":false,"rental_uris":{"android":"levelo://app?vid=06818594-0eae-49fd-b3b6-0d805ce04083","ios":"levelo://app?vid=06818594-0eae-49fd-b3b6-0d805ce04083"},"vehicle_type_id":"4","last_reported":1702278433,"current_range_meters":30000,"station_id":"ce4bgjh2rcd13ifvqbg0","pricing_plan_id":"free"},{"bike_id":"6ac675f1-e0be-498c-ad2f-b742a949d4b0","system_id":"levelo_inurba_marseille","lat":43.298218,"lon":5.374416,"is_reserved":false,"is_disabled":false,"rental_uris":{"android":"levelo://app?vid=6ac675f1-e0be-498c-ad2f-b742a949d4b0","ios":"levelo://app?vid=6ac675f1-e0be-498c-ad2f-b742a949d4b0"},"vehicle_type_id":"4","last_reported":1702278433,"current_range_meters":0,"station_id":"","pricing_plan_id":"free"},{"bike_id":"a5589e38-f15a-46fe-9b37-27cf16ba9de2","system_id":"levelo_inurba_marseille","lat":43.32831,"lon":5.3669,"is_reserved":false,"is_disabled":false,"rental_uris":{"android":"levelo://app?vid=a5589e38-f15a-46fe-9b37-27cf16ba9de2","ios":"levelo://app?vid=a5589e38-f15a-46fe-9b37-27cf16ba9de2"},"vehicle_type_id":"4","last_reported":1702278433,"current_range_meters":20800,"station_id":"ce4bhs92rcd13ifvqi0g","pricing_plan_id":"free"},{"bike_id":"52d8b7ba-7505-413c-b898-efb75f14c13c","system_id":"levelo_inurba_marseille","lat":43.32832,"lon":5.36677,"is_reserved":false,"is_disabled":false,"rental_uris":{"android":"levelo://app?vid=52d8b7ba-7505-413c-b898-efb75f14c13c","ios":"levelo://app?vid=52d8b7ba-7505-413c-b898-efb75f14c13c"},"vehicle_type_id":"4","last_reported":1702278433,"current_range_meters":18800,"station_id":"ce4bhs92rcd13ifvqi0g","pricing_plan_id":"free"},{"bike_id":"572a58d9-9246-4ada-90e0-c14b3a5bd0a4","system_id":"levelo_inurba_marseille","lat":43.296921,"lon":5.376579,"is_reserved":false,"is_disabled":false,"rental_uris":{"android":"levelo://app?vid=572a58d9-9246-4ada-90e0-c14b3a5bd0a4","ios":"levelo://app?vid=572a58d9-9246-4ada-90e0-c14b3a5bd0a4"},"vehicle_type_id":"4","last_reported":1702278433,"current_range_meters":27200,"station_id":"ce4bgkh2rcd13ifvqbl0","pricing_plan_id":"free"},{"bike_id":"8924031e-6559-4ef6-b10a-706eeda5d8a3","system_id":"levelo_inurba_marseille","lat":43.304278,"lon":5.388868,"is_reserved":false,"is_disabled":false,"rental_uris":{"android":"levelo://app?vid=8924031e-6559-4ef6-b10a-706eeda5d8a3","ios":"levelo://app?vid=8924031e-6559-4ef6-b10a-706eeda5d8a3"},"vehicle_type_id":"4","last_reported":1702278433,"current_range_meters":26000,"station_id":"ce4bgk12rcd13ifvqbi0","pricing_plan_id":"free"},{"bike_id":"c3e9951c-1f4d-4fc9-bc50-2b5fb359ef05","system_id":"levelo_inurba_marseille","lat":43.3044,"lon":5.38875,"is_reserved":false,"is_disabled":false,"rental_uris":{"android":"levelo://app?vid=c3e9951c-1f4d-4fc9-bc50-2b5fb359ef05","ios":"levelo://app?vid=c3e9951c-1f4d-4fc9-bc50-2b5fb359ef05"},"vehicle_type_id":"4","last_reported":1702278433,"current_range_meters":15200,"station_id":"ce4bgk12rcd13ifvqbi0","pricing_plan_id":"free"},{"bike_id":"ff9cd3b2-623a-447b-bd7d-e4486607da11","system_id":"levelo_inurba_marseille","lat":43.30432,"lon":5.38884,"is_reserved":false,"is_disabled":false,"rental_uris":{"android":"levelo://app?vid=ff9cd3b2-623a-447b-bd7d-e4486607da11","ios":"levelo://app?vid=ff9cd3b2-623a-447b-bd7d-e4486607da11"},"vehicle_type_id":"4","last_reported":1702278433,"current_range_meters":24400,"station_id":"ce4bgk12rcd13ifvqbi0","pricing_plan_id":"free"},{"bike_id":"51f1959e-c663-43dd-85ff-b1b3d8218678","system_id":"levelo_inurba_marseille","lat":43.30429,"lon":5.38882,"is_reserved":false,"is_disabled":false,"rental_uris":{"android":"levelo://app?vid=51f1959e-c663-43dd-85ff-b1b3d8218678","ios":"levelo://app?vid=51f1959e-c663-43dd-85ff-b1b3d8218678"},"vehicle_type_id":"4","last_reported":1702278433,"current_range_meters":23200,"station_id":"ce4bgk12rcd13ifvqbi0","pricing_plan_id":"free"},{"bike_id":"77060454-1d6b-4b31-825f-80580109f500","system_id":"levelo_inurba_marseille","lat":43.30441,"lon":5.38897,"is_reserved":false,"is_disabled":false,"rental_uris":{"android":"levelo://app?vid=77060454-1d6b-4b31-825f-80580109f500","ios":"levelo://app?vid=77060454-1d6b-4b31-825f-80580109f500"},"vehicle_type_id":"4","last_reported":1702278433,"current_range_meters":25600,"station_id":"ce4bgk12rcd13ifvqbi0","pricing_plan_id":"free"},{"bike_id":"2f5e8b7e-3c6c-4def-bd1c-53a5b4801653","system_id":"levelo_inurba_marseille","lat":43.32368,"lon":5.38878,"is_reserved":false,"is_disabled":false,"rental_uris":{"android":"levelo://app?vid=2f5e8b7e-3c6c-4def-bd1c-53a5b4801653","ios":"levelo://app?vid=2f5e8b7e-3c6c-4def-bd1c-53a5b4801653"},"vehicle_type_id":"4","last_reported":1702278433,"current_range_meters":17200,"station_id":"ce4bhqp2rcd13ifvqhog","pricing_plan_id":"free"},{"bike_id":"af2c33cf-510e-44d4-a366-e5ee1d387738","system_id":"levelo_inurba_marseille","lat":43.292799,"lon":5.368434,"is_reserved":false,"is_disabled":false,"rental_uris":{"android":"levelo://app?vid=af2c33cf-510e-44d4-a366-e5ee1d387738","ios":"levelo://app?vid=af2c33cf-510e-44d4-a366-e5ee1d387738"},"vehicle_type_id":"4","last_reported":1702278433,"current_range_meters":21600,"station_id":"ce4bhbp2rcd13ifvqesg","pricing_plan_id":"free"},{"bike_id":"1c7a4183-574a-4755-a7bc-598167990db2","system_id":"levelo_inurba_marseille","lat":43.305994,"lon":5.393687,"is_reserved":false,"is_disabled":false,"rental_uris":{"android":"levelo://app?vid=1c7a4183-574a-4755-a7bc-598167990db2","ios":"levelo://app?vid=1c7a4183-574a-4755-a7bc-598167990db2"},"vehicle_type_id":"4","last_reported":1702278433,"current_range_meters":26800,"station_id":"ce4bh0p2rcd13ifvqd80","pricing_plan_id":"free"},{"bike_id":"ef169ecf-9e87-41e1-b57b-b3718dcdf247","system_id":"levelo_inurba_marseille","lat":43.292311,"lon":5.360731,"is_reserved":false,"is_disabled":false,"rental_uris":{"android":"levelo://app?vid=ef169ecf-9e87-41e1-b57b-b3718dcdf247","ios":"levelo://app?vid=ef169ecf-9e87-41e1-b57b-b3718dcdf247"},"vehicle_type_id":"4","last_reported":1702278433,"current_range_meters":18800,"station_id":"ce4bhbh2rcd13ifvqeqg","pricing_plan_id":"free"},{"bike_id":"e79e7881-3123-4bf4-b8ba-44a9b0387a83","system_id":"levelo_inurba_marseille","lat":43.291675,"lon":5.371583,"is_reserved":false,"is_disabled":false,"rental_uris":{"android":"levelo://app?vid=e79e7881-3123-4bf4-b8ba-44a9b0387a83","ios":"levelo://app?vid=e79e7881-3123-4bf4-b8ba-44a9b0387a83"},"vehicle_type_id":"4","last_reported":1702278433,"current_range_meters":21600,"station_id":"ce4bha92rcd13ifvqeh0","pricing_plan_id":"free"},{"bike_id":"fa271f85-de52-4c19-a0f8-d372a7fe8544","system_id":"levelo_inurba_marseille","lat":43.291671,"lon":5.371575,"is_reserved":false,"is_disabled":false,"rental_uris":{"android":"levelo://app?vid=fa271f85-de52-4c19-a0f8-d372a7fe8544","ios":"levelo://app?vid=fa271f85-de52-4c19-a0f8-d372a7fe8544"},"vehicle_type_id":"4","last_reported":1702278433,"current_range_meters":19600,"station_id":"ce4bha92rcd13ifvqeh0","pricing_plan_id":"free"},{"bike_id":"7a81976a-2d62-45a3-9af1-5f9aae9cff43","system_id":"levelo_inurba_marseille","lat":43.28946,"lon":5.36372,"is_reserved":false,"is_disabled":false,"rental_uris":{"android":"levelo://app?vid=7a81976a-2d62-45a3-9af1-5f9aae9cff43","ios":"levelo://app?vid=7a81976a-2d62-45a3-9af1-5f9aae9cff43"},"vehicle_type_id":"4","last_reported":1702278433,"current_range_meters":25600,"station_id":"ce4bhc92rcd13ifvqetg","pricing_plan_id":"free"},{"bike_id":"1301be43-cefa-4f13-ad20-5fa8f15bf9a8","system_id":"levelo_inurba_marseille","lat":43.290161,"lon":5.375651,"is_reserved":false,"is_disabled":false,"rental_uris":{"android":"levelo://app?vid=1301be43-cefa-4f13-ad20-5fa8f15bf9a8","ios":"levelo://app?vid=1301be43-cefa-4f13-ad20-5fa8f15bf9a8"},"vehicle_type_id":"4","last_reported":1702278433,"current_range_meters":6800,"station_id":"","pricing_plan_id":"free"},{"bike_id":"a02a1b20-1fb1-4951-988a-77389649024d","system_id":"levelo_inurba_marseille","lat":43.289259,"lon":5.366364,"is_reserved":false,"is_disabled":false,"rental_uris":{"android":"levelo://app?vid=a02a1b20-1fb1-4951-988a-77389649024d","ios":"levelo://app?vid=a02a1b20-1fb1-4951-988a-77389649024d"},"vehicle_type_id":"4","last_reported":1702278433,"current_range_meters":5200,"station_id":"","pricing_plan_id":"free"},{"bike_id":"4cdfc0e1-bf52-4b04-9e1d-b952de9ab36f","system_id":"levelo_inurba_marseille","lat":43.290553,"lon":5.355855,"is_reserved":false,"is_disabled":false,"rental_uris":{"android":"levelo://app?vid=4cdfc0e1-bf52-4b04-9e1d-b952de9ab36f","ios":"levelo://app?vid=4cdfc0e1-bf52-4b04-9e1d-b952de9ab36f"},"vehicle_type_id":"4","last_reported":1702278433,"current_range_meters":22800,"station_id":"","pricing_plan_id":"free"},{"bike_id":"6de51cda-3721-4528-839e-0201f3110816","system_id":"levelo_inurba_marseille","lat":43.290103,"lon":5.356114,"is_reserved":false,"is_disabled":false,"rental_uris":{"android":"levelo://app?vid=6de51cda-3721-4528-839e-0201f3110816","ios":"levelo://app?vid=6de51cda-3721-4528-839e-0201f3110816"},"vehicle_type_id":"4","last_reported":1702278433,"current_range_meters":12000,"station_id":"ce4bhb92rcd13ifvqen0","pricing_plan_id":"free"},{"bike_id":"c8bde902-c460-4d2f-ac85-13690cf5922e","system_id":"levelo_inurba_marseille","lat":43.2979,"lon":5.3934,"is_reserved":false,"is_disabled":false,"rental_uris":{"android":"levelo://app?vid=c8bde902-c460-4d2f-ac85-13690cf5922e","ios":"levelo://app?vid=c8bde902-c460-4d2f-ac85-13690cf5922e"},"vehicle_type_id":"4","last_reported":1702278433,"current_range_meters":1600,"station_id":"chh1huq6cuj3fo74tm60","pricing_plan_id":"free"},{"bike_id":"1f0c404c-052d-4c65-9b3d-d287f5d0d28b","system_id":"levelo_inurba_marseille","lat":43.28856,"lon":5.358371,"is_reserved":false,"is_disabled":false,"rental_uris":{"android":"levelo://app?vid=1f0c404c-052d-4c65-9b3d-d287f5d0d28b","ios":"levelo://app?vid=1f0c404c-052d-4c65-9b3d-d287f5d0d28b"},"vehicle_type_id":"4","last_reported":1702278433,"current_range_meters":22400,"station_id":"ce4bhb12rcd13ifvqem0","pricing_plan_id":"free"},{"bike_id":"bbddbcab-2824-4e32-9705-fd4a27fb9c08","system_id":"levelo_inurba_marseille","lat":43.28856,"lon":5.35846,"is_reserved":false,"is_disabled":false,"rental_uris":{"android":"levelo://app?vid=bbddbcab-2824-4e32-9705-fd4a27fb9c08","ios":"levelo://app?vid=bbddbcab-2824-4e32-9705-fd4a27fb9c08"},"vehicle_type_id":"4","last_reported":1702278433,"current_range_meters":4400,"station_id":"ce4bhb12rcd13ifvqem0","pricing_plan_id":"free"},{"bike_id":"f9440794-a5bb-4753-97a2-7697432ac0e3","system_id":"levelo_inurba_marseille","lat":43.28854,"lon":5.358254,"is_reserved":false,"is_disabled":false,"rental_uris":{"android":"levelo://app?vid=f9440794-a5bb-4753-97a2-7697432ac0e3","ios":"levelo://app?vid=f9440794-a5bb-4753-97a2-7697432ac0e3"},"vehicle_type_id":"4","last_reported":1702278433,"current_range_meters":28800,"station_id":"ce4bhb12rcd13ifvqem0","pricing_plan_id":"free"},{"bike_id":"d5bc5105-03c7-484b-ba80-2e48c73f004c","system_id":"levelo_inurba_marseille","lat":43.301117,"lon":5.398795,"is_reserved":false,"is_disabled":false,"rental_uris":{"android":"levelo://app?vid=d5bc5105-03c7-484b-ba80-2e48c73f004c","ios":"levelo://app?vid=d5bc5105-03c7-484b-ba80-2e48c73f004c"},"vehicle_type_id":"4","last_reported":1702278433,"current_range_meters":18000,"station_id":"ce4bh0h2rcd13ifvqd40","pricing_plan_id":"free"},{"bike_id":"e960dd87-ac3a-4014-8abf-7ceed50cca06","system_id":"levelo_inurba_marseille","lat":43.302759,"lon":5.400793,"is_reserved":false,"is_disabled":false,"rental_uris":{"android":"levelo://app?vid=e960dd87-ac3a-4014-8abf-7ceed50cca06","ios":"levelo://app?vid=e960dd87-ac3a-4014-8abf-7ceed50cca06"},"vehicle_type_id":"4","last_reported":1702278433,"current_range_meters":18400,"station_id":"ce4bgvh2rcd13ifvqcs0","pricing_plan_id":"free"},{"bike_id":"dc088430-3169-4b4a-bd23-3d0cc4e3bf20","system_id":"levelo_inurba_marseille","lat":43.290345,"lon":5.38646,"is_reserved":false,"is_disabled":false,"rental_uris":{"android":"levelo://app?vid=dc088430-3169-4b4a-bd23-3d0cc4e3bf20","ios":"levelo://app?vid=dc088430-3169-4b4a-bd23-3d0cc4e3bf20"},"vehicle_type_id":"4","last_reported":1702278433,"current_range_meters":21600,"station_id":"ce4bh4p2rcd13ifvqe0g","pricing_plan_id":"free"},{"bike_id":"da71be36-9ee1-4cb0-b673-fcb386d475e6","system_id":"levelo_inurba_marseille","lat":43.287184,"lon":5.37937,"is_reserved":false,"is_disabled":false,"rental_uris":{"android":"levelo://app?vid=da71be36-9ee1-4cb0-b673-fcb386d475e6","ios":"levelo://app?vid=da71be36-9ee1-4cb0-b673-fcb386d475e6"},"vehicle_type_id":"4","last_reported":1702278433,"current_range_meters":16800,"station_id":"ce4bh9p2rcd13ifvqec0","pricing_plan_id":"free"},{"bike_id":"4d925dd2-3cc8-4563-bcf9-8c7a25d86c5c","system_id":"levelo_inurba_marseille","lat":43.287185,"lon":5.379373,"is_reserved":false,"is_disabled":false,"rental_uris":{"android":"levelo://app?vid=4d925dd2-3cc8-4563-bcf9-8c7a25d86c5c","ios":"levelo://app?vid=4d925dd2-3cc8-4563-bcf9-8c7a25d86c5c"},"vehicle_type_id":"4","last_reported":1702278433,"current_range_meters":28800,"station_id":"ce4bh9p2rcd13ifvqec0","pricing_plan_id":"free"},{"bike_id":"5ab6fc2d-77cd-490a-a003-3adc23b62d3c","system_id":"levelo_inurba_marseille","lat":43.284793,"lon":5.384113,"is_reserved":false,"is_disabled":false,"rental_uris":{"android":"levelo://app?vid=5ab6fc2d-77cd-490a-a003-3adc23b62d3c","ios":"levelo://app?vid=5ab6fc2d-77cd-490a-a003-3adc23b62d3c"},"vehicle_type_id":"4","last_reported":1702278433,"current_range_meters":0,"station_id":"ce4bh512rcd13ifvqe3g","pricing_plan_id":"free"},{"bike_id":"15aa5098-f222-4889-893c-538d61107ba7","system_id":"levelo_inurba_marseille","lat":43.284793,"lon":5.384113,"is_reserved":false,"is_disabled":false,"rental_uris":{"android":"levelo://app?vid=15aa5098-f222-4889-893c-538d61107ba7","ios":"levelo://app?vid=15aa5098-f222-4889-893c-538d61107ba7"},"vehicle_type_id":"4","last_reported":1702278433,"current_range_meters":17200,"station_id":"ce4bh512rcd13ifvqe3g","pricing_plan_id":"free"},{"bike_id":"e8b9d767-1294-468f-9b9a-f156850ad894","system_id":"levelo_inurba_marseille","lat":43.297946,"lon":5.404063,"is_reserved":false,"is_disabled":false,"rental_uris":{"android":"levelo://app?vid=e8b9d767-1294-468f-9b9a-f156850ad894","ios":"levelo://app?vid=e8b9d767-1294-468f-9b9a-f156850ad894"},"vehicle_type_id":"4","last_reported":1702278433,"current_range_meters":31600,"station_id":"ce4bh112rcd13ifvqd90","pricing_plan_id":"free"},{"bike_id":"fed5d3f3-2656-4b33-a048-8ddc8edf09be","system_id":"levelo_inurba_marseille","lat":43.283498,"lon":5.380948,"is_reserved":false,"is_disabled":false,"rental_uris":{"android":"levelo://app?vid=fed5d3f3-2656-4b33-a048-8ddc8edf09be","ios":"levelo://app?vid=fed5d3f3-2656-4b33-a048-8ddc8edf09be"},"vehicle_type_id":"4","last_reported":1702278433,"current_range_meters":15600,"station_id":"ce4bh412rcd13ifvqdr0","pricing_plan_id":"free"},{"bike_id":"7dfb29d2-b8e2-44af-baa3-592c212faf42","system_id":"levelo_inurba_marseille","lat":43.289363,"lon":5.396322,"is_reserved":false,"is_disabled":false,"rental_uris":{"android":"levelo://app?vid=7dfb29d2-b8e2-44af-baa3-592c212faf42","ios":"levelo://app?vid=7dfb29d2-b8e2-44af-baa3-592c212faf42"},"vehicle_type_id":"4","last_reported":1702278433,"current_range_meters":18800,"station_id":"ce4bh3h2rcd13ifvqdn0","pricing_plan_id":"free"},{"bike_id":"70c1f3bb-4319-400e-9b6a-cfe87ff49375","system_id":"levelo_inurba_marseille","lat":43.289363,"lon":5.396322,"is_reserved":false,"is_disabled":false,"rental_uris":{"android":"levelo://app?vid=70c1f3bb-4319-400e-9b6a-cfe87ff49375","ios":"levelo://app?vid=70c1f3bb-4319-400e-9b6a-cfe87ff49375"},"vehicle_type_id":"4","last_reported":1702278433,"current_range_meters":23200,"station_id":"ce4bh3h2rcd13ifvqdn0","pricing_plan_id":"free"},{"bike_id":"95e693b0-e3cf-4f45-9ca9-78408a038bcf","system_id":"levelo_inurba_marseille","lat":43.289363,"lon":5.396322,"is_reserved":false,"is_disabled":false,"rental_uris":{"android":"levelo://app?vid=95e693b0-e3cf-4f45-9ca9-78408a038bcf","ios":"levelo://app?vid=95e693b0-e3cf-4f45-9ca9-78408a038bcf"},"vehicle_type_id":"4","last_reported":1702278433,"current_range_meters":28400,"station_id":"ce4bh3h2rcd13ifvqdn0","pricing_plan_id":"free"},{"bike_id":"157d636b-705b-4d2d-b219-ac5ea33a9b90","system_id":"levelo_inurba_marseille","lat":43.283502,"lon":5.386471,"is_reserved":false,"is_disabled":false,"rental_uris":{"android":"levelo://app?vid=157d636b-705b-4d2d-b219-ac5ea33a9b90","ios":"levelo://app?vid=157d636b-705b-4d2d-b219-ac5ea33a9b90"},"vehicle_type_id":"4","last_reported":1702278433,"current_range_meters":12000,"station_id":"ce4bh492rcd13ifvqdvg","pricing_plan_id":"free"},{"bike_id":"48a4d9fe-fdc0-4cd0-9ac0-baf0bd45d62b","system_id":"levelo_inurba_marseille","lat":43.280343,"lon":5.369394,"is_reserved":false,"is_disabled":false,"rental_uris":{"android":"levelo://app?vid=48a4d9fe-fdc0-4cd0-9ac0-baf0bd45d62b","ios":"levelo://app?vid=48a4d9fe-fdc0-4cd0-9ac0-baf0bd45d62b"},"vehicle_type_id":"4","last_reported":1702278433,"current_range_meters":30400,"station_id":"ce4bha12rcd13ifvqef0","pricing_plan_id":"free"},{"bike_id":"c3253232-7d8c-4860-b711-b572f139262f","system_id":"levelo_inurba_marseille","lat":43.290402,"lon":5.39946,"is_reserved":false,"is_disabled":false,"rental_uris":{"android":"levelo://app?vid=c3253232-7d8c-4860-b711-b572f139262f","ios":"levelo://app?vid=c3253232-7d8c-4860-b711-b572f139262f"},"vehicle_type_id":"4","last_reported":1702278433,"current_range_meters":26000,"station_id":"ce4bh392rcd13ifvqdm0","pricing_plan_id":"free"},{"bike_id":"d4186755-e323-47b7-8be8-26a9433d18c4","system_id":"levelo_inurba_marseille","lat":43.290447,"lon":5.399531,"is_reserved":false,"is_disabled":false,"rental_uris":{"android":"levelo://app?vid=d4186755-e323-47b7-8be8-26a9433d18c4","ios":"levelo://app?vid=d4186755-e323-47b7-8be8-26a9433d18c4"},"vehicle_type_id":"4","last_reported":1702278433,"current_range_meters":26000,"station_id":"ce4bh392rcd13ifvqdm0","pricing_plan_id":"free"},{"bike_id":"30c2b95c-929d-4001-845c-8b9fa68d46fd","system_id":"levelo_inurba_marseille","lat":43.29039,"lon":5.399577,"is_reserved":false,"is_disabled":false,"rental_uris":{"android":"levelo://app?vid=30c2b95c-929d-4001-845c-8b9fa68d46fd","ios":"levelo://app?vid=30c2b95c-929d-4001-845c-8b9fa68d46fd"},"vehicle_type_id":"4","last_reported":1702278433,"current_range_meters":26800,"station_id":"ce4bh392rcd13ifvqdm0","pricing_plan_id":"free"},{"bike_id":"9be5edab-2de0-435f-99c9-d9edb344d874","system_id":"levelo_inurba_marseille","lat":43.29032,"lon":5.39965,"is_reserved":false,"is_disabled":false,"rental_uris":{"android":"levelo://app?vid=9be5edab-2de0-435f-99c9-d9edb344d874","ios":"levelo://app?vid=9be5edab-2de0-435f-99c9-d9edb344d874"},"vehicle_type_id":"4","last_reported":1702278433,"current_range_meters":24400,"station_id":"ce4bh392rcd13ifvqdm0","pricing_plan_id":"free"},{"bike_id":"ff068381-6b09-45db-849f-c67380d85004","system_id":"levelo_inurba_marseille","lat":43.284462,"lon":5.392121,"is_reserved":false,"is_disabled":false,"rental_uris":{"android":"levelo://app?vid=ff068381-6b09-45db-849f-c67380d85004","ios":"levelo://app?vid=ff068381-6b09-45db-849f-c67380d85004"},"vehicle_type_id":"4","last_reported":1702278433,"current_range_meters":3200,"station_id":"ce4bhoh2rcd13ifvqh5g","pricing_plan_id":"free"},{"bike_id":"6da20e4a-29d3-46f6-9d42-34f66f2f25f0","system_id":"levelo_inurba_marseille","lat":43.299577,"lon":5.413277,"is_reserved":false,"is_disabled":false,"rental_uris":{"android":"levelo://app?vid=6da20e4a-29d3-46f6-9d42-34f66f2f25f0","ios":"levelo://app?vid=6da20e4a-29d3-46f6-9d42-34f66f2f25f0"},"vehicle_type_id":"4","last_reported":1702278433,"current_range_meters":29200,"station_id":"ce4bhp12rcd13ifvqh9g","pricing_plan_id":"free"},{"bike_id":"69027fcb-e93f-479a-b153-1e334b9663b6","system_id":"levelo_inurba_marseille","lat":43.279742,"lon":5.38744,"is_reserved":false,"is_disabled":false,"rental_uris":{"android":"levelo://app?vid=69027fcb-e93f-479a-b153-1e334b9663b6","ios":"levelo://app?vid=69027fcb-e93f-479a-b153-1e334b9663b6"},"vehicle_type_id":"4","last_reported":1702278433,"current_range_meters":16000,"station_id":"ce4bhg12rcd13ifvqf80","pricing_plan_id":"free"},{"bike_id":"448a5f84-2301-48a3-a009-69fbfb458d5d","system_id":"levelo_inurba_marseille","lat":43.2799,"lon":5.38776,"is_reserved":false,"is_disabled":false,"rental_uris":{"android":"levelo://app?vid=448a5f84-2301-48a3-a009-69fbfb458d5d","ios":"levelo://app?vid=448a5f84-2301-48a3-a009-69fbfb458d5d"},"vehicle_type_id":"4","last_reported":1702278433,"current_range_meters":30000,"station_id":"ce4bhg12rcd13ifvqf80","pricing_plan_id":"free"},{"bike_id":"090ad51e-0df4-4bcd-9a1d-84e5a006fd0b","system_id":"levelo_inurba_marseille","lat":43.325233,"lon":5.414318,"is_reserved":false,"is_disabled":false,"rental_uris":{"android":"levelo://app?vid=090ad51e-0df4-4bcd-9a1d-84e5a006fd0b","ios":"levelo://app?vid=090ad51e-0df4-4bcd-9a1d-84e5a006fd0b"},"vehicle_type_id":"4","last_reported":1702278433,"current_range_meters":15600,"station_id":"ce4bhq12rcd13ifvqhhg","pricing_plan_id":"free"},{"bike_id":"d7d17e82-b7a7-46d4-af1f-728379796d3c","system_id":"levelo_inurba_marseille","lat":43.27616,"lon":5.36097,"is_reserved":false,"is_disabled":false,"rental_uris":{"android":"levelo://app?vid=d7d17e82-b7a7-46d4-af1f-728379796d3c","ios":"levelo://app?vid=d7d17e82-b7a7-46d4-af1f-728379796d3c"},"vehicle_type_id":"4","last_reported":1702278433,"current_range_meters":16400,"station_id":"ce4bgj92rcd13ifvqbe0","pricing_plan_id":"free"},{"bike_id":"20f997ed-6738-4b4b-92c8-af1d150e8337","system_id":"levelo_inurba_marseille","lat":43.303837,"lon":5.418724,"is_reserved":false,"is_disabled":false,"rental_uris":{"android":"levelo://app?vid=20f997ed-6738-4b4b-92c8-af1d150e8337","ios":"levelo://app?vid=20f997ed-6738-4b4b-92c8-af1d150e8337"},"vehicle_type_id":"4","last_reported":1702278433,"current_range_meters":29600,"station_id":"ce4bhop2rcd13ifvqh7g","pricing_plan_id":"free"},{"bike_id":"c931e8e8-3d2d-46a3-99f4-ef8bf5f40ba1","system_id":"levelo_inurba_marseille","lat":43.336134,"lon":5.410341,"is_reserved":false,"is_disabled":false,"rental_uris":{"android":"levelo://app?vid=c931e8e8-3d2d-46a3-99f4-ef8bf5f40ba1","ios":"levelo://app?vid=c931e8e8-3d2d-46a3-99f4-ef8bf5f40ba1"},"vehicle_type_id":"4","last_reported":1702278433,"current_range_meters":24400,"station_id":"ce4bhqh2rcd13ifvqhmg","pricing_plan_id":"free"},{"bike_id":"60b1cdf4-2332-4683-ab00-726fedcf42eb","system_id":"levelo_inurba_marseille","lat":43.276771,"lon":5.388799,"is_reserved":false,"is_disabled":false,"rental_uris":{"android":"levelo://app?vid=60b1cdf4-2332-4683-ab00-726fedcf42eb","ios":"levelo://app?vid=60b1cdf4-2332-4683-ab00-726fedcf42eb"},"vehicle_type_id":"4","last_reported":1702278433,"current_range_meters":29200,"station_id":"ce4bhi12rcd13ifvqfo0","pricing_plan_id":"free"},{"bike_id":"b49195d1-5252-4b63-9ddd-c39017071e00","system_id":"levelo_inurba_marseille","lat":43.27639,"lon":5.39485,"is_reserved":false,"is_disabled":false,"rental_uris":{"android":"levelo://app?vid=b49195d1-5252-4b63-9ddd-c39017071e00","ios":"levelo://app?vid=b49195d1-5252-4b63-9ddd-c39017071e00"},"vehicle_type_id":"4","last_reported":1702278433,"current_range_meters":14400,"station_id":"","pricing_plan_id":"free"},{"bike_id":"b95f1926-9f0f-4e05-89cb-b6d32e9439c4","system_id":"levelo_inurba_marseille","lat":43.340804,"lon":5.410219,"is_reserved":false,"is_disabled":false,"rental_uris":{"android":"levelo://app?vid=b95f1926-9f0f-4e05-89cb-b6d32e9439c4","ios":"levelo://app?vid=b95f1926-9f0f-4e05-89cb-b6d32e9439c4"},"vehicle_type_id":"4","last_reported":1702278433,"current_range_meters":31200,"station_id":"ce4bhqh2rcd13ifvqhlg","pricing_plan_id":"free"},{"bike_id":"63133364-316e-458e-b234-bbd4926c63fc","system_id":"levelo_inurba_marseille","lat":43.27583,"lon":5.39474,"is_reserved":false,"is_disabled":false,"rental_uris":{"android":"levelo://app?vid=63133364-316e-458e-b234-bbd4926c63fc","ios":"levelo://app?vid=63133364-316e-458e-b234-bbd4926c63fc"},"vehicle_type_id":"4","last_reported":1702278433,"current_range_meters":800,"station_id":"","pricing_plan_id":"free"},{"bike_id":"aab76e7d-d47d-4bb2-bf6a-26052c98560d","system_id":"levelo_inurba_marseille","lat":43.269319,"lon":5.389397,"is_reserved":false,"is_disabled":false,"rental_uris":{"android":"levelo://app?vid=aab76e7d-d47d-4bb2-bf6a-26052c98560d","ios":"levelo://app?vid=aab76e7d-d47d-4bb2-bf6a-26052c98560d"},"vehicle_type_id":"4","last_reported":1702278433,"current_range_meters":25200,"station_id":"ce4bhhh2rcd13ifvqfl0","pricing_plan_id":"free"},{"bike_id":"bcee6258-fac1-413b-a00b-c326991b3f21","system_id":"levelo_inurba_marseille","lat":43.26681,"lon":5.382694,"is_reserved":false,"is_disabled":false,"rental_uris":{"android":"levelo://app?vid=bcee6258-fac1-413b-a00b-c326991b3f21","ios":"levelo://app?vid=bcee6258-fac1-413b-a00b-c326991b3f21"},"vehicle_type_id":"4","last_reported":1702278433,"current_range_meters":20000,"station_id":"ce4bhg92rcd13ifvqf90","pricing_plan_id":"free"},{"bike_id":"7244d0b7-0a9b-4675-930f-975dbbeed40b","system_id":"levelo_inurba_marseille","lat":43.266056,"lon":5.381666,"is_reserved":false,"is_disabled":false,"rental_uris":{"android":"levelo://app?vid=7244d0b7-0a9b-4675-930f-975dbbeed40b","ios":"levelo://app?vid=7244d0b7-0a9b-4675-930f-975dbbeed40b"},"vehicle_type_id":"4","last_reported":1702278433,"current_range_meters":3200,"station_id":"","pricing_plan_id":"free"},{"bike_id":"403a6e45-e823-48e9-95e5-9413c97f72e7","system_id":"levelo_inurba_marseille","lat":43.265714,"lon":5.372891,"is_reserved":false,"is_disabled":false,"rental_uris":{"android":"levelo://app?vid=403a6e45-e823-48e9-95e5-9413c97f72e7","ios":"levelo://app?vid=403a6e45-e823-48e9-95e5-9413c97f72e7"},"vehicle_type_id":"4","last_reported":1702278433,"current_range_meters":22800,"station_id":"ce4bhg12rcd13ifvqf70","pricing_plan_id":"free"},{"bike_id":"ef971255-ddd4-4a06-913b-059593ff0a22","system_id":"levelo_inurba_marseille","lat":43.265714,"lon":5.372891,"is_reserved":false,"is_disabled":false,"rental_uris":{"android":"levelo://app?vid=ef971255-ddd4-4a06-913b-059593ff0a22","ios":"levelo://app?vid=ef971255-ddd4-4a06-913b-059593ff0a22"},"vehicle_type_id":"4","last_reported":1702278433,"current_range_meters":20800,"station_id":"ce4bhg12rcd13ifvqf70","pricing_plan_id":"free"},{"bike_id":"e9ac0882-245a-4f12-b467-22f9246dc626","system_id":"levelo_inurba_marseille","lat":43.32545,"lon":5.43286,"is_reserved":false,"is_disabled":false,"rental_uris":{"android":"levelo://app?vid=e9ac0882-245a-4f12-b467-22f9246dc626","ios":"levelo://app?vid=e9ac0882-245a-4f12-b467-22f9246dc626"},"vehicle_type_id":"4","last_reported":1702278433,"current_range_meters":3600,"station_id":"","pricing_plan_id":"free"},{"bike_id":"6c9a7769-40d4-42dc-9b48-47769de74c91","system_id":"levelo_inurba_marseille","lat":43.26332,"lon":5.37678,"is_reserved":false,"is_disabled":false,"rental_uris":{"android":"levelo://app?vid=6c9a7769-40d4-42dc-9b48-47769de74c91","ios":"levelo://app?vid=6c9a7769-40d4-42dc-9b48-47769de74c91"},"vehicle_type_id":"4","last_reported":1702278433,"current_range_meters":13600,"station_id":"","pricing_plan_id":"free"},{"bike_id":"287e9254-f263-4a4d-afd9-500f2b256a68","system_id":"levelo_inurba_marseille","lat":43.2616,"lon":5.37414,"is_reserved":false,"is_disabled":false,"rental_uris":{"android":"levelo://app?vid=287e9254-f263-4a4d-afd9-500f2b256a68","ios":"levelo://app?vid=287e9254-f263-4a4d-afd9-500f2b256a68"},"vehicle_type_id":"4","last_reported":1702278433,"current_range_meters":24400,"station_id":"ce4bhgp2rcd13ifvqfc0","pricing_plan_id":"free"},{"bike_id":"2077de0f-a5ad-4dbd-b44c-d64507b68510","system_id":"levelo_inurba_marseille","lat":43.26202,"lon":5.379299,"is_reserved":false,"is_disabled":false,"rental_uris":{"android":"levelo://app?vid=2077de0f-a5ad-4dbd-b44c-d64507b68510","ios":"levelo://app?vid=2077de0f-a5ad-4dbd-b44c-d64507b68510"},"vehicle_type_id":"4","last_reported":1702278433,"current_range_meters":17600,"station_id":"ce4bhjp2rcd13ifvqg90","pricing_plan_id":"free"},{"bike_id":"1a815d49-bba3-4455-9b21-ec6bdf9f0750","system_id":"levelo_inurba_marseille","lat":43.267959,"lon":5.402687,"is_reserved":false,"is_disabled":false,"rental_uris":{"android":"levelo://app?vid=1a815d49-bba3-4455-9b21-ec6bdf9f0750","ios":"levelo://app?vid=1a815d49-bba3-4455-9b21-ec6bdf9f0750"},"vehicle_type_id":"4","last_reported":1702278433,"current_range_meters":21600,"station_id":"ce501612rcd8frsf0b60","pricing_plan_id":"free"},{"bike_id":"93a97356-146a-41a7-9b38-412e2acddb24","system_id":"levelo_inurba_marseille","lat":43.281548,"lon":5.42643,"is_reserved":false,"is_disabled":false,"rental_uris":{"android":"levelo://app?vid=93a97356-146a-41a7-9b38-412e2acddb24","ios":"levelo://app?vid=93a97356-146a-41a7-9b38-412e2acddb24"},"vehicle_type_id":"4","last_reported":1702278433,"current_range_meters":30000,"station_id":"ce4bhnh2rcd13ifvqgug","pricing_plan_id":"free"},{"bike_id":"ebde47f5-8adc-4ba0-989a-ac400eed876b","system_id":"levelo_inurba_marseille","lat":43.275028,"lon":5.424534,"is_reserved":false,"is_disabled":false,"rental_uris":{"android":"levelo://app?vid=ebde47f5-8adc-4ba0-989a-ac400eed876b","ios":"levelo://app?vid=ebde47f5-8adc-4ba0-989a-ac400eed876b"},"vehicle_type_id":"4","last_reported":1702278433,"current_range_meters":27600,"station_id":"ce4bhn92rcd13ifvqgrg","pricing_plan_id":"free"},{"bike_id":"261d9626-a171-482c-b822-10f5e45736de","system_id":"levelo_inurba_marseille","lat":43.275028,"lon":5.424534,"is_reserved":false,"is_disabled":false,"rental_uris":{"android":"levelo://app?vid=261d9626-a171-482c-b822-10f5e45736de","ios":"levelo://app?vid=261d9626-a171-482c-b822-10f5e45736de"},"vehicle_type_id":"4","last_reported":1702278433,"current_range_meters":29200,"station_id":"ce4bhn92rcd13ifvqgrg","pricing_plan_id":"free"},{"bike_id":"6f0f3a46-a049-429f-bff1-1b204ba45cf0","system_id":"levelo_inurba_marseille","lat":43.275028,"lon":5.424534,"is_reserved":false,"is_disabled":false,"rental_uris":{"android":"levelo://app?vid=6f0f3a46-a049-429f-bff1-1b204ba45cf0","ios":"levelo://app?vid=6f0f3a46-a049-429f-bff1-1b204ba45cf0"},"vehicle_type_id":"4","last_reported":1702278433,"current_range_meters":24400,"station_id":"ce4bhn92rcd13ifvqgrg","pricing_plan_id":"free"},{"bike_id":"14fa1156-39ef-4e37-98d2-a0e3f49ffeda","system_id":"levelo_inurba_marseille","lat":43.275028,"lon":5.424534,"is_reserved":false,"is_disabled":false,"rental_uris":{"android":"levelo://app?vid=14fa1156-39ef-4e37-98d2-a0e3f49ffeda","ios":"levelo://app?vid=14fa1156-39ef-4e37-98d2-a0e3f49ffeda"},"vehicle_type_id":"4","last_reported":1702278433,"current_range_meters":24400,"station_id":"ce4bhn92rcd13ifvqgrg","pricing_plan_id":"free"},{"bike_id":"ca23f301-5c31-45d9-8759-2c673304e1ed","system_id":"levelo_inurba_marseille","lat":43.275028,"lon":5.424534,"is_reserved":false,"is_disabled":false,"rental_uris":{"android":"levelo://app?vid=ca23f301-5c31-45d9-8759-2c673304e1ed","ios":"levelo://app?vid=ca23f301-5c31-45d9-8759-2c673304e1ed"},"vehicle_type_id":"4","last_reported":1702278433,"current_range_meters":20400,"station_id":"ce4bhn92rcd13ifvqgrg","pricing_plan_id":"free"},{"bike_id":"6197b058-6735-429d-871e-0742eddb4a48","system_id":"levelo_inurba_marseille","lat":43.275028,"lon":5.424534,"is_reserved":false,"is_disabled":false,"rental_uris":{"android":"levelo://app?vid=6197b058-6735-429d-871e-0742eddb4a48","ios":"levelo://app?vid=6197b058-6735-429d-871e-0742eddb4a48"},"vehicle_type_id":"4","last_reported":1702278433,"current_range_meters":22000,"station_id":"ce4bhn92rcd13ifvqgrg","pricing_plan_id":"free"},{"bike_id":"3cc623f6-3385-4909-99f7-0630ef4d20ac","system_id":"levelo_inurba_marseille","lat":43.275028,"lon":5.424534,"is_reserved":false,"is_disabled":false,"rental_uris":{"android":"levelo://app?vid=3cc623f6-3385-4909-99f7-0630ef4d20ac","ios":"levelo://app?vid=3cc623f6-3385-4909-99f7-0630ef4d20ac"},"vehicle_type_id":"4","last_reported":1702278433,"current_range_meters":31200,"station_id":"ce4bhn92rcd13ifvqgrg","pricing_plan_id":"free"},{"bike_id":"9d83750a-e781-4367-9965-bf423120886f","system_id":"levelo_inurba_marseille","lat":43.258224,"lon":5.394369,"is_reserved":false,"is_disabled":false,"rental_uris":{"android":"levelo://app?vid=9d83750a-e781-4367-9965-bf423120886f","ios":"levelo://app?vid=9d83750a-e781-4367-9965-bf423120886f"},"vehicle_type_id":"4","last_reported":1702278433,"current_range_meters":22400,"station_id":"ce4bhip2rcd13ifvqft0","pricing_plan_id":"free"},{"bike_id":"9e6d4a29-890e-402a-b1a6-72067794e51d","system_id":"levelo_inurba_marseille","lat":43.258224,"lon":5.394369,"is_reserved":false,"is_disabled":false,"rental_uris":{"android":"levelo://app?vid=9e6d4a29-890e-402a-b1a6-72067794e51d","ios":"levelo://app?vid=9e6d4a29-890e-402a-b1a6-72067794e51d"},"vehicle_type_id":"4","last_reported":1702278433,"current_range_meters":16000,"station_id":"ce4bhip2rcd13ifvqft0","pricing_plan_id":"free"},{"bike_id":"f372bf66-63ba-421e-b408-de392dc735ac","system_id":"levelo_inurba_marseille","lat":43.258658,"lon":5.398935,"is_reserved":false,"is_disabled":false,"rental_uris":{"android":"levelo://app?vid=f372bf66-63ba-421e-b408-de392dc735ac","ios":"levelo://app?vid=f372bf66-63ba-421e-b408-de392dc735ac"},"vehicle_type_id":"4","last_reported":1702278433,"current_range_meters":29200,"station_id":"ce4bhl92rcd13ifvqghg","pricing_plan_id":"free"},{"bike_id":"d30e68c4-80e5-4190-b49e-6652180bc6fd","system_id":"levelo_inurba_marseille","lat":43.259013,"lon":5.409301,"is_reserved":false,"is_disabled":false,"rental_uris":{"android":"levelo://app?vid=d30e68c4-80e5-4190-b49e-6652180bc6fd","ios":"levelo://app?vid=d30e68c4-80e5-4190-b49e-6652180bc6fd"},"vehicle_type_id":"4","last_reported":1702278433,"current_range_meters":26000,"station_id":"ce4bhm92rcd13ifvqglg","pricing_plan_id":"free"},{"bike_id":"741cbace-340a-4c4b-9a81-47976ee1ab69","system_id":"levelo_inurba_marseille","lat":43.259234,"lon":5.409112,"is_reserved":false,"is_disabled":false,"rental_uris":{"android":"levelo://app?vid=741cbace-340a-4c4b-9a81-47976ee1ab69","ios":"levelo://app?vid=741cbace-340a-4c4b-9a81-47976ee1ab69"},"vehicle_type_id":"4","last_reported":1702278433,"current_range_meters":20400,"station_id":"ce4bhm92rcd13ifvqglg","pricing_plan_id":"free"},{"bike_id":"d4e70ef3-3efc-4630-beab-10a207eab517","system_id":"levelo_inurba_marseille","lat":43.24897,"lon":5.37487,"is_reserved":false,"is_disabled":false,"rental_uris":{"android":"levelo://app?vid=d4e70ef3-3efc-4630-beab-10a207eab517","ios":"levelo://app?vid=d4e70ef3-3efc-4630-beab-10a207eab517"},"vehicle_type_id":"4","last_reported":1702278433,"current_range_meters":22800,"station_id":"","pricing_plan_id":"free"},{"bike_id":"9a059e00-a95c-460f-af64-0bb5409be730","system_id":"levelo_inurba_marseille","lat":43.250009,"lon":5.389195,"is_reserved":false,"is_disabled":false,"rental_uris":{"android":"levelo://app?vid=9a059e00-a95c-460f-af64-0bb5409be730","ios":"levelo://app?vid=9a059e00-a95c-460f-af64-0bb5409be730"},"vehicle_type_id":"4","last_reported":1702278433,"current_range_meters":12800,"station_id":"ce4bhgp2rcd13ifvqfd0","pricing_plan_id":"free"},{"bike_id":"0c4be835-dbea-4374-b18a-78784fbd31e3","system_id":"levelo_inurba_marseille","lat":43.250023,"lon":5.38919,"is_reserved":false,"is_disabled":false,"rental_uris":{"android":"levelo://app?vid=0c4be835-dbea-4374-b18a-78784fbd31e3","ios":"levelo://app?vid=0c4be835-dbea-4374-b18a-78784fbd31e3"},"vehicle_type_id":"4","last_reported":1702278433,"current_range_meters":12400,"station_id":"ce4bhgp2rcd13ifvqfd0","pricing_plan_id":"free"},{"bike_id":"9d26cc15-6bfc-4a75-91a7-038a8fbc3f73","system_id":"levelo_inurba_marseille","lat":43.2479,"lon":5.374457,"is_reserved":false,"is_disabled":false,"rental_uris":{"android":"levelo://app?vid=9d26cc15-6bfc-4a75-91a7-038a8fbc3f73","ios":"levelo://app?vid=9d26cc15-6bfc-4a75-91a7-038a8fbc3f73"},"vehicle_type_id":"4","last_reported":1702278433,"current_range_meters":2000,"station_id":"ce4bhgh2rcd13ifvqfb0","pricing_plan_id":"free"},{"bike_id":"400cda8c-22b3-4bdd-a2d2-ffc063ed1d21","system_id":"levelo_inurba_marseille","lat":43.24091,"lon":5.37734,"is_reserved":false,"is_disabled":false,"rental_uris":{"android":"levelo://app?vid=400cda8c-22b3-4bdd-a2d2-ffc063ed1d21","ios":"levelo://app?vid=400cda8c-22b3-4bdd-a2d2-ffc063ed1d21"},"vehicle_type_id":"4","last_reported":1702278433,"current_range_meters":21600,"station_id":"ce4bhnp2rcd13ifvqgvg","pricing_plan_id":"free"},{"bike_id":"9c437c60-63f8-4b74-8531-998802fdff13","system_id":"levelo_inurba_marseille","lat":43.240623,"lon":5.377642,"is_reserved":false,"is_disabled":false,"rental_uris":{"android":"levelo://app?vid=9c437c60-63f8-4b74-8531-998802fdff13","ios":"levelo://app?vid=9c437c60-63f8-4b74-8531-998802fdff13"},"vehicle_type_id":"4","last_reported":1702278433,"current_range_meters":22400,"station_id":"ce4bhnp2rcd13ifvqgvg","pricing_plan_id":"free"},{"bike_id":"64a632ab-09f1-4174-841e-048fe2655482","system_id":"levelo_inurba_marseille","lat":43.24074,"lon":5.37747,"is_reserved":false,"is_disabled":false,"rental_uris":{"android":"levelo://app?vid=64a632ab-09f1-4174-841e-048fe2655482","ios":"levelo://app?vid=64a632ab-09f1-4174-841e-048fe2655482"},"vehicle_type_id":"4","last_reported":1702278433,"current_range_meters":22800,"station_id":"ce4bhnp2rcd13ifvqgvg","pricing_plan_id":"free"},{"bike_id":"7748f412-a9ad-47e0-8021-36747c5b85ce","system_id":"levelo_inurba_marseille","lat":43.240623,"lon":5.377642,"is_reserved":false,"is_disabled":false,"rental_uris":{"android":"levelo://app?vid=7748f412-a9ad-47e0-8021-36747c5b85ce","ios":"levelo://app?vid=7748f412-a9ad-47e0-8021-36747c5b85ce"},"vehicle_type_id":"4","last_reported":1702278433,"current_range_meters":14400,"station_id":"ce4bhnp2rcd13ifvqgvg","pricing_plan_id":"free"},{"bike_id":"94cd4a8a-7ad6-45ba-9953-b10109c45bf3","system_id":"levelo_inurba_marseille","lat":43.24073,"lon":5.37759,"is_reserved":false,"is_disabled":false,"rental_uris":{"android":"levelo://app?vid=94cd4a8a-7ad6-45ba-9953-b10109c45bf3","ios":"levelo://app?vid=94cd4a8a-7ad6-45ba-9953-b10109c45bf3"},"vehicle_type_id":"4","last_reported":1702278433,"current_range_meters":23600,"station_id":"ce4bhnp2rcd13ifvqgvg","pricing_plan_id":"free"},{"bike_id":"b2658510-322e-48ee-bf74-1f8656036853","system_id":"levelo_inurba_marseille","lat":43.240623,"lon":5.377642,"is_reserved":false,"is_disabled":false,"rental_uris":{"android":"levelo://app?vid=b2658510-322e-48ee-bf74-1f8656036853","ios":"levelo://app?vid=b2658510-322e-48ee-bf74-1f8656036853"},"vehicle_type_id":"4","last_reported":1702278433,"current_range_meters":24800,"station_id":"ce4bhnp2rcd13ifvqgvg","pricing_plan_id":"free"},{"bike_id":"ea662cea-4baa-4ad9-8cea-697c537971d3","system_id":"levelo_inurba_marseille","lat":43.240623,"lon":5.377642,"is_reserved":false,"is_disabled":false,"rental_uris":{"android":"levelo://app?vid=ea662cea-4baa-4ad9-8cea-697c537971d3","ios":"levelo://app?vid=ea662cea-4baa-4ad9-8cea-697c537971d3"},"vehicle_type_id":"4","last_reported":1702278433,"current_range_meters":21200,"station_id":"ce4bhnp2rcd13ifvqgvg","pricing_plan_id":"free"},{"bike_id":"8179a272-c7e3-4d65-8c32-204eaa2cf815","system_id":"levelo_inurba_marseille","lat":43.24072,"lon":5.37762,"is_reserved":false,"is_disabled":false,"rental_uris":{"android":"levelo://app?vid=8179a272-c7e3-4d65-8c32-204eaa2cf815","ios":"levelo://app?vid=8179a272-c7e3-4d65-8c32-204eaa2cf815"},"vehicle_type_id":"4","last_reported":1702278433,"current_range_meters":15200,"station_id":"ce4bhnp2rcd13ifvqgvg","pricing_plan_id":"free"},{"bike_id":"184a24ea-63a3-470e-aac0-a292f1ec2f0f","system_id":"levelo_inurba_marseille","lat":43.240623,"lon":5.377642,"is_reserved":false,"is_disabled":false,"rental_uris":{"android":"levelo://app?vid=184a24ea-63a3-470e-aac0-a292f1ec2f0f","ios":"levelo://app?vid=184a24ea-63a3-470e-aac0-a292f1ec2f0f"},"vehicle_type_id":"4","last_reported":1702278433,"current_range_meters":22000,"station_id":"ce4bhnp2rcd13ifvqgvg","pricing_plan_id":"free"},{"bike_id":"f1dff5f9-8dbf-42f0-bbdb-a0f5e2b30a6c","system_id":"levelo_inurba_marseille","lat":43.240623,"lon":5.377642,"is_reserved":false,"is_disabled":false,"rental_uris":{"android":"levelo://app?vid=f1dff5f9-8dbf-42f0-bbdb-a0f5e2b30a6c","ios":"levelo://app?vid=f1dff5f9-8dbf-42f0-bbdb-a0f5e2b30a6c"},"vehicle_type_id":"4","last_reported":1702278433,"current_range_meters":12800,"station_id":"ce4bhnp2rcd13ifvqgvg","pricing_plan_id":"free"},{"bike_id":"8d657dd6-8309-4c6a-abae-7a6927bc3336","system_id":"levelo_inurba_marseille","lat":43.240623,"lon":5.377642,"is_reserved":false,"is_disabled":false,"rental_uris":{"android":"levelo://app?vid=8d657dd6-8309-4c6a-abae-7a6927bc3336","ios":"levelo://app?vid=8d657dd6-8309-4c6a-abae-7a6927bc3336"},"vehicle_type_id":"4","last_reported":1702278433,"current_range_meters":31600,"station_id":"ce4bhnp2rcd13ifvqgvg","pricing_plan_id":"free"},{"bike_id":"c8bd7ccd-8660-4ade-b0c3-e77965e3a22e","system_id":"levelo_inurba_marseille","lat":43.240623,"lon":5.377642,"is_reserved":false,"is_disabled":false,"rental_uris":{"android":"levelo://app?vid=c8bd7ccd-8660-4ade-b0c3-e77965e3a22e","ios":"levelo://app?vid=c8bd7ccd-8660-4ade-b0c3-e77965e3a22e"},"vehicle_type_id":"4","last_reported":1702278433,"current_range_meters":28400,"station_id":"ce4bhnp2rcd13ifvqgvg","pricing_plan_id":"free"},{"bike_id":"298e5c1e-60a7-49be-a9d2-86b9bf4a77fb","system_id":"levelo_inurba_marseille","lat":43.240623,"lon":5.377642,"is_reserved":false,"is_disabled":false,"rental_uris":{"android":"levelo://app?vid=298e5c1e-60a7-49be-a9d2-86b9bf4a77fb","ios":"levelo://app?vid=298e5c1e-60a7-49be-a9d2-86b9bf4a77fb"},"vehicle_type_id":"4","last_reported":1702278433,"current_range_meters":24800,"station_id":"ce4bhnp2rcd13ifvqgvg","pricing_plan_id":"free"},{"bike_id":"8f342233-ce3b-46f2-b0c3-fa6862efced7","system_id":"levelo_inurba_marseille","lat":43.240623,"lon":5.377642,"is_reserved":false,"is_disabled":false,"rental_uris":{"android":"levelo://app?vid=8f342233-ce3b-46f2-b0c3-fa6862efced7","ios":"levelo://app?vid=8f342233-ce3b-46f2-b0c3-fa6862efced7"},"vehicle_type_id":"4","last_reported":1702278433,"current_range_meters":26400,"station_id":"ce4bhnp2rcd13ifvqgvg","pricing_plan_id":"free"},{"bike_id":"26632c8e-b701-488b-94fc-8e84cdad5404","system_id":"levelo_inurba_marseille","lat":43.240623,"lon":5.377642,"is_reserved":false,"is_disabled":false,"rental_uris":{"android":"levelo://app?vid=26632c8e-b701-488b-94fc-8e84cdad5404","ios":"levelo://app?vid=26632c8e-b701-488b-94fc-8e84cdad5404"},"vehicle_type_id":"4","last_reported":1702278433,"current_range_meters":19200,"station_id":"ce4bhnp2rcd13ifvqgvg","pricing_plan_id":"free"},{"bike_id":"c26e9806-3b4a-4712-a8b7-1123f0689fb4","system_id":"levelo_inurba_marseille","lat":43.240623,"lon":5.377642,"is_reserved":false,"is_disabled":false,"rental_uris":{"android":"levelo://app?vid=c26e9806-3b4a-4712-a8b7-1123f0689fb4","ios":"levelo://app?vid=c26e9806-3b4a-4712-a8b7-1123f0689fb4"},"vehicle_type_id":"4","last_reported":1702278433,"current_range_meters":2000,"station_id":"ce4bhnp2rcd13ifvqgvg","pricing_plan_id":"free"},{"bike_id":"ba6bc2cd-6e13-4124-aeed-921fb4e8ccc2","system_id":"levelo_inurba_marseille","lat":43.239588,"lon":5.366238,"is_reserved":false,"is_disabled":false,"rental_uris":{"android":"levelo://app?vid=ba6bc2cd-6e13-4124-aeed-921fb4e8ccc2","ios":"levelo://app?vid=ba6bc2cd-6e13-4124-aeed-921fb4e8ccc2"},"vehicle_type_id":"4","last_reported":1702278433,"current_range_meters":21200,"station_id":"ce4bhi12rcd13ifvqfp0","pricing_plan_id":"free"},{"bike_id":"15f9280b-004b-4471-9dc4-253a38fa010a","system_id":"levelo_inurba_marseille","lat":43.241787,"lon":5.39726,"is_reserved":false,"is_disabled":false,"rental_uris":{"android":"levelo://app?vid=15f9280b-004b-4471-9dc4-253a38fa010a","ios":"levelo://app?vid=15f9280b-004b-4471-9dc4-253a38fa010a"},"vehicle_type_id":"4","last_reported":1702278433,"current_range_meters":0,"station_id":"ce4bhn12rcd13ifvqgpg","pricing_plan_id":"free"},{"bike_id":"ff3311be-0e5d-4347-bfab-118723a2b76e","system_id":"levelo_inurba_marseille","lat":43.231919,"lon":5.355532,"is_reserved":false,"is_disabled":false,"rental_uris":{"android":"levelo://app?vid=ff3311be-0e5d-4347-bfab-118723a2b76e","ios":"levelo://app?vid=ff3311be-0e5d-4347-bfab-118723a2b76e"},"vehicle_type_id":"4","last_reported":1702278433,"current_range_meters":29600,"station_id":"ce4bhu92rcd13ifvqi70","pricing_plan_id":"free"},{"bike_id":"68dc3f57-2c68-4018-a8e6-c8612ac3eceb","system_id":"levelo_inurba_marseille","lat":43.231793,"lon":5.400044,"is_reserved":false,"is_disabled":false,"rental_uris":{"android":"levelo://app?vid=68dc3f57-2c68-4018-a8e6-c8612ac3eceb","ios":"levelo://app?vid=68dc3f57-2c68-4018-a8e6-c8612ac3eceb"},"vehicle_type_id":"4","last_reported":1702278433,"current_range_meters":28400,"station_id":"ce4bhn12rcd13ifvqgqg","pricing_plan_id":"free"},{"bike_id":"ba2ffe5d-0854-438d-83e7-4a71cbe644cc","system_id":"levelo_inurba_marseille","lat":43.231794,"lon":5.400052,"is_reserved":false,"is_disabled":false,"rental_uris":{"android":"levelo://app?vid=ba2ffe5d-0854-438d-83e7-4a71cbe644cc","ios":"levelo://app?vid=ba2ffe5d-0854-438d-83e7-4a71cbe644cc"},"vehicle_type_id":"4","last_reported":1702278433,"current_range_meters":30000,"station_id":"ce4bhn12rcd13ifvqgqg","pricing_plan_id":"free"},{"bike_id":"d1f54e0d-396f-4b1c-bc0b-a3840a06e020","system_id":"levelo_inurba_marseille","lat":43.231562,"lon":5.436933,"is_reserved":false,"is_disabled":false,"rental_uris":{"android":"levelo://app?vid=d1f54e0d-396f-4b1c-bc0b-a3840a06e020","ios":"levelo://app?vid=d1f54e0d-396f-4b1c-bc0b-a3840a06e020"},"vehicle_type_id":"4","last_reported":1702278433,"current_range_meters":15200,"station_id":"ce4bhmp2rcd13ifvqgog","pricing_plan_id":"free"},{"bike_id":"e867c508-1925-4372-8551-8e22a3a5630e","system_id":"levelo_inurba_marseille","lat":43.231562,"lon":5.436933,"is_reserved":false,"is_disabled":false,"rental_uris":{"android":"levelo://app?vid=e867c508-1925-4372-8551-8e22a3a5630e","ios":"levelo://app?vid=e867c508-1925-4372-8551-8e22a3a5630e"},"vehicle_type_id":"4","last_reported":1702278433,"current_range_meters":7600,"station_id":"ce4bhmp2rcd13ifvqgog","pricing_plan_id":"free"},{"bike_id":"1aae6cdc-e4e2-4912-a240-f90a945937f8","system_id":"levelo_inurba_marseille","lat":43.231562,"lon":5.436933,"is_reserved":false,"is_disabled":false,"rental_uris":{"android":"levelo://app?vid=1aae6cdc-e4e2-4912-a240-f90a945937f8","ios":"levelo://app?vid=1aae6cdc-e4e2-4912-a240-f90a945937f8"},"vehicle_type_id":"4","last_reported":1702278433,"current_range_meters":31600,"station_id":"ce4bhmp2rcd13ifvqgog","pricing_plan_id":"free"}]}}