{"last_updated":1743073698,"ttl":60,"version":"2.2","data":{"bikes":[{"bike_id":"bf6d3711-68f5-4721-8ea8-2d0601182f38","system_id":"levelo_inurba_marseille","lat":43.33746,"lon":5.3745,"is_reserved":false,"is_disabled":true,"rental_uris":{"android":"levelo://app?vid=bf6d3711-68f5-4721-8ea8-2d0601182f38","ios":"levelo://app?vid=bf6d3711-68f5-4721-8ea8-2d0601182f38"},"vehicle_type_id":"4","last_reported":1743073698,"current_range_meters":0,"station_id":"","pricing_plan_id":"cebpf4jnsgd1na2vs0mg"},{"bike_id":"fc8e8371-f4e9-4721-bc19-563801e389dc","system_id":"levelo_inurba_marseille","lat":43.337444,"lon":5.374475,"is_reserved":false,"is_disabled":false,"rental_uris":{"android":"levelo://app?vid=fc8e8371-f4e9-4721-bc19-563801e389dc","ios":"levelo://app?vid=fc8e8371-f4e9-4721-bc19-563801e389dc"},"vehicle_type_id":"4","last_reported":1743073698,"current_range_meters":11600,"station_id":"","pricing_plan_id":"cebpf4jnsgd1na2vs0mg"},{"bike_id":"7ff8bbfb-d8a6-4f7f-b963-3cef9e7a8262","system_id":"levelo_inurba_marseille","lat":43.31469,"lon":5.36966,"is_reserved":false,"is_disabled":true,"rental_uris":{"android":"levelo://app?vid=7ff8bbfb-d8a6-4f7f-b963-3cef9e7a8262","ios":"levelo://app?vid=7ff8bbfb-d8a6-4f7f-b963-3cef9e7a8262"},"vehicle_type_id":"4","last_reported":1743073698,"current_range_meters":0,"station_id":"","pricing_plan_id":"cebpf4jnsgd1na2vs0mg"},{"bike_id":"54739101-93ac-4ff2-ac89-3384dd1e877c","system_id":"levelo_inurba_marseille","lat":43.315442,"lon":5.378588,"is_reserved":false,"is_disabled":true,"rental_uris":{"android":"levelo://app?vid=54739101-93ac-4ff2-ac89-3384dd1e877c","ios":"levelo://app?vid=54739101-93ac-4ff2-ac89-3384dd1e877c"},"vehicle_type_id":"4","last_reported":1743073698,"current_range_meters":0,"station_id":"","pricing_plan_id":"cebpf4jnsgd1na2vs0mg"},{"bike_id":"306bbe1b-255e-465f-9c82-619129be6b5a","system_id":"levelo_inurba_marseille","lat":43.26569,"lon":5.39586,"is_reserved":false,"is_disabled":true,"rental_uris":{"android":"levelo://app?vid=306bbe1b-255e-465f-9c82-619129be6b5a","ios":"levelo://app?vid=306bbe1b-255e-465f-9c82-619129be6b5a"},"vehicle_type_id":"4","last_reported":1743073698,"current_range_meters":0,"station_id":"","pricing_plan_id":"cebpf4jnsgd1na2vs0mg"},{"bike_id":"be6725c0-5c09-4663-99b8-0b7371d27e21","system_id":"levelo_inurba_marseille","lat":43.25473,"lon":5.37535,"is_reserved":false,"is_disabled":true,"rental_uris":{"android":"levelo://app?vid=be6725c0-5c09-4663-99b8-0b7371d27e21","ios":"levelo://app?vid=be6725c0-5c09-4663-99b8-0b7371d27e21"},"vehicle_type_id":"4","last_reported":1743073698,"current_range_meters":0,"station_id":"","pricing_plan_id":"cebpf4jnsgd1na2vs0mg"},{"bike_id":"e01b37d2-694f-4478-b219-216c31b79260","system_id":"levelo_inurba_marseille","lat":43.25235,"lon":5.38066,"is_reserved":false,"is_disabled":true,"rental_uris":{"android":"levelo://app?vid=e01b37d2-694f-4478-b219-216c31b79260","ios":"levelo://app?vid=e01b37d2-694f-4478-b219-216c31b79260"},"vehicle_type_id":"4","last_reported":1743073698,"current_range_meters":0,"station_id":"","pricing_plan_id":"cebpf4jnsgd1na2vs0mg"},{"bike_id":"30cf62f7-23e6-4765-817b-8c01ee0d1dae","system_id":"levelo_inurba_marseille","lat":43.27847,"lon":5.38766,"is_reserved":false,"is_disabled":true,"rental_uris":{"android":"levelo://app?vid=30cf62f7-23e6-4765-817b-8c01ee0d1dae","ios":"levelo://app?vid=30cf62f7-23e6-4765-817b-8c01ee0d1dae"},"vehicle_type_id":"4","last_reported":1743073698,"current_range_meters":0,"station_id":"","pricing_plan_id":"cebpf4jnsgd1na2vs0mg"},{"bike_id":"634c433d-3db3-4fd8-8be9-8b653dae530e","system_id":"levelo_inurba_marseille","lat":43.280345,"lon":5.390099,"is_reserved":false,"is_disabled":true,"rental_uris":{"android":"levelo://app?vid=634c433d-3db3-4fd8-8be9-8b653dae530e","ios":"levelo://app?vid=634c433d-3db3-4fd8-8be9-8b653dae530e"},"vehicle_type_id":"4","last_reported":1743073698,"current_range_meters":0,"station_id":"","pricing_plan_id":"cebpf4jnsgd1na2vs0mg"},{"bike_id":"0b28eb6e-88b4-46d1-937c-edee5a79149c","system_id":"levelo_inurba_marseille","lat":43.29975,"lon":5.38484,"is_reserved":false,"is_disabled":true,"rental_uris":{"android":"levelo://app?vid=0b28eb6e-88b4-46d1-937c-edee5a79149c","ios":"levelo://app?vid=0b28eb6e-88b4-46d1-937c-edee5a79149c"},"vehicle_type_id":"4","last_reported":1743073698,"current_range_meters":0,"station_id":"ce4bgj92rcd13ifvqbd0","pricing_plan_id":"cebpf4jnsgd1na2vs0mg"},{"bike_id":"5a2026a5-ced7-4acb-a533-995f56b56295","system_id":"levelo_inurba_marseille","lat":43.27608,"lon":5.36113,"is_reserved":false,"is_disabled":true,"rental_uris":{"android":"levelo://app?vid=5a2026a5-ced7-4acb-a533-995f56b56295","ios":"levelo://app?vid=5a2026a5-ced7-4acb-a533-995f56b56295"},"vehicle_type_id":"4","last_reported":1743073698,"current_range_meters":0,"station_id":"ce4bgj92rcd13ifvqbe0","pricing_plan_id":"cebpf4jnsgd1na2vs0mg"},{"bike_id":"f84c298b-c749-40b1-b086-b14d290f5043","system_id":"levelo_inurba_marseille","lat":43.300953,"lon":5.390763,"is_reserved":false,"is_disabled":true,"rental_uris":{"android":"levelo://app?vid=f84c298b-c749-40b1-b086-b14d290f5043","ios":"levelo://app?vid=f84c298b-c749-40b1-b086-b14d290f5043"},"vehicle_type_id":"4","last_reported":1743073698,"current_range_meters":0,"station_id":"ce4bh192rcd13ifvqdb0","pricing_plan_id":"cebpf4jnsgd1na2vs0mg"},{"bike_id":"4af5d7fe-ad8c-4baa-b9bf-cddf4b036542","system_id":"levelo_inurba_marseille","lat":43.28855,"lon":5.39318,"is_reserved":false,"is_disabled":true,"rental_uris":{"android":"levelo://app?vid=4af5d7fe-ad8c-4baa-b9bf-cddf4b036542","ios":"levelo://app?vid=4af5d7fe-ad8c-4baa-b9bf-cddf4b036542"},"vehicle_type_id":"4","last_reported":1743073698,"current_range_meters":0,"station_id":"ce4bh2p2rcd13ifvqdi0","pricing_plan_id":"cebpf4jnsgd1na2vs0mg"},{"bike_id":"9e05d07e-e9ca-418d-8f2e-47b432afd853","system_id":"levelo_inurba_marseille","lat":43.27971,"lon":5.3874,"is_reserved":false,"is_disabled":true,"rental_uris":{"android":"levelo://app?vid=9e05d07e-e9ca-418d-8f2e-47b432afd853","ios":"levelo://app?vid=9e05d07e-e9ca-418d-8f2e-47b432afd853"},"vehicle_type_id":"4","last_reported":1743073698,"current_range_meters":0,"station_id":"ce4bhg12rcd13ifvqf80","pricing_plan_id":"cebpf4jnsgd1na2vs0mg"},{"bike_id":"eb91a02c-1769-4825-90fd-1be46bc33427","system_id":"levelo_inurba_marseille","lat":43.27325,"lon":5.39125,"is_reserved":false,"is_disabled":true,"rental_uris":{"android":"levelo://app?vid=eb91a02c-1769-4825-90fd-1be46bc33427","ios":"levelo://app?vid=eb91a02c-1769-4825-90fd-1be46bc33427"},"vehicle_type_id":"4","last_reported":1743073698,"current_range_meters":0,"station_id":"ce4bhgp2rcd13ifvqfe0","pricing_plan_id":"cebpf4jnsgd1na2vs0mg"},{"bike_id":"3eb9d021-301f-42d7-a9cb-7566c0b94181","system_id":"levelo_inurba_marseille","lat":43.23961,"lon":5.36629,"is_reserved":false,"is_disabled":false,"rental_uris":{"android":"levelo://app?vid=3eb9d021-301f-42d7-a9cb-7566c0b94181","ios":"levelo://app?vid=3eb9d021-301f-42d7-a9cb-7566c0b94181"},"vehicle_type_id":"4","last_reported":1743073698,"current_range_meters":0,"station_id":"ce4bhi12rcd13ifvqfp0","pricing_plan_id":"cebpf4jnsgd1na2vs0mg"},{"bike_id":"1c1efa92-6f27-4049-9be3-3879b4a88ba4","system_id":"levelo_inurba_marseille","lat":43.23958,"lon":5.36628,"is_reserved":false,"is_disabled":true,"rental_uris":{"android":"levelo://app?vid=1c1efa92-6f27-4049-9be3-3879b4a88ba4","ios":"levelo://app?vid=1c1efa92-6f27-4049-9be3-3879b4a88ba4"},"vehicle_type_id":"4","last_reported":1743073698,"current_range_meters":0,"station_id":"ce4bhi12rcd13ifvqfp0","pricing_plan_id":"cebpf4jnsgd1na2vs0mg"},{"bike_id":"487c4265-aae2-47f3-8d7e-eacb8ddc66ff","system_id":"levelo_inurba_marseille","lat":43.23141,"lon":5.43716,"is_reserved":false,"is_disabled":true,"rental_uris":{"android":"levelo://app?vid=487c4265-aae2-47f3-8d7e-eacb8ddc66ff","ios":"levelo://app?vid=487c4265-aae2-47f3-8d7e-eacb8ddc66ff"},"vehicle_type_id":"4","last_reported":1743073698,"current_range_meters":0,"station_id":"ce4bhmp2rcd13ifvqgog","pricing_plan_id":"cebpf4jnsgd1na2vs0mg"},{"bike_id":"f8f0df8e-7aa4-4311-9fb8-0ba18c721ade","system_id":"levelo_inurba_marseille","lat":43.23136,"lon":5.43706,"is_reserved":false,"is_disabled":true,"rental_uris":{"android":"levelo://app?vid=f8f0df8e-7aa4-4311-9fb8-0ba18c721ade","ios":"levelo://app?vid=f8f0df8e-7aa4-4311-9fb8-0ba18c721ade"},"vehicle_type_id":"4","last_reported":1743073698,"current_range_meters":0,"station_id":"ce4bhmp2rcd13ifvqgog","pricing_plan_id":"cebpf4jnsgd1na2vs0mg"},{"bike_id":"7330879e-63b0-4c83-89e5-a7f36696718f","system_id":"levelo_inurba_marseille","lat":43.33609,"lon":5.410073,"is_reserved":false,"is_disabled":true,"rental_uris":{"android":"levelo://app?vid=7330879e-63b0-4c83-89e5-a7f36696718f","ios":"levelo://app?vid=7330879e-63b0-4c83-89e5-a7f36696718f"},"vehicle_type_id":"4","last_reported":1743073698,"current_range_meters":0,"station_id":"ce4bhqh2rcd13ifvqhmg","pricing_plan_id":"cebpf4jnsgd1na2vs0mg"},{"bike_id":"00bef963-1003-4309-afd1-4cd45c50f4b9","system_id":"levelo_inurba_marseille","lat":43.3122,"lon":5.36852,"is_reserved":false,"is_disabled":true,"rental_uris":{"android":"levelo://app?vid=00bef963-1003-4309-afd1-4cd45c50f4b9","ios":"levelo://app?vid=00bef963-1003-4309-afd1-4cd45c50f4b9"},"vehicle_type_id":"4","last_reported":1743073698,"current_range_meters":400,"station_id":"ce4bgl92rcd13ifvqbq0","pricing_plan_id":"cebpf4jnsgd1na2vs0mg"},{"bike_id":"faf4a15c-3b48-4ece-95c1-d2b4ccc1109e","system_id":"levelo_inurba_marseille","lat":43.31355,"lon":5.38491,"is_reserved":false,"is_disabled":true,"rental_uris":{"android":"levelo://app?vid=faf4a15c-3b48-4ece-95c1-d2b4ccc1109e","ios":"levelo://app?vid=faf4a15c-3b48-4ece-95c1-d2b4ccc1109e"},"vehicle_type_id":"4","last_reported":1743073698,"current_range_meters":400,"station_id":"ce4bgt92rcd13ifvqcf0","pricing_plan_id":"cebpf4jnsgd1na2vs0mg"},{"bike_id":"c43e355b-0690-4172-9b8e-02d2bb02bcdd","system_id":"levelo_inurba_marseille","lat":43.24074,"lon":5.37757,"is_reserved":false,"is_disabled":true,"rental_uris":{"android":"levelo://app?vid=c43e355b-0690-4172-9b8e-02d2bb02bcdd","ios":"levelo://app?vid=c43e355b-0690-4172-9b8e-02d2bb02bcdd"},"vehicle_type_id":"4","last_reported":1743073698,"current_range_meters":400,"station_id":"ce4bhnp2rcd13ifvqgvg","pricing_plan_id":"cebpf4jnsgd1na2vs0mg"},{"bike_id":"d20584bf-0145-415e-be4e-d70e9c39a8eb","system_id":"levelo_inurba_marseille","lat":43.3254,"lon":5.41491,"is_reserved":false,"is_disabled":true,"rental_uris":{"android":"levelo://app?vid=d20584bf-0145-415e-be4e-d70e9c39a8eb","ios":"levelo://app?vid=d20584bf-0145-415e-be4e-d70e9c39a8eb"},"vehicle_type_id":"4","last_reported":1743073698,"current_range_meters":400,"station_id":"ce4bhq12rcd13ifvqhhg","pricing_plan_id":"cebpf4jnsgd1na2vs0mg"},{"bike_id":"8d029d9f-5e4c-41c8-8f66-c3b58e254d98","system_id":"levelo_inurba_marseille","lat":43.32551,"lon":5.41476,"is_reserved":false,"is_disabled":true,"rental_uris":{"android":"levelo://app?vid=8d029d9f-5e4c-41c8-8f66-c3b58e254d98","ios":"levelo://app?vid=8d029d9f-5e4c-41c8-8f66-c3b58e254d98"},"vehicle_type_id":"4","last_reported":1743073698,"current_range_meters":800,"station_id":"ce4bhq12rcd13ifvqhhg","pricing_plan_id":"cebpf4jnsgd1na2vs0mg"},{"bike_id":"f902cd99-2722-462c-96f8-b541d2e9e1c0","system_id":"levelo_inurba_marseille","lat":43.33606,"lon":5.4099,"is_reserved":false,"is_disabled":true,"rental_uris":{"android":"levelo://app?vid=f902cd99-2722-462c-96f8-b541d2e9e1c0","ios":"levelo://app?vid=f902cd99-2722-462c-96f8-b541d2e9e1c0"},"vehicle_type_id":"4","last_reported":1743073698,"current_range_meters":800,"station_id":"ce4bhqh2rcd13ifvqhmg","pricing_plan_id":"cebpf4jnsgd1na2vs0mg"},{"bike_id":"6de2ab79-f383-4609-ae1f-e0e25be966dd","system_id":"levelo_inurba_marseille","lat":43.31225,"lon":5.36863,"is_reserved":false,"is_disabled":true,"rental_uris":{"android":"levelo://app?vid=6de2ab79-f383-4609-ae1f-e0e25be966dd","ios":"levelo://app?vid=6de2ab79-f383-4609-ae1f-e0e25be966dd"},"vehicle_type_id":"4","last_reported":1743073698,"current_range_meters":1200,"station_id":"ce4bgl92rcd13ifvqbq0","pricing_plan_id":"cebpf4jnsgd1na2vs0mg"},{"bike_id":"46523931-5c2f-4929-8e03-c5c497f05c2d","system_id":"levelo_inurba_marseille","lat":43.29577,"lon":5.37523,"is_reserved":false,"is_disabled":true,"rental_uris":{"android":"levelo://app?vid=46523931-5c2f-4929-8e03-c5c497f05c2d","ios":"levelo://app?vid=46523931-5c2f-4929-8e03-c5c497f05c2d"},"vehicle_type_id":"4","last_reported":1743073698,"current_range_meters":1600,"station_id":"ce4bgh92rcd13ifvqb50","pricing_plan_id":"cebpf4jnsgd1na2vs0mg"},{"bike_id":"dd72a596-a8dd-484c-a5ad-755d8e3e6668","system_id":"levelo_inurba_marseille","lat":43.29618,"lon":5.3715,"is_reserved":false,"is_disabled":true,"rental_uris":{"android":"levelo://app?vid=dd72a596-a8dd-484c-a5ad-755d8e3e6668","ios":"levelo://app?vid=dd72a596-a8dd-484c-a5ad-755d8e3e6668"},"vehicle_type_id":"4","last_reported":1743073698,"current_range_meters":1600,"station_id":"ce4bgnh2rcd13ifvqc0g","pricing_plan_id":"cebpf4jnsgd1na2vs0mg"},{"bike_id":"b465a937-6ed3-4c46-94be-cfc36604a70b","system_id":"levelo_inurba_marseille","lat":43.286652,"lon":5.363473,"is_reserved":false,"is_disabled":true,"rental_uris":{"android":"levelo://app?vid=b465a937-6ed3-4c46-94be-cfc36604a70b","ios":"levelo://app?vid=b465a937-6ed3-4c46-94be-cfc36604a70b"},"vehicle_type_id":"4","last_reported":1743073698,"current_range_meters":1600,"station_id":"ce4bhah2rcd13ifvqej0","pricing_plan_id":"cebpf4jnsgd1na2vs0mg"},{"bike_id":"1a2fd17b-23a1-4efd-a79f-f5bcd99988d3","system_id":"levelo_inurba_marseille","lat":43.31225,"lon":5.36867,"is_reserved":false,"is_disabled":true,"rental_uris":{"android":"levelo://app?vid=1a2fd17b-23a1-4efd-a79f-f5bcd99988d3","ios":"levelo://app?vid=1a2fd17b-23a1-4efd-a79f-f5bcd99988d3"},"vehicle_type_id":"4","last_reported":1743073698,"current_range_meters":2000,"station_id":"ce4bgl92rcd13ifvqbq0","pricing_plan_id":"cebpf4jnsgd1na2vs0mg"},{"bike_id":"7ab31d46-4e4b-43a0-9600-ec4f7160db4d","system_id":"levelo_inurba_marseille","lat":43.289481,"lon":5.396486,"is_reserved":false,"is_disabled":true,"rental_uris":{"android":"levelo://app?vid=7ab31d46-4e4b-43a0-9600-ec4f7160db4d","ios":"levelo://app?vid=7ab31d46-4e4b-43a0-9600-ec4f7160db4d"},"vehicle_type_id":"4","last_reported":1743073698,"current_range_meters":2000,"station_id":"ce4bh3h2rcd13ifvqdn0","pricing_plan_id":"cebpf4jnsgd1na2vs0mg"},{"bike_id":"db47c5c8-76fe-47cb-946a-cd92e05c4729","system_id":"levelo_inurba_marseille","lat":43.27926,"lon":5.39559,"is_reserved":false,"is_disabled":true,"rental_uris":{"android":"levelo://app?vid=db47c5c8-76fe-47cb-946a-cd92e05c4729","ios":"levelo://app?vid=db47c5c8-76fe-47cb-946a-cd92e05c4729"},"vehicle_type_id":"4","last_reported":1743073698,"current_range_meters":2000,"station_id":"ce4bhf92rcd13ifvqf40","pricing_plan_id":"cebpf4jnsgd1na2vs0mg"},{"bike_id":"fd2c860a-0ea7-44a4-a95f-c783e89368cb","system_id":"levelo_inurba_marseille","lat":43.24651,"lon":5.38891,"is_reserved":false,"is_disabled":true,"rental_uris":{"android":"levelo://app?vid=fd2c860a-0ea7-44a4-a95f-c783e89368cb","ios":"levelo://app?vid=fd2c860a-0ea7-44a4-a95f-c783e89368cb"},"vehicle_type_id":"4","last_reported":1743073698,"current_range_meters":2000,"station_id":"ce4bhg12rcd13ifvqf60","pricing_plan_id":"cebpf4jnsgd1na2vs0mg"},{"bike_id":"aad5ea6d-34b8-4027-8252-864c6a392f65","system_id":"levelo_inurba_marseille","lat":43.23154,"lon":5.43708,"is_reserved":false,"is_disabled":true,"rental_uris":{"android":"levelo://app?vid=aad5ea6d-34b8-4027-8252-864c6a392f65","ios":"levelo://app?vid=aad5ea6d-34b8-4027-8252-864c6a392f65"},"vehicle_type_id":"4","last_reported":1743073698,"current_range_meters":2000,"station_id":"ce4bhmp2rcd13ifvqgog","pricing_plan_id":"cebpf4jnsgd1na2vs0mg"},{"bike_id":"2f2a6643-55f1-4b3d-b4e8-dc1b9a93ed6f","system_id":"levelo_inurba_marseille","lat":43.231717,"lon":5.399983,"is_reserved":false,"is_disabled":true,"rental_uris":{"android":"levelo://app?vid=2f2a6643-55f1-4b3d-b4e8-dc1b9a93ed6f","ios":"levelo://app?vid=2f2a6643-55f1-4b3d-b4e8-dc1b9a93ed6f"},"vehicle_type_id":"4","last_reported":1743073698,"current_range_meters":2000,"station_id":"ce4bhn12rcd13ifvqgqg","pricing_plan_id":"cebpf4jnsgd1na2vs0mg"},{"bike_id":"77823725-c761-49bc-902c-64c32b686ae7","system_id":"levelo_inurba_marseille","lat":43.23051,"lon":5.3549,"is_reserved":false,"is_disabled":true,"rental_uris":{"android":"levelo://app?vid=77823725-c761-49bc-902c-64c32b686ae7","ios":"levelo://app?vid=77823725-c761-49bc-902c-64c32b686ae7"},"vehicle_type_id":"4","last_reported":1743073698,"current_range_meters":2000,"station_id":"cpo3342slgdg3j2ifvpg","pricing_plan_id":"cebpf4jnsgd1na2vs0mg"},{"bike_id":"649e15fe-a47b-4cdd-9dcd-4374aca0a167","system_id":"levelo_inurba_marseille","lat":43.23179,"lon":5.39994,"is_reserved":false,"is_disabled":false,"rental_uris":{"android":"levelo://app?vid=649e15fe-a47b-4cdd-9dcd-4374aca0a167","ios":"levelo://app?vid=649e15fe-a47b-4cdd-9dcd-4374aca0a167"},"vehicle_type_id":"4","last_reported":1743073698,"current_range_meters":2800,"station_id":"ce4bhn12rcd13ifvqgqg","pricing_plan_id":"cebpf4jnsgd1na2vs0mg"},{"bike_id":"853a3d79-77bf-4075-b91a-04bdf699fa71","system_id":"levelo_inurba_marseille","lat":43.296257,"lon":5.381113,"is_reserved":false,"is_disabled":false,"rental_uris":{"android":"levelo://app?vid=853a3d79-77bf-4075-b91a-04bdf699fa71","ios":"levelo://app?vid=853a3d79-77bf-4075-b91a-04bdf699fa71"},"vehicle_type_id":"4","last_reported":1743073698,"current_range_meters":3200,"station_id":"ce4bgjh2rcd13ifvqbg0","pricing_plan_id":"cebpf4jnsgd1na2vs0mg"},{"bike_id":"ee28380f-2566-499f-8ab8-5a75cb1ed72f","system_id":"levelo_inurba_marseille","lat":43.288329,"lon":5.393258,"is_reserved":false,"is_disabled":false,"rental_uris":{"android":"levelo://app?vid=ee28380f-2566-499f-8ab8-5a75cb1ed72f","ios":"levelo://app?vid=ee28380f-2566-499f-8ab8-5a75cb1ed72f"},"vehicle_type_id":"4","last_reported":1743073698,"current_range_meters":3600,"station_id":"","pricing_plan_id":"cebpf4jnsgd1na2vs0mg"},{"bike_id":"9d03511b-c16e-490a-ae24-fb35727a5348","system_id":"levelo_inurba_marseille","lat":43.31223,"lon":5.36871,"is_reserved":false,"is_disabled":false,"rental_uris":{"android":"levelo://app?vid=9d03511b-c16e-490a-ae24-fb35727a5348","ios":"levelo://app?vid=9d03511b-c16e-490a-ae24-fb35727a5348"},"vehicle_type_id":"4","last_reported":1743073698,"current_range_meters":3600,"station_id":"ce4bgl92rcd13ifvqbq0","pricing_plan_id":"cebpf4jnsgd1na2vs0mg"},{"bike_id":"42d46155-300d-48ca-a8f5-51c4033182fc","system_id":"levelo_inurba_marseille","lat":43.295723,"lon":5.367476,"is_reserved":false,"is_disabled":false,"rental_uris":{"android":"levelo://app?vid=42d46155-300d-48ca-a8f5-51c4033182fc","ios":"levelo://app?vid=42d46155-300d-48ca-a8f5-51c4033182fc"},"vehicle_type_id":"4","last_reported":1743073698,"current_range_meters":3600,"station_id":"ce4bgph2rcd13ifvqc2g","pricing_plan_id":"cebpf4jnsgd1na2vs0mg"},{"bike_id":"4271e405-e65c-465e-81ee-e5416d99dcdf","system_id":"levelo_inurba_marseille","lat":43.301915,"lon":5.366294,"is_reserved":false,"is_disabled":false,"rental_uris":{"android":"levelo://app?vid=4271e405-e65c-465e-81ee-e5416d99dcdf","ios":"levelo://app?vid=4271e405-e65c-465e-81ee-e5416d99dcdf"},"vehicle_type_id":"4","last_reported":1743073698,"current_range_meters":3600,"station_id":"ce4bgrh2rcd13ifvqc8g","pricing_plan_id":"cebpf4jnsgd1na2vs0mg"},{"bike_id":"4ac961f0-b234-4a94-97e7-e0c783e6f36c","system_id":"levelo_inurba_marseille","lat":43.33593,"lon":5.41012,"is_reserved":false,"is_disabled":false,"rental_uris":{"android":"levelo://app?vid=4ac961f0-b234-4a94-97e7-e0c783e6f36c","ios":"levelo://app?vid=4ac961f0-b234-4a94-97e7-e0c783e6f36c"},"vehicle_type_id":"4","last_reported":1743073698,"current_range_meters":3600,"station_id":"ce4bhqh2rcd13ifvqhmg","pricing_plan_id":"cebpf4jnsgd1na2vs0mg"},{"bike_id":"9e78826b-cf68-4e54-8154-ed77796800b9","system_id":"levelo_inurba_marseille","lat":43.2417,"lon":5.36388,"is_reserved":false,"is_disabled":false,"rental_uris":{"android":"levelo://app?vid=9e78826b-cf68-4e54-8154-ed77796800b9","ios":"levelo://app?vid=9e78826b-cf68-4e54-8154-ed77796800b9"},"vehicle_type_id":"4","last_reported":1743073698,"current_range_meters":3600,"station_id":"cpo36qri1sfpv3e86is0","pricing_plan_id":"cebpf4jnsgd1na2vs0mg"},{"bike_id":"fe1cbbb5-003c-453b-bc8d-339d1ed11964","system_id":"levelo_inurba_marseille","lat":43.29513,"lon":5.39035,"is_reserved":false,"is_disabled":false,"rental_uris":{"android":"levelo://app?vid=fe1cbbb5-003c-453b-bc8d-339d1ed11964","ios":"levelo://app?vid=fe1cbbb5-003c-453b-bc8d-339d1ed11964"},"vehicle_type_id":"4","last_reported":1743073698,"current_range_meters":4000,"station_id":"ce4bh3p2rcd13ifvqdp0","pricing_plan_id":"cebpf4jnsgd1na2vs0mg"},{"bike_id":"fb2c901a-91c2-41de-b1b1-1ea77db4c9c4","system_id":"levelo_inurba_marseille","lat":43.29517,"lon":5.39037,"is_reserved":false,"is_disabled":false,"rental_uris":{"android":"levelo://app?vid=fb2c901a-91c2-41de-b1b1-1ea77db4c9c4","ios":"levelo://app?vid=fb2c901a-91c2-41de-b1b1-1ea77db4c9c4"},"vehicle_type_id":"4","last_reported":1743073698,"current_range_meters":4000,"station_id":"ce4bh3p2rcd13ifvqdp0","pricing_plan_id":"cebpf4jnsgd1na2vs0mg"},{"bike_id":"ab53c1bf-a771-40be-8fa4-5a07c4352a0b","system_id":"levelo_inurba_marseille","lat":43.26221,"lon":5.40449,"is_reserved":false,"is_disabled":false,"rental_uris":{"android":"levelo://app?vid=ab53c1bf-a771-40be-8fa4-5a07c4352a0b","ios":"levelo://app?vid=ab53c1bf-a771-40be-8fa4-5a07c4352a0b"},"vehicle_type_id":"4","last_reported":1743073698,"current_range_meters":4000,"station_id":"ce4bhmh2rcd13ifvqgmg","pricing_plan_id":"cebpf4jnsgd1na2vs0mg"},{"bike_id":"d33c0694-bb00-44dc-915d-d5e1131e3596","system_id":"levelo_inurba_marseille","lat":43.30946,"lon":5.39032,"is_reserved":false,"is_disabled":false,"rental_uris":{"android":"levelo://app?vid=d33c0694-bb00-44dc-915d-d5e1131e3596","ios":"levelo://app?vid=d33c0694-bb00-44dc-915d-d5e1131e3596"},"vehicle_type_id":"4","last_reported":1743073698,"current_range_meters":4400,"station_id":"ce4bgup2rcd13ifvqco0","pricing_plan_id":"cebpf4jnsgd1na2vs0mg"},{"bike_id":"067a574b-fca3-4ce0-9186-1e1d41a1ebe6","system_id":"levelo_inurba_marseille","lat":43.28031,"lon":5.3694,"is_reserved":false,"is_disabled":false,"rental_uris":{"android":"levelo://app?vid=067a574b-fca3-4ce0-9186-1e1d41a1ebe6","ios":"levelo://app?vid=067a574b-fca3-4ce0-9186-1e1d41a1ebe6"},"vehicle_type_id":"4","last_reported":1743073698,"current_range_meters":4400,"station_id":"ce4bha12rcd13ifvqef0","pricing_plan_id":"cebpf4jnsgd1na2vs0mg"},{"bike_id":"c64fe6a6-6a11-44d8-8409-6f3492f2a52d","system_id":"levelo_inurba_marseille","lat":43.2593,"lon":5.40912,"is_reserved":false,"is_disabled":false,"rental_uris":{"android":"levelo://app?vid=c64fe6a6-6a11-44d8-8409-6f3492f2a52d","ios":"levelo://app?vid=c64fe6a6-6a11-44d8-8409-6f3492f2a52d"},"vehicle_type_id":"4","last_reported":1743073698,"current_range_meters":4800,"station_id":"ce4bhm92rcd13ifvqglg","pricing_plan_id":"cebpf4jnsgd1na2vs0mg"},{"bike_id":"fa80fc51-8e5f-47cc-9334-a5097432c9b5","system_id":"levelo_inurba_marseille","lat":43.2318,"lon":5.39993,"is_reserved":false,"is_disabled":false,"rental_uris":{"android":"levelo://app?vid=fa80fc51-8e5f-47cc-9334-a5097432c9b5","ios":"levelo://app?vid=fa80fc51-8e5f-47cc-9334-a5097432c9b5"},"vehicle_type_id":"4","last_reported":1743073698,"current_range_meters":4800,"station_id":"ce4bhn12rcd13ifvqgqg","pricing_plan_id":"cebpf4jnsgd1na2vs0mg"},{"bike_id":"a5fb06d1-c469-4515-9522-548b956fd2b3","system_id":"levelo_inurba_marseille","lat":43.31729,"lon":5.39001,"is_reserved":false,"is_disabled":false,"rental_uris":{"android":"levelo://app?vid=a5fb06d1-c469-4515-9522-548b956fd2b3","ios":"levelo://app?vid=a5fb06d1-c469-4515-9522-548b956fd2b3"},"vehicle_type_id":"4","last_reported":1743073698,"current_range_meters":4800,"station_id":"ce4bhqp2rcd13ifvqhng","pricing_plan_id":"cebpf4jnsgd1na2vs0mg"},{"bike_id":"99122cd7-e025-4329-991d-c2d464c73009","system_id":"levelo_inurba_marseille","lat":43.28266,"lon":5.35062,"is_reserved":false,"is_disabled":false,"rental_uris":{"android":"levelo://app?vid=99122cd7-e025-4329-991d-c2d464c73009","ios":"levelo://app?vid=99122cd7-e025-4329-991d-c2d464c73009"},"vehicle_type_id":"4","last_reported":1743073698,"current_range_meters":5600,"station_id":"ce4bhbp2rcd13ifvqerg","pricing_plan_id":"cebpf4jnsgd1na2vs0mg"},{"bike_id":"04bf9c54-d28b-4a3a-8edd-2e8d1721c378","system_id":"levelo_inurba_marseille","lat":43.2791,"lon":5.39584,"is_reserved":false,"is_disabled":false,"rental_uris":{"android":"levelo://app?vid=04bf9c54-d28b-4a3a-8edd-2e8d1721c378","ios":"levelo://app?vid=04bf9c54-d28b-4a3a-8edd-2e8d1721c378"},"vehicle_type_id":"4","last_reported":1743073698,"current_range_meters":5600,"station_id":"ce4bhf92rcd13ifvqf40","pricing_plan_id":"cebpf4jnsgd1na2vs0mg"},{"bike_id":"d72aeb00-1a78-49c9-be77-40c77ba1a8a4","system_id":"levelo_inurba_marseille","lat":43.27198,"lon":5.3918,"is_reserved":false,"is_disabled":false,"rental_uris":{"android":"levelo://app?vid=d72aeb00-1a78-49c9-be77-40c77ba1a8a4","ios":"levelo://app?vid=d72aeb00-1a78-49c9-be77-40c77ba1a8a4"},"vehicle_type_id":"4","last_reported":1743073698,"current_range_meters":5600,"station_id":"ce4bhhp2rcd13ifvqfm0","pricing_plan_id":"cebpf4jnsgd1na2vs0mg"},{"bike_id":"e3ec053a-1b5f-4d63-8430-e83e3553bf0b","system_id":"levelo_inurba_marseille","lat":43.25818,"lon":5.39431,"is_reserved":false,"is_disabled":false,"rental_uris":{"android":"levelo://app?vid=e3ec053a-1b5f-4d63-8430-e83e3553bf0b","ios":"levelo://app?vid=e3ec053a-1b5f-4d63-8430-e83e3553bf0b"},"vehicle_type_id":"4","last_reported":1743073698,"current_range_meters":5600,"station_id":"ce4bhip2rcd13ifvqft0","pricing_plan_id":"cebpf4jnsgd1na2vs0mg"},{"bike_id":"03b836a2-30c9-4d97-84ce-cae6504c3c84","system_id":"levelo_inurba_marseille","lat":43.32102,"lon":5.36772,"is_reserved":false,"is_disabled":false,"rental_uris":{"android":"levelo://app?vid=03b836a2-30c9-4d97-84ce-cae6504c3c84","ios":"levelo://app?vid=03b836a2-30c9-4d97-84ce-cae6504c3c84"},"vehicle_type_id":"4","last_reported":1743073698,"current_range_meters":5600,"station_id":"ce4bhrh2rcd13ifvqhug","pricing_plan_id":"cebpf4jnsgd1na2vs0mg"},{"bike_id":"9e41f1fc-e88b-4a8c-90c2-48f21cc130f7","system_id":"levelo_inurba_marseille","lat":43.29572,"lon":5.37517,"is_reserved":false,"is_disabled":false,"rental_uris":{"android":"levelo://app?vid=9e41f1fc-e88b-4a8c-90c2-48f21cc130f7","ios":"levelo://app?vid=9e41f1fc-e88b-4a8c-90c2-48f21cc130f7"},"vehicle_type_id":"4","last_reported":1743073698,"current_range_meters":6000,"station_id":"ce4bgh92rcd13ifvqb50","pricing_plan_id":"cebpf4jnsgd1na2vs0mg"},{"bike_id":"1bdb47d8-a4c7-4118-bdaf-4834ca1aaf27","system_id":"levelo_inurba_marseille","lat":43.30544,"lon":5.36535,"is_reserved":false,"is_disabled":false,"rental_uris":{"android":"levelo://app?vid=1bdb47d8-a4c7-4118-bdaf-4834ca1aaf27","ios":"levelo://app?vid=1bdb47d8-a4c7-4118-bdaf-4834ca1aaf27"},"vehicle_type_id":"4","last_reported":1743073698,"current_range_meters":6000,"station_id":"ce4bgs12rcd13ifvqcag","pricing_plan_id":"cebpf4jnsgd1na2vs0mg"},{"bike_id":"1e0b2636-48a1-4292-92c0-73b807651a12","system_id":"levelo_inurba_marseille","lat":43.289703,"lon":5.37838,"is_reserved":false,"is_disabled":false,"rental_uris":{"android":"levelo://app?vid=1e0b2636-48a1-4292-92c0-73b807651a12","ios":"levelo://app?vid=1e0b2636-48a1-4292-92c0-73b807651a12"},"vehicle_type_id":"4","last_reported":1743073698,"current_range_meters":6400,"station_id":"ce4bgip2rcd13ifvqbb0","pricing_plan_id":"cebpf4jnsgd1na2vs0mg"},{"bike_id":"d3aa7009-a183-4682-af4b-3e1987249dba","system_id":"levelo_inurba_marseille","lat":43.30911,"lon":5.36848,"is_reserved":false,"is_disabled":false,"rental_uris":{"android":"levelo://app?vid=d3aa7009-a183-4682-af4b-3e1987249dba","ios":"levelo://app?vid=d3aa7009-a183-4682-af4b-3e1987249dba"},"vehicle_type_id":"4","last_reported":1743073698,"current_range_meters":6400,"station_id":"ce4bgn92rcd13ifvqbvg","pricing_plan_id":"cebpf4jnsgd1na2vs0mg"},{"bike_id":"918814ca-5e98-4992-8bbe-4f04fdfb2cc7","system_id":"levelo_inurba_marseille","lat":43.30529,"lon":5.36683,"is_reserved":false,"is_disabled":false,"rental_uris":{"android":"levelo://app?vid=918814ca-5e98-4992-8bbe-4f04fdfb2cc7","ios":"levelo://app?vid=918814ca-5e98-4992-8bbe-4f04fdfb2cc7"},"vehicle_type_id":"4","last_reported":1743073698,"current_range_meters":6400,"station_id":"ce4bgrp2rcd13ifvqc9g","pricing_plan_id":"cebpf4jnsgd1na2vs0mg"},{"bike_id":"56506e9c-df9f-450e-bb06-2924deaa86ed","system_id":"levelo_inurba_marseille","lat":43.3053,"lon":5.36539,"is_reserved":false,"is_disabled":false,"rental_uris":{"android":"levelo://app?vid=56506e9c-df9f-450e-bb06-2924deaa86ed","ios":"levelo://app?vid=56506e9c-df9f-450e-bb06-2924deaa86ed"},"vehicle_type_id":"4","last_reported":1743073698,"current_range_meters":6400,"station_id":"ce4bgs12rcd13ifvqcag","pricing_plan_id":"cebpf4jnsgd1na2vs0mg"},{"bike_id":"dd35b633-c25b-43c9-9aca-c4a0b19b18a2","system_id":"levelo_inurba_marseille","lat":43.31508,"lon":5.37303,"is_reserved":false,"is_disabled":false,"rental_uris":{"android":"levelo://app?vid=dd35b633-c25b-43c9-9aca-c4a0b19b18a2","ios":"levelo://app?vid=dd35b633-c25b-43c9-9aca-c4a0b19b18a2"},"vehicle_type_id":"4","last_reported":1743073698,"current_range_meters":6400,"station_id":"ce4bgt12rcd13ifvqcd0","pricing_plan_id":"cebpf4jnsgd1na2vs0mg"},{"bike_id":"4d6d8a3e-5cdb-4d7b-bbad-abcfee7897a7","system_id":"levelo_inurba_marseille","lat":43.28031,"lon":5.3695,"is_reserved":false,"is_disabled":false,"rental_uris":{"android":"levelo://app?vid=4d6d8a3e-5cdb-4d7b-bbad-abcfee7897a7","ios":"levelo://app?vid=4d6d8a3e-5cdb-4d7b-bbad-abcfee7897a7"},"vehicle_type_id":"4","last_reported":1743073698,"current_range_meters":6400,"station_id":"ce4bha12rcd13ifvqef0","pricing_plan_id":"cebpf4jnsgd1na2vs0mg"},{"bike_id":"748655c8-1ced-4b23-8157-fd8b7fba7e51","system_id":"levelo_inurba_marseille","lat":43.2792,"lon":5.39587,"is_reserved":false,"is_disabled":false,"rental_uris":{"android":"levelo://app?vid=748655c8-1ced-4b23-8157-fd8b7fba7e51","ios":"levelo://app?vid=748655c8-1ced-4b23-8157-fd8b7fba7e51"},"vehicle_type_id":"4","last_reported":1743073698,"current_range_meters":6400,"station_id":"ce4bhf92rcd13ifvqf40","pricing_plan_id":"cebpf4jnsgd1na2vs0mg"},{"bike_id":"55c9fc93-1e30-49c4-95c3-6fe042d6163b","system_id":"levelo_inurba_marseille","lat":43.25863,"lon":5.39896,"is_reserved":false,"is_disabled":false,"rental_uris":{"android":"levelo://app?vid=55c9fc93-1e30-49c4-95c3-6fe042d6163b","ios":"levelo://app?vid=55c9fc93-1e30-49c4-95c3-6fe042d6163b"},"vehicle_type_id":"4","last_reported":1743073698,"current_range_meters":6400,"station_id":"ce4bhl92rcd13ifvqghg","pricing_plan_id":"cebpf4jnsgd1na2vs0mg"},{"bike_id":"e40ca3db-9cd3-4e7c-a6c9-9922c73b5079","system_id":"levelo_inurba_marseille","lat":43.303643,"lon":5.424783,"is_reserved":false,"is_disabled":false,"rental_uris":{"android":"levelo://app?vid=e40ca3db-9cd3-4e7c-a6c9-9922c73b5079","ios":"levelo://app?vid=e40ca3db-9cd3-4e7c-a6c9-9922c73b5079"},"vehicle_type_id":"4","last_reported":1743073698,"current_range_meters":6400,"station_id":"ce4bhoh2rcd13ifvqh6g","pricing_plan_id":"cebpf4jnsgd1na2vs0mg"},{"bike_id":"8a9602e7-e6f2-4dac-845f-cea224e49dd5","system_id":"levelo_inurba_marseille","lat":43.23066,"lon":5.354912,"is_reserved":false,"is_disabled":false,"rental_uris":{"android":"levelo://app?vid=8a9602e7-e6f2-4dac-845f-cea224e49dd5","ios":"levelo://app?vid=8a9602e7-e6f2-4dac-845f-cea224e49dd5"},"vehicle_type_id":"4","last_reported":1743073698,"current_range_meters":6400,"station_id":"cpo3342slgdg3j2ifvpg","pricing_plan_id":"cebpf4jnsgd1na2vs0mg"},{"bike_id":"41e5f267-ce12-4d49-85f8-a37604430f8e","system_id":"levelo_inurba_marseille","lat":43.229354,"lon":5.353909,"is_reserved":false,"is_disabled":false,"rental_uris":{"android":"levelo://app?vid=41e5f267-ce12-4d49-85f8-a37604430f8e","ios":"levelo://app?vid=41e5f267-ce12-4d49-85f8-a37604430f8e"},"vehicle_type_id":"4","last_reported":1743073698,"current_range_meters":6400,"station_id":"cpo3532slgdg3j2ikp40","pricing_plan_id":"cebpf4jnsgd1na2vs0mg"},{"bike_id":"331e2c5f-f385-49bd-9735-220714185555","system_id":"levelo_inurba_marseille","lat":43.29293,"lon":5.37447,"is_reserved":false,"is_disabled":false,"rental_uris":{"android":"levelo://app?vid=331e2c5f-f385-49bd-9735-220714185555","ios":"levelo://app?vid=331e2c5f-f385-49bd-9735-220714185555"},"vehicle_type_id":"4","last_reported":1743073698,"current_range_meters":6800,"station_id":"ce4bgi12rcd13ifvqb70","pricing_plan_id":"cebpf4jnsgd1na2vs0mg"},{"bike_id":"1285826f-14e1-4d6b-a0d8-2066b06564bd","system_id":"levelo_inurba_marseille","lat":43.30911,"lon":5.36853,"is_reserved":false,"is_disabled":false,"rental_uris":{"android":"levelo://app?vid=1285826f-14e1-4d6b-a0d8-2066b06564bd","ios":"levelo://app?vid=1285826f-14e1-4d6b-a0d8-2066b06564bd"},"vehicle_type_id":"4","last_reported":1743073698,"current_range_meters":6800,"station_id":"ce4bgn92rcd13ifvqbvg","pricing_plan_id":"cebpf4jnsgd1na2vs0mg"},{"bike_id":"d6f51450-c5fa-4bbc-b29b-77b38403e093","system_id":"levelo_inurba_marseille","lat":43.3149,"lon":5.373,"is_reserved":false,"is_disabled":false,"rental_uris":{"android":"levelo://app?vid=d6f51450-c5fa-4bbc-b29b-77b38403e093","ios":"levelo://app?vid=d6f51450-c5fa-4bbc-b29b-77b38403e093"},"vehicle_type_id":"4","last_reported":1743073698,"current_range_meters":6800,"station_id":"ce4bgt12rcd13ifvqcd0","pricing_plan_id":"cebpf4jnsgd1na2vs0mg"},{"bike_id":"3cf930b2-36f0-431a-987f-3761b3917c58","system_id":"levelo_inurba_marseille","lat":43.31686,"lon":5.40471,"is_reserved":false,"is_disabled":false,"rental_uris":{"android":"levelo://app?vid=3cf930b2-36f0-431a-987f-3761b3917c58","ios":"levelo://app?vid=3cf930b2-36f0-431a-987f-3761b3917c58"},"vehicle_type_id":"4","last_reported":1743073698,"current_range_meters":6800,"station_id":"ce4bh012rcd13ifvqd00","pricing_plan_id":"cebpf4jnsgd1na2vs0mg"},{"bike_id":"9298dff5-361c-4e85-b0c7-f06628b244ab","system_id":"levelo_inurba_marseille","lat":43.29791,"lon":5.39344,"is_reserved":false,"is_disabled":false,"rental_uris":{"android":"levelo://app?vid=9298dff5-361c-4e85-b0c7-f06628b244ab","ios":"levelo://app?vid=9298dff5-361c-4e85-b0c7-f06628b244ab"},"vehicle_type_id":"4","last_reported":1743073698,"current_range_meters":6800,"station_id":"chh1huq6cuj3fo74tm60","pricing_plan_id":"cebpf4jnsgd1na2vs0mg"},{"bike_id":"1dd765a9-64b4-439c-a196-df55419cc971","system_id":"levelo_inurba_marseille","lat":43.241657,"lon":5.363918,"is_reserved":false,"is_disabled":false,"rental_uris":{"android":"levelo://app?vid=1dd765a9-64b4-439c-a196-df55419cc971","ios":"levelo://app?vid=1dd765a9-64b4-439c-a196-df55419cc971"},"vehicle_type_id":"4","last_reported":1743073698,"current_range_meters":6800,"station_id":"cpo36qri1sfpv3e86is0","pricing_plan_id":"cebpf4jnsgd1na2vs0mg"},{"bike_id":"da86d13a-aac7-4686-b16e-eb03ac38b558","system_id":"levelo_inurba_marseille","lat":43.29911,"lon":5.37452,"is_reserved":false,"is_disabled":false,"rental_uris":{"android":"levelo://app?vid=da86d13a-aac7-4686-b16e-eb03ac38b558","ios":"levelo://app?vid=da86d13a-aac7-4686-b16e-eb03ac38b558"},"vehicle_type_id":"4","last_reported":1743073698,"current_range_meters":7200,"station_id":"ce4bgjh2rcd13ifvqbg0","pricing_plan_id":"cebpf4jnsgd1na2vs0mg"},{"bike_id":"794490d5-013f-4f87-8efd-6a908fec090d","system_id":"levelo_inurba_marseille","lat":43.29843,"lon":5.3627,"is_reserved":false,"is_disabled":false,"rental_uris":{"android":"levelo://app?vid=794490d5-013f-4f87-8efd-6a908fec090d","ios":"levelo://app?vid=794490d5-013f-4f87-8efd-6a908fec090d"},"vehicle_type_id":"4","last_reported":1743073698,"current_range_meters":7200,"station_id":"ce4bgpp2rcd13ifvqc3g","pricing_plan_id":"cebpf4jnsgd1na2vs0mg"},{"bike_id":"8f4c6599-c57c-47f3-b859-da4512b39b4a","system_id":"levelo_inurba_marseille","lat":43.305364,"lon":5.365329,"is_reserved":false,"is_disabled":false,"rental_uris":{"android":"levelo://app?vid=8f4c6599-c57c-47f3-b859-da4512b39b4a","ios":"levelo://app?vid=8f4c6599-c57c-47f3-b859-da4512b39b4a"},"vehicle_type_id":"4","last_reported":1743073698,"current_range_meters":7200,"station_id":"ce4bgs12rcd13ifvqcag","pricing_plan_id":"cebpf4jnsgd1na2vs0mg"},{"bike_id":"843ccbe8-0c5b-46de-b39c-b437250640f0","system_id":"levelo_inurba_marseille","lat":43.26025,"lon":5.37547,"is_reserved":false,"is_disabled":false,"rental_uris":{"android":"levelo://app?vid=843ccbe8-0c5b-46de-b39c-b437250640f0","ios":"levelo://app?vid=843ccbe8-0c5b-46de-b39c-b437250640f0"},"vehicle_type_id":"4","last_reported":1743073698,"current_range_meters":7200,"station_id":"ce4bhgh2rcd13ifvqfa0","pricing_plan_id":"cebpf4jnsgd1na2vs0mg"},{"bike_id":"3c9b6934-2824-41e9-8859-111b5e71b5a6","system_id":"levelo_inurba_marseille","lat":43.23137,"lon":5.43709,"is_reserved":false,"is_disabled":false,"rental_uris":{"android":"levelo://app?vid=3c9b6934-2824-41e9-8859-111b5e71b5a6","ios":"levelo://app?vid=3c9b6934-2824-41e9-8859-111b5e71b5a6"},"vehicle_type_id":"4","last_reported":1743073698,"current_range_meters":7200,"station_id":"ce4bhmp2rcd13ifvqgog","pricing_plan_id":"cebpf4jnsgd1na2vs0mg"},{"bike_id":"d45a2f6c-957b-46cd-bd89-ee8e58d1536e","system_id":"levelo_inurba_marseille","lat":43.27737,"lon":5.40785,"is_reserved":false,"is_disabled":false,"rental_uris":{"android":"levelo://app?vid=d45a2f6c-957b-46cd-bd89-ee8e58d1536e","ios":"levelo://app?vid=d45a2f6c-957b-46cd-bd89-ee8e58d1536e"},"vehicle_type_id":"4","last_reported":1743073698,"current_range_meters":8000,"station_id":"","pricing_plan_id":"cebpf4jnsgd1na2vs0mg"},{"bike_id":"fe418eef-4f09-4a53-9796-ac0897f5d0dc","system_id":"levelo_inurba_marseille","lat":43.27418,"lon":5.39405,"is_reserved":false,"is_disabled":false,"rental_uris":{"android":"levelo://app?vid=fe418eef-4f09-4a53-9796-ac0897f5d0dc","ios":"levelo://app?vid=fe418eef-4f09-4a53-9796-ac0897f5d0dc"},"vehicle_type_id":"4","last_reported":1743073698,"current_range_meters":8000,"station_id":"ce4bhdp2rcd13ifvqf20","pricing_plan_id":"cebpf4jnsgd1na2vs0mg"},{"bike_id":"cc031383-15ba-4cd5-a2b5-28b25e7e4869","system_id":"levelo_inurba_marseille","lat":43.27901,"lon":5.39585,"is_reserved":false,"is_disabled":false,"rental_uris":{"android":"levelo://app?vid=cc031383-15ba-4cd5-a2b5-28b25e7e4869","ios":"levelo://app?vid=cc031383-15ba-4cd5-a2b5-28b25e7e4869"},"vehicle_type_id":"4","last_reported":1743073698,"current_range_meters":8000,"station_id":"ce4bhf92rcd13ifvqf40","pricing_plan_id":"cebpf4jnsgd1na2vs0mg"},{"bike_id":"e4da3e84-b2d2-487a-9e61-555ac0256fc0","system_id":"levelo_inurba_marseille","lat":43.26956,"lon":5.38623,"is_reserved":false,"is_disabled":false,"rental_uris":{"android":"levelo://app?vid=e4da3e84-b2d2-487a-9e61-555ac0256fc0","ios":"levelo://app?vid=e4da3e84-b2d2-487a-9e61-555ac0256fc0"},"vehicle_type_id":"4","last_reported":1743073698,"current_range_meters":8000,"station_id":"ce4bhh92rcd13ifvqfh0","pricing_plan_id":"cebpf4jnsgd1na2vs0mg"},{"bike_id":"1d004d3e-c2e8-4880-bf1e-259b75897876","system_id":"levelo_inurba_marseille","lat":43.23147,"lon":5.43725,"is_reserved":false,"is_disabled":false,"rental_uris":{"android":"levelo://app?vid=1d004d3e-c2e8-4880-bf1e-259b75897876","ios":"levelo://app?vid=1d004d3e-c2e8-4880-bf1e-259b75897876"},"vehicle_type_id":"4","last_reported":1743073698,"current_range_meters":8000,"station_id":"ce4bhmp2rcd13ifvqgog","pricing_plan_id":"cebpf4jnsgd1na2vs0mg"},{"bike_id":"84a7a785-5392-42bc-8088-fb903bcc7f5c","system_id":"levelo_inurba_marseille","lat":43.23057,"lon":5.3547,"is_reserved":false,"is_disabled":false,"rental_uris":{"android":"levelo://app?vid=84a7a785-5392-42bc-8088-fb903bcc7f5c","ios":"levelo://app?vid=84a7a785-5392-42bc-8088-fb903bcc7f5c"},"vehicle_type_id":"4","last_reported":1743073698,"current_range_meters":8000,"station_id":"cpo3342slgdg3j2ifvpg","pricing_plan_id":"cebpf4jnsgd1na2vs0mg"},{"bike_id":"85d0fa0c-b5b9-41cd-ba43-951901672dab","system_id":"levelo_inurba_marseille","lat":43.25604,"lon":5.38964,"is_reserved":false,"is_disabled":false,"rental_uris":{"android":"levelo://app?vid=85d0fa0c-b5b9-41cd-ba43-951901672dab","ios":"levelo://app?vid=85d0fa0c-b5b9-41cd-ba43-951901672dab"},"vehicle_type_id":"4","last_reported":1743073698,"current_range_meters":8400,"station_id":"","pricing_plan_id":"cebpf4jnsgd1na2vs0mg"},{"bike_id":"dc8ccdc9-a018-4504-b0a9-676297905591","system_id":"levelo_inurba_marseille","lat":43.2929,"lon":5.36985,"is_reserved":false,"is_disabled":false,"rental_uris":{"android":"levelo://app?vid=dc8ccdc9-a018-4504-b0a9-676297905591","ios":"levelo://app?vid=dc8ccdc9-a018-4504-b0a9-676297905591"},"vehicle_type_id":"4","last_reported":1743073698,"current_range_meters":8400,"station_id":"","pricing_plan_id":"cebpf4jnsgd1na2vs0mg"},{"bike_id":"3667aa9f-3a81-49da-9651-20ee1a18557d","system_id":"levelo_inurba_marseille","lat":43.29289,"lon":5.37446,"is_reserved":false,"is_disabled":false,"rental_uris":{"android":"levelo://app?vid=3667aa9f-3a81-49da-9651-20ee1a18557d","ios":"levelo://app?vid=3667aa9f-3a81-49da-9651-20ee1a18557d"},"vehicle_type_id":"4","last_reported":1743073698,"current_range_meters":8400,"station_id":"ce4bgi12rcd13ifvqb70","pricing_plan_id":"cebpf4jnsgd1na2vs0mg"},{"bike_id":"813f18ed-22bd-46a4-bbbd-1a4b45fcd91d","system_id":"levelo_inurba_marseille","lat":43.27909,"lon":5.39578,"is_reserved":false,"is_disabled":false,"rental_uris":{"android":"levelo://app?vid=813f18ed-22bd-46a4-bbbd-1a4b45fcd91d","ios":"levelo://app?vid=813f18ed-22bd-46a4-bbbd-1a4b45fcd91d"},"vehicle_type_id":"4","last_reported":1743073698,"current_range_meters":8400,"station_id":"ce4bhf92rcd13ifvqf40","pricing_plan_id":"cebpf4jnsgd1na2vs0mg"},{"bike_id":"0a861920-d833-4216-9f12-ff2b5bca0033","system_id":"levelo_inurba_marseille","lat":43.26024,"lon":5.37548,"is_reserved":false,"is_disabled":false,"rental_uris":{"android":"levelo://app?vid=0a861920-d833-4216-9f12-ff2b5bca0033","ios":"levelo://app?vid=0a861920-d833-4216-9f12-ff2b5bca0033"},"vehicle_type_id":"4","last_reported":1743073698,"current_range_meters":8400,"station_id":"ce4bhgh2rcd13ifvqfa0","pricing_plan_id":"cebpf4jnsgd1na2vs0mg"},{"bike_id":"569ad41f-a2d9-485a-a5d6-02c67361aa28","system_id":"levelo_inurba_marseille","lat":43.2501,"lon":5.38919,"is_reserved":false,"is_disabled":false,"rental_uris":{"android":"levelo://app?vid=569ad41f-a2d9-485a-a5d6-02c67361aa28","ios":"levelo://app?vid=569ad41f-a2d9-485a-a5d6-02c67361aa28"},"vehicle_type_id":"4","last_reported":1743073698,"current_range_meters":8400,"station_id":"ce4bhgp2rcd13ifvqfd0","pricing_plan_id":"cebpf4jnsgd1na2vs0mg"},{"bike_id":"ae2ef5ba-cfcc-4056-918b-033aea4001f8","system_id":"levelo_inurba_marseille","lat":43.2396,"lon":5.36634,"is_reserved":false,"is_disabled":false,"rental_uris":{"android":"levelo://app?vid=ae2ef5ba-cfcc-4056-918b-033aea4001f8","ios":"levelo://app?vid=ae2ef5ba-cfcc-4056-918b-033aea4001f8"},"vehicle_type_id":"4","last_reported":1743073698,"current_range_meters":8400,"station_id":"ce4bhi12rcd13ifvqfp0","pricing_plan_id":"cebpf4jnsgd1na2vs0mg"},{"bike_id":"9b0db4f1-c6a1-4ca7-86c5-ec1daffe0ea2","system_id":"levelo_inurba_marseille","lat":43.25088,"lon":5.39517,"is_reserved":false,"is_disabled":false,"rental_uris":{"android":"levelo://app?vid=9b0db4f1-c6a1-4ca7-86c5-ec1daffe0ea2","ios":"levelo://app?vid=9b0db4f1-c6a1-4ca7-86c5-ec1daffe0ea2"},"vehicle_type_id":"4","last_reported":1743073698,"current_range_meters":8400,"station_id":"ce4bhm12rcd13ifvqgkg","pricing_plan_id":"cebpf4jnsgd1na2vs0mg"},{"bike_id":"1ff40e0c-f2ee-4fb7-ad16-546b5863c0bd","system_id":"levelo_inurba_marseille","lat":43.22936,"lon":5.35374,"is_reserved":false,"is_disabled":false,"rental_uris":{"android":"levelo://app?vid=1ff40e0c-f2ee-4fb7-ad16-546b5863c0bd","ios":"levelo://app?vid=1ff40e0c-f2ee-4fb7-ad16-546b5863c0bd"},"vehicle_type_id":"4","last_reported":1743073698,"current_range_meters":8400,"station_id":"cpo3532slgdg3j2ikp40","pricing_plan_id":"cebpf4jnsgd1na2vs0mg"},{"bike_id":"18460cf5-915d-48eb-8bb6-4a7b73794a0c","system_id":"levelo_inurba_marseille","lat":43.31258,"lon":5.36804,"is_reserved":false,"is_disabled":false,"rental_uris":{"android":"levelo://app?vid=18460cf5-915d-48eb-8bb6-4a7b73794a0c","ios":"levelo://app?vid=18460cf5-915d-48eb-8bb6-4a7b73794a0c"},"vehicle_type_id":"4","last_reported":1743073698,"current_range_meters":8800,"station_id":"","pricing_plan_id":"cebpf4jnsgd1na2vs0mg"},{"bike_id":"96bf76e0-f7a4-4314-ae05-cb855ab4549b","system_id":"levelo_inurba_marseille","lat":43.29525,"lon":5.39037,"is_reserved":false,"is_disabled":false,"rental_uris":{"android":"levelo://app?vid=96bf76e0-f7a4-4314-ae05-cb855ab4549b","ios":"levelo://app?vid=96bf76e0-f7a4-4314-ae05-cb855ab4549b"},"vehicle_type_id":"4","last_reported":1743073698,"current_range_meters":8800,"station_id":"ce4bh3p2rcd13ifvqdp0","pricing_plan_id":"cebpf4jnsgd1na2vs0mg"},{"bike_id":"80a84982-5aee-4ea6-af12-554f9c8652e7","system_id":"levelo_inurba_marseille","lat":43.28268,"lon":5.35065,"is_reserved":false,"is_disabled":false,"rental_uris":{"android":"levelo://app?vid=80a84982-5aee-4ea6-af12-554f9c8652e7","ios":"levelo://app?vid=80a84982-5aee-4ea6-af12-554f9c8652e7"},"vehicle_type_id":"4","last_reported":1743073698,"current_range_meters":8800,"station_id":"ce4bhbp2rcd13ifvqerg","pricing_plan_id":"cebpf4jnsgd1na2vs0mg"},{"bike_id":"49a77b57-0e61-4a5d-bd8d-3f7e3a8cf2fb","system_id":"levelo_inurba_marseille","lat":43.27407,"lon":5.39389,"is_reserved":false,"is_disabled":false,"rental_uris":{"android":"levelo://app?vid=49a77b57-0e61-4a5d-bd8d-3f7e3a8cf2fb","ios":"levelo://app?vid=49a77b57-0e61-4a5d-bd8d-3f7e3a8cf2fb"},"vehicle_type_id":"4","last_reported":1743073698,"current_range_meters":8800,"station_id":"ce4bhdp2rcd13ifvqf20","pricing_plan_id":"cebpf4jnsgd1na2vs0mg"},{"bike_id":"5b2118ab-52fe-4b4d-aa8d-a690d39ec9fa","system_id":"levelo_inurba_marseille","lat":43.27916,"lon":5.39578,"is_reserved":false,"is_disabled":false,"rental_uris":{"android":"levelo://app?vid=5b2118ab-52fe-4b4d-aa8d-a690d39ec9fa","ios":"levelo://app?vid=5b2118ab-52fe-4b4d-aa8d-a690d39ec9fa"},"vehicle_type_id":"4","last_reported":1743073698,"current_range_meters":8800,"station_id":"ce4bhf92rcd13ifvqf40","pricing_plan_id":"cebpf4jnsgd1na2vs0mg"},{"bike_id":"3b8ca5b2-d10b-41b0-81f0-efb17d606a71","system_id":"levelo_inurba_marseille","lat":43.27677,"lon":5.3887,"is_reserved":false,"is_disabled":false,"rental_uris":{"android":"levelo://app?vid=3b8ca5b2-d10b-41b0-81f0-efb17d606a71","ios":"levelo://app?vid=3b8ca5b2-d10b-41b0-81f0-efb17d606a71"},"vehicle_type_id":"4","last_reported":1743073698,"current_range_meters":8800,"station_id":"ce4bhi12rcd13ifvqfo0","pricing_plan_id":"cebpf4jnsgd1na2vs0mg"},{"bike_id":"7813f42a-8d11-4b2a-b077-be9650363461","system_id":"levelo_inurba_marseille","lat":43.23139,"lon":5.43717,"is_reserved":false,"is_disabled":false,"rental_uris":{"android":"levelo://app?vid=7813f42a-8d11-4b2a-b077-be9650363461","ios":"levelo://app?vid=7813f42a-8d11-4b2a-b077-be9650363461"},"vehicle_type_id":"4","last_reported":1743073698,"current_range_meters":8800,"station_id":"ce4bhmp2rcd13ifvqgog","pricing_plan_id":"cebpf4jnsgd1na2vs0mg"},{"bike_id":"55b51a9d-191b-45d1-a483-6ab270f6b73c","system_id":"levelo_inurba_marseille","lat":43.27948,"lon":5.41042,"is_reserved":false,"is_disabled":false,"rental_uris":{"android":"levelo://app?vid=55b51a9d-191b-45d1-a483-6ab270f6b73c","ios":"levelo://app?vid=55b51a9d-191b-45d1-a483-6ab270f6b73c"},"vehicle_type_id":"4","last_reported":1743073698,"current_range_meters":8800,"station_id":"ce4bhnp2rcd13ifvqh0g","pricing_plan_id":"cebpf4jnsgd1na2vs0mg"},{"bike_id":"49927d1f-4d23-4615-a85f-a753358b1839","system_id":"levelo_inurba_marseille","lat":43.30568,"lon":5.36509,"is_reserved":false,"is_disabled":false,"rental_uris":{"android":"levelo://app?vid=49927d1f-4d23-4615-a85f-a753358b1839","ios":"levelo://app?vid=49927d1f-4d23-4615-a85f-a753358b1839"},"vehicle_type_id":"4","last_reported":1743073698,"current_range_meters":9200,"station_id":"ce4bgs12rcd13ifvqcag","pricing_plan_id":"cebpf4jnsgd1na2vs0mg"},{"bike_id":"f35c8dac-946a-4808-9e5d-c62d8a387844","system_id":"levelo_inurba_marseille","lat":43.30462,"lon":5.37909,"is_reserved":false,"is_disabled":false,"rental_uris":{"android":"levelo://app?vid=f35c8dac-946a-4808-9e5d-c62d8a387844","ios":"levelo://app?vid=f35c8dac-946a-4808-9e5d-c62d8a387844"},"vehicle_type_id":"4","last_reported":1743073698,"current_range_meters":9200,"station_id":"ce4bgup2rcd13ifvqcn0","pricing_plan_id":"cebpf4jnsgd1na2vs0mg"},{"bike_id":"3ad3f5bb-8be2-4ee0-8e8b-8110ae319511","system_id":"levelo_inurba_marseille","lat":43.26667,"lon":5.38267,"is_reserved":false,"is_disabled":false,"rental_uris":{"android":"levelo://app?vid=3ad3f5bb-8be2-4ee0-8e8b-8110ae319511","ios":"levelo://app?vid=3ad3f5bb-8be2-4ee0-8e8b-8110ae319511"},"vehicle_type_id":"4","last_reported":1743073698,"current_range_meters":9200,"station_id":"ce4bhg92rcd13ifvqf90","pricing_plan_id":"cebpf4jnsgd1na2vs0mg"},{"bike_id":"be7f81f9-5d36-4452-9ec5-693eaae7d6d1","system_id":"levelo_inurba_marseille","lat":43.23187,"lon":5.39993,"is_reserved":false,"is_disabled":false,"rental_uris":{"android":"levelo://app?vid=be7f81f9-5d36-4452-9ec5-693eaae7d6d1","ios":"levelo://app?vid=be7f81f9-5d36-4452-9ec5-693eaae7d6d1"},"vehicle_type_id":"4","last_reported":1743073698,"current_range_meters":9200,"station_id":"ce4bhn12rcd13ifvqgqg","pricing_plan_id":"cebpf4jnsgd1na2vs0mg"},{"bike_id":"4a47f720-7094-498c-8e0e-575db4b6b400","system_id":"levelo_inurba_marseille","lat":43.28083,"lon":5.42599,"is_reserved":false,"is_disabled":false,"rental_uris":{"android":"levelo://app?vid=4a47f720-7094-498c-8e0e-575db4b6b400","ios":"levelo://app?vid=4a47f720-7094-498c-8e0e-575db4b6b400"},"vehicle_type_id":"4","last_reported":1743073698,"current_range_meters":9200,"station_id":"ce4bhnh2rcd13ifvqgug","pricing_plan_id":"cebpf4jnsgd1na2vs0mg"},{"bike_id":"b6fe2741-1691-4ff8-a3c2-6bf811162f41","system_id":"levelo_inurba_marseille","lat":43.286682,"lon":5.38678,"is_reserved":false,"is_disabled":false,"rental_uris":{"android":"levelo://app?vid=b6fe2741-1691-4ff8-a3c2-6bf811162f41","ios":"levelo://app?vid=b6fe2741-1691-4ff8-a3c2-6bf811162f41"},"vehicle_type_id":"4","last_reported":1743073698,"current_range_meters":9200,"station_id":"ce4bho92rcd13ifvqh3g","pricing_plan_id":"cebpf4jnsgd1na2vs0mg"},{"bike_id":"1b43fc25-3ea0-48b3-af2c-a67610b49dc2","system_id":"levelo_inurba_marseille","lat":43.31351,"lon":5.36717,"is_reserved":false,"is_disabled":false,"rental_uris":{"android":"levelo://app?vid=1b43fc25-3ea0-48b3-af2c-a67610b49dc2","ios":"levelo://app?vid=1b43fc25-3ea0-48b3-af2c-a67610b49dc2"},"vehicle_type_id":"4","last_reported":1743073698,"current_range_meters":9600,"station_id":"ce4bgr92rcd13ifvqc6g","pricing_plan_id":"cebpf4jnsgd1na2vs0mg"},{"bike_id":"8732884c-0d12-4c73-aa6b-b5db2e9036dc","system_id":"levelo_inurba_marseille","lat":43.30556,"lon":5.36696,"is_reserved":false,"is_disabled":false,"rental_uris":{"android":"levelo://app?vid=8732884c-0d12-4c73-aa6b-b5db2e9036dc","ios":"levelo://app?vid=8732884c-0d12-4c73-aa6b-b5db2e9036dc"},"vehicle_type_id":"4","last_reported":1743073698,"current_range_meters":9600,"station_id":"ce4bgrp2rcd13ifvqc9g","pricing_plan_id":"cebpf4jnsgd1na2vs0mg"},{"bike_id":"bf2b816e-1e7e-46ae-a644-271755239091","system_id":"levelo_inurba_marseille","lat":43.304784,"lon":5.378897,"is_reserved":false,"is_disabled":false,"rental_uris":{"android":"levelo://app?vid=bf2b816e-1e7e-46ae-a644-271755239091","ios":"levelo://app?vid=bf2b816e-1e7e-46ae-a644-271755239091"},"vehicle_type_id":"4","last_reported":1743073698,"current_range_meters":9600,"station_id":"ce4bgup2rcd13ifvqcn0","pricing_plan_id":"cebpf4jnsgd1na2vs0mg"},{"bike_id":"a0aa2b66-8d81-4f41-ae27-5d11fde4f918","system_id":"levelo_inurba_marseille","lat":43.28425,"lon":5.3497,"is_reserved":false,"is_disabled":false,"rental_uris":{"android":"levelo://app?vid=a0aa2b66-8d81-4f41-ae27-5d11fde4f918","ios":"levelo://app?vid=a0aa2b66-8d81-4f41-ae27-5d11fde4f918"},"vehicle_type_id":"4","last_reported":1743073698,"current_range_meters":9600,"station_id":"ce4bhbh2rcd13ifvqepg","pricing_plan_id":"cebpf4jnsgd1na2vs0mg"},{"bike_id":"ea2b5ff4-2888-4f76-aabc-0170fd15a090","system_id":"levelo_inurba_marseille","lat":43.29276,"lon":5.36845,"is_reserved":false,"is_disabled":false,"rental_uris":{"android":"levelo://app?vid=ea2b5ff4-2888-4f76-aabc-0170fd15a090","ios":"levelo://app?vid=ea2b5ff4-2888-4f76-aabc-0170fd15a090"},"vehicle_type_id":"4","last_reported":1743073698,"current_range_meters":9600,"station_id":"ce4bhbp2rcd13ifvqesg","pricing_plan_id":"cebpf4jnsgd1na2vs0mg"},{"bike_id":"591af724-b857-4d2f-82e1-b93131c261d5","system_id":"levelo_inurba_marseille","lat":43.26558,"lon":5.37279,"is_reserved":false,"is_disabled":false,"rental_uris":{"android":"levelo://app?vid=591af724-b857-4d2f-82e1-b93131c261d5","ios":"levelo://app?vid=591af724-b857-4d2f-82e1-b93131c261d5"},"vehicle_type_id":"4","last_reported":1743073698,"current_range_meters":9600,"station_id":"ce4bhg12rcd13ifvqf70","pricing_plan_id":"cebpf4jnsgd1na2vs0mg"},{"bike_id":"f8a5e80a-07e7-47f3-bfaf-ffc91ab4dc2c","system_id":"levelo_inurba_marseille","lat":43.26955,"lon":5.38629,"is_reserved":false,"is_disabled":false,"rental_uris":{"android":"levelo://app?vid=f8a5e80a-07e7-47f3-bfaf-ffc91ab4dc2c","ios":"levelo://app?vid=f8a5e80a-07e7-47f3-bfaf-ffc91ab4dc2c"},"vehicle_type_id":"4","last_reported":1743073698,"current_range_meters":9600,"station_id":"ce4bhh92rcd13ifvqfh0","pricing_plan_id":"cebpf4jnsgd1na2vs0mg"},{"bike_id":"c68e5edb-e31c-40fa-9359-4c1bebfece05","system_id":"levelo_inurba_marseille","lat":43.23962,"lon":5.36626,"is_reserved":false,"is_disabled":false,"rental_uris":{"android":"levelo://app?vid=c68e5edb-e31c-40fa-9359-4c1bebfece05","ios":"levelo://app?vid=c68e5edb-e31c-40fa-9359-4c1bebfece05"},"vehicle_type_id":"4","last_reported":1743073698,"current_range_meters":9600,"station_id":"ce4bhi12rcd13ifvqfp0","pricing_plan_id":"cebpf4jnsgd1na2vs0mg"},{"bike_id":"9e01211e-e64c-4feb-aa09-244ab1d93db6","system_id":"levelo_inurba_marseille","lat":43.30532,"lon":5.36696,"is_reserved":false,"is_disabled":false,"rental_uris":{"android":"levelo://app?vid=9e01211e-e64c-4feb-aa09-244ab1d93db6","ios":"levelo://app?vid=9e01211e-e64c-4feb-aa09-244ab1d93db6"},"vehicle_type_id":"4","last_reported":1743073698,"current_range_meters":10000,"station_id":"ce4bgrp2rcd13ifvqc9g","pricing_plan_id":"cebpf4jnsgd1na2vs0mg"},{"bike_id":"14a19c49-a40d-48c4-b676-75001772f4c5","system_id":"levelo_inurba_marseille","lat":43.30136,"lon":5.37413,"is_reserved":false,"is_disabled":false,"rental_uris":{"android":"levelo://app?vid=14a19c49-a40d-48c4-b676-75001772f4c5","ios":"levelo://app?vid=14a19c49-a40d-48c4-b676-75001772f4c5"},"vehicle_type_id":"4","last_reported":1743073698,"current_range_meters":10000,"station_id":"ce4bgs92rcd13ifvqcc0","pricing_plan_id":"cebpf4jnsgd1na2vs0mg"},{"bike_id":"a53b5987-13ec-40d3-a6d4-281783cb3092","system_id":"levelo_inurba_marseille","lat":43.304623,"lon":5.378998,"is_reserved":false,"is_disabled":false,"rental_uris":{"android":"levelo://app?vid=a53b5987-13ec-40d3-a6d4-281783cb3092","ios":"levelo://app?vid=a53b5987-13ec-40d3-a6d4-281783cb3092"},"vehicle_type_id":"4","last_reported":1743073698,"current_range_meters":10000,"station_id":"ce4bgup2rcd13ifvqcn0","pricing_plan_id":"cebpf4jnsgd1na2vs0mg"},{"bike_id":"8e1fd18c-ee2f-4132-8303-b254e815e5b7","system_id":"levelo_inurba_marseille","lat":43.25002,"lon":5.38931,"is_reserved":false,"is_disabled":false,"rental_uris":{"android":"levelo://app?vid=8e1fd18c-ee2f-4132-8303-b254e815e5b7","ios":"levelo://app?vid=8e1fd18c-ee2f-4132-8303-b254e815e5b7"},"vehicle_type_id":"4","last_reported":1743073698,"current_range_meters":10000,"station_id":"ce4bhgp2rcd13ifvqfd0","pricing_plan_id":"cebpf4jnsgd1na2vs0mg"},{"bike_id":"cc47bdae-e849-4c2a-a9b3-b38e0f1eb05b","system_id":"levelo_inurba_marseille","lat":43.24986,"lon":5.38928,"is_reserved":false,"is_disabled":false,"rental_uris":{"android":"levelo://app?vid=cc47bdae-e849-4c2a-a9b3-b38e0f1eb05b","ios":"levelo://app?vid=cc47bdae-e849-4c2a-a9b3-b38e0f1eb05b"},"vehicle_type_id":"4","last_reported":1743073698,"current_range_meters":10000,"station_id":"ce4bhgp2rcd13ifvqfd0","pricing_plan_id":"cebpf4jnsgd1na2vs0mg"},{"bike_id":"ee49913b-41f4-4b83-8d9c-af54f2b44b60","system_id":"levelo_inurba_marseille","lat":43.26786,"lon":5.39412,"is_reserved":false,"is_disabled":false,"rental_uris":{"android":"levelo://app?vid=ee49913b-41f4-4b83-8d9c-af54f2b44b60","ios":"levelo://app?vid=ee49913b-41f4-4b83-8d9c-af54f2b44b60"},"vehicle_type_id":"4","last_reported":1743073698,"current_range_meters":10000,"station_id":"ce4bhh12rcd13ifvqfg0","pricing_plan_id":"cebpf4jnsgd1na2vs0mg"},{"bike_id":"1c21b756-e036-4348-8b3e-23fd217ddfa2","system_id":"levelo_inurba_marseille","lat":43.26943,"lon":5.3863,"is_reserved":false,"is_disabled":false,"rental_uris":{"android":"levelo://app?vid=1c21b756-e036-4348-8b3e-23fd217ddfa2","ios":"levelo://app?vid=1c21b756-e036-4348-8b3e-23fd217ddfa2"},"vehicle_type_id":"4","last_reported":1743073698,"current_range_meters":10000,"station_id":"ce4bhh92rcd13ifvqfh0","pricing_plan_id":"cebpf4jnsgd1na2vs0mg"},{"bike_id":"b69d2198-072c-40c0-aa6a-a7cee229b06d","system_id":"levelo_inurba_marseille","lat":43.23149,"lon":5.43723,"is_reserved":false,"is_disabled":false,"rental_uris":{"android":"levelo://app?vid=b69d2198-072c-40c0-aa6a-a7cee229b06d","ios":"levelo://app?vid=b69d2198-072c-40c0-aa6a-a7cee229b06d"},"vehicle_type_id":"4","last_reported":1743073698,"current_range_meters":10000,"station_id":"ce4bhmp2rcd13ifvqgog","pricing_plan_id":"cebpf4jnsgd1na2vs0mg"},{"bike_id":"c18155db-65c7-4d5a-8c5b-923eb75c675d","system_id":"levelo_inurba_marseille","lat":43.32098,"lon":5.36764,"is_reserved":false,"is_disabled":false,"rental_uris":{"android":"levelo://app?vid=c18155db-65c7-4d5a-8c5b-923eb75c675d","ios":"levelo://app?vid=c18155db-65c7-4d5a-8c5b-923eb75c675d"},"vehicle_type_id":"4","last_reported":1743073698,"current_range_meters":10000,"station_id":"ce4bhrh2rcd13ifvqhug","pricing_plan_id":"cebpf4jnsgd1na2vs0mg"},{"bike_id":"f67f98a3-54a8-47d6-b2ff-11adab6ff5d2","system_id":"levelo_inurba_marseille","lat":43.31251,"lon":5.36871,"is_reserved":false,"is_disabled":false,"rental_uris":{"android":"levelo://app?vid=f67f98a3-54a8-47d6-b2ff-11adab6ff5d2","ios":"levelo://app?vid=f67f98a3-54a8-47d6-b2ff-11adab6ff5d2"},"vehicle_type_id":"4","last_reported":1743073698,"current_range_meters":10800,"station_id":"ce4bgl92rcd13ifvqbq0","pricing_plan_id":"cebpf4jnsgd1na2vs0mg"},{"bike_id":"613dfb80-7562-4046-91d8-e7c0acaa3871","system_id":"levelo_inurba_marseille","lat":43.256019,"lon":5.376125,"is_reserved":false,"is_disabled":false,"rental_uris":{"android":"levelo://app?vid=613dfb80-7562-4046-91d8-e7c0acaa3871","ios":"levelo://app?vid=613dfb80-7562-4046-91d8-e7c0acaa3871"},"vehicle_type_id":"4","last_reported":1743073698,"current_range_meters":10800,"station_id":"ce4bhgh2rcd13ifvqfa0","pricing_plan_id":"cebpf4jnsgd1na2vs0mg"},{"bike_id":"1315cf04-c031-4438-b452-80eff3dd2e77","system_id":"levelo_inurba_marseille","lat":43.25006,"lon":5.38956,"is_reserved":false,"is_disabled":false,"rental_uris":{"android":"levelo://app?vid=1315cf04-c031-4438-b452-80eff3dd2e77","ios":"levelo://app?vid=1315cf04-c031-4438-b452-80eff3dd2e77"},"vehicle_type_id":"4","last_reported":1743073698,"current_range_meters":10800,"station_id":"ce4bhgp2rcd13ifvqfd0","pricing_plan_id":"cebpf4jnsgd1na2vs0mg"},{"bike_id":"044d67fe-bfad-4093-8882-6e9f9fd46929","system_id":"levelo_inurba_marseille","lat":43.27499,"lon":5.42453,"is_reserved":false,"is_disabled":false,"rental_uris":{"android":"levelo://app?vid=044d67fe-bfad-4093-8882-6e9f9fd46929","ios":"levelo://app?vid=044d67fe-bfad-4093-8882-6e9f9fd46929"},"vehicle_type_id":"4","last_reported":1743073698,"current_range_meters":10800,"station_id":"ce4bhn92rcd13ifvqgrg","pricing_plan_id":"cebpf4jnsgd1na2vs0mg"},{"bike_id":"8dbcc619-bad0-4bcf-a35f-334b7cfe10f7","system_id":"levelo_inurba_marseille","lat":43.29553,"lon":5.42287,"is_reserved":false,"is_disabled":false,"rental_uris":{"android":"levelo://app?vid=8dbcc619-bad0-4bcf-a35f-334b7cfe10f7","ios":"levelo://app?vid=8dbcc619-bad0-4bcf-a35f-334b7cfe10f7"},"vehicle_type_id":"4","last_reported":1743073698,"current_range_meters":10800,"station_id":"ce4bhph2rcd13ifvqhdg","pricing_plan_id":"cebpf4jnsgd1na2vs0mg"},{"bike_id":"0dff4b98-97a7-47ec-af33-9754dad53f3c","system_id":"levelo_inurba_marseille","lat":43.32496,"lon":5.36574,"is_reserved":false,"is_disabled":false,"rental_uris":{"android":"levelo://app?vid=0dff4b98-97a7-47ec-af33-9754dad53f3c","ios":"levelo://app?vid=0dff4b98-97a7-47ec-af33-9754dad53f3c"},"vehicle_type_id":"4","last_reported":1743073698,"current_range_meters":10800,"station_id":"ce4bhs12rcd13ifvqhvg","pricing_plan_id":"cebpf4jnsgd1na2vs0mg"},{"bike_id":"da548f40-a414-43b1-a097-9f7689317b53","system_id":"levelo_inurba_marseille","lat":43.29771,"lon":5.3709,"is_reserved":false,"is_disabled":false,"rental_uris":{"android":"levelo://app?vid=da548f40-a414-43b1-a097-9f7689317b53","ios":"levelo://app?vid=da548f40-a414-43b1-a097-9f7689317b53"},"vehicle_type_id":"4","last_reported":1743073698,"current_range_meters":11200,"station_id":"ce4bgop2rcd13ifvqc1g","pricing_plan_id":"cebpf4jnsgd1na2vs0mg"},{"bike_id":"f2a11dae-e799-4203-aedf-0ded630dbad3","system_id":"levelo_inurba_marseille","lat":43.31113,"lon":5.37755,"is_reserved":false,"is_disabled":false,"rental_uris":{"android":"levelo://app?vid=f2a11dae-e799-4203-aedf-0ded630dbad3","ios":"levelo://app?vid=f2a11dae-e799-4203-aedf-0ded630dbad3"},"vehicle_type_id":"4","last_reported":1743073698,"current_range_meters":11200,"station_id":"ce4bgt92rcd13ifvqcg0","pricing_plan_id":"cebpf4jnsgd1na2vs0mg"},{"bike_id":"a32e80f3-8179-4868-9eb3-1365fbd88f99","system_id":"levelo_inurba_marseille","lat":43.28349,"lon":5.38098,"is_reserved":false,"is_disabled":false,"rental_uris":{"android":"levelo://app?vid=a32e80f3-8179-4868-9eb3-1365fbd88f99","ios":"levelo://app?vid=a32e80f3-8179-4868-9eb3-1365fbd88f99"},"vehicle_type_id":"4","last_reported":1743073698,"current_range_meters":11200,"station_id":"ce4bh412rcd13ifvqdr0","pricing_plan_id":"cebpf4jnsgd1na2vs0mg"},{"bike_id":"d56b836a-ade5-4a7d-95f4-3e41d69db9e9","system_id":"levelo_inurba_marseille","lat":43.2396,"lon":5.36642,"is_reserved":false,"is_disabled":false,"rental_uris":{"android":"levelo://app?vid=d56b836a-ade5-4a7d-95f4-3e41d69db9e9","ios":"levelo://app?vid=d56b836a-ade5-4a7d-95f4-3e41d69db9e9"},"vehicle_type_id":"4","last_reported":1743073698,"current_range_meters":11200,"station_id":"ce4bhi12rcd13ifvqfp0","pricing_plan_id":"cebpf4jnsgd1na2vs0mg"},{"bike_id":"9c128d74-ffa1-4d5c-9126-ec71371d3d06","system_id":"levelo_inurba_marseille","lat":43.27506,"lon":5.42451,"is_reserved":false,"is_disabled":false,"rental_uris":{"android":"levelo://app?vid=9c128d74-ffa1-4d5c-9126-ec71371d3d06","ios":"levelo://app?vid=9c128d74-ffa1-4d5c-9126-ec71371d3d06"},"vehicle_type_id":"4","last_reported":1743073698,"current_range_meters":11200,"station_id":"ce4bhn92rcd13ifvqgrg","pricing_plan_id":"cebpf4jnsgd1na2vs0mg"},{"bike_id":"0ac88cdf-dd3a-494f-aaa5-2b24d1ce393f","system_id":"levelo_inurba_marseille","lat":43.23201,"lon":5.35564,"is_reserved":false,"is_disabled":false,"rental_uris":{"android":"levelo://app?vid=0ac88cdf-dd3a-494f-aaa5-2b24d1ce393f","ios":"levelo://app?vid=0ac88cdf-dd3a-494f-aaa5-2b24d1ce393f"},"vehicle_type_id":"4","last_reported":1743073698,"current_range_meters":11200,"station_id":"ce4bhu92rcd13ifvqi70","pricing_plan_id":"cebpf4jnsgd1na2vs0mg"},{"bike_id":"b7df044c-a420-415e-b7b7-345aa8eb07fc","system_id":"levelo_inurba_marseille","lat":43.31833,"lon":5.38733,"is_reserved":false,"is_disabled":false,"rental_uris":{"android":"levelo://app?vid=b7df044c-a420-415e-b7b7-345aa8eb07fc","ios":"levelo://app?vid=b7df044c-a420-415e-b7b7-345aa8eb07fc"},"vehicle_type_id":"4","last_reported":1743073698,"current_range_meters":11600,"station_id":"","pricing_plan_id":"cebpf4jnsgd1na2vs0mg"},{"bike_id":"b5723e75-28ae-4cac-9db4-9f006b9ef67c","system_id":"levelo_inurba_marseille","lat":43.29851,"lon":5.36282,"is_reserved":false,"is_disabled":false,"rental_uris":{"android":"levelo://app?vid=b5723e75-28ae-4cac-9db4-9f006b9ef67c","ios":"levelo://app?vid=b5723e75-28ae-4cac-9db4-9f006b9ef67c"},"vehicle_type_id":"4","last_reported":1743073698,"current_range_meters":11600,"station_id":"ce4bgpp2rcd13ifvqc3g","pricing_plan_id":"cebpf4jnsgd1na2vs0mg"},{"bike_id":"2d4748b4-d1d5-4d84-85e6-b23c9f28a316","system_id":"levelo_inurba_marseille","lat":43.24164,"lon":5.39742,"is_reserved":false,"is_disabled":false,"rental_uris":{"android":"levelo://app?vid=2d4748b4-d1d5-4d84-85e6-b23c9f28a316","ios":"levelo://app?vid=2d4748b4-d1d5-4d84-85e6-b23c9f28a316"},"vehicle_type_id":"4","last_reported":1743073698,"current_range_meters":11600,"station_id":"ce4bhn12rcd13ifvqgpg","pricing_plan_id":"cebpf4jnsgd1na2vs0mg"},{"bike_id":"2079e143-15fb-4fca-b428-1dcdbd2da2aa","system_id":"levelo_inurba_marseille","lat":43.27814,"lon":5.407,"is_reserved":false,"is_disabled":false,"rental_uris":{"android":"levelo://app?vid=2079e143-15fb-4fca-b428-1dcdbd2da2aa","ios":"levelo://app?vid=2079e143-15fb-4fca-b428-1dcdbd2da2aa"},"vehicle_type_id":"4","last_reported":1743073698,"current_range_meters":11600,"station_id":"ce4bhnh2rcd13ifvqgtg","pricing_plan_id":"cebpf4jnsgd1na2vs0mg"},{"bike_id":"25c93242-72e6-4525-aea7-7d96e2cd1825","system_id":"levelo_inurba_marseille","lat":43.330815,"lon":5.408375,"is_reserved":false,"is_disabled":false,"rental_uris":{"android":"levelo://app?vid=25c93242-72e6-4525-aea7-7d96e2cd1825","ios":"levelo://app?vid=25c93242-72e6-4525-aea7-7d96e2cd1825"},"vehicle_type_id":"4","last_reported":1743073698,"current_range_meters":12000,"station_id":"","pricing_plan_id":"cebpf4jnsgd1na2vs0mg"},{"bike_id":"025425bb-1287-4df2-9401-0428a6e93f63","system_id":"levelo_inurba_marseille","lat":43.30922,"lon":5.36834,"is_reserved":false,"is_disabled":false,"rental_uris":{"android":"levelo://app?vid=025425bb-1287-4df2-9401-0428a6e93f63","ios":"levelo://app?vid=025425bb-1287-4df2-9401-0428a6e93f63"},"vehicle_type_id":"4","last_reported":1743073698,"current_range_meters":12000,"station_id":"ce4bgn92rcd13ifvqbvg","pricing_plan_id":"cebpf4jnsgd1na2vs0mg"},{"bike_id":"9a15a95f-cf9b-4362-bb25-0b5170108c0a","system_id":"levelo_inurba_marseille","lat":43.30543,"lon":5.36546,"is_reserved":false,"is_disabled":false,"rental_uris":{"android":"levelo://app?vid=9a15a95f-cf9b-4362-bb25-0b5170108c0a","ios":"levelo://app?vid=9a15a95f-cf9b-4362-bb25-0b5170108c0a"},"vehicle_type_id":"4","last_reported":1743073698,"current_range_meters":12000,"station_id":"ce4bgs12rcd13ifvqcag","pricing_plan_id":"cebpf4jnsgd1na2vs0mg"},{"bike_id":"59b78039-07c8-4481-876d-404938d15499","system_id":"levelo_inurba_marseille","lat":43.30547,"lon":5.36527,"is_reserved":false,"is_disabled":false,"rental_uris":{"android":"levelo://app?vid=59b78039-07c8-4481-876d-404938d15499","ios":"levelo://app?vid=59b78039-07c8-4481-876d-404938d15499"},"vehicle_type_id":"4","last_reported":1743073698,"current_range_meters":12000,"station_id":"ce4bgs12rcd13ifvqcag","pricing_plan_id":"cebpf4jnsgd1na2vs0mg"},{"bike_id":"9c2e20b3-f9e7-4588-934a-ef6d6223514b","system_id":"levelo_inurba_marseille","lat":43.30127,"lon":5.37436,"is_reserved":false,"is_disabled":false,"rental_uris":{"android":"levelo://app?vid=9c2e20b3-f9e7-4588-934a-ef6d6223514b","ios":"levelo://app?vid=9c2e20b3-f9e7-4588-934a-ef6d6223514b"},"vehicle_type_id":"4","last_reported":1743073698,"current_range_meters":12000,"station_id":"ce4bgs92rcd13ifvqcc0","pricing_plan_id":"cebpf4jnsgd1na2vs0mg"},{"bike_id":"ec7cbd52-3a74-4d89-9272-ada457f1598d","system_id":"levelo_inurba_marseille","lat":43.295255,"lon":5.390442,"is_reserved":false,"is_disabled":false,"rental_uris":{"android":"levelo://app?vid=ec7cbd52-3a74-4d89-9272-ada457f1598d","ios":"levelo://app?vid=ec7cbd52-3a74-4d89-9272-ada457f1598d"},"vehicle_type_id":"4","last_reported":1743073698,"current_range_meters":12000,"station_id":"ce4bh3p2rcd13ifvqdp0","pricing_plan_id":"cebpf4jnsgd1na2vs0mg"},{"bike_id":"b429713c-e564-4b87-a40e-8133a5114af0","system_id":"levelo_inurba_marseille","lat":43.28675,"lon":5.38669,"is_reserved":false,"is_disabled":false,"rental_uris":{"android":"levelo://app?vid=b429713c-e564-4b87-a40e-8133a5114af0","ios":"levelo://app?vid=b429713c-e564-4b87-a40e-8133a5114af0"},"vehicle_type_id":"4","last_reported":1743073698,"current_range_meters":12000,"station_id":"ce4bh492rcd13ifvqdug","pricing_plan_id":"cebpf4jnsgd1na2vs0mg"},{"bike_id":"5c32c2f9-ff4c-424f-908e-29e21ae344e9","system_id":"levelo_inurba_marseille","lat":43.28486,"lon":5.38409,"is_reserved":false,"is_disabled":false,"rental_uris":{"android":"levelo://app?vid=5c32c2f9-ff4c-424f-908e-29e21ae344e9","ios":"levelo://app?vid=5c32c2f9-ff4c-424f-908e-29e21ae344e9"},"vehicle_type_id":"4","last_reported":1743073698,"current_range_meters":12000,"station_id":"ce4bh512rcd13ifvqe3g","pricing_plan_id":"cebpf4jnsgd1na2vs0mg"},{"bike_id":"a7393f96-b69f-455f-bcc9-ebf673d145ae","system_id":"levelo_inurba_marseille","lat":43.295289,"lon":5.390349,"is_reserved":false,"is_disabled":false,"rental_uris":{"android":"levelo://app?vid=a7393f96-b69f-455f-bcc9-ebf673d145ae","ios":"levelo://app?vid=a7393f96-b69f-455f-bcc9-ebf673d145ae"},"vehicle_type_id":"4","last_reported":1743073698,"current_range_meters":12400,"station_id":"ce4bh3p2rcd13ifvqdp0","pricing_plan_id":"cebpf4jnsgd1na2vs0mg"},{"bike_id":"00f8a823-b5b1-4799-904b-6136ec63ab41","system_id":"levelo_inurba_marseille","lat":43.28612,"lon":5.35099,"is_reserved":false,"is_disabled":false,"rental_uris":{"android":"levelo://app?vid=00f8a823-b5b1-4799-904b-6136ec63ab41","ios":"levelo://app?vid=00f8a823-b5b1-4799-904b-6136ec63ab41"},"vehicle_type_id":"4","last_reported":1743073698,"current_range_meters":12400,"station_id":"ce4bhch2rcd13ifvqeug","pricing_plan_id":"cebpf4jnsgd1na2vs0mg"},{"bike_id":"4891aec6-7742-42df-b4ca-ea730cb4d40a","system_id":"levelo_inurba_marseille","lat":43.23964,"lon":5.36625,"is_reserved":false,"is_disabled":false,"rental_uris":{"android":"levelo://app?vid=4891aec6-7742-42df-b4ca-ea730cb4d40a","ios":"levelo://app?vid=4891aec6-7742-42df-b4ca-ea730cb4d40a"},"vehicle_type_id":"4","last_reported":1743073698,"current_range_meters":12400,"station_id":"ce4bhi12rcd13ifvqfp0","pricing_plan_id":"cebpf4jnsgd1na2vs0mg"},{"bike_id":"60d0dbbf-88d3-4a52-a6d0-645622533b79","system_id":"levelo_inurba_marseille","lat":43.23147,"lon":5.43708,"is_reserved":false,"is_disabled":false,"rental_uris":{"android":"levelo://app?vid=60d0dbbf-88d3-4a52-a6d0-645622533b79","ios":"levelo://app?vid=60d0dbbf-88d3-4a52-a6d0-645622533b79"},"vehicle_type_id":"4","last_reported":1743073698,"current_range_meters":12400,"station_id":"ce4bhmp2rcd13ifvqgog","pricing_plan_id":"cebpf4jnsgd1na2vs0mg"},{"bike_id":"64aa8384-340c-47d4-a788-2e29b01a88d3","system_id":"levelo_inurba_marseille","lat":43.27492,"lon":5.42462,"is_reserved":false,"is_disabled":false,"rental_uris":{"android":"levelo://app?vid=64aa8384-340c-47d4-a788-2e29b01a88d3","ios":"levelo://app?vid=64aa8384-340c-47d4-a788-2e29b01a88d3"},"vehicle_type_id":"4","last_reported":1743073698,"current_range_meters":12400,"station_id":"ce4bhn92rcd13ifvqgrg","pricing_plan_id":"cebpf4jnsgd1na2vs0mg"},{"bike_id":"19221227-42ec-4f4b-8f04-42a0818e22f5","system_id":"levelo_inurba_marseille","lat":43.321066,"lon":5.367771,"is_reserved":false,"is_disabled":false,"rental_uris":{"android":"levelo://app?vid=19221227-42ec-4f4b-8f04-42a0818e22f5","ios":"levelo://app?vid=19221227-42ec-4f4b-8f04-42a0818e22f5"},"vehicle_type_id":"4","last_reported":1743073698,"current_range_meters":12400,"station_id":"ce4bhrh2rcd13ifvqhug","pricing_plan_id":"cebpf4jnsgd1na2vs0mg"},{"bike_id":"7533d0d4-b08c-4a4d-b999-c76a60f42dff","system_id":"levelo_inurba_marseille","lat":43.29796,"lon":5.39337,"is_reserved":false,"is_disabled":false,"rental_uris":{"android":"levelo://app?vid=7533d0d4-b08c-4a4d-b999-c76a60f42dff","ios":"levelo://app?vid=7533d0d4-b08c-4a4d-b999-c76a60f42dff"},"vehicle_type_id":"4","last_reported":1743073698,"current_range_meters":12400,"station_id":"chh1huq6cuj3fo74tm60","pricing_plan_id":"cebpf4jnsgd1na2vs0mg"},{"bike_id":"05a08a85-1f54-4dd1-8a1e-ec913b2cbca5","system_id":"levelo_inurba_marseille","lat":43.29373,"lon":5.37863,"is_reserved":false,"is_disabled":false,"rental_uris":{"android":"levelo://app?vid=05a08a85-1f54-4dd1-8a1e-ec913b2cbca5","ios":"levelo://app?vid=05a08a85-1f54-4dd1-8a1e-ec913b2cbca5"},"vehicle_type_id":"4","last_reported":1743073698,"current_range_meters":12800,"station_id":"ce4bgjh2rcd13ifvqbf0","pricing_plan_id":"cebpf4jnsgd1na2vs0mg"},{"bike_id":"2d263471-3cf5-4b37-bc4a-4ed4b8ce92c0","system_id":"levelo_inurba_marseille","lat":43.281018,"lon":5.378301,"is_reserved":false,"is_disabled":false,"rental_uris":{"android":"levelo://app?vid=2d263471-3cf5-4b37-bc4a-4ed4b8ce92c0","ios":"levelo://app?vid=2d263471-3cf5-4b37-bc4a-4ed4b8ce92c0"},"vehicle_type_id":"4","last_reported":1743073698,"current_range_meters":12800,"station_id":"ce4bha12rcd13ifvqee0","pricing_plan_id":"cebpf4jnsgd1na2vs0mg"},{"bike_id":"df767ddd-5f05-41e7-9ca1-d7a3b4ddff9f","system_id":"levelo_inurba_marseille","lat":43.240813,"lon":5.37735,"is_reserved":false,"is_disabled":false,"rental_uris":{"android":"levelo://app?vid=df767ddd-5f05-41e7-9ca1-d7a3b4ddff9f","ios":"levelo://app?vid=df767ddd-5f05-41e7-9ca1-d7a3b4ddff9f"},"vehicle_type_id":"4","last_reported":1743073698,"current_range_meters":12800,"station_id":"ce4bhnp2rcd13ifvqgvg","pricing_plan_id":"cebpf4jnsgd1na2vs0mg"},{"bike_id":"91d0dbfd-08e1-4128-8c12-9746c2acb26f","system_id":"levelo_inurba_marseille","lat":43.320366,"lon":5.415892,"is_reserved":false,"is_disabled":false,"rental_uris":{"android":"levelo://app?vid=91d0dbfd-08e1-4128-8c12-9746c2acb26f","ios":"levelo://app?vid=91d0dbfd-08e1-4128-8c12-9746c2acb26f"},"vehicle_type_id":"4","last_reported":1743073698,"current_range_meters":12800,"station_id":"ce4bhq92rcd13ifvqhkg","pricing_plan_id":"cebpf4jnsgd1na2vs0mg"},{"bike_id":"58ff955d-96fa-4d76-b015-6dc5978783a5","system_id":"levelo_inurba_marseille","lat":43.341443,"lon":5.408991,"is_reserved":false,"is_disabled":false,"rental_uris":{"android":"levelo://app?vid=58ff955d-96fa-4d76-b015-6dc5978783a5","ios":"levelo://app?vid=58ff955d-96fa-4d76-b015-6dc5978783a5"},"vehicle_type_id":"4","last_reported":1743073698,"current_range_meters":12800,"station_id":"ce4bhqh2rcd13ifvqhlg","pricing_plan_id":"cebpf4jnsgd1na2vs0mg"},{"bike_id":"929dc956-2b4d-4a62-a433-5892161c84a1","system_id":"levelo_inurba_marseille","lat":43.32494,"lon":5.36554,"is_reserved":false,"is_disabled":false,"rental_uris":{"android":"levelo://app?vid=929dc956-2b4d-4a62-a433-5892161c84a1","ios":"levelo://app?vid=929dc956-2b4d-4a62-a433-5892161c84a1"},"vehicle_type_id":"4","last_reported":1743073698,"current_range_meters":12800,"station_id":"ce4bhs12rcd13ifvqhvg","pricing_plan_id":"cebpf4jnsgd1na2vs0mg"},{"bike_id":"6e8836f8-64c9-4327-b0ad-018e84415e40","system_id":"levelo_inurba_marseille","lat":43.2694,"lon":5.40255,"is_reserved":false,"is_disabled":false,"rental_uris":{"android":"levelo://app?vid=6e8836f8-64c9-4327-b0ad-018e84415e40","ios":"levelo://app?vid=6e8836f8-64c9-4327-b0ad-018e84415e40"},"vehicle_type_id":"4","last_reported":1743073698,"current_range_meters":12800,"station_id":"cjm6bp8fraef2m0cb0m0","pricing_plan_id":"cebpf4jnsgd1na2vs0mg"},{"bike_id":"4605e24d-65b2-4424-9d4d-b88f889f4b8e","system_id":"levelo_inurba_marseille","lat":43.28119,"lon":5.3986,"is_reserved":false,"is_disabled":false,"rental_uris":{"android":"levelo://app?vid=4605e24d-65b2-4424-9d4d-b88f889f4b8e","ios":"levelo://app?vid=4605e24d-65b2-4424-9d4d-b88f889f4b8e"},"vehicle_type_id":"4","last_reported":1743073698,"current_range_meters":13600,"station_id":"","pricing_plan_id":"cebpf4jnsgd1na2vs0mg"},{"bike_id":"666b0183-ef68-42c7-bca1-0310d6840214","system_id":"levelo_inurba_marseille","lat":43.29841,"lon":5.36287,"is_reserved":false,"is_disabled":false,"rental_uris":{"android":"levelo://app?vid=666b0183-ef68-42c7-bca1-0310d6840214","ios":"levelo://app?vid=666b0183-ef68-42c7-bca1-0310d6840214"},"vehicle_type_id":"4","last_reported":1743073698,"current_range_meters":13600,"station_id":"ce4bgpp2rcd13ifvqc3g","pricing_plan_id":"cebpf4jnsgd1na2vs0mg"},{"bike_id":"34a7c99d-cb93-43b5-a0db-6bab4e2d6fd7","system_id":"levelo_inurba_marseille","lat":43.27204,"lon":5.39178,"is_reserved":false,"is_disabled":false,"rental_uris":{"android":"levelo://app?vid=34a7c99d-cb93-43b5-a0db-6bab4e2d6fd7","ios":"levelo://app?vid=34a7c99d-cb93-43b5-a0db-6bab4e2d6fd7"},"vehicle_type_id":"4","last_reported":1743073698,"current_range_meters":13600,"station_id":"ce4bhhp2rcd13ifvqfm0","pricing_plan_id":"cebpf4jnsgd1na2vs0mg"},{"bike_id":"af4efd9f-57b2-42da-811b-f88593f81067","system_id":"levelo_inurba_marseille","lat":43.29789,"lon":5.39355,"is_reserved":false,"is_disabled":false,"rental_uris":{"android":"levelo://app?vid=af4efd9f-57b2-42da-811b-f88593f81067","ios":"levelo://app?vid=af4efd9f-57b2-42da-811b-f88593f81067"},"vehicle_type_id":"4","last_reported":1743073698,"current_range_meters":13600,"station_id":"chh1huq6cuj3fo74tm60","pricing_plan_id":"cebpf4jnsgd1na2vs0mg"},{"bike_id":"6d93f036-c539-463a-a634-86c7fdf6c00e","system_id":"levelo_inurba_marseille","lat":43.30911,"lon":5.36857,"is_reserved":false,"is_disabled":false,"rental_uris":{"android":"levelo://app?vid=6d93f036-c539-463a-a634-86c7fdf6c00e","ios":"levelo://app?vid=6d93f036-c539-463a-a634-86c7fdf6c00e"},"vehicle_type_id":"4","last_reported":1743073698,"current_range_meters":14000,"station_id":"ce4bgn92rcd13ifvqbvg","pricing_plan_id":"cebpf4jnsgd1na2vs0mg"},{"bike_id":"2517ea2d-4228-41b9-93c0-c6c14a153a90","system_id":"levelo_inurba_marseille","lat":43.298498,"lon":5.362674,"is_reserved":false,"is_disabled":false,"rental_uris":{"android":"levelo://app?vid=2517ea2d-4228-41b9-93c0-c6c14a153a90","ios":"levelo://app?vid=2517ea2d-4228-41b9-93c0-c6c14a153a90"},"vehicle_type_id":"4","last_reported":1743073698,"current_range_meters":14000,"station_id":"ce4bgpp2rcd13ifvqc3g","pricing_plan_id":"cebpf4jnsgd1na2vs0mg"},{"bike_id":"3a0c3c70-f897-42ea-adff-ea251c315b1a","system_id":"levelo_inurba_marseille","lat":43.313622,"lon":5.385016,"is_reserved":false,"is_disabled":false,"rental_uris":{"android":"levelo://app?vid=3a0c3c70-f897-42ea-adff-ea251c315b1a","ios":"levelo://app?vid=3a0c3c70-f897-42ea-adff-ea251c315b1a"},"vehicle_type_id":"4","last_reported":1743073698,"current_range_meters":14000,"station_id":"ce4bgt92rcd13ifvqcf0","pricing_plan_id":"cebpf4jnsgd1na2vs0mg"},{"bike_id":"30c07ebd-f333-4879-80de-59dbaee1aff8","system_id":"levelo_inurba_marseille","lat":43.25002,"lon":5.38939,"is_reserved":false,"is_disabled":false,"rental_uris":{"android":"levelo://app?vid=30c07ebd-f333-4879-80de-59dbaee1aff8","ios":"levelo://app?vid=30c07ebd-f333-4879-80de-59dbaee1aff8"},"vehicle_type_id":"4","last_reported":1743073698,"current_range_meters":14000,"station_id":"ce4bhgp2rcd13ifvqfd0","pricing_plan_id":"cebpf4jnsgd1na2vs0mg"},{"bike_id":"17f50a86-5c5d-4b26-b54d-103acbe916b6","system_id":"levelo_inurba_marseille","lat":43.25579,"lon":5.38222,"is_reserved":false,"is_disabled":false,"rental_uris":{"android":"levelo://app?vid=17f50a86-5c5d-4b26-b54d-103acbe916b6","ios":"levelo://app?vid=17f50a86-5c5d-4b26-b54d-103acbe916b6"},"vehicle_type_id":"4","last_reported":1743073698,"current_range_meters":14000,"station_id":"ce4bhih2rcd13ifvqfs0","pricing_plan_id":"cebpf4jnsgd1na2vs0mg"},{"bike_id":"ef34c5df-04ac-43f5-b064-e6bc9741740d","system_id":"levelo_inurba_marseille","lat":43.32367,"lon":5.36718,"is_reserved":false,"is_disabled":false,"rental_uris":{"android":"levelo://app?vid=ef34c5df-04ac-43f5-b064-e6bc9741740d","ios":"levelo://app?vid=ef34c5df-04ac-43f5-b064-e6bc9741740d"},"vehicle_type_id":"4","last_reported":1743073698,"current_range_meters":14000,"station_id":"ce4bhsh2rcd13ifvqi2g","pricing_plan_id":"cebpf4jnsgd1na2vs0mg"},{"bike_id":"e0f854e6-2375-437d-a78b-6d5bf2ead237","system_id":"levelo_inurba_marseille","lat":43.33417,"lon":5.40031,"is_reserved":false,"is_disabled":false,"rental_uris":{"android":"levelo://app?vid=e0f854e6-2375-437d-a78b-6d5bf2ead237","ios":"levelo://app?vid=e0f854e6-2375-437d-a78b-6d5bf2ead237"},"vehicle_type_id":"4","last_reported":1743073698,"current_range_meters":14400,"station_id":"","pricing_plan_id":"cebpf4jnsgd1na2vs0mg"},{"bike_id":"155ecfbb-07b7-45e0-87bb-0c64bf4e2aa1","system_id":"levelo_inurba_marseille","lat":43.28972,"lon":5.37836,"is_reserved":false,"is_disabled":false,"rental_uris":{"android":"levelo://app?vid=155ecfbb-07b7-45e0-87bb-0c64bf4e2aa1","ios":"levelo://app?vid=155ecfbb-07b7-45e0-87bb-0c64bf4e2aa1"},"vehicle_type_id":"4","last_reported":1743073698,"current_range_meters":14400,"station_id":"ce4bh9p2rcd13ifvqed0","pricing_plan_id":"cebpf4jnsgd1na2vs0mg"},{"bike_id":"c2d67a43-7487-4d70-8b53-c0064f9c38d3","system_id":"levelo_inurba_marseille","lat":43.29039,"lon":5.35923,"is_reserved":false,"is_disabled":false,"rental_uris":{"android":"levelo://app?vid=c2d67a43-7487-4d70-8b53-c0064f9c38d3","ios":"levelo://app?vid=c2d67a43-7487-4d70-8b53-c0064f9c38d3"},"vehicle_type_id":"4","last_reported":1743073698,"current_range_meters":14400,"station_id":"ce4bha92rcd13ifvqeg0","pricing_plan_id":"cebpf4jnsgd1na2vs0mg"},{"bike_id":"fca480f8-b315-42ed-8b94-e43ecf953dd7","system_id":"levelo_inurba_marseille","lat":43.269304,"lon":5.386413,"is_reserved":false,"is_disabled":false,"rental_uris":{"android":"levelo://app?vid=fca480f8-b315-42ed-8b94-e43ecf953dd7","ios":"levelo://app?vid=fca480f8-b315-42ed-8b94-e43ecf953dd7"},"vehicle_type_id":"4","last_reported":1743073698,"current_range_meters":14400,"station_id":"ce4bhh92rcd13ifvqfh0","pricing_plan_id":"cebpf4jnsgd1na2vs0mg"},{"bike_id":"8f900b1e-cc06-4b0f-ba43-07db6ad921cd","system_id":"levelo_inurba_marseille","lat":43.2767,"lon":5.38875,"is_reserved":false,"is_disabled":false,"rental_uris":{"android":"levelo://app?vid=8f900b1e-cc06-4b0f-ba43-07db6ad921cd","ios":"levelo://app?vid=8f900b1e-cc06-4b0f-ba43-07db6ad921cd"},"vehicle_type_id":"4","last_reported":1743073698,"current_range_meters":14400,"station_id":"ce4bhi12rcd13ifvqfo0","pricing_plan_id":"cebpf4jnsgd1na2vs0mg"},{"bike_id":"86f30ee5-de09-4826-8dd8-a6fbbe8a7d1b","system_id":"levelo_inurba_marseille","lat":43.25911,"lon":5.40852,"is_reserved":false,"is_disabled":false,"rental_uris":{"android":"levelo://app?vid=86f30ee5-de09-4826-8dd8-a6fbbe8a7d1b","ios":"levelo://app?vid=86f30ee5-de09-4826-8dd8-a6fbbe8a7d1b"},"vehicle_type_id":"4","last_reported":1743073698,"current_range_meters":14400,"station_id":"ce4bhm92rcd13ifvqglg","pricing_plan_id":"cebpf4jnsgd1na2vs0mg"},{"bike_id":"6bb7a53f-f012-4855-bb26-37beff24b62c","system_id":"levelo_inurba_marseille","lat":43.230587,"lon":5.354899,"is_reserved":false,"is_disabled":false,"rental_uris":{"android":"levelo://app?vid=6bb7a53f-f012-4855-bb26-37beff24b62c","ios":"levelo://app?vid=6bb7a53f-f012-4855-bb26-37beff24b62c"},"vehicle_type_id":"4","last_reported":1743073698,"current_range_meters":14400,"station_id":"cpo3342slgdg3j2ifvpg","pricing_plan_id":"cebpf4jnsgd1na2vs0mg"},{"bike_id":"8a31fc7b-7bec-4db2-be74-7543f084bdff","system_id":"levelo_inurba_marseille","lat":43.22941,"lon":5.35389,"is_reserved":false,"is_disabled":false,"rental_uris":{"android":"levelo://app?vid=8a31fc7b-7bec-4db2-be74-7543f084bdff","ios":"levelo://app?vid=8a31fc7b-7bec-4db2-be74-7543f084bdff"},"vehicle_type_id":"4","last_reported":1743073698,"current_range_meters":14400,"station_id":"cpo3532slgdg3j2ikp40","pricing_plan_id":"cebpf4jnsgd1na2vs0mg"},{"bike_id":"18902e73-a94f-42c9-970d-7a6696e46d43","system_id":"levelo_inurba_marseille","lat":43.31295,"lon":5.37365,"is_reserved":false,"is_disabled":false,"rental_uris":{"android":"levelo://app?vid=18902e73-a94f-42c9-970d-7a6696e46d43","ios":"levelo://app?vid=18902e73-a94f-42c9-970d-7a6696e46d43"},"vehicle_type_id":"4","last_reported":1743073698,"current_range_meters":14800,"station_id":"","pricing_plan_id":"cebpf4jnsgd1na2vs0mg"},{"bike_id":"1c14bf9c-ada4-4a36-8853-740a1a2c000a","system_id":"levelo_inurba_marseille","lat":43.23181,"lon":5.35567,"is_reserved":false,"is_disabled":false,"rental_uris":{"android":"levelo://app?vid=1c14bf9c-ada4-4a36-8853-740a1a2c000a","ios":"levelo://app?vid=1c14bf9c-ada4-4a36-8853-740a1a2c000a"},"vehicle_type_id":"4","last_reported":1743073698,"current_range_meters":14800,"station_id":"ce4bhu92rcd13ifvqi70","pricing_plan_id":"cebpf4jnsgd1na2vs0mg"},{"bike_id":"3f07f503-c683-43e2-889a-d6577be42c42","system_id":"levelo_inurba_marseille","lat":43.30534,"lon":5.36534,"is_reserved":false,"is_disabled":false,"rental_uris":{"android":"levelo://app?vid=3f07f503-c683-43e2-889a-d6577be42c42","ios":"levelo://app?vid=3f07f503-c683-43e2-889a-d6577be42c42"},"vehicle_type_id":"4","last_reported":1743073698,"current_range_meters":15200,"station_id":"ce4bgs12rcd13ifvqcag","pricing_plan_id":"cebpf4jnsgd1na2vs0mg"},{"bike_id":"79f9cd7a-b757-4868-ac7f-f496b875c21d","system_id":"levelo_inurba_marseille","lat":43.27988,"lon":5.41656,"is_reserved":false,"is_disabled":false,"rental_uris":{"android":"levelo://app?vid=79f9cd7a-b757-4868-ac7f-f496b875c21d","ios":"levelo://app?vid=79f9cd7a-b757-4868-ac7f-f496b875c21d"},"vehicle_type_id":"4","last_reported":1743073698,"current_range_meters":15200,"station_id":"ce4bho12rcd13ifvqh1g","pricing_plan_id":"cebpf4jnsgd1na2vs0mg"},{"bike_id":"2e919ca5-ce98-4c47-a9d7-66e6ab7584e4","system_id":"levelo_inurba_marseille","lat":43.32111,"lon":5.36763,"is_reserved":false,"is_disabled":false,"rental_uris":{"android":"levelo://app?vid=2e919ca5-ce98-4c47-a9d7-66e6ab7584e4","ios":"levelo://app?vid=2e919ca5-ce98-4c47-a9d7-66e6ab7584e4"},"vehicle_type_id":"4","last_reported":1743073698,"current_range_meters":15200,"station_id":"ce4bhrh2rcd13ifvqhug","pricing_plan_id":"cebpf4jnsgd1na2vs0mg"},{"bike_id":"08ef0f16-9a71-436e-a0e4-14de5051310f","system_id":"levelo_inurba_marseille","lat":43.30915,"lon":5.36877,"is_reserved":false,"is_disabled":false,"rental_uris":{"android":"levelo://app?vid=08ef0f16-9a71-436e-a0e4-14de5051310f","ios":"levelo://app?vid=08ef0f16-9a71-436e-a0e4-14de5051310f"},"vehicle_type_id":"4","last_reported":1743073698,"current_range_meters":16000,"station_id":"ce4bgn92rcd13ifvqbvg","pricing_plan_id":"cebpf4jnsgd1na2vs0mg"},{"bike_id":"5e9bcdff-37e4-4390-9307-9f3cf7acb9c6","system_id":"levelo_inurba_marseille","lat":43.25494,"lon":5.37649,"is_reserved":false,"is_disabled":false,"rental_uris":{"android":"levelo://app?vid=5e9bcdff-37e4-4390-9307-9f3cf7acb9c6","ios":"levelo://app?vid=5e9bcdff-37e4-4390-9307-9f3cf7acb9c6"},"vehicle_type_id":"4","last_reported":1743073698,"current_range_meters":16000,"station_id":"ce4bhh12rcd13ifvqff0","pricing_plan_id":"cebpf4jnsgd1na2vs0mg"},{"bike_id":"1482affe-c766-4816-bf38-6b83120b702f","system_id":"levelo_inurba_marseille","lat":43.24159,"lon":5.3969,"is_reserved":false,"is_disabled":false,"rental_uris":{"android":"levelo://app?vid=1482affe-c766-4816-bf38-6b83120b702f","ios":"levelo://app?vid=1482affe-c766-4816-bf38-6b83120b702f"},"vehicle_type_id":"4","last_reported":1743073698,"current_range_meters":16000,"station_id":"ce4bhn12rcd13ifvqgpg","pricing_plan_id":"cebpf4jnsgd1na2vs0mg"},{"bike_id":"cb616434-f9bf-47e9-a797-b80a06d64690","system_id":"levelo_inurba_marseille","lat":43.275,"lon":5.42449,"is_reserved":false,"is_disabled":false,"rental_uris":{"android":"levelo://app?vid=cb616434-f9bf-47e9-a797-b80a06d64690","ios":"levelo://app?vid=cb616434-f9bf-47e9-a797-b80a06d64690"},"vehicle_type_id":"4","last_reported":1743073698,"current_range_meters":16000,"station_id":"ce4bhn92rcd13ifvqgrg","pricing_plan_id":"cebpf4jnsgd1na2vs0mg"},{"bike_id":"bb6d3e35-eb6d-49e4-9094-4a82b36c2c46","system_id":"levelo_inurba_marseille","lat":43.32358,"lon":5.36735,"is_reserved":false,"is_disabled":false,"rental_uris":{"android":"levelo://app?vid=bb6d3e35-eb6d-49e4-9094-4a82b36c2c46","ios":"levelo://app?vid=bb6d3e35-eb6d-49e4-9094-4a82b36c2c46"},"vehicle_type_id":"4","last_reported":1743073698,"current_range_meters":16000,"station_id":"ce4bhsh2rcd13ifvqi2g","pricing_plan_id":"cebpf4jnsgd1na2vs0mg"},{"bike_id":"7a3f91c7-02bb-4f12-8ca9-895daca4fa68","system_id":"levelo_inurba_marseille","lat":43.2978,"lon":5.39333,"is_reserved":false,"is_disabled":false,"rental_uris":{"android":"levelo://app?vid=7a3f91c7-02bb-4f12-8ca9-895daca4fa68","ios":"levelo://app?vid=7a3f91c7-02bb-4f12-8ca9-895daca4fa68"},"vehicle_type_id":"4","last_reported":1743073698,"current_range_meters":16000,"station_id":"chh1huq6cuj3fo74tm60","pricing_plan_id":"cebpf4jnsgd1na2vs0mg"},{"bike_id":"d06ccb55-2d92-485b-a3f4-5434f0c3f88a","system_id":"levelo_inurba_marseille","lat":43.296211,"lon":5.371661,"is_reserved":false,"is_disabled":false,"rental_uris":{"android":"levelo://app?vid=d06ccb55-2d92-485b-a3f4-5434f0c3f88a","ios":"levelo://app?vid=d06ccb55-2d92-485b-a3f4-5434f0c3f88a"},"vehicle_type_id":"4","last_reported":1743073698,"current_range_meters":16400,"station_id":"ce4bgnh2rcd13ifvqc0g","pricing_plan_id":"cebpf4jnsgd1na2vs0mg"},{"bike_id":"6c55c28d-205a-4869-88a2-d03cceff5c1a","system_id":"levelo_inurba_marseille","lat":43.29849,"lon":5.36275,"is_reserved":false,"is_disabled":false,"rental_uris":{"android":"levelo://app?vid=6c55c28d-205a-4869-88a2-d03cceff5c1a","ios":"levelo://app?vid=6c55c28d-205a-4869-88a2-d03cceff5c1a"},"vehicle_type_id":"4","last_reported":1743073698,"current_range_meters":16400,"station_id":"ce4bgpp2rcd13ifvqc3g","pricing_plan_id":"cebpf4jnsgd1na2vs0mg"},{"bike_id":"94d5bc28-e6ae-4b4b-99ee-30ba3e27dc71","system_id":"levelo_inurba_marseille","lat":43.31353,"lon":5.36747,"is_reserved":false,"is_disabled":false,"rental_uris":{"android":"levelo://app?vid=94d5bc28-e6ae-4b4b-99ee-30ba3e27dc71","ios":"levelo://app?vid=94d5bc28-e6ae-4b4b-99ee-30ba3e27dc71"},"vehicle_type_id":"4","last_reported":1743073698,"current_range_meters":16400,"station_id":"ce4bgr92rcd13ifvqc6g","pricing_plan_id":"cebpf4jnsgd1na2vs0mg"},{"bike_id":"551524f0-2526-4326-9682-073845e90938","system_id":"levelo_inurba_marseille","lat":43.30543,"lon":5.36698,"is_reserved":false,"is_disabled":false,"rental_uris":{"android":"levelo://app?vid=551524f0-2526-4326-9682-073845e90938","ios":"levelo://app?vid=551524f0-2526-4326-9682-073845e90938"},"vehicle_type_id":"4","last_reported":1743073698,"current_range_meters":16400,"station_id":"ce4bgrp2rcd13ifvqc9g","pricing_plan_id":"cebpf4jnsgd1na2vs0mg"},{"bike_id":"855985e2-b9d9-4904-ba17-9d90a36c68d8","system_id":"levelo_inurba_marseille","lat":43.30561,"lon":5.36765,"is_reserved":false,"is_disabled":false,"rental_uris":{"android":"levelo://app?vid=855985e2-b9d9-4904-ba17-9d90a36c68d8","ios":"levelo://app?vid=855985e2-b9d9-4904-ba17-9d90a36c68d8"},"vehicle_type_id":"4","last_reported":1743073698,"current_range_meters":16400,"station_id":"ce4bgrp2rcd13ifvqc9g","pricing_plan_id":"cebpf4jnsgd1na2vs0mg"},{"bike_id":"a00cc33c-2bc4-4c78-817a-62a76e486c2d","system_id":"levelo_inurba_marseille","lat":43.30124,"lon":5.37429,"is_reserved":false,"is_disabled":false,"rental_uris":{"android":"levelo://app?vid=a00cc33c-2bc4-4c78-817a-62a76e486c2d","ios":"levelo://app?vid=a00cc33c-2bc4-4c78-817a-62a76e486c2d"},"vehicle_type_id":"4","last_reported":1743073698,"current_range_meters":16400,"station_id":"ce4bgs92rcd13ifvqcc0","pricing_plan_id":"cebpf4jnsgd1na2vs0mg"},{"bike_id":"1e1be4ea-079b-4935-bf7d-3840c6f0a912","system_id":"levelo_inurba_marseille","lat":43.30131,"lon":5.37427,"is_reserved":false,"is_disabled":false,"rental_uris":{"android":"levelo://app?vid=1e1be4ea-079b-4935-bf7d-3840c6f0a912","ios":"levelo://app?vid=1e1be4ea-079b-4935-bf7d-3840c6f0a912"},"vehicle_type_id":"4","last_reported":1743073698,"current_range_meters":16400,"station_id":"ce4bgs92rcd13ifvqcc0","pricing_plan_id":"cebpf4jnsgd1na2vs0mg"},{"bike_id":"46724592-e3ef-4a83-b8a6-1ab7ce6d87c7","system_id":"levelo_inurba_marseille","lat":43.31476,"lon":5.37305,"is_reserved":false,"is_disabled":false,"rental_uris":{"android":"levelo://app?vid=46724592-e3ef-4a83-b8a6-1ab7ce6d87c7","ios":"levelo://app?vid=46724592-e3ef-4a83-b8a6-1ab7ce6d87c7"},"vehicle_type_id":"4","last_reported":1743073698,"current_range_meters":16400,"station_id":"ce4bgt12rcd13ifvqcd0","pricing_plan_id":"cebpf4jnsgd1na2vs0mg"},{"bike_id":"08f0641e-5377-440a-affe-9d738fb5f25c","system_id":"levelo_inurba_marseille","lat":43.3028,"lon":5.3773,"is_reserved":false,"is_disabled":false,"rental_uris":{"android":"levelo://app?vid=08f0641e-5377-440a-affe-9d738fb5f25c","ios":"levelo://app?vid=08f0641e-5377-440a-affe-9d738fb5f25c"},"vehicle_type_id":"4","last_reported":1743073698,"current_range_meters":16400,"station_id":"ce4bguh2rcd13ifvqcj0","pricing_plan_id":"cebpf4jnsgd1na2vs0mg"},{"bike_id":"f778ec29-7318-45c2-ad85-222bc2d86522","system_id":"levelo_inurba_marseille","lat":43.30885,"lon":5.37191,"is_reserved":false,"is_disabled":false,"rental_uris":{"android":"levelo://app?vid=f778ec29-7318-45c2-ad85-222bc2d86522","ios":"levelo://app?vid=f778ec29-7318-45c2-ad85-222bc2d86522"},"vehicle_type_id":"4","last_reported":1743073698,"current_range_meters":16400,"station_id":"ce4bguh2rcd13ifvqckg","pricing_plan_id":"cebpf4jnsgd1na2vs0mg"},{"bike_id":"8f4aea68-6617-4fc3-a4c5-fa10c2202c43","system_id":"levelo_inurba_marseille","lat":43.24648,"lon":5.38891,"is_reserved":false,"is_disabled":false,"rental_uris":{"android":"levelo://app?vid=8f4aea68-6617-4fc3-a4c5-fa10c2202c43","ios":"levelo://app?vid=8f4aea68-6617-4fc3-a4c5-fa10c2202c43"},"vehicle_type_id":"4","last_reported":1743073698,"current_range_meters":16400,"station_id":"ce4bhg12rcd13ifvqf60","pricing_plan_id":"cebpf4jnsgd1na2vs0mg"},{"bike_id":"6b26b053-03e6-4938-b1cb-8b036ed0694e","system_id":"levelo_inurba_marseille","lat":43.27492,"lon":5.42455,"is_reserved":false,"is_disabled":false,"rental_uris":{"android":"levelo://app?vid=6b26b053-03e6-4938-b1cb-8b036ed0694e","ios":"levelo://app?vid=6b26b053-03e6-4938-b1cb-8b036ed0694e"},"vehicle_type_id":"4","last_reported":1743073698,"current_range_meters":16400,"station_id":"ce4bhn92rcd13ifvqgrg","pricing_plan_id":"cebpf4jnsgd1na2vs0mg"},{"bike_id":"9f9f0fd6-b397-40c1-8f20-d819d1e018a6","system_id":"levelo_inurba_marseille","lat":43.28144,"lon":5.42642,"is_reserved":false,"is_disabled":false,"rental_uris":{"android":"levelo://app?vid=9f9f0fd6-b397-40c1-8f20-d819d1e018a6","ios":"levelo://app?vid=9f9f0fd6-b397-40c1-8f20-d819d1e018a6"},"vehicle_type_id":"4","last_reported":1743073698,"current_range_meters":16400,"station_id":"ce4bhnh2rcd13ifvqgug","pricing_plan_id":"cebpf4jnsgd1na2vs0mg"},{"bike_id":"3a686754-d066-44c3-9903-3df6722176b0","system_id":"levelo_inurba_marseille","lat":43.28156,"lon":5.42646,"is_reserved":false,"is_disabled":false,"rental_uris":{"android":"levelo://app?vid=3a686754-d066-44c3-9903-3df6722176b0","ios":"levelo://app?vid=3a686754-d066-44c3-9903-3df6722176b0"},"vehicle_type_id":"4","last_reported":1743073698,"current_range_meters":16400,"station_id":"ce4bhnh2rcd13ifvqgug","pricing_plan_id":"cebpf4jnsgd1na2vs0mg"},{"bike_id":"3ded1608-4f23-4370-bd0f-094558d46664","system_id":"levelo_inurba_marseille","lat":43.28137,"lon":5.42645,"is_reserved":false,"is_disabled":false,"rental_uris":{"android":"levelo://app?vid=3ded1608-4f23-4370-bd0f-094558d46664","ios":"levelo://app?vid=3ded1608-4f23-4370-bd0f-094558d46664"},"vehicle_type_id":"4","last_reported":1743073698,"current_range_meters":16400,"station_id":"ce4bhnh2rcd13ifvqgug","pricing_plan_id":"cebpf4jnsgd1na2vs0mg"},{"bike_id":"3c5fc873-e516-4a25-9679-00b3204e9d4f","system_id":"levelo_inurba_marseille","lat":43.31996,"lon":5.38166,"is_reserved":false,"is_disabled":false,"rental_uris":{"android":"levelo://app?vid=3c5fc873-e516-4a25-9679-00b3204e9d4f","ios":"levelo://app?vid=3c5fc873-e516-4a25-9679-00b3204e9d4f"},"vehicle_type_id":"4","last_reported":1743073698,"current_range_meters":16400,"station_id":"ce4bhr12rcd13ifvqhpg","pricing_plan_id":"cebpf4jnsgd1na2vs0mg"},{"bike_id":"e88633e4-be91-411d-ac01-d0236c4ec32a","system_id":"levelo_inurba_marseille","lat":43.29831,"lon":5.36261,"is_reserved":false,"is_disabled":false,"rental_uris":{"android":"levelo://app?vid=e88633e4-be91-411d-ac01-d0236c4ec32a","ios":"levelo://app?vid=e88633e4-be91-411d-ac01-d0236c4ec32a"},"vehicle_type_id":"4","last_reported":1743073698,"current_range_meters":16800,"station_id":"ce4bgpp2rcd13ifvqc3g","pricing_plan_id":"cebpf4jnsgd1na2vs0mg"},{"bike_id":"5853ab70-5016-4ab9-9f32-22ff8c1e2def","system_id":"levelo_inurba_marseille","lat":43.28099,"lon":5.378306,"is_reserved":false,"is_disabled":false,"rental_uris":{"android":"levelo://app?vid=5853ab70-5016-4ab9-9f32-22ff8c1e2def","ios":"levelo://app?vid=5853ab70-5016-4ab9-9f32-22ff8c1e2def"},"vehicle_type_id":"4","last_reported":1743073698,"current_range_meters":16800,"station_id":"ce4bha12rcd13ifvqee0","pricing_plan_id":"cebpf4jnsgd1na2vs0mg"},{"bike_id":"011c24bb-59dc-4e19-8b64-ed325886ef4a","system_id":"levelo_inurba_marseille","lat":43.27904,"lon":5.380123,"is_reserved":false,"is_disabled":false,"rental_uris":{"android":"levelo://app?vid=011c24bb-59dc-4e19-8b64-ed325886ef4a","ios":"levelo://app?vid=011c24bb-59dc-4e19-8b64-ed325886ef4a"},"vehicle_type_id":"4","last_reported":1743073698,"current_range_meters":16800,"station_id":"ce4bhf92rcd13ifvqf50","pricing_plan_id":"cebpf4jnsgd1na2vs0mg"},{"bike_id":"635c6c22-192f-465d-b6de-8bf69d59c045","system_id":"levelo_inurba_marseille","lat":43.26676,"lon":5.38298,"is_reserved":false,"is_disabled":false,"rental_uris":{"android":"levelo://app?vid=635c6c22-192f-465d-b6de-8bf69d59c045","ios":"levelo://app?vid=635c6c22-192f-465d-b6de-8bf69d59c045"},"vehicle_type_id":"4","last_reported":1743073698,"current_range_meters":16800,"station_id":"ce4bhg92rcd13ifvqf90","pricing_plan_id":"cebpf4jnsgd1na2vs0mg"},{"bike_id":"1ad322fa-9af5-486b-8913-37f2ada413a4","system_id":"levelo_inurba_marseille","lat":43.26947,"lon":5.38614,"is_reserved":false,"is_disabled":false,"rental_uris":{"android":"levelo://app?vid=1ad322fa-9af5-486b-8913-37f2ada413a4","ios":"levelo://app?vid=1ad322fa-9af5-486b-8913-37f2ada413a4"},"vehicle_type_id":"4","last_reported":1743073698,"current_range_meters":16800,"station_id":"ce4bhh92rcd13ifvqfh0","pricing_plan_id":"cebpf4jnsgd1na2vs0mg"},{"bike_id":"2063d54c-f191-4550-b028-31cd5348f1d3","system_id":"levelo_inurba_marseille","lat":43.27678,"lon":5.38874,"is_reserved":false,"is_disabled":false,"rental_uris":{"android":"levelo://app?vid=2063d54c-f191-4550-b028-31cd5348f1d3","ios":"levelo://app?vid=2063d54c-f191-4550-b028-31cd5348f1d3"},"vehicle_type_id":"4","last_reported":1743073698,"current_range_meters":16800,"station_id":"ce4bhi12rcd13ifvqfo0","pricing_plan_id":"cebpf4jnsgd1na2vs0mg"},{"bike_id":"e41f34e9-a34d-4577-8c68-ded341a3f709","system_id":"levelo_inurba_marseille","lat":43.23153,"lon":5.4373,"is_reserved":false,"is_disabled":false,"rental_uris":{"android":"levelo://app?vid=e41f34e9-a34d-4577-8c68-ded341a3f709","ios":"levelo://app?vid=e41f34e9-a34d-4577-8c68-ded341a3f709"},"vehicle_type_id":"4","last_reported":1743073698,"current_range_meters":16800,"station_id":"ce4bhmp2rcd13ifvqgog","pricing_plan_id":"cebpf4jnsgd1na2vs0mg"},{"bike_id":"54cc4c20-3917-4ad1-87bd-fbbd4fd7c9a9","system_id":"levelo_inurba_marseille","lat":43.28075,"lon":5.3964,"is_reserved":false,"is_disabled":false,"rental_uris":{"android":"levelo://app?vid=54cc4c20-3917-4ad1-87bd-fbbd4fd7c9a9","ios":"levelo://app?vid=54cc4c20-3917-4ad1-87bd-fbbd4fd7c9a9"},"vehicle_type_id":"4","last_reported":1743073698,"current_range_meters":16800,"station_id":"ce4bho12rcd13ifvqh2g","pricing_plan_id":"cebpf4jnsgd1na2vs0mg"},{"bike_id":"71282aff-7b4c-4aa4-8f16-e85d45790c08","system_id":"levelo_inurba_marseille","lat":43.28005,"lon":5.40009,"is_reserved":false,"is_disabled":false,"rental_uris":{"android":"levelo://app?vid=71282aff-7b4c-4aa4-8f16-e85d45790c08","ios":"levelo://app?vid=71282aff-7b4c-4aa4-8f16-e85d45790c08"},