{"last_updated":1723504169,"ttl":30,"version":"2.2","data":{"bikes":[{"bike_id":"d46e6444-cf95-4b07-948a-348b91114430","system_id":"levelo_inurba_marseille","lat":43.313391,"lon":5.36706,"is_reserved":false,"is_disabled":false,"rental_uris":{"android":"levelo://app?vid=d46e6444-cf95-4b07-948a-348b91114430","ios":"levelo://app?vid=d46e6444-cf95-4b07-948a-348b91114430"},"vehicle_type_id":"4","last_reported":1723504169,"current_range_meters":11200,"station_id":"ce4bgr92rcd13ifvqc6g","pricing_plan_id":"cebpf4jnsgd1na2vs0mg"},{"bike_id":"34ac7ac7-1aeb-4a58-96ec-a332a87dcca4","system_id":"levelo_inurba_marseille","lat":43.312239,"lon":5.368562,"is_reserved":false,"is_disabled":false,"rental_uris":{"android":"levelo://app?vid=34ac7ac7-1aeb-4a58-96ec-a332a87dcca4","ios":"levelo://app?vid=34ac7ac7-1aeb-4a58-96ec-a332a87dcca4"},"vehicle_type_id":"4","last_reported":1723504169,"current_range_meters":0,"station_id":"ce4bgl92rcd13ifvqbq0","pricing_plan_id":"cebpf4jnsgd1na2vs0mg"},{"bike_id":"8ab6d169-9555-4791-be02-8aa6cf158f15","system_id":"levelo_inurba_marseille","lat":43.313391,"lon":5.36706,"is_reserved":false,"is_disabled":false,"rental_uris":{"android":"levelo://app?vid=8ab6d169-9555-4791-be02-8aa6cf158f15","ios":"levelo://app?vid=8ab6d169-9555-4791-be02-8aa6cf158f15"},"vehicle_type_id":"4","last_reported":1723504169,"current_range_meters":14000,"station_id":"ce4bgr92rcd13ifvqc6g","pricing_plan_id":"cebpf4jnsgd1na2vs0mg"},{"bike_id":"f8f75344-598e-429c-ab5a-917ffb2eda57","system_id":"levelo_inurba_marseille","lat":43.309076,"lon":5.368465,"is_reserved":false,"is_disabled":false,"rental_uris":{"android":"levelo://app?vid=f8f75344-598e-429c-ab5a-917ffb2eda57","ios":"levelo://app?vid=f8f75344-598e-429c-ab5a-917ffb2eda57"},"vehicle_type_id":"4","last_reported":1723504169,"current_range_meters":30000,"station_id":"ce4bgn92rcd13ifvqbvg","pricing_plan_id":"cebpf4jnsgd1na2vs0mg"},{"bike_id":"64133550-0200-4158-a441-5e4bf7421180","system_id":"levelo_inurba_marseille","lat":43.309076,"lon":5.368465,"is_reserved":false,"is_disabled":false,"rental_uris":{"android":"levelo://app?vid=64133550-0200-4158-a441-5e4bf7421180","ios":"levelo://app?vid=64133550-0200-4158-a441-5e4bf7421180"},"vehicle_type_id":"4","last_reported":1723504169,"current_range_meters":29200,"station_id":"ce4bgn92rcd13ifvqbvg","pricing_plan_id":"cebpf4jnsgd1na2vs0mg"},{"bike_id":"9877207a-70a7-4dcb-88b3-67de9e43435f","system_id":"levelo_inurba_marseille","lat":43.314811,"lon":5.373103,"is_reserved":false,"is_disabled":false,"rental_uris":{"android":"levelo://app?vid=9877207a-70a7-4dcb-88b3-67de9e43435f","ios":"levelo://app?vid=9877207a-70a7-4dcb-88b3-67de9e43435f"},"vehicle_type_id":"4","last_reported":1723504169,"current_range_meters":11200,"station_id":"ce4bgt12rcd13ifvqcd0","pricing_plan_id":"cebpf4jnsgd1na2vs0mg"},{"bike_id":"5b4dd74c-1e1e-4088-93bc-7db57b917adf","system_id":"levelo_inurba_marseille","lat":43.314811,"lon":5.373103,"is_reserved":false,"is_disabled":false,"rental_uris":{"android":"levelo://app?vid=5b4dd74c-1e1e-4088-93bc-7db57b917adf","ios":"levelo://app?vid=5b4dd74c-1e1e-4088-93bc-7db57b917adf"},"vehicle_type_id":"4","last_reported":1723504169,"current_range_meters":25600,"station_id":"ce4bgt12rcd13ifvqcd0","pricing_plan_id":"cebpf4jnsgd1na2vs0mg"},{"bike_id":"e0f14686-e73c-49a3-83c3-59d51a71415f","system_id":"levelo_inurba_marseille","lat":43.314811,"lon":5.373103,"is_reserved":false,"is_disabled":false,"rental_uris":{"android":"levelo://app?vid=e0f14686-e73c-49a3-83c3-59d51a71415f","ios":"levelo://app?vid=e0f14686-e73c-49a3-83c3-59d51a71415f"},"vehicle_type_id":"4","last_reported":1723504169,"current_range_meters":5200,"station_id":"ce4bgt12rcd13ifvqcd0","pricing_plan_id":"cebpf4jnsgd1na2vs0mg"},{"bike_id":"d5172921-7a77-4e9b-8e45-5134e8e6ab11","system_id":"levelo_inurba_marseille","lat":43.31477,"lon":5.37307,"is_reserved":false,"is_disabled":false,"rental_uris":{"android":"levelo://app?vid=d5172921-7a77-4e9b-8e45-5134e8e6ab11","ios":"levelo://app?vid=d5172921-7a77-4e9b-8e45-5134e8e6ab11"},"vehicle_type_id":"4","last_reported":1723504169,"current_range_meters":4400,"station_id":"","pricing_plan_id":"cebpf4jnsgd1na2vs0mg"},{"bike_id":"baf02cb3-dc9e-4428-8783-d4bbcbc53794","system_id":"levelo_inurba_marseille","lat":43.314811,"lon":5.373104,"is_reserved":false,"is_disabled":false,"rental_uris":{"android":"levelo://app?vid=baf02cb3-dc9e-4428-8783-d4bbcbc53794","ios":"levelo://app?vid=baf02cb3-dc9e-4428-8783-d4bbcbc53794"},"vehicle_type_id":"4","last_reported":1723504169,"current_range_meters":10400,"station_id":"ce4bgt12rcd13ifvqcd0","pricing_plan_id":"cebpf4jnsgd1na2vs0mg"},{"bike_id":"6bd16f72-6f71-4425-b7cd-2a77d7fdace7","system_id":"levelo_inurba_marseille","lat":43.314811,"lon":5.373103,"is_reserved":false,"is_disabled":false,"rental_uris":{"android":"levelo://app?vid=6bd16f72-6f71-4425-b7cd-2a77d7fdace7","ios":"levelo://app?vid=6bd16f72-6f71-4425-b7cd-2a77d7fdace7"},"vehicle_type_id":"4","last_reported":1723504169,"current_range_meters":5600,"station_id":"ce4bgt12rcd13ifvqcd0","pricing_plan_id":"cebpf4jnsgd1na2vs0mg"},{"bike_id":"113592c1-9e6d-41c4-b9a0-889a321497fd","system_id":"levelo_inurba_marseille","lat":43.314811,"lon":5.373103,"is_reserved":false,"is_disabled":false,"rental_uris":{"android":"levelo://app?vid=113592c1-9e6d-41c4-b9a0-889a321497fd","ios":"levelo://app?vid=113592c1-9e6d-41c4-b9a0-889a321497fd"},"vehicle_type_id":"4","last_reported":1723504169,"current_range_meters":30800,"station_id":"ce4bgt12rcd13ifvqcd0","pricing_plan_id":"cebpf4jnsgd1na2vs0mg"},{"bike_id":"980345e2-2394-4433-a1e9-fe57299431f8","system_id":"levelo_inurba_marseille","lat":43.314811,"lon":5.373103,"is_reserved":false,"is_disabled":false,"rental_uris":{"android":"levelo://app?vid=980345e2-2394-4433-a1e9-fe57299431f8","ios":"levelo://app?vid=980345e2-2394-4433-a1e9-fe57299431f8"},"vehicle_type_id":"4","last_reported":1723504169,"current_range_meters":5600,"station_id":"ce4bgt12rcd13ifvqcd0","pricing_plan_id":"cebpf4jnsgd1na2vs0mg"},{"bike_id":"d92407f0-df37-4933-843f-39c669d0b0c2","system_id":"levelo_inurba_marseille","lat":43.314811,"lon":5.373103,"is_reserved":false,"is_disabled":false,"rental_uris":{"android":"levelo://app?vid=d92407f0-df37-4933-843f-39c669d0b0c2","ios":"levelo://app?vid=d92407f0-df37-4933-843f-39c669d0b0c2"},"vehicle_type_id":"4","last_reported":1723504169,"current_range_meters":4400,"station_id":"ce4bgt12rcd13ifvqcd0","pricing_plan_id":"cebpf4jnsgd1na2vs0mg"},{"bike_id":"948f156d-de83-4e65-be3d-6b5fb5f7defa","system_id":"levelo_inurba_marseille","lat":43.314811,"lon":5.373103,"is_reserved":false,"is_disabled":false,"rental_uris":{"android":"levelo://app?vid=948f156d-de83-4e65-be3d-6b5fb5f7defa","ios":"levelo://app?vid=948f156d-de83-4e65-be3d-6b5fb5f7defa"},"vehicle_type_id":"4","last_reported":1723504169,"current_range_meters":12000,"station_id":"ce4bgt12rcd13ifvqcd0","pricing_plan_id":"cebpf4jnsgd1na2vs0mg"},{"bike_id":"97ed50c0-349a-4c34-b756-ff1b0f390601","system_id":"levelo_inurba_marseille","lat":43.314811,"lon":5.373103,"is_reserved":false,"is_disabled":false,"rental_uris":{"android":"levelo://app?vid=97ed50c0-349a-4c34-b756-ff1b0f390601","ios":"levelo://app?vid=97ed50c0-349a-4c34-b756-ff1b0f390601"},"vehicle_type_id":"4","last_reported":1723504169,"current_range_meters":0,"station_id":"ce4bgt12rcd13ifvqcd0","pricing_plan_id":"cebpf4jnsgd1na2vs0mg"},{"bike_id":"fc3d2cec-0866-4a18-81d1-d9ce881eed76","system_id":"levelo_inurba_marseille","lat":43.314811,"lon":5.373103,"is_reserved":false,"is_disabled":false,"rental_uris":{"android":"levelo://app?vid=fc3d2cec-0866-4a18-81d1-d9ce881eed76","ios":"levelo://app?vid=fc3d2cec-0866-4a18-81d1-d9ce881eed76"},"vehicle_type_id":"4","last_reported":1723504169,"current_range_meters":0,"station_id":"ce4bgt12rcd13ifvqcd0","pricing_plan_id":"cebpf4jnsgd1na2vs0mg"},{"bike_id":"b812464d-106f-421c-8cba-252ed1aa340d","system_id":"levelo_inurba_marseille","lat":43.314811,"lon":5.373103,"is_reserved":false,"is_disabled":false,"rental_uris":{"android":"levelo://app?vid=b812464d-106f-421c-8cba-252ed1aa340d","ios":"levelo://app?vid=b812464d-106f-421c-8cba-252ed1aa340d"},"vehicle_type_id":"4","last_reported":1723504169,"current_range_meters":0,"station_id":"ce4bgt12rcd13ifvqcd0","pricing_plan_id":"cebpf4jnsgd1na2vs0mg"},{"bike_id":"4affdc83-f4f0-479b-a289-c082587711d9","system_id":"levelo_inurba_marseille","lat":43.314811,"lon":5.373104,"is_reserved":false,"is_disabled":false,"rental_uris":{"android":"levelo://app?vid=4affdc83-f4f0-479b-a289-c082587711d9","ios":"levelo://app?vid=4affdc83-f4f0-479b-a289-c082587711d9"},"vehicle_type_id":"4","last_reported":1723504169,"current_range_meters":16000,"station_id":"ce4bgt12rcd13ifvqcd0","pricing_plan_id":"cebpf4jnsgd1na2vs0mg"},{"bike_id":"af782b14-2398-4a14-944f-03671024c6ca","system_id":"levelo_inurba_marseille","lat":43.314811,"lon":5.373104,"is_reserved":false,"is_disabled":false,"rental_uris":{"android":"levelo://app?vid=af782b14-2398-4a14-944f-03671024c6ca","ios":"levelo://app?vid=af782b14-2398-4a14-944f-03671024c6ca"},"vehicle_type_id":"4","last_reported":1723504169,"current_range_meters":24800,"station_id":"ce4bgt12rcd13ifvqcd0","pricing_plan_id":"cebpf4jnsgd1na2vs0mg"},{"bike_id":"7e2961bd-fe87-45af-8f8d-4189385f4634","system_id":"levelo_inurba_marseille","lat":43.31441,"lon":5.37379,"is_reserved":false,"is_disabled":false,"rental_uris":{"android":"levelo://app?vid=7e2961bd-fe87-45af-8f8d-4189385f4634","ios":"levelo://app?vid=7e2961bd-fe87-45af-8f8d-4189385f4634"},"vehicle_type_id":"4","last_reported":1723504169,"current_range_meters":20400,"station_id":"","pricing_plan_id":"cebpf4jnsgd1na2vs0mg"},{"bike_id":"bd6fb76c-1a56-4b98-99cc-61ce4fd90da3","system_id":"levelo_inurba_marseille","lat":43.314811,"lon":5.373104,"is_reserved":false,"is_disabled":false,"rental_uris":{"android":"levelo://app?vid=bd6fb76c-1a56-4b98-99cc-61ce4fd90da3","ios":"levelo://app?vid=bd6fb76c-1a56-4b98-99cc-61ce4fd90da3"},"vehicle_type_id":"4","last_reported":1723504169,"current_range_meters":23200,"station_id":"ce4bgt12rcd13ifvqcd0","pricing_plan_id":"cebpf4jnsgd1na2vs0mg"},{"bike_id":"6446854d-de26-432c-870f-142a6a63971d","system_id":"levelo_inurba_marseille","lat":43.30977,"lon":5.37355,"is_reserved":false,"is_disabled":false,"rental_uris":{"android":"levelo://app?vid=6446854d-de26-432c-870f-142a6a63971d","ios":"levelo://app?vid=6446854d-de26-432c-870f-142a6a63971d"},"vehicle_type_id":"4","last_reported":1723504169,"current_range_meters":0,"station_id":"","pricing_plan_id":"cebpf4jnsgd1na2vs0mg"},{"bike_id":"eccaf0a0-80f9-4b38-8bd5-c020a56bd482","system_id":"levelo_inurba_marseille","lat":43.314811,"lon":5.373104,"is_reserved":false,"is_disabled":false,"rental_uris":{"android":"levelo://app?vid=eccaf0a0-80f9-4b38-8bd5-c020a56bd482","ios":"levelo://app?vid=eccaf0a0-80f9-4b38-8bd5-c020a56bd482"},"vehicle_type_id":"4","last_reported":1723504169,"current_range_meters":0,"station_id":"ce4bgt12rcd13ifvqcd0","pricing_plan_id":"cebpf4jnsgd1na2vs0mg"},{"bike_id":"1a8af9b9-5893-4d8a-ae3c-ebe3f50e095a","system_id":"levelo_inurba_marseille","lat":43.305997,"lon":5.372297,"is_reserved":false,"is_disabled":false,"rental_uris":{"android":"levelo://app?vid=1a8af9b9-5893-4d8a-ae3c-ebe3f50e095a","ios":"levelo://app?vid=1a8af9b9-5893-4d8a-ae3c-ebe3f50e095a"},"vehicle_type_id":"4","last_reported":1723504169,"current_range_meters":4800,"station_id":"ce4bgqh2rcd13ifvqc4g","pricing_plan_id":"cebpf4jnsgd1na2vs0mg"},{"bike_id":"79e1b5cc-1e0c-4935-b532-f75c73685bc7","system_id":"levelo_inurba_marseille","lat":43.30593,"lon":5.37218,"is_reserved":false,"is_disabled":false,"rental_uris":{"android":"levelo://app?vid=79e1b5cc-1e0c-4935-b532-f75c73685bc7","ios":"levelo://app?vid=79e1b5cc-1e0c-4935-b532-f75c73685bc7"},"vehicle_type_id":"4","last_reported":1723504169,"current_range_meters":12800,"station_id":"ce4bgqh2rcd13ifvqc4g","pricing_plan_id":"cebpf4jnsgd1na2vs0mg"},{"bike_id":"ed1472bf-799e-4154-a41b-d546613c610f","system_id":"levelo_inurba_marseille","lat":43.311125,"lon":5.377624,"is_reserved":false,"is_disabled":false,"rental_uris":{"android":"levelo://app?vid=ed1472bf-799e-4154-a41b-d546613c610f","ios":"levelo://app?vid=ed1472bf-799e-4154-a41b-d546613c610f"},"vehicle_type_id":"4","last_reported":1723504169,"current_range_meters":3600,"station_id":"ce4bgt92rcd13ifvqcg0","pricing_plan_id":"cebpf4jnsgd1na2vs0mg"},{"bike_id":"450425c5-8615-429f-a274-9fd3098b013a","system_id":"levelo_inurba_marseille","lat":43.311125,"lon":5.377624,"is_reserved":false,"is_disabled":false,"rental_uris":{"android":"levelo://app?vid=450425c5-8615-429f-a274-9fd3098b013a","ios":"levelo://app?vid=450425c5-8615-429f-a274-9fd3098b013a"},"vehicle_type_id":"4","last_reported":1723504169,"current_range_meters":20400,"station_id":"ce4bgt92rcd13ifvqcg0","pricing_plan_id":"cebpf4jnsgd1na2vs0mg"},{"bike_id":"ac34f013-b672-4b07-9776-5f14020c934b","system_id":"levelo_inurba_marseille","lat":43.311131,"lon":5.377651,"is_reserved":false,"is_disabled":false,"rental_uris":{"android":"levelo://app?vid=ac34f013-b672-4b07-9776-5f14020c934b","ios":"levelo://app?vid=ac34f013-b672-4b07-9776-5f14020c934b"},"vehicle_type_id":"4","last_reported":1723504169,"current_range_meters":26000,"station_id":"ce4bgt92rcd13ifvqcg0","pricing_plan_id":"cebpf4jnsgd1na2vs0mg"},{"bike_id":"73b23b3c-0e7c-4e2d-a88f-fedc79c8e4c9","system_id":"levelo_inurba_marseille","lat":43.311131,"lon":5.377651,"is_reserved":false,"is_disabled":false,"rental_uris":{"android":"levelo://app?vid=73b23b3c-0e7c-4e2d-a88f-fedc79c8e4c9","ios":"levelo://app?vid=73b23b3c-0e7c-4e2d-a88f-fedc79c8e4c9"},"vehicle_type_id":"4","last_reported":1723504169,"current_range_meters":26800,"station_id":"ce4bgt92rcd13ifvqcg0","pricing_plan_id":"cebpf4jnsgd1na2vs0mg"},{"bike_id":"06f8c4cd-1dd4-4f33-a4a2-f4a66f9a2eea","system_id":"levelo_inurba_marseille","lat":43.311131,"lon":5.377651,"is_reserved":false,"is_disabled":false,"rental_uris":{"android":"levelo://app?vid=06f8c4cd-1dd4-4f33-a4a2-f4a66f9a2eea","ios":"levelo://app?vid=06f8c4cd-1dd4-4f33-a4a2-f4a66f9a2eea"},"vehicle_type_id":"4","last_reported":1723504169,"current_range_meters":24800,"station_id":"ce4bgt92rcd13ifvqcg0","pricing_plan_id":"cebpf4jnsgd1na2vs0mg"},{"bike_id":"25e2d495-bd0a-42f8-b175-6c46d9f9599f","system_id":"levelo_inurba_marseille","lat":43.311131,"lon":5.377651,"is_reserved":false,"is_disabled":false,"rental_uris":{"android":"levelo://app?vid=25e2d495-bd0a-42f8-b175-6c46d9f9599f","ios":"levelo://app?vid=25e2d495-bd0a-42f8-b175-6c46d9f9599f"},"vehicle_type_id":"4","last_reported":1723504169,"current_range_meters":10800,"station_id":"ce4bgt92rcd13ifvqcg0","pricing_plan_id":"cebpf4jnsgd1na2vs0mg"},{"bike_id":"97c8f8c1-4bcb-4a89-b1ef-922dede07d76","system_id":"levelo_inurba_marseille","lat":43.311131,"lon":5.377651,"is_reserved":false,"is_disabled":false,"rental_uris":{"android":"levelo://app?vid=97c8f8c1-4bcb-4a89-b1ef-922dede07d76","ios":"levelo://app?vid=97c8f8c1-4bcb-4a89-b1ef-922dede07d76"},"vehicle_type_id":"4","last_reported":1723504169,"current_range_meters":4000,"station_id":"ce4bgt92rcd13ifvqcg0","pricing_plan_id":"cebpf4jnsgd1na2vs0mg"},{"bike_id":"dc67820b-e1b5-4368-91c1-61d2a33c6930","system_id":"levelo_inurba_marseille","lat":43.311125,"lon":5.377624,"is_reserved":false,"is_disabled":false,"rental_uris":{"android":"levelo://app?vid=dc67820b-e1b5-4368-91c1-61d2a33c6930","ios":"levelo://app?vid=dc67820b-e1b5-4368-91c1-61d2a33c6930"},"vehicle_type_id":"4","last_reported":1723504169,"current_range_meters":1600,"station_id":"ce4bgt92rcd13ifvqcg0","pricing_plan_id":"cebpf4jnsgd1na2vs0mg"},{"bike_id":"46f05002-3c0f-4740-acc7-a332a25a5fe9","system_id":"levelo_inurba_marseille","lat":43.311125,"lon":5.377624,"is_reserved":false,"is_disabled":false,"rental_uris":{"android":"levelo://app?vid=46f05002-3c0f-4740-acc7-a332a25a5fe9","ios":"levelo://app?vid=46f05002-3c0f-4740-acc7-a332a25a5fe9"},"vehicle_type_id":"4","last_reported":1723504169,"current_range_meters":23200,"station_id":"ce4bgt92rcd13ifvqcg0","pricing_plan_id":"cebpf4jnsgd1na2vs0mg"},{"bike_id":"eb41bf30-1237-46ce-af3a-791460b1fc23","system_id":"levelo_inurba_marseille","lat":43.311125,"lon":5.377624,"is_reserved":false,"is_disabled":false,"rental_uris":{"android":"levelo://app?vid=eb41bf30-1237-46ce-af3a-791460b1fc23","ios":"levelo://app?vid=eb41bf30-1237-46ce-af3a-791460b1fc23"},"vehicle_type_id":"4","last_reported":1723504169,"current_range_meters":24800,"station_id":"ce4bgt92rcd13ifvqcg0","pricing_plan_id":"cebpf4jnsgd1na2vs0mg"},{"bike_id":"3e3c64d6-ebc9-4dec-9096-d7d3b18623ac","system_id":"levelo_inurba_marseille","lat":43.311131,"lon":5.377651,"is_reserved":false,"is_disabled":false,"rental_uris":{"android":"levelo://app?vid=3e3c64d6-ebc9-4dec-9096-d7d3b18623ac","ios":"levelo://app?vid=3e3c64d6-ebc9-4dec-9096-d7d3b18623ac"},"vehicle_type_id":"4","last_reported":1723504169,"current_range_meters":4400,"station_id":"ce4bgt92rcd13ifvqcg0","pricing_plan_id":"cebpf4jnsgd1na2vs0mg"},{"bike_id":"39aa8a3b-54ae-40f7-855d-f6ce49517b75","system_id":"levelo_inurba_marseille","lat":43.307945,"lon":5.376487,"is_reserved":false,"is_disabled":false,"rental_uris":{"android":"levelo://app?vid=39aa8a3b-54ae-40f7-855d-f6ce49517b75","ios":"levelo://app?vid=39aa8a3b-54ae-40f7-855d-f6ce49517b75"},"vehicle_type_id":"4","last_reported":1723504169,"current_range_meters":18000,"station_id":"ce4bgv92rcd13ifvqcq0","pricing_plan_id":"cebpf4jnsgd1na2vs0mg"},{"bike_id":"0dbc02aa-30a2-451f-a03e-dfff1d2dc490","system_id":"levelo_inurba_marseille","lat":43.307945,"lon":5.376487,"is_reserved":false,"is_disabled":false,"rental_uris":{"android":"levelo://app?vid=0dbc02aa-30a2-451f-a03e-dfff1d2dc490","ios":"levelo://app?vid=0dbc02aa-30a2-451f-a03e-dfff1d2dc490"},"vehicle_type_id":"4","last_reported":1723504169,"current_range_meters":7600,"station_id":"ce4bgv92rcd13ifvqcq0","pricing_plan_id":"cebpf4jnsgd1na2vs0mg"},{"bike_id":"9d17c4df-151f-457b-9b19-153f573657c7","system_id":"levelo_inurba_marseille","lat":43.307945,"lon":5.376487,"is_reserved":false,"is_disabled":false,"rental_uris":{"android":"levelo://app?vid=9d17c4df-151f-457b-9b19-153f573657c7","ios":"levelo://app?vid=9d17c4df-151f-457b-9b19-153f573657c7"},"vehicle_type_id":"4","last_reported":1723504169,"current_range_meters":9600,"station_id":"ce4bgv92rcd13ifvqcq0","pricing_plan_id":"cebpf4jnsgd1na2vs0mg"},{"bike_id":"4c497721-79eb-4158-aa50-4b48e50f9df3","system_id":"levelo_inurba_marseille","lat":43.30778,"lon":5.37652,"is_reserved":false,"is_disabled":false,"rental_uris":{"android":"levelo://app?vid=4c497721-79eb-4158-aa50-4b48e50f9df3","ios":"levelo://app?vid=4c497721-79eb-4158-aa50-4b48e50f9df3"},"vehicle_type_id":"4","last_reported":1723504169,"current_range_meters":19200,"station_id":"","pricing_plan_id":"cebpf4jnsgd1na2vs0mg"},{"bike_id":"be4e3433-ae93-4bf4-b33b-76f482fd35a8","system_id":"levelo_inurba_marseille","lat":43.317075,"lon":5.377367,"is_reserved":false,"is_disabled":false,"rental_uris":{"android":"levelo://app?vid=be4e3433-ae93-4bf4-b33b-76f482fd35a8","ios":"levelo://app?vid=be4e3433-ae93-4bf4-b33b-76f482fd35a8"},"vehicle_type_id":"4","last_reported":1723504169,"current_range_meters":10000,"station_id":"ce4bgth2rcd13ifvqch0","pricing_plan_id":"cebpf4jnsgd1na2vs0mg"},{"bike_id":"ec59cc1e-3bf0-4709-8399-5378374a0ac7","system_id":"levelo_inurba_marseille","lat":43.3171,"lon":5.37741,"is_reserved":false,"is_disabled":false,"rental_uris":{"android":"levelo://app?vid=ec59cc1e-3bf0-4709-8399-5378374a0ac7","ios":"levelo://app?vid=ec59cc1e-3bf0-4709-8399-5378374a0ac7"},"vehicle_type_id":"4","last_reported":1723504169,"current_range_meters":31200,"station_id":"","pricing_plan_id":"cebpf4jnsgd1na2vs0mg"},{"bike_id":"8ee190a2-ab85-4a7f-8569-f213650a2355","system_id":"levelo_inurba_marseille","lat":43.317075,"lon":5.377367,"is_reserved":false,"is_disabled":false,"rental_uris":{"android":"levelo://app?vid=8ee190a2-ab85-4a7f-8569-f213650a2355","ios":"levelo://app?vid=8ee190a2-ab85-4a7f-8569-f213650a2355"},"vehicle_type_id":"4","last_reported":1723504169,"current_range_meters":10800,"station_id":"ce4bgth2rcd13ifvqch0","pricing_plan_id":"cebpf4jnsgd1na2vs0mg"},{"bike_id":"99ebb70c-b180-4860-b9ce-f7dcf559f7f2","system_id":"levelo_inurba_marseille","lat":43.317075,"lon":5.377367,"is_reserved":false,"is_disabled":false,"rental_uris":{"android":"levelo://app?vid=99ebb70c-b180-4860-b9ce-f7dcf559f7f2","ios":"levelo://app?vid=99ebb70c-b180-4860-b9ce-f7dcf559f7f2"},"vehicle_type_id":"4","last_reported":1723504169,"current_range_meters":30000,"station_id":"ce4bgth2rcd13ifvqch0","pricing_plan_id":"cebpf4jnsgd1na2vs0mg"},{"bike_id":"1b3240fd-cb8c-430c-b5c2-16286a07b938","system_id":"levelo_inurba_marseille","lat":43.317075,"lon":5.377367,"is_reserved":false,"is_disabled":false,"rental_uris":{"android":"levelo://app?vid=1b3240fd-cb8c-430c-b5c2-16286a07b938","ios":"levelo://app?vid=1b3240fd-cb8c-430c-b5c2-16286a07b938"},"vehicle_type_id":"4","last_reported":1723504169,"current_range_meters":0,"station_id":"ce4bgth2rcd13ifvqch0","pricing_plan_id":"cebpf4jnsgd1na2vs0mg"},{"bike_id":"ea202d65-90e7-4087-b834-d74fd5997041","system_id":"levelo_inurba_marseille","lat":43.317075,"lon":5.377367,"is_reserved":false,"is_disabled":false,"rental_uris":{"android":"levelo://app?vid=ea202d65-90e7-4087-b834-d74fd5997041","ios":"levelo://app?vid=ea202d65-90e7-4087-b834-d74fd5997041"},"vehicle_type_id":"4","last_reported":1723504169,"current_range_meters":28000,"station_id":"ce4bgth2rcd13ifvqch0","pricing_plan_id":"cebpf4jnsgd1na2vs0mg"},{"bike_id":"baf6d5c8-a836-45be-ad45-a1037dff5551","system_id":"levelo_inurba_marseille","lat":43.317075,"lon":5.377367,"is_reserved":false,"is_disabled":false,"rental_uris":{"android":"levelo://app?vid=baf6d5c8-a836-45be-ad45-a1037dff5551","ios":"levelo://app?vid=baf6d5c8-a836-45be-ad45-a1037dff5551"},"vehicle_type_id":"4","last_reported":1723504169,"current_range_meters":1600,"station_id":"ce4bgth2rcd13ifvqch0","pricing_plan_id":"cebpf4jnsgd1na2vs0mg"},{"bike_id":"a777809c-2bde-4f7f-b775-aa4bda9c4ec1","system_id":"levelo_inurba_marseille","lat":43.30993,"lon":5.37949,"is_reserved":false,"is_disabled":false,"rental_uris":{"android":"levelo://app?vid=a777809c-2bde-4f7f-b775-aa4bda9c4ec1","ios":"levelo://app?vid=a777809c-2bde-4f7f-b775-aa4bda9c4ec1"},"vehicle_type_id":"4","last_reported":1723504169,"current_range_meters":28800,"station_id":"","pricing_plan_id":"cebpf4jnsgd1na2vs0mg"},{"bike_id":"e43d9e2c-9d56-4741-96c8-9ef311a5fe37","system_id":"levelo_inurba_marseille","lat":43.308669,"lon":5.379017,"is_reserved":false,"is_disabled":false,"rental_uris":{"android":"levelo://app?vid=e43d9e2c-9d56-4741-96c8-9ef311a5fe37","ios":"levelo://app?vid=e43d9e2c-9d56-4741-96c8-9ef311a5fe37"},"vehicle_type_id":"4","last_reported":1723504169,"current_range_meters":18800,"station_id":"","pricing_plan_id":"cebpf4jnsgd1na2vs0mg"},{"bike_id":"64e4db0d-d11d-47a4-b687-ad8ac51e5a4a","system_id":"levelo_inurba_marseille","lat":43.315289,"lon":5.380349,"is_reserved":false,"is_disabled":false,"rental_uris":{"android":"levelo://app?vid=64e4db0d-d11d-47a4-b687-ad8ac51e5a4a","ios":"levelo://app?vid=64e4db0d-d11d-47a4-b687-ad8ac51e5a4a"},"vehicle_type_id":"4","last_reported":1723504169,"current_range_meters":30400,"station_id":"ce4bhsp2rcd13ifvqi50","pricing_plan_id":"cebpf4jnsgd1na2vs0mg"},{"bike_id":"2e580211-e2ff-4486-b2e5-c6df7d11d5ab","system_id":"levelo_inurba_marseille","lat":43.315289,"lon":5.380349,"is_reserved":false,"is_disabled":false,"rental_uris":{"android":"levelo://app?vid=2e580211-e2ff-4486-b2e5-c6df7d11d5ab","ios":"levelo://app?vid=2e580211-e2ff-4486-b2e5-c6df7d11d5ab"},"vehicle_type_id":"4","last_reported":1723504169,"current_range_meters":12800,"station_id":"ce4bhsp2rcd13ifvqi50","pricing_plan_id":"cebpf4jnsgd1na2vs0mg"},{"bike_id":"0f5a8026-483f-4776-85c6-c28c511aaba2","system_id":"levelo_inurba_marseille","lat":43.308012,"lon":5.381511,"is_reserved":false,"is_disabled":false,"rental_uris":{"android":"levelo://app?vid=0f5a8026-483f-4776-85c6-c28c511aaba2","ios":"levelo://app?vid=0f5a8026-483f-4776-85c6-c28c511aaba2"},"vehicle_type_id":"4","last_reported":1723504169,"current_range_meters":27600,"station_id":"ce4bgt12rcd13ifvqce0","pricing_plan_id":"cebpf4jnsgd1na2vs0mg"},{"bike_id":"adfd8d3a-f89b-4924-9886-4486faaae3b5","system_id":"levelo_inurba_marseille","lat":43.308012,"lon":5.381511,"is_reserved":false,"is_disabled":false,"rental_uris":{"android":"levelo://app?vid=adfd8d3a-f89b-4924-9886-4486faaae3b5","ios":"levelo://app?vid=adfd8d3a-f89b-4924-9886-4486faaae3b5"},"vehicle_type_id":"4","last_reported":1723504169,"current_range_meters":23600,"station_id":"ce4bgt12rcd13ifvqce0","pricing_plan_id":"cebpf4jnsgd1na2vs0mg"},{"bike_id":"6ae44a0f-fdf5-4ae4-b1fc-3275b07551c5","system_id":"levelo_inurba_marseille","lat":43.30787,"lon":5.38148,"is_reserved":false,"is_disabled":false,"rental_uris":{"android":"levelo://app?vid=6ae44a0f-fdf5-4ae4-b1fc-3275b07551c5","ios":"levelo://app?vid=6ae44a0f-fdf5-4ae4-b1fc-3275b07551c5"},"vehicle_type_id":"4","last_reported":1723504169,"current_range_meters":31200,"station_id":"ce4bgt12rcd13ifvqce0","pricing_plan_id":"cebpf4jnsgd1na2vs0mg"},{"bike_id":"f7fa48de-252f-45e6-8901-8e473bc4b872","system_id":"levelo_inurba_marseille","lat":43.30802,"lon":5.38158,"is_reserved":false,"is_disabled":false,"rental_uris":{"android":"levelo://app?vid=f7fa48de-252f-45e6-8901-8e473bc4b872","ios":"levelo://app?vid=f7fa48de-252f-45e6-8901-8e473bc4b872"},"vehicle_type_id":"4","last_reported":1723504169,"current_range_meters":31200,"station_id":"ce4bgt12rcd13ifvqce0","pricing_plan_id":"cebpf4jnsgd1na2vs0mg"},{"bike_id":"68923ebf-c54d-4292-b67f-dca72e21c8c2","system_id":"levelo_inurba_marseille","lat":43.308012,"lon":5.381511,"is_reserved":false,"is_disabled":false,"rental_uris":{"android":"levelo://app?vid=68923ebf-c54d-4292-b67f-dca72e21c8c2","ios":"levelo://app?vid=68923ebf-c54d-4292-b67f-dca72e21c8c2"},"vehicle_type_id":"4","last_reported":1723504169,"current_range_meters":28000,"station_id":"ce4bgt12rcd13ifvqce0","pricing_plan_id":"cebpf4jnsgd1na2vs0mg"},{"bike_id":"9ea1f171-112a-4e04-a70d-484937b5acfc","system_id":"levelo_inurba_marseille","lat":43.308012,"lon":5.381511,"is_reserved":false,"is_disabled":false,"rental_uris":{"android":"levelo://app?vid=9ea1f171-112a-4e04-a70d-484937b5acfc","ios":"levelo://app?vid=9ea1f171-112a-4e04-a70d-484937b5acfc"},"vehicle_type_id":"4","last_reported":1723504169,"current_range_meters":15600,"station_id":"ce4bgt12rcd13ifvqce0","pricing_plan_id":"cebpf4jnsgd1na2vs0mg"},{"bike_id":"e26ff339-8dda-47c5-9554-73751644bfdc","system_id":"levelo_inurba_marseille","lat":43.324771,"lon":5.36557,"is_reserved":false,"is_disabled":false,"rental_uris":{"android":"levelo://app?vid=e26ff339-8dda-47c5-9554-73751644bfdc","ios":"levelo://app?vid=e26ff339-8dda-47c5-9554-73751644bfdc"},"vehicle_type_id":"4","last_reported":1723504169,"current_range_meters":30800,"station_id":"ce4bhs12rcd13ifvqhvg","pricing_plan_id":"cebpf4jnsgd1na2vs0mg"},{"bike_id":"55b7ff80-d183-43f9-8ad1-98259ae13231","system_id":"levelo_inurba_marseille","lat":43.31048,"lon":5.38319,"is_reserved":false,"is_disabled":false,"rental_uris":{"android":"levelo://app?vid=55b7ff80-d183-43f9-8ad1-98259ae13231","ios":"levelo://app?vid=55b7ff80-d183-43f9-8ad1-98259ae13231"},"vehicle_type_id":"4","last_reported":1723504169,"current_range_meters":30400,"station_id":"ce4bgv92rcd13ifvqcr0","pricing_plan_id":"cebpf4jnsgd1na2vs0mg"},{"bike_id":"ab9b9637-d344-4ba5-bad1-3ff67e25f0a6","system_id":"levelo_inurba_marseille","lat":43.324771,"lon":5.36557,"is_reserved":false,"is_disabled":false,"rental_uris":{"android":"levelo://app?vid=ab9b9637-d344-4ba5-bad1-3ff67e25f0a6","ios":"levelo://app?vid=ab9b9637-d344-4ba5-bad1-3ff67e25f0a6"},"vehicle_type_id":"4","last_reported":1723504169,"current_range_meters":12000,"station_id":"ce4bhs12rcd13ifvqhvg","pricing_plan_id":"cebpf4jnsgd1na2vs0mg"},{"bike_id":"b45c0518-ecb4-4f8a-abed-504be5eb0b76","system_id":"levelo_inurba_marseille","lat":43.32478,"lon":5.36562,"is_reserved":false,"is_disabled":false,"rental_uris":{"android":"levelo://app?vid=b45c0518-ecb4-4f8a-abed-504be5eb0b76","ios":"levelo://app?vid=b45c0518-ecb4-4f8a-abed-504be5eb0b76"},"vehicle_type_id":"4","last_reported":1723504169,"current_range_meters":0,"station_id":"ce4bhs12rcd13ifvqhvg","pricing_plan_id":"cebpf4jnsgd1na2vs0mg"},{"bike_id":"1f68f981-5a64-4c89-88fe-dffdb0ae2210","system_id":"levelo_inurba_marseille","lat":43.324771,"lon":5.36557,"is_reserved":false,"is_disabled":false,"rental_uris":{"android":"levelo://app?vid=1f68f981-5a64-4c89-88fe-dffdb0ae2210","ios":"levelo://app?vid=1f68f981-5a64-4c89-88fe-dffdb0ae2210"},"vehicle_type_id":"4","last_reported":1723504169,"current_range_meters":24000,"station_id":"ce4bhs12rcd13ifvqhvg","pricing_plan_id":"cebpf4jnsgd1na2vs0mg"},{"bike_id":"8c98dfe9-b716-4aa2-929a-9703cb95d0f2","system_id":"levelo_inurba_marseille","lat":43.324771,"lon":5.36557,"is_reserved":false,"is_disabled":false,"rental_uris":{"android":"levelo://app?vid=8c98dfe9-b716-4aa2-929a-9703cb95d0f2","ios":"levelo://app?vid=8c98dfe9-b716-4aa2-929a-9703cb95d0f2"},"vehicle_type_id":"4","last_reported":1723504169,"current_range_meters":17600,"station_id":"ce4bhs12rcd13ifvqhvg","pricing_plan_id":"cebpf4jnsgd1na2vs0mg"},{"bike_id":"c2de56f7-4a2c-4ba3-97bc-1091bb114208","system_id":"levelo_inurba_marseille","lat":43.324771,"lon":5.36557,"is_reserved":false,"is_disabled":false,"rental_uris":{"android":"levelo://app?vid=c2de56f7-4a2c-4ba3-97bc-1091bb114208","ios":"levelo://app?vid=c2de56f7-4a2c-4ba3-97bc-1091bb114208"},"vehicle_type_id":"4","last_reported":1723504169,"current_range_meters":21600,"station_id":"ce4bhs12rcd13ifvqhvg","pricing_plan_id":"cebpf4jnsgd1na2vs0mg"},{"bike_id":"5bfd8e36-e96d-48a7-bf3e-62ca9145e01d","system_id":"levelo_inurba_marseille","lat":43.324771,"lon":5.36557,"is_reserved":false,"is_disabled":false,"rental_uris":{"android":"levelo://app?vid=5bfd8e36-e96d-48a7-bf3e-62ca9145e01d","ios":"levelo://app?vid=5bfd8e36-e96d-48a7-bf3e-62ca9145e01d"},"vehicle_type_id":"4","last_reported":1723504169,"current_range_meters":14000,"station_id":"ce4bhs12rcd13ifvqhvg","pricing_plan_id":"cebpf4jnsgd1na2vs0mg"},{"bike_id":"ef8e40aa-4990-4922-a5e4-2bf3cd18334a","system_id":"levelo_inurba_marseille","lat":43.324771,"lon":5.36557,"is_reserved":false,"is_disabled":false,"rental_uris":{"android":"levelo://app?vid=ef8e40aa-4990-4922-a5e4-2bf3cd18334a","ios":"levelo://app?vid=ef8e40aa-4990-4922-a5e4-2bf3cd18334a"},"vehicle_type_id":"4","last_reported":1723504169,"current_range_meters":9600,"station_id":"ce4bhs12rcd13ifvqhvg","pricing_plan_id":"cebpf4jnsgd1na2vs0mg"},{"bike_id":"f692e9ef-7283-49f0-8b56-acfff3aaa772","system_id":"levelo_inurba_marseille","lat":43.324771,"lon":5.36557,"is_reserved":false,"is_disabled":false,"rental_uris":{"android":"levelo://app?vid=f692e9ef-7283-49f0-8b56-acfff3aaa772","ios":"levelo://app?vid=f692e9ef-7283-49f0-8b56-acfff3aaa772"},"vehicle_type_id":"4","last_reported":1723504169,"current_range_meters":26000,"station_id":"ce4bhs12rcd13ifvqhvg","pricing_plan_id":"cebpf4jnsgd1na2vs0mg"},{"bike_id":"8e18fad7-0fb7-4a0c-9df4-ec9decb11ab1","system_id":"levelo_inurba_marseille","lat":43.324771,"lon":5.36557,"is_reserved":false,"is_disabled":false,"rental_uris":{"android":"levelo://app?vid=8e18fad7-0fb7-4a0c-9df4-ec9decb11ab1","ios":"levelo://app?vid=8e18fad7-0fb7-4a0c-9df4-ec9decb11ab1"},"vehicle_type_id":"4","last_reported":1723504169,"current_range_meters":21600,"station_id":"ce4bhs12rcd13ifvqhvg","pricing_plan_id":"cebpf4jnsgd1na2vs0mg"},{"bike_id":"a3a134fb-8c12-45f9-ab85-8910c18e48bc","system_id":"levelo_inurba_marseille","lat":43.32487,"lon":5.36562,"is_reserved":false,"is_disabled":false,"rental_uris":{"android":"levelo://app?vid=a3a134fb-8c12-45f9-ab85-8910c18e48bc","ios":"levelo://app?vid=a3a134fb-8c12-45f9-ab85-8910c18e48bc"},"vehicle_type_id":"4","last_reported":1723504169,"current_range_meters":14400,"station_id":"ce4bhs12rcd13ifvqhvg","pricing_plan_id":"cebpf4jnsgd1na2vs0mg"},{"bike_id":"b23d956e-89e7-428a-9e46-09bacc32c3f9","system_id":"levelo_inurba_marseille","lat":43.324771,"lon":5.36557,"is_reserved":false,"is_disabled":false,"rental_uris":{"android":"levelo://app?vid=b23d956e-89e7-428a-9e46-09bacc32c3f9","ios":"levelo://app?vid=b23d956e-89e7-428a-9e46-09bacc32c3f9"},"vehicle_type_id":"4","last_reported":1723504169,"current_range_meters":22400,"station_id":"ce4bhs12rcd13ifvqhvg","pricing_plan_id":"cebpf4jnsgd1na2vs0mg"},{"bike_id":"bfc65453-9e29-400c-9a82-f6bb7b3d032c","system_id":"levelo_inurba_marseille","lat":43.32489,"lon":5.36576,"is_reserved":false,"is_disabled":false,"rental_uris":{"android":"levelo://app?vid=bfc65453-9e29-400c-9a82-f6bb7b3d032c","ios":"levelo://app?vid=bfc65453-9e29-400c-9a82-f6bb7b3d032c"},"vehicle_type_id":"4","last_reported":1723504169,"current_range_meters":4000,"station_id":"ce4bhs12rcd13ifvqhvg","pricing_plan_id":"cebpf4jnsgd1na2vs0mg"},{"bike_id":"6c37750b-ff05-437a-be53-ad0054744773","system_id":"levelo_inurba_marseille","lat":43.31073,"lon":5.38346,"is_reserved":false,"is_disabled":false,"rental_uris":{"android":"levelo://app?vid=6c37750b-ff05-437a-be53-ad0054744773","ios":"levelo://app?vid=6c37750b-ff05-437a-be53-ad0054744773"},"vehicle_type_id":"4","last_reported":1723504169,"current_range_meters":11600,"station_id":"ce4bgv92rcd13ifvqcr0","pricing_plan_id":"cebpf4jnsgd1na2vs0mg"},{"bike_id":"bd87d92e-8852-45c5-9cde-24d65db3e714","system_id":"levelo_inurba_marseille","lat":43.310756,"lon":5.383468,"is_reserved":false,"is_disabled":false,"rental_uris":{"android":"levelo://app?vid=bd87d92e-8852-45c5-9cde-24d65db3e714","ios":"levelo://app?vid=bd87d92e-8852-45c5-9cde-24d65db3e714"},"vehicle_type_id":"4","last_reported":1723504169,"current_range_meters":22000,"station_id":"ce4bgv92rcd13ifvqcr0","pricing_plan_id":"cebpf4jnsgd1na2vs0mg"},{"bike_id":"66a67c43-1836-40f1-b93b-67c1937035d0","system_id":"levelo_inurba_marseille","lat":43.310795,"lon":5.38348,"is_reserved":false,"is_disabled":false,"rental_uris":{"android":"levelo://app?vid=66a67c43-1836-40f1-b93b-67c1937035d0","ios":"levelo://app?vid=66a67c43-1836-40f1-b93b-67c1937035d0"},"vehicle_type_id":"4","last_reported":1723504169,"current_range_meters":5600,"station_id":"ce4bgv92rcd13ifvqcr0","pricing_plan_id":"cebpf4jnsgd1na2vs0mg"},{"bike_id":"53b43a03-c7dd-46e0-b110-3b0bc8c4baa0","system_id":"levelo_inurba_marseille","lat":43.31078,"lon":5.38349,"is_reserved":false,"is_disabled":false,"rental_uris":{"android":"levelo://app?vid=53b43a03-c7dd-46e0-b110-3b0bc8c4baa0","ios":"levelo://app?vid=53b43a03-c7dd-46e0-b110-3b0bc8c4baa0"},"vehicle_type_id":"4","last_reported":1723504169,"current_range_meters":12800,"station_id":"ce4bgv92rcd13ifvqcr0","pricing_plan_id":"cebpf4jnsgd1na2vs0mg"},{"bike_id":"5a1f27a2-b0a2-4173-99f3-538337df1992","system_id":"levelo_inurba_marseille","lat":43.31072,"lon":5.38348,"is_reserved":false,"is_disabled":false,"rental_uris":{"android":"levelo://app?vid=5a1f27a2-b0a2-4173-99f3-538337df1992","ios":"levelo://app?vid=5a1f27a2-b0a2-4173-99f3-538337df1992"},"vehicle_type_id":"4","last_reported":1723504169,"current_range_meters":14000,"station_id":"ce4bgv92rcd13ifvqcr0","pricing_plan_id":"cebpf4jnsgd1na2vs0mg"},{"bike_id":"5ff5afc5-d680-491f-813f-28ece27b56d7","system_id":"levelo_inurba_marseille","lat":43.31081,"lon":5.38353,"is_reserved":false,"is_disabled":false,"rental_uris":{"android":"levelo://app?vid=5ff5afc5-d680-491f-813f-28ece27b56d7","ios":"levelo://app?vid=5ff5afc5-d680-491f-813f-28ece27b56d7"},"vehicle_type_id":"4","last_reported":1723504169,"current_range_meters":28800,"station_id":"ce4bgv92rcd13ifvqcr0","pricing_plan_id":"cebpf4jnsgd1na2vs0mg"},{"bike_id":"d1d0b087-a9d5-4336-bc0e-d7fa15adb032","system_id":"levelo_inurba_marseille","lat":43.310804,"lon":5.38359,"is_reserved":false,"is_disabled":false,"rental_uris":{"android":"levelo://app?vid=d1d0b087-a9d5-4336-bc0e-d7fa15adb032","ios":"levelo://app?vid=d1d0b087-a9d5-4336-bc0e-d7fa15adb032"},"vehicle_type_id":"4","last_reported":1723504169,"current_range_meters":4800,"station_id":"ce4bgv92rcd13ifvqcr0","pricing_plan_id":"cebpf4jnsgd1na2vs0mg"},{"bike_id":"c3feaff0-eec2-4d5b-8450-2c5219bdcde7","system_id":"levelo_inurba_marseille","lat":43.31071,"lon":5.38359,"is_reserved":false,"is_disabled":false,"rental_uris":{"android":"levelo://app?vid=c3feaff0-eec2-4d5b-8450-2c5219bdcde7","ios":"levelo://app?vid=c3feaff0-eec2-4d5b-8450-2c5219bdcde7"},"vehicle_type_id":"4","last_reported":1723504169,"current_range_meters":12800,"station_id":"ce4bgv92rcd13ifvqcr0","pricing_plan_id":"cebpf4jnsgd1na2vs0mg"},{"bike_id":"b2245de5-5f52-413e-853a-d1da03e9b097","system_id":"levelo_inurba_marseille","lat":43.30612,"lon":5.38149,"is_reserved":false,"is_disabled":false,"rental_uris":{"android":"levelo://app?vid=b2245de5-5f52-413e-853a-d1da03e9b097","ios":"levelo://app?vid=b2245de5-5f52-413e-853a-d1da03e9b097"},"vehicle_type_id":"4","last_reported":1723504169,"current_range_meters":19600,"station_id":"","pricing_plan_id":"cebpf4jnsgd1na2vs0mg"},{"bike_id":"7cada148-132f-493c-a56d-890b11a843e1","system_id":"levelo_inurba_marseille","lat":43.30683,"lon":5.38252,"is_reserved":false,"is_disabled":false,"rental_uris":{"android":"levelo://app?vid=7cada148-132f-493c-a56d-890b11a843e1","ios":"levelo://app?vid=7cada148-132f-493c-a56d-890b11a843e1"},"vehicle_type_id":"4","last_reported":1723504169,"current_range_meters":21600,"station_id":"","pricing_plan_id":"cebpf4jnsgd1na2vs0mg"},{"bike_id":"02c9dd0b-9bd8-4ac8-a213-24400626f233","system_id":"levelo_inurba_marseille","lat":43.319935,"lon":5.381699,"is_reserved":false,"is_disabled":false,"rental_uris":{"android":"levelo://app?vid=02c9dd0b-9bd8-4ac8-a213-24400626f233","ios":"levelo://app?vid=02c9dd0b-9bd8-4ac8-a213-24400626f233"},"vehicle_type_id":"4","last_reported":1723504169,"current_range_meters":31600,"station_id":"ce4bhr12rcd13ifvqhpg","pricing_plan_id":"cebpf4jnsgd1na2vs0mg"},{"bike_id":"ec6bc6e3-b125-483d-9c2d-c4a25e2e8f6c","system_id":"levelo_inurba_marseille","lat":43.319935,"lon":5.381699,"is_reserved":false,"is_disabled":false,"rental_uris":{"android":"levelo://app?vid=ec6bc6e3-b125-483d-9c2d-c4a25e2e8f6c","ios":"levelo://app?vid=ec6bc6e3-b125-483d-9c2d-c4a25e2e8f6c"},"vehicle_type_id":"4","last_reported":1723504169,"current_range_meters":24000,"station_id":"ce4bhr12rcd13ifvqhpg","pricing_plan_id":"cebpf4jnsgd1na2vs0mg"},{"bike_id":"37c20c7b-7e18-413e-8a72-9b412042b6e1","system_id":"levelo_inurba_marseille","lat":43.319935,"lon":5.381699,"is_reserved":false,"is_disabled":false,"rental_uris":{"android":"levelo://app?vid=37c20c7b-7e18-413e-8a72-9b412042b6e1","ios":"levelo://app?vid=37c20c7b-7e18-413e-8a72-9b412042b6e1"},"vehicle_type_id":"4","last_reported":1723504169,"current_range_meters":0,"station_id":"ce4bhr12rcd13ifvqhpg","pricing_plan_id":"cebpf4jnsgd1na2vs0mg"},{"bike_id":"df70094a-19f8-4179-88b6-28e760afb5ba","system_id":"levelo_inurba_marseille","lat":43.319935,"lon":5.381699,"is_reserved":false,"is_disabled":false,"rental_uris":{"android":"levelo://app?vid=df70094a-19f8-4179-88b6-28e760afb5ba","ios":"levelo://app?vid=df70094a-19f8-4179-88b6-28e760afb5ba"},"vehicle_type_id":"4","last_reported":1723504169,"current_range_meters":4400,"station_id":"ce4bhr12rcd13ifvqhpg","pricing_plan_id":"cebpf4jnsgd1na2vs0mg"},{"bike_id":"5e9b3598-d183-4f1f-bf50-fe1b43d6c84e","system_id":"levelo_inurba_marseille","lat":43.3137,"lon":5.38486,"is_reserved":false,"is_disabled":false,"rental_uris":{"android":"levelo://app?vid=5e9b3598-d183-4f1f-bf50-fe1b43d6c84e","ios":"levelo://app?vid=5e9b3598-d183-4f1f-bf50-fe1b43d6c84e"},"vehicle_type_id":"4","last_reported":1723504169,"current_range_meters":7600,"station_id":"ce4bgt92rcd13ifvqcf0","pricing_plan_id":"cebpf4jnsgd1na2vs0mg"},{"bike_id":"d69085e5-2741-48d0-8727-0d0b530ea867","system_id":"levelo_inurba_marseille","lat":43.313653,"lon":5.384878,"is_reserved":false,"is_disabled":false,"rental_uris":{"android":"levelo://app?vid=d69085e5-2741-48d0-8727-0d0b530ea867","ios":"levelo://app?vid=d69085e5-2741-48d0-8727-0d0b530ea867"},"vehicle_type_id":"4","last_reported":1723504169,"current_range_meters":15600,"station_id":"ce4bgt92rcd13ifvqcf0","pricing_plan_id":"cebpf4jnsgd1na2vs0mg"},{"bike_id":"81780a4a-d00b-4b10-a893-eb5d3a34025e","system_id":"levelo_inurba_marseille","lat":43.31364,"lon":5.38488,"is_reserved":false,"is_disabled":false,"rental_uris":{"android":"levelo://app?vid=81780a4a-d00b-4b10-a893-eb5d3a34025e","ios":"levelo://app?vid=81780a4a-d00b-4b10-a893-eb5d3a34025e"},"vehicle_type_id":"4","last_reported":1723504169,"current_range_meters":11200,"station_id":"ce4bgt92rcd13ifvqcf0","pricing_plan_id":"cebpf4jnsgd1na2vs0mg"},{"bike_id":"68ff3e1f-6658-41b1-a87e-5e98d47e116f","system_id":"levelo_inurba_marseille","lat":43.313571,"lon":5.384829,"is_reserved":false,"is_disabled":false,"rental_uris":{"android":"levelo://app?vid=68ff3e1f-6658-41b1-a87e-5e98d47e116f","ios":"levelo://app?vid=68ff3e1f-6658-41b1-a87e-5e98d47e116f"},"vehicle_type_id":"4","last_reported":1723504169,"current_range_meters":10400,"station_id":"ce4bgt92rcd13ifvqcf0","pricing_plan_id":"cebpf4jnsgd1na2vs0mg"},{"bike_id":"573dc77f-56f3-4816-bd8b-374f952cda56","system_id":"levelo_inurba_marseille","lat":43.31365,"lon":5.38491,"is_reserved":false,"is_disabled":false,"rental_uris":{"android":"levelo://app?vid=573dc77f-56f3-4816-bd8b-374f952cda56","ios":"levelo://app?vid=573dc77f-56f3-4816-bd8b-374f952cda56"},"vehicle_type_id":"4","last_reported":1723504169,"current_range_meters":30400,"station_id":"ce4bgt92rcd13ifvqcf0","pricing_plan_id":"cebpf4jnsgd1na2vs0mg"},{"bike_id":"fe4694ac-b5f3-4abb-b744-606b54beefbf","system_id":"levelo_inurba_marseille","lat":43.313594,"lon":5.385029,"is_reserved":false,"is_disabled":false,"rental_uris":{"android":"levelo://app?vid=fe4694ac-b5f3-4abb-b744-606b54beefbf","ios":"levelo://app?vid=fe4694ac-b5f3-4abb-b744-606b54beefbf"},"vehicle_type_id":"4","last_reported":1723504169,"current_range_meters":25200,"station_id":"ce4bgt92rcd13ifvqcf0","pricing_plan_id":"cebpf4jnsgd1na2vs0mg"},{"bike_id":"92df2b01-a648-4b53-a336-af735dad000c","system_id":"levelo_inurba_marseille","lat":43.299222,"lon":5.365554,"is_reserved":false,"is_disabled":false,"rental_uris":{"android":"levelo://app?vid=92df2b01-a648-4b53-a336-af735dad000c","ios":"levelo://app?vid=92df2b01-a648-4b53-a336-af735dad000c"},"vehicle_type_id":"4","last_reported":1723504169,"current_range_meters":18000,"station_id":"ce4bgm92rcd13ifvqbr0","pricing_plan_id":"cebpf4jnsgd1na2vs0mg"},{"bike_id":"4d9cefa7-7745-43f1-9d37-4c1f5bac877d","system_id":"levelo_inurba_marseille","lat":43.295279,"lon":5.375048,"is_reserved":false,"is_disabled":false,"rental_uris":{"android":"levelo://app?vid=4d9cefa7-7745-43f1-9d37-4c1f5bac877d","ios":"levelo://app?vid=4d9cefa7-7745-43f1-9d37-4c1f5bac877d"},"vehicle_type_id":"4","last_reported":1723504169,"current_range_meters":0,"station_id":"ce4bgkp2rcd13ifvqbmg","pricing_plan_id":"cebpf4jnsgd1na2vs0mg"},{"bike_id":"90ac8fbb-840c-42cf-81f7-608db87f99ee","system_id":"levelo_inurba_marseille","lat":43.305364,"lon":5.384119,"is_reserved":false,"is_disabled":false,"rental_uris":{"android":"levelo://app?vid=90ac8fbb-840c-42cf-81f7-608db87f99ee","ios":"levelo://app?vid=90ac8fbb-840c-42cf-81f7-608db87f99ee"},"vehicle_type_id":"4","last_reported":1723504169,"current_range_meters":12400,"station_id":"ce4bgg92rcd13ifvqb30","pricing_plan_id":"cebpf4jnsgd1na2vs0mg"},{"bike_id":"b42c4a6d-bac7-4a44-a39d-88d44f5fa0b7","system_id":"levelo_inurba_marseille","lat":43.305364,"lon":5.384119,"is_reserved":false,"is_disabled":false,"rental_uris":{"android":"levelo://app?vid=b42c4a6d-bac7-4a44-a39d-88d44f5fa0b7","ios":"levelo://app?vid=b42c4a6d-bac7-4a44-a39d-88d44f5fa0b7"},"vehicle_type_id":"4","last_reported":1723504169,"current_range_meters":0,"station_id":"ce4bgg92rcd13ifvqb30","pricing_plan_id":"cebpf4jnsgd1na2vs0mg"},{"bike_id":"baa3cabc-f2a7-409f-8c5b-4fbeca23c4a2","system_id":"levelo_inurba_marseille","lat":43.305364,"lon":5.384119,"is_reserved":false,"is_disabled":false,"rental_uris":{"android":"levelo://app?vid=baa3cabc-f2a7-409f-8c5b-4fbeca23c4a2","ios":"levelo://app?vid=baa3cabc-f2a7-409f-8c5b-4fbeca23c4a2"},"vehicle_type_id":"4","last_reported":1723504169,"current_range_meters":0,"station_id":"ce4bgg92rcd13ifvqb30","pricing_plan_id":"cebpf4jnsgd1na2vs0mg"},{"bike_id":"61806c1d-91b2-44c0-85d7-53ea1b50b9a0","system_id":"levelo_inurba_marseille","lat":43.305335,"lon":5.384375,"is_reserved":false,"is_disabled":false,"rental_uris":{"android":"levelo://app?vid=61806c1d-91b2-44c0-85d7-53ea1b50b9a0","ios":"levelo://app?vid=61806c1d-91b2-44c0-85d7-53ea1b50b9a0"},"vehicle_type_id":"4","last_reported":1723504169,"current_range_meters":32000,"station_id":"ce4bgg92rcd13ifvqb30","pricing_plan_id":"cebpf4jnsgd1na2vs0mg"},{"bike_id":"f9601108-6496-490c-a005-df470690841a","system_id":"levelo_inurba_marseille","lat":43.311722,"lon":5.387247,"is_reserved":false,"is_disabled":false,"rental_uris":{"android":"levelo://app?vid=f9601108-6496-490c-a005-df470690841a","ios":"levelo://app?vid=f9601108-6496-490c-a005-df470690841a"},"vehicle_type_id":"4","last_reported":1723504169,"current_range_meters":7600,"station_id":"ce4bgv12rcd13ifvqcp0","pricing_plan_id":"cebpf4jnsgd1na2vs0mg"},{"bike_id":"b623808e-4352-4bbd-89ee-2b23509630c7","system_id":"levelo_inurba_marseille","lat":43.311722,"lon":5.387247,"is_reserved":false,"is_disabled":false,"rental_uris":{"android":"levelo://app?vid=b623808e-4352-4bbd-89ee-2b23509630c7","ios":"levelo://app?vid=b623808e-4352-4bbd-89ee-2b23509630c7"},"vehicle_type_id":"4","last_reported":1723504169,"current_range_meters":24800,"station_id":"ce4bgv12rcd13ifvqcp0","pricing_plan_id":"cebpf4jnsgd1na2vs0mg"},{"bike_id":"2b52dcf6-e989-44ef-98e9-27c16b891ba0","system_id":"levelo_inurba_marseille","lat":43.299243,"lon":5.37481,"is_reserved":false,"is_disabled":false,"rental_uris":{"android":"levelo://app?vid=2b52dcf6-e989-44ef-98e9-27c16b891ba0","ios":"levelo://app?vid=2b52dcf6-e989-44ef-98e9-27c16b891ba0"},"vehicle_type_id":"4","last_reported":1723504169,"current_range_meters":0,"station_id":"ce4bgjh2rcd13ifvqbg0","pricing_plan_id":"cebpf4jnsgd1na2vs0mg"},{"bike_id":"7fd036a8-afcf-4bbe-a48a-1b6a8f8a7218","system_id":"levelo_inurba_marseille","lat":43.311722,"lon":5.387247,"is_reserved":false,"is_disabled":false,"rental_uris":{"android":"levelo://app?vid=7fd036a8-afcf-4bbe-a48a-1b6a8f8a7218","ios":"levelo://app?vid=7fd036a8-afcf-4bbe-a48a-1b6a8f8a7218"},"vehicle_type_id":"4","last_reported":1723504169,"current_range_meters":30800,"station_id":"ce4bgv12rcd13ifvqcp0","pricing_plan_id":"cebpf4jnsgd1na2vs0mg"},{"bike_id":"a2e86810-6e93-47ea-bff2-765789434bba","system_id":"levelo_inurba_marseille","lat":43.311722,"lon":5.387247,"is_reserved":false,"is_disabled":false,"rental_uris":{"android":"levelo://app?vid=a2e86810-6e93-47ea-bff2-765789434bba","ios":"levelo://app?vid=a2e86810-6e93-47ea-bff2-765789434bba"},"vehicle_type_id":"4","last_reported":1723504169,"current_range_meters":18000,"station_id":"ce4bgv12rcd13ifvqcp0","pricing_plan_id":"cebpf4jnsgd1na2vs0mg"},{"bike_id":"fccc26dd-30dc-41a7-89f9-0b0f1733b4a8","system_id":"levelo_inurba_marseille","lat":43.311722,"lon":5.387247,"is_reserved":false,"is_disabled":false,"rental_uris":{"android":"levelo://app?vid=fccc26dd-30dc-41a7-89f9-0b0f1733b4a8","ios":"levelo://app?vid=fccc26dd-30dc-41a7-89f9-0b0f1733b4a8"},"vehicle_type_id":"4","last_reported":1723504169,"current_range_meters":30400,"station_id":"ce4bgv12rcd13ifvqcp0","pricing_plan_id":"cebpf4jnsgd1na2vs0mg"},{"bike_id":"741339b6-672d-4eb2-8b67-c598191f0ff1","system_id":"levelo_inurba_marseille","lat":43.311722,"lon":5.387247,"is_reserved":false,"is_disabled":false,"rental_uris":{"android":"levelo://app?vid=741339b6-672d-4eb2-8b67-c598191f0ff1","ios":"levelo://app?vid=741339b6-672d-4eb2-8b67-c598191f0ff1"},"vehicle_type_id":"4","last_reported":1723504169,"current_range_meters":15600,"station_id":"ce4bgv12rcd13ifvqcp0","pricing_plan_id":"cebpf4jnsgd1na2vs0mg"},{"bike_id":"1754b183-ad2a-4768-a1dc-f746ff152c8a","system_id":"levelo_inurba_marseille","lat":43.311722,"lon":5.387247,"is_reserved":false,"is_disabled":false,"rental_uris":{"android":"levelo://app?vid=1754b183-ad2a-4768-a1dc-f746ff152c8a","ios":"levelo://app?vid=1754b183-ad2a-4768-a1dc-f746ff152c8a"},"vehicle_type_id":"4","last_reported":1723504169,"current_range_meters":31200,"station_id":"ce4bgv12rcd13ifvqcp0","pricing_plan_id":"cebpf4jnsgd1na2vs0mg"},{"bike_id":"7f62eccf-ec43-44cf-b033-d3a4e6354b75","system_id":"levelo_inurba_marseille","lat":43.322872,"lon":5.382756,"is_reserved":false,"is_disabled":false,"rental_uris":{"android":"levelo://app?vid=7f62eccf-ec43-44cf-b033-d3a4e6354b75","ios":"levelo://app?vid=7f62eccf-ec43-44cf-b033-d3a4e6354b75"},"vehicle_type_id":"4","last_reported":1723504169,"current_range_meters":9200,"station_id":"ce4bhr12rcd13ifvqhqg","pricing_plan_id":"cebpf4jnsgd1na2vs0mg"},{"bike_id":"9d1e49bc-ce46-4e14-b388-8fd0941d510d","system_id":"levelo_inurba_marseille","lat":43.322872,"lon":5.382756,"is_reserved":false,"is_disabled":false,"rental_uris":{"android":"levelo://app?vid=9d1e49bc-ce46-4e14-b388-8fd0941d510d","ios":"levelo://app?vid=9d1e49bc-ce46-4e14-b388-8fd0941d510d"},"vehicle_type_id":"4","last_reported":1723504169,"current_range_meters":16800,"station_id":"ce4bhr12rcd13ifvqhqg","pricing_plan_id":"cebpf4jnsgd1na2vs0mg"},{"bike_id":"3e315c03-bb88-4419-a1bb-0cce4e0eaae7","system_id":"levelo_inurba_marseille","lat":43.322872,"lon":5.382756,"is_reserved":false,"is_disabled":false,"rental_uris":{"android":"levelo://app?vid=3e315c03-bb88-4419-a1bb-0cce4e0eaae7","ios":"levelo://app?vid=3e315c03-bb88-4419-a1bb-0cce4e0eaae7"},"vehicle_type_id":"4","last_reported":1723504169,"current_range_meters":27200,"station_id":"ce4bhr12rcd13ifvqhqg","pricing_plan_id":"cebpf4jnsgd1na2vs0mg"},{"bike_id":"bfb5024a-4052-4a78-b3f7-736eccea99b0","system_id":"levelo_inurba_marseille","lat":43.297163,"lon":5.365866,"is_reserved":false,"is_disabled":false,"rental_uris":{"android":"levelo://app?vid=bfb5024a-4052-4a78-b3f7-736eccea99b0","ios":"levelo://app?vid=bfb5024a-4052-4a78-b3f7-736eccea99b0"},"vehicle_type_id":"4","last_reported":1723504169,"current_range_meters":27200,"station_id":"ce4bgn12rcd13ifvqbt0","pricing_plan_id":"cebpf4jnsgd1na2vs0mg"},{"bike_id":"b25a705b-8b21-413a-be9e-fcb9f1384b00","system_id":"levelo_inurba_marseille","lat":43.29669,"lon":5.3626,"is_reserved":false,"is_disabled":false,"rental_uris":{"android":"levelo://app?vid=b25a705b-8b21-413a-be9e-fcb9f1384b00","ios":"levelo://app?vid=b25a705b-8b21-413a-be9e-fcb9f1384b00"},"vehicle_type_id":"4","last_reported":1723504169,"current_range_meters":0,"station_id":"","pricing_plan_id":"cebpf4jnsgd1na2vs0mg"},{"bike_id":"cbd3985e-1fca-4af5-af33-7fea271993cf","system_id":"levelo_inurba_marseille","lat":43.2968,"lon":5.37291,"is_reserved":false,"is_disabled":false,"rental_uris":{"android":"levelo://app?vid=cbd3985e-1fca-4af5-af33-7fea271993cf","ios":"levelo://app?vid=cbd3985e-1fca-4af5-af33-7fea271993cf"},"vehicle_type_id":"4","last_reported":1723504169,"current_range_meters":28400,"station_id":"ce4bgk12rcd13ifvqbj0","pricing_plan_id":"cebpf4jnsgd1na2vs0mg"},{"bike_id":"6100785e-8e37-4d1d-8453-a8a62c3dc6d4","system_id":"levelo_inurba_marseille","lat":43.29735,"lon":5.3769,"is_reserved":false,"is_disabled":false,"rental_uris":{"android":"levelo://app?vid=6100785e-8e37-4d1d-8453-a8a62c3dc6d4","ios":"levelo://app?vid=6100785e-8e37-4d1d-8453-a8a62c3dc6d4"},"vehicle_type_id":"4","last_reported":1723504169,"current_range_meters":26400,"station_id":"ce4bgkh2rcd13ifvqbl0","pricing_plan_id":"cebpf4jnsgd1na2vs0mg"},{"bike_id":"0cb04379-0022-4777-9501-b72c99ee66e8","system_id":"levelo_inurba_marseille","lat":43.29909,"lon":5.38138,"is_reserved":false,"is_disabled":false,"rental_uris":{"android":"levelo://app?vid=0cb04379-0022-4777-9501-b72c99ee66e8","ios":"levelo://app?vid=0cb04379-0022-4777-9501-b72c99ee66e8"},"vehicle_type_id":"4","last_reported":1723504169,"current_range_meters":25600,"station_id":"ce4bgj12rcd13ifvqbc0","pricing_plan_id":"cebpf4jnsgd1na2vs0mg"},{"bike_id":"c0a98608-d658-4846-8361-8c0611c0436b","system_id":"levelo_inurba_marseille","lat":43.299028,"lon":5.381509,"is_reserved":false,"is_disabled":false,"rental_uris":{"android":"levelo://app?vid=c0a98608-d658-4846-8361-8c0611c0436b","ios":"levelo://app?vid=c0a98608-d658-4846-8361-8c0611c0436b"},"vehicle_type_id":"4","last_reported":1723504169,"current_range_meters":29600,"station_id":"ce4bgj12rcd13ifvqbc0","pricing_plan_id":"cebpf4jnsgd1na2vs0mg"},{"bike_id":"7ad6d73e-2cec-4a47-9f88-366c8be0dd06","system_id":"levelo_inurba_marseille","lat":43.299028,"lon":5.381509,"is_reserved":false,"is_disabled":false,"rental_uris":{"android":"levelo://app?vid=7ad6d73e-2cec-4a47-9f88-366c8be0dd06","ios":"levelo://app?vid=7ad6d73e-2cec-4a47-9f88-366c8be0dd06"},"vehicle_type_id":"4","last_reported":1723504169,"current_range_meters":13200,"station_id":"ce4bgj12rcd13ifvqbc0","pricing_plan_id":"cebpf4jnsgd1na2vs0mg"},{"bike_id":"9ad8ea81-2472-4bd0-a5d8-aae26bda1c4f","system_id":"levelo_inurba_marseille","lat":43.299028,"lon":5.381509,"is_reserved":false,"is_disabled":false,"rental_uris":{"android":"levelo://app?vid=9ad8ea81-2472-4bd0-a5d8-aae26bda1c4f","ios":"levelo://app?vid=9ad8ea81-2472-4bd0-a5d8-aae26bda1c4f"},"vehicle_type_id":"4","last_reported":1723504169,"current_range_meters":31200,"station_id":"ce4bgj12rcd13ifvqbc0","pricing_plan_id":"cebpf4jnsgd1na2vs0mg"},{"bike_id":"becb8ad1-3236-4797-ba6b-224ab6461bb7","system_id":"levelo_inurba_marseille","lat":43.299028,"lon":5.381509,"is_reserved":false,"is_disabled":false,"rental_uris":{"android":"levelo://app?vid=becb8ad1-3236-4797-ba6b-224ab6461bb7","ios":"levelo://app?vid=becb8ad1-3236-4797-ba6b-224ab6461bb7"},"vehicle_type_id":"4","last_reported":1723504169,"current_range_meters":5200,"station_id":"ce4bgj12rcd13ifvqbc0","pricing_plan_id":"cebpf4jnsgd1na2vs0mg"},{"bike_id":"abc8c46e-ddb5-4cd4-8dad-a01456a51803","system_id":"levelo_inurba_marseille","lat":43.309589,"lon":5.390258,"is_reserved":false,"is_disabled":false,"rental_uris":{"android":"levelo://app?vid=abc8c46e-ddb5-4cd4-8dad-a01456a51803","ios":"levelo://app?vid=abc8c46e-ddb5-4cd4-8dad-a01456a51803"},"vehicle_type_id":"4","last_reported":1723504169,"current_range_meters":11600,"station_id":"ce4bgup2rcd13ifvqco0","pricing_plan_id":"cebpf4jnsgd1na2vs0mg"},{"bike_id":"6f17081f-6290-4616-88bc-ddb3c3eab822","system_id":"levelo_inurba_marseille","lat":43.299028,"lon":5.381509,"is_reserved":false,"is_disabled":false,"rental_uris":{"android":"levelo://app?vid=6f17081f-6290-4616-88bc-ddb3c3eab822","ios":"levelo://app?vid=6f17081f-6290-4616-88bc-ddb3c3eab822"},"vehicle_type_id":"4","last_reported":1723504169,"current_range_meters":5200,"station_id":"ce4bgj12rcd13ifvqbc0","pricing_plan_id":"cebpf4jnsgd1na2vs0mg"},{"bike_id":"8a180877-a40d-47c8-a7af-1e92d66369f5","system_id":"levelo_inurba_marseille","lat":43.309589,"lon":5.390258,"is_reserved":false,"is_disabled":false,"rental_uris":{"android":"levelo://app?vid=8a180877-a40d-47c8-a7af-1e92d66369f5","ios":"levelo://app?vid=8a180877-a40d-47c8-a7af-1e92d66369f5"},"vehicle_type_id":"4","last_reported":1723504169,"current_range_meters":24400,"station_id":"ce4bgup2rcd13ifvqco0","pricing_plan_id":"cebpf4jnsgd1na2vs0mg"},{"bike_id":"15e927fb-3a3a-4c20-be42-d161be6de745","system_id":"levelo_inurba_marseille","lat":43.309589,"lon":5.390258,"is_reserved":false,"is_disabled":false,"rental_uris":{"android":"levelo://app?vid=15e927fb-3a3a-4c20-be42-d161be6de745","ios":"levelo://app?vid=15e927fb-3a3a-4c20-be42-d161be6de745"},"vehicle_type_id":"4","last_reported":1723504169,"current_range_meters":32000,"station_id":"ce4bgup2rcd13ifvqco0","pricing_plan_id":"cebpf4jnsgd1na2vs0mg"},{"bike_id":"551e3da2-4327-4b66-b1f2-0bd3d89a8a6e","system_id":"levelo_inurba_marseille","lat":43.317557,"lon":5.390173,"is_reserved":false,"is_disabled":false,"rental_uris":{"android":"levelo://app?vid=551e3da2-4327-4b66-b1f2-0bd3d89a8a6e","ios":"levelo://app?vid=551e3da2-4327-4b66-b1f2-0bd3d89a8a6e"},"vehicle_type_id":"4","last_reported":1723504169,"current_range_meters":22400,"station_id":"ce4bhqp2rcd13ifvqhng","pricing_plan_id":"cebpf4jnsgd1na2vs0mg"},{"bike_id":"6b0d9c3b-ba03-42d1-9b88-ec0c4875fda3","system_id":"levelo_inurba_marseille","lat":43.317557,"lon":5.390173,"is_reserved":false,"is_disabled":false,"rental_uris":{"android":"levelo://app?vid=6b0d9c3b-ba03-42d1-9b88-ec0c4875fda3","ios":"levelo://app?vid=6b0d9c3b-ba03-42d1-9b88-ec0c4875fda3"},"vehicle_type_id":"4","last_reported":1723504169,"current_range_meters":6000,"station_id":"ce4bhqp2rcd13ifvqhng","pricing_plan_id":"cebpf4jnsgd1na2vs0mg"},{"bike_id":"7616d157-9395-48b3-8b86-6d62acea177f","system_id":"levelo_inurba_marseille","lat":43.317557,"lon":5.390173,"is_reserved":false,"is_disabled":false,"rental_uris":{"android":"levelo://app?vid=7616d157-9395-48b3-8b86-6d62acea177f","ios":"levelo://app?vid=7616d157-9395-48b3-8b86-6d62acea177f"},"vehicle_type_id":"4","last_reported":1723504169,"current_range_meters":31200,"station_id":"ce4bhqp2rcd13ifvqhng","pricing_plan_id":"cebpf4jnsgd1na2vs0mg"},{"bike_id":"2675007d-fb0b-425b-9577-d35da5e59129","system_id":"levelo_inurba_marseille","lat":43.3176,"lon":5.39022,"is_reserved":false,"is_disabled":false,"rental_uris":{"android":"levelo://app?vid=2675007d-fb0b-425b-9577-d35da5e59129","ios":"levelo://app?vid=2675007d-fb0b-425b-9577-d35da5e59129"},"vehicle_type_id":"4","last_reported":1723504169,"current_range_meters":28000,"station_id":"ce4bhqp2rcd13ifvqhng","pricing_plan_id":"cebpf4jnsgd1na2vs0mg"},{"bike_id":"ee60cf92-a5fc-4445-aeb3-28b8bf97d121","system_id":"levelo_inurba_marseille","lat":43.31759,"lon":5.39025,"is_reserved":false,"is_disabled":false,"rental_uris":{"android":"levelo://app?vid=ee60cf92-a5fc-4445-aeb3-28b8bf97d121","ios":"levelo://app?vid=ee60cf92-a5fc-4445-aeb3-28b8bf97d121"},"vehicle_type_id":"4","last_reported":1723504169,"current_range_meters":29200,"station_id":"ce4bhqp2rcd13ifvqhng","pricing_plan_id":"cebpf4jnsgd1na2vs0mg"},{"bike_id":"985b377d-4f20-4795-8f5d-4fbc2e714dfa","system_id":"levelo_inurba_marseille","lat":43.29587,"lon":5.37447,"is_reserved":false,"is_disabled":false,"rental_uris":{"android":"levelo://app?vid=985b377d-4f20-4795-8f5d-4fbc2e714dfa","ios":"levelo://app?vid=985b377d-4f20-4795-8f5d-4fbc2e714dfa"},"vehicle_type_id":"4","last_reported":1723504169,"current_range_meters":31200,"station_id":"","pricing_plan_id":"cebpf4jnsgd1na2vs0mg"},{"bike_id":"9ea7546e-e17a-41e1-8a2e-204c1b31c4b5","system_id":"levelo_inurba_marseille","lat":43.29791,"lon":5.38092,"is_reserved":false,"is_disabled":false,"rental_uris":{"android":"levelo://app?vid=9ea7546e-e17a-41e1-8a2e-204c1b31c4b5","ios":"levelo://app?vid=9ea7546e-e17a-41e1-8a2e-204c1b31c4b5"},"vehicle_type_id":"4","last_reported":1723504169,"current_range_meters":4400,"station_id":"ce4bgip2rcd13ifvqbb0","pricing_plan_id":"cebpf4jnsgd1na2vs0mg"},{"bike_id":"653cb11a-0223-47b7-8a7a-e5b1b26431af","system_id":"levelo_inurba_marseille","lat":43.296263,"lon":5.377094,"is_reserved":false,"is_disabled":false,"rental_uris":{"android":"levelo://app?vid=653cb11a-0223-47b7-8a7a-e5b1b26431af","ios":"levelo://app?vid=653cb11a-0223-47b7-8a7a-e5b1b26431af"},"vehicle_type_id":"4","last_reported":1723504169,"current_range_meters":4400,"station_id":"ce4bgi92rcd13ifvqb90","pricing_plan_id":"cebpf4jnsgd1na2vs0mg"},{"bike_id":"78eabad2-6d28-45c8-8060-b311fc2fa4ca","system_id":"levelo_inurba_marseille","lat":43.296277,"lon":5.377108,"is_reserved":false,"is_disabled":false,"rental_uris":{"android":"levelo://app?vid=78eabad2-6d28-45c8-8060-b311fc2fa4ca","ios":"levelo://app?vid=78eabad2-6d28-45c8-8060-b311fc2fa4ca"},"vehicle_type_id":"4","last_reported":1723504169,"current_range_meters":18400,"station_id":"ce4bgi92rcd13ifvqb90","pricing_plan_id":"cebpf4jnsgd1na2vs0mg"},{"bike_id":"ace6b169-1cd7-452b-b612-a692a031b4ed","system_id":"levelo_inurba_marseille","lat":43.30437,"lon":5.38892,"is_reserved":false,"is_disabled":false,"rental_uris":{"android":"levelo://app?vid=ace6b169-1cd7-452b-b612-a692a031b4ed","ios":"levelo://app?vid=ace6b169-1cd7-452b-b612-a692a031b4ed"},"vehicle_type_id":"4","last_reported":1723504169,"current_range_meters":0,"station_id":"ce4bgk12rcd13ifvqbi0","pricing_plan_id":"cebpf4jnsgd1na2vs0mg"},{"bike_id":"4f04a630-2f81-4542-a080-94943a01aeb8","system_id":"levelo_inurba_marseille","lat":43.299707,"lon":5.384859,"is_reserved":false,"is_disabled":false,"rental_uris":{"android":"levelo://app?vid=4f04a630-2f81-4542-a080-94943a01aeb8","ios":"levelo://app?vid=4f04a630-2f81-4542-a080-94943a01aeb8"},"vehicle_type_id":"4","last_reported":1723504169,"current_range_meters":29200,"station_id":"ce4bgj92rcd13ifvqbd0","pricing_plan_id":"cebpf4jnsgd1na2vs0mg"},{"bike_id":"1b6fd03c-9187-450a-9cc1-07af4484ecb8","system_id":"levelo_inurba_marseille","lat":43.295279,"lon":5.375048,"is_reserved":false,"is_disabled":false,"rental_uris":{"android":"levelo://app?vid=1b6fd03c-9187-450a-9cc1-07af4484ecb8","ios":"levelo://app?vid=1b6fd03c-9187-450a-9cc1-07af4484ecb8"},"vehicle_type_id":"4","last_reported":1723504169,"current_range_meters":28400,"station_id":"ce4bgkp2rcd13ifvqbmg","pricing_plan_id":"cebpf4jnsgd1na2vs0mg"},{"bike_id":"e580d5c7-a136-4f47-b06c-b7c09fb55563","system_id":"levelo_inurba_marseille","lat":43.299707,"lon":5.384859,"is_reserved":false,"is_disabled":false,"rental_uris":{"android":"levelo://app?vid=e580d5c7-a136-4f47-b06c-b7c09fb55563","ios":"levelo://app?vid=e580d5c7-a136-4f47-b06c-b7c09fb55563"},"vehicle_type_id":"4","last_reported":1723504169,"current_range_meters":26000,"station_id":"ce4bgj92rcd13ifvqbd0","pricing_plan_id":"cebpf4jnsgd1na2vs0mg"},{"bike_id":"4b51ef61-30ad-49c1-92d3-7e9c647cabb2","system_id":"levelo_inurba_marseille","lat":43.299724,"lon":5.384848,"is_reserved":false,"is_disabled":false,"rental_uris":{"android":"levelo://app?vid=4b51ef61-30ad-49c1-92d3-7e9c647cabb2","ios":"levelo://app?vid=4b51ef61-30ad-49c1-92d3-7e9c647cabb2"},"vehicle_type_id":"4","last_reported":1723504169,"current_range_meters":31200,"station_id":"ce4bgj92rcd13ifvqbd0","pricing_plan_id":"cebpf4jnsgd1na2vs0mg"},{"bike_id":"b15c94fe-debd-4864-b6ce-2e2b066229e6","system_id":"levelo_inurba_marseille","lat":43.29975,"lon":5.38494,"is_reserved":false,"is_disabled":false,"rental_uris":{"android":"levelo://app?vid=b15c94fe-debd-4864-b6ce-2e2b066229e6","ios":"levelo://app?vid=b15c94fe-debd-4864-b6ce-2e2b066229e6"},"vehicle_type_id":"4","last_reported":1723504169,"current_range_meters":26000,"station_id":"ce4bgj92rcd13ifvqbd0","pricing_plan_id":"cebpf4jnsgd1na2vs0mg"},{"bike_id":"63f2553e-e821-47a9-9059-8e2ba17c1c30","system_id":"levelo_inurba_marseille","lat":43.299717,"lon":5.384845,"is_reserved":false,"is_disabled":false,"rental_uris":{"android":"levelo://app?vid=63f2553e-e821-47a9-9059-8e2ba17c1c30","ios":"levelo://app?vid=63f2553e-e821-47a9-9059-8e2ba17c1c30"},"vehicle_type_id":"4","last_reported":1723504169,"current_range_meters":31200,"station_id":"ce4bgj92rcd13ifvqbd0","pricing_plan_id":"cebpf4jnsgd1na2vs0mg"},{"bike_id":"02fb18cf-1b62-4d31-9b0c-eab3541528f6","system_id":"levelo_inurba_marseille","lat":43.299724,"lon":5.384848,"is_reserved":false,"is_disabled":false,"rental_uris":{"android":"levelo://app?vid=02fb18cf-1b62-4d31-9b0c-eab3541528f6","ios":"levelo://app?vid=02fb18cf-1b62-4d31-9b0c-eab3541528f6"},"vehicle_type_id":"4","last_reported":1723504169,"current_range_meters":13600,"station_id":"ce4bgj92rcd13ifvqbd0","pricing_plan_id":"cebpf4jnsgd1na2vs0mg"},{"bike_id":"2d8ff610-b1e3-465c-9b8a-c7597cc5195f","system_id":"levelo_inurba_marseille","lat":43.2997,"lon":5.38495,"is_reserved":false,"is_disabled":false,"rental_uris":{"android":"levelo://app?vid=2d8ff610-b1e3-465c-9b8a-c7597cc5195f","ios":"levelo://app?vid=2d8ff610-b1e3-465c-9b8a-c7597cc5195f"},"vehicle_type_id":"4","last_reported":1723504169,"current_range_meters":16000,"station_id":"ce4bgj92rcd13ifvqbd0","pricing_plan_id":"cebpf4jnsgd1na2vs0mg"},{"bike_id":"92270473-7a27-436d-a63e-e28eaaf2440a","system_id":"levelo_inurba_marseille","lat":43.29967,"lon":5.38491,"is_reserved":false,"is_disabled":false,"rental_uris":{"android":"levelo://app?vid=92270473-7a27-436d-a63e-e28eaaf2440a","ios":"levelo://app?vid=92270473-7a27-436d-a63e-e28eaaf2440a"},"vehicle_type_id":"4","last_reported":1723504169,"current_range_meters":25200,"station_id":"ce4bgj92rcd13ifvqbd0","pricing_plan_id":"cebpf4jnsgd1na2vs0mg"},{"bike_id":"f98907a0-3d8b-404e-86e5-3be5541726ab","system_id":"levelo_inurba_marseille","lat":43.29967,"lon":5.38492,"is_reserved":false,"is_disabled":false,"rental_uris":{"android":"levelo://app?vid=f98907a0-3d8b-404e-86e5-3be5541726ab","ios":"levelo://app?vid=f98907a0-3d8b-404e-86e5-3be5541726ab"},"vehicle_type_id":"4","last_reported":1723504169,"current_range_meters":25600,"station_id":"ce4bgj92rcd13ifvqbd0","pricing_plan_id":"cebpf4jnsgd1na2vs0mg"},{"bike_id":"77eb300d-38ff-4185-848e-2895c337181a","system_id":"levelo_inurba_marseille","lat":43.29966,"lon":5.38496,"is_reserved":false,"is_disabled":false,"rental_uris":{"android":"levelo://app?vid=77eb300d-38ff-4185-848e-2895c337181a","ios":"levelo://app?vid=77eb300d-38ff-4185-848e-2895c337181a"},"vehicle_type_id":"4","last_reported":1723504169,"current_range_meters":27600,"station_id":"ce4bgj92rcd13ifvqbd0","pricing_plan_id":"cebpf4jnsgd1na2vs0mg"},{"bike_id":"1b1a4c6d-c6b8-406a-98ed-e6c1d606010e","system_id":"levelo_inurba_marseille","lat":43.299724,"lon":5.384848,"is_reserved":false,"is_disabled":false,"rental_uris":{"android":"levelo://app?vid=1b1a4c6d-c6b8-406a-98ed-e6c1d606010e","ios":"levelo://app?vid=1b1a4c6d-c6b8-406a-98ed-e6c1d606010e"},"vehicle_type_id":"4","last_reported":1723504169,"current_range_meters":31200,"station_id":"ce4bgj92rcd13ifvqbd0","pricing_plan_id":"cebpf4jnsgd1na2vs0mg"},{"bike_id":"a23cf7c5-c5e3-4651-88d7-26d07f8ee263","system_id":"levelo_inurba_marseille","lat":43.30144,"lon":5.38777,"is_reserved":false,"is_disabled":false,"rental_uris":{"android":"levelo://app?vid=a23cf7c5-c5e3-4651-88d7-26d07f8ee263","ios":"levelo://app?vid=a23cf7c5-c5e3-4651-88d7-26d07f8ee263"},"vehicle_type_id":"4","last_reported":1723504169,"current_range_meters":31200,"station_id":"ce4bghh2rcd13ifvqb60","pricing_plan_id":"cebpf4jnsgd1na2vs0mg"},{"bike_id":"bab419d1-16c3-4183-a9c4-0090366005e0","system_id":"levelo_inurba_marseille","lat":43.30138,"lon":5.38774,"is_reserved":false,"is_disabled":false,"rental_uris":{"android":"levelo://app?vid=bab419d1-16c3-4183-a9c4-0090366005e0","ios":"levelo://app?vid=bab419d1-16c3-4183-a9c4-0090366005e0"},"vehicle_type_id":"4","last_reported":1723504169,"current_range_meters":30000,"station_id":"ce4bghh2rcd13ifvqb60","pricing_plan_id":"cebpf4jnsgd1na2vs0mg"},{"bike_id":"5a65e236-7388-42f4-912d-8dcd0707d639","system_id":"levelo_inurba_marseille","lat":43.30132,"lon":5.38776,"is_reserved":false,"is_disabled":false,"rental_uris":{"android":"levelo://app?vid=5a65e236-7388-42f4-912d-8dcd0707d639","ios":"levelo://app?vid=5a65e236-7388-42f4-912d-8dcd0707d639"},"vehicle_type_id":"4","last_reported":1723504169,"current_range_meters":28400,"station_id":"ce4bghh2rcd13ifvqb60","pricing_plan_id":"cebpf4jnsgd1na2vs0mg"},{"bike_id":"adbed22f-ad65-4512-b118-4b009827faaf","system_id":"levelo_inurba_marseille","lat":43.30131,"lon":5.38775,"is_reserved":false,"is_disabled":false,"rental_uris":{"android":"levelo://app?vid=adbed22f-ad65-4512-b118-4b009827faaf","ios":"levelo://app?vid=adbed22f-ad65-4512-b118-4b009827faaf"},"vehicle_type_id":"4","last_reported":1723504169,"current_range_meters":20000,"station_id":"ce4bghh2rcd13ifvqb60","pricing_plan_id":"cebpf4jnsgd1na2vs0mg"},{"bike_id":"b9313c32-c649-4d89-9d85-28c5a42a818b","system_id":"levelo_inurba_marseille","lat":43.301396,"lon":5.387812,"is_reserved":false,"is_disabled":false,"rental_uris":{"android":"levelo://app?vid=b9313c32-c649-4d89-9d85-28c5a42a818b","ios":"levelo://app?vid=b9313c32-c649-4d89-9d85-28c5a42a818b"},"vehicle_type_id":"4","last_reported":1723504169,"current_range_meters":27600,"station_id":"ce4bghh2rcd13ifvqb60","pricing_plan_id":"cebpf4jnsgd1na2vs0mg"},{"bike_id":"3e8061aa-e286-4f74-a6d8-2dc071b3068c","system_id":"levelo_inurba_marseille","lat":43.30131,"lon":5.38779,"is_reserved":false,"is_disabled":false,"rental_uris":{"android":"levelo://app?vid=3e8061aa-e286-4f74-a6d8-2dc071b3068c","ios":"levelo://app?vid=3e8061aa-e286-4f74-a6d8-2dc071b3068c"},"vehicle_type_id":"4","last_reported":1723504169,"current_range_meters":31200,"station_id":"ce4bghh2rcd13ifvqb60","pricing_plan_id":"cebpf4jnsgd1na2vs0mg"},{"bike_id":"19f11be4-9419-4a31-9178-17c18fdb0eeb","system_id":"levelo_inurba_marseille","lat":43.301396,"lon":5.387812,"is_reserved":false,"is_disabled":false,"rental_uris":{"android":"levelo://app?vid=19f11be4-9419-4a31-9178-17c18fdb0eeb","ios":"levelo://app?vid=19f11be4-9419-4a31-9178-17c18fdb0eeb"},"vehicle_type_id":"4","last_reported":1723504169,"current_range_meters":31200,"station_id":"ce4bghh2rcd13ifvqb60","pricing_plan_id":"cebpf4jnsgd1na2vs0mg"},{"bike_id":"2aa5a390-65ea-46a2-b3d0-7fa7bfb4c62f","system_id":"levelo_inurba_marseille","lat":43.32366,"lon":5.3888,"is_reserved":false,"is_disabled":false,"rental_uris":{"android":"levelo://app?vid=2aa5a390-65ea-46a2-b3d0-7fa7bfb4c62f","ios":"levelo://app?vid=2aa5a390-65ea-46a2-b3d0-7fa7bfb4c62f"},"vehicle_type_id":"4","last_reported":1723504169,"current_range_meters":19200,"station_id":"ce4bhqp2rcd13ifvqhog","pricing_plan_id":"cebpf4jnsgd1na2vs0mg"},{"bike_id":"63424c74-ab85-4a35-893c-d805903c8e00","system_id":"levelo_inurba_marseille","lat":43.32367,"lon":5.388836,"is_reserved":false,"is_disabled":false,"rental_uris":{"android":"levelo://app?vid=63424c74-ab85-4a35-893c-d805903c8e00","ios":"levelo://app?vid=63424c74-ab85-4a35-893c-d805903c8e00"},"vehicle_type_id":"4","last_reported":1723504169,"current_range_meters":22000,"station_id":"ce4bhqp2rcd13ifvqhog","pricing_plan_id":"cebpf4jnsgd1na2vs0mg"},{"bike_id":"44984cc5-b355-4c8c-b208-6a32994f1428","system_id":"levelo_inurba_marseille","lat":43.32367,"lon":5.388836,"is_reserved":false,"is_disabled":false,"rental_uris":{"android":"levelo://app?vid=44984cc5-b355-4c8c-b208-6a32994f1428","ios":"levelo://app?vid=44984cc5-b355-4c8c-b208-6a32994f1428"},"vehicle_type_id":"4","last_reported":1723504169,"current_range_meters":22800,"station_id":"ce4bhqp2rcd13ifvqhog","pricing_plan_id":"cebpf4jnsgd1na2vs0mg"},{"bike_id":"c7ecfac4-b4d0-4777-aa85-159904d6f96a","system_id":"levelo_inurba_marseille","lat":43.32367,"lon":5.388836,"is_reserved":false,"is_disabled":false,"rental_uris":{"android":"levelo://app?vid=c7ecfac4-b4d0-4777-aa85-159904d6f96a","ios":"levelo://app?vid=c7ecfac4-b4d0-4777-aa85-159904d6f96a"},"vehicle_type_id":"4","last_reported":1723504169,"current_range_meters":31200,"station_id":"ce4bhqp2rcd13ifvqhog","pricing_plan_id":"cebpf4jnsgd1na2vs0mg"},{"bike_id":"c3494682-ba01-4bd4-ac52-14a48b3e0041","system_id":"levelo_inurba_marseille","lat":43.32367,"lon":5.388836,"is_reserved":false,"is_disabled":false,"rental_uris":{"android":"levelo://app?vid=c3494682-ba01-4bd4-ac52-14a48b3e0041","ios":"levelo://app?vid=c3494682-ba01-4bd4-ac52-14a48b3e0041"},"vehicle_type_id":"4","last_reported":1723504169,"current_range_meters":21200,"station_id":"ce4bhqp2rcd13ifvqhog","pricing_plan_id":"cebpf4jnsgd1na2vs0mg"},{"bike_id":"753d917b-7ed6-49a7-aed3-0991d0de9fcc","system_id":"levelo_inurba_marseille","lat":43.32367,"lon":5.388836,"is_reserved":false,"is_disabled":false,"rental_uris":{"android":"levelo://app?vid=753d917b-7ed6-49a7-aed3-0991d0de9fcc","ios":"levelo://app?vid=753d917b-7ed6-49a7-aed3-0991d0de9fcc"},"vehicle_type_id":"4","last_reported":1723504169,"current_range_meters":31200,"station_id":"ce4bhqp2rcd13ifvqhog","pricing_plan_id":"cebpf4jnsgd1na2vs0mg"},{"bike_id":"4c876a2d-6f70-45f3-98fa-f3e866000dc7","system_id":"levelo_inurba_marseille","lat":43.32367,"lon":5.388836,"is_reserved":false,"is_disabled":false,"rental_uris":{"android":"levelo://app?vid=4c876a2d-6f70-45f3-98fa-f3e866000dc7","ios":"levelo://app?vid=4c876a2d-6f70-45f3-98fa-f3e866000dc7"},"vehicle_type_id":"4","last_reported":1723504169,"current_range_meters":29600,"station_id":"ce4bhqp2rcd13ifvqhog","pricing_plan_id":"cebpf4jnsgd1na2vs0mg"},{"bike_id":"7411d15f-0718-453e-ad19-a23d691011c5","system_id":"levelo_inurba_marseille","lat":43.29602,"lon":5.381084,"is_reserved":false,"is_disabled":false,"rental_uris":{"android":"levelo://app?vid=7411d15f-0718-453e-ad19-a23d691011c5","ios":"levelo://app?vid=7411d15f-0718-453e-ad19-a23d691011c5"},"vehicle_type_id":"4","last_reported":1723504169,"current_range_meters":6800,"station_id":"ce4bgl12rcd13ifvqbo0","pricing_plan_id":"cebpf4jnsgd1na2vs0mg"},{"bike_id":"aec0dd20-042d-496c-b085-3d41253fa695","system_id":"levelo_inurba_marseille","lat":43.29602,"lon":5.381084,"is_reserved":false,"is_disabled":false,"rental_uris":{"android":"levelo://app?vid=aec0dd20-042d-496c-b085-3d41253fa695","ios":"levelo://app?vid=aec0dd20-042d-496c-b085-3d41253fa695"},"vehicle_type_id":"4","last_reported":1723504169,"current_range_meters":30000,"station_id":"ce4bgl12rcd13ifvqbo0","pricing_plan_id":"cebpf4jnsgd1na2vs0mg"},{"bike_id":"0a2f93fc-2ca1-4675-82ee-4bc91aeab175","system_id":"levelo_inurba_marseille","lat":43.292749,"lon":5.368402,"is_reserved":false,"is_disabled":false,"rental_uris":{"android":"levelo://app?vid=0a2f93fc-2ca1-4675-82ee-4bc91aeab175","ios":"levelo://app?vid=0a2f93fc-2ca1-4675-82ee-4bc91aeab175"},"vehicle_type_id":"4","last_reported":1723504169,"current_range_meters":31200,"station_id":"ce4bhbp2rcd13ifvqesg","pricing_plan_id":"cebpf4jnsgd1na2vs0mg"},{"bike_id":"62110d4d-9e6b-420f-b01d-78a3c56f1cb8","system_id":"levelo_inurba_marseille","lat":43.293259,"lon":5.371586,"is_reserved":false,"is_disabled":false,"rental_uris":{"android":"levelo://app?vid=62110d4d-9e6b-420f-b01d-78a3c56f1cb8","ios":"levelo://app?vid=62110d4d-9e6b-420f-b01d-78a3c56f1cb8"},"vehicle_type_id":"4","last_reported":1723504169,"current_range_meters":14000,"station_id":"ce4bgh92rcd13ifvqb40","pricing_plan_id":"cebpf4jnsgd1na2vs0mg"},{"bike_id":"68e0b786-5609-435f-8562-77eb5c0bfdba","system_id":"levelo_inurba_marseille","lat":43.29308,"lon":5.37184,"is_reserved":false,"is_disabled":false,"rental_uris":{"android":"levelo://app?vid=68e0b786-5609-435f-8562-77eb5c0bfdba","ios":"levelo://app?vid=68e0b786-5609-435f-8562-77eb5c0bfdba"},"vehicle_type_id":"4","last_reported":1723504169,"current_range_meters":31600,"station_id":"ce4bgh92rcd13ifvqb40","pricing_plan_id":"cebpf4jnsgd1na2vs0mg"},{"bike_id":"53403beb-bc6c-434f-bb03-edaa3e09fc1c","system_id":"levelo_inurba_marseille","lat":43.29295,"lon":5.37399,"is_reserved":false,"is_disabled":false,"rental_uris":{"android":"levelo://app?vid=53403beb-bc6c-434f-bb03-edaa3e09fc1c","ios":"levelo://app?vid=53403beb-bc6c-434f-bb03-edaa3e09fc1c"},"vehicle_type_id":"4","last_reported":1723504169,"current_range_meters":13600,"station_id":"ce4bgi12rcd13ifvqb70","pricing_plan_id":"cebpf4jnsgd1na2vs0mg"},{"bike_id":"cf189dc7-fd5e-4b9d-80a5-90be57301ada","system_id":"levelo_inurba_marseille","lat":43.30592,"lon":5.39343,"is_reserved":false,"is_disabled":false,"rental_uris":{"android":"levelo://app?vid=cf189dc7-fd5e-4b9d-80a5-90be57301ada","ios":"levelo://app?vid=cf189dc7-fd5e-4b9d-80a5-90be57301ada"},"vehicle_type_id":"4","last_reported":1723504169,"current_range_meters":28400,"station_id":"ce4bh0p2rcd13ifvqd80","pricing_plan_id":"cebpf4jnsgd1na2vs0mg"},{"bike_id":"07adc76d-7985-404b-8315-f78fd4ad44ba","system_id":"levelo_inurba_marseille","lat":43.30598,"lon":5.39347,"is_reserved":false,"is_disabled":false,"rental_uris":{"android":"levelo://app?vid=07adc76d-7985-404b-8315-f78fd4ad44ba","ios":"levelo://app?vid=07adc76d-7985-404b-8315-f78fd4ad44ba"},"vehicle_type_id":"4","last_reported":1723504169,"current_range_meters":16800,"station_id":"ce4bh0p2rcd13ifvqd80","pricing_plan_id":"cebpf4jnsgd1na2vs0mg"},{"bike_id":"446e0844-3dcd-4a2d-80c0-793c03cba335","system_id":"levelo_inurba_marseille","lat":43.30599,"lon":5.39351,"is_reserved":false,"is_disabled":false,"rental_uris":{"android":"levelo://app?vid=446e0844-3dcd-4a2d-80c0-793c03cba335","ios":"levelo://app?vid=446e0844-3dcd-4a2d-80c0-793c03cba335"},"vehicle_type_id":"4","last_reported":1723504169,"current_range_meters":4800,"station_id":"ce4bh0p2rcd13ifvqd80","pricing_plan_id":"cebpf4jnsgd1na2vs0mg"},{"bike_id":"8a45a8e0-228f-4dc6-a3fa-56aa9a7eeb72","system_id":"levelo_inurba_marseille","lat":43.305907,"lon":5.393547,"is_reserved":false,"is_disabled":false,"rental_uris":{"android":"levelo://app?vid=8a45a8e0-228f-4dc6-a3fa-56aa9a7eeb72","ios":"levelo://app?vid=8a45a8e0-228f-4dc6-a3fa-56aa9a7eeb72"},"vehicle_type_id":"4","last_reported":1723504169,"current_range_meters":30400,"station_id":"ce4bh0p2rcd13ifvqd80","pricing_plan_id":"cebpf4jnsgd1na2vs0mg"},{"bike_id":"841a6910-aa9d-4e14-9fad-186cebfc351f","system_id":"levelo_inurba_marseille","lat":43.30591,"lon":5.39355,"is_reserved":false,"is_disabled":false,"rental_uris":{"android":"levelo://app?vid=841a6910-aa9d-4e14-9fad-186cebfc351f","ios":"levelo://app?vid=841a6910-aa9d-4e14-9fad-186cebfc351f"},"vehicle_type_id":"4","last_reported":1723504169,"current_range_meters":17200,"station_id":"ce4bh0p2rcd13ifvqd80","pricing_plan_id":"cebpf4jnsgd1na2vs0mg"},{"bike_id":"8d37495d-9961-45f8-ba67-ee81725ae3ae","system_id":"levelo_inurba_marseille","lat":43.29228,"lon":5.36363,"is_reserved":false,"is_disabled":false,"rental_uris":{"android":"levelo://app?vid=8d37495d-9961-45f8-ba67-ee81725ae3ae","ios":"levelo://app?vid=8d37495d-9961-45f8-ba67-ee81725ae3ae"},"vehicle_type_id":"4","last_reported":1723504169,"current_range_meters":0,"station_id":"","pricing_plan_id":"cebpf4jnsgd1na2vs0mg"},{"bike_id":"e858ae7b-219c-44f2-8498-4d1ec1c9071e","system_id":"levelo_inurba_marseille","lat":43.30302,"lon":5.39204,"is_reserved":false,"is_disabled":false,"rental_uris":{"android":"levelo://app?vid=e858ae7b-219c-44f2-8498-4d1ec1c9071e","ios":"levelo://app?vid=e858ae7b-219c-44f2-8498-4d1ec1c9071e"},"vehicle_type_id":"4","last_reported":1723504169,"current_range_meters":21200,"station_id":"ce4bgkh2rcd13ifvqbk0","pricing_plan_id":"cebpf4jnsgd1na2vs0mg"},{"bike_id":"89fdbddd-e153-44fa-ac9a-368f0ce9df45","system_id":"levelo_inurba_marseille","lat":43.2936,"lon":5.37835,"is_reserved":false,"is_disabled":false,"rental_uris":{"android":"levelo://app?vid=89fdbddd-e153-44fa-ac9a-368f0ce9df45","ios":"levelo://app?vid=89fdbddd-e153-44fa-ac9a-368f0ce9df45"},"vehicle_type_id":"4","last_reported":1723504169,"current_range_meters":27200,"station_id":"ce4bgjh2rcd13ifvqbf0","pricing_plan_id":"cebpf4jnsgd1na2vs0mg"},{"bike_id":"7af78138-517d-47d4-946f-6018059e7763","system_id":"levelo_inurba_marseille","lat":43.2936,"lon":5.37835,"is_reserved":false,"is_disabled":false,"rental_uris":{"android":"levelo://app?vid=7af78138-517d-47d4-946f-6018059e7763","ios":"levelo://app?vid=7af78138-517d-47d4-946f-6018059e7763"},"vehicle_type_id":"4","last_reported":1723504169,"current_range_meters":31200,"station_id":"ce4bgjh2rcd13ifvqbf0","pricing_plan_id":"cebpf4jnsgd1na2vs0mg"},{"bike_id":"1f3c6a61-c52d-430e-9d5d-0e52f4db01db","system_id":"levelo_inurba_marseille","lat":43.292311,"lon":5.360731,"is_reserved":false,"is_disabled":false,"rental_uris":{"android":"levelo://app?vid=1f3c6a61-c52d-430e-9d5d-0e52f4db01db","ios":"levelo://app?vid=1f3c6a61-c52d-430e-9d5d-0e52f4db01db"},"vehicle_type_id":"4","last_reported":1723504169,"current_range_meters":31200,"station_id":"ce4bhbh2rcd13ifvqeqg","pricing_plan_id":"cebpf4jnsgd1na2vs0mg"},{"bike_id":"9936e684-ed89-4eca-b93c-ee837ada0292","system_id":"levelo_inurba_marseille","lat":43.30085,"lon":5.390856,"is_reserved":false,"is_disabled":false,"rental_uris":{"android":"levelo://app?vid=9936e684-ed89-4eca-b93c-ee837ada0292","ios":"levelo://app?vid=9936e684-ed89-4eca-b93c-ee837ada0292"},"vehicle_type_id":"4","last_reported":1723504169,"current_range_meters":28000,"station_id":"ce4bh192rcd13ifvqdb0","pricing_plan_id":"cebpf4jnsgd1na2vs0mg"},{"bike_id":"9d7f3295-91cb-4c25-bfdb-9650b905895c","system_id":"levelo_inurba_marseille","lat":43.30085,"lon":5.390856,"is_reserved":false,"is_disabled":false,"rental_uris":{"android":"levelo://app?vid=9d7f3295-91cb-4c25-bfdb-9650b905895c","ios":"levelo://app?vid=9d7f3295-91cb-4c25-bfdb-9650b905895c"},"vehicle_type_id":"4","last_reported":1723504169,"current_range_meters":31600,"station_id":"ce4bh192rcd13ifvqdb0","pricing_plan_id":"cebpf4jnsgd1na2vs0mg"},{"bike_id":"17cb1536-f413-4c5a-8c60-1d8008024c6b","system_id":"levelo_inurba_marseille","lat":43.30095,"lon":5.39082,"is_reserved":false,"is_disabled":false,"rental_uris":{"android":"levelo://app?vid=17cb1536-f413-4c5a-8c60-1d8008024c6b","ios":"levelo://app?vid=17cb1536-f413-4c5a-8c60-1d8008024c6b"},"vehicle_type_id":"4","last_reported":1723504169,"current_range_meters":30800,"station_id":"ce4bh192rcd13ifvqdb0","pricing_plan_id":"cebpf4jnsgd1na2vs0mg"},{"bike_id":"b865eca1-f25b-4ece-8857-391af7f8f4de","system_id":"levelo_inurba_marseille","lat":43.32654,"lon":5.38871,"is_reserved":false,"is_disabled":false,"rental_uris":{"android":"levelo://app?vid=b865eca1-f25b-4ece-8857-391af7f8f4de","ios":"levelo://app?vid=b865eca1-f25b-4ece-8857-391af7f8f4de"},"vehicle_type_id":"4","last_reported":1723504169,"current_range_meters":22000,"station_id":"ce4bhqp2rcd13ifvqhog","pricing_plan_id":"cebpf4jnsgd1na2vs0mg"},{"bike_id":"e366ab17-e7da-4347-aca2-b4286542f5fc","system_id":"levelo_inurba_marseille","lat":43.30084,"lon":5.39081,"is_reserved":false,"is_disabled":false,"rental_uris":{"android":"levelo://app?vid=e366ab17-e7da-4347-aca2-b4286542f5fc","ios":"levelo://app?vid=e366ab17-e7da-4347-aca2-b4286542f5fc"},"vehicle_type_id":"4","last_reported":1723504169,"current_range_meters":31200,"station_id":"ce4bh192rcd13ifvqdb0","pricing_plan_id":"cebpf4jnsgd1na2vs0mg"},{"bike_id":"3960b2bb-00af-4343-a20a-9071ddd23627","system_id":"levelo_inurba_marseille","lat":43.298764,"lon":5.388973,"is_reserved":false,"is_disabled":false,"rental_uris":{"android":"levelo://app?vid=3960b2bb-00af-4343-a20a-9071ddd23627","ios":"levelo://app?vid=3960b2bb-00af-4343-a20a-9071ddd23627"},"vehicle_type_id":"4","last_reported":1723504169,"current_range_meters":19600,"station_id":"ce4bh392rcd13ifvqdl0","pricing_plan_id":"cebpf4jnsgd1na2vs0mg"},{"bike_id":"f32c9f7e-dc39-44da-af99-85433d262e21","system_id":"levelo_inurba_marseille","lat":43.2988,"lon":5.38914,"is_reserved":false,"is_disabled":false,"rental_uris":{"android":"levelo://app?vid=f32c9f7e-dc39-44da-af99-85433d262e21","ios":"levelo://app?vid=f32c9f7e-dc39-44da-af99-85433d262e21"},"vehicle_type_id":"4","last_reported":1723504169,"current_range_meters":22800,"station_id":"ce4bh392rcd13ifvqdl0","pricing_plan_id":"cebpf4jnsgd1na2vs0mg"},{"bike_id":"a69b9eda-ae45-4fd6-9de4-df8648707295","system_id":"levelo_inurba_marseille","lat":43.298764,"lon":5.388973,"is_reserved":false,"is_disabled":false,"rental_uris":{"android":"levelo://app?vid=a69b9eda-ae45-4fd6-9de4-df8648707295","ios":"levelo://app?vid=a69b9eda-ae45-4fd6-9de4-df8648707295"},"vehicle_type_id":"4","last_reported":1723504169,"current_range_meters":31200,"station_id":"ce4bh392rcd13ifvqdl0","pricing_plan_id":"cebpf4jnsgd1na2vs0mg"},{"bike_id":"a3524b7b-e972-41e7-8017-30a3ed3df17b","system_id":"levelo_inurba_marseille","lat":43.313291,"lon":5.396838,"is_reserved":false,"is_disabled":false,"rental_uris":{"android":"levelo://app?vid=a3524b7b-e972-41e7-8017-30a3ed3df17b","ios":"levelo://app?vid=a3524b7b-e972-41e7-8017-30a3ed3df17b"},"vehicle_type_id":"4","last_reported":1723504169,"current_range_meters":28000,"station_id":"ce4bgvp2rcd13ifvqcu0","pricing_plan_id":"cebpf4jnsgd1na2vs0mg"},{"bike_id":"f3d54999-3381-4cce-842b-02df29928fb0","system_id":"levelo_inurba_marseille","lat":43.309047,"lon":5.396551,"is_reserved":false,"is_disabled":false,"rental_uris":{"android":"levelo://app?vid=f3d54999-3381-4cce-842b-02df29928fb0","ios":"levelo://app?vid=f3d54999-3381-4cce-842b-02df29928fb0"},"vehicle_type_id":"4","last_reported":1723504169,"current_range_meters":31600,"station_id":"ce4bh012rcd13ifvqcv0","pricing_plan_id":"cebpf4jnsgd1na2vs0mg"},{"bike_id":"9d4b68a5-c93f-4844-a235-5ff4a055b660","system_id":"levelo_inurba_marseille","lat":43.292385,"lon":5.37767,"is_reserved":false,"is_disabled":false,"rental_uris":{"android":"levelo://app?vid=9d4b68a5-c93f-4844-a235-5ff4a055b660","ios":"levelo://app?vid=9d4b68a5-c93f-4844-a235-5ff4a055b660"},"vehicle_type_id":"4","last_reported":1723504169,"current_range_meters":2400,"station_id":"","pricing_plan_id":"cebpf4jnsgd1na2vs0mg"},{"bike_id":"7a10bf71-89b4-495b-8558-956f5dd5e872","system_id":"levelo_inurba_marseille","lat":43.309047,"lon":5.396551,"is_reserved":false,"is_disabled":false,"rental_uris":{"android":"levelo://app?vid=7a10bf71-89b4-495b-8558-956f5dd5e872","ios":"levelo://app?vid=7a10bf71-89b4-495b-8558-956f5dd5e872"},"vehicle_type_id":"4","last_reported":1723504169,"current_range_meters":13200,"station_id":"ce4bh012rcd13ifvqcv0","pricing_plan_id":"cebpf4jnsgd1na2vs0mg"},{"bike_id":"ec75d054-99c0-48e5-a537-43d9510dae6b","system_id":"levelo_inurba_marseille","lat":43.3133,"lon":5.39689,"is_reserved":false,"is_disabled":false,"rental_uris":{"android":"levelo://app?vid=ec75d054-99c0-48e5-a537-43d9510dae6b","ios":"levelo://app?vid=ec75d054-99c0-48e5-a537-43d9510dae6b"},"vehicle_type_id":"4","last_reported":1723504169,"current_range_meters":1600,"station_id":"ce4bgvp2rcd13ifvqcu0","pricing_plan_id":"cebpf4jnsgd1na2vs0mg"},{"bike_id":"9ef04907-30f4-4495-aa2c-1f2b1b0e619e","system_id":"levelo_inurba_marseille","lat":43.313291,"lon":5.396838,"is_reserved":false,"is_disabled":false,"rental_uris":{"android":"levelo://app?vid=9ef04907-30f4-4495-aa2c-1f2b1b0e619e","ios":"levelo://app?vid=9ef04907-30f4-4495-aa2c-1f2b1b0e619e"},"vehicle_type_id":"4","last_reported":1723504169,"current_range_meters":13600,"station_id":"ce4bgvp2rcd13ifvqcu0","pricing_plan_id":"cebpf4jnsgd1na2vs0mg"},{"bike_id":"8e0cacf4-a916-4e02-b86a-83342c533c2e","system_id":"levelo_inurba_marseille","lat":43.309038,"lon":5.396546,"is_reserved":false,"is_disabled":false,"rental_uris":{"android":"levelo://app?vid=8e0cacf4-a916-4e02-b86a-83342c533c2e","ios":"levelo://app?vid=8e0cacf4-a916-4e02-b86a-83342c533c2e"},"vehicle_type_id":"4","last_reported":1723504169,"current_range_meters":20800,"station_id":"ce4bh012rcd13ifvqcv0","pricing_plan_id":"cebpf4jnsgd1na2vs0mg"},{"bike_id":"5f463f61-1553-4c5a-93e6-e557bb5c58d2","system_id":"levelo_inurba_marseille","lat":43.313291,"lon":5.396838,"is_reserved":false,"is_disabled":false,"rental_uris":{"android":"levelo://app?vid=5f463f61-1553-4c5a-93e6-e557bb5c58d2","ios":"levelo://app?vid=5f463f61-1553-4c5a-93e6-e557bb5c58d2"},"vehicle_type_id":"4","last_reported":1723504169,"current_range_meters":31600,"station_id":"ce4bgvp2rcd13ifvqcu0","pricing_plan_id":"cebpf4jnsgd1na2vs0mg"},{"bike_id":"cf6d8bb4-0bf2-49e8-b424-a427520c9bd9","system_id":"levelo_inurba_marseille","lat":43.31327,"lon":5.39691,"is_reserved":false,"is_disabled":false,"rental_uris":{"android":"levelo://app?vid=cf6d8bb4-0bf2-49e8-b424-a427520c9bd9","ios":"levelo://app?vid=cf6d8bb4-0bf2-49e8-b424-a427520c9bd9"},"vehicle_type_id":"4","last_reported":1723504169,"current_range_meters":3200,"station_id":"ce4bgvp2rcd13ifvqcu0","pricing_plan_id":"cebpf4jnsgd1na2vs0mg"},{"bike_id":"41f2a558-b074-4d4b-8466-8d21492e6001","system_id":"levelo_inurba_marseille","lat":43.309038,"lon":5.396546,"is_reserved":false,"is_disabled":false,"rental_uris":{"android":"levelo://app?vid=41f2a558-b074-4d4b-8466-8d21492e6001","ios":"levelo://app?vid=41f2a558-b074-4d4b-8466-8d21492e6001"},"vehicle_type_id":"4","last_reported":1723504169,"current_range_meters":31200,"station_id":"ce4bh012rcd13ifvqcv0","pricing_plan_id":"cebpf4jnsgd1na2vs0mg"},{"bike_id":"fde95ec3-28c2-41d9-b214-961e49cc06d5","system_id":"levelo_inurba_marseille","lat":43.313291,"lon":5.396838,"is_reserved":false,"is_disabled":false,"rental_uris":{"android":"levelo://app?vid=fde95ec3-28c2-41d9-b214-961e49cc06d5","ios":"levelo://app?vid=fde95ec3-28c2-41d9-b214-961e49cc06d5"},"vehicle_type_id":"4","last_reported":1723504169,"current_range_meters":11600,"station_id":"ce4bgvp2rcd13ifvqcu0","pricing_plan_id":"cebpf4jnsgd1na2vs0mg"},{"bike_id":"4a5b625e-f1f5-4b84-8038-80245af8f729","system_id":"levelo_inurba_marseille","lat":43.313291,"lon":5.396838,"is_reserved":false,"is_disabled":false,"rental_uris":{"android":"levelo://app?vid=4a5b625e-f1f5-4b84-8038-80245af8f729","ios":"levelo://app?vid=4a5b625e-f1f5-4b84-8038-80245af8f729"},"vehicle_type_id":"4","last_reported":1723504169,"current_range_meters":21200,"station_id":"ce4bgvp2rcd13ifvqcu0","pricing_plan_id":"cebpf4jnsgd1na2vs0mg"},{"bike_id":"01779ca9-cb0f-4be1-b8cc-0307ebfee097","system_id":"levelo_inurba_marseille","lat":43.313291,"lon":5.396838,"is_reserved":false,"is_disabled":false,"rental_uris":{"android":"levelo://app?vid=01779ca9-cb0f-4be1-b8cc-0307ebfee097","ios":"levelo://app?vid=01779ca9-cb0f-4be1-b8cc-0307ebfee097"},"vehicle_type_id":"4","last_reported":1723504169,"current_range_meters":20000,"station_id":"ce4bgvp2rcd13ifvqcu0","pricing_plan_id":"cebpf4jnsgd1na2vs0mg"},{"bike_id":"ea53cc93-bddf-470a-879f-9924033ba557","system_id":"levelo_inurba_marseille","lat":43.31336,"lon":5.39694,"is_reserved":false,"is_disabled":false,"rental_uris":{"android":"levelo://app?vid=ea53cc93-bddf-470a-879f-9924033ba557","ios":"levelo://app?vid=ea53cc93-bddf-470a-879f-9924033ba557"},"vehicle_type_id":"4","last_reported":1723504169,"current_range_meters":6000,"station_id":"ce4bgvp2rcd13ifvqcu0","pricing_plan_id":"cebpf4jnsgd1na2vs0mg"},{"bike_id":"b9ada371-48b9-44ac-8be3-dda3c97ab5f5","system_id":"levelo_inurba_marseille","lat":43.31327,"lon":5.39695,"is_reserved":false,"is_disabled":false,"rental_uris":{"android":"levelo://app?vid=b9ada371-48b9-44ac-8be3-dda3c97ab5f5","ios":"levelo://app?vid=b9ada371-48b9-44ac-8be3-dda3c97ab5f5"},"vehicle_type_id":"4","last_reported":1723504169,"current_range_meters":1600,"station_id":"ce4bgvp2rcd13ifvqcu0","pricing_plan_id":"cebpf4jnsgd1na2vs0mg"},{"bike_id":"7469db8d-52ec-4748-997b-f0d6cb2969b4","system_id":"levelo_inurba_marseille","lat":43.2919,"lon":5.35788,"is_reserved":false,"is_disabled":false,"rental_uris":{"android":"levelo://app?vid=7469db8d-52ec-4748-997b-f0d6cb2969b4","ios":"levelo://app?vid=7469db8d-52ec-4748-997b-f0d6cb2969b4"},"vehicle_type_id":"4","last_reported":1723504169,"current_range_meters":0,"station_id":"ce4bhb12rcd13ifvqel0","pricing_plan_id":"cebpf4jnsgd1na2vs0mg"},{"bike_id":"a42774ca-6732-40c4-bec4-fd57b56a99a8","system_id":"levelo_inurba_marseille","lat":43.313291,"lon":5.396838,"is_reserved":false,"is_disabled":false,"rental_uris":{"android":"levelo://app?vid=a42774ca-6732-40c4-bec4-fd57b56a99a8","ios":"levelo://app?vid=a42774ca-6732-40c4-bec4-fd57b56a99a8"},"vehicle_type_id":"4","last_reported":1723504169,"current_range_meters":31600,"station_id":"ce4bgvp2rcd13ifvqcu0","pricing_plan_id":"cebpf4jnsgd1na2vs0mg"},{"bike_id":"3b0ae270-05f4-4383-b25f-f78a5cc7b2c1","system_id":"levelo_inurba_marseille","lat":43.309038,"lon":5.396546,"is_reserved":false,"is_disabled":false,"rental_uris":{"android":"levelo://app?vid=3b0ae270-05f4-4383-b25f-f78a5cc7b2c1","ios":"levelo://app?vid=3b0ae270-05f4-4383-b25f-f78a5cc7b2c1"},"vehicle_type_id":"4","last_reported":1723504169,"current_range_meters":28000,"station_id":"ce4bh012rcd13ifvqcv0","pricing_plan_id":"cebpf4jnsgd1na2vs0mg"},{"bike_id":"8a1b3443-4e67-443c-b44f-075d7dfcf94c","system_id":"levelo_inurba_marseille","lat":43.30226,"lon":5.39466,"is_reserved":false,"is_disabled":false,"rental_uris":{"android":"levelo://app?vid=8a1b3443-4e67-443c-b44f-075d7dfcf94c","ios":"levelo://app?vid=8a1b3443-4e67-443c-b44f-075d7dfcf94c"},"vehicle_type_id":"4","last_reported":1723504169,"current_range_meters":4800,"station_id":"ce4bh0p2rcd13ifvqd70","pricing_plan_id":"cebpf4jnsgd1na2vs0mg"},{"bike_id":"845beaa4-e57b-44ac-9932-76cb0be7d68b","system_id":"levelo_inurba_marseille","lat":43.302008,"lon":5.394694,"is_reserved":false,"is_disabled":false,"rental_uris":{"android":"levelo://app?vid=845beaa4-e57b-44ac-9932-76cb0be7d68b","ios":"levelo://app?vid=845beaa4-e57b-44ac-9932-76cb0be7d68b"},"vehicle_type_id":"4","last_reported":1723504169,"current_range_meters":400,"station_id":"ce4bh0p2rcd13ifvqd70","pricing_plan_id":"cebpf4jnsgd1na2vs0mg"},{"bike_id":"dc034230-ec56-487d-9486-dce6b43a9b76","system_id":"levelo_inurba_marseille","lat":43.302008,"lon":5.394694,"is_reserved":false,"is_disabled":false,"rental_uris":{"android":"levelo://app?vid=dc034230-ec56-487d-9486-dce6b43a9b76","ios":"levelo://app?vid=dc034230-ec56-487d-9486-dce6b43a9b76"},"vehicle_type_id":"4","last_reported":1723504169,"current_range_meters":0,"station_id":"ce4bh0p2rcd13ifvqd70","pricing_plan_id":"cebpf4jnsgd1na2vs0mg"},{"bike_id":"4273cc97-2232-4316-b134-ffde6c9a572f","system_id":"levelo_inurba_marseille","lat":43.302008,"lon":5.394694,"is_reserved":false,"is_disabled":false,"rental_uris":{"android":"levelo://app?vid=4273cc97-2232-4316-b134-ffde6c9a572f","ios":"levelo://app?vid=4273cc97-2232-4316-b134-ffde6c9a572f"},"vehicle_type_id":"4","last_reported":1723504169,"current_range_meters":21600,"station_id":"ce4bh0p2rcd13ifvqd70","pricing_plan_id":"cebpf4jnsgd1na2vs0mg"},{"bike_id":"a957f235-ccab-4edc-a3c9-bbe4d3347adf","system_id":"levelo_inurba_marseille","lat":43.30213,"lon":5.394704,"is_reserved":false,"is_disabled":false,"rental_uris":{"android":"levelo://app?vid=a957f235-ccab-4edc-a3c9-bbe4d3347adf","ios":"levelo://app?vid=a957f235-ccab-4edc-a3c9-bbe4d3347adf"},"vehicle_type_id":"4","last_reported":1723504169,"current_range_meters":31200,"station_id":"ce4bh0p2rcd13ifvqd70","pricing_plan_id":"cebpf4jnsgd1na2vs0mg"},{"bike_id":"943d167e-252d-4474-923d-de567831eae7","system_id":"levelo_inurba_marseille","lat":43.290327,"lon":5.375711,"is_reserved":false,"is_disabled":false,"rental_uris":{"android":"levelo://app?vid=943d167e-252d-4474-923d-de567831eae7","ios":"levelo://app?vid=943d167e-252d-4474-923d-de567831eae7"},"vehicle_type_id":"4","last_reported":1723504169,"current_range_meters":31200,"station_id":"ce4bh692rcd13ifvqe90","pricing_plan_id":"cebpf4jnsgd1na2vs0mg"},{"bike_id":"7e5f2d64-d9f9-4855-91c2-aea7d5fcbbe1","system_id":"levelo_inurba_marseille","lat":43.28951,"lon":5.36639,"is_reserved":false,"is_disabled":false,"rental_uris":{"android":"levelo://app?vid=7e5f2d64-d9f9-4855-91c2-aea7d5fcbbe1","ios":"levelo://app?vid=7e5f2d64-d9f9-4855-91c2-aea7d5fcbbe1"},"vehicle_type_id":"4","last_reported":1723504169,"current_range_meters":25600,"station_id":"ce4bhap2rcd13ifvqek0","pricing_plan_id":"cebpf4jnsgd1na2vs0mg"},{"bike_id":"baba1c1a-a9e6-4d5a-a07e-1fd1aa5b40a3","system_id":"levelo_inurba_marseille","lat":43.294162,"lon":5.386292,"is_reserved":false,"is_disabled":false,"rental_uris":{"android":"levelo://app?vid=baba1c1a-a9e6-4d5a-a07e-1fd1aa5b40a3","ios":"levelo://app?vid=baba1c1a-a9e6-4d5a-a07e-1fd1aa5b40a3"},"vehicle_type_id":"4","last_reported":1723504169,"current_range_meters":31200,"station_id":"ce4bh2h2rcd13ifvqdh0","pricing_plan_id":"cebpf4jnsgd1na2vs0mg"},{"bike_id":"8ab92d60-2e70-453d-a309-5a534d647fc9","system_id":"levelo_inurba_marseille","lat":43.290327,"lon":5.375711,"is_reserved":false,"is_disabled":false,"rental_uris":{"android":"levelo://app?vid=8ab92d60-2e70-453d-a309-5a534d647fc9","ios":"levelo://app?vid=8ab92d60-2e70-453d-a309-5a534d647fc9"},"vehicle_type_id":"4","last_reported":1723504169,"current_range_meters":31200,"station_id":"ce4bh692rcd13ifvqe90","pricing_plan_id":"cebpf4jnsgd1na2vs0mg"},{"bike_id":"56ea8b7f-eea7-4b0a-a26f-ae26aab95661","system_id":"levelo_inurba_marseille","lat":43.28943,"lon":5.36632,"is_reserved":false,"is_disabled":false,"rental_uris":{"android":"levelo://app?vid=56ea8b7f-eea7-4b0a-a26f-ae26aab95661","ios":"levelo://app?vid=56ea8b7f-eea7-4b0a-a26f-ae26aab95661"},"vehicle_type_id":"4","last_reported":1723504169,"current_range_meters":0,"station_id":"ce4bhap2rcd13ifvqek0","pricing_plan_id":"cebpf4jnsgd1na2vs0mg"},{"bike_id":"476bacc2-82a9-4968-94cd-d6ee0606e481","system_id":"levelo_inurba_marseille","lat":43.29427,"lon":5.38664,"is_reserved":false,"is_disabled":false,"rental_uris":{"android":"levelo://app?vid=476bacc2-82a9-4968-94cd-d6ee0606e481","ios":"levelo://app?vid=476bacc2-82a9-4968-94cd-d6ee0606e481"},"vehicle_type_id":"4","last_reported":1723504169,"current_range_meters":0,"station_id":"","pricing_plan_id":"cebpf4jnsgd1na2vs0mg"},{"bike_id":"f530f6ff-4714-4fa7-8618-07eedd607fbd","system_id":"levelo_inurba_marseille","lat":43.29253,"lon":5.38314,"is_reserved":false,"is_disabled":false,"rental_uris":{"android":"levelo://app?vid=f530f6ff-4714-4fa7-8618-07eedd607fbd","ios":"levelo://app?vid=f530f6ff-4714-4fa7-8618-07eedd607fbd"},"vehicle_type_id":"4","last_reported":1723504169,"current_range_meters":24000,"station_id":"","pricing_plan_id":"cebpf4jnsgd1na2vs0mg"},{"bike_id":"c73f9251-fb0a-423c-a93d-99e15be0e909","system_id":"levelo_inurba_marseille","lat":43.289184,"lon":5.366408,"is_reserved":false,"is_disabled":false,"rental_uris":{"android":"levelo://app?vid=c73f9251-fb0a-423c-a93d-99e15be0e909","ios":"levelo://app?vid=c73f9251-fb0a-423c-a93d-99e15be0e909"},"vehicle_type_id":"4","last_reported":1723504169,"current_range_meters":0,"station_id":"ce4bhap2rcd13ifvqek0","pricing_plan_id":"cebpf4jnsgd1na2vs0mg"},{"bike_id":"38f92b22-046f-4bae-b16d-5594797f8707","system_id":"levelo_inurba_marseille","lat":43.289184,"lon":5.366408,"is_reserved":false,"is_disabled":false,"rental_uris":{"android":"levelo://app?vid=38f92b22-046f-4bae-b16d-5594797f8707","ios":"levelo://app?vid=38f92b22-046f-4bae-b16d-5594797f8707"},"vehicle_type_id":"4","last_reported":1723504169,"current_range_meters":0,"station_id":"ce4bhap2rcd13ifvqek0","pricing_plan_id":"cebpf4jnsgd1na2vs0mg"},{"bike_id":"9fcbfd60-d69a-4b01-ada8-bbf1530aa60e","system_id":"levelo_inurba_marseille","lat":43.290327,"lon":5.375711,"is_reserved":false,"is_disabled":false,"rental_uris":{"android":"levelo://app?vid=9fcbfd60-d69a-4b01-ada8-bbf1530aa60e","ios":"levelo://app?vid=9fcbfd60-d69a-4b01-ada8-bbf1530aa60e"},"vehicle_type_id":"4","last_reported":1723504169,"current_range_meters":30800,"station_id":"ce4bh692rcd13ifvqe90","pricing_plan_id":"cebpf4jnsgd1na2vs0mg"},{"bike_id":"a9331fa5-3b5e-4c51-870f-04b238cb1777","system_id":"levelo_inurba_marseille","lat":43.304274,"lon":5.397513,"is_reserved":false,"is_disabled":false,"rental_uris":{"android":"levelo://app?vid=a9331fa5-3b5e-4c51-870f-04b238cb1777","ios":"levelo://app?vid=a9331fa5-3b5e-4c51-870f-04b238cb1777"},"vehicle_type_id":"4","last_reported":1723504169,"current_range_meters":28000,"station_id":"ce4bh092rcd13ifvqd20","pricing_plan_id":"cebpf4jnsgd1na2vs0mg"},{"bike_id":"c3d01244-9e24-41d2-ac66-1ab90608d2ea","system_id":"levelo_inurba_marseille","lat":43.304296,"lon":5.397513,"is_reserved":false,"is_disabled":false,"rental_uris":{"android":"levelo://app?vid=c3d01244-9e24-41d2-ac66-1ab90608d2ea","ios":"levelo://app?vid=c3d01244-9e24-41d2-ac66-1ab90608d2ea"},"vehicle_type_id":"4","last_reported":1723504169,"current_range_meters":27200,"station_id":"ce4bh092rcd13ifvqd20","pricing_plan_id":"cebpf4jnsgd1na2vs0mg"},{"bike_id":"7a1ebe78-8b57-4eda-acdf-fa98010d8c66","system_id":"levelo_inurba_marseille","lat":43.292644,"lon":5.384257,"is_reserved":false,"is_disabled":false,"rental_uris":{"android":"levelo://app?vid=7a1ebe78-8b57-4eda-acdf-fa98010d8c66","ios":"levelo://app?vid=7a1ebe78-8b57-4eda-acdf-fa98010d8c66"},"vehicle_type_id":"4","last_reported":1723504169,"current_range_meters":0,"station_id":"ce4bh692rcd13ifvqea0","pricing_plan_id":"cebpf4jnsgd1na2vs0mg"},{"bike_id":"dfeedd8d-5242-4d10-b903-bf7609d1734c","system_id":"levelo_inurba_marseille","lat":43.304296,"lon":5.397513,"is_reserved":false,"is_disabled":false,"rental_uris":{"android":"levelo://app?vid=dfeedd8d-5242-4d10-b903-bf7609d1734c","ios":"levelo://app?vid=dfeedd8d-5242-4d10-b903-bf7609d1734c"},"vehicle_type_id":"4","last_reported":1723504169,"current_range_meters":8400,"station_id":"ce4bh092rcd13ifvqd20","pricing_plan_id":"cebpf4jnsgd1na2vs0mg"},