{"last_updated":1777110126,"ttl":60,"version":"2.2","data":{"bikes":[{"bike_id":"f610e6d5-1c6b-40b7-ab96-cd64668c6067","system_id":"levelo_inurba_marseille","lat":43.30583,"lon":5.36491,"is_reserved":false,"is_disabled":false,"rental_uris":{"android":"levelo://app?vid=f610e6d5-1c6b-40b7-ab96-cd64668c6067","ios":"levelo://app?vid=f610e6d5-1c6b-40b7-ab96-cd64668c6067"},"vehicle_type_id":"4","last_reported":1777110127,"current_range_meters":2800,"station_id":"","pricing_plan_id":"cebpf4jnsgd1na2vs0mg"},{"bike_id":"51517ef6-1643-42d9-8b63-da26d2ec9ec7","system_id":"levelo_inurba_marseille","lat":43.28934,"lon":5.36622,"is_reserved":false,"is_disabled":false,"rental_uris":{"android":"levelo://app?vid=51517ef6-1643-42d9-8b63-da26d2ec9ec7","ios":"levelo://app?vid=51517ef6-1643-42d9-8b63-da26d2ec9ec7"},"vehicle_type_id":"4","last_reported":1777110127,"current_range_meters":2800,"station_id":"ce4bhap2rcd13ifvqek0","pricing_plan_id":"cebpf4jnsgd1na2vs0mg"},{"bike_id":"53d0b464-9d84-4ebb-a788-233487c8451c","system_id":"levelo_inurba_marseille","lat":43.33261,"lon":5.37783,"is_reserved":false,"is_disabled":false,"rental_uris":{"android":"levelo://app?vid=53d0b464-9d84-4ebb-a788-233487c8451c","ios":"levelo://app?vid=53d0b464-9d84-4ebb-a788-233487c8451c"},"vehicle_type_id":"4","last_reported":1777110127,"current_range_meters":2800,"station_id":"","pricing_plan_id":"cebpf4jnsgd1na2vs0mg"},{"bike_id":"0dbedf6c-2998-4766-a666-4a202ea6432f","system_id":"levelo_inurba_marseille","lat":43.26192,"lon":5.37447,"is_reserved":false,"is_disabled":false,"rental_uris":{"android":"levelo://app?vid=0dbedf6c-2998-4766-a666-4a202ea6432f","ios":"levelo://app?vid=0dbedf6c-2998-4766-a666-4a202ea6432f"},"vehicle_type_id":"4","last_reported":1777110127,"current_range_meters":2800,"station_id":"ce4bhgp2rcd13ifvqfc0","pricing_plan_id":"cebpf4jnsgd1na2vs0mg"},{"bike_id":"9ea122b7-b1b3-42ec-9596-127012f59471","system_id":"levelo_inurba_marseille","lat":43.24397,"lon":5.3706,"is_reserved":false,"is_disabled":false,"rental_uris":{"android":"levelo://app?vid=9ea122b7-b1b3-42ec-9596-127012f59471","ios":"levelo://app?vid=9ea122b7-b1b3-42ec-9596-127012f59471"},"vehicle_type_id":"4","last_reported":1777110127,"current_range_meters":2800,"station_id":"ce4bhhh2rcd13ifvqfk0","pricing_plan_id":"cebpf4jnsgd1na2vs0mg"},{"bike_id":"63c6fc89-a203-40db-8567-7bfe4fca8ecc","system_id":"levelo_inurba_marseille","lat":43.27366,"lon":5.36258,"is_reserved":false,"is_disabled":false,"rental_uris":{"android":"levelo://app?vid=63c6fc89-a203-40db-8567-7bfe4fca8ecc","ios":"levelo://app?vid=63c6fc89-a203-40db-8567-7bfe4fca8ecc"},"vehicle_type_id":"4","last_reported":1777110127,"current_range_meters":2800,"station_id":"ce4bhbh2rcd13ifvqeo0","pricing_plan_id":"cebpf4jnsgd1na2vs0mg"},{"bike_id":"286a07ab-b424-41ad-ae9f-ecf04857199a","system_id":"levelo_inurba_marseille","lat":43.29528,"lon":5.38539,"is_reserved":false,"is_disabled":false,"rental_uris":{"android":"levelo://app?vid=286a07ab-b424-41ad-ae9f-ecf04857199a","ios":"levelo://app?vid=286a07ab-b424-41ad-ae9f-ecf04857199a"},"vehicle_type_id":"4","last_reported":1777110127,"current_range_meters":2800,"station_id":"ce4bgih2rcd13ifvqba0","pricing_plan_id":"cebpf4jnsgd1na2vs0mg"},{"bike_id":"2f5837b5-417d-4465-9514-c2e400d5dd41","system_id":"levelo_inurba_marseille","lat":43.25337,"lon":5.42165,"is_reserved":false,"is_disabled":false,"rental_uris":{"android":"levelo://app?vid=2f5837b5-417d-4465-9514-c2e400d5dd41","ios":"levelo://app?vid=2f5837b5-417d-4465-9514-c2e400d5dd41"},"vehicle_type_id":"4","last_reported":1777110127,"current_range_meters":2800,"station_id":"st_d2m65c5bi1j21697t3ng","pricing_plan_id":"cebpf4jnsgd1na2vs0mg"},{"bike_id":"d5eae89b-43ac-44a2-84bb-67d96bea1d1c","system_id":"levelo_inurba_marseille","lat":43.26496,"lon":5.39536,"is_reserved":false,"is_disabled":true,"rental_uris":{"android":"levelo://app?vid=d5eae89b-43ac-44a2-84bb-67d96bea1d1c","ios":"levelo://app?vid=d5eae89b-43ac-44a2-84bb-67d96bea1d1c"},"vehicle_type_id":"4","last_reported":1777110127,"current_range_meters":3200,"station_id":"ce4bhi12rcd13ifvqfq0","pricing_plan_id":"cebpf4jnsgd1na2vs0mg"},{"bike_id":"146def8f-c25a-4a36-bb78-c0e04f65294e","system_id":"levelo_inurba_marseille","lat":43.28878,"lon":5.43038,"is_reserved":false,"is_disabled":false,"rental_uris":{"android":"levelo://app?vid=146def8f-c25a-4a36-bb78-c0e04f65294e","ios":"levelo://app?vid=146def8f-c25a-4a36-bb78-c0e04f65294e"},"vehicle_type_id":"4","last_reported":1777110127,"current_range_meters":3200,"station_id":"","pricing_plan_id":"cebpf4jnsgd1na2vs0mg"},{"bike_id":"22b6b18a-0dff-4fcb-9dca-8537d06b0bba","system_id":"levelo_inurba_marseille","lat":43.28478,"lon":5.48406,"is_reserved":false,"is_disabled":false,"rental_uris":{"android":"levelo://app?vid=22b6b18a-0dff-4fcb-9dca-8537d06b0bba","ios":"levelo://app?vid=22b6b18a-0dff-4fcb-9dca-8537d06b0bba"},"vehicle_type_id":"4","last_reported":1777110127,"current_range_meters":3200,"station_id":"","pricing_plan_id":"cebpf4jnsgd1na2vs0mg"},{"bike_id":"89cb976b-df3a-46fc-a9ef-0025de561630","system_id":"levelo_inurba_marseille","lat":43.29446,"lon":5.43392,"is_reserved":false,"is_disabled":false,"rental_uris":{"android":"levelo://app?vid=89cb976b-df3a-46fc-a9ef-0025de561630","ios":"levelo://app?vid=89cb976b-df3a-46fc-a9ef-0025de561630"},"vehicle_type_id":"4","last_reported":1777110127,"current_range_meters":3200,"station_id":"","pricing_plan_id":"cebpf4jnsgd1na2vs0mg"},{"bike_id":"39940c51-67a7-48ed-b933-e73a07b5f2ea","system_id":"levelo_inurba_marseille","lat":43.26781,"lon":5.39416,"is_reserved":false,"is_disabled":false,"rental_uris":{"android":"levelo://app?vid=39940c51-67a7-48ed-b933-e73a07b5f2ea","ios":"levelo://app?vid=39940c51-67a7-48ed-b933-e73a07b5f2ea"},"vehicle_type_id":"4","last_reported":1777110127,"current_range_meters":3200,"station_id":"ce4bhh12rcd13ifvqfg0","pricing_plan_id":"cebpf4jnsgd1na2vs0mg"},{"bike_id":"cd21f6c1-a1f8-4978-8025-1d254a6bf514","system_id":"levelo_inurba_marseille","lat":43.28474,"lon":5.48393,"is_reserved":false,"is_disabled":false,"rental_uris":{"android":"levelo://app?vid=cd21f6c1-a1f8-4978-8025-1d254a6bf514","ios":"levelo://app?vid=cd21f6c1-a1f8-4978-8025-1d254a6bf514"},"vehicle_type_id":"4","last_reported":1777110127,"current_range_meters":3600,"station_id":"st_d3svhcjqgbts73a3dn0g","pricing_plan_id":"cebpf4jnsgd1na2vs0mg"},{"bike_id":"e8d6ce3d-1aa9-47ef-9b48-93862ee5f7fd","system_id":"levelo_inurba_marseille","lat":43.21266,"lon":5.3542,"is_reserved":false,"is_disabled":false,"rental_uris":{"android":"levelo://app?vid=e8d6ce3d-1aa9-47ef-9b48-93862ee5f7fd","ios":"levelo://app?vid=e8d6ce3d-1aa9-47ef-9b48-93862ee5f7fd"},"vehicle_type_id":"4","last_reported":1777110127,"current_range_meters":3600,"station_id":"","pricing_plan_id":"cebpf4jnsgd1na2vs0mg"},{"bike_id":"e24ee511-666f-4b42-b05f-b139c00c8486","system_id":"levelo_inurba_marseille","lat":43.24803,"lon":5.37454,"is_reserved":false,"is_disabled":false,"rental_uris":{"android":"levelo://app?vid=e24ee511-666f-4b42-b05f-b139c00c8486","ios":"levelo://app?vid=e24ee511-666f-4b42-b05f-b139c00c8486"},"vehicle_type_id":"4","last_reported":1777110127,"current_range_meters":3600,"station_id":"ce4bhgh2rcd13ifvqfb0","pricing_plan_id":"cebpf4jnsgd1na2vs0mg"},{"bike_id":"5f542eee-50bf-401a-a804-ba0312037135","system_id":"levelo_inurba_marseille","lat":43.30557,"lon":5.36552,"is_reserved":false,"is_disabled":false,"rental_uris":{"android":"levelo://app?vid=5f542eee-50bf-401a-a804-ba0312037135","ios":"levelo://app?vid=5f542eee-50bf-401a-a804-ba0312037135"},"vehicle_type_id":"4","last_reported":1777110127,"current_range_meters":3600,"station_id":"ce4bgs12rcd13ifvqcag","pricing_plan_id":"cebpf4jnsgd1na2vs0mg"},{"bike_id":"4e0d0d98-1dda-494b-a6ce-04f5a876f744","system_id":"levelo_inurba_marseille","lat":43.27765,"lon":5.38798,"is_reserved":false,"is_disabled":false,"rental_uris":{"android":"levelo://app?vid=4e0d0d98-1dda-494b-a6ce-04f5a876f744","ios":"levelo://app?vid=4e0d0d98-1dda-494b-a6ce-04f5a876f744"},"vehicle_type_id":"4","last_reported":1777110127,"current_range_meters":3600,"station_id":"","pricing_plan_id":"cebpf4jnsgd1na2vs0mg"},{"bike_id":"69b71bf4-42c1-4b3e-88cf-91f0d0779d40","system_id":"levelo_inurba_marseille","lat":43.30448,"lon":5.37905,"is_reserved":false,"is_disabled":false,"rental_uris":{"android":"levelo://app?vid=69b71bf4-42c1-4b3e-88cf-91f0d0779d40","ios":"levelo://app?vid=69b71bf4-42c1-4b3e-88cf-91f0d0779d40"},"vehicle_type_id":"4","last_reported":1777110127,"current_range_meters":3600,"station_id":"ce4bgup2rcd13ifvqcn0","pricing_plan_id":"cebpf4jnsgd1na2vs0mg"},{"bike_id":"3762a15a-49a2-4fc6-b2e6-a79b5f91a12f","system_id":"levelo_inurba_marseille","lat":43.28474,"lon":5.484,"is_reserved":false,"is_disabled":false,"rental_uris":{"android":"levelo://app?vid=3762a15a-49a2-4fc6-b2e6-a79b5f91a12f","ios":"levelo://app?vid=3762a15a-49a2-4fc6-b2e6-a79b5f91a12f"},"vehicle_type_id":"4","last_reported":1777110127,"current_range_meters":4000,"station_id":"","pricing_plan_id":"cebpf4jnsgd1na2vs0mg"},{"bike_id":"2813910b-bfe0-425f-a483-9778de4facfb","system_id":"levelo_inurba_marseille","lat":43.30244,"lon":5.44965,"is_reserved":false,"is_disabled":false,"rental_uris":{"android":"levelo://app?vid=2813910b-bfe0-425f-a483-9778de4facfb","ios":"levelo://app?vid=2813910b-bfe0-425f-a483-9778de4facfb"},"vehicle_type_id":"4","last_reported":1777110127,"current_range_meters":4000,"station_id":"","pricing_plan_id":"cebpf4jnsgd1na2vs0mg"},{"bike_id":"26e311ec-734f-477f-9bdc-cee009d68abe","system_id":"levelo_inurba_marseille","lat":43.33542,"lon":5.37448,"is_reserved":false,"is_disabled":false,"rental_uris":{"android":"levelo://app?vid=26e311ec-734f-477f-9bdc-cee009d68abe","ios":"levelo://app?vid=26e311ec-734f-477f-9bdc-cee009d68abe"},"vehicle_type_id":"4","last_reported":1777110127,"current_range_meters":4000,"station_id":"st_d46tts09ee8s73dlu43g","pricing_plan_id":"cebpf4jnsgd1na2vs0mg"},{"bike_id":"d7823a50-3134-47b5-be22-22728f1dc4f7","system_id":"levelo_inurba_marseille","lat":43.29304,"lon":5.37462,"is_reserved":false,"is_disabled":true,"rental_uris":{"android":"levelo://app?vid=d7823a50-3134-47b5-be22-22728f1dc4f7","ios":"levelo://app?vid=d7823a50-3134-47b5-be22-22728f1dc4f7"},"vehicle_type_id":"4","last_reported":1777110127,"current_range_meters":4000,"station_id":"ce4bgi12rcd13ifvqb70","pricing_plan_id":"cebpf4jnsgd1na2vs0mg"},{"bike_id":"6c689d43-1b53-4e9a-aae0-b5768268d93f","system_id":"levelo_inurba_marseille","lat":43.24168,"lon":5.36398,"is_reserved":false,"is_disabled":false,"rental_uris":{"android":"levelo://app?vid=6c689d43-1b53-4e9a-aae0-b5768268d93f","ios":"levelo://app?vid=6c689d43-1b53-4e9a-aae0-b5768268d93f"},"vehicle_type_id":"4","last_reported":1777110127,"current_range_meters":4000,"station_id":"cpo36qri1sfpv3e86is0","pricing_plan_id":"cebpf4jnsgd1na2vs0mg"},{"bike_id":"7c34a757-21c9-431c-9bc0-995e1efd9b79","system_id":"levelo_inurba_marseille","lat":43.2603,"lon":5.37543,"is_reserved":false,"is_disabled":false,"rental_uris":{"android":"levelo://app?vid=7c34a757-21c9-431c-9bc0-995e1efd9b79","ios":"levelo://app?vid=7c34a757-21c9-431c-9bc0-995e1efd9b79"},"vehicle_type_id":"4","last_reported":1777110127,"current_range_meters":4000,"station_id":"ce4bhgh2rcd13ifvqfa0","pricing_plan_id":"cebpf4jnsgd1na2vs0mg"},{"bike_id":"1f582608-2655-4ba4-b095-16566a7cd559","system_id":"levelo_inurba_marseille","lat":43.3179,"lon":5.44571,"is_reserved":false,"is_disabled":false,"rental_uris":{"android":"levelo://app?vid=1f582608-2655-4ba4-b095-16566a7cd559","ios":"levelo://app?vid=1f582608-2655-4ba4-b095-16566a7cd559"},"vehicle_type_id":"4","last_reported":1777110127,"current_range_meters":4000,"station_id":"","pricing_plan_id":"cebpf4jnsgd1na2vs0mg"},{"bike_id":"b38d89b8-c3c9-4fae-b6f2-09980d89f2e9","system_id":"levelo_inurba_marseille","lat":43.28505,"lon":5.48416,"is_reserved":false,"is_disabled":false,"rental_uris":{"android":"levelo://app?vid=b38d89b8-c3c9-4fae-b6f2-09980d89f2e9","ios":"levelo://app?vid=b38d89b8-c3c9-4fae-b6f2-09980d89f2e9"},"vehicle_type_id":"4","last_reported":1777110127,"current_range_meters":4400,"station_id":"","pricing_plan_id":"cebpf4jnsgd1na2vs0mg"},{"bike_id":"06edec6a-5805-469e-9aae-fb51ca9b0dbc","system_id":"levelo_inurba_marseille","lat":43.32012,"lon":5.38129,"is_reserved":false,"is_disabled":false,"rental_uris":{"android":"levelo://app?vid=06edec6a-5805-469e-9aae-fb51ca9b0dbc","ios":"levelo://app?vid=06edec6a-5805-469e-9aae-fb51ca9b0dbc"},"vehicle_type_id":"4","last_reported":1777110127,"current_range_meters":4400,"station_id":"ce4bhr12rcd13ifvqhpg","pricing_plan_id":"cebpf4jnsgd1na2vs0mg"},{"bike_id":"f95f8175-1618-4974-8970-509c6f0c66c1","system_id":"levelo_inurba_marseille","lat":43.26946,"lon":5.38908,"is_reserved":false,"is_disabled":false,"rental_uris":{"android":"levelo://app?vid=f95f8175-1618-4974-8970-509c6f0c66c1","ios":"levelo://app?vid=f95f8175-1618-4974-8970-509c6f0c66c1"},"vehicle_type_id":"4","last_reported":1777110127,"current_range_meters":4400,"station_id":"ce4bhhh2rcd13ifvqfl0","pricing_plan_id":"cebpf4jnsgd1na2vs0mg"},{"bike_id":"deb29a3c-5716-4c5b-88fd-6ed665a84dee","system_id":"levelo_inurba_marseille","lat":43.29687,"lon":5.36598,"is_reserved":false,"is_disabled":false,"rental_uris":{"android":"levelo://app?vid=deb29a3c-5716-4c5b-88fd-6ed665a84dee","ios":"levelo://app?vid=deb29a3c-5716-4c5b-88fd-6ed665a84dee"},"vehicle_type_id":"4","last_reported":1777110127,"current_range_meters":4400,"station_id":"ce4bgn12rcd13ifvqbt0","pricing_plan_id":"cebpf4jnsgd1na2vs0mg"},{"bike_id":"114200da-911f-47cf-82e5-96c5ab214ca1","system_id":"levelo_inurba_marseille","lat":43.31373,"lon":5.38505,"is_reserved":false,"is_disabled":false,"rental_uris":{"android":"levelo://app?vid=114200da-911f-47cf-82e5-96c5ab214ca1","ios":"levelo://app?vid=114200da-911f-47cf-82e5-96c5ab214ca1"},"vehicle_type_id":"4","last_reported":1777110127,"current_range_meters":4400,"station_id":"ce4bgt92rcd13ifvqcf0","pricing_plan_id":"cebpf4jnsgd1na2vs0mg"},{"bike_id":"8ee0a40d-124f-4413-9074-6911095dcd65","system_id":"levelo_inurba_marseille","lat":43.2658,"lon":5.37284,"is_reserved":false,"is_disabled":false,"rental_uris":{"android":"levelo://app?vid=8ee0a40d-124f-4413-9074-6911095dcd65","ios":"levelo://app?vid=8ee0a40d-124f-4413-9074-6911095dcd65"},"vehicle_type_id":"4","last_reported":1777110127,"current_range_meters":4800,"station_id":"ce4bhg12rcd13ifvqf70","pricing_plan_id":"cebpf4jnsgd1na2vs0mg"},{"bike_id":"0b232796-9302-45f9-a4a4-1691472623ac","system_id":"levelo_inurba_marseille","lat":43.30884,"lon":5.39662,"is_reserved":false,"is_disabled":false,"rental_uris":{"android":"levelo://app?vid=0b232796-9302-45f9-a4a4-1691472623ac","ios":"levelo://app?vid=0b232796-9302-45f9-a4a4-1691472623ac"},"vehicle_type_id":"4","last_reported":1777110127,"current_range_meters":4800,"station_id":"ce4bh012rcd13ifvqcv0","pricing_plan_id":"cebpf4jnsgd1na2vs0mg"},{"bike_id":"71e9d7db-0750-4ccc-9b9f-61f5ea13dcb5","system_id":"levelo_inurba_marseille","lat":43.28619,"lon":5.35102,"is_reserved":false,"is_disabled":false,"rental_uris":{"android":"levelo://app?vid=71e9d7db-0750-4ccc-9b9f-61f5ea13dcb5","ios":"levelo://app?vid=71e9d7db-0750-4ccc-9b9f-61f5ea13dcb5"},"vehicle_type_id":"4","last_reported":1777110127,"current_range_meters":4800,"station_id":"ce4bhch2rcd13ifvqeug","pricing_plan_id":"cebpf4jnsgd1na2vs0mg"},{"bike_id":"05af29cc-4d47-49a8-9ef8-03cfc1426a23","system_id":"levelo_inurba_marseille","lat":43.29791,"lon":5.37126,"is_reserved":false,"is_disabled":false,"rental_uris":{"android":"levelo://app?vid=05af29cc-4d47-49a8-9ef8-03cfc1426a23","ios":"levelo://app?vid=05af29cc-4d47-49a8-9ef8-03cfc1426a23"},"vehicle_type_id":"4","last_reported":1777110127,"current_range_meters":4800,"station_id":"ce4bgop2rcd13ifvqc1g","pricing_plan_id":"cebpf4jnsgd1na2vs0mg"},{"bike_id":"1a033523-513d-4cfd-be92-3476d847df54","system_id":"levelo_inurba_marseille","lat":43.29841,"lon":5.36263,"is_reserved":false,"is_disabled":false,"rental_uris":{"android":"levelo://app?vid=1a033523-513d-4cfd-be92-3476d847df54","ios":"levelo://app?vid=1a033523-513d-4cfd-be92-3476d847df54"},"vehicle_type_id":"4","last_reported":1777110127,"current_range_meters":4800,"station_id":"ce4bgpp2rcd13ifvqc3g","pricing_plan_id":"cebpf4jnsgd1na2vs0mg"},{"bike_id":"6533574e-7540-46ca-bc5e-62e7823dcedd","system_id":"levelo_inurba_marseille","lat":43.21753,"lon":5.34598,"is_reserved":false,"is_disabled":false,"rental_uris":{"android":"levelo://app?vid=6533574e-7540-46ca-bc5e-62e7823dcedd","ios":"levelo://app?vid=6533574e-7540-46ca-bc5e-62e7823dcedd"},"vehicle_type_id":"4","last_reported":1777110127,"current_range_meters":4800,"station_id":"st_cvj6r9ubvosntc0bgbag","pricing_plan_id":"cebpf4jnsgd1na2vs0mg"},{"bike_id":"7ab9e9d2-55c6-492f-8e60-126c7a6965ab","system_id":"levelo_inurba_marseille","lat":43.27967,"lon":5.37042,"is_reserved":false,"is_disabled":false,"rental_uris":{"android":"levelo://app?vid=7ab9e9d2-55c6-492f-8e60-126c7a6965ab","ios":"levelo://app?vid=7ab9e9d2-55c6-492f-8e60-126c7a6965ab"},"vehicle_type_id":"4","last_reported":1777110127,"current_range_meters":4800,"station_id":"","pricing_plan_id":"cebpf4jnsgd1na2vs0mg"},{"bike_id":"aa897415-67a0-4b07-b64e-cbc8da7d4792","system_id":"levelo_inurba_marseille","lat":43.24163,"lon":5.36398,"is_reserved":false,"is_disabled":false,"rental_uris":{"android":"levelo://app?vid=aa897415-67a0-4b07-b64e-cbc8da7d4792","ios":"levelo://app?vid=aa897415-67a0-4b07-b64e-cbc8da7d4792"},"vehicle_type_id":"4","last_reported":1777110127,"current_range_meters":5600,"station_id":"cpo36qri1sfpv3e86is0","pricing_plan_id":"cebpf4jnsgd1na2vs0mg"},{"bike_id":"c4f6fd95-bcb2-410b-926c-35ab4d773fbd","system_id":"levelo_inurba_marseille","lat":43.23962,"lon":5.36626,"is_reserved":false,"is_disabled":false,"rental_uris":{"android":"levelo://app?vid=c4f6fd95-bcb2-410b-926c-35ab4d773fbd","ios":"levelo://app?vid=c4f6fd95-bcb2-410b-926c-35ab4d773fbd"},"vehicle_type_id":"4","last_reported":1777110127,"current_range_meters":5600,"station_id":"ce4bhi12rcd13ifvqfp0","pricing_plan_id":"cebpf4jnsgd1na2vs0mg"},{"bike_id":"a7b87245-c28d-4f8d-becb-31bbaad379e8","system_id":"levelo_inurba_marseille","lat":43.28367,"lon":5.38633,"is_reserved":false,"is_disabled":false,"rental_uris":{"android":"levelo://app?vid=a7b87245-c28d-4f8d-becb-31bbaad379e8","ios":"levelo://app?vid=a7b87245-c28d-4f8d-becb-31bbaad379e8"},"vehicle_type_id":"4","last_reported":1777110127,"current_range_meters":5600,"station_id":"ce4bh492rcd13ifvqdvg","pricing_plan_id":"cebpf4jnsgd1na2vs0mg"},{"bike_id":"95419b71-8c86-4bde-8255-fe74b8ab1ef9","system_id":"levelo_inurba_marseille","lat":43.2119,"lon":5.3507,"is_reserved":false,"is_disabled":false,"rental_uris":{"android":"levelo://app?vid=95419b71-8c86-4bde-8255-fe74b8ab1ef9","ios":"levelo://app?vid=95419b71-8c86-4bde-8255-fe74b8ab1ef9"},"vehicle_type_id":"4","last_reported":1777110127,"current_range_meters":5600,"station_id":"st_cvj6sg6p6f1abm77japg","pricing_plan_id":"cebpf4jnsgd1na2vs0mg"},{"bike_id":"ea4e001a-09d6-4f9d-8d3d-9f93e3b94c6f","system_id":"levelo_inurba_marseille","lat":43.28475,"lon":5.385,"is_reserved":false,"is_disabled":false,"rental_uris":{"android":"levelo://app?vid=ea4e001a-09d6-4f9d-8d3d-9f93e3b94c6f","ios":"levelo://app?vid=ea4e001a-09d6-4f9d-8d3d-9f93e3b94c6f"},"vehicle_type_id":"4","last_reported":1777110127,"current_range_meters":5600,"station_id":"ce4bh8p2rcd13ifvqeb0","pricing_plan_id":"cebpf4jnsgd1na2vs0mg"},{"bike_id":"68385ad1-5a71-4622-9ac2-dcc837084f17","system_id":"levelo_inurba_marseille","lat":43.24076,"lon":5.37769,"is_reserved":false,"is_disabled":false,"rental_uris":{"android":"levelo://app?vid=68385ad1-5a71-4622-9ac2-dcc837084f17","ios":"levelo://app?vid=68385ad1-5a71-4622-9ac2-dcc837084f17"},"vehicle_type_id":"4","last_reported":1777110127,"current_range_meters":5600,"station_id":"ce4bhnp2rcd13ifvqgvg","pricing_plan_id":"cebpf4jnsgd1na2vs0mg"},{"bike_id":"a7398d3c-309c-40e4-8059-f2e4acd33fe1","system_id":"levelo_inurba_marseille","lat":43.31992,"lon":5.38157,"is_reserved":false,"is_disabled":false,"rental_uris":{"android":"levelo://app?vid=a7398d3c-309c-40e4-8059-f2e4acd33fe1","ios":"levelo://app?vid=a7398d3c-309c-40e4-8059-f2e4acd33fe1"},"vehicle_type_id":"4","last_reported":1777110127,"current_range_meters":5600,"station_id":"ce4bhr12rcd13ifvqhpg","pricing_plan_id":"cebpf4jnsgd1na2vs0mg"},{"bike_id":"45d54d87-c245-4a83-906f-1f407dd2dd4b","system_id":"levelo_inurba_marseille","lat":43.26777,"lon":5.3942,"is_reserved":false,"is_disabled":false,"rental_uris":{"android":"levelo://app?vid=45d54d87-c245-4a83-906f-1f407dd2dd4b","ios":"levelo://app?vid=45d54d87-c245-4a83-906f-1f407dd2dd4b"},"vehicle_type_id":"4","last_reported":1777110127,"current_range_meters":5600,"station_id":"ce4bhh12rcd13ifvqfg0","pricing_plan_id":"cebpf4jnsgd1na2vs0mg"},{"bike_id":"dc019de9-8ac7-401d-b34b-3f8a6cb5c08a","system_id":"levelo_inurba_marseille","lat":43.26569,"lon":5.39002,"is_reserved":false,"is_disabled":false,"rental_uris":{"android":"levelo://app?vid=dc019de9-8ac7-401d-b34b-3f8a6cb5c08a","ios":"levelo://app?vid=dc019de9-8ac7-401d-b34b-3f8a6cb5c08a"},"vehicle_type_id":"4","last_reported":1777110127,"current_range_meters":5600,"station_id":"ce4bhe12rcd13ifvqf30","pricing_plan_id":"cebpf4jnsgd1na2vs0mg"},{"bike_id":"21101f4a-cbd0-4f4c-bc29-be519f298a52","system_id":"levelo_inurba_marseille","lat":43.28412,"lon":5.34978,"is_reserved":false,"is_disabled":false,"rental_uris":{"android":"levelo://app?vid=21101f4a-cbd0-4f4c-bc29-be519f298a52","ios":"levelo://app?vid=21101f4a-cbd0-4f4c-bc29-be519f298a52"},"vehicle_type_id":"4","last_reported":1777110127,"current_range_meters":5600,"station_id":"ce4bhbh2rcd13ifvqepg","pricing_plan_id":"cebpf4jnsgd1na2vs0mg"},{"bike_id":"9bcd0ed3-069b-4513-9cb9-0fff1e1838d7","system_id":"levelo_inurba_marseille","lat":43.272115,"lon":5.391797,"is_reserved":false,"is_disabled":false,"rental_uris":{"android":"levelo://app?vid=9bcd0ed3-069b-4513-9cb9-0fff1e1838d7","ios":"levelo://app?vid=9bcd0ed3-069b-4513-9cb9-0fff1e1838d7"},"vehicle_type_id":"4","last_reported":1777110127,"current_range_meters":6000,"station_id":"ce4bhhp2rcd13ifvqfm0","pricing_plan_id":"cebpf4jnsgd1na2vs0mg"},{"bike_id":"4af5f932-71ad-4954-ac3b-fecb2a352994","system_id":"levelo_inurba_marseille","lat":43.32362,"lon":5.3674,"is_reserved":false,"is_disabled":false,"rental_uris":{"android":"levelo://app?vid=4af5f932-71ad-4954-ac3b-fecb2a352994","ios":"levelo://app?vid=4af5f932-71ad-4954-ac3b-fecb2a352994"},"vehicle_type_id":"4","last_reported":1777110127,"current_range_meters":6000,"station_id":"ce4bhsh2rcd13ifvqi2g","pricing_plan_id":"cebpf4jnsgd1na2vs0mg"},{"bike_id":"668b7868-0b32-428c-8d37-9db96b111dfd","system_id":"levelo_inurba_marseille","lat":43.2769,"lon":5.38915,"is_reserved":false,"is_disabled":true,"rental_uris":{"android":"levelo://app?vid=668b7868-0b32-428c-8d37-9db96b111dfd","ios":"levelo://app?vid=668b7868-0b32-428c-8d37-9db96b111dfd"},"vehicle_type_id":"4","last_reported":1777110127,"current_range_meters":6000,"station_id":"ce4bhi12rcd13ifvqfo0","pricing_plan_id":"cebpf4jnsgd1na2vs0mg"},{"bike_id":"1370c3f0-6074-43de-a93b-f7f87c829b3b","system_id":"levelo_inurba_marseille","lat":43.2912,"lon":5.39985,"is_reserved":false,"is_disabled":false,"rental_uris":{"android":"levelo://app?vid=1370c3f0-6074-43de-a93b-f7f87c829b3b","ios":"levelo://app?vid=1370c3f0-6074-43de-a93b-f7f87c829b3b"},"vehicle_type_id":"4","last_reported":1777110127,"current_range_meters":6000,"station_id":"","pricing_plan_id":"cebpf4jnsgd1na2vs0mg"},{"bike_id":"082e9381-5478-4fa8-bed1-a0ff7502c6ad","system_id":"levelo_inurba_marseille","lat":43.2621,"lon":5.37442,"is_reserved":false,"is_disabled":false,"rental_uris":{"android":"levelo://app?vid=082e9381-5478-4fa8-bed1-a0ff7502c6ad","ios":"levelo://app?vid=082e9381-5478-4fa8-bed1-a0ff7502c6ad"},"vehicle_type_id":"4","last_reported":1777110127,"current_range_meters":6000,"station_id":"ce4bhgp2rcd13ifvqfc0","pricing_plan_id":"cebpf4jnsgd1na2vs0mg"},{"bike_id":"60be4b0d-4c83-4300-8220-7b23e159ba6b","system_id":"levelo_inurba_marseille","lat":43.24822,"lon":5.37423,"is_reserved":false,"is_disabled":false,"rental_uris":{"android":"levelo://app?vid=60be4b0d-4c83-4300-8220-7b23e159ba6b","ios":"levelo://app?vid=60be4b0d-4c83-4300-8220-7b23e159ba6b"},"vehicle_type_id":"4","last_reported":1777110127,"current_range_meters":6000,"station_id":"ce4bhgh2rcd13ifvqfb0","pricing_plan_id":"cebpf4jnsgd1na2vs0mg"},{"bike_id":"d6efe21b-6d9f-4e0a-90ea-fa0f11d5f86b","system_id":"levelo_inurba_marseille","lat":43.21203,"lon":5.35059,"is_reserved":false,"is_disabled":false,"rental_uris":{"android":"levelo://app?vid=d6efe21b-6d9f-4e0a-90ea-fa0f11d5f86b","ios":"levelo://app?vid=d6efe21b-6d9f-4e0a-90ea-fa0f11d5f86b"},"vehicle_type_id":"4","last_reported":1777110127,"current_range_meters":6000,"station_id":"st_cvj6sg6p6f1abm77japg","pricing_plan_id":"cebpf4jnsgd1na2vs0mg"},{"bike_id":"eb2e4ff8-b616-4d1f-ac33-59451b8d9a41","system_id":"levelo_inurba_marseille","lat":43.25091,"lon":5.39507,"is_reserved":false,"is_disabled":false,"rental_uris":{"android":"levelo://app?vid=eb2e4ff8-b616-4d1f-ac33-59451b8d9a41","ios":"levelo://app?vid=eb2e4ff8-b616-4d1f-ac33-59451b8d9a41"},"vehicle_type_id":"4","last_reported":1777110127,"current_range_meters":6000,"station_id":"ce4bhm12rcd13ifvqgkg","pricing_plan_id":"cebpf4jnsgd1na2vs0mg"},{"bike_id":"4d5b4915-5fc0-4782-a3a4-e445cc2cf470","system_id":"levelo_inurba_marseille","lat":43.29871,"lon":5.42101,"is_reserved":false,"is_disabled":false,"rental_uris":{"android":"levelo://app?vid=4d5b4915-5fc0-4782-a3a4-e445cc2cf470","ios":"levelo://app?vid=4d5b4915-5fc0-4782-a3a4-e445cc2cf470"},"vehicle_type_id":"4","last_reported":1777110127,"current_range_meters":6000,"station_id":"st_d6tc004otcvc738tfe70","pricing_plan_id":"cebpf4jnsgd1na2vs0mg"},{"bike_id":"0b699cb5-c7d3-46f8-b93f-0f4e6d620e9a","system_id":"levelo_inurba_marseille","lat":43.29825,"lon":5.44037,"is_reserved":false,"is_disabled":false,"rental_uris":{"android":"levelo://app?vid=0b699cb5-c7d3-46f8-b93f-0f4e6d620e9a","ios":"levelo://app?vid=0b699cb5-c7d3-46f8-b93f-0f4e6d620e9a"},"vehicle_type_id":"4","last_reported":1777110127,"current_range_meters":6000,"station_id":"st_d3jp68qikq2c7381ktn0","pricing_plan_id":"cebpf4jnsgd1na2vs0mg"},{"bike_id":"261b4d20-3fce-4a9a-b1df-f7d9447249df","system_id":"levelo_inurba_marseille","lat":43.2848,"lon":5.48396,"is_reserved":false,"is_disabled":false,"rental_uris":{"android":"levelo://app?vid=261b4d20-3fce-4a9a-b1df-f7d9447249df","ios":"levelo://app?vid=261b4d20-3fce-4a9a-b1df-f7d9447249df"},"vehicle_type_id":"4","last_reported":1777110127,"current_range_meters":6000,"station_id":"st_d3svhcjqgbts73a3dn0g","pricing_plan_id":"cebpf4jnsgd1na2vs0mg"},{"bike_id":"c7ac0306-6afc-4781-8692-f962ddfe1a23","system_id":"levelo_inurba_marseille","lat":43.32347,"lon":5.36727,"is_reserved":false,"is_disabled":false,"rental_uris":{"android":"levelo://app?vid=c7ac0306-6afc-4781-8692-f962ddfe1a23","ios":"levelo://app?vid=c7ac0306-6afc-4781-8692-f962ddfe1a23"},"vehicle_type_id":"4","last_reported":1777110127,"current_range_meters":6000,"station_id":"ce4bhsh2rcd13ifvqi2g","pricing_plan_id":"cebpf4jnsgd1na2vs0mg"},{"bike_id":"f8b71621-9ee0-4284-b9b2-be8fa047ba8a","system_id":"levelo_inurba_marseille","lat":43.30109,"lon":5.43107,"is_reserved":false,"is_disabled":false,"rental_uris":{"android":"levelo://app?vid=f8b71621-9ee0-4284-b9b2-be8fa047ba8a","ios":"levelo://app?vid=f8b71621-9ee0-4284-b9b2-be8fa047ba8a"},"vehicle_type_id":"4","last_reported":1777110127,"current_range_meters":6000,"station_id":"st_d3js3co5814s73ftftug","pricing_plan_id":"cebpf4jnsgd1na2vs0mg"},{"bike_id":"095367da-2f95-4edc-8dd5-42322319f0d6","system_id":"levelo_inurba_marseille","lat":43.31332,"lon":5.39703,"is_reserved":false,"is_disabled":false,"rental_uris":{"android":"levelo://app?vid=095367da-2f95-4edc-8dd5-42322319f0d6","ios":"levelo://app?vid=095367da-2f95-4edc-8dd5-42322319f0d6"},"vehicle_type_id":"4","last_reported":1777110127,"current_range_meters":6400,"station_id":"ce4bgvp2rcd13ifvqcu0","pricing_plan_id":"cebpf4jnsgd1na2vs0mg"},{"bike_id":"27cd71a7-0940-4415-a67f-21597fbf1cd9","system_id":"levelo_inurba_marseille","lat":43.33039,"lon":5.39049,"is_reserved":false,"is_disabled":false,"rental_uris":{"android":"levelo://app?vid=27cd71a7-0940-4415-a67f-21597fbf1cd9","ios":"levelo://app?vid=27cd71a7-0940-4415-a67f-21597fbf1cd9"},"vehicle_type_id":"4","last_reported":1777110127,"current_range_meters":6400,"station_id":"ce4bhr92rcd13ifvqhrg","pricing_plan_id":"cebpf4jnsgd1na2vs0mg"},{"bike_id":"a4f29091-c169-44d5-86ae-0fae6e6376be","system_id":"levelo_inurba_marseille","lat":43.30161,"lon":5.38073,"is_reserved":false,"is_disabled":false,"rental_uris":{"android":"levelo://app?vid=a4f29091-c169-44d5-86ae-0fae6e6376be","ios":"levelo://app?vid=a4f29091-c169-44d5-86ae-0fae6e6376be"},"vehicle_type_id":"4","last_reported":1777110127,"current_range_meters":6400,"station_id":"ce4bgjp2rcd13ifvqbh0","pricing_plan_id":"cebpf4jnsgd1na2vs0mg"},{"bike_id":"3806eb63-4038-466d-ac03-ee4e2f1be1a5","system_id":"levelo_inurba_marseille","lat":43.28499,"lon":5.38419,"is_reserved":false,"is_disabled":false,"rental_uris":{"android":"levelo://app?vid=3806eb63-4038-466d-ac03-ee4e2f1be1a5","ios":"levelo://app?vid=3806eb63-4038-466d-ac03-ee4e2f1be1a5"},"vehicle_type_id":"4","last_reported":1777110127,"current_range_meters":6400,"station_id":"ce4bh512rcd13ifvqe3g","pricing_plan_id":"cebpf4jnsgd1na2vs0mg"},{"bike_id":"a49cc85a-db02-4da4-9fff-21ab4ec25f52","system_id":"levelo_inurba_marseille","lat":43.23199,"lon":5.35555,"is_reserved":false,"is_disabled":false,"rental_uris":{"android":"levelo://app?vid=a49cc85a-db02-4da4-9fff-21ab4ec25f52","ios":"levelo://app?vid=a49cc85a-db02-4da4-9fff-21ab4ec25f52"},"vehicle_type_id":"4","last_reported":1777110127,"current_range_meters":6400,"station_id":"ce4bhu92rcd13ifvqi70","pricing_plan_id":"cebpf4jnsgd1na2vs0mg"},{"bike_id":"7bfad3df-98d6-40bd-9e53-0ab108024463","system_id":"levelo_inurba_marseille","lat":43.24805,"lon":5.37458,"is_reserved":false,"is_disabled":false,"rental_uris":{"android":"levelo://app?vid=7bfad3df-98d6-40bd-9e53-0ab108024463","ios":"levelo://app?vid=7bfad3df-98d6-40bd-9e53-0ab108024463"},"vehicle_type_id":"4","last_reported":1777110127,"current_range_meters":6400,"station_id":"ce4bhgh2rcd13ifvqfb0","pricing_plan_id":"cebpf4jnsgd1na2vs0mg"},{"bike_id":"5eddcf62-d28d-47a6-9895-da2f94ffd6fd","system_id":"levelo_inurba_marseille","lat":43.28608,"lon":5.38348,"is_reserved":false,"is_disabled":false,"rental_uris":{"android":"levelo://app?vid=5eddcf62-d28d-47a6-9895-da2f94ffd6fd","ios":"levelo://app?vid=5eddcf62-d28d-47a6-9895-da2f94ffd6fd"},"vehicle_type_id":"4","last_reported":1777110127,"current_range_meters":6800,"station_id":"","pricing_plan_id":"cebpf4jnsgd1na2vs0mg"},{"bike_id":"7059e2e9-29f5-4ccd-b302-9b1e8e7a9fdb","system_id":"levelo_inurba_marseille","lat":43.294882,"lon":5.393907,"is_reserved":false,"is_disabled":false,"rental_uris":{"android":"levelo://app?vid=7059e2e9-29f5-4ccd-b302-9b1e8e7a9fdb","ios":"levelo://app?vid=7059e2e9-29f5-4ccd-b302-9b1e8e7a9fdb"},"vehicle_type_id":"4","last_reported":1777110127,"current_range_meters":6800,"station_id":"","pricing_plan_id":"cebpf4jnsgd1na2vs0mg"},{"bike_id":"1d368fe1-0c8f-4a40-864c-b54082c58fa1","system_id":"levelo_inurba_marseille","lat":43.33548,"lon":5.3744,"is_reserved":false,"is_disabled":false,"rental_uris":{"android":"levelo://app?vid=1d368fe1-0c8f-4a40-864c-b54082c58fa1","ios":"levelo://app?vid=1d368fe1-0c8f-4a40-864c-b54082c58fa1"},"vehicle_type_id":"4","last_reported":1777110127,"current_range_meters":6800,"station_id":"st_d46tts09ee8s73dlu43g","pricing_plan_id":"cebpf4jnsgd1na2vs0mg"},{"bike_id":"f645e30b-5616-45b3-a17d-faf4a49d971d","system_id":"levelo_inurba_marseille","lat":43.31,"lon":5.37533,"is_reserved":false,"is_disabled":false,"rental_uris":{"android":"levelo://app?vid=f645e30b-5616-45b3-a17d-faf4a49d971d","ios":"levelo://app?vid=f645e30b-5616-45b3-a17d-faf4a49d971d"},"vehicle_type_id":"4","last_reported":1777110127,"current_range_meters":6800,"station_id":"","pricing_plan_id":"cebpf4jnsgd1na2vs0mg"},{"bike_id":"baf5e93f-baa0-4776-9800-afea43e9329e","system_id":"levelo_inurba_marseille","lat":43.23204,"lon":5.35551,"is_reserved":false,"is_disabled":false,"rental_uris":{"android":"levelo://app?vid=baf5e93f-baa0-4776-9800-afea43e9329e","ios":"levelo://app?vid=baf5e93f-baa0-4776-9800-afea43e9329e"},"vehicle_type_id":"4","last_reported":1777110127,"current_range_meters":6800,"station_id":"ce4bhu92rcd13ifvqi70","pricing_plan_id":"cebpf4jnsgd1na2vs0mg"},{"bike_id":"3bbf684c-119b-4345-bc5c-a282c56b6ddd","system_id":"levelo_inurba_marseille","lat":43.28108,"lon":5.37832,"is_reserved":false,"is_disabled":false,"rental_uris":{"android":"levelo://app?vid=3bbf684c-119b-4345-bc5c-a282c56b6ddd","ios":"levelo://app?vid=3bbf684c-119b-4345-bc5c-a282c56b6ddd"},"vehicle_type_id":"4","last_reported":1777110127,"current_range_meters":6800,"station_id":"ce4bha12rcd13ifvqee0","pricing_plan_id":"cebpf4jnsgd1na2vs0mg"},{"bike_id":"45ad0d0e-efdd-4c05-bbcd-19b309dc3892","system_id":"levelo_inurba_marseille","lat":43.27995,"lon":5.41655,"is_reserved":false,"is_disabled":false,"rental_uris":{"android":"levelo://app?vid=45ad0d0e-efdd-4c05-bbcd-19b309dc3892","ios":"levelo://app?vid=45ad0d0e-efdd-4c05-bbcd-19b309dc3892"},"vehicle_type_id":"4","last_reported":1777110127,"current_range_meters":6800,"station_id":"ce4bho12rcd13ifvqh1g","pricing_plan_id":"cebpf4jnsgd1na2vs0mg"},{"bike_id":"a3dee876-3af2-46d4-9131-1dd0997e500a","system_id":"levelo_inurba_marseille","lat":43.24402,"lon":5.37063,"is_reserved":false,"is_disabled":true,"rental_uris":{"android":"levelo://app?vid=a3dee876-3af2-46d4-9131-1dd0997e500a","ios":"levelo://app?vid=a3dee876-3af2-46d4-9131-1dd0997e500a"},"vehicle_type_id":"4","last_reported":1777110127,"current_range_meters":6800,"station_id":"ce4bhhh2rcd13ifvqfk0","pricing_plan_id":"cebpf4jnsgd1na2vs0mg"},{"bike_id":"46b0ffab-d905-4b98-bc39-0175d6c37233","system_id":"levelo_inurba_marseille","lat":43.30887,"lon":5.39632,"is_reserved":false,"is_disabled":false,"rental_uris":{"android":"levelo://app?vid=46b0ffab-d905-4b98-bc39-0175d6c37233","ios":"levelo://app?vid=46b0ffab-d905-4b98-bc39-0175d6c37233"},"vehicle_type_id":"4","last_reported":1777110127,"current_range_meters":6800,"station_id":"ce4bh012rcd13ifvqcv0","pricing_plan_id":"cebpf4jnsgd1na2vs0mg"},{"bike_id":"3149f529-47a7-4828-9190-8e6f76a7c668","system_id":"levelo_inurba_marseille","lat":43.25494,"lon":5.37642,"is_reserved":false,"is_disabled":false,"rental_uris":{"android":"levelo://app?vid=3149f529-47a7-4828-9190-8e6f76a7c668","ios":"levelo://app?vid=3149f529-47a7-4828-9190-8e6f76a7c668"},"vehicle_type_id":"4","last_reported":1777110127,"current_range_meters":6800,"station_id":"ce4bhh12rcd13ifvqff0","pricing_plan_id":"cebpf4jnsgd1na2vs0mg"},{"bike_id":"633ce3f2-1d64-4039-9c69-e753512721a8","system_id":"levelo_inurba_marseille","lat":43.2718,"lon":5.40995,"is_reserved":false,"is_disabled":false,"rental_uris":{"android":"levelo://app?vid=633ce3f2-1d64-4039-9c69-e753512721a8","ios":"levelo://app?vid=633ce3f2-1d64-4039-9c69-e753512721a8"},"vehicle_type_id":"4","last_reported":1777110127,"current_range_meters":6800,"station_id":"ce4bhl12rcd13ifvqgf0","pricing_plan_id":"cebpf4jnsgd1na2vs0mg"},{"bike_id":"7d84ddb3-748e-4f77-9ad4-ce79510747ad","system_id":"levelo_inurba_marseille","lat":43.28625,"lon":5.39857,"is_reserved":false,"is_disabled":false,"rental_uris":{"android":"levelo://app?vid=7d84ddb3-748e-4f77-9ad4-ce79510747ad","ios":"levelo://app?vid=7d84ddb3-748e-4f77-9ad4-ce79510747ad"},"vehicle_type_id":"4","last_reported":1777110127,"current_range_meters":6800,"station_id":"st_d4a7ka997mjs738ck50g","pricing_plan_id":"cebpf4jnsgd1na2vs0mg"},{"bike_id":"72a90628-72fd-41df-94dd-cc26c7141eab","system_id":"levelo_inurba_marseille","lat":43.27186,"lon":5.39155,"is_reserved":false,"is_disabled":false,"rental_uris":{"android":"levelo://app?vid=72a90628-72fd-41df-94dd-cc26c7141eab","ios":"levelo://app?vid=72a90628-72fd-41df-94dd-cc26c7141eab"},"vehicle_type_id":"4","last_reported":1777110127,"current_range_meters":6800,"station_id":"ce4bhhp2rcd13ifvqfm0","pricing_plan_id":"cebpf4jnsgd1na2vs0mg"},{"bike_id":"9e736a24-151b-4861-9d3c-68515cd11e0f","system_id":"levelo_inurba_marseille","lat":43.32087,"lon":5.36776,"is_reserved":false,"is_disabled":false,"rental_uris":{"android":"levelo://app?vid=9e736a24-151b-4861-9d3c-68515cd11e0f","ios":"levelo://app?vid=9e736a24-151b-4861-9d3c-68515cd11e0f"},"vehicle_type_id":"4","last_reported":1777110127,"current_range_meters":6800,"station_id":"ce4bhrh2rcd13ifvqhug","pricing_plan_id":"cebpf4jnsgd1na2vs0mg"},{"bike_id":"115d672a-13d4-4305-8044-ca28f0c37ff6","system_id":"levelo_inurba_marseille","lat":43.25097,"lon":5.39505,"is_reserved":false,"is_disabled":false,"rental_uris":{"android":"levelo://app?vid=115d672a-13d4-4305-8044-ca28f0c37ff6","ios":"levelo://app?vid=115d672a-13d4-4305-8044-ca28f0c37ff6"},"vehicle_type_id":"4","last_reported":1777110127,"current_range_meters":6800,"station_id":"ce4bhm12rcd13ifvqgkg","pricing_plan_id":"cebpf4jnsgd1na2vs0mg"},{"bike_id":"0ce641a1-ca62-4f05-b894-4a72f77b98f2","system_id":"levelo_inurba_marseille","lat":43.32373,"lon":5.36701,"is_reserved":false,"is_disabled":false,"rental_uris":{"android":"levelo://app?vid=0ce641a1-ca62-4f05-b894-4a72f77b98f2","ios":"levelo://app?vid=0ce641a1-ca62-4f05-b894-4a72f77b98f2"},"vehicle_type_id":"4","last_reported":1777110127,"current_range_meters":7200,"station_id":"","pricing_plan_id":"cebpf4jnsgd1na2vs0mg"},{"bike_id":"5838203b-1946-4c5e-86f2-7dc27c9ae5f7","system_id":"levelo_inurba_marseille","lat":43.27681,"lon":5.38904,"is_reserved":false,"is_disabled":false,"rental_uris":{"android":"levelo://app?vid=5838203b-1946-4c5e-86f2-7dc27c9ae5f7","ios":"levelo://app?vid=5838203b-1946-4c5e-86f2-7dc27c9ae5f7"},"vehicle_type_id":"4","last_reported":1777110127,"current_range_meters":7200,"station_id":"ce4bhi12rcd13ifvqfo0","pricing_plan_id":"cebpf4jnsgd1na2vs0mg"},{"bike_id":"7c7a6e62-e130-431f-b3ec-a07feec308d8","system_id":"levelo_inurba_marseille","lat":43.22703,"lon":5.34817,"is_reserved":false,"is_disabled":false,"rental_uris":{"android":"levelo://app?vid=7c7a6e62-e130-431f-b3ec-a07feec308d8","ios":"levelo://app?vid=7c7a6e62-e130-431f-b3ec-a07feec308d8"},"vehicle_type_id":"4","last_reported":1777110127,"current_range_meters":7200,"station_id":"","pricing_plan_id":"cebpf4jnsgd1na2vs0mg"},{"bike_id":"021c3599-d960-4255-bf18-8b3b47549997","system_id":"levelo_inurba_marseille","lat":43.30187,"lon":5.43091,"is_reserved":false,"is_disabled":false,"rental_uris":{"android":"levelo://app?vid=021c3599-d960-4255-bf18-8b3b47549997","ios":"levelo://app?vid=021c3599-d960-4255-bf18-8b3b47549997"},"vehicle_type_id":"4","last_reported":1777110127,"current_range_meters":7200,"station_id":"st_d3js3co5814s73ftftug","pricing_plan_id":"cebpf4jnsgd1na2vs0mg"},{"bike_id":"95430d5b-44ff-449b-9e09-8a6c48d6930c","system_id":"levelo_inurba_marseille","lat":43.29734,"lon":5.37783,"is_reserved":false,"is_disabled":false,"rental_uris":{"android":"levelo://app?vid=95430d5b-44ff-449b-9e09-8a6c48d6930c","ios":"levelo://app?vid=95430d5b-44ff-449b-9e09-8a6c48d6930c"},"vehicle_type_id":"4","last_reported":1777110127,"current_range_meters":7200,"station_id":"","pricing_plan_id":"cebpf4jnsgd1na2vs0mg"},{"bike_id":"1c8dc390-2cf6-4d49-b93f-1d053a1432c9","system_id":"levelo_inurba_marseille","lat":43.29599,"lon":5.37733,"is_reserved":false,"is_disabled":false,"rental_uris":{"android":"levelo://app?vid=1c8dc390-2cf6-4d49-b93f-1d053a1432c9","ios":"levelo://app?vid=1c8dc390-2cf6-4d49-b93f-1d053a1432c9"},"vehicle_type_id":"4","last_reported":1777110127,"current_range_meters":7200,"station_id":"ce4bgi92rcd13ifvqb90","pricing_plan_id":"cebpf4jnsgd1na2vs0mg"},{"bike_id":"453dd350-54ca-43cb-b118-f241ea2d7cb1","system_id":"levelo_inurba_marseille","lat":43.29201,"lon":5.39321,"is_reserved":false,"is_disabled":false,"rental_uris":{"android":"levelo://app?vid=453dd350-54ca-43cb-b118-f241ea2d7cb1","ios":"levelo://app?vid=453dd350-54ca-43cb-b118-f241ea2d7cb1"},"vehicle_type_id":"4","last_reported":1777110127,"current_range_meters":7200,"station_id":"ce4bh192rcd13ifvqdd0","pricing_plan_id":"cebpf4jnsgd1na2vs0mg"},{"bike_id":"5091d3df-140a-4a96-ba1e-f44ab742c57b","system_id":"levelo_inurba_marseille","lat":43.23201,"lon":5.39988,"is_reserved":false,"is_disabled":true,"rental_uris":{"android":"levelo://app?vid=5091d3df-140a-4a96-ba1e-f44ab742c57b","ios":"levelo://app?vid=5091d3df-140a-4a96-ba1e-f44ab742c57b"},"vehicle_type_id":"4","last_reported":1777110127,"current_range_meters":7200,"station_id":"ce4bhn12rcd13ifvqgqg","pricing_plan_id":"cebpf4jnsgd1na2vs0mg"},{"bike_id":"4e7f60dc-2079-4f51-9d09-01d31cdd2f9b","system_id":"levelo_inurba_marseille","lat":43.24642,"lon":5.43139,"is_reserved":false,"is_disabled":false,"rental_uris":{"android":"levelo://app?vid=4e7f60dc-2079-4f51-9d09-01d31cdd2f9b","ios":"levelo://app?vid=4e7f60dc-2079-4f51-9d09-01d31cdd2f9b"},"vehicle_type_id":"4","last_reported":1777110127,"current_range_meters":8000,"station_id":"st_d2m6c4gdas8pm72e190g","pricing_plan_id":"cebpf4jnsgd1na2vs0mg"},{"bike_id":"90610949-5042-40f1-8252-076aeddd7d81","system_id":"levelo_inurba_marseille","lat":43.31905,"lon":5.36804,"is_reserved":false,"is_disabled":false,"rental_uris":{"android":"levelo://app?vid=90610949-5042-40f1-8252-076aeddd7d81","ios":"levelo://app?vid=90610949-5042-40f1-8252-076aeddd7d81"},"vehicle_type_id":"4","last_reported":1777110127,"current_range_meters":8000,"station_id":"st_d6o2h0d0559c73evc1b0","pricing_plan_id":"cebpf4jnsgd1na2vs0mg"},{"bike_id":"e1b910ef-9f7a-4013-aed7-3f70e1a157ff","system_id":"levelo_inurba_marseille","lat":43.31712,"lon":5.43695,"is_reserved":false,"is_disabled":false,"rental_uris":{"android":"levelo://app?vid=e1b910ef-9f7a-4013-aed7-3f70e1a157ff","ios":"levelo://app?vid=e1b910ef-9f7a-4013-aed7-3f70e1a157ff"},"vehicle_type_id":"4","last_reported":1777110127,"current_range_meters":8000,"station_id":"ce4bhp92rcd13ifvqhcg","pricing_plan_id":"cebpf4jnsgd1na2vs0mg"},{"bike_id":"fb7f5d63-993c-4c7f-b55a-10dfc776bff8","system_id":"levelo_inurba_marseille","lat":43.29576,"lon":5.37507,"is_reserved":false,"is_disabled":false,"rental_uris":{"android":"levelo://app?vid=fb7f5d63-993c-4c7f-b55a-10dfc776bff8","ios":"levelo://app?vid=fb7f5d63-993c-4c7f-b55a-10dfc776bff8"},"vehicle_type_id":"4","last_reported":1777110127,"current_range_meters":8000,"station_id":"ce4bgh92rcd13ifvqb50","pricing_plan_id":"cebpf4jnsgd1na2vs0mg"},{"bike_id":"32896887-9d74-49f7-8e67-3ffcd46dedd6","system_id":"levelo_inurba_marseille","lat":43.262151,"lon":5.374409,"is_reserved":false,"is_disabled":false,"rental_uris":{"android":"levelo://app?vid=32896887-9d74-49f7-8e67-3ffcd46dedd6","ios":"levelo://app?vid=32896887-9d74-49f7-8e67-3ffcd46dedd6"},"vehicle_type_id":"4","last_reported":1777110127,"current_range_meters":8000,"station_id":"ce4bhgp2rcd13ifvqfc0","pricing_plan_id":"cebpf4jnsgd1na2vs0mg"},{"bike_id":"541dbded-315f-4ca8-ac49-47fcb4294bb7","system_id":"levelo_inurba_marseille","lat":43.33555,"lon":5.37468,"is_reserved":false,"is_disabled":false,"rental_uris":{"android":"levelo://app?vid=541dbded-315f-4ca8-ac49-47fcb4294bb7","ios":"levelo://app?vid=541dbded-315f-4ca8-ac49-47fcb4294bb7"},"vehicle_type_id":"4","last_reported":1777110127,"current_range_meters":8000,"station_id":"st_d46tts09ee8s73dlu43g","pricing_plan_id":"cebpf4jnsgd1na2vs0mg"},{"bike_id":"ec1e698d-5a33-42fe-9c0c-abf844a2bfdd","system_id":"levelo_inurba_marseille","lat":43.27503,"lon":5.41573,"is_reserved":false,"is_disabled":false,"rental_uris":{"android":"levelo://app?vid=ec1e698d-5a33-42fe-9c0c-abf844a2bfdd","ios":"levelo://app?vid=ec1e698d-5a33-42fe-9c0c-abf844a2bfdd"},"vehicle_type_id":"4","last_reported":1777110127,"current_range_meters":8000,"station_id":"st_d6im8g6chgec73a5pndg","pricing_plan_id":"cebpf4jnsgd1na2vs0mg"},{"bike_id":"9ca19aad-0b54-46ea-8114-5218ace8e5c2","system_id":"levelo_inurba_marseille","lat":43.24807,"lon":5.37455,"is_reserved":false,"is_disabled":false,"rental_uris":{"android":"levelo://app?vid=9ca19aad-0b54-46ea-8114-5218ace8e5c2","ios":"levelo://app?vid=9ca19aad-0b54-46ea-8114-5218ace8e5c2"},"vehicle_type_id":"4","last_reported":1777110127,"current_range_meters":8000,"station_id":"ce4bhgh2rcd13ifvqfb0","pricing_plan_id":"cebpf4jnsgd1na2vs0mg"},{"bike_id":"a2f341b5-27ef-4c68-bfb8-8bf57d59516a","system_id":"levelo_inurba_marseille","lat":43.30541,"lon":5.36542,"is_reserved":false,"is_disabled":false,"rental_uris":{"android":"levelo://app?vid=a2f341b5-27ef-4c68-bfb8-8bf57d59516a","ios":"levelo://app?vid=a2f341b5-27ef-4c68-bfb8-8bf57d59516a"},"vehicle_type_id":"4","last_reported":1777110127,"current_range_meters":8400,"station_id":"ce4bgs12rcd13ifvqcag","pricing_plan_id":"cebpf4jnsgd1na2vs0mg"},{"bike_id":"413e4623-e4a6-44c0-8fe0-f06c3e224af8","system_id":"levelo_inurba_marseille","lat":43.31898,"lon":5.36793,"is_reserved":false,"is_disabled":false,"rental_uris":{"android":"levelo://app?vid=413e4623-e4a6-44c0-8fe0-f06c3e224af8","ios":"levelo://app?vid=413e4623-e4a6-44c0-8fe0-f06c3e224af8"},"vehicle_type_id":"4","last_reported":1777110127,"current_range_meters":8400,"station_id":"st_d6o2h0d0559c73evc1b0","pricing_plan_id":"cebpf4jnsgd1na2vs0mg"},{"bike_id":"f34d5d57-70c7-4228-bc93-42c7b979a1f9","system_id":"levelo_inurba_marseille","lat":43.23962,"lon":5.36626,"is_reserved":false,"is_disabled":true,"rental_uris":{"android":"levelo://app?vid=f34d5d57-70c7-4228-bc93-42c7b979a1f9","ios":"levelo://app?vid=f34d5d57-70c7-4228-bc93-42c7b979a1f9"},"vehicle_type_id":"4","last_reported":1777110127,"current_range_meters":8400,"station_id":"ce4bhi12rcd13ifvqfp0","pricing_plan_id":"cebpf4jnsgd1na2vs0mg"},{"bike_id":"47cdfd85-c850-4193-aaa5-b5a23a2b2f3d","system_id":"levelo_inurba_marseille","lat":43.31096,"lon":5.37235,"is_reserved":false,"is_disabled":false,"rental_uris":{"android":"levelo://app?vid=47cdfd85-c850-4193-aaa5-b5a23a2b2f3d","ios":"levelo://app?vid=47cdfd85-c850-4193-aaa5-b5a23a2b2f3d"},"vehicle_type_id":"4","last_reported":1777110127,"current_range_meters":8400,"station_id":"st_d4kl2rp97mjs73e7tdfg","pricing_plan_id":"cebpf4jnsgd1na2vs0mg"},{"bike_id":"3fe60b2d-65d1-4d59-bf1e-422b9e7a469f","system_id":"levelo_inurba_marseille","lat":43.25,"lon":5.38926,"is_reserved":false,"is_disabled":false,"rental_uris":{"android":"levelo://app?vid=3fe60b2d-65d1-4d59-bf1e-422b9e7a469f","ios":"levelo://app?vid=3fe60b2d-65d1-4d59-bf1e-422b9e7a469f"},"vehicle_type_id":"4","last_reported":1777110127,"current_range_meters":8400,"station_id":"ce4bhgp2rcd13ifvqfd0","pricing_plan_id":"cebpf4jnsgd1na2vs0mg"},{"bike_id":"4a9de57e-1951-4514-b9d3-2815d44182ec","system_id":"levelo_inurba_marseille","lat":43.23152,"lon":5.43706,"is_reserved":false,"is_disabled":false,"rental_uris":{"android":"levelo://app?vid=4a9de57e-1951-4514-b9d3-2815d44182ec","ios":"levelo://app?vid=4a9de57e-1951-4514-b9d3-2815d44182ec"},"vehicle_type_id":"4","last_reported":1777110127,"current_range_meters":8400,"station_id":"ce4bhmp2rcd13ifvqgog","pricing_plan_id":"cebpf4jnsgd1na2vs0mg"},{"bike_id":"85e28e2a-2421-4551-a813-382122811cec","system_id":"levelo_inurba_marseille","lat":43.31928,"lon":5.36754,"is_reserved":false,"is_disabled":false,"rental_uris":{"android":"levelo://app?vid=85e28e2a-2421-4551-a813-382122811cec","ios":"levelo://app?vid=85e28e2a-2421-4551-a813-382122811cec"},"vehicle_type_id":"4","last_reported":1777110127,"current_range_meters":8400,"station_id":"st_d6o2h0d0559c73evc1b0","pricing_plan_id":"cebpf4jnsgd1na2vs0mg"},{"bike_id":"8ab510e8-ee1e-49ec-84e2-6d892205c04e","system_id":"levelo_inurba_marseille","lat":43.3092,"lon":5.40158,"is_reserved":false,"is_disabled":false,"rental_uris":{"android":"levelo://app?vid=8ab510e8-ee1e-49ec-84e2-6d892205c04e","ios":"levelo://app?vid=8ab510e8-ee1e-49ec-84e2-6d892205c04e"},"vehicle_type_id":"4","last_reported":1777110127,"current_range_meters":8400,"station_id":"ce4bgvp2rcd13ifvqct0","pricing_plan_id":"cebpf4jnsgd1na2vs0mg"},{"bike_id":"90fac789-06e9-4c33-94b9-e82543e03c21","system_id":"levelo_inurba_marseille","lat":43.22561,"lon":5.41627,"is_reserved":false,"is_disabled":true,"rental_uris":{"android":"levelo://app?vid=90fac789-06e9-4c33-94b9-e82543e03c21","ios":"levelo://app?vid=90fac789-06e9-4c33-94b9-e82543e03c21"},"vehicle_type_id":"4","last_reported":1777110127,"current_range_meters":8400,"station_id":"st_d2o4gvlbi1j2169b742g","pricing_plan_id":"cebpf4jnsgd1na2vs0mg"},{"bike_id":"80d34ee4-9695-41ba-bcd8-fb44ac5753a6","system_id":"levelo_inurba_marseille","lat":43.28536,"lon":5.44095,"is_reserved":false,"is_disabled":false,"rental_uris":{"android":"levelo://app?vid=80d34ee4-9695-41ba-bcd8-fb44ac5753a6","ios":"levelo://app?vid=80d34ee4-9695-41ba-bcd8-fb44ac5753a6"},"vehicle_type_id":"4","last_reported":1777110127,"current_range_meters":8400,"station_id":"st_d3j3df2ikq2c7380ej80","pricing_plan_id":"cebpf4jnsgd1na2vs0mg"},{"bike_id":"30c5aec9-ad23-427f-969e-bc8e90df3592","system_id":"levelo_inurba_marseille","lat":43.29279,"lon":5.36841,"is_reserved":false,"is_disabled":false,"rental_uris":{"android":"levelo://app?vid=30c5aec9-ad23-427f-969e-bc8e90df3592","ios":"levelo://app?vid=30c5aec9-ad23-427f-969e-bc8e90df3592"},"vehicle_type_id":"4","last_reported":1777110127,"current_range_meters":8400,"station_id":"","pricing_plan_id":"cebpf4jnsgd1na2vs0mg"},{"bike_id":"8d715502-1f4d-495a-aba7-e255ad4122f8","system_id":"levelo_inurba_marseille","lat":43.23959,"lon":5.36624,"is_reserved":false,"is_disabled":false,"rental_uris":{"android":"levelo://app?vid=8d715502-1f4d-495a-aba7-e255ad4122f8","ios":"levelo://app?vid=8d715502-1f4d-495a-aba7-e255ad4122f8"},"vehicle_type_id":"4","last_reported":1777110127,"current_range_meters":8800,"station_id":"ce4bhi12rcd13ifvqfp0","pricing_plan_id":"cebpf4jnsgd1na2vs0mg"},{"bike_id":"335d7250-451d-4620-bf87-cc5a457d5216","system_id":"levelo_inurba_marseille","lat":43.2858,"lon":5.38313,"is_reserved":false,"is_disabled":false,"rental_uris":{"android":"levelo://app?vid=335d7250-451d-4620-bf87-cc5a457d5216","ios":"levelo://app?vid=335d7250-451d-4620-bf87-cc5a457d5216"},"vehicle_type_id":"4","last_reported":1777110127,"current_range_meters":8800,"station_id":"","pricing_plan_id":"cebpf4jnsgd1na2vs0mg"},{"bike_id":"bcfbc128-d285-4d78-bf51-560ef0a60c72","system_id":"levelo_inurba_marseille","lat":43.28471,"lon":5.48363,"is_reserved":false,"is_disabled":false,"rental_uris":{"android":"levelo://app?vid=bcfbc128-d285-4d78-bf51-560ef0a60c72","ios":"levelo://app?vid=bcfbc128-d285-4d78-bf51-560ef0a60c72"},"vehicle_type_id":"4","last_reported":1777110127,"current_range_meters":8800,"station_id":"st_d3svhcjqgbts73a3dn0g","pricing_plan_id":"cebpf4jnsgd1na2vs0mg"},{"bike_id":"7b548114-61f6-4f44-8ad1-8c83ed4c23dc","system_id":"levelo_inurba_marseille","lat":43.24582,"lon":5.41777,"is_reserved":false,"is_disabled":false,"rental_uris":{"android":"levelo://app?vid=7b548114-61f6-4f44-8ad1-8c83ed4c23dc","ios":"levelo://app?vid=7b548114-61f6-4f44-8ad1-8c83ed4c23dc"},"vehicle_type_id":"4","last_reported":1777110127,"current_range_meters":8800,"station_id":"","pricing_plan_id":"cebpf4jnsgd1na2vs0mg"},{"bike_id":"548e4a82-32b2-49d2-a8d0-a6b1676f8a48","system_id":"levelo_inurba_marseille","lat":43.32488,"lon":5.3659,"is_reserved":false,"is_disabled":false,"rental_uris":{"android":"levelo://app?vid=548e4a82-32b2-49d2-a8d0-a6b1676f8a48","ios":"levelo://app?vid=548e4a82-32b2-49d2-a8d0-a6b1676f8a48"},"vehicle_type_id":"4","last_reported":1777110127,"current_range_meters":8800,"station_id":"ce4bhs12rcd13ifvqhvg","pricing_plan_id":"cebpf4jnsgd1na2vs0mg"},{"bike_id":"d1d5c7cf-8e64-4123-ad8a-ccd792fc4d10","system_id":"levelo_inurba_marseille","lat":43.29345,"lon":5.39884,"is_reserved":false,"is_disabled":false,"rental_uris":{"android":"levelo://app?vid=d1d5c7cf-8e64-4123-ad8a-ccd792fc4d10","ios":"levelo://app?vid=d1d5c7cf-8e64-4123-ad8a-ccd792fc4d10"},"vehicle_type_id":"4","last_reported":1777110127,"current_range_meters":8800,"station_id":"","pricing_plan_id":"cebpf4jnsgd1na2vs0mg"},{"bike_id":"f9b98806-d74c-46ef-8642-07dd46c19f4b","system_id":"levelo_inurba_marseille","lat":43.28705,"lon":5.46673,"is_reserved":false,"is_disabled":false,"rental_uris":{"android":"levelo://app?vid=f9b98806-d74c-46ef-8642-07dd46c19f4b","ios":"levelo://app?vid=f9b98806-d74c-46ef-8642-07dd46c19f4b"},"vehicle_type_id":"4","last_reported":1777110127,"current_range_meters":8800,"station_id":"st_d6tc3vkotcvc738tfjhg","pricing_plan_id":"cebpf4jnsgd1na2vs0mg"},{"bike_id":"fea5a28c-0167-4a62-9062-e629ed9b3e8f","system_id":"levelo_inurba_marseille","lat":43.2845,"lon":5.48363,"is_reserved":false,"is_disabled":false,"rental_uris":{"android":"levelo://app?vid=fea5a28c-0167-4a62-9062-e629ed9b3e8f","ios":"levelo://app?vid=fea5a28c-0167-4a62-9062-e629ed9b3e8f"},"vehicle_type_id":"4","last_reported":1777110127,"current_range_meters":8800,"station_id":"st_d3svhcjqgbts73a3dn0g","pricing_plan_id":"cebpf4jnsgd1na2vs0mg"},{"bike_id":"73b29586-6035-4b17-8f89-10c778399a16","system_id":"levelo_inurba_marseille","lat":43.32007,"lon":5.38163,"is_reserved":false,"is_disabled":false,"rental_uris":{"android":"levelo://app?vid=73b29586-6035-4b17-8f89-10c778399a16","ios":"levelo://app?vid=73b29586-6035-4b17-8f89-10c778399a16"},"vehicle_type_id":"4","last_reported":1777110127,"current_range_meters":8800,"station_id":"ce4bhr12rcd13ifvqhpg","pricing_plan_id":"cebpf4jnsgd1na2vs0mg"},{"bike_id":"fd49c6c8-309b-4094-a542-f795fb68b18f","system_id":"levelo_inurba_marseille","lat":43.31337,"lon":5.367,"is_reserved":false,"is_disabled":false,"rental_uris":{"android":"levelo://app?vid=fd49c6c8-309b-4094-a542-f795fb68b18f","ios":"levelo://app?vid=fd49c6c8-309b-4094-a542-f795fb68b18f"},"vehicle_type_id":"4","last_reported":1777110127,"current_range_meters":8800,"station_id":"ce4bgr92rcd13ifvqc6g","pricing_plan_id":"cebpf4jnsgd1na2vs0mg"},{"bike_id":"89b4dec0-82be-4d44-8bf9-961143360cc0","system_id":"levelo_inurba_marseille","lat":43.21745,"lon":5.34592,"is_reserved":false,"is_disabled":false,"rental_uris":{"android":"levelo://app?vid=89b4dec0-82be-4d44-8bf9-961143360cc0","ios":"levelo://app?vid=89b4dec0-82be-4d44-8bf9-961143360cc0"},"vehicle_type_id":"4","last_reported":1777110127,"current_range_meters":8800,"station_id":"st_cvj6r9ubvosntc0bgbag","pricing_plan_id":"cebpf4jnsgd1na2vs0mg"},{"bike_id":"c049792a-7e4f-4794-9cb8-3f58d2fa8f52","system_id":"levelo_inurba_marseille","lat":43.21754,"lon":5.34583,"is_reserved":false,"is_disabled":false,"rental_uris":{"android":"levelo://app?vid=c049792a-7e4f-4794-9cb8-3f58d2fa8f52","ios":"levelo://app?vid=c049792a-7e4f-4794-9cb8-3f58d2fa8f52"},"vehicle_type_id":"4","last_reported":1777110127,"current_range_meters":8800,"station_id":"st_cvj6r9ubvosntc0bgbag","pricing_plan_id":"cebpf4jnsgd1na2vs0mg"},{"bike_id":"915f3511-b21b-4a84-8018-3a43f6b1a303","system_id":"levelo_inurba_marseille","lat":43.27085,"lon":5.42271,"is_reserved":false,"is_disabled":false,"rental_uris":{"android":"levelo://app?vid=915f3511-b21b-4a84-8018-3a43f6b1a303","ios":"levelo://app?vid=915f3511-b21b-4a84-8018-3a43f6b1a303"},"vehicle_type_id":"4","last_reported":1777110127,"current_range_meters":8800,"station_id":"ce4bhk92rcd13ifvqgb0","pricing_plan_id":"cebpf4jnsgd1na2vs0mg"},{"bike_id":"308f68c0-c326-4383-b2d4-3d5ce68f7df6","system_id":"levelo_inurba_marseille","lat":43.27987,"lon":5.36373,"is_reserved":false,"is_disabled":false,"rental_uris":{"android":"levelo://app?vid=308f68c0-c326-4383-b2d4-3d5ce68f7df6","ios":"levelo://app?vid=308f68c0-c326-4383-b2d4-3d5ce68f7df6"},"vehicle_type_id":"4","last_reported":1777110127,"current_range_meters":9200,"station_id":"","pricing_plan_id":"cebpf4jnsgd1na2vs0mg"},{"bike_id":"6b404645-3784-4552-b362-ce2273282500","system_id":"levelo_inurba_marseille","lat":43.28489,"lon":5.38484,"is_reserved":false,"is_disabled":true,"rental_uris":{"android":"levelo://app?vid=6b404645-3784-4552-b362-ce2273282500","ios":"levelo://app?vid=6b404645-3784-4552-b362-ce2273282500"},"vehicle_type_id":"4","last_reported":1777110127,"current_range_meters":9200,"station_id":"","pricing_plan_id":"cebpf4jnsgd1na2vs0mg"},{"bike_id":"97f0351e-0015-4f6a-a402-604cdb115786","system_id":"levelo_inurba_marseille","lat":43.21222,"lon":5.35071,"is_reserved":false,"is_disabled":false,"rental_uris":{"android":"levelo://app?vid=97f0351e-0015-4f6a-a402-604cdb115786","ios":"levelo://app?vid=97f0351e-0015-4f6a-a402-604cdb115786"},"vehicle_type_id":"4","last_reported":1777110127,"current_range_meters":9200,"station_id":"st_cvj6sg6p6f1abm77japg","pricing_plan_id":"cebpf4jnsgd1na2vs0mg"},{"bike_id":"9a7c39d8-ef30-4694-b180-b6fe0a089530","system_id":"levelo_inurba_marseille","lat":43.30126,"lon":5.43107,"is_reserved":false,"is_disabled":false,"rental_uris":{"android":"levelo://app?vid=9a7c39d8-ef30-4694-b180-b6fe0a089530","ios":"levelo://app?vid=9a7c39d8-ef30-4694-b180-b6fe0a089530"},"vehicle_type_id":"4","last_reported":1777110127,"current_range_meters":9200,"station_id":"st_d3js3co5814s73ftftug","pricing_plan_id":"cebpf4jnsgd1na2vs0mg"},{"bike_id":"7ac59c81-01df-4b8e-9807-86f926b0041a","system_id":"levelo_inurba_marseille","lat":43.2812,"lon":5.39106,"is_reserved":false,"is_disabled":false,"rental_uris":{"android":"levelo://app?vid=7ac59c81-01df-4b8e-9807-86f926b0041a","ios":"levelo://app?vid=7ac59c81-01df-4b8e-9807-86f926b0041a"},"vehicle_type_id":"4","last_reported":1777110127,"current_range_meters":9200,"station_id":"","pricing_plan_id":"cebpf4jnsgd1na2vs0mg"},{"bike_id":"ace34436-51fe-4536-a1f6-cfa009f56977","system_id":"levelo_inurba_marseille","lat":43.33527,"lon":5.37465,"is_reserved":false,"is_disabled":false,"rental_uris":{"android":"levelo://app?vid=ace34436-51fe-4536-a1f6-cfa009f56977","ios":"levelo://app?vid=ace34436-51fe-4536-a1f6-cfa009f56977"},"vehicle_type_id":"4","last_reported":1777110127,"current_range_meters":9200,"station_id":"st_d46tts09ee8s73dlu43g","pricing_plan_id":"cebpf4jnsgd1na2vs0mg"},{"bike_id":"5687bcf3-d7dc-457c-91e4-c37491638fcd","system_id":"levelo_inurba_marseille","lat":43.2418,"lon":5.36379,"is_reserved":false,"is_disabled":false,"rental_uris":{"android":"levelo://app?vid=5687bcf3-d7dc-457c-91e4-c37491638fcd","ios":"levelo://app?vid=5687bcf3-d7dc-457c-91e4-c37491638fcd"},"vehicle_type_id":"4","last_reported":1777110127,"current_range_meters":9200,"station_id":"cpo36qri1sfpv3e86is0","pricing_plan_id":"cebpf4jnsgd1na2vs0mg"},{"bike_id":"12351776-ce4e-4c65-be2a-084ee71a31ed","system_id":"levelo_inurba_marseille","lat":43.24068,"lon":5.37752,"is_reserved":false,"is_disabled":false,"rental_uris":{"android":"levelo://app?vid=12351776-ce4e-4c65-be2a-084ee71a31ed","ios":"levelo://app?vid=12351776-ce4e-4c65-be2a-084ee71a31ed"},"vehicle_type_id":"4","last_reported":1777110127,"current_range_meters":9200,"station_id":"ce4bhnp2rcd13ifvqgvg","pricing_plan_id":"cebpf4jnsgd1na2vs0mg"},{"bike_id":"071d1e71-48c5-45bd-bc37-ce81033af5ba","system_id":"levelo_inurba_marseille","lat":43.3155,"lon":5.38014,"is_reserved":false,"is_disabled":false,"rental_uris":{"android":"levelo://app?vid=071d1e71-48c5-45bd-bc37-ce81033af5ba","ios":"levelo://app?vid=071d1e71-48c5-45bd-bc37-ce81033af5ba"},"vehicle_type_id":"4","last_reported":1777110127,"current_range_meters":9200,"station_id":"ce4bhsp2rcd13ifvqi50","pricing_plan_id":"cebpf4jnsgd1na2vs0mg"},{"bike_id":"270b3504-7efc-4ad9-a72b-907087bacf0e","system_id":"levelo_inurba_marseille","lat":43.23181,"lon":5.43693,"is_reserved":false,"is_disabled":false,"rental_uris":{"android":"levelo://app?vid=270b3504-7efc-4ad9-a72b-907087bacf0e","ios":"levelo://app?vid=270b3504-7efc-4ad9-a72b-907087bacf0e"},"vehicle_type_id":"4","last_reported":1777110127,"current_range_meters":9200,"station_id":"ce4bhmp2rcd13ifvqgog","pricing_plan_id":"cebpf4jnsgd1na2vs0mg"},{"bike_id":"26669f21-c2bc-4bde-9041-60db37f3e93e","system_id":"levelo_inurba_marseille","lat":43.25573,"lon":5.38225,"is_reserved":false,"is_disabled":true,"rental_uris":{"android":"levelo://app?vid=26669f21-c2bc-4bde-9041-60db37f3e93e","ios":"levelo://app?vid=26669f21-c2bc-4bde-9041-60db37f3e93e"},"vehicle_type_id":"4","last_reported":1777110127,"current_range_meters":9200,"station_id":"ce4bhih2rcd13ifvqfs0","pricing_plan_id":"cebpf4jnsgd1na2vs0mg"},{"bike_id":"7d507d55-089b-4da6-9cba-e3bba178d923","system_id":"levelo_inurba_marseille","lat":43.23156,"lon":5.40029,"is_reserved":false,"is_disabled":false,"rental_uris":{"android":"levelo://app?vid=7d507d55-089b-4da6-9cba-e3bba178d923","ios":"levelo://app?vid=7d507d55-089b-4da6-9cba-e3bba178d923"},"vehicle_type_id":"4","last_reported":1777110127,"current_range_meters":9200,"station_id":"ce4bhn12rcd13ifvqgqg","pricing_plan_id":"cebpf4jnsgd1na2vs0mg"},{"bike_id":"17fe3f56-b486-40dd-ac6a-710ede14c97d","system_id":"levelo_inurba_marseille","lat":43.314869,"lon":5.373029,"is_reserved":false,"is_disabled":false,"rental_uris":{"android":"levelo://app?vid=17fe3f56-b486-40dd-ac6a-710ede14c97d","ios":"levelo://app?vid=17fe3f56-b486-40dd-ac6a-710ede14c97d"},"vehicle_type_id":"4","last_reported":1777110127,"current_range_meters":9200,"station_id":"","pricing_plan_id":"cebpf4jnsgd1na2vs0mg"},{"bike_id":"c939658e-731a-43f7-a7b3-4ec4a2e00fc3","system_id":"levelo_inurba_marseille","lat":43.27052,"lon":5.40256,"is_reserved":false,"is_disabled":false,"rental_uris":{"android":"levelo://app?vid=c939658e-731a-43f7-a7b3-4ec4a2e00fc3","ios":"levelo://app?vid=c939658e-731a-43f7-a7b3-4ec4a2e00fc3"},"vehicle_type_id":"4","last_reported":1777110127,"current_range_meters":9200,"station_id":"ce4bhk92rcd13ifvqgc0","pricing_plan_id":"cebpf4jnsgd1na2vs0mg"},{"bike_id":"21a3f8f3-34c5-4c0c-823a-1742ab6e391f","system_id":"levelo_inurba_marseille","lat":43.24826,"lon":5.37461,"is_reserved":false,"is_disabled":false,"rental_uris":{"android":"levelo://app?vid=21a3f8f3-34c5-4c0c-823a-1742ab6e391f","ios":"levelo://app?vid=21a3f8f3-34c5-4c0c-823a-1742ab6e391f"},"vehicle_type_id":"4","last_reported":1777110127,"current_range_meters":9200,"station_id":"ce4bhgh2rcd13ifvqfb0","pricing_plan_id":"cebpf4jnsgd1na2vs0mg"},{"bike_id":"2544efaf-b523-4f0a-a9b1-9529204e1ea5","system_id":"levelo_inurba_marseille","lat":43.23058,"lon":5.35483,"is_reserved":false,"is_disabled":false,"rental_uris":{"android":"levelo://app?vid=2544efaf-b523-4f0a-a9b1-9529204e1ea5","ios":"levelo://app?vid=2544efaf-b523-4f0a-a9b1-9529204e1ea5"},"vehicle_type_id":"4","last_reported":1777110127,"current_range_meters":9200,"station_id":"cpo3342slgdg3j2ifvpg","pricing_plan_id":"cebpf4jnsgd1na2vs0mg"},{"bike_id":"d7f5d92f-8256-4b7f-889c-d119af6c7e59","system_id":"levelo_inurba_marseille","lat":43.23208,"lon":5.39982,"is_reserved":false,"is_disabled":false,"rental_uris":{"android":"levelo://app?vid=d7f5d92f-8256-4b7f-889c-d119af6c7e59","ios":"levelo://app?vid=d7f5d92f-8256-4b7f-889c-d119af6c7e59"},"vehicle_type_id":"4","last_reported":1777110127,"current_range_meters":9200,"station_id":"ce4bhn12rcd13ifvqgqg","pricing_plan_id":"cebpf4jnsgd1na2vs0mg"},{"bike_id":"338d8ead-ba67-489a-972d-87376cee8805","system_id":"levelo_inurba_marseille","lat":43.31875,"lon":5.39995,"is_reserved":false,"is_disabled":false,"rental_uris":{"android":"levelo://app?vid=338d8ead-ba67-489a-972d-87376cee8805","ios":"levelo://app?vid=338d8ead-ba67-489a-972d-87376cee8805"},"vehicle_type_id":"4","last_reported":1777110127,"current_range_meters":9200,"station_id":"","pricing_plan_id":"cebpf4jnsgd1na2vs0mg"},{"bike_id":"e1b35871-b51d-443f-b8d2-59bb619a9efb","system_id":"levelo_inurba_marseille","lat":43.2119,"lon":5.35071,"is_reserved":false,"is_disabled":false,"rental_uris":{"android":"levelo://app?vid=e1b35871-b51d-443f-b8d2-59bb619a9efb","ios":"levelo://app?vid=e1b35871-b51d-443f-b8d2-59bb619a9efb"},"vehicle_type_id":"4","last_reported":1777110127,"current_range_meters":9200,"station_id":"st_cvj6sg6p6f1abm77japg","pricing_plan_id":"cebpf4jnsgd1na2vs0mg"},{"bike_id":"cf37415f-0a30-4779-970e-dfad3085d26a","system_id":"levelo_inurba_marseille","lat":43.29268,"lon":5.37618,"is_reserved":false,"is_disabled":false,"rental_uris":{"android":"levelo://app?vid=cf37415f-0a30-4779-970e-dfad3085d26a","ios":"levelo://app?vid=cf37415f-0a30-4779-970e-dfad3085d26a"},"vehicle_type_id":"4","last_reported":1777110127,"current_range_meters":9600,"station_id":"ce4bgi12rcd13ifvqb80","pricing_plan_id":"cebpf4jnsgd1na2vs0mg"},{"bike_id":"07408139-0e0b-42d2-ac2d-94af4e4d3d13","system_id":"levelo_inurba_marseille","lat":43.26494,"lon":5.39548,"is_reserved":false,"is_disabled":false,"rental_uris":{"android":"levelo://app?vid=07408139-0e0b-42d2-ac2d-94af4e4d3d13","ios":"levelo://app?vid=07408139-0e0b-42d2-ac2d-94af4e4d3d13"},"vehicle_type_id":"4","last_reported":1777110127,"current_range_meters":9600,"station_id":"ce4bhi12rcd13ifvqfq0","pricing_plan_id":"cebpf4jnsgd1na2vs0mg"},{"bike_id":"0cd2fd7c-6402-466e-aa1b-fa186d7a7ed3","system_id":"levelo_inurba_marseille","lat":43.33194,"lon":5.37792,"is_reserved":false,"is_disabled":false,"rental_uris":{"android":"levelo://app?vid=0cd2fd7c-6402-466e-aa1b-fa186d7a7ed3","ios":"levelo://app?vid=0cd2fd7c-6402-466e-aa1b-fa186d7a7ed3"},"vehicle_type_id":"4","last_reported":1777110127,"current_range_meters":9600,"station_id":"","pricing_plan_id":"cebpf4jnsgd1na2vs0mg"},{"bike_id":"a7abb83b-d8f7-4b04-81c9-42ce1f31f52a","system_id":"levelo_inurba_marseille","lat":43.2762,"lon":5.36122,"is_reserved":false,"is_disabled":true,"rental_uris":{"android":"levelo://app?vid=a7abb83b-d8f7-4b04-81c9-42ce1f31f52a","ios":"levelo://app?vid=a7abb83b-d8f7-4b04-81c9-42ce1f31f52a"},"vehicle_type_id":"4","last_reported":1777110127,"current_range_meters":9600,"station_id":"ce4bgj92rcd13ifvqbe0","pricing_plan_id":"cebpf4jnsgd1na2vs0mg"},{"bike_id":"78f5b0da-7ef9-451f-b7a0-89eb969d26f6","system_id":"levelo_inurba_marseille","lat":43.29936,"lon":5.37454,"is_reserved":false,"is_disabled":false,"rental_uris":{"android":"levelo://app?vid=78f5b0da-7ef9-451f-b7a0-89eb969d26f6","ios":"levelo://app?vid=78f5b0da-7ef9-451f-b7a0-89eb969d26f6"},"vehicle_type_id":"4","last_reported":1777110127,"current_range_meters":9600,"station_id":"ce4bgjh2rcd13ifvqbg0","pricing_plan_id":"cebpf4jnsgd1na2vs0mg"},{"bike_id":"13dece33-960e-4515-a289-dc639ac53ee8","system_id":"levelo_inurba_marseille","lat":43.29729,"lon":5.3769,"is_reserved":false,"is_disabled":false,"rental_uris":{"android":"levelo://app?vid=13dece33-960e-4515-a289-dc639ac53ee8","ios":"levelo://app?vid=13dece33-960e-4515-a289-dc639ac53ee8"},"vehicle_type_id":"4","last_reported":1777110127,"current_range_meters":9600,"station_id":"ce4bgkh2rcd13ifvqbl0","pricing_plan_id":"cebpf4jnsgd1na2vs0mg"},{"bike_id":"06558e5b-846f-4e20-b375-c8972d75dc5a","system_id":"levelo_inurba_marseille","lat":43.2735,"lon":5.43108,"is_reserved":false,"is_disabled":false,"rental_uris":{"android":"levelo://app?vid=06558e5b-846f-4e20-b375-c8972d75dc5a","ios":"levelo://app?vid=06558e5b-846f-4e20-b375-c8972d75dc5a"},"vehicle_type_id":"4","last_reported":1777110127,"current_range_meters":9600,"station_id":"","pricing_plan_id":"cebpf4jnsgd1na2vs0mg"},{"bike_id":"91ea6971-6562-4208-a9ad-5fadb2891c43","system_id":"levelo_inurba_marseille","lat":43.29737,"lon":5.37679,"is_reserved":false,"is_disabled":false,"rental_uris":{"android":"levelo://app?vid=91ea6971-6562-4208-a9ad-5fadb2891c43","ios":"levelo://app?vid=91ea6971-6562-4208-a9ad-5fadb2891c43"},"vehicle_type_id":"4","last_reported":1777110127,"current_range_meters":9600,"station_id":"ce4bgkh2rcd13ifvqbl0","pricing_plan_id":"cebpf4jnsgd1na2vs0mg"},{"bike_id":"01ab20ba-1010-4f3e-8686-567609147797","system_id":"levelo_inurba_marseille","lat":43.30181,"lon":5.38069,"is_reserved":false,"is_disabled":false,"rental_uris":{"android":"levelo://app?vid=01ab20ba-1010-4f3e-8686-567609147797","ios":"levelo://app?vid=01ab20ba-1010-4f3e-8686-567609147797"},"vehicle_type_id":"4","last_reported":1777110127,"current_range_meters":9600,"station_id":"ce4bgjp2rcd13ifvqbh0","pricing_plan_id":"cebpf4jnsgd1na2vs0mg"},{"bike_id":"a04d60df-414e-4af4-864e-5afd610894db","system_id":"levelo_inurba_marseille","lat":43.30177,"lon":5.38087,"is_reserved":false,"is_disabled":false,"rental_uris":{"android":"levelo://app?vid=a04d60df-414e-4af4-864e-5afd610894db","ios":"levelo://app?vid=a04d60df-414e-4af4-864e-5afd610894db"},"vehicle_type_id":"4","last_reported":1777110127,"current_range_meters":9600,"station_id":"ce4bgjp2rcd13ifvqbh0","pricing_plan_id":"cebpf4jnsgd1na2vs0mg"},{"bike_id":"648bc781-8e68-4ccd-aedc-987a153e904f","system_id":"levelo_inurba_marseille","lat":43.29265,"lon":5.38457,"is_reserved":false,"is_disabled":false,"rental_uris":{"android":"levelo://app?vid=648bc781-8e68-4ccd-aedc-987a153e904f","ios":"levelo://app?vid=648bc781-8e68-4ccd-aedc-987a153e904f"},"vehicle_type_id":"4","last_reported":1777110127,"current_range_meters":9600,"station_id":"ce4bh692rcd13ifvqea0","pricing_plan_id":"cebpf4jnsgd1na2vs0mg"},{"bike_id":"e79bde01-2f2e-4687-9114-2908a926683e","system_id":"levelo_inurba_marseille","lat":43.33541,"lon":5.37454,"is_reserved":false,"is_disabled":false,"rental_uris":{"android":"levelo://app?vid=e79bde01-2f2e-4687-9114-2908a926683e","ios":"levelo://app?vid=e79bde01-2f2e-4687-9114-2908a926683e"},"vehicle_type_id":"4","last_reported":1777110127,"current_range_meters":9600,"station_id":"st_d46tts09ee8s73dlu43g","pricing_plan_id":"cebpf4jnsgd1na2vs0mg"},{"bike_id":"fda983b3-301e-40f3-bb07-e5c67ab620e4","system_id":"levelo_inurba_marseille","lat":43.25082,"lon":5.40458,"is_reserved":false,"is_disabled":false,"rental_uris":{"android":"levelo://app?vid=fda983b3-301e-40f3-bb07-e5c67ab620e4","ios":"levelo://app?vid=fda983b3-301e-40f3-bb07-e5c67ab620e4"},"vehicle_type_id":"4","last_reported":1777110127,"current_range_meters":9600,"station_id":"","pricing_plan_id":"cebpf4jnsgd1na2vs0mg"},{"bike_id":"c1751b1b-93fa-4060-b352-76022e1c219a","system_id":"levelo_inurba_marseille","lat":43.28998,"lon":5.35602,"is_reserved":false,"is_disabled":true,"rental_uris":{"android":"levelo://app?vid=c1751b1b-93fa-4060-b352-76022e1c219a","ios":"levelo://app?vid=c1751b1b-93fa-4060-b352-76022e1c219a"},"vehicle_type_id":"4","last_reported":1777110127,"current_range_meters":9600,"station_id":"","pricing_plan_id":"cebpf4jnsgd1na2vs0mg"},{"bike_id":"f1cffc7b-9140-4f3f-acd5-1357e8e47054","system_id":"levelo_inurba_marseille","lat":43.22532,"lon":5.34809,"is_reserved":false,"is_disabled":false,"rental_uris":{"android":"levelo://app?vid=f1cffc7b-9140-4f3f-acd5-1357e8e47054","ios":"levelo://app?vid=f1cffc7b-9140-4f3f-acd5-1357e8e47054"},"vehicle_type_id":"4","last_reported":1777110127,"current_range_meters":9600,"station_id":"st_cvj5dfep6f1abm77gieg","pricing_plan_id":"cebpf4jnsgd1na2vs0mg"},{"bike_id":"b65f98f7-5f7c-4aaa-af48-8fc773551a1e","system_id":"levelo_inurba_marseille","lat":43.30193,"lon":5.36623,"is_reserved":false,"is_disabled":false,"rental_uris":{"android":"levelo://app?vid=b65f98f7-5f7c-4aaa-af48-8fc773551a1e","ios":"levelo://app?vid=b65f98f7-5f7c-4aaa-af48-8fc773551a1e"},"vehicle_type_id":"4","last_reported":1777110127,"current_range_meters":9600,"station_id":"ce4bgrh2rcd13ifvqc8g","pricing_plan_id":"cebpf4jnsgd1na2vs0mg"},{"bike_id":"0e1e4521-1dac-4c01-872a-f09f1790ab28","system_id":"levelo_inurba_marseille","lat":43.24653,"lon":5.38882,"is_reserved":false,"is_disabled":false,"rental_uris":{"android":"levelo://app?vid=0e1e4521-1dac-4c01-872a-f09f1790ab28","ios":"levelo://app?vid=0e1e4521-1dac-4c01-872a-f09f1790ab28"},"vehicle_type_id":"4","last_reported":1777110127,"current_range_meters":9600,"station_id":"ce4bhg12rcd13ifvqf60","pricing_plan_id":"cebpf4jnsgd1na2vs0mg"},{"bike_id":"5fdff1d7-b2d7-4e39-ad7f-00ed09411d1d","system_id":"levelo_inurba_marseille","lat":43.28485,"lon":5.48377,"is_reserved":false,"is_disabled":false,"rental_uris":{"android":"levelo://app?vid=5fdff1d7-b2d7-4e39-ad7f-00ed09411d1d","ios":"levelo://app?vid=5fdff1d7-b2d7-4e39-ad7f-00ed09411d1d"},"vehicle_type_id":"4","last_reported":1777110127,"current_range_meters":10000,"station_id":"st_d3svhcjqgbts73a3dn0g","pricing_plan_id":"cebpf4jnsgd1na2vs0mg"},{"bike_id":"4cd72995-c6bd-4cb8-9c20-b6bd0f4debc1","system_id":"levelo_inurba_marseille","lat":43.28947,"lon":5.36407,"is_reserved":false,"is_disabled":true,"rental_uris":{"android":"levelo://app?vid=4cd72995-c6bd-4cb8-9c20-b6bd0f4debc1","ios":"levelo://app?vid=4cd72995-c6bd-4cb8-9c20-b6bd0f4debc1"},"vehicle_type_id":"4","last_reported":1777110127,"current_range_meters":10000,"station_id":"ce4bhc92rcd13ifvqetg","pricing_plan_id":"cebpf4jnsgd1na2vs0mg"},{"bike_id":"e2727c40-d1dd-4cda-a19c-9bad92fe848f","system_id":"levelo_inurba_marseille","lat":43.28476,"lon":5.384,"is_reserved":false,"is_disabled":true,"rental_uris":{"android":"levelo://app?vid=e2727c40-d1dd-4cda-a19c-9bad92fe848f","ios":"levelo://app?vid=e2727c40-d1dd-4cda-a19c-9bad92fe848f"},"vehicle_type_id":"4","last_reported":1777110127,"current_range_meters":10000,"station_id":"ce4bh512rcd13ifvqe3g","pricing_plan_id":"cebpf4jnsgd1na2vs0mg"},{"bike_id":"e9caee44-b787-4c36-a632-4bd6c1ec7cfa","system_id":"levelo_inurba_marseille","lat":43.28489,"lon":5.48384,"is_reserved":false,"is_disabled":false,"rental_uris":{"android":"levelo://app?vid=e9caee44-b787-4c36-a632-4bd6c1ec7cfa","ios":"levelo://app?vid=e9caee44-b787-4c36-a632-4bd6c1ec7cfa"},"vehicle_type_id":"4","last_reported":1777110127,"current_range_meters":10000,"station_id":"st_d3svhcjqgbts73a3dn0g","pricing_plan_id":"cebpf4jnsgd1na2vs0mg"},{"bike_id":"d3e9b620-cd42-4df4-8fae-e98a466e75fe","system_id":"levelo_inurba_marseille","lat":43.2558,"lon":5.38246,"is_reserved":false,"is_disabled":false,"rental_uris":{"android":"levelo://app?vid=d3e9b620-cd42-4df4-8fae-e98a466e75fe","ios":"levelo://app?vid=d3e9b620-cd42-4df4-8fae-e98a466e75fe"},"vehicle_type_id":"4","last_reported":1777110127,"current_range_meters":10000,"station_id":"ce4bhih2rcd13ifvqfs0","pricing_plan_id":"cebpf4jnsgd1na2vs0mg"},{"bike_id":"0ae70fda-0279-4869-9b2c-159f57275404","system_id":"levelo_inurba_marseille","lat":43.27207,"lon":5.39173,"is_reserved":false,"is_disabled":false,"rental_uris":{"android":"levelo://app?vid=0ae70fda-0279-4869-9b2c-159f57275404","ios":"levelo://app?vid=0ae70fda-0279-4869-9b2c-159f57275404"},"vehicle_type_id":"4","last_reported":1777110127,"current_range_meters":10000,"station_id":"ce4bhhp2rcd13ifvqfm0","pricing_plan_id":"cebpf4jnsgd1na2vs0mg"},{"bike_id":"3833eaec-fd7f-4fbe-8fe3-066d011f3340","system_id":"levelo_inurba_marseille","lat":43.24175,"lon":5.36386,"is_reserved":false,"is_disabled":false,"rental_uris":{"android":"levelo://app?vid=3833eaec-fd7f-4fbe-8fe3-066d011f3340","ios":"levelo://app?vid=3833eaec-fd7f-4fbe-8fe3-066d011f3340"},"vehicle_type_id":"4","last_reported":1777110127,"current_range_meters":10000,"station_id":"cpo36qri1sfpv3e86is0","pricing_plan_id":"cebpf4jnsgd1na2vs0mg"},{"bike_id":"05a33fd5-e436-4ad0-a907-865e546c41d5","system_id":"levelo_inurba_marseille","lat":43.22554,"lon":5.41613,"is_reserved":false,"is_disabled":true,"rental_uris":{"android":"levelo://app?vid=05a33fd5-e436-4ad0-a907-865e546c41d5","ios":"levelo://app?vid=05a33fd5-e436-4ad0-a907-865e546c41d5"},"vehicle_type_id":"4","last_reported":1777110127,"current_range_meters":10000,"station_id":"","pricing_plan_id":"cebpf4jnsgd1na2vs0mg"},{"bike_id":"f7716b3d-5dc6-4c1f-94ea-dd8b69d23a22","system_id":"levelo_inurba_marseille","lat":43.27492,"lon":5.43545,"is_reserved":false,"is_disabled":false,"rental_uris":{"android":"levelo://app?vid=f7716b3d-5dc6-4c1f-94ea-dd8b69d23a22","ios":"levelo://app?vid=f7716b3d-5dc6-4c1f-94ea-dd8b69d23a22"},"vehicle_type_id":"4","last_reported":1777110127,"current_range_meters":10000,"station_id":"","pricing_plan_id":"cebpf4jnsgd1na2vs0mg"},{"bike_id":"f3fafc82-7124-4a6b-9c81-9835a34499ea","system_id":"levelo_inurba_marseille","lat":43.28376,"lon":5.38638,"is_reserved":false,"is_disabled":false,"rental_uris":{"android":"levelo://app?vid=f3fafc82-7124-4a6b-9c81-9835a34499ea","ios":"levelo://app?vid=f3fafc82-7124-4a6b-9c81-9835a34499ea"},"vehicle_type_id":"4","last_reported":1777110127,"current_range_meters":10800,"station_id":"ce4bh492rcd13ifvqdvg","pricing_plan_id":"cebpf4jnsgd1na2vs0mg"},{"bike_id":"cfaa5626-78ed-4036-8305-b66fb2475c39","system_id":"levelo_inurba_marseille","lat":43.28927,"lon":5.38394,"is_reserved":false,"is_disabled":false,"rental_uris":{"android":"levelo://app?vid=cfaa5626-78ed-4036-8305-b66fb2475c39","ios":"levelo://app?vid=cfaa5626-78ed-4036-8305-b66fb2475c39"},"vehicle_type_id":"4","last_reported":1777110127,"current_range_meters":10800,"station_id":"ce4bh612rcd13ifvqe6g","pricing_plan_id":"cebpf4jnsgd1na2vs0mg"},{"bike_id":"df75676a-7c3f-4d29-80c0-260795f2c62d","system_id":"levelo_inurba_marseille","lat":43.27945,"lon":5.40766,"is_reserved":false,"is_disabled":false,"rental_uris":{"android":"levelo://app?vid=df75676a-7c3f-4d29-80c0-260795f2c62d","ios":"levelo://app?vid=df75676a-7c3f-4d29-80c0-260795f2c62d"},"vehicle_type_id":"4","last_reported":1777110127,"current_range_meters":10800,"station_id":"","pricing_plan_id":"cebpf4jnsgd1na2vs0mg"},{"bike_id":"f3a003de-3d04-4f6d-bcf6-a00588e1d45a","system_id":"levelo_inurba_marseille","lat":43.28491,"lon":5.48391,"is_reserved":false,"is_disabled":false,"rental_uris":{"android":"levelo://app?vid=f3a003de-3d04-4f6d-bcf6-a00588e1d45a","ios":"levelo://app?vid=f3a003de-3d04-4f6d-bcf6-a00588e1d45a"},"vehicle_type_id":"4","last_reported":1777110127,"current_range_meters":10800,"station_id":"","pricing_plan_id":"cebpf4jnsgd1na2vs0mg"},{"bike_id":"f3cb38b8-58ba-44db-8e7c-7c614b255071","system_id":"levelo_inurba_marseille","lat":43.280813,"lon":5.396654,"is_reserved":false,"is_disabled":false,"rental_uris":{"android":"levelo://app?vid=f3cb38b8-58ba-44db-8e7c-7c614b255071","ios":"levelo://app?vid=f3cb38b8-58ba-44db-8e7c-7c614b255071"},"vehicle_type_id":"4","last_reported":1777110127,"current_range_meters":10800,"station_id":"ce4bho12rcd13ifvqh2g","pricing_plan_id":"cebpf4jnsgd1na2vs0mg"},{"bike_id":"1fa7c290-baf4-43ed-aa99-7181dabef99e","system_id":"levelo_inurba_marseille","lat":43.33546,"lon":5.37472,"is_reserved":false,"is_disabled":false,"rental_uris":{"android":"levelo://app?vid=1fa7c290-baf4-43ed-aa99-7181dabef99e","ios":"levelo://app?vid=1fa7c290-baf4-43ed-aa99-7181dabef99e"},"vehicle_type_id":"4","last_reported":1777110127,"current_range_meters":10800,"station_id":"st_d46tts09ee8s73dlu43g","pricing_plan_id":"cebpf4jnsgd1na2vs0mg"},{"bike_id":"0836af2c-f144-4838-818c-31f8e515eddd","system_id":"levelo_inurba_marseille","lat":43.30334,"lon":5.4043,"is_reserved":false,"is_disabled":false,"rental_uris":{"android":"levelo://app?vid=0836af2c-f144-4838-818c-31f8e515eddd","ios":"levelo://app?vid=0836af2c-f144-4838-818c-31f8e515eddd"},"vehicle_type_id":"4","last_reported":1777110127,"current_range_meters":10800,"station_id":"ce4bh012rcd13ifvqd10","pricing_plan_id":"cebpf4jnsgd1na2vs0mg"},{"bike_id":"2dfec06b-6889-4730-b649-699505e31ac2","system_id":"levelo_inurba_marseille","lat":43.28176,"lon":5.42606,"is_reserved":false,"is_disabled":false,"rental_uris":{"android":"levelo://app?vid=2dfec06b-6889-4730-b649-699505e31ac2","ios":"levelo://app?vid=2dfec06b-6889-4730-b649-699505e31ac2"},"vehicle_type_id":"4","last_reported":1777110127,"current_range_meters":10800,"station_id":"ce4bhnh2rcd13ifvqgug","pricing_plan_id":"cebpf4jnsgd1na2vs0mg"},{"bike_id":"70578acc-b935-4f77-be23-bcde1db99b26","system_id":"levelo_inurba_marseille","lat":43.29794,"lon":5.38155,"is_reserved":false,"is_disabled":false,"rental_uris":{"android":"levelo://app?vid=70578acc-b935-4f77-be23-bcde1db99b26","ios":"levelo://app?vid=70578acc-b935-4f77-be23-bcde1db99b26"},"vehicle_type_id":"4","last_reported":1777110127,"current_range_meters":10800,"station_id":"ce4bgip2rcd13ifvqbb0","pricing_plan_id":"cebpf4jnsgd1na2vs0mg"},{"bike_id":"81cfffe2-4477-4769-b5f1-cc928950e40f","system_id":"levelo_inurba_marseille","lat":43.24055,"lon":5.37775,"is_reserved":false,"is_disabled":false,"rental_uris":{"android":"levelo://app?vid=81cfffe2-4477-4769-b5f1-cc928950e40f","ios":"levelo://app?vid=81cfffe2-4477-4769-b5f1-cc928950e40f"},"vehicle_type_id":"4","last_reported":1777110127,"current_range_meters":10800,"station_id":"ce4bhnp2rcd13ifvqgvg","pricing_plan_id":"cebpf4jnsgd1na2vs0mg"},{"bike_id":"6b60b3c8-da35-492c-9411-418199a97ad7","system_id":"levelo_inurba_marseille","lat":43.28491,"lon":5.4838,"is_reserved":false,"is_disabled":false,"rental_uris":{"android":"levelo://app?vid=6b60b3c8-da35-492c-9411-418199a97ad7","ios":"levelo://app?vid=6b60b3c8-da35-492c-9411-418199a97ad7"},"vehicle_type_id":"4","last_reported":1777110127,"current_range_meters":10800,"station_id":"","pricing_plan_id":"cebpf4jnsgd1na2vs0mg"},{"bike_id":"8382b8e2-42a0-4cae-8f3d-d1af83bab971","system_id":"levelo_inurba_marseille","lat":43.24645,"lon":5.38887,"is_reserved":false,"is_disabled":false,"rental_uris":{"android":"levelo://app?vid=8382b8e2-42a0-4cae-8f3d-d1af83bab971","ios":"levelo://app?vid=8382b8e2-42a0-4cae-8f3d-d1af83bab971"},"vehicle_type_id":"4","last_reported":1777110127,"current_range_meters":10800,"station_id":"ce4bhg12rcd13ifvqf60","pricing_plan_id":"cebpf4jnsgd1na2vs0mg"},{"bike_id":"9d8fccb5-c718-47ad-a39c-0d18cba7a84e","system_id":"levelo_inurba_marseille","lat":43.28607,"lon":5.37049,"is_reserved":false,"is_disabled":false,"rental_uris":{"android":"levelo://app?vid=9d8fccb5-c718-47ad-a39c-0d18cba7a84e","ios":"levelo://app?vid=9d8fccb5-c718-47ad-a39c-0d18cba7a84e"},"vehicle_type_id":"4","last_reported":1777110127,"current_range_meters":10800,"station_id":"ce4bht12rcd13ifvqi60","pricing_plan_id":"cebpf4jnsgd1na2vs0mg"},{"bike_id":"2e4ae2ba-15b3-4556-b0a3-2e10bac651b8","system_id":"levelo_inurba_marseille","lat":43.33535,"lon":5.37447,"is_reserved":false,"is_disabled":false,"rental_uris":{"android":"levelo://app?vid=2e4ae2ba-15b3-4556-b0a3-2e10bac651b8","ios":"levelo://app?vid=2e4ae2ba-15b3-4556-b0a3-2e10bac651b8"},"vehicle_type_id":"4","last_reported":1777110127,"current_range_meters":10800,"station_id":"st_d46tts09ee8s73dlu43g","pricing_plan_id":"cebpf4jnsgd1na2vs0mg"},{"bike_id":"f8bc47b0-d414-485a-9f6f-d2f9a06185ec","system_id":"levelo_inurba_marseille","lat":43.27533,"lon":5.42417,"is_reserved":false,"is_disabled":false,"rental_uris":{"android":"levelo://app?vid=f8bc47b0-d414-485a-9f6f-d2f9a06185ec","ios":"levelo://app?vid=f8bc47b0-d414-485a-9f6f-d2f9a06185ec"},"vehicle_type_id":"4","last_reported":1777110127,"current_range_meters":10800,"station_id":"ce4bhn92rcd13ifvqgrg","pricing_plan_id":"cebpf4jnsgd1na2vs0mg"},{"bike_id":"174197d4-cd42-456f-b591-e795a22cc870","system_id":"levelo_inurba_marseille","lat":43.29005,"lon":5.38684,"is_reserved":false,"is_disabled":false,"rental_uris":{"android":"levelo://app?vid=174197d4-cd42-456f-b591-e795a22cc870","ios":"levelo://app?vid=174197d4-cd42-456f-b591-e795a22cc870"},"vehicle_type_id":"4","last_reported":1777110127,"current_range_meters":10800,"station_id":"ce4bh4p2rcd13ifvqe0g","pricing_plan_id":"cebpf4jnsgd1na2vs0mg"},{"bike_id":"da777b74-9725-4dce-a8da-8ea337840652","system_id":"levelo_inurba_marseille","lat":43.21738,"lon":5.34607,"is_reserved":false,"is_disabled":false,"rental_uris":{"android":"levelo://app?vid=da777b74-9725-4dce-a8da-8ea337840652","ios":"levelo://app?vid=da777b74-9725-4dce-a8da-8ea337840652"},"vehicle_type_id":"4","last_reported":1777110127,"current_range_meters":10800,"station_id":"st_cvj6r9ubvosntc0bgbag","pricing_plan_id":"cebpf4jnsgd1na2vs0mg"},{"bike_id":"af485194-e376-4626-9b11-ae884fb1ef0c","system_id":"levelo_inurba_marseille","lat":43.28915,"lon":5.43772,"is_reserved":false,"is_disabled":false,"rental_uris":{"android":"levelo://app?vid=af485194-e376-4626-9b11-ae884fb1ef0c","ios":"levelo://app?vid=af485194-e376-4626-9b11-ae884fb1ef0c"},"vehicle_type_id":"4","last_reported":1777110127,"current_range_meters":11200,"station_id":"","pricing_plan_id":"cebpf4jnsgd1na2vs0mg"},{"bike_id":"494fd0fc-3b39-4504-a26b-321afbf22977","system_id":"levelo_inurba_marseille","lat":43.23847,"lon":5.38551,"is_reserved":false,"is_disabled":false,"rental_uris":{"android":"levelo://app?vid=494fd0fc-3b39-4504-a26b-321afbf22977","ios":"levelo://app?vid=494fd0fc-3b39-4504-a26b-321afbf22977"},"vehicle_type_id":"4","last_reported":1777110127,"current_range_meters":11200,"station_id":"","pricing_plan_id":"cebpf4jnsgd1na2vs0mg"},{"bike_id":"34dfd67b-2c48-4dc8-925d-67479ce73c68","system_id":"levelo_inurba_marseille","lat":43.31357,"lon":5.385,"is_reserved":false,"is_disabled":false,"rental_uris":{"android":"levelo://app?vid=34dfd67b-2c48-4dc8-925d-67479ce73c68","ios":"levelo://app?vid=34dfd67b-2c48-4dc8-925d-67479ce73c68"},"vehicle_type_id":"4","last_reported":1777110127,"current_range_meters":11200,"station_id":"ce4bgt92rcd13ifvqcf0","pricing_plan_id":"cebpf4jnsgd1na2vs0mg"},{"bike_id":"6378d13c-9294-47cb-a201-edcadf79aa34","system_id":"levelo_inurba_marseille","lat":43.27816,"lon":5.40694,"is_reserved":false,"is_disabled":false,"rental_uris":{"android":"levelo://app?vid=6378d13c-9294-47cb-a201-edcadf79aa34","ios":"levelo://app?vid=6378d13c-9294-47cb-a201-edcadf79aa34"},"vehicle_type_id":"4","last_reported":1777110127,"current_range_meters":11200,"station_id":"ce4bhnh2rcd13ifvqgtg","pricing_plan_id":"cebpf4jnsgd1na2vs0mg"},{"bike_id":"e7dd8318-4271-41e7-b4b0-eda1360f384e","system_id":"levelo_inurba_marseille","lat":43.30164,"lon":5.38111,"is_reserved":false,"is_disabled":false,"rental_uris":{"android":"levelo://app?vid=e7dd8318-4271-41e7-b4b0-eda1360f384e","ios":"levelo://app?vid=e7dd8318-4271-41e7-b4b0-eda1360f384e"},"vehicle_type_id":"4","last_reported":1777110127,"current_range_meters":11200,"station_id":"ce4bgjp2rcd13ifvqbh0","pricing_plan_id":"cebpf4jnsgd1na2vs0mg"},{"bike_id":"26d26955-b302-4311-88a8-057f7b19117a","system_id":"levelo_inurba_marseille","lat":43.29652,"lon":5.36063,"is_reserved":false,"is_disabled":false,"rental_uris":{"android":"levelo://app?vid=26d26955-b302-4311-88a8-057f7b19117a","ios":"levelo://app?vid=26d26955-b302-4311-88a8-057f7b19117a"},"vehicle_type_id":"4","last_reported":1777110127,"current_range_meters":11200,"station_id":"","pricing_plan_id":"cebpf4jnsgd1na2vs0mg"},{"bike_id":"77d21afc-038b-43fe-af72-fdc89a449f58","system_id":"levelo_inurba_marseille","lat":43.2738,"lon":5.3626,"is_reserved":false,"is_disabled":false,"rental_uris":{"android":"levelo://app?vid=77d21afc-038b-43fe-af72-fdc89a449f58","ios":"levelo://app?vid=77d21afc-038b-43fe-af72-fdc89a449f58"},"vehicle_type_id":"4","last_reported":1777110127,"current_range_meters":11200,"station_id":"ce4bhbh2rcd13ifvqeo0","pricing_plan_id":"cebpf4jnsgd1na2vs0mg"},{"bike_id":"b21748b2-fb24-4ee6-8e6a-c7c61264faec","system_id":"levelo_inurba_marseille","lat":43.27307,"lon":5.42122,"is_reserved":false,"is_disabled":false,"rental_uris":{"android":"levelo://app?vid=b21748b2-fb24-4ee6-8e6a-c7c61264faec","ios":"levelo://app?vid=b21748b2-fb24-4ee6-8e6a-c7c61264faec"},"vehicle_type_id":"4","last_reported":1777110127,"current_range_meters":11200,"station_id":"","pricing_plan_id":"cebpf4jnsgd1na2vs0mg"},{"bike_id":"8dc766a0-fb3c-42e7-bec1-7c1cdafa0312","system_id":"levelo_inurba_marseille","lat":43.27997,"lon":5.41658,"is_reserved":false,"is_disabled":false,"rental_uris":{"android":"levelo://app?vid=8dc766a0-fb3c-42e7-bec1-7c1cdafa0312","ios":"levelo://app?vid=8dc766a0-fb3c-42e7-bec1-7c1cdafa0312"},"vehicle_type_id":"4","last_reported":1777110127,"current_range_meters":11200,"station_id":"ce4bho12rcd13ifvqh1g","pricing_plan_id":"cebpf4jnsgd1na2vs0mg"},{"bike_id":"712f7b6a-9b57-46ff-828a-fb4259fc6160","system_id":"levelo_inurba_marseille","lat":43.30554,"lon":5.36555,"is_reserved":false,"is_disabled":false,"rental_uris":{"android":"levelo://app?vid=712f7b6a-9b57-46ff-828a-fb4259fc6160","ios":"levelo://app?vid=712f7b6a-9b57-46ff-828a-fb4259fc6160"},"vehicle_type_id":"4","last_reported":1777110127,"current_range_meters":11200,"station_id":"ce4bgs12rcd13ifvqcag","pricing_plan_id":"cebpf4jnsgd1na2vs0mg"},{"bike_id":"fd08bed3-4bcd-4c7c-9299-bff5b6dac1a6","system_id":"levelo_inurba_marseille","lat":43.30152,"lon":5.3807,"is_reserved":false,"is_disabled":false,"rental_uris":{"android":"levelo://app?vid=fd08bed3-4bcd-4c7c-9299-bff5b6dac1a6","ios":"levelo://app?vid=fd08bed3-4bcd-4c7c-9299-bff5b6dac1a6"},"vehicle_type_id":"4","last_reported":1777110127,"current_range_meters":11200,"station_id":"ce4bgjp2rcd13ifvqbh0","pricing_plan_id":"cebpf4jnsgd1na2vs0mg"},{"bike_id":"32862978-7b0f-4577-bad0-d502f59488da","system_id":"levelo_inurba_marseille","lat":43.26381,"lon":5.41069,"is_reserved":false,"is_disabled":false,"rental_uris":{"android":"levelo://app?vid=32862978-7b0f-4577-bad0-d502f59488da","ios":"levelo://app?vid=32862978-7b0f-4577-bad0-d502f59488da"},"vehicle_type_id":"4","last_reported":1777110127,"current_range_meters":11200,"station_id":"st_d4e5ca6na9uc73bfl5fg","pricing_plan_id":"cebpf4jnsgd1na2vs0mg"},{"bike_id":"566d96b8-5e9f-424c-a211-21ad768be894","system_id":"levelo_inurba_marseille","lat":43.28541,"lon":5.44096,"is_reserved":false,"is_disabled":false,"rental_uris":{"android":"levelo://app?vid=566d96b8-5e9f-424c-a211-21ad768be894","ios":"levelo://app?vid=566d96b8-5e9f-424c-a211-21ad768be894"},"vehicle_type_id":"4","last_reported":1777110127,"current_range_meters":11600,"station_id":"st_d3j3df2ikq2c7380ej80","pricing_plan_id":"cebpf4jnsgd1na2vs0mg"},{"bike_id":"acd1f09c-fd23-4a93-99ec-20f7695be683","system_id":"levelo_inurba_marseille","lat":43.28475,"lon":5.35875,"is_reserved":false,"is_disabled":false,"rental_uris":{"android":"levelo://app?vid=acd1f09c-fd23-4a93-99ec-20f7695be683","ios":"levelo://app?vid=acd1f09c-fd23-4a93-99ec-20f7695be683"},"vehicle_type_id":"4","last_reported":1777110127,"current_range_meters":11600,"station_id":"ce4bhah2rcd13ifvqei0","pricing_plan_id":"cebpf4jnsgd1na2vs0mg"},{"bike_id":"4ee37fcd-f303-49fc-b658-46f81c8b28db","system_id":"levelo_inurba_marseille","lat":43.30153,"lon":5.43108,"is_reserved":false,"is_disabled":false,"rental_uris":{"android":"levelo://app?vid=4ee37fcd-f303-49fc-b658-46f81c8b28db","ios":"levelo://app?vid=4ee37fcd-f303-49fc-b658-46f81c8b28db"},"vehicle_type_id":"4","last_reported":1777110127,"current_range_meters":11600,"station_id":"st_d3js3co5814s73ftftug","pricing_plan_id":"cebpf4jnsgd1na2vs0mg"},{"bike_id":"820a88a8-fe52-4b24-b789-2c76016e3769","system_id":"levelo_inurba_marseille","lat":43.28569,"lon":5.39488,"is_reserved":false,"is_disabled":false,"rental_uris":{"android":"levelo://app?vid=820a88a8-fe52-4b24-b789-2c76016e3769","ios":"levelo://app?vid=820a88a8-fe52-4b24-b789-2c76016e3769"},"vehicle_type_id":"4","last_reported":1777110127,"current_range_meters":11600,"station_id":"ce4bh292rcd13ifvqdg0","pricing_plan_id":"cebpf4jnsgd1na2vs0mg"},{"bike_id":"1db00e34-5de7-4dcd-8e5e-0acb9338b4b7","system_id":"levelo_inurba_marseille","lat":43.32122,"lon":5.36754,"is_reserved":false,"is_disabled":false,"rental_uris":{"android":"levelo://app?vid=1db00e34-5de7-4dcd-8e5e-0acb9338b4b7","ios":"levelo://app?vid=1db00e34-5de7-4dcd-8e5e-0acb9338b4b7"},"vehicle_type_id":"4","last_reported":1777110127,"current_range_meters":11600,"station_id":"ce4bhrh2rcd13ifvqhug","pricing_plan_id":"cebpf4jnsgd1na2vs0mg"},{"bike_id":"4951f924-201f-49d7-8951-8a5883720076","system_id":"levelo_inurba_marseille","lat":43.29032,"lon":5.38131,"is_reserved":false,"is_disabled":true,"rental_uris":{"android":"levelo://app?vid=4951f924-201f-49d7-8951-8a5883720076","ios":"levelo://app?vid=4951f924-201f-49d7-8951-8a5883720076"},"vehicle_type_id":"4","last_reported":1777110127,"current_range_meters":11600,"station_id":"ce4bh4p2rcd13ifvqe1g","pricing_plan_id":"cebpf4jnsgd1na2vs0mg"},{"bike_id":"edde7a68-84d8-4d52-822d-08dbf9522a68","system_id":"levelo_inurba_marseille","lat":43.21741,"lon":5.34603,"is_reserved":false,"is_disabled":false,"rental_uris":{"android":"levelo://app?vid=edde7a68-84d8-4d52-822d-08dbf9522a68","ios":"levelo://app?vid=edde7a68-84d8-4d52-822d-08dbf9522a68"},"vehicle_type_id":"4","last_reported":1777110127,"current_range_meters":11600,"station_id":"st_cvj6r9ubvosntc0bgbag","pricing_plan_id":"cebpf4jnsgd1na2vs0mg"},{"bike_id":"9abd8451-0e83-424f-9303-4b5447d8f129","system_id":"levelo_inurba_marseille","lat":43.27372,"lon":5.39297,"is_reserved":false,"is_disabled":false,"rental_uris":{"android":"levelo://app?vid=9abd8451-0e83-424f-9303-4b5447d8f129","ios":"levelo://app?vid=9abd8451-0e83-424f-9303-4b5447d8f129"},"vehicle_type_id":"4","last_reported":1777110127,"current_range_meters":11600,"station_id":"","pricing_plan_id":"cebpf4jnsgd1na2vs0mg"},{"bike_id":"c939d582-e58f-42be-82c3-22462bdf58a6","system_id":"levelo_inurba_marseille","lat":43.24991,"lon":5.38925,"is_reserved":false,"is_disabled":false,"rental_uris":{"android":"levelo://app?vid=c939d582-e58f-42be-82c3-22462bdf58a6","ios":"levelo://app?vid=c939d582-e58f-42be-82c3-22462bdf58a6"},"vehicle_type_id":"4","last_reported":1777110127,"current_range_meters":11600,"station_id":"ce4bhgp2rcd13ifvqfd0","pricing_plan_id":"cebpf4jnsgd1na2vs0mg"},{"bike_id":"0ea77499-097c-4ef4-b856-6cf44164077e","system_id":"levelo_inurba_marseille","lat":43.2828,"lon":5.39839,"is_reserved":false,"is_disabled":false,"rental_uris":{"android":"levelo://app?vid=0ea77499-097c-4ef4-b856-6cf44164077e","ios":"levelo://app?vid=0ea77499-097c-4ef4-b856-6cf44164077e"},"vehicle_type_id":"4","last_reported":1777110127,"current_range_meters":12000,"station_id":"","pricing_plan_id":"cebpf4jnsgd1na2vs0mg"},{"bike_id":"bee91535-8fd4-46d9-82b4-d1ffaa22017e","system_id":"levelo_inurba_marseille","lat":43.28344,"lon":5.38109,"is_reserved":false,"is_disabled":true,"rental_uris":{"android":"levelo://app?vid=bee91535-8fd4-46d9-82b4-d1ffaa22017e","ios":"levelo://app?vid=bee91535-8fd4-46d9-82b4-d1ffaa22017e"},"vehicle_type_id":"4","last_reported":1777110127,"current_range_meters":12000,"station_id":"ce4bh412rcd13ifvqdr0","pricing_plan_id":"cebpf4jnsgd1na2vs0mg"},{"bike_id":"274cda72-c543-44d0-8395-288d0a37f3ac","system_id":"levelo_inurba_marseille","lat":43.27615,"lon":5.39741,"is_reserved":false,"is_disabled":false,"rental_uris":{"android":"levelo://app?vid=274cda72-c543-44d0-8395-288d0a37f3ac","ios":"levelo://app?vid=274cda72-c543-44d0-8395-288d0a37f3ac"},"vehicle_type_id":"4","last_reported":1777110127,"current_range_meters":12000,"station_id":"","pricing_plan_id":"cebpf4jnsgd1na2vs0mg"},{"bike_id":"1dfcf1f1-35ea-41bd-912f-2401aa370a69","system_id":"levelo_inurba_marseille","lat":43.29259,"lon":5.40902,"is_reserved":false,"is_disabled":false,"rental_uris":{"android":"levelo://app?vid=1dfcf1f1-35ea-41bd-912f-2401aa370a69","ios":"levelo://app?vid=1dfcf1f1-35ea-41bd-912f-2401aa370a69"},"vehicle_type_id":"4","last_reported":1777110127,"current_range_meters":12000,"station_id":"ce4bh192rcd13ifvqdc0","pricing_plan_id":"cebpf4jnsgd1na2vs0mg"},{"bike_id":"2530e465-6544-4c4b-b845-5294907905b8","system_id":"levelo_inurba_marseille","lat":43.24669,"lon":5.38144,"is_reserved":false,"is_disabled":false,"rental_uris":{"android":"levelo://app?vid=2530e465-6544-4c4b-b845-5294907905b8","ios":"levelo://app?vid=2530e465-6544-4c4b-b845-5294907905b8"},"vehicle_type_id":"4","last_reported":1777110127,"current_range_meters":12000,"station_id":"ce4bhih2rcd13ifvqfr0","pricing_plan_id":"cebpf4jnsgd1na2vs0mg"},{"bike_id":"be3dbaca-317c-43ef-8335-8f03df566046","system_id":"levelo_inurba_marseille","lat":43.28474,"lon":5.48395,"is_reserved":false,"is_disabled":true,"rental_uris":{"android":"levelo://app?vid=be3dbaca-317c-43ef-8335-8f03df566046","ios":"levelo://app?vid=be3dbaca-317c-43ef-8335-8f03df566046"},"vehicle_type_id":"4","last_reported":1777110127,"current_range_meters":12000,"station_id":"st_d3svhcjqgbts73a3dn0g","pricing_plan_id":"cebpf4jnsgd1na2vs0mg"},{"bike_id":"0e1602ba-4eb5-4b64-9dc5-f782fa3de34a","system_id":"levelo_inurba_marseille","lat":43.30861,"lon":5.3828,"is_reserved":false,"is_disabled":false,"rental_uris":{"android":"levelo://app?vid=0e1602ba-4eb5-4b64-9dc5-f782fa3de34a","ios":"levelo://app?vid=0e1602ba-4eb5-4b64-9dc5-f782fa3de34a"},"vehicle_type_id":"4","last_reported":1777110127,"current_range_meters":12000,"station_id":"","pricing_plan_id":"cebpf4jnsgd1na2vs0mg"},{"bike_id":"3a7fec56-dca7-46d2-8e7e-cd67cf1d917f","system_id":"levelo_inurba_marseille","lat":43.27371,"lon":5.36253,"is_reserved":false,"is_disabled":false,"rental_uris":{"android":"levelo://app?vid=3a7fec56-dca7-46d2-8e7e-cd67cf1d917f","ios":"levelo://app?vid=3a7fec56-dca7-46d2-8e7e-cd67cf1d917f"},"vehicle_type_id":"4","last_reported":1777110127,"current_range_meters":12000,"station_id":"ce4bhbh2rcd13ifvqeo0","pricing_plan_id":"cebpf4jnsgd1na2vs0mg"},{"bike_id":"7ea8781a-844b-48ac-9277-eefc89277361","system_id":"levelo_inurba_marseille","lat":43.25092,"lon":5.3952,"is_reserved":false,"is_disabled":false,"rental_uris":{"android":"levelo://app?vid=7ea8781a-844b-48ac-9277-eefc89277361","ios":"levelo://app?vid=7ea8781a-844b-48ac-9277-eefc89277361"},"vehicle_type_id":"4","last_reported":1777110127,"current_range_meters":12400,"station_id":"ce4bhm12rcd13ifvqgkg","pricing_plan_id":"cebpf4jnsgd1na2vs0mg"},{"bike_id":"9e2df2bb-624d-406a-9b98-71a881ae9b43","system_id":"levelo_inurba_marseille","lat":43.31283,"lon":5.36892,"is_reserved":false,"is_disabled":false,"rental_uris":{"android":"levelo://app?vid=9e2df2bb-624d-406a-9b98-71a881ae9b43","ios":"levelo://app?vid=9e2df2bb-624d-406a-9b98-71a881ae9b43"},"vehicle_type_id":"4","last_reported":1777110127,"current_range_meters":12400,"station_id":"","pricing_plan_id":"cebpf4jnsgd1na2vs0mg"},{"bike_id":"102a91c3-3de7-47a6-912d-0db44c5dad06","system_id":"levelo_inurba_marseille","lat":43.30882,"lon":5.39632,"is_reserved":false,"is_disabled":false,"rental_uris":{"android":"levelo://app?vid=102a91c3-3de7-47a6-912d-0db44c5dad06","ios":"levelo://app?vid=102a91c3-3de7-47a6-912d-0db44c5dad06"},"vehicle_type_id":"4","last_reported":1777110127,"current_range_meters":12400,"station_id":"ce4bh012rcd13ifvqcv0","pricing_plan_id":"cebpf4jnsgd1na2vs0mg"},{"bike_id":"32d8062d-b01e-46bc-92b9-65d5fbd8fc06","system_id":"levelo_inurba_marseille","lat":43.23958,"lon":5.36625,"is_reserved":false,"is_disabled":false,"rental_uris":{"android":"levelo://app?vid=32d8062d-b01e-46bc-92b9-65d5fbd8fc06","ios":"levelo://app?vid=32d8062d-b01e-46bc-92b9-65d5fbd8fc06"},"vehicle_type_id":"4","last_reported":1777110127,"current_range_meters":12400,"station_id":"ce4bhi12rcd13ifvqfp0","pricing_plan_id":"cebpf4jnsgd1na2vs0mg"},{"bike_id":"1f13452b-ac27-48ca-bbd2-1255b0865067","system_id":"levelo_inurba_marseille","lat":43.27837,"lon":5.37932,"is_reserved":false,"is_disabled":false,"rental_uris":{"android":"levelo://app?vid=1f13452b-ac27-48ca-bbd2-1255b0865067","ios":"levelo://app?vid=1f13452b-ac27-48ca-bbd2-1255b0865067"},"vehicle_type_id":"4","last_reported":1777110127,"current_range_meters":12400,"station_id":"","pricing_plan_id":"cebpf4jnsgd1na2vs0mg"},{"bike_id":"93dabcf8-7b15-44f4-b39e-3975dbccbd7c","system_id":"levelo_inurba_marseille","lat":43.29763,"lon":5.37673,"is_reserved":false,"is_disabled":false,"rental_uris":{"android":"levelo://app?vid=93dabcf8-7b15-44f4-b39e-3975dbccbd7c","ios":"levelo://app?vid=93dabcf8-7b15-44f4-b39e-3975dbccbd7c"},"vehicle_type_id":"4","last_reported":1777110127,"current_range_meters":12400,"station_id":"ce4bgkh2rcd13ifvqbl0","pricing_plan_id":"cebpf4jnsgd1na2vs0mg"},{"bike_id":"4aa8bb6a-9efe-497d-aaae-d8a0da6976b5","system_id":"levelo_inurba_marseille","lat":43.29178,"lon":5.35803,"is_reserved":false,"is_disabled":true,"rental_uris":{"android":"levelo://app?vid=4aa8bb6a-9efe-497d-aaae-d8a0da6976b5","ios":"levelo://app?vid=4aa8bb6a-9efe-497d-aaae-d8a0da6976b5"},"vehicle_type_id":"4","last_reported":1777110127,"current_range_meters":12400,"station_id":"ce4bhb12rcd13ifvqel0","pricing_plan_id":"cebpf4jnsgd1na2vs0mg"},{"bike_id":"fb04af84-ec3a-480e-8c42-4009100bf117","system_id":"levelo_inurba_marseille","lat":43.28466,"lon":5.35894,"is_reserved":false,"is_disabled":false,"rental_uris":{"android":"levelo://app?vid=fb04af84-ec3a-480e-8c42-4009100bf117","ios":"levelo://app?vid=fb04af84-ec3a-480e-8c42-4009100bf117"},