{"last_updated":1744643427,"ttl":60,"version":"2.2","data":{"bikes":[{"bike_id":"5f560d47-018a-424e-8335-8e4c4481b59b","system_id":"levelo_inurba_marseille","lat":43.21744,"lon":5.34605,"is_reserved":false,"is_disabled":false,"rental_uris":{"android":"levelo://app?vid=5f560d47-018a-424e-8335-8e4c4481b59b","ios":"levelo://app?vid=5f560d47-018a-424e-8335-8e4c4481b59b"},"vehicle_type_id":"4","last_reported":1744643427,"current_range_meters":2800,"station_id":"st_cvj6r9ubvosntc0bgbag","pricing_plan_id":"cebpf4jnsgd1na2vs0mg"},{"bike_id":"4a0973b0-92a0-41e8-9b0d-a99e944bafe0","system_id":"levelo_inurba_marseille","lat":43.34499,"lon":5.41291,"is_reserved":false,"is_disabled":false,"rental_uris":{"android":"levelo://app?vid=4a0973b0-92a0-41e8-9b0d-a99e944bafe0","ios":"levelo://app?vid=4a0973b0-92a0-41e8-9b0d-a99e944bafe0"},"vehicle_type_id":"4","last_reported":1744643427,"current_range_meters":2800,"station_id":"","pricing_plan_id":"cebpf4jnsgd1na2vs0mg"},{"bike_id":"5b77a833-8185-45c2-9fe3-07eb40df54ca","system_id":"levelo_inurba_marseille","lat":43.33995,"lon":5.38057,"is_reserved":false,"is_disabled":false,"rental_uris":{"android":"levelo://app?vid=5b77a833-8185-45c2-9fe3-07eb40df54ca","ios":"levelo://app?vid=5b77a833-8185-45c2-9fe3-07eb40df54ca"},"vehicle_type_id":"4","last_reported":1744643427,"current_range_meters":2800,"station_id":"","pricing_plan_id":"cebpf4jnsgd1na2vs0mg"},{"bike_id":"08caa297-287a-45e4-90b9-c7ce5c4d38fc","system_id":"levelo_inurba_marseille","lat":43.29575,"lon":5.3751,"is_reserved":false,"is_disabled":false,"rental_uris":{"android":"levelo://app?vid=08caa297-287a-45e4-90b9-c7ce5c4d38fc","ios":"levelo://app?vid=08caa297-287a-45e4-90b9-c7ce5c4d38fc"},"vehicle_type_id":"4","last_reported":1744643427,"current_range_meters":3200,"station_id":"ce4bgh92rcd13ifvqb50","pricing_plan_id":"cebpf4jnsgd1na2vs0mg"},{"bike_id":"541b42e8-40c3-4f19-a38a-8a61ce004773","system_id":"levelo_inurba_marseille","lat":43.28856,"lon":5.35857,"is_reserved":false,"is_disabled":false,"rental_uris":{"android":"levelo://app?vid=541b42e8-40c3-4f19-a38a-8a61ce004773","ios":"levelo://app?vid=541b42e8-40c3-4f19-a38a-8a61ce004773"},"vehicle_type_id":"4","last_reported":1744643427,"current_range_meters":3200,"station_id":"ce4bhb12rcd13ifvqem0","pricing_plan_id":"cebpf4jnsgd1na2vs0mg"},{"bike_id":"493cde9e-7859-4c26-a2e6-f744ee5d8553","system_id":"levelo_inurba_marseille","lat":43.31493,"lon":5.36576,"is_reserved":false,"is_disabled":false,"rental_uris":{"android":"levelo://app?vid=493cde9e-7859-4c26-a2e6-f744ee5d8553","ios":"levelo://app?vid=493cde9e-7859-4c26-a2e6-f744ee5d8553"},"vehicle_type_id":"4","last_reported":1744643427,"current_range_meters":3200,"station_id":"","pricing_plan_id":"cebpf4jnsgd1na2vs0mg"},{"bike_id":"9fe9bd28-8145-45d1-a46c-6a646a74db67","system_id":"levelo_inurba_marseille","lat":43.29022,"lon":5.38641,"is_reserved":false,"is_disabled":false,"rental_uris":{"android":"levelo://app?vid=9fe9bd28-8145-45d1-a46c-6a646a74db67","ios":"levelo://app?vid=9fe9bd28-8145-45d1-a46c-6a646a74db67"},"vehicle_type_id":"4","last_reported":1744643427,"current_range_meters":3600,"station_id":"ce4bh4p2rcd13ifvqe0g","pricing_plan_id":"cebpf4jnsgd1na2vs0mg"},{"bike_id":"8dfbe558-b059-40c1-835e-c23f3412e9fa","system_id":"levelo_inurba_marseille","lat":43.30186,"lon":5.36632,"is_reserved":false,"is_disabled":false,"rental_uris":{"android":"levelo://app?vid=8dfbe558-b059-40c1-835e-c23f3412e9fa","ios":"levelo://app?vid=8dfbe558-b059-40c1-835e-c23f3412e9fa"},"vehicle_type_id":"4","last_reported":1744643427,"current_range_meters":3600,"station_id":"ce4bgrh2rcd13ifvqc8g","pricing_plan_id":"cebpf4jnsgd1na2vs0mg"},{"bike_id":"fbccfc3f-c513-4e54-b613-d1bce7c09b1d","system_id":"levelo_inurba_marseille","lat":43.2407,"lon":5.37763,"is_reserved":false,"is_disabled":false,"rental_uris":{"android":"levelo://app?vid=fbccfc3f-c513-4e54-b613-d1bce7c09b1d","ios":"levelo://app?vid=fbccfc3f-c513-4e54-b613-d1bce7c09b1d"},"vehicle_type_id":"4","last_reported":1744643427,"current_range_meters":3200,"station_id":"ce4bhnp2rcd13ifvqgvg","pricing_plan_id":"cebpf4jnsgd1na2vs0mg"},{"bike_id":"2a392410-a694-4615-8232-0fb15b4cdf57","system_id":"levelo_inurba_marseille","lat":43.295731,"lon":5.375308,"is_reserved":false,"is_disabled":false,"rental_uris":{"android":"levelo://app?vid=2a392410-a694-4615-8232-0fb15b4cdf57","ios":"levelo://app?vid=2a392410-a694-4615-8232-0fb15b4cdf57"},"vehicle_type_id":"4","last_reported":1744643427,"current_range_meters":3600,"station_id":"ce4bh192rcd13ifvqdc0","pricing_plan_id":"cebpf4jnsgd1na2vs0mg"},{"bike_id":"6db93bc8-c7a5-430b-85c6-1725072957c9","system_id":"levelo_inurba_marseille","lat":43.30051,"lon":5.37729,"is_reserved":false,"is_disabled":false,"rental_uris":{"android":"levelo://app?vid=6db93bc8-c7a5-430b-85c6-1725072957c9","ios":"levelo://app?vid=6db93bc8-c7a5-430b-85c6-1725072957c9"},"vehicle_type_id":"4","last_reported":1744643427,"current_range_meters":4000,"station_id":"","pricing_plan_id":"cebpf4jnsgd1na2vs0mg"},{"bike_id":"3d16c2e3-7c12-4342-883a-029e0fc16b05","system_id":"levelo_inurba_marseille","lat":43.31064,"lon":5.37122,"is_reserved":false,"is_disabled":false,"rental_uris":{"android":"levelo://app?vid=3d16c2e3-7c12-4342-883a-029e0fc16b05","ios":"levelo://app?vid=3d16c2e3-7c12-4342-883a-029e0fc16b05"},"vehicle_type_id":"4","last_reported":1744643427,"current_range_meters":4000,"station_id":"","pricing_plan_id":"cebpf4jnsgd1na2vs0mg"},{"bike_id":"822b6a39-f2b8-4f39-9870-fec0e907f8f6","system_id":"levelo_inurba_marseille","lat":43.26585,"lon":5.3899,"is_reserved":false,"is_disabled":false,"rental_uris":{"android":"levelo://app?vid=822b6a39-f2b8-4f39-9870-fec0e907f8f6","ios":"levelo://app?vid=822b6a39-f2b8-4f39-9870-fec0e907f8f6"},"vehicle_type_id":"4","last_reported":1744643427,"current_range_meters":4000,"station_id":"ce4bhe12rcd13ifvqf30","pricing_plan_id":"cebpf4jnsgd1na2vs0mg"},{"bike_id":"944bddab-9f41-4da7-80e2-b3e803e6b9a5","system_id":"levelo_inurba_marseille","lat":43.21203,"lon":5.35075,"is_reserved":false,"is_disabled":false,"rental_uris":{"android":"levelo://app?vid=944bddab-9f41-4da7-80e2-b3e803e6b9a5","ios":"levelo://app?vid=944bddab-9f41-4da7-80e2-b3e803e6b9a5"},"vehicle_type_id":"4","last_reported":1744643427,"current_range_meters":4000,"station_id":"st_cvj6sg6p6f1abm77japg","pricing_plan_id":"cebpf4jnsgd1na2vs0mg"},{"bike_id":"4f38e127-be9f-468e-8871-e9cd4f365dca","system_id":"levelo_inurba_marseille","lat":43.24784,"lon":5.4118,"is_reserved":false,"is_disabled":false,"rental_uris":{"android":"levelo://app?vid=4f38e127-be9f-468e-8871-e9cd4f365dca","ios":"levelo://app?vid=4f38e127-be9f-468e-8871-e9cd4f365dca"},"vehicle_type_id":"4","last_reported":1744643427,"current_range_meters":4400,"station_id":"","pricing_plan_id":"cebpf4jnsgd1na2vs0mg"},{"bike_id":"4af7306e-bbae-441d-a260-76098fee2a79","system_id":"levelo_inurba_marseille","lat":43.29267,"lon":5.40894,"is_reserved":false,"is_disabled":false,"rental_uris":{"android":"levelo://app?vid=4af7306e-bbae-441d-a260-76098fee2a79","ios":"levelo://app?vid=4af7306e-bbae-441d-a260-76098fee2a79"},"vehicle_type_id":"4","last_reported":1744643427,"current_range_meters":4400,"station_id":"ce4bh192rcd13ifvqdc0","pricing_plan_id":"cebpf4jnsgd1na2vs0mg"},{"bike_id":"49c83fe9-f9f2-4e2f-8066-5f58e0bee74e","system_id":"levelo_inurba_marseille","lat":43.23156,"lon":5.43708,"is_reserved":false,"is_disabled":false,"rental_uris":{"android":"levelo://app?vid=49c83fe9-f9f2-4e2f-8066-5f58e0bee74e","ios":"levelo://app?vid=49c83fe9-f9f2-4e2f-8066-5f58e0bee74e"},"vehicle_type_id":"4","last_reported":1744643427,"current_range_meters":4400,"station_id":"ce4bhmp2rcd13ifvqgog","pricing_plan_id":"cebpf4jnsgd1na2vs0mg"},{"bike_id":"8466ab35-c344-466d-b1ee-14b21cfd4583","system_id":"levelo_inurba_marseille","lat":43.28671,"lon":5.38669,"is_reserved":false,"is_disabled":false,"rental_uris":{"android":"levelo://app?vid=8466ab35-c344-466d-b1ee-14b21cfd4583","ios":"levelo://app?vid=8466ab35-c344-466d-b1ee-14b21cfd4583"},"vehicle_type_id":"4","last_reported":1744643427,"current_range_meters":4400,"station_id":"ce4bh492rcd13ifvqdug","pricing_plan_id":"cebpf4jnsgd1na2vs0mg"},{"bike_id":"d7e3fdbc-39b4-4f60-b140-f1cdf480c270","system_id":"levelo_inurba_marseille","lat":43.283612,"lon":5.381048,"is_reserved":false,"is_disabled":false,"rental_uris":{"android":"levelo://app?vid=d7e3fdbc-39b4-4f60-b140-f1cdf480c270","ios":"levelo://app?vid=d7e3fdbc-39b4-4f60-b140-f1cdf480c270"},"vehicle_type_id":"4","last_reported":1744643427,"current_range_meters":4800,"station_id":"ce4bh412rcd13ifvqdr0","pricing_plan_id":"cebpf4jnsgd1na2vs0mg"},{"bike_id":"71c3a4a3-7c4f-491e-b152-29348eaf6241","system_id":"levelo_inurba_marseille","lat":43.29569,"lon":5.39974,"is_reserved":false,"is_disabled":false,"rental_uris":{"android":"levelo://app?vid=71c3a4a3-7c4f-491e-b152-29348eaf6241","ios":"levelo://app?vid=71c3a4a3-7c4f-491e-b152-29348eaf6241"},"vehicle_type_id":"4","last_reported":1744643427,"current_range_meters":4800,"station_id":"ce4bh312rcd13ifvqdj0","pricing_plan_id":"cebpf4jnsgd1na2vs0mg"},{"bike_id":"3e98c1b9-de71-497a-ae3a-31921668ab34","system_id":"levelo_inurba_marseille","lat":43.29168,"lon":5.37171,"is_reserved":false,"is_disabled":false,"rental_uris":{"android":"levelo://app?vid=3e98c1b9-de71-497a-ae3a-31921668ab34","ios":"levelo://app?vid=3e98c1b9-de71-497a-ae3a-31921668ab34"},"vehicle_type_id":"4","last_reported":1744643427,"current_range_meters":4800,"station_id":"ce4bha92rcd13ifvqeh0","pricing_plan_id":"cebpf4jnsgd1na2vs0mg"},{"bike_id":"09e637f0-af02-4c3a-a0b0-e525e44a452e","system_id":"levelo_inurba_marseille","lat":43.29196,"lon":5.39318,"is_reserved":false,"is_disabled":false,"rental_uris":{"android":"levelo://app?vid=09e637f0-af02-4c3a-a0b0-e525e44a452e","ios":"levelo://app?vid=09e637f0-af02-4c3a-a0b0-e525e44a452e"},"vehicle_type_id":"4","last_reported":1744643427,"current_range_meters":5600,"station_id":"ce4bh192rcd13ifvqdd0","pricing_plan_id":"cebpf4jnsgd1na2vs0mg"},{"bike_id":"76450c2c-888f-4d08-a5c0-d825237615aa","system_id":"levelo_inurba_marseille","lat":43.2723,"lon":5.42313,"is_reserved":false,"is_disabled":false,"rental_uris":{"android":"levelo://app?vid=76450c2c-888f-4d08-a5c0-d825237615aa","ios":"levelo://app?vid=76450c2c-888f-4d08-a5c0-d825237615aa"},"vehicle_type_id":"4","last_reported":1744643427,"current_range_meters":6000,"station_id":"","pricing_plan_id":"cebpf4jnsgd1na2vs0mg"},{"bike_id":"bed57c8c-9582-431a-b58f-e7a08533b07e","system_id":"levelo_inurba_marseille","lat":43.26213,"lon":5.37448,"is_reserved":false,"is_disabled":false,"rental_uris":{"android":"levelo://app?vid=bed57c8c-9582-431a-b58f-e7a08533b07e","ios":"levelo://app?vid=bed57c8c-9582-431a-b58f-e7a08533b07e"},"vehicle_type_id":"4","last_reported":1744643427,"current_range_meters":6000,"station_id":"ce4bhgp2rcd13ifvqfc0","pricing_plan_id":"cebpf4jnsgd1na2vs0mg"},{"bike_id":"42efeefc-8eb3-4140-8a1c-0e8737ebce12","system_id":"levelo_inurba_marseille","lat":43.29031,"lon":5.38648,"is_reserved":false,"is_disabled":false,"rental_uris":{"android":"levelo://app?vid=42efeefc-8eb3-4140-8a1c-0e8737ebce12","ios":"levelo://app?vid=42efeefc-8eb3-4140-8a1c-0e8737ebce12"},"vehicle_type_id":"4","last_reported":1744643427,"current_range_meters":6000,"station_id":"ce4bh4p2rcd13ifvqe0g","pricing_plan_id":"cebpf4jnsgd1na2vs0mg"},{"bike_id":"a8b89d78-2450-42d8-855d-8566c79069ad","system_id":"levelo_inurba_marseille","lat":43.32051,"lon":5.41583,"is_reserved":false,"is_disabled":false,"rental_uris":{"android":"levelo://app?vid=a8b89d78-2450-42d8-855d-8566c79069ad","ios":"levelo://app?vid=a8b89d78-2450-42d8-855d-8566c79069ad"},"vehicle_type_id":"4","last_reported":1744643427,"current_range_meters":6000,"station_id":"ce4bhq92rcd13ifvqhkg","pricing_plan_id":"cebpf4jnsgd1na2vs0mg"},{"bike_id":"68db6e6b-5e51-4996-aa6f-f62a92f3669a","system_id":"levelo_inurba_marseille","lat":43.2439,"lon":5.3706,"is_reserved":false,"is_disabled":false,"rental_uris":{"android":"levelo://app?vid=68db6e6b-5e51-4996-aa6f-f62a92f3669a","ios":"levelo://app?vid=68db6e6b-5e51-4996-aa6f-f62a92f3669a"},"vehicle_type_id":"4","last_reported":1744643427,"current_range_meters":6000,"station_id":"ce4bhhh2rcd13ifvqfk0","pricing_plan_id":"cebpf4jnsgd1na2vs0mg"},{"bike_id":"ff452e86-36c5-44d0-8447-ffc19af79eb4","system_id":"levelo_inurba_marseille","lat":43.26215,"lon":5.3744,"is_reserved":false,"is_disabled":false,"rental_uris":{"android":"levelo://app?vid=ff452e86-36c5-44d0-8447-ffc19af79eb4","ios":"levelo://app?vid=ff452e86-36c5-44d0-8447-ffc19af79eb4"},"vehicle_type_id":"4","last_reported":1744643427,"current_range_meters":6000,"station_id":"ce4bhgp2rcd13ifvqfc0","pricing_plan_id":"cebpf4jnsgd1na2vs0mg"},{"bike_id":"d32a9f6b-42aa-4f6d-973e-d13424e46a2d","system_id":"levelo_inurba_marseille","lat":43.275238,"lon":5.384446,"is_reserved":false,"is_disabled":false,"rental_uris":{"android":"levelo://app?vid=d32a9f6b-42aa-4f6d-973e-d13424e46a2d","ios":"levelo://app?vid=d32a9f6b-42aa-4f6d-973e-d13424e46a2d"},"vehicle_type_id":"4","last_reported":1744643427,"current_range_meters":6400,"station_id":"ce4bhh92rcd13ifvqfi0","pricing_plan_id":"cebpf4jnsgd1na2vs0mg"},{"bike_id":"9580c18a-de90-49af-ba85-0d0df003eb9b","system_id":"levelo_inurba_marseille","lat":43.278816,"lon":5.380501,"is_reserved":false,"is_disabled":false,"rental_uris":{"android":"levelo://app?vid=9580c18a-de90-49af-ba85-0d0df003eb9b","ios":"levelo://app?vid=9580c18a-de90-49af-ba85-0d0df003eb9b"},"vehicle_type_id":"4","last_reported":1744643427,"current_range_meters":6400,"station_id":"ce4bhf92rcd13ifvqf50","pricing_plan_id":"cebpf4jnsgd1na2vs0mg"},{"bike_id":"e8a97774-4d0d-433b-8cc1-c99e33568527","system_id":"levelo_inurba_marseille","lat":43.25003,"lon":5.38912,"is_reserved":false,"is_disabled":false,"rental_uris":{"android":"levelo://app?vid=e8a97774-4d0d-433b-8cc1-c99e33568527","ios":"levelo://app?vid=e8a97774-4d0d-433b-8cc1-c99e33568527"},"vehicle_type_id":"4","last_reported":1744643427,"current_range_meters":6800,"station_id":"ce4bhgp2rcd13ifvqfd0","pricing_plan_id":"cebpf4jnsgd1na2vs0mg"},{"bike_id":"ab9957a0-7ac8-4fae-b223-d2816369989e","system_id":"levelo_inurba_marseille","lat":43.27554,"lon":5.38432,"is_reserved":false,"is_disabled":false,"rental_uris":{"android":"levelo://app?vid=ab9957a0-7ac8-4fae-b223-d2816369989e","ios":"levelo://app?vid=ab9957a0-7ac8-4fae-b223-d2816369989e"},"vehicle_type_id":"4","last_reported":1744643427,"current_range_meters":6800,"station_id":"ce4bhh92rcd13ifvqfi0","pricing_plan_id":"cebpf4jnsgd1na2vs0mg"},{"bike_id":"9da78eb3-8030-47f2-8edc-95b5d5199054","system_id":"levelo_inurba_marseille","lat":43.2721,"lon":5.39174,"is_reserved":false,"is_disabled":false,"rental_uris":{"android":"levelo://app?vid=9da78eb3-8030-47f2-8edc-95b5d5199054","ios":"levelo://app?vid=9da78eb3-8030-47f2-8edc-95b5d5199054"},"vehicle_type_id":"4","last_reported":1744643427,"current_range_meters":6800,"station_id":"ce4bhhp2rcd13ifvqfm0","pricing_plan_id":"cebpf4jnsgd1na2vs0mg"},{"bike_id":"efb390de-76e5-4f10-b199-ec8bd8b6fa62","system_id":"levelo_inurba_marseille","lat":43.29273,"lon":5.36847,"is_reserved":false,"is_disabled":false,"rental_uris":{"android":"levelo://app?vid=efb390de-76e5-4f10-b199-ec8bd8b6fa62","ios":"levelo://app?vid=efb390de-76e5-4f10-b199-ec8bd8b6fa62"},"vehicle_type_id":"4","last_reported":1744643427,"current_range_meters":6800,"station_id":"ce4bhbp2rcd13ifvqesg","pricing_plan_id":"cebpf4jnsgd1na2vs0mg"},{"bike_id":"d6f99a43-6865-41da-9bbe-7348704b8b2c","system_id":"levelo_inurba_marseille","lat":43.29266,"lon":5.38447,"is_reserved":false,"is_disabled":false,"rental_uris":{"android":"levelo://app?vid=d6f99a43-6865-41da-9bbe-7348704b8b2c","ios":"levelo://app?vid=d6f99a43-6865-41da-9bbe-7348704b8b2c"},"vehicle_type_id":"4","last_reported":1744643427,"current_range_meters":6800,"station_id":"ce4bh692rcd13ifvqea0","pricing_plan_id":"cebpf4jnsgd1na2vs0mg"},{"bike_id":"b55dd5e7-54b2-4035-b945-7b626dd7afc7","system_id":"levelo_inurba_marseille","lat":43.28003,"lon":5.40604,"is_reserved":false,"is_disabled":false,"rental_uris":{"android":"levelo://app?vid=b55dd5e7-54b2-4035-b945-7b626dd7afc7","ios":"levelo://app?vid=b55dd5e7-54b2-4035-b945-7b626dd7afc7"},"vehicle_type_id":"4","last_reported":1744643427,"current_range_meters":7200,"station_id":"","pricing_plan_id":"cebpf4jnsgd1na2vs0mg"},{"bike_id":"27d78022-974d-4036-b9f8-6a3c178bbc61","system_id":"levelo_inurba_marseille","lat":43.31083,"lon":5.42438,"is_reserved":false,"is_disabled":false,"rental_uris":{"android":"levelo://app?vid=27d78022-974d-4036-b9f8-6a3c178bbc61","ios":"levelo://app?vid=27d78022-974d-4036-b9f8-6a3c178bbc61"},"vehicle_type_id":"4","last_reported":1744643427,"current_range_meters":7200,"station_id":"ce4bhp92rcd13ifvqhag","pricing_plan_id":"cebpf4jnsgd1na2vs0mg"},{"bike_id":"7edbb987-0ce8-498a-8112-1f7bd6ec34d8","system_id":"levelo_inurba_marseille","lat":43.26821,"lon":5.40263,"is_reserved":false,"is_disabled":false,"rental_uris":{"android":"levelo://app?vid=7edbb987-0ce8-498a-8112-1f7bd6ec34d8","ios":"levelo://app?vid=7edbb987-0ce8-498a-8112-1f7bd6ec34d8"},"vehicle_type_id":"4","last_reported":1744643427,"current_range_meters":7200,"station_id":"ce501612rcd8frsf0b60","pricing_plan_id":"cebpf4jnsgd1na2vs0mg"},{"bike_id":"bfe80dbd-d07b-4245-abf1-812b0a687d54","system_id":"levelo_inurba_marseille","lat":43.2649,"lon":5.39549,"is_reserved":false,"is_disabled":false,"rental_uris":{"android":"levelo://app?vid=bfe80dbd-d07b-4245-abf1-812b0a687d54","ios":"levelo://app?vid=bfe80dbd-d07b-4245-abf1-812b0a687d54"},"vehicle_type_id":"4","last_reported":1744643427,"current_range_meters":7200,"station_id":"ce4bhi12rcd13ifvqfq0","pricing_plan_id":"cebpf4jnsgd1na2vs0mg"},{"bike_id":"d7d7167d-20ac-4875-a3c5-a8833bdbc5bf","system_id":"levelo_inurba_marseille","lat":43.29509,"lon":5.37503,"is_reserved":false,"is_disabled":false,"rental_uris":{"android":"levelo://app?vid=d7d7167d-20ac-4875-a3c5-a8833bdbc5bf","ios":"levelo://app?vid=d7d7167d-20ac-4875-a3c5-a8833bdbc5bf"},"vehicle_type_id":"4","last_reported":1744643427,"current_range_meters":8000,"station_id":"ce4bgkp2rcd13ifvqbmg","pricing_plan_id":"cebpf4jnsgd1na2vs0mg"},{"bike_id":"95fdbfa4-a6b8-4337-a5ec-cc17972b5c6b","system_id":"levelo_inurba_marseille","lat":43.27053,"lon":5.4026,"is_reserved":false,"is_disabled":false,"rental_uris":{"android":"levelo://app?vid=95fdbfa4-a6b8-4337-a5ec-cc17972b5c6b","ios":"levelo://app?vid=95fdbfa4-a6b8-4337-a5ec-cc17972b5c6b"},"vehicle_type_id":"4","last_reported":1744643427,"current_range_meters":8000,"station_id":"ce4bhk92rcd13ifvqgc0","pricing_plan_id":"cebpf4jnsgd1na2vs0mg"},{"bike_id":"c172896f-821c-4626-9d88-42034d360740","system_id":"levelo_inurba_marseille","lat":43.28005,"lon":5.40017,"is_reserved":false,"is_disabled":false,"rental_uris":{"android":"levelo://app?vid=c172896f-821c-4626-9d88-42034d360740","ios":"levelo://app?vid=c172896f-821c-4626-9d88-42034d360740"},"vehicle_type_id":"4","last_reported":1744643427,"current_range_meters":8400,"station_id":"ce4bho92rcd13ifvqh4g","pricing_plan_id":"cebpf4jnsgd1na2vs0mg"},{"bike_id":"eba3b291-e8d8-44f8-9326-40830fbd26d3","system_id":"levelo_inurba_marseille","lat":43.24181,"lon":5.39727,"is_reserved":false,"is_disabled":false,"rental_uris":{"android":"levelo://app?vid=eba3b291-e8d8-44f8-9326-40830fbd26d3","ios":"levelo://app?vid=eba3b291-e8d8-44f8-9326-40830fbd26d3"},"vehicle_type_id":"4","last_reported":1744643427,"current_range_meters":8800,"station_id":"ce4bhn12rcd13ifvqgpg","pricing_plan_id":"cebpf4jnsgd1na2vs0mg"},{"bike_id":"1c67cffd-8263-487f-8e02-98783cf9386b","system_id":"levelo_inurba_marseille","lat":43.287205,"lon":5.379405,"is_reserved":false,"is_disabled":false,"rental_uris":{"android":"levelo://app?vid=1c67cffd-8263-487f-8e02-98783cf9386b","ios":"levelo://app?vid=1c67cffd-8263-487f-8e02-98783cf9386b"},"vehicle_type_id":"4","last_reported":1744643427,"current_range_meters":8800,"station_id":"ce4bh9p2rcd13ifvqec0","pricing_plan_id":"cebpf4jnsgd1na2vs0mg"},{"bike_id":"1bc800d7-3185-4473-9763-09c0ff99a8d4","system_id":"levelo_inurba_marseille","lat":43.30649,"lon":5.40096,"is_reserved":false,"is_disabled":false,"rental_uris":{"android":"levelo://app?vid=1bc800d7-3185-4473-9763-09c0ff99a8d4","ios":"levelo://app?vid=1bc800d7-3185-4473-9763-09c0ff99a8d4"},"vehicle_type_id":"4","last_reported":1744643427,"current_range_meters":9200,"station_id":"ce4bh112rcd13ifvqda0","pricing_plan_id":"cebpf4jnsgd1na2vs0mg"},{"bike_id":"173bf500-cc9b-40ec-8b86-21221701208b","system_id":"levelo_inurba_marseille","lat":43.2804,"lon":5.36942,"is_reserved":false,"is_disabled":false,"rental_uris":{"android":"levelo://app?vid=173bf500-cc9b-40ec-8b86-21221701208b","ios":"levelo://app?vid=173bf500-cc9b-40ec-8b86-21221701208b"},"vehicle_type_id":"4","last_reported":1744643427,"current_range_meters":9600,"station_id":"ce4bha12rcd13ifvqef0","pricing_plan_id":"cebpf4jnsgd1na2vs0mg"},{"bike_id":"7cf6904e-9dd1-4f1e-b7ca-977ba5bea482","system_id":"levelo_inurba_marseille","lat":43.28469,"lon":5.3856,"is_reserved":false,"is_disabled":false,"rental_uris":{"android":"levelo://app?vid=7cf6904e-9dd1-4f1e-b7ca-977ba5bea482","ios":"levelo://app?vid=7cf6904e-9dd1-4f1e-b7ca-977ba5bea482"},"vehicle_type_id":"4","last_reported":1744643427,"current_range_meters":9600,"station_id":"ce4bh8p2rcd13ifvqeb0","pricing_plan_id":"cebpf4jnsgd1na2vs0mg"},{"bike_id":"5cacdac6-936a-44c6-9e06-3d5924e24ab3","system_id":"levelo_inurba_marseille","lat":43.28651,"lon":5.35413,"is_reserved":false,"is_disabled":false,"rental_uris":{"android":"levelo://app?vid=5cacdac6-936a-44c6-9e06-3d5924e24ab3","ios":"levelo://app?vid=5cacdac6-936a-44c6-9e06-3d5924e24ab3"},"vehicle_type_id":"4","last_reported":1744643427,"current_range_meters":9600,"station_id":"ce4bhbh2rcd13ifvqepg","pricing_plan_id":"cebpf4jnsgd1na2vs0mg"},{"bike_id":"2e12a9c8-c42a-473b-aca6-98520cf90aef","system_id":"levelo_inurba_marseille","lat":43.30237,"lon":5.40143,"is_reserved":false,"is_disabled":false,"rental_uris":{"android":"levelo://app?vid=2e12a9c8-c42a-473b-aca6-98520cf90aef","ios":"levelo://app?vid=2e12a9c8-c42a-473b-aca6-98520cf90aef"},"vehicle_type_id":"4","last_reported":1744643427,"current_range_meters":9600,"station_id":"ce4bh012rcd13ifvqd10","pricing_plan_id":"cebpf4jnsgd1na2vs0mg"},{"bike_id":"1642cd97-e408-47c0-b17d-ecef2e949b2a","system_id":"levelo_inurba_marseille","lat":43.296836,"lon":5.372872,"is_reserved":false,"is_disabled":false,"rental_uris":{"android":"levelo://app?vid=1642cd97-e408-47c0-b17d-ecef2e949b2a","ios":"levelo://app?vid=1642cd97-e408-47c0-b17d-ecef2e949b2a"},"vehicle_type_id":"4","last_reported":1744643427,"current_range_meters":9600,"station_id":"ce4bgk12rcd13ifvqbj0","pricing_plan_id":"cebpf4jnsgd1na2vs0mg"},{"bike_id":"c798fce4-f453-40f6-9acd-c299a779b499","system_id":"levelo_inurba_marseille","lat":43.29971,"lon":5.38498,"is_reserved":false,"is_disabled":false,"rental_uris":{"android":"levelo://app?vid=c798fce4-f453-40f6-9acd-c299a779b499","ios":"levelo://app?vid=c798fce4-f453-40f6-9acd-c299a779b499"},"vehicle_type_id":"4","last_reported":1744643427,"current_range_meters":9600,"station_id":"ce4bgj92rcd13ifvqbd0","pricing_plan_id":"cebpf4jnsgd1na2vs0mg"},{"bike_id":"52467ef2-bb23-4d5a-aebd-2782338dc161","system_id":"levelo_inurba_marseille","lat":43.21196,"lon":5.35071,"is_reserved":false,"is_disabled":false,"rental_uris":{"android":"levelo://app?vid=52467ef2-bb23-4d5a-aebd-2782338dc161","ios":"levelo://app?vid=52467ef2-bb23-4d5a-aebd-2782338dc161"},"vehicle_type_id":"4","last_reported":1744643427,"current_range_meters":9600,"station_id":"st_cvj6sg6p6f1abm77japg","pricing_plan_id":"cebpf4jnsgd1na2vs0mg"},{"bike_id":"3d70666c-b754-4d04-a47c-bbc8db7cba1b","system_id":"levelo_inurba_marseille","lat":43.30252,"lon":5.39998,"is_reserved":false,"is_disabled":false,"rental_uris":{"android":"levelo://app?vid=3d70666c-b754-4d04-a47c-bbc8db7cba1b","ios":"levelo://app?vid=3d70666c-b754-4d04-a47c-bbc8db7cba1b"},"vehicle_type_id":"4","last_reported":1744643427,"current_range_meters":9600,"station_id":"ce4bgvh2rcd13ifvqcs0","pricing_plan_id":"cebpf4jnsgd1na2vs0mg"},{"bike_id":"e931a8f5-1078-4a04-a56d-8cfff48676c5","system_id":"levelo_inurba_marseille","lat":43.26944,"lon":5.40266,"is_reserved":false,"is_disabled":true,"rental_uris":{"android":"levelo://app?vid=e931a8f5-1078-4a04-a56d-8cfff48676c5","ios":"levelo://app?vid=e931a8f5-1078-4a04-a56d-8cfff48676c5"},"vehicle_type_id":"4","last_reported":1744643427,"current_range_meters":10000,"station_id":"cjm6bp8fraef2m0cb0m0","pricing_plan_id":"cebpf4jnsgd1na2vs0mg"},{"bike_id":"0c7749e7-7b5c-4fdd-a511-9d72ce60594a","system_id":"levelo_inurba_marseille","lat":43.32032,"lon":5.41589,"is_reserved":false,"is_disabled":false,"rental_uris":{"android":"levelo://app?vid=0c7749e7-7b5c-4fdd-a511-9d72ce60594a","ios":"levelo://app?vid=0c7749e7-7b5c-4fdd-a511-9d72ce60594a"},"vehicle_type_id":"4","last_reported":1744643427,"current_range_meters":10000,"station_id":"ce4bhq92rcd13ifvqhkg","pricing_plan_id":"cebpf4jnsgd1na2vs0mg"},{"bike_id":"dfd4fe4a-5859-4510-a5b5-b9432548a11f","system_id":"levelo_inurba_marseille","lat":43.29372,"lon":5.3784,"is_reserved":false,"is_disabled":false,"rental_uris":{"android":"levelo://app?vid=dfd4fe4a-5859-4510-a5b5-b9432548a11f","ios":"levelo://app?vid=dfd4fe4a-5859-4510-a5b5-b9432548a11f"},"vehicle_type_id":"4","last_reported":1744643427,"current_range_meters":10000,"station_id":"ce4bgjh2rcd13ifvqbf0","pricing_plan_id":"cebpf4jnsgd1na2vs0mg"},{"bike_id":"7cc2947c-8cb6-4386-b1d2-36189be2deaf","system_id":"levelo_inurba_marseille","lat":43.28344,"lon":5.38106,"is_reserved":false,"is_disabled":false,"rental_uris":{"android":"levelo://app?vid=7cc2947c-8cb6-4386-b1d2-36189be2deaf","ios":"levelo://app?vid=7cc2947c-8cb6-4386-b1d2-36189be2deaf"},"vehicle_type_id":"4","last_reported":1744643427,"current_range_meters":10000,"station_id":"ce4bh412rcd13ifvqdr0","pricing_plan_id":"cebpf4jnsgd1na2vs0mg"},{"bike_id":"74d079f4-9b01-4a67-beac-304f154af3c8","system_id":"levelo_inurba_marseille","lat":43.29016,"lon":5.38128,"is_reserved":false,"is_disabled":false,"rental_uris":{"android":"levelo://app?vid=74d079f4-9b01-4a67-beac-304f154af3c8","ios":"levelo://app?vid=74d079f4-9b01-4a67-beac-304f154af3c8"},"vehicle_type_id":"4","last_reported":1744643427,"current_range_meters":10000,"station_id":"ce4bh4p2rcd13ifvqe1g","pricing_plan_id":"cebpf4jnsgd1na2vs0mg"},{"bike_id":"b15a0a56-53b2-45f5-8a4b-be22b6996ecc","system_id":"levelo_inurba_marseille","lat":43.28614,"lon":5.351,"is_reserved":false,"is_disabled":false,"rental_uris":{"android":"levelo://app?vid=b15a0a56-53b2-45f5-8a4b-be22b6996ecc","ios":"levelo://app?vid=b15a0a56-53b2-45f5-8a4b-be22b6996ecc"},"vehicle_type_id":"4","last_reported":1744643427,"current_range_meters":10000,"station_id":"ce4bhch2rcd13ifvqeug","pricing_plan_id":"cebpf4jnsgd1na2vs0mg"},{"bike_id":"ce851968-e822-4e8e-a120-b48b2d8ab0b2","system_id":"levelo_inurba_marseille","lat":43.2799,"lon":5.41664,"is_reserved":false,"is_disabled":false,"rental_uris":{"android":"levelo://app?vid=ce851968-e822-4e8e-a120-b48b2d8ab0b2","ios":"levelo://app?vid=ce851968-e822-4e8e-a120-b48b2d8ab0b2"},"vehicle_type_id":"4","last_reported":1744643427,"current_range_meters":10800,"station_id":"ce4bho12rcd13ifvqh1g","pricing_plan_id":"cebpf4jnsgd1na2vs0mg"},{"bike_id":"1e2ee492-e38a-4d39-8311-044521e09d28","system_id":"levelo_inurba_marseille","lat":43.28615,"lon":5.35103,"is_reserved":false,"is_disabled":false,"rental_uris":{"android":"levelo://app?vid=1e2ee492-e38a-4d39-8311-044521e09d28","ios":"levelo://app?vid=1e2ee492-e38a-4d39-8311-044521e09d28"},"vehicle_type_id":"4","last_reported":1744643427,"current_range_meters":10800,"station_id":"ce4bhch2rcd13ifvqeug","pricing_plan_id":"cebpf4jnsgd1na2vs0mg"},{"bike_id":"2bbc158d-703c-46d1-bf5a-fac4d00f1415","system_id":"levelo_inurba_marseille","lat":43.2559,"lon":5.38225,"is_reserved":false,"is_disabled":false,"rental_uris":{"android":"levelo://app?vid=2bbc158d-703c-46d1-bf5a-fac4d00f1415","ios":"levelo://app?vid=2bbc158d-703c-46d1-bf5a-fac4d00f1415"},"vehicle_type_id":"4","last_reported":1744643427,"current_range_meters":10800,"station_id":"ce4bhih2rcd13ifvqfs0","pricing_plan_id":"cebpf4jnsgd1na2vs0mg"},{"bike_id":"f16b4c95-33cd-4dfc-98fa-64b7274bbb69","system_id":"levelo_inurba_marseille","lat":43.29006,"lon":5.35615,"is_reserved":false,"is_disabled":false,"rental_uris":{"android":"levelo://app?vid=f16b4c95-33cd-4dfc-98fa-64b7274bbb69","ios":"levelo://app?vid=f16b4c95-33cd-4dfc-98fa-64b7274bbb69"},"vehicle_type_id":"4","last_reported":1744643427,"current_range_meters":11200,"station_id":"ce4bhb92rcd13ifvqen0","pricing_plan_id":"cebpf4jnsgd1na2vs0mg"},{"bike_id":"34d5f126-6de4-46a2-babf-1c56fe393a28","system_id":"levelo_inurba_marseille","lat":43.29963,"lon":5.38491,"is_reserved":false,"is_disabled":false,"rental_uris":{"android":"levelo://app?vid=34d5f126-6de4-46a2-babf-1c56fe393a28","ios":"levelo://app?vid=34d5f126-6de4-46a2-babf-1c56fe393a28"},"vehicle_type_id":"4","last_reported":1744643427,"current_range_meters":11200,"station_id":"ce4bgj92rcd13ifvqbd0","pricing_plan_id":"cebpf4jnsgd1na2vs0mg"},{"bike_id":"fa18184b-6168-4f96-ac54-1136ccfaa0e5","system_id":"levelo_inurba_marseille","lat":43.30336,"lon":5.40429,"is_reserved":false,"is_disabled":false,"rental_uris":{"android":"levelo://app?vid=fa18184b-6168-4f96-ac54-1136ccfaa0e5","ios":"levelo://app?vid=fa18184b-6168-4f96-ac54-1136ccfaa0e5"},"vehicle_type_id":"4","last_reported":1744643427,"current_range_meters":11200,"station_id":"ce4bh012rcd13ifvqd10","pricing_plan_id":"cebpf4jnsgd1na2vs0mg"},{"bike_id":"188ab4ad-7c66-4e1d-a98f-3fa9b7acddd3","system_id":"levelo_inurba_marseille","lat":43.30898,"lon":5.37201,"is_reserved":false,"is_disabled":false,"rental_uris":{"android":"levelo://app?vid=188ab4ad-7c66-4e1d-a98f-3fa9b7acddd3","ios":"levelo://app?vid=188ab4ad-7c66-4e1d-a98f-3fa9b7acddd3"},"vehicle_type_id":"4","last_reported":1744643427,"current_range_meters":11200,"station_id":"ce4bguh2rcd13ifvqckg","pricing_plan_id":"cebpf4jnsgd1na2vs0mg"},{"bike_id":"1b24f73b-0675-499c-9da7-1785424c872a","system_id":"levelo_inurba_marseille","lat":43.29969,"lon":5.38492,"is_reserved":false,"is_disabled":false,"rental_uris":{"android":"levelo://app?vid=1b24f73b-0675-499c-9da7-1785424c872a","ios":"levelo://app?vid=1b24f73b-0675-499c-9da7-1785424c872a"},"vehicle_type_id":"4","last_reported":1744643427,"current_range_meters":11200,"station_id":"ce4bgj92rcd13ifvqbd0","pricing_plan_id":"cebpf4jnsgd1na2vs0mg"},{"bike_id":"d7eef8de-f754-41c4-86cf-897522800524","system_id":"levelo_inurba_marseille","lat":43.29629,"lon":5.37726,"is_reserved":false,"is_disabled":false,"rental_uris":{"android":"levelo://app?vid=d7eef8de-f754-41c4-86cf-897522800524","ios":"levelo://app?vid=d7eef8de-f754-41c4-86cf-897522800524"},"vehicle_type_id":"4","last_reported":1744643427,"current_range_meters":11600,"station_id":"ce4bgi92rcd13ifvqb90","pricing_plan_id":"cebpf4jnsgd1na2vs0mg"},{"bike_id":"24721329-ce27-42af-9b96-606f1339e8db","system_id":"levelo_inurba_marseille","lat":43.29533,"lon":5.39036,"is_reserved":false,"is_disabled":false,"rental_uris":{"android":"levelo://app?vid=24721329-ce27-42af-9b96-606f1339e8db","ios":"levelo://app?vid=24721329-ce27-42af-9b96-606f1339e8db"},"vehicle_type_id":"4","last_reported":1744643427,"current_range_meters":11600,"station_id":"ce4bh3p2rcd13ifvqdp0","pricing_plan_id":"cebpf4jnsgd1na2vs0mg"},{"bike_id":"9357e327-cb00-4fd9-852c-698a42e274fa","system_id":"levelo_inurba_marseille","lat":43.29902,"lon":5.43667,"is_reserved":false,"is_disabled":false,"rental_uris":{"android":"levelo://app?vid=9357e327-cb00-4fd9-852c-698a42e274fa","ios":"levelo://app?vid=9357e327-cb00-4fd9-852c-698a42e274fa"},"vehicle_type_id":"4","last_reported":1744643427,"current_range_meters":11600,"station_id":"ce4bhpp2rcd13ifvqhfg","pricing_plan_id":"cebpf4jnsgd1na2vs0mg"},{"bike_id":"d50d9ac3-c34f-405b-8173-8ec9492665e8","system_id":"levelo_inurba_marseille","lat":43.258673,"lon":5.398952,"is_reserved":false,"is_disabled":false,"rental_uris":{"android":"levelo://app?vid=d50d9ac3-c34f-405b-8173-8ec9492665e8","ios":"levelo://app?vid=d50d9ac3-c34f-405b-8173-8ec9492665e8"},"vehicle_type_id":"4","last_reported":1744643427,"current_range_meters":12000,"station_id":"ce4bhl92rcd13ifvqghg","pricing_plan_id":"cebpf4jnsgd1na2vs0mg"},{"bike_id":"e3ca405e-4f9f-4d7e-9c10-00e3967b9cea","system_id":"levelo_inurba_marseille","lat":43.29422,"lon":5.38621,"is_reserved":false,"is_disabled":false,"rental_uris":{"android":"levelo://app?vid=e3ca405e-4f9f-4d7e-9c10-00e3967b9cea","ios":"levelo://app?vid=e3ca405e-4f9f-4d7e-9c10-00e3967b9cea"},"vehicle_type_id":"4","last_reported":1744643427,"current_range_meters":12000,"station_id":"ce4bh2h2rcd13ifvqdh0","pricing_plan_id":"cebpf4jnsgd1na2vs0mg"},{"bike_id":"d1b6b007-3c39-461f-bf6a-2ad56bec4aa5","system_id":"levelo_inurba_marseille","lat":43.23192,"lon":5.39981,"is_reserved":false,"is_disabled":false,"rental_uris":{"android":"levelo://app?vid=d1b6b007-3c39-461f-bf6a-2ad56bec4aa5","ios":"levelo://app?vid=d1b6b007-3c39-461f-bf6a-2ad56bec4aa5"},"vehicle_type_id":"4","last_reported":1744643427,"current_range_meters":12400,"station_id":"ce4bhn12rcd13ifvqgqg","pricing_plan_id":"cebpf4jnsgd1na2vs0mg"},{"bike_id":"276e4f06-0117-4fcb-b53f-ccf5af4d6854","system_id":"levelo_inurba_marseille","lat":43.30109,"lon":5.39075,"is_reserved":false,"is_disabled":false,"rental_uris":{"android":"levelo://app?vid=276e4f06-0117-4fcb-b53f-ccf5af4d6854","ios":"levelo://app?vid=276e4f06-0117-4fcb-b53f-ccf5af4d6854"},"vehicle_type_id":"4","last_reported":1744643427,"current_range_meters":12400,"station_id":"ce4bh192rcd13ifvqdb0","pricing_plan_id":"cebpf4jnsgd1na2vs0mg"},{"bike_id":"95958729-baca-4565-8e32-3dd4ccd661af","system_id":"levelo_inurba_marseille","lat":43.28347,"lon":5.38096,"is_reserved":false,"is_disabled":false,"rental_uris":{"android":"levelo://app?vid=95958729-baca-4565-8e32-3dd4ccd661af","ios":"levelo://app?vid=95958729-baca-4565-8e32-3dd4ccd661af"},"vehicle_type_id":"4","last_reported":1744643427,"current_range_meters":12400,"station_id":"ce4bh412rcd13ifvqdr0","pricing_plan_id":"cebpf4jnsgd1na2vs0mg"},{"bike_id":"941e8ce6-b1e0-4722-b115-5833f4b9a69b","system_id":"levelo_inurba_marseille","lat":43.24168,"lon":5.36395,"is_reserved":false,"is_disabled":false,"rental_uris":{"android":"levelo://app?vid=941e8ce6-b1e0-4722-b115-5833f4b9a69b","ios":"levelo://app?vid=941e8ce6-b1e0-4722-b115-5833f4b9a69b"},"vehicle_type_id":"4","last_reported":1744643427,"current_range_meters":12800,"station_id":"cpo36qri1sfpv3e86is0","pricing_plan_id":"cebpf4jnsgd1na2vs0mg"},{"bike_id":"fb13c941-1858-46a4-86ad-2a5e302996c3","system_id":"levelo_inurba_marseille","lat":43.25856,"lon":5.39906,"is_reserved":false,"is_disabled":true,"rental_uris":{"android":"levelo://app?vid=fb13c941-1858-46a4-86ad-2a5e302996c3","ios":"levelo://app?vid=fb13c941-1858-46a4-86ad-2a5e302996c3"},"vehicle_type_id":"4","last_reported":1744643427,"current_range_meters":12800,"station_id":"ce4bhl92rcd13ifvqghg","pricing_plan_id":"cebpf4jnsgd1na2vs0mg"},{"bike_id":"9d5f1f7f-7663-41e9-83b3-007839add1ac","system_id":"levelo_inurba_marseille","lat":43.307902,"lon":5.376461,"is_reserved":false,"is_disabled":false,"rental_uris":{"android":"levelo://app?vid=9d5f1f7f-7663-41e9-83b3-007839add1ac","ios":"levelo://app?vid=9d5f1f7f-7663-41e9-83b3-007839add1ac"},"vehicle_type_id":"4","last_reported":1744643427,"current_range_meters":12800,"station_id":"ce4bgv92rcd13ifvqcq0","pricing_plan_id":"cebpf4jnsgd1na2vs0mg"},{"bike_id":"168d101c-b68d-45c6-b164-b68eeb1b484e","system_id":"levelo_inurba_marseille","lat":43.28147,"lon":5.42614,"is_reserved":false,"is_disabled":false,"rental_uris":{"android":"levelo://app?vid=168d101c-b68d-45c6-b164-b68eeb1b484e","ios":"levelo://app?vid=168d101c-b68d-45c6-b164-b68eeb1b484e"},"vehicle_type_id":"4","last_reported":1744643427,"current_range_meters":12800,"station_id":"ce4bhnh2rcd13ifvqgug","pricing_plan_id":"cebpf4jnsgd1na2vs0mg"},{"bike_id":"4650f5ce-7394-45a3-b7df-dd3753efb945","system_id":"levelo_inurba_marseille","lat":43.30132,"lon":5.38781,"is_reserved":false,"is_disabled":false,"rental_uris":{"android":"levelo://app?vid=4650f5ce-7394-45a3-b7df-dd3753efb945","ios":"levelo://app?vid=4650f5ce-7394-45a3-b7df-dd3753efb945"},"vehicle_type_id":"4","last_reported":1744643427,"current_range_meters":12800,"station_id":"ce4bghh2rcd13ifvqb60","pricing_plan_id":"cebpf4jnsgd1na2vs0mg"},{"bike_id":"558c2854-3115-4e9e-8a2c-1365c98a5689","system_id":"levelo_inurba_marseille","lat":43.27205,"lon":5.3919,"is_reserved":false,"is_disabled":false,"rental_uris":{"android":"levelo://app?vid=558c2854-3115-4e9e-8a2c-1365c98a5689","ios":"levelo://app?vid=558c2854-3115-4e9e-8a2c-1365c98a5689"},"vehicle_type_id":"4","last_reported":1744643427,"current_range_meters":12800,"station_id":"ce4bhhp2rcd13ifvqfm0","pricing_plan_id":"cebpf4jnsgd1na2vs0mg"},{"bike_id":"d13c9bcd-e5f2-4891-b9d7-a3493f7511aa","system_id":"levelo_inurba_marseille","lat":43.27205,"lon":5.39195,"is_reserved":false,"is_disabled":false,"rental_uris":{"android":"levelo://app?vid=d13c9bcd-e5f2-4891-b9d7-a3493f7511aa","ios":"levelo://app?vid=d13c9bcd-e5f2-4891-b9d7-a3493f7511aa"},"vehicle_type_id":"4","last_reported":1744643427,"current_range_meters":13600,"station_id":"ce4bhhp2rcd13ifvqfm0","pricing_plan_id":"cebpf4jnsgd1na2vs0mg"},{"bike_id":"8d67315c-3e05-4a9a-9aff-b1218fce92ec","system_id":"levelo_inurba_marseille","lat":43.25115,"lon":5.4032,"is_reserved":false,"is_disabled":false,"rental_uris":{"android":"levelo://app?vid=8d67315c-3e05-4a9a-9aff-b1218fce92ec","ios":"levelo://app?vid=8d67315c-3e05-4a9a-9aff-b1218fce92ec"},"vehicle_type_id":"4","last_reported":1744643427,"current_range_meters":13600,"station_id":"ce4bhlh2rcd13ifvqgig","pricing_plan_id":"cebpf4jnsgd1na2vs0mg"},{"bike_id":"eeafe622-d8a0-4c38-be1e-9859cd77a389","system_id":"levelo_inurba_marseille","lat":43.30557,"lon":5.36546,"is_reserved":false,"is_disabled":false,"rental_uris":{"android":"levelo://app?vid=eeafe622-d8a0-4c38-be1e-9859cd77a389","ios":"levelo://app?vid=eeafe622-d8a0-4c38-be1e-9859cd77a389"},"vehicle_type_id":"4","last_reported":1744643427,"current_range_meters":13600,"station_id":"ce4bgs12rcd13ifvqcag","pricing_plan_id":"cebpf4jnsgd1na2vs0mg"},{"bike_id":"26ab2bcf-0f53-4385-b3d8-29c145dbf7c4","system_id":"levelo_inurba_marseille","lat":43.2721,"lon":5.39181,"is_reserved":false,"is_disabled":false,"rental_uris":{"android":"levelo://app?vid=26ab2bcf-0f53-4385-b3d8-29c145dbf7c4","ios":"levelo://app?vid=26ab2bcf-0f53-4385-b3d8-29c145dbf7c4"},"vehicle_type_id":"4","last_reported":1744643427,"current_range_meters":13600,"station_id":"ce4bhhp2rcd13ifvqfm0","pricing_plan_id":"cebpf4jnsgd1na2vs0mg"},{"bike_id":"9032fd9f-8258-4b06-828f-3216c8110290","system_id":"levelo_inurba_marseille","lat":43.31015,"lon":5.41734,"is_reserved":false,"is_disabled":false,"rental_uris":{"android":"levelo://app?vid=9032fd9f-8258-4b06-828f-3216c8110290","ios":"levelo://app?vid=9032fd9f-8258-4b06-828f-3216c8110290"},"vehicle_type_id":"4","last_reported":1744643427,"current_range_meters":13600,"station_id":"","pricing_plan_id":"cebpf4jnsgd1na2vs0mg"},{"bike_id":"216a8464-4ea5-4b56-8cd6-224becea39c4","system_id":"levelo_inurba_marseille","lat":43.27836,"lon":5.40717,"is_reserved":false,"is_disabled":false,"rental_uris":{"android":"levelo://app?vid=216a8464-4ea5-4b56-8cd6-224becea39c4","ios":"levelo://app?vid=216a8464-4ea5-4b56-8cd6-224becea39c4"},"vehicle_type_id":"4","last_reported":1744643427,"current_range_meters":14000,"station_id":"ce4bhnh2rcd13ifvqgtg","pricing_plan_id":"cebpf4jnsgd1na2vs0mg"},{"bike_id":"529fff02-23ea-463b-a8f1-af56356cf315","system_id":"levelo_inurba_marseille","lat":43.295271,"lon":5.39026,"is_reserved":false,"is_disabled":false,"rental_uris":{"android":"levelo://app?vid=529fff02-23ea-463b-a8f1-af56356cf315","ios":"levelo://app?vid=529fff02-23ea-463b-a8f1-af56356cf315"},"vehicle_type_id":"4","last_reported":1744643427,"current_range_meters":14000,"station_id":"ce4bh3p2rcd13ifvqdp0","pricing_plan_id":"cebpf4jnsgd1na2vs0mg"},{"bike_id":"4ddb3098-8598-4d4f-a082-1cdc2881cecb","system_id":"levelo_inurba_marseille","lat":43.30552,"lon":5.36534,"is_reserved":false,"is_disabled":false,"rental_uris":{"android":"levelo://app?vid=4ddb3098-8598-4d4f-a082-1cdc2881cecb","ios":"levelo://app?vid=4ddb3098-8598-4d4f-a082-1cdc2881cecb"},"vehicle_type_id":"4","last_reported":1744643427,"current_range_meters":14000,"station_id":"ce4bgs12rcd13ifvqcag","pricing_plan_id":"cebpf4jnsgd1na2vs0mg"},{"bike_id":"fcb68170-a413-4bad-80eb-ac6f68746d5f","system_id":"levelo_inurba_marseille","lat":43.265656,"lon":5.390046,"is_reserved":false,"is_disabled":false,"rental_uris":{"android":"levelo://app?vid=fcb68170-a413-4bad-80eb-ac6f68746d5f","ios":"levelo://app?vid=fcb68170-a413-4bad-80eb-ac6f68746d5f"},"vehicle_type_id":"4","last_reported":1744643427,"current_range_meters":14400,"station_id":"ce4bhe12rcd13ifvqf30","pricing_plan_id":"cebpf4jnsgd1na2vs0mg"},{"bike_id":"62290500-45e2-4cf7-9daf-7aae42ab04b4","system_id":"levelo_inurba_marseille","lat":43.2733,"lon":5.3912,"is_reserved":false,"is_disabled":false,"rental_uris":{"android":"levelo://app?vid=62290500-45e2-4cf7-9daf-7aae42ab04b4","ios":"levelo://app?vid=62290500-45e2-4cf7-9daf-7aae42ab04b4"},"vehicle_type_id":"4","last_reported":1744643427,"current_range_meters":14400,"station_id":"ce4bhgp2rcd13ifvqfe0","pricing_plan_id":"cebpf4jnsgd1na2vs0mg"},{"bike_id":"27a55245-8dd2-4f1a-af63-95a9d7b71690","system_id":"levelo_inurba_marseille","lat":43.31064,"lon":5.378453,"is_reserved":false,"is_disabled":true,"rental_uris":{"android":"levelo://app?vid=27a55245-8dd2-4f1a-af63-95a9d7b71690","ios":"levelo://app?vid=27a55245-8dd2-4f1a-af63-95a9d7b71690"},"vehicle_type_id":"4","last_reported":1744643427,"current_range_meters":14400,"station_id":"","pricing_plan_id":"cebpf4jnsgd1na2vs0mg"},{"bike_id":"f09a8ac7-b571-4849-b0fd-7c8b117f4c75","system_id":"levelo_inurba_marseille","lat":43.29889,"lon":5.38901,"is_reserved":false,"is_disabled":false,"rental_uris":{"android":"levelo://app?vid=f09a8ac7-b571-4849-b0fd-7c8b117f4c75","ios":"levelo://app?vid=f09a8ac7-b571-4849-b0fd-7c8b117f4c75"},"vehicle_type_id":"4","last_reported":1744643427,"current_range_meters":14800,"station_id":"ce4bh392rcd13ifvqdl0","pricing_plan_id":"cebpf4jnsgd1na2vs0mg"},{"bike_id":"27240189-7309-46cc-b6bf-8ff0cf8ecdf7","system_id":"levelo_inurba_marseille","lat":43.30337,"lon":5.4043,"is_reserved":false,"is_disabled":false,"rental_uris":{"android":"levelo://app?vid=27240189-7309-46cc-b6bf-8ff0cf8ecdf7","ios":"levelo://app?vid=27240189-7309-46cc-b6bf-8ff0cf8ecdf7"},"vehicle_type_id":"4","last_reported":1744643427,"current_range_meters":14800,"station_id":"ce4bh012rcd13ifvqd10","pricing_plan_id":"cebpf4jnsgd1na2vs0mg"},{"bike_id":"61377ee4-fd99-4c2f-b5ad-a5ac167d945b","system_id":"levelo_inurba_marseille","lat":43.23159,"lon":5.4371,"is_reserved":false,"is_disabled":false,"rental_uris":{"android":"levelo://app?vid=61377ee4-fd99-4c2f-b5ad-a5ac167d945b","ios":"levelo://app?vid=61377ee4-fd99-4c2f-b5ad-a5ac167d945b"},"vehicle_type_id":"4","last_reported":1744643427,"current_range_meters":14800,"station_id":"ce4bhmp2rcd13ifvqgog","pricing_plan_id":"cebpf4jnsgd1na2vs0mg"},{"bike_id":"8ea3856d-522b-47fe-a944-6f0e3cf0fa49","system_id":"levelo_inurba_marseille","lat":43.28029,"lon":5.40851,"is_reserved":false,"is_disabled":false,"rental_uris":{"android":"levelo://app?vid=8ea3856d-522b-47fe-a944-6f0e3cf0fa49","ios":"levelo://app?vid=8ea3856d-522b-47fe-a944-6f0e3cf0fa49"},"vehicle_type_id":"4","last_reported":1744643427,"current_range_meters":14400,"station_id":"ce4bho12rcd13ifvqh2g","pricing_plan_id":"cebpf4jnsgd1na2vs0mg"},{"bike_id":"86286b1c-bc75-4ddf-ad4c-4dacb1384cb4","system_id":"levelo_inurba_marseille","lat":43.307945,"lon":5.381481,"is_reserved":false,"is_disabled":false,"rental_uris":{"android":"levelo://app?vid=86286b1c-bc75-4ddf-ad4c-4dacb1384cb4","ios":"levelo://app?vid=86286b1c-bc75-4ddf-ad4c-4dacb1384cb4"},"vehicle_type_id":"4","last_reported":1744643427,"current_range_meters":14800,"station_id":"ce4bgqh2rcd13ifvqc4g","pricing_plan_id":"cebpf4jnsgd1na2vs0mg"},{"bike_id":"247e7291-e29e-406a-bd92-7dc08451027d","system_id":"levelo_inurba_marseille","lat":43.2925,"lon":5.409,"is_reserved":false,"is_disabled":false,"rental_uris":{"android":"levelo://app?vid=247e7291-e29e-406a-bd92-7dc08451027d","ios":"levelo://app?vid=247e7291-e29e-406a-bd92-7dc08451027d"},"vehicle_type_id":"4","last_reported":1744643427,"current_range_meters":15200,"station_id":"ce4bh192rcd13ifvqdc0","pricing_plan_id":"cebpf4jnsgd1na2vs0mg"},{"bike_id":"500ba955-6754-4110-af7a-b30e47233688","system_id":"levelo_inurba_marseille","lat":43.23181,"lon":5.39986,"is_reserved":false,"is_disabled":false,"rental_uris":{"android":"levelo://app?vid=500ba955-6754-4110-af7a-b30e47233688","ios":"levelo://app?vid=500ba955-6754-4110-af7a-b30e47233688"},"vehicle_type_id":"4","last_reported":1744643427,"current_range_meters":15200,"station_id":"ce4bhn12rcd13ifvqgqg","pricing_plan_id":"cebpf4jnsgd1na2vs0mg"},{"bike_id":"40db818b-5b9e-46bf-8274-264778958c39","system_id":"levelo_inurba_marseille","lat":43.23173,"lon":5.43707,"is_reserved":false,"is_disabled":false,"rental_uris":{"android":"levelo://app?vid=40db818b-5b9e-46bf-8274-264778958c39","ios":"levelo://app?vid=40db818b-5b9e-46bf-8274-264778958c39"},"vehicle_type_id":"4","last_reported":1744643427,"current_range_meters":15200,"station_id":"ce4bhmp2rcd13ifvqgog","pricing_plan_id":"cebpf4jnsgd1na2vs0mg"},{"bike_id":"5f3e9da1-0ef8-47e7-99e7-0c0cb9e6308f","system_id":"levelo_inurba_marseille","lat":43.30442,"lon":5.38881,"is_reserved":false,"is_disabled":false,"rental_uris":{"android":"levelo://app?vid=5f3e9da1-0ef8-47e7-99e7-0c0cb9e6308f","ios":"levelo://app?vid=5f3e9da1-0ef8-47e7-99e7-0c0cb9e6308f"},"vehicle_type_id":"4","last_reported":1744643427,"current_range_meters":16000,"station_id":"ce4bgk12rcd13ifvqbi0","pricing_plan_id":"cebpf4jnsgd1na2vs0mg"},{"bike_id":"13b712ce-f355-4b10-aae7-a53defd965d4","system_id":"levelo_inurba_marseille","lat":43.28274,"lon":5.35066,"is_reserved":false,"is_disabled":false,"rental_uris":{"android":"levelo://app?vid=13b712ce-f355-4b10-aae7-a53defd965d4","ios":"levelo://app?vid=13b712ce-f355-4b10-aae7-a53defd965d4"},"vehicle_type_id":"4","last_reported":1744643427,"current_range_meters":16000,"station_id":"ce4bhbp2rcd13ifvqerg","pricing_plan_id":"cebpf4jnsgd1na2vs0mg"},{"bike_id":"2617ac0e-b329-4e0f-acfd-1ce476e83b75","system_id":"levelo_inurba_marseille","lat":43.225021,"lon":5.347859,"is_reserved":false,"is_disabled":false,"rental_uris":{"android":"levelo://app?vid=2617ac0e-b329-4e0f-acfd-1ce476e83b75","ios":"levelo://app?vid=2617ac0e-b329-4e0f-acfd-1ce476e83b75"},"vehicle_type_id":"4","last_reported":1744643427,"current_range_meters":16000,"station_id":"","pricing_plan_id":"cebpf4jnsgd1na2vs0mg"},{"bike_id":"127e53c6-0dd9-4563-9d02-b1162ec249e3","system_id":"levelo_inurba_marseille","lat":43.27056,"lon":5.40264,"is_reserved":false,"is_disabled":false,"rental_uris":{"android":"levelo://app?vid=127e53c6-0dd9-4563-9d02-b1162ec249e3","ios":"levelo://app?vid=127e53c6-0dd9-4563-9d02-b1162ec249e3"},"vehicle_type_id":"4","last_reported":1744643427,"current_range_meters":16000,"station_id":"ce4bhk92rcd13ifvqgc0","pricing_plan_id":"cebpf4jnsgd1na2vs0mg"},{"bike_id":"090bd7fd-92e3-4d4c-9cc9-be5fa3cd5876","system_id":"levelo_inurba_marseille","lat":43.30145,"lon":5.38782,"is_reserved":false,"is_disabled":false,"rental_uris":{"android":"levelo://app?vid=090bd7fd-92e3-4d4c-9cc9-be5fa3cd5876","ios":"levelo://app?vid=090bd7fd-92e3-4d4c-9cc9-be5fa3cd5876"},"vehicle_type_id":"4","last_reported":1744643427,"current_range_meters":16000,"station_id":"ce4bghh2rcd13ifvqb60","pricing_plan_id":"cebpf4jnsgd1na2vs0mg"},{"bike_id":"80adb61d-72f2-4c4d-80dc-fe710325470b","system_id":"levelo_inurba_marseille","lat":43.27625,"lon":5.36116,"is_reserved":false,"is_disabled":false,"rental_uris":{"android":"levelo://app?vid=80adb61d-72f2-4c4d-80dc-fe710325470b","ios":"levelo://app?vid=80adb61d-72f2-4c4d-80dc-fe710325470b"},"vehicle_type_id":"4","last_reported":1744643427,"current_range_meters":16000,"station_id":"ce4bgj92rcd13ifvqbe0","pricing_plan_id":"cebpf4jnsgd1na2vs0mg"},{"bike_id":"9481a4d4-998c-4242-822b-0b8fa3017440","system_id":"levelo_inurba_marseille","lat":43.288575,"lon":5.393244,"is_reserved":false,"is_disabled":true,"rental_uris":{"android":"levelo://app?vid=9481a4d4-998c-4242-822b-0b8fa3017440","ios":"levelo://app?vid=9481a4d4-998c-4242-822b-0b8fa3017440"},"vehicle_type_id":"4","last_reported":1744643427,"current_range_meters":16000,"station_id":"ce4bh2p2rcd13ifvqdi0","pricing_plan_id":"cebpf4jnsgd1na2vs0mg"},{"bike_id":"56135a82-d19f-45ea-a72c-58b1131d0fcb","system_id":"levelo_inurba_marseille","lat":43.28127,"lon":5.39652,"is_reserved":false,"is_disabled":true,"rental_uris":{"android":"levelo://app?vid=56135a82-d19f-45ea-a72c-58b1131d0fcb","ios":"levelo://app?vid=56135a82-d19f-45ea-a72c-58b1131d0fcb"},"vehicle_type_id":"4","last_reported":1744643427,"current_range_meters":16000,"station_id":"","pricing_plan_id":"cebpf4jnsgd1na2vs0mg"},{"bike_id":"a818834f-725d-4dbb-9bab-d3518b1b13c4","system_id":"levelo_inurba_marseille","lat":43.32371,"lon":5.36731,"is_reserved":false,"is_disabled":false,"rental_uris":{"android":"levelo://app?vid=a818834f-725d-4dbb-9bab-d3518b1b13c4","ios":"levelo://app?vid=a818834f-725d-4dbb-9bab-d3518b1b13c4"},"vehicle_type_id":"4","last_reported":1744643427,"current_range_meters":16400,"station_id":"ce4bhsh2rcd13ifvqi2g","pricing_plan_id":"cebpf4jnsgd1na2vs0mg"},{"bike_id":"483b6afc-ca1b-453d-8d81-661abe49ffb7","system_id":"levelo_inurba_marseille","lat":43.23974,"lon":5.36637,"is_reserved":false,"is_disabled":false,"rental_uris":{"android":"levelo://app?vid=483b6afc-ca1b-453d-8d81-661abe49ffb7","ios":"levelo://app?vid=483b6afc-ca1b-453d-8d81-661abe49ffb7"},"vehicle_type_id":"4","last_reported":1744643427,"current_range_meters":16400,"station_id":"ce4bhi12rcd13ifvqfp0","pricing_plan_id":"cebpf4jnsgd1na2vs0mg"},{"bike_id":"5cfacc3c-52b6-46b9-9084-1c8c37d9eeba","system_id":"levelo_inurba_marseille","lat":43.28273,"lon":5.3506,"is_reserved":false,"is_disabled":false,"rental_uris":{"android":"levelo://app?vid=5cfacc3c-52b6-46b9-9084-1c8c37d9eeba","ios":"levelo://app?vid=5cfacc3c-52b6-46b9-9084-1c8c37d9eeba"},"vehicle_type_id":"4","last_reported":1744643427,"current_range_meters":16400,"station_id":"ce4bhbp2rcd13ifvqerg","pricing_plan_id":"cebpf4jnsgd1na2vs0mg"},{"bike_id":"1f988817-ba5e-4783-aa55-296884e68a91","system_id":"levelo_inurba_marseille","lat":43.305402,"lon":5.367355,"is_reserved":false,"is_disabled":false,"rental_uris":{"android":"levelo://app?vid=1f988817-ba5e-4783-aa55-296884e68a91","ios":"levelo://app?vid=1f988817-ba5e-4783-aa55-296884e68a91"},"vehicle_type_id":"4","last_reported":1744643427,"current_range_meters":16400,"station_id":"ce4bgrp2rcd13ifvqc9g","pricing_plan_id":"cebpf4jnsgd1na2vs0mg"},{"bike_id":"893406b2-36e9-4c08-abf1-848e0b63221d","system_id":"levelo_inurba_marseille","lat":43.30463,"lon":5.37904,"is_reserved":false,"is_disabled":false,"rental_uris":{"android":"levelo://app?vid=893406b2-36e9-4c08-abf1-848e0b63221d","ios":"levelo://app?vid=893406b2-36e9-4c08-abf1-848e0b63221d"},"vehicle_type_id":"4","last_reported":1744643427,"current_range_meters":16400,"station_id":"ce4bgup2rcd13ifvqcn0","pricing_plan_id":"cebpf4jnsgd1na2vs0mg"},{"bike_id":"7d22cf2d-9280-4595-b36e-8484df5f4379","system_id":"levelo_inurba_marseille","lat":43.3022,"lon":5.39468,"is_reserved":false,"is_disabled":false,"rental_uris":{"android":"levelo://app?vid=7d22cf2d-9280-4595-b36e-8484df5f4379","ios":"levelo://app?vid=7d22cf2d-9280-4595-b36e-8484df5f4379"},"vehicle_type_id":"4","last_reported":1744643427,"current_range_meters":16800,"station_id":"ce4bh0p2rcd13ifvqd70","pricing_plan_id":"cebpf4jnsgd1na2vs0mg"},{"bike_id":"ee2d93b7-fe95-4206-8f6f-bea14202076b","system_id":"levelo_inurba_marseille","lat":43.292148,"lon":5.359717,"is_reserved":false,"is_disabled":false,"rental_uris":{"android":"levelo://app?vid=ee2d93b7-fe95-4206-8f6f-bea14202076b","ios":"levelo://app?vid=ee2d93b7-fe95-4206-8f6f-bea14202076b"},"vehicle_type_id":"4","last_reported":1744643427,"current_range_meters":16800,"station_id":"cki0cbj6b192h4jlfktg","pricing_plan_id":"cebpf4jnsgd1na2vs0mg"},{"bike_id":"7e20cc03-2548-4dfa-b067-30cb7e992b85","system_id":"levelo_inurba_marseille","lat":43.31363,"lon":5.385,"is_reserved":false,"is_disabled":false,"rental_uris":{"android":"levelo://app?vid=7e20cc03-2548-4dfa-b067-30cb7e992b85","ios":"levelo://app?vid=7e20cc03-2548-4dfa-b067-30cb7e992b85"},"vehicle_type_id":"4","last_reported":1744643427,"current_range_meters":16800,"station_id":"ce4bgt92rcd13ifvqcf0","pricing_plan_id":"cebpf4jnsgd1na2vs0mg"},{"bike_id":"74213d26-80c9-435f-8efe-7516d90ceac9","system_id":"levelo_inurba_marseille","lat":43.29719,"lon":5.37696,"is_reserved":false,"is_disabled":false,"rental_uris":{"android":"levelo://app?vid=74213d26-80c9-435f-8efe-7516d90ceac9","ios":"levelo://app?vid=74213d26-80c9-435f-8efe-7516d90ceac9"},"vehicle_type_id":"4","last_reported":1744643427,"current_range_meters":16800,"station_id":"ce4bgkh2rcd13ifvqbl0","pricing_plan_id":"cebpf4jnsgd1na2vs0mg"},{"bike_id":"b01c0c14-6100-4b8a-b7f1-e7135adc6a45","system_id":"levelo_inurba_marseille","lat":43.30135,"lon":5.37406,"is_reserved":false,"is_disabled":false,"rental_uris":{"android":"levelo://app?vid=b01c0c14-6100-4b8a-b7f1-e7135adc6a45","ios":"levelo://app?vid=b01c0c14-6100-4b8a-b7f1-e7135adc6a45"},"vehicle_type_id":"4","last_reported":1744643427,"current_range_meters":16800,"station_id":"ce4bgs92rcd13ifvqcc0","pricing_plan_id":"cebpf4jnsgd1na2vs0mg"},{"bike_id":"58d5ce10-0b99-4078-9f6a-07417f970325","system_id":"levelo_inurba_marseille","lat":43.271851,"lon":5.392138,"is_reserved":false,"is_disabled":false,"rental_uris":{"android":"levelo://app?vid=58d5ce10-0b99-4078-9f6a-07417f970325","ios":"levelo://app?vid=58d5ce10-0b99-4078-9f6a-07417f970325"},"vehicle_type_id":"4","last_reported":1744643427,"current_range_meters":16800,"station_id":"ce4bhh12rcd13ifvqfg0","pricing_plan_id":"cebpf4jnsgd1na2vs0mg"},{"bike_id":"ef3b894f-dbff-415e-a4e9-c6ff4a4cb150","system_id":"levelo_inurba_marseille","lat":43.27958,"lon":5.41042,"is_reserved":false,"is_disabled":false,"rental_uris":{"android":"levelo://app?vid=ef3b894f-dbff-415e-a4e9-c6ff4a4cb150","ios":"levelo://app?vid=ef3b894f-dbff-415e-a4e9-c6ff4a4cb150"},"vehicle_type_id":"4","last_reported":1744643427,"current_range_meters":16800,"station_id":"ce4bhnp2rcd13ifvqh0g","pricing_plan_id":"cebpf4jnsgd1na2vs0mg"},{"bike_id":"86507adb-43c1-4a89-acc7-c74cd80a099f","system_id":"levelo_inurba_marseille","lat":43.23132,"lon":5.36659,"is_reserved":false,"is_disabled":false,"rental_uris":{"android":"levelo://app?vid=86507adb-43c1-4a89-acc7-c74cd80a099f","ios":"levelo://app?vid=86507adb-43c1-4a89-acc7-c74cd80a099f"},"vehicle_type_id":"4","last_reported":1744643427,"current_range_meters":16800,"station_id":"","pricing_plan_id":"cebpf4jnsgd1na2vs0mg"},{"bike_id":"1175d9e6-e3ac-4aa2-a551-bea3d9efc2c5","system_id":"levelo_inurba_marseille","lat":43.27994,"lon":5.4166,"is_reserved":false,"is_disabled":false,"rental_uris":{"android":"levelo://app?vid=1175d9e6-e3ac-4aa2-a551-bea3d9efc2c5","ios":"levelo://app?vid=1175d9e6-e3ac-4aa2-a551-bea3d9efc2c5"},"vehicle_type_id":"4","last_reported":1744643427,"current_range_meters":17200,"station_id":"ce4bho12rcd13ifvqh1g","pricing_plan_id":"cebpf4jnsgd1na2vs0mg"},{"bike_id":"ec55715f-50ef-4b62-b932-d89df8729be7","system_id":"levelo_inurba_marseille","lat":43.31597,"lon":5.3888,"is_reserved":false,"is_disabled":false,"rental_uris":{"android":"levelo://app?vid=ec55715f-50ef-4b62-b932-d89df8729be7","ios":"levelo://app?vid=ec55715f-50ef-4b62-b932-d89df8729be7"},"vehicle_type_id":"4","last_reported":1744643427,"current_range_meters":17200,"station_id":"","pricing_plan_id":"cebpf4jnsgd1na2vs0mg"},{"bike_id":"6fe6a96e-8242-415d-88cc-d39924c68c0b","system_id":"levelo_inurba_marseille","lat":43.30618,"lon":5.37217,"is_reserved":false,"is_disabled":false,"rental_uris":{"android":"levelo://app?vid=6fe6a96e-8242-415d-88cc-d39924c68c0b","ios":"levelo://app?vid=6fe6a96e-8242-415d-88cc-d39924c68c0b"},"vehicle_type_id":"4","last_reported":1744643427,"current_range_meters":17200,"station_id":"ce4bgqh2rcd13ifvqc4g","pricing_plan_id":"cebpf4jnsgd1na2vs0mg"},{"bike_id":"37342bdf-d586-43ba-a25b-da22b3393da6","system_id":"levelo_inurba_marseille","lat":43.29172,"lon":5.37513,"is_reserved":false,"is_disabled":false,"rental_uris":{"android":"levelo://app?vid=37342bdf-d586-43ba-a25b-da22b3393da6","ios":"levelo://app?vid=37342bdf-d586-43ba-a25b-da22b3393da6"},"vehicle_type_id":"4","last_reported":1744643427,"current_range_meters":17200,"station_id":"","pricing_plan_id":"cebpf4jnsgd1na2vs0mg"},{"bike_id":"fdd5c0a2-1c04-4b2c-a088-248d6253fd54","system_id":"levelo_inurba_marseille","lat":43.27827,"lon":5.40722,"is_reserved":false,"is_disabled":false,"rental_uris":{"android":"levelo://app?vid=fdd5c0a2-1c04-4b2c-a088-248d6253fd54","ios":"levelo://app?vid=fdd5c0a2-1c04-4b2c-a088-248d6253fd54"},"vehicle_type_id":"4","last_reported":1744643427,"current_range_meters":17200,"station_id":"ce4bhnh2rcd13ifvqgtg","pricing_plan_id":"cebpf4jnsgd1na2vs0mg"},{"bike_id":"382a1a40-cce5-4bcf-8677-ad51fb5a2457","system_id":"levelo_inurba_marseille","lat":43.28859,"lon":5.39322,"is_reserved":false,"is_disabled":true,"rental_uris":{"android":"levelo://app?vid=382a1a40-cce5-4bcf-8677-ad51fb5a2457","ios":"levelo://app?vid=382a1a40-cce5-4bcf-8677-ad51fb5a2457"},"vehicle_type_id":"4","last_reported":1744643427,"current_range_meters":17200,"station_id":"ce4bh2p2rcd13ifvqdi0","pricing_plan_id":"cebpf4jnsgd1na2vs0mg"},{"bike_id":"e7aceb28-226d-48f8-9d3b-6c0ee6706aa1","system_id":"levelo_inurba_marseille","lat":43.26574,"lon":5.39009,"is_reserved":false,"is_disabled":false,"rental_uris":{"android":"levelo://app?vid=e7aceb28-226d-48f8-9d3b-6c0ee6706aa1","ios":"levelo://app?vid=e7aceb28-226d-48f8-9d3b-6c0ee6706aa1"},"vehicle_type_id":"4","last_reported":1744643427,"current_range_meters":17200,"station_id":"ce4bhe12rcd13ifvqf30","pricing_plan_id":"cebpf4jnsgd1na2vs0mg"},{"bike_id":"5c0cc5dd-7c03-4f8b-838c-65a8bfb31b5b","system_id":"levelo_inurba_marseille","lat":43.24682,"lon":5.38163,"is_reserved":false,"is_disabled":false,"rental_uris":{"android":"levelo://app?vid=5c0cc5dd-7c03-4f8b-838c-65a8bfb31b5b","ios":"levelo://app?vid=5c0cc5dd-7c03-4f8b-838c-65a8bfb31b5b"},"vehicle_type_id":"4","last_reported":1744643427,"current_range_meters":17600,"station_id":"ce4bhih2rcd13ifvqfr0","pricing_plan_id":"cebpf4jnsgd1na2vs0mg"},{"bike_id":"b281e6d7-3c2f-4685-83a7-ba60184e4d8b","system_id":"levelo_inurba_marseille","lat":43.31724,"lon":5.42395,"is_reserved":false,"is_disabled":false,"rental_uris":{"android":"levelo://app?vid=b281e6d7-3c2f-4685-83a7-ba60184e4d8b","ios":"levelo://app?vid=b281e6d7-3c2f-4685-83a7-ba60184e4d8b"},"vehicle_type_id":"4","last_reported":1744643427,"current_range_meters":17600,"station_id":"ce4bhp92rcd13ifvqhbg","pricing_plan_id":"cebpf4jnsgd1na2vs0mg"},{"bike_id":"dfe8918a-de08-49e7-8387-30e7f8515f9e","system_id":"levelo_inurba_marseille","lat":43.29622,"lon":5.3716,"is_reserved":false,"is_disabled":false,"rental_uris":{"android":"levelo://app?vid=dfe8918a-de08-49e7-8387-30e7f8515f9e","ios":"levelo://app?vid=dfe8918a-de08-49e7-8387-30e7f8515f9e"},"vehicle_type_id":"4","last_reported":1744643427,"current_range_meters":17600,"station_id":"ce4bgnh2rcd13ifvqc0g","pricing_plan_id":"cebpf4jnsgd1na2vs0mg"},{"bike_id":"3f077539-f3f6-4bef-b50d-79005cba6892","system_id":"levelo_inurba_marseille","lat":43.29032,"lon":5.37554,"is_reserved":false,"is_disabled":false,"rental_uris":{"android":"levelo://app?vid=3f077539-f3f6-4bef-b50d-79005cba6892","ios":"levelo://app?vid=3f077539-f3f6-4bef-b50d-79005cba6892"},"vehicle_type_id":"4","last_reported":1744643427,"current_range_meters":18000,"station_id":"ce4bh692rcd13ifvqe90","pricing_plan_id":"cebpf4jnsgd1na2vs0mg"},{"bike_id":"c2c824d2-3631-457e-a7fc-56c6de321106","system_id":"levelo_inurba_marseille","lat":43.27814,"lon":5.40716,"is_reserved":false,"is_disabled":false,"rental_uris":{"android":"levelo://app?vid=c2c824d2-3631-457e-a7fc-56c6de321106","ios":"levelo://app?vid=c2c824d2-3631-457e-a7fc-56c6de321106"},"vehicle_type_id":"4","last_reported":1744643427,"current_range_meters":18000,"station_id":"ce4bhnh2rcd13ifvqgtg","pricing_plan_id":"cebpf4jnsgd1na2vs0mg"},{"bike_id":"d2d37f01-fa46-4fbc-a721-7789f4003663","system_id":"levelo_inurba_marseille","lat":43.24973,"lon":5.38965,"is_reserved":false,"is_disabled":false,"rental_uris":{"android":"levelo://app?vid=d2d37f01-fa46-4fbc-a721-7789f4003663","ios":"levelo://app?vid=d2d37f01-fa46-4fbc-a721-7789f4003663"},"vehicle_type_id":"4","last_reported":1744643427,"current_range_meters":18000,"station_id":"","pricing_plan_id":"cebpf4jnsgd1na2vs0mg"},{"bike_id":"205a676e-388e-4b5d-b5d4-92bca6b76c07","system_id":"levelo_inurba_marseille","lat":43.31155,"lon":5.38016,"is_reserved":false,"is_disabled":true,"rental_uris":{"android":"levelo://app?vid=205a676e-388e-4b5d-b5d4-92bca6b76c07","ios":"levelo://app?vid=205a676e-388e-4b5d-b5d4-92bca6b76c07"},"vehicle_type_id":"4","last_reported":1744643427,"current_range_meters":18000,"station_id":"","pricing_plan_id":"cebpf4jnsgd1na2vs0mg"},{"bike_id":"b3ea20ce-5604-45b6-ace7-cad39f4f56d5","system_id":"levelo_inurba_marseille","lat":43.29704,"lon":5.36324,"is_reserved":false,"is_disabled":false,"rental_uris":{"android":"levelo://app?vid=b3ea20ce-5604-45b6-ace7-cad39f4f56d5","ios":"levelo://app?vid=b3ea20ce-5604-45b6-ace7-cad39f4f56d5"},"vehicle_type_id":"4","last_reported":1744643427,"current_range_meters":18800,"station_id":"","pricing_plan_id":"cebpf4jnsgd1na2vs0mg"},{"bike_id":"8ba8da06-09b4-4e35-9af5-e823a105a352","system_id":"levelo_inurba_marseille","lat":43.23098,"lon":5.35534,"is_reserved":false,"is_disabled":false,"rental_uris":{"android":"levelo://app?vid=8ba8da06-09b4-4e35-9af5-e823a105a352","ios":"levelo://app?vid=8ba8da06-09b4-4e35-9af5-e823a105a352"},"vehicle_type_id":"4","last_reported":1744643427,"current_range_meters":18800,"station_id":"","pricing_plan_id":"cebpf4jnsgd1na2vs0mg"},{"bike_id":"40e32cee-9c94-4ec8-8cc1-dfc745c5629a","system_id":"levelo_inurba_marseille","lat":43.24174,"lon":5.36399,"is_reserved":false,"is_disabled":false,"rental_uris":{"android":"levelo://app?vid=40e32cee-9c94-4ec8-8cc1-dfc745c5629a","ios":"levelo://app?vid=40e32cee-9c94-4ec8-8cc1-dfc745c5629a"},"vehicle_type_id":"4","last_reported":1744643427,"current_range_meters":18800,"station_id":"cpo36qri1sfpv3e86is0","pricing_plan_id":"cebpf4jnsgd1na2vs0mg"},{"bike_id":"c0749603-8d8e-49eb-a1a0-b71e7a9eaacd","system_id":"levelo_inurba_marseille","lat":43.28488,"lon":5.38438,"is_reserved":false,"is_disabled":false,"rental_uris":{"android":"levelo://app?vid=c0749603-8d8e-49eb-a1a0-b71e7a9eaacd","ios":"levelo://app?vid=c0749603-8d8e-49eb-a1a0-b71e7a9eaacd"},"vehicle_type_id":"4","last_reported":1744643427,"current_range_meters":19200,"station_id":"ce4bh512rcd13ifvqe3g","pricing_plan_id":"cebpf4jnsgd1na2vs0mg"},{"bike_id":"b3acdbf5-94a7-4cf1-822a-35afd7567e20","system_id":"levelo_inurba_marseille","lat":43.31332,"lon":5.3969,"is_reserved":false,"is_disabled":false,"rental_uris":{"android":"levelo://app?vid=b3acdbf5-94a7-4cf1-822a-35afd7567e20","ios":"levelo://app?vid=b3acdbf5-94a7-4cf1-822a-35afd7567e20"},"vehicle_type_id":"4","last_reported":1744643427,"current_range_meters":19200,"station_id":"ce4bgvp2rcd13ifvqcu0","pricing_plan_id":"cebpf4jnsgd1na2vs0mg"},{"bike_id":"47b066df-9674-4601-9094-80cf2dc9891f","system_id":"levelo_inurba_marseille","lat":43.2937,"lon":5.37818,"is_reserved":false,"is_disabled":false,"rental_uris":{"android":"levelo://app?vid=47b066df-9674-4601-9094-80cf2dc9891f","ios":"levelo://app?vid=47b066df-9674-4601-9094-80cf2dc9891f"},"vehicle_type_id":"4","last_reported":1744643427,"current_range_meters":18800,"station_id":"ce4bgjh2rcd13ifvqbf0","pricing_plan_id":"cebpf4jnsgd1na2vs0mg"},{"bike_id":"fbacecab-fdbc-437f-ad37-ef07ea1c1eac","system_id":"levelo_inurba_marseille","lat":43.30582,"lon":5.36521,"is_reserved":false,"is_disabled":false,"rental_uris":{"android":"levelo://app?vid=fbacecab-fdbc-437f-ad37-ef07ea1c1eac","ios":"levelo://app?vid=fbacecab-fdbc-437f-ad37-ef07ea1c1eac"},"vehicle_type_id":"4","last_reported":1744643427,"current_range_meters":19200,"station_id":"ce4bgs12rcd13ifvqcag","pricing_plan_id":"cebpf4jnsgd1na2vs0mg"},{"bike_id":"69330968-31be-4072-8333-3419318ec490","system_id":"levelo_inurba_marseille","lat":43.29358,"lon":5.37606,"is_reserved":false,"is_disabled":false,"rental_uris":{"android":"levelo://app?vid=69330968-31be-4072-8333-3419318ec490","ios":"levelo://app?vid=69330968-31be-4072-8333-3419318ec490"},"vehicle_type_id":"4","last_reported":1744643427,"current_range_meters":19200,"station_id":"ce4bgi12rcd13ifvqb80","pricing_plan_id":"cebpf4jnsgd1na2vs0mg"},{"bike_id":"5d076ae0-078c-4f43-b21f-ae521e484771","system_id":"levelo_inurba_marseille","lat":43.27497,"lon":5.42451,"is_reserved":false,"is_disabled":false,"rental_uris":{"android":"levelo://app?vid=5d076ae0-078c-4f43-b21f-ae521e484771","ios":"levelo://app?vid=5d076ae0-078c-4f43-b21f-ae521e484771"},"vehicle_type_id":"4","last_reported":1744643427,"current_range_meters":19200,"station_id":"ce4bhn92rcd13ifvqgrg","pricing_plan_id":"cebpf4jnsgd1na2vs0mg"},{"bike_id":"d5d55af5-9717-4f2c-8ad5-9d15967e244a","system_id":"levelo_inurba_marseille","lat":43.29919,"lon":5.37468,"is_reserved":false,"is_disabled":false,"rental_uris":{"android":"levelo://app?vid=d5d55af5-9717-4f2c-8ad5-9d15967e244a","ios":"levelo://app?vid=d5d55af5-9717-4f2c-8ad5-9d15967e244a"},"vehicle_type_id":"4","last_reported":1744643427,"current_range_meters":19200,"station_id":"ce4bgjh2rcd13ifvqbg0","pricing_plan_id":"cebpf4jnsgd1na2vs0mg"},{"bike_id":"82b65155-eb6d-4080-8046-a9847f0b9ddb","system_id":"levelo_inurba_marseille","lat":43.25119,"lon":5.4032,"is_reserved":false,"is_disabled":false,"rental_uris":{"android":"levelo://app?vid=82b65155-eb6d-4080-8046-a9847f0b9ddb","ios":"levelo://app?vid=82b65155-eb6d-4080-8046-a9847f0b9ddb"},"vehicle_type_id":"4","last_reported":1744643427,"current_range_meters":19600,"station_id":"ce4bhlh2rcd13ifvqgig","pricing_plan_id":"cebpf4jnsgd1na2vs0mg"},{"bike_id":"02aab184-8944-4d63-8d8c-b5841be2943b","system_id":"levelo_inurba_marseille","lat":43.26067,"lon":5.39399,"is_reserved":false,"is_disabled":false,"rental_uris":{"android":"levelo://app?vid=02aab184-8944-4d63-8d8c-b5841be2943b","ios":"levelo://app?vid=02aab184-8944-4d63-8d8c-b5841be2943b"},"vehicle_type_id":"4","last_reported":1744643427,"current_range_meters":19600,"station_id":"ce4bhh92rcd13ifvqfj0","pricing_plan_id":"cebpf4jnsgd1na2vs0mg"},{"bike_id":"ab684d57-5c0a-40df-a6b4-9dee401749c5","system_id":"levelo_inurba_marseille","lat":43.30139,"lon":5.38772,"is_reserved":false,"is_disabled":false,"rental_uris":{"android":"levelo://app?vid=ab684d57-5c0a-40df-a6b4-9dee401749c5","ios":"levelo://app?vid=ab684d57-5c0a-40df-a6b4-9dee401749c5"},"vehicle_type_id":"4","last_reported":1744643427,"current_range_meters":19600,"station_id":"ce4bghh2rcd13ifvqb60","pricing_plan_id":"cebpf4jnsgd1na2vs0mg"},{"bike_id":"874723af-5701-43d5-81f0-010331b86cde","system_id":"levelo_inurba_marseille","lat":43.30335,"lon":5.40428,"is_reserved":false,"is_disabled":false,"rental_uris":{"android":"levelo://app?vid=874723af-5701-43d5-81f0-010331b86cde","ios":"levelo://app?vid=874723af-5701-43d5-81f0-010331b86cde"},"vehicle_type_id":"4","last_reported":1744643427,"current_range_meters":19600,"station_id":"ce4bh012rcd13ifvqd10","pricing_plan_id":"cebpf4jnsgd1na2vs0mg"},{"bike_id":"3b8ebf16-c736-4754-8798-240c46534420","system_id":"levelo_inurba_marseille","lat":43.27065,"lon":5.4229,"is_reserved":false,"is_disabled":false,"rental_uris":{"android":"levelo://app?vid=3b8ebf16-c736-4754-8798-240c46534420","ios":"levelo://app?vid=3b8ebf16-c736-4754-8798-240c46534420"},"vehicle_type_id":"4","last_reported":1744643427,"current_range_meters":19600,"station_id":"ce4bhk92rcd13ifvqgb0","pricing_plan_id":"cebpf4jnsgd1na2vs0mg"},{"bike_id":"32a016fa-7f7b-40d0-a921-352ba0b93bdb","system_id":"levelo_inurba_marseille","lat":43.24074,"lon":5.37762,"is_reserved":false,"is_disabled":false,"rental_uris":{"android":"levelo://app?vid=32a016fa-7f7b-40d0-a921-352ba0b93bdb","ios":"levelo://app?vid=32a016fa-7f7b-40d0-a921-352ba0b93bdb"},"vehicle_type_id":"4","last_reported":1744643427,"current_range_meters":19600,"station_id":"ce4bhnp2rcd13ifvqgvg","pricing_plan_id":"cebpf4jnsgd1na2vs0mg"},{"bike_id":"688135a6-c38c-4b3d-bbf4-24a17fc2ce50","system_id":"levelo_inurba_marseille","lat":43.28431,"lon":5.35016,"is_reserved":false,"is_disabled":false,"rental_uris":{"android":"levelo://app?vid=688135a6-c38c-4b3d-bbf4-24a17fc2ce50","ios":"levelo://app?vid=688135a6-c38c-4b3d-bbf4-24a17fc2ce50"},"vehicle_type_id":"4","last_reported":1744643427,"current_range_meters":19200,"station_id":"ce4bhbh2rcd13ifvqepg","pricing_plan_id":"cebpf4jnsgd1na2vs0mg"},{"bike_id":"7805d24c-af88-49b5-846d-3644ea747508","system_id":"levelo_inurba_marseille","lat":43.28573,"lon":5.39499,"is_reserved":false,"is_disabled":false,"rental_uris":{"android":"levelo://app?vid=7805d24c-af88-49b5-846d-3644ea747508","ios":"levelo://app?vid=7805d24c-af88-49b5-846d-3644ea747508"},"vehicle_type_id":"4","last_reported":1744643427,"current_range_meters":19200,"station_id":"ce4bh292rcd13ifvqdg0","pricing_plan_id":"cebpf4jnsgd1na2vs0mg"},{"bike_id":"8d36ade0-4d64-4ca6-a4c1-415af2c35c8a","system_id":"levelo_inurba_marseille","lat":43.23064,"lon":5.35492,"is_reserved":false,"is_disabled":false,"rental_uris":{"android":"levelo://app?vid=8d36ade0-4d64-4ca6-a4c1-415af2c35c8a","ios":"levelo://app?vid=8d36ade0-4d64-4ca6-a4c1-415af2c35c8a"},"vehicle_type_id":"4","last_reported":1744643427,"current_range_meters":19600,"station_id":"cpo3342slgdg3j2ifvpg","pricing_plan_id":"cebpf4jnsgd1na2vs0mg"},{"bike_id":"c453774c-c6aa-4a61-8263-22366fc6678c","system_id":"levelo_inurba_marseille","lat":43.29148,"lon":5.374345,"is_reserved":false,"is_disabled":false,"rental_uris":{"android":"levelo://app?vid=c453774c-c6aa-4a61-8263-22366fc6678c","ios":"levelo://app?vid=c453774c-c6aa-4a61-8263-22366fc6678c"},"vehicle_type_id":"4","last_reported":1744643427,"current_range_meters":19200,"station_id":"ce4bhoh2rcd13ifvqh5g","pricing_plan_id":"cebpf4jnsgd1na2vs0mg"},{"bike_id":"d8d177e9-89e0-4a86-814c-27ee713094ce","system_id":"levelo_inurba_marseille","lat":43.27627,"lon":5.36107,"is_reserved":false,"is_disabled":false,"rental_uris":{"android":"levelo://app?vid=d8d177e9-89e0-4a86-814c-27ee713094ce","ios":"levelo://app?vid=d8d177e9-89e0-4a86-814c-27ee713094ce"},"vehicle_type_id":"4","last_reported":1744643427,"current_range_meters":19600,"station_id":"ce4bgj92rcd13ifvqbe0","pricing_plan_id":"cebpf4jnsgd1na2vs0mg"},{"bike_id":"7eacb872-0584-4b06-8fad-feb612d3799a","system_id":"levelo_inurba_marseille","lat":43.29721,"lon":5.38152,"is_reserved":false,"is_disabled":false,"rental_uris":{"android":"levelo://app?vid=7eacb872-0584-4b06-8fad-feb612d3799a","ios":"levelo://app?vid=7eacb872-0584-4b06-8fad-feb612d3799a"},"vehicle_type_id":"4","last_reported":1744643427,"current_range_meters":20000,"station_id":"","pricing_plan_id":"cebpf4jnsgd1na2vs0mg"},{"bike_id":"84e628ae-5914-4f74-97a4-2cdea25761af","system_id":"levelo_inurba_marseille","lat":43.27493,"lon":5.42452,"is_reserved":false,"is_disabled":false,"rental_uris":{"android":"levelo://app?vid=84e628ae-5914-4f74-97a4-2cdea25761af","ios":"levelo://app?vid=84e628ae-5914-4f74-97a4-2cdea25761af"},"vehicle_type_id":"4","last_reported":1744643427,"current_range_meters":20000,"station_id":"ce4bhn92rcd13ifvqgrg","pricing_plan_id":"cebpf4jnsgd1na2vs0mg"},{"bike_id":"e28c029d-4f1f-4438-99e9-70a0ec761f34","system_id":"levelo_inurba_marseille","lat":43.27379,"lon":5.36255,"is_reserved":false,"is_disabled":false,"rental_uris":{"android":"levelo://app?vid=e28c029d-4f1f-4438-99e9-70a0ec761f34","ios":"levelo://app?vid=e28c029d-4f1f-4438-99e9-70a0ec761f34"},"vehicle_type_id":"4","last_reported":1744643427,"current_range_meters":20000,"station_id":"ce4bhbh2rcd13ifvqeo0","pricing_plan_id":"cebpf4jnsgd1na2vs0mg"},{"bike_id":"b5278652-6b62-4c7a-8dfb-1a6e20a4b3d0","system_id":"levelo_inurba_marseille","lat":43.25865,"lon":5.39899,"is_reserved":false,"is_disabled":false,"rental_uris":{"android":"levelo://app?vid=b5278652-6b62-4c7a-8dfb-1a6e20a4b3d0","ios":"levelo://app?vid=b5278652-6b62-4c7a-8dfb-1a6e20a4b3d0"},"vehicle_type_id":"4","last_reported":1744643427,"current_range_meters":20000,"station_id":"ce4bhl92rcd13ifvqghg","pricing_plan_id":"cebpf4jnsgd1na2vs0mg"},{"bike_id":"0dbb8451-6fbf-4474-9639-bd687b68c8c2","system_id":"levelo_inurba_marseille","lat":43.32617,"lon":5.36218,"is_reserved":false,"is_disabled":false,"rental_uris":{"android":"levelo://app?vid=0dbb8451-6fbf-4474-9639-bd687b68c8c2","ios":"levelo://app?vid=0dbb8451-6fbf-4474-9639-bd687b68c8c2"},"vehicle_type_id":"4","last_reported":1744643427,"current_range_meters":20400,"station_id":"","pricing_plan_id":"cebpf4jnsgd1na2vs0mg"},{"bike_id":"f0070089-a923-4092-8f78-929e8a7c7f7d","system_id":"levelo_inurba_marseille","lat":43.30135,"lon":5.39871,"is_reserved":false,"is_disabled":false,"rental_uris":{"android":"levelo://app?vid=f0070089-a923-4092-8f78-929e8a7c7f7d","ios":"levelo://app?vid=f0070089-a923-4092-8f78-929e8a7c7f7d"},"vehicle_type_id":"4","last_reported":1744643427,"current_range_meters":20400,"station_id":"ce4bh0h2rcd13ifvqd40","pricing_plan_id":"cebpf4jnsgd1na2vs0mg"},{"bike_id":"861c40ba-e3c1-4f16-b302-6919116a35c6","system_id":"levelo_inurba_marseille","lat":43.29264,"lon":5.40911,"is_reserved":false,"is_disabled":false,"rental_uris":{"android":"levelo://app?vid=861c40ba-e3c1-4f16-b302-6919116a35c6","ios":"levelo://app?vid=861c40ba-e3c1-4f16-b302-6919116a35c6"},"vehicle_type_id":"4","last_reported":1744643427,"current_range_meters":20400,"station_id":"ce4bh192rcd13ifvqdc0","pricing_plan_id":"cebpf4jnsgd1na2vs0mg"},{"bike_id":"1515f38c-0901-4c3d-8f38-245f6ad7c71a","system_id":"levelo_inurba_marseille","lat":43.290161,"lon":5.356093,"is_reserved":false,"is_disabled":false,"rental_uris":{"android":"levelo://app?vid=1515f38c-0901-4c3d-8f38-245f6ad7c71a","ios":"levelo://app?vid=1515f38c-0901-4c3d-8f38-245f6ad7c71a"},"vehicle_type_id":"4","last_reported":1744643427,"current_range_meters":20800,"station_id":"ce4bhb92rcd13ifvqen0","pricing_plan_id":"cebpf4jnsgd1na2vs0mg"},{"bike_id":"05664e36-336b-404a-b8de-2ca42d4238f0","system_id":"levelo_inurba_marseille","lat":43.25031,"lon":5.38211,"is_reserved":false,"is_disabled":false,"rental_uris":{"android":"levelo://app?vid=05664e36-336b-404a-b8de-2ca42d4238f0","ios":"levelo://app?vid=05664e36-336b-404a-b8de-2ca42d4238f0"},"vehicle_type_id":"4","last_reported":1744643427,"current_range_meters":20800,"station_id":"","pricing_plan_id":"cebpf4jnsgd1na2vs0mg"},{"bike_id":"8731df35-d092-435b-8e01-b7c6a238b0a7","system_id":"levelo_inurba_marseille","lat":43.27958,"lon":5.41037,"is_reserved":false,"is_disabled":false,"rental_uris":{"android":"levelo://app?vid=8731df35-d092-435b-8e01-b7c6a238b0a7","ios":"levelo://app?vid=8731df35-d092-435b-8e01-b7c6a238b0a7"},"vehicle_type_id":"4","last_reported":1744643427,"current_range_meters":21600,"station_id":"ce4bhnp2rcd13ifvqh0g","pricing_plan_id":"cebpf4jnsgd1na2vs0mg"},{"bike_id":"b4255e98-3f78-4220-aed0-317f1cf6796b","system_id":"levelo_inurba_marseille","lat":43.3044,"lon":5.38879,"is_reserved":false,"is_disabled":false,"rental_uris":{"android":"levelo://app?vid=b4255e98-3f78-4220-aed0-317f1cf6796b","ios":"levelo://app?vid=b4255e98-3f78-4220-aed0-317f1cf6796b"},"vehicle_type_id":"4","last_reported":1744643427,"current_range_meters":21600,"station_id":"ce4bgk12rcd13ifvqbi0","pricing_plan_id":"cebpf4jnsgd1na2vs0mg"},{"bike_id":"1cfe611b-8d4a-4f30-b047-3d1f7dd619be","system_id":"levelo_inurba_marseille","lat":43.28623,"lon":5.35049,"is_reserved":false,"is_disabled":false,"rental_uris":{"android":"levelo://app?vid=1cfe611b-8d4a-4f30-b047-3d1f7dd619be","ios":"levelo://app?vid=1cfe611b-8d4a-4f30-b047-3d1f7dd619be"},"vehicle_type_id":"4","last_reported":1744643427,"current_range_meters":21600,"station_id":"ce4bhch2rcd13ifvqeug","pricing_plan_id":"cebpf4jnsgd1na2vs0mg"},{"bike_id":"1ec3d831-b77c-4199-89d1-f1c74723e07a","system_id":"levelo_inurba_marseille","lat":43.29549,"lon":5.37499,"is_reserved":false,"is_disabled":false,"rental_uris":{"android":"levelo://app?vid=1ec3d831-b77c-4199-89d1-f1c74723e07a","ios":"levelo://app?vid=1ec3d831-b77c-4199-89d1-f1c74723e07a"},"vehicle_type_id":"4","last_reported":1744643427,"current_range_meters":21600,"station_id":"ce4bgkp2rcd13ifvqbmg","pricing_plan_id":"cebpf4jnsgd1na2vs0mg"},{"bike_id":"3ad3e72d-5359-401e-9255-4408143dfd48","system_id":"levelo_inurba_marseille","lat":43.27138,"lon":5.39184,"is_reserved":false,"is_disabled":false,"rental_uris":{"android":"levelo://app?vid=3ad3e72d-5359-401e-9255-4408143dfd48","ios":"levelo://app?vid=3ad3e72d-5359-401e-9255-4408143dfd48"},"vehicle_type_id":"4","last_reported":1744643427,"current_range_meters":21600,"station_id":"","pricing_plan_id":"cebpf4jnsgd1na2vs0mg"},{"bike_id":"64ae32da-0fe7-4bbd-ad69-bfa1c2d25c77","system_id":"levelo_inurba_marseille","lat":43.27051,"lon":5.40259,"is_reserved":false,"is_disabled":false,"rental_uris":{"android":"levelo://app?vid=64ae32da-0fe7-4bbd-ad69-bfa1c2d25c77","ios":"levelo://app?vid=64ae32da-0fe7-4bbd-ad69-bfa1c2d25c77"},"vehicle_type_id":"4","last_reported":1744643427,"current_range_meters":21600,"station_id":"ce4bhk92rcd13ifvqgc0","pricing_plan_id":"cebpf4jnsgd1na2vs0mg"},{"bike_id":"d724e4d6-a70d-4918-8281-78bc75d15950","system_id":"levelo_inurba_marseille","lat":43.25585,"lon":5.38233,"is_reserved":false,"is_disabled":false,"rental_uris":{"android":"levelo://app?vid=d724e4d6-a70d-4918-8281-78bc75d15950","ios":"levelo://app?vid=d724e4d6-a70d-4918-8281-78bc75d15950"},"vehicle_type_id":"4","last_reported":1744643427,"current_range_meters":21600,"station_id":"ce4bhih2rcd13ifvqfs0","pricing_plan_id":"cebpf4jnsgd1na2vs0mg"},{"bike_id":"b194b76c-0c26-4dea-94f4-1ff46a05dacc","system_id":"levelo_inurba_marseille","lat":43.29897,"lon":5.43669,"is_reserved":false,"is_disabled":false,"rental_uris":{"android":"levelo://app?vid=b194b76c-0c26-4dea-94f4-1ff46a05dacc","ios":"levelo://app?vid=b194b76c-0c26-4dea-94f4-1ff46a05dacc"},"vehicle_type_id":"4","last_reported":1744643427,"current_range_meters":22000,"station_id":"ce4bhpp2rcd13ifvqhfg","pricing_plan_id":"cebpf4jnsgd1na2vs0mg"},{"bike_id":"2e961103-4d9c-4f4b-8ddb-9a1e875eb517","system_id":"levelo_inurba_marseille","lat":43.30327,"lon":5.4043,"is_reserved":false,"is_disabled":false,"rental_uris":{"android":"levelo://app?vid=2e961103-4d9c-4f4b-8ddb-9a1e875eb517","ios":"levelo://app?vid=2e961103-4d9c-4f4b-8ddb-9a1e875eb517"},"vehicle_type_id":"4","last_reported":1744643427,"current_range_meters":22000,"station_id":"ce4bh012rcd13ifvqd10","pricing_plan_id":"cebpf4jnsgd1na2vs0mg"},{"bike_id":"1ac6cae9-5a5f-4765-b8d5-20772275ca89","system_id":"levelo_inurba_marseille","lat":43.23329,"lon":5.36146,"is_reserved":false,"is_disabled":false,"rental_uris":{"android":"levelo://app?vid=1ac6cae9-5a5f-4765-b8d5-20772275ca89","ios":"levelo://app?vid=1ac6cae9-5a5f-4765-b8d5-20772275ca89"},"vehicle_type_id":"4","last_reported":1744643427,"current_range_meters":22000,"station_id":"","pricing_plan_id":"cebpf4jnsgd1na2vs0mg"},{"bike_id":"dab92ad9-845f-45dd-8fad-a49bfcfc531b","system_id":"levelo_inurba_marseille","lat":43.30907,"lon":5.36873,"is_reserved":false,"is_disabled":false,"rental_uris":{"android":"levelo://app?vid=dab92ad9-845f-45dd-8fad-a49bfcfc531b","ios":"levelo://app?vid=dab92ad9-845f-45dd-8fad-a49bfcfc531b"},"vehicle_type_id":"4","last_reported":1744643427,"current_range_meters":22400,"station_id":"ce4bgn92rcd13ifvqbvg","pricing_plan_id":"cebpf4jnsgd1na2vs0mg"},{"bike_id":"b035f8ab-1633-42ac-9aa2-e0f018b270f8","system_id":"levelo_inurba_marseille","lat":43.26021,"lon":5.37538,"is_reserved":false,"is_disabled":false,"rental_uris":{"android":"levelo://app?vid=b035f8ab-1633-42ac-9aa2-e0f018b270f8","ios":"levelo://app?vid=b035f8ab-1633-42ac-9aa2-e0f018b270f8"},"vehicle_type_id":"4","last_reported":1744643427,"current_range_meters":22400,"station_id":"ce4bhgh2rcd13ifvqfa0","pricing_plan_id":"cebpf4jnsgd1na2vs0mg"},{"bike_id":"1f279aa8-b96b-4a85-a530-3c12bdf83afc","system_id":"levelo_inurba_marseille","lat":43.29033,"lon":5.35925,"is_reserved":false,"is_disabled":false,"rental_uris":{"android":"levelo://app?vid=1f279aa8-b96b-4a85-a530-3c12bdf83afc","ios":"levelo://app?vid=1f279aa8-b96b-4a85-a530-3c12bdf83afc"},"vehicle_type_id":"4","last_reported":1744643427,"current_range_meters":22400,"station_id":"ce4bha92rcd13ifvqeg0","pricing_plan_id":"cebpf4jnsgd1na2vs0mg"},{"bike_id":"cb23d5e0-32c3-439e-8c50-b5443adf274a","system_id":"levelo_inurba_marseille","lat":43.3055,"lon":5.36712,"is_reserved":false,"is_disabled":false,"rental_uris":{"android":"levelo://app?vid=cb23d5e0-32c3-439e-8c50-b5443adf274a","ios":"levelo://app?vid=cb23d5e0-32c3-439e-8c50-b5443adf274a"},"vehicle_type_id":"4","last_reported":1744643427,"current_range_meters":22400,"station_id":"ce4bgrp2rcd13ifvqc9g","pricing_plan_id":"cebpf4jnsgd1na2vs0mg"},{"bike_id":"194a04f4-b2fc-4d44-87b3-1734a8b41526","system_id":"levelo_inurba_marseille","lat":43.26944,"lon":5.4026,"is_reserved":false,"is_disabled":false,"rental_uris":{"android":"levelo://app?vid=194a04f4-b2fc-4d44-87b3-1734a8b41526","ios":"levelo://app?vid=194a04f4-b2fc-4d44-87b3-1734a8b41526"},"vehicle_type_id":"4","last_reported":1744643427,"current_range_meters":22400,"station_id":"cjm6bp8fraef2m0cb0m0","pricing_plan_id":"cebpf4jnsgd1na2vs0mg"},{"bike_id":"3fadfd5b-f7ff-475d-884b-1c1b055d2504","system_id":"levelo_inurba_marseille","lat":43.26027,"lon":5.37551,"is_reserved":false,"is_disabled":false,"rental_uris":{"android":"levelo://app?vid=3fadfd5b-f7ff-475d-884b-1c1b055d2504","ios":"levelo://app?vid=3fadfd5b-f7ff-475d-884b-1c1b055d2504"},"vehicle_type_id":"4","last_reported":1744643427,"current_range_meters":22400,"station_id":"ce4bhgh2rcd13ifvqfa0","pricing_plan_id":"cebpf4jnsgd1na2vs0mg"},{"bike_id":"9097a5ba-b0d0-44de-9073-d362cae67b02","system_id":"levelo_inurba_marseille","lat":43.26548,"lon":5.37275,"is_reserved":false,"is_disabled":false,"rental_uris":{"android":"levelo://app?vid=9097a5ba-b0d0-44de-9073-d362cae67b02","ios":"levelo://app?vid=9097a5ba-b0d0-44de-9073-d362cae67b02"},"vehicle_type_id":"4","last_reported":1744643427,"current_range_meters":22800,"station_id":"ce4bhg12rcd13ifvqf70","pricing_plan_id":"cebpf4jnsgd1na2vs0mg"},{"bike_id":"9189d906-7f6b-4207-9d44-f672bc1bbc54","system_id":"levelo_inurba_marseille","lat":43.29901,"lon":5.43672,"is_reserved":false,"is_disabled":false,"rental_uris":{"android":"levelo://app?vid=9189d906-7f6b-4207-9d44-f672bc1bbc54","ios":"levelo://app?vid=9189d906-7f6b-4207-9d44-f672bc1bbc54"},"vehicle_type_id":"4","last_reported":1744643427,"current_range_meters":22800,"station_id":"ce4bhpp2rcd13ifvqhfg","pricing_plan_id":"cebpf4jnsgd1na2vs0mg"},{"bike_id":"1937602b-2247-4889-9448-7896966c31b1","system_id":"levelo_inurba_marseille","lat":43.298764,"lon":5.397361,"is_reserved":false,"is_disabled":false,"rental_uris":{"android":"levelo://app?vid=1937602b-2247-4889-9448-7896966c31b1","ios":"levelo://app?vid=1937602b-2247-4889-9448-7896966c31b1"},"vehicle_type_id":"4","last_reported":1744643427,"current_range_meters":22800,"station_id":"ce4bgvp2rcd13ifvqct0","pricing_plan_id":"cebpf4jnsgd1na2vs0mg"},{"bike_id":"bdbf7f1b-9498-42f3-b986-d1d60657fa7c","system_id":"levelo_inurba_marseille","lat":43.29062,"lon":5.35909,"is_reserved":false,"is_disabled":false,"rental_uris":{"android":"levelo://app?vid=bdbf7f1b-9498-42f3-b986-d1d60657fa7c","ios":"levelo://app?vid=bdbf7f1b-9498-42f3-b986-d1d60657fa7c"},"vehicle_type_id":"4","last_reported":1744643427,"current_range_meters":22800,"station_id":"ce4bha92rcd13ifvqeg0","pricing_plan_id":"cebpf4jnsgd1na2vs0mg"},{"bike_id":"f1d10437-3040-4331-b551-4e1dfcb73861","system_id":"levelo_inurba_marseille","lat":43.31336,"lon":5.39688,"is_reserved":false,"is_disabled":false,"rental_uris":{"android":"levelo://app?vid=f1d10437-3040-4331-b551-4e1dfcb73861","ios":"levelo://app?vid=f1d10437-3040-4331-b551-4e1dfcb73861"},"vehicle_type_id":"4","last_reported":1744643427,"current_range_meters":22800,"station_id":"ce4bgvp2rcd13ifvqcu0","pricing_plan_id":"cebpf4jnsgd1na2vs0mg"},{"bike_id":"80581a5c-f0ad-4895-a131-36c495c1c1df","system_id":"levelo_inurba_marseille","lat":43.30521,"lon":5.36549,"is_reserved":false,"is_disabled":false,"rental_uris":{"android":"levelo://app?vid=80581a5c-f0ad-4895-a131-36c495c1c1df","ios":"levelo://app?vid=80581a5c-f0ad-4895-a131-36c495c1c1df"},"vehicle_type_id":"4","last_reported":1744643427,"current_range_meters":22800,"station_id":"ce4bgs12rcd13ifvqcag","pricing_plan_id":"cebpf4jnsgd1na2vs0mg"},{"bike_id":"58865f51-d34a-49ac-8f37-d14aa3ef6ace","system_id":"levelo_inurba_marseille","lat":43.32418,"lon":5.39106,"is_reserved":false,"is_disabled":false,"rental_uris":{"android":"levelo://app?vid=58865f51-d34a-49ac-8f37-d14aa3ef6ace","ios":"levelo://app?vid=58865f51-d34a-49ac-8f37-d14aa3ef6ace"},"vehicle_type_id":"4","last_reported":1744643427,"current_range_meters":22800,"station_id":"","pricing_plan_id":"cebpf4jnsgd1na2vs0mg"},{"bike_id":"d2ee4f1f-7870-4a93-92e9-560e00b23f45","system_id":"levelo_inurba_marseille","lat":43.25006,"lon":5.38928,"is_reserved":false,"is_disabled":false,"rental_uris":{"android":"levelo://app?vid=d2ee4f1f-7870-4a93-92e9-560e00b23f45","ios":"levelo://app?vid=d2ee4f1f-7870-4a93-92e9-560e00b23f45"},"vehicle_type_id":"4","last_reported":1744643427,"current_range_meters":22800,"station_id":"ce4bhgp2rcd13ifvqfd0","pricing_plan_id":"cebpf4jnsgd1na2vs0mg"},{"bike_id":"e61eb72d-2152-4e42-a8db-1ea20dfcb944","system_id":"levelo_inurba_marseille","lat":43.25091,"lon":5.39521,"is_reserved":false,"is_disabled":true,"rental_uris":{"android":"levelo://app?vid=e61eb72d-2152-4e42-a8db-1ea20dfcb944","ios":"levelo://app?vid=e61eb72d-2152-4e42-a8db-1ea20dfcb944"},"vehicle_type_id":"4","last_reported":1744643427,"current_range_meters":22800,"station_id":"ce4bhm12rcd13ifvqgkg","pricing_plan_id":"cebpf4jnsgd1na2vs0mg"},{"bike_id":"220e7ac1-88e0-48ac-aded-57384ff09137","system_id":"levelo_inurba_marseille","lat":43.26049,"lon":5.39416,"is_reserved":false,"is_disabled":false,"rental_uris":{"android":"levelo://app?vid=220e7ac1-88e0-48ac-aded-57384ff09137","ios":"levelo://app?vid=220e7ac1-88e0-48ac-aded-57384ff09137"},"vehicle_type_id":"4","last_reported":1744643427,"current_range_meters":22800,"station_id":"ce4bhh92rcd13ifvqfj0","pricing_plan_id":"cebpf4jnsgd1na2vs0mg"},{"bike_id":"1d93b838-9515-4eb7-b618-514831fc29bf","system_id":"levelo_inurba_marseille","lat":43.28355,"lon":5.38106,"is_reserved":false,"is_disabled":false,"rental_uris":{"android":"levelo://app?vid=1d93b838-9515-4eb7-b618-514831fc29bf","ios":"levelo://app?vid=1d93b838-9515-4eb7-b618-514831fc29bf"},"vehicle_type_id":"4","last_reported":1744643427,"current_range_meters":23200,"station_id":"ce4bh412rcd13ifvqdr0","pricing_plan_id":"cebpf4jnsgd1na2vs0mg"},{"bike_id":"8871a141-56b5-4d0d-b5d1-1e78d18aade3","system_id":"levelo_inurba_marseille","lat":43.29425,"lon":5.38629,"is_reserved":false,"is_disabled":false,"rental_uris":{"android":"levelo://app?vid=8871a141-56b5-4d0d-b5d1-1e78d18aade3","ios":"levelo://app?vid=8871a141-56b5-4d0d-b5d1-1e78d18aade3"},"vehicle_type_id":"4","last_reported":1744643427,"current_range_meters":23200,"station_id":"ce4bh2h2rcd13ifvqdh0","pricing_plan_id":"cebpf4jnsgd1na2vs0mg"},{"bike_id":"e574b3d2-7d50-422d-a320-1dbd226a92e3","system_id":"levelo_inurba_marseille","lat":43.24668,"lon":5.3816,"is_reserved":false,"is_disabled":false,"rental_uris":{"android":"levelo://app?vid=e574b3d2-7d50-422d-a320-1dbd226a92e3","ios":"levelo://app?vid=e574b3d2-7d50-422d-a320-1dbd226a92e3"},"vehicle_type_id":"4","last_reported":1744643427,"current_range_meters":23200,"station_id":"ce4bhih2rcd13ifvqfr0","pricing_plan_id":"cebpf4jnsgd1na2vs0mg"},{"bike_id":"ee33e4a3-9ed1-445d-9974-26da2f858986","system_id":"levelo_inurba_marseille","lat":43.32421,"lon":5.39094,"is_reserved":false,"is_disabled":false,"rental_uris":{"android":"levelo://app?vid=ee33e4a3-9ed1-445d-9974-26da2f858986","ios":"levelo://app?vid=ee33e4a3-9ed1-445d-9974-26da2f858986"},"vehicle_type_id":"4","last_reported":1744643427,"current_range_meters":23200,"station_id":"","pricing_plan_id":"cebpf4jnsgd1na2vs0mg"},{"bike_id":"d22f56ed-8ff1-4e9a-bbd0-1c03051f6a40","system_id":"levelo_inurba_marseille","lat":43.28617,"lon":5.35099,"is_reserved":false,"is_disabled":false,"rental_uris":{"android":"levelo://app?vid=d22f56ed-8ff1-4e9a-bbd0-1c03051f6a40","ios":"levelo://app?vid=d22f56ed-8ff1-4e9a-bbd0-1c03051f6a40"},"vehicle_type_id":"4","last_reported":1744643427,"current_range_meters":23200,"station_id":"ce4bhch2rcd13ifvqeug","pricing_plan_id":"cebpf4jnsgd1na2vs0mg"},{"bike_id":"ff3cc019-99c3-492c-8ecb-48ce179d14ed","system_id":"levelo_inurba_marseille","lat":43.28614,"lon":5.35115,"is_reserved":false,"is_disabled":false,"rental_uris":{"android":"levelo://app?vid=ff3cc019-99c3-492c-8ecb-48ce179d14ed","ios":"levelo://app?vid=ff3cc019-99c3-492c-8ecb-48ce179d14ed"},"vehicle_type_id":"4","last_reported":1744643427,"current_range_meters":23200,"station_id":"ce4bhch2rcd13ifvqeug","pricing_plan_id":"cebpf4jnsgd1na2vs0mg"},{"bike_id":"442cf78f-0abc-4e2f-815a-c789a5a5fa19","system_id":"levelo_inurba_marseille","lat":43.28634,"lon":5.35122,"is_reserved":false,"is_disabled":false,"rental_uris":{"android":"levelo://app?vid=442cf78f-0abc-4e2f-815a-c789a5a5fa19","ios":"levelo://app?vid=442cf78f-0abc-4e2f-815a-c789a5a5fa19"},"vehicle_type_id":"4","last_reported":1744643427,"current_range_meters":23200,"station_id":"ce4bhch2rcd13ifvqeug","pricing_plan_id":"cebpf4jnsgd1na2vs0mg"},{"bike_id":"08a2c2b1-ac71-46d9-8c32-b65b65726c80","system_id":"levelo_inurba_marseille","lat":43.26557,"lon":5.37291,"is_reserved":false,"is_disabled":false,"rental_uris":{"android":"levelo://app?vid=08a2c2b1-ac71-46d9-8c32-b65b65726c80","ios":"levelo://app?vid=08a2c2b1-ac71-46d9-8c32-b65b65726c80"},"vehicle_type_id":"4","last_reported":1744643427,"current_range_meters":23200,"station_id":"ce4bhg12rcd13ifvqf70","pricing_plan_id":"cebpf4jnsgd1na2vs0mg"},{"bike_id":"944d95bc-0252-4f2f-9f39-72146d9c4fe9","system_id":"levelo_inurba_marseille","lat":43.29542,"lon":5.38543,"is_reserved":false,"is_disabled":false,"rental_uris":{"android":"levelo://app?vid=944d95bc-0252-4f2f-9f39-72146d9c4fe9","ios":"levelo://app?vid=944d95bc-0252-4f2f-9f39-72146d9c4fe9"},"vehicle_type_id":"4","last_reported":1744643427,"current_range_meters":23200,"station_id":"ce4bgih2rcd13ifvqba0","pricing_plan_id":"cebpf4jnsgd1na2vs0mg"},{"bike_id":"e59a468a-db09-4297-8fc4-b10403a2b4d2","system_id":"levelo_inurba_marseille","lat":43.262115,"lon":5.37443,"is_reserved":false,"is_disabled":false,"rental_uris":{"android":"levelo://app?vid=e59a468a-db09-4297-8fc4-b10403a2b4d2","ios":"levelo://app?vid=e59a468a-db09-4297-8fc4-b10403a2b4d2"},"vehicle_type_id":"4","last_reported":1744643427,"current_range_meters":23200,"station_id":"ce4bhgp2rcd13ifvqfc0","pricing_plan_id":"cebpf4jnsgd1na2vs0mg"},{"bike_id":"6f0daf23-062b-40bf-aee2-7db5d77cedd9","system_id":"levelo_inurba_marseille","lat":43.26067,"lon":5.39397,"is_reserved":false,"is_disabled":false,"rental_uris":{"android":"levelo://app?vid=6f0daf23-062b-40bf-aee2-7db5d77cedd9","ios":"levelo://app?vid=6f0daf23-062b-40bf-aee2-7db5d77cedd9"},"vehicle_type_id":"4","last_reported":1744643427,"current_range_meters":24000,"station_id":"ce4bhh92rcd13ifvqfj0","pricing_plan_id":"cebpf4jnsgd1na2vs0mg"},{"bike_id":"b49c3704-309f-4d67-9e04-3164dca5ad91","system_id":"levelo_inurba_marseille","lat":43.22931,"lon":5.35381,"is_reserved":false,"is_disabled":false,"rental_uris":{"android":"levelo://app?vid=b49c3704-309f-4d67-9e04-3164dca5ad91","ios":"levelo://app?vid=b49c3704-309f-4d67-9e04-3164dca5ad91"},"vehicle_type_id":"4","last_reported":1744643427,"current_range_meters":24000,"station_id":"cpo3532slgdg3j2ikp40","pricing_plan_id":"cebpf4jnsgd1na2vs0mg"},{"bike_id":"c8577a26-7e73-46df-8e82-914727f13f86","system_id":"levelo_inurba_marseille","lat":43.30151,"lon":5.38095,"is_reserved":false,"is_disabled":true,"rental_uris":{"android":"levelo://app?vid=c8577a26-7e73-46df-8e82-914727f13f86","ios":"levelo://app?vid=c8577a26-7e73-46df-8e82-914727f13f86"},"vehicle_type_id":"4","last_reported":1744643427,"current_range_meters":24000,"station_id":"ce4bgjp2rcd13ifvqbh0","pricing_plan_id":"cebpf4jnsgd1na2vs0mg"},{"bike_id":"1a730eb4-0fa5-4df0-ac17-7797d5cca405","system_id":"levelo_inurba_marseille","lat":43.30876,"lon":5.39629,"is_reserved":false,"is_disabled":false,"rental_uris":{"android":"levelo://app?vid=1a730eb4-0fa5-4df0-ac17-7797d5cca405","ios":"levelo://app?vid=1a730eb4-0fa5-4df0-ac17-7797d5cca405"},"vehicle_type_id":"4","last_reported":1744643427,"current_range_meters":24000,"station_id":"ce4bh012rcd13ifvqcv0","pricing_plan_id":"cebpf4jnsgd1na2vs0mg"},{"bike_id":"d06f7558-6c3f-49fe-ac05-fe7becbd4f1e","system_id":"levelo_inurba_marseille","lat":43.25579,"lon":5.38227,"is_reserved":false,"is_disabled":false,"rental_uris":{"android":"levelo://app?vid=d06f7558-6c3f-49fe-ac05-fe7becbd4f1e","ios":"levelo://app?vid=d06f7558-6c3f-49fe-ac05-fe7becbd4f1e"},"vehicle_type_id":"4","last_reported":1744643427,"current_range_meters":24000,"station_id":"ce4bhih2rcd13ifvqfs0","pricing_plan_id":"cebpf4jnsgd1na2vs0mg"},{"bike_id":"ad7aeb9c-1dd4-42bb-8227-5f190e54b2a9","system_id":"levelo_inurba_marseille","lat":43.26067,"lon":5.39396,"is_reserved":false,"is_disabled":false,"rental_uris":{"android":"levelo://app?vid=ad7aeb9c-1dd4-42bb-8227-5f190e54b2a9","ios":"levelo://app?vid=ad7aeb9c-1dd4-42bb-8227-5f190e54b2a9"},"vehicle_type_id":"4","last_reported":1744643427,"current_range_meters":23200,"station_id":"ce4bhh92rcd13ifvqfj0","pricing_plan_id":"cebpf4jnsgd1na2vs0mg"},{"bike_id":"b310a633-064e-4d08-b425-d022ba18c2f6","system_id":"levelo_inurba_marseille","lat":43.288585,"lon":5.393011,"is_reserved":false,"is_disabled":false,"rental_uris":{"android":"levelo://app?vid=b310a633-064e-4d08-b425-d022ba18c2f6","ios":"levelo://app?vid=b310a633-064e-4d08-b425-d022ba18c2f6"},"vehicle_type_id":"4","last_reported":1744643427,"current_range_meters":24000,"station_id":"ce4bh2p2rcd13ifvqdi0","pricing_plan_id":"cebpf4jnsgd1na2vs0mg"},{"bike_id":"b6a0eb77-3ef6-4a32-8206-4ef3c2136296","system_id":"levelo_inurba_marseille","lat":43.29457,"lon":5.37619,"is_reserved":false,"is_disabled":false,"rental_uris":{"android":"levelo://app?vid=b6a0eb77-3ef6-4a32-8206-4ef3c2136296","ios":"levelo://app?vid=b6a0eb77-3ef6-4a32-8206-4ef3c2136296"},"vehicle_type_id":"4","last_reported":1744643427,"current_range_meters":24000,"station_id":"","pricing_plan_id":"cebpf4jnsgd1na2vs0mg"},{"bike_id":"bc751fab-3d03-4199-9bca-8f15accea4bd","system_id":"levelo_inurba_marseille","lat":43.24547,"lon":5.39522,"is_reserved":false,"is_disabled":false,"rental_uris":{"android":"levelo://app?vid=bc751fab-3d03-4199-9bca-8f15accea4bd","ios":"levelo://app?vid=bc751fab-3d03-4199-9bca-8f15accea4bd"},"vehicle_type_id":"4","last_reported":1744643427,"current_range_meters":24000,"station_id":"ce4bhlp2rcd13ifvqgjg","pricing_plan_id":"cebpf4jnsgd1na2vs0mg"},{"bike_id":"7ccfa739-cccd-4afd-abed-279586de3494","system_id":"levelo_inurba_marseille","lat":43.23152,"lon":5.4372,"is_reserved":false,"is_disabled":false,"rental_uris":{"android":"levelo://app?vid=7ccfa739-cccd-4afd-abed-279586de3494","ios":"levelo://app?vid=7ccfa739-cccd-4afd-abed-279586de3494"},"vehicle_type_id":"4","last_reported":1744643427,"current_range_meters":24000,"station_id":"ce4bhmp2rcd13ifvqgog","pricing_plan_id":"cebpf4jnsgd1na2vs0mg"},{"bike_id":"e525909f-4a2f-4676-84bf-196f327c1712","system_id":"levelo_inurba_marseille","lat":43.26955,"lon":5.38634,"is_reserved":false,"is_disabled":false,"rental_uris":{"android":"levelo://app?vid=e525909f-4a2f-4676-84bf-196f327c1712","ios":"levelo://app?vid=e525909f-4a2f-4676-84bf-196f327c1712"},"vehicle_type_id":"4","last_reported":1744643427,"current_range_meters":23200,"station_id":"ce4bhh92rcd13ifvqfh0","pricing_plan_id":"cebpf4jnsgd1na2vs0mg"},{"bike_id":"e8da2907-ec40-48d8-aa71-9f95165d8e8e","system_id":"levelo_inurba_marseille","lat":43.27998,"lon":5.41665,"is_reserved":false,"is_disabled":false,"rental_uris":{"android":"levelo://app?vid=e8da2907-ec40-48d8-aa71-9f95165d8e8e","ios":"levelo://app?vid=e8da2907-ec40-48d8-aa71-9f95165d8e8e"},"vehicle_type_id":"4","last_reported":1744643427,"current_range_meters":24400,"station_id":"ce4bho12rcd13ifvqh1g","pricing_plan_id":"cebpf4jnsgd1na2vs0mg"},{"bike_id":"4b674ed9-06ca-459b-bad0-4078e498be73","system_id":"levelo_inurba_marseille","lat":43.28465,"lon":5.38415,"is_reserved":false,"is_disabled":false,"rental_uris":{"android":"levelo://app?vid=4b674ed9-06ca-459b-bad0-4078e498be73","ios":"levelo://app?vid=4b674ed9-06ca-459b-bad0-4078e498be73"},"vehicle_type_id":"4","last_reported":1744643427,"current_range_meters":24400,"station_id":"ce4bh512rcd13ifvqe3g","pricing_plan_id":"cebpf4jnsgd1na2vs0mg"},{"bike_id":"6bf5a380-400e-4cd6-bc1e-356afac9ee45","system_id":"levelo_inurba_marseille","lat":43.24148,"lon":5.36394,"is_reserved":false,"is_disabled":false,"rental_uris":{"android":"levelo://app?vid=6bf5a380-400e-4cd6-bc1e-356afac9ee45","ios":"levelo://app?vid=6bf5a380-400e-4cd6-bc1e-356afac9ee45"},"vehicle_type_id":"4","last_reported":1744643427,"current_range_meters":24400,"station_id":"cpo36qri1sfpv3e86is0","pricing_plan_id":"cebpf4jnsgd1na2vs0mg"},{"bike_id":"2d9c1d08-96a8-449f-be36-f228abafdef2","system_id":"levelo_inurba_marseille","lat":43.3004,"lon":5.3741,"is_reserved":false,"is_disabled":false,"rental_uris":{"android":"levelo://app?vid=2d9c1d08-96a8-449f-be36-f228abafdef2","ios":"levelo://app?vid=2d9c1d08-96a8-449f-be36-f228abafdef2"},"vehicle_type_id":"4","last_reported":1744643427,"current_range_meters":24400,"station_id":"","pricing_plan_id":"cebpf4jnsgd1na2vs0mg"},{"bike_id":"0799b8b6-7cbb-474b-b043-6dfc7f1fa1e2","system_id":"levelo_inurba_marseille","lat":43.26952,"lon":5.38647,"is_reserved":false,"is_disabled":false,"rental_uris":{"android":"levelo://app?vid=0799b8b6-7cbb-474b-b043-6dfc7f1fa1e2","ios":"levelo://app?vid=0799b8b6-7cbb-474b-b043-6dfc7f1fa1e2"},"vehicle_type_id":"4","last_reported":1744643427,"current_range_meters":24400,"station_id":"ce4bhh92rcd13ifvqfh0","pricing_plan_id":"cebpf4jnsgd1na2vs0mg"},{"bike_id":"a584688b-08eb-44a1-8821-adbc60cc1b70","system_id":"levelo_inurba_marseille","lat":43.30334,"lon":5.4044,"is_reserved":false,"is_disabled":false,"rental_uris":{"android":"levelo://app?vid=a584688b-08eb-44a1-8821-adbc60cc1b70","ios":"levelo://app?vid=a584688b-08eb-44a1-8821-adbc60cc1b70"},"vehicle_type_id":"4","last_reported":1744643427,"current_range_meters":24400,"station_id":"ce4bh012rcd13ifvqd10","pricing_plan_id":"cebpf4jnsgd1na2vs0mg"},{"bike_id":"d80fe21d-85bd-4d50-aa69-7545e6b9cc6e","system_id":"levelo_inurba_marseille","lat":43.30182,"lon":5.37426,"is_reserved":false,"is_disabled":false,"rental_uris":{"android":"levelo://app?vid=d80fe21d-85bd-4d50-aa69-7545e6b9cc6e","ios":"levelo://app?vid=d80fe21d-85bd-4d50-aa69-7545e6b9cc6e"},"vehicle_type_id":"4","last_reported":1744643427,"current_range_meters":24400,"station_id":"ce4bgs92rcd13ifvqcc0","pricing_plan_id":"cebpf4jnsgd1na2vs0mg"},{"bike_id":"27876c5a-14f5-4a6b-8be1-52349f333f18","system_id":"levelo_inurba_marseille","lat":43.28665,"lon":5.36339,"is_reserved":false,"is_disabled":false,"rental_uris":{"android":"levelo://app?vid=27876c5a-14f5-4a6b-8be1-52349f333f18","ios":"levelo://app?vid=27876c5a-14f5-4a6b-8be1-52349f333f18"},"vehicle_type_id":"4","last_reported":1744643427,"current_range_meters":24000,"station_id":"ce4bhah2rcd13ifvqej0","pricing_plan_id":"cebpf4jnsgd1na2vs0mg"},