{"last_updated":1726891866,"ttl":30,"version":"2.2","data":{"bikes":[{"bike_id":"e769845e-e44b-4332-afb8-e64ecf4e8b70","system_id":"levelo_inurba_marseille","lat":43.28854,"lon":5.39322,"is_reserved":false,"is_disabled":false,"rental_uris":{"android":"levelo://app?vid=e769845e-e44b-4332-afb8-e64ecf4e8b70","ios":"levelo://app?vid=e769845e-e44b-4332-afb8-e64ecf4e8b70"},"vehicle_type_id":"4","last_reported":1726891866,"current_range_meters":38800,"station_id":"ce4bh2p2rcd13ifvqdi0","pricing_plan_id":"cebpf4jnsgd1na2vs0mg"},{"bike_id":"0bbee90f-8502-443f-ba84-24be626a4a28","system_id":"levelo_inurba_marseille","lat":43.28147,"lon":5.42639,"is_reserved":false,"is_disabled":false,"rental_uris":{"android":"levelo://app?vid=0bbee90f-8502-443f-ba84-24be626a4a28","ios":"levelo://app?vid=0bbee90f-8502-443f-ba84-24be626a4a28"},"vehicle_type_id":"4","last_reported":1726891866,"current_range_meters":17200,"station_id":"ce4bhnh2rcd13ifvqgug","pricing_plan_id":"cebpf4jnsgd1na2vs0mg"},{"bike_id":"49179981-9681-4c43-86b6-a87d0ab4704f","system_id":"levelo_inurba_marseille","lat":43.27992,"lon":5.40011,"is_reserved":false,"is_disabled":false,"rental_uris":{"android":"levelo://app?vid=49179981-9681-4c43-86b6-a87d0ab4704f","ios":"levelo://app?vid=49179981-9681-4c43-86b6-a87d0ab4704f"},"vehicle_type_id":"4","last_reported":1726891866,"current_range_meters":34800,"station_id":"ce4bho92rcd13ifvqh4g","pricing_plan_id":"cebpf4jnsgd1na2vs0mg"},{"bike_id":"f7c34fc3-9eaa-4df1-b9d8-07dee8a7fadd","system_id":"levelo_inurba_marseille","lat":43.28458,"lon":5.35883,"is_reserved":false,"is_disabled":false,"rental_uris":{"android":"levelo://app?vid=f7c34fc3-9eaa-4df1-b9d8-07dee8a7fadd","ios":"levelo://app?vid=f7c34fc3-9eaa-4df1-b9d8-07dee8a7fadd"},"vehicle_type_id":"4","last_reported":1726891866,"current_range_meters":38800,"station_id":"ce4bhah2rcd13ifvqei0","pricing_plan_id":"cebpf4jnsgd1na2vs0mg"},{"bike_id":"adc0bee6-b281-4047-952a-a4e3dc2756d4","system_id":"levelo_inurba_marseille","lat":43.29962,"lon":5.38489,"is_reserved":false,"is_disabled":false,"rental_uris":{"android":"levelo://app?vid=adc0bee6-b281-4047-952a-a4e3dc2756d4","ios":"levelo://app?vid=adc0bee6-b281-4047-952a-a4e3dc2756d4"},"vehicle_type_id":"4","last_reported":1726891866,"current_range_meters":30000,"station_id":"ce4bgj92rcd13ifvqbd0","pricing_plan_id":"cebpf4jnsgd1na2vs0mg"},{"bike_id":"50f77829-1fd0-4e61-83e8-39a2571134ad","system_id":"levelo_inurba_marseille","lat":43.26562,"lon":5.39001,"is_reserved":false,"is_disabled":false,"rental_uris":{"android":"levelo://app?vid=50f77829-1fd0-4e61-83e8-39a2571134ad","ios":"levelo://app?vid=50f77829-1fd0-4e61-83e8-39a2571134ad"},"vehicle_type_id":"4","last_reported":1726891866,"current_range_meters":12400,"station_id":"ce4bhe12rcd13ifvqf30","pricing_plan_id":"cebpf4jnsgd1na2vs0mg"},{"bike_id":"ca7a4a9c-0c05-4b36-a3e2-f18574527cc9","system_id":"levelo_inurba_marseille","lat":43.30924,"lon":5.40145,"is_reserved":false,"is_disabled":false,"rental_uris":{"android":"levelo://app?vid=ca7a4a9c-0c05-4b36-a3e2-f18574527cc9","ios":"levelo://app?vid=ca7a4a9c-0c05-4b36-a3e2-f18574527cc9"},"vehicle_type_id":"4","last_reported":1726891866,"current_range_meters":16400,"station_id":"ce4bgvp2rcd13ifvqct0","pricing_plan_id":"cebpf4jnsgd1na2vs0mg"},{"bike_id":"c943e2f3-933e-4efb-97de-45246d483f08","system_id":"levelo_inurba_marseille","lat":43.2656,"lon":5.3729,"is_reserved":false,"is_disabled":false,"rental_uris":{"android":"levelo://app?vid=c943e2f3-933e-4efb-97de-45246d483f08","ios":"levelo://app?vid=c943e2f3-933e-4efb-97de-45246d483f08"},"vehicle_type_id":"4","last_reported":1726891866,"current_range_meters":8400,"station_id":"ce4bhg12rcd13ifvqf70","pricing_plan_id":"cebpf4jnsgd1na2vs0mg"},{"bike_id":"39d15b75-6b13-4a54-90c2-80fe6c6e73fd","system_id":"levelo_inurba_marseille","lat":43.30777,"lon":5.3765,"is_reserved":false,"is_disabled":false,"rental_uris":{"android":"levelo://app?vid=39d15b75-6b13-4a54-90c2-80fe6c6e73fd","ios":"levelo://app?vid=39d15b75-6b13-4a54-90c2-80fe6c6e73fd"},"vehicle_type_id":"4","last_reported":1726891866,"current_range_meters":38000,"station_id":"ce4bgv92rcd13ifvqcq0","pricing_plan_id":"cebpf4jnsgd1na2vs0mg"},{"bike_id":"c80ed0b2-5a0a-41b2-80b6-6ee9abf92ddc","system_id":"levelo_inurba_marseille","lat":43.28415,"lon":5.34989,"is_reserved":false,"is_disabled":false,"rental_uris":{"android":"levelo://app?vid=c80ed0b2-5a0a-41b2-80b6-6ee9abf92ddc","ios":"levelo://app?vid=c80ed0b2-5a0a-41b2-80b6-6ee9abf92ddc"},"vehicle_type_id":"4","last_reported":1726891866,"current_range_meters":40000,"station_id":"ce4bhbh2rcd13ifvqepg","pricing_plan_id":"cebpf4jnsgd1na2vs0mg"},{"bike_id":"caeb01e1-f6ca-4785-8d66-d5a031a43aa7","system_id":"levelo_inurba_marseille","lat":43.25093,"lon":5.39518,"is_reserved":false,"is_disabled":false,"rental_uris":{"android":"levelo://app?vid=caeb01e1-f6ca-4785-8d66-d5a031a43aa7","ios":"levelo://app?vid=caeb01e1-f6ca-4785-8d66-d5a031a43aa7"},"vehicle_type_id":"4","last_reported":1726891866,"current_range_meters":33200,"station_id":"ce4bhm12rcd13ifvqgkg","pricing_plan_id":"cebpf4jnsgd1na2vs0mg"},{"bike_id":"f6ef3552-3f9a-4d61-acb2-a4d0e1d60976","system_id":"levelo_inurba_marseille","lat":43.30932,"lon":5.40146,"is_reserved":false,"is_disabled":false,"rental_uris":{"android":"levelo://app?vid=f6ef3552-3f9a-4d61-acb2-a4d0e1d60976","ios":"levelo://app?vid=f6ef3552-3f9a-4d61-acb2-a4d0e1d60976"},"vehicle_type_id":"4","last_reported":1726891866,"current_range_meters":19200,"station_id":"ce4bgvp2rcd13ifvqct0","pricing_plan_id":"cebpf4jnsgd1na2vs0mg"},{"bike_id":"ce176230-2a5f-4ff6-b56e-d284477422aa","system_id":"levelo_inurba_marseille","lat":43.31071,"lon":5.38349,"is_reserved":false,"is_disabled":false,"rental_uris":{"android":"levelo://app?vid=ce176230-2a5f-4ff6-b56e-d284477422aa","ios":"levelo://app?vid=ce176230-2a5f-4ff6-b56e-d284477422aa"},"vehicle_type_id":"4","last_reported":1726891866,"current_range_meters":35200,"station_id":"ce4bgv92rcd13ifvqcr0","pricing_plan_id":"cebpf4jnsgd1na2vs0mg"},{"bike_id":"9709b754-0f7e-4cdd-828f-ce7d6859c431","system_id":"levelo_inurba_marseille","lat":43.29254,"lon":5.40911,"is_reserved":false,"is_disabled":false,"rental_uris":{"android":"levelo://app?vid=9709b754-0f7e-4cdd-828f-ce7d6859c431","ios":"levelo://app?vid=9709b754-0f7e-4cdd-828f-ce7d6859c431"},"vehicle_type_id":"4","last_reported":1726891866,"current_range_meters":38800,"station_id":"ce4bh192rcd13ifvqdc0","pricing_plan_id":"cebpf4jnsgd1na2vs0mg"},{"bike_id":"c7578a98-3e33-46e3-8817-30f14b194cac","system_id":"levelo_inurba_marseille","lat":43.27496,"lon":5.42447,"is_reserved":false,"is_disabled":false,"rental_uris":{"android":"levelo://app?vid=c7578a98-3e33-46e3-8817-30f14b194cac","ios":"levelo://app?vid=c7578a98-3e33-46e3-8817-30f14b194cac"},"vehicle_type_id":"4","last_reported":1726891866,"current_range_meters":16400,"station_id":"ce4bhn92rcd13ifvqgrg","pricing_plan_id":"cebpf4jnsgd1na2vs0mg"},{"bike_id":"e24ec35c-a6fd-4e4d-86e7-6c421a88fb24","system_id":"levelo_inurba_marseille","lat":43.28106,"lon":5.3786,"is_reserved":false,"is_disabled":false,"rental_uris":{"android":"levelo://app?vid=e24ec35c-a6fd-4e4d-86e7-6c421a88fb24","ios":"levelo://app?vid=e24ec35c-a6fd-4e4d-86e7-6c421a88fb24"},"vehicle_type_id":"4","last_reported":1726891866,"current_range_meters":37600,"station_id":"ce4bha12rcd13ifvqee0","pricing_plan_id":"cebpf4jnsgd1na2vs0mg"},{"bike_id":"ce0f4ebe-c6f4-43f8-958e-af9ec114cf5f","system_id":"levelo_inurba_marseille","lat":43.28846,"lon":5.35847,"is_reserved":false,"is_disabled":false,"rental_uris":{"android":"levelo://app?vid=ce0f4ebe-c6f4-43f8-958e-af9ec114cf5f","ios":"levelo://app?vid=ce0f4ebe-c6f4-43f8-958e-af9ec114cf5f"},"vehicle_type_id":"4","last_reported":1726891866,"current_range_meters":38800,"station_id":"ce4bhb12rcd13ifvqem0","pricing_plan_id":"cebpf4jnsgd1na2vs0mg"},{"bike_id":"a93e6372-1954-4033-be8e-f284dd6ded89","system_id":"levelo_inurba_marseille","lat":43.28107,"lon":5.37836,"is_reserved":false,"is_disabled":false,"rental_uris":{"android":"levelo://app?vid=a93e6372-1954-4033-be8e-f284dd6ded89","ios":"levelo://app?vid=a93e6372-1954-4033-be8e-f284dd6ded89"},"vehicle_type_id":"4","last_reported":1726891866,"current_range_meters":36800,"station_id":"ce4bha12rcd13ifvqee0","pricing_plan_id":"cebpf4jnsgd1na2vs0mg"},{"bike_id":"d07b71c7-6697-4f83-b0fb-7903537c3fc6","system_id":"levelo_inurba_marseille","lat":43.29172,"lon":5.35801,"is_reserved":false,"is_disabled":false,"rental_uris":{"android":"levelo://app?vid=d07b71c7-6697-4f83-b0fb-7903537c3fc6","ios":"levelo://app?vid=d07b71c7-6697-4f83-b0fb-7903537c3fc6"},"vehicle_type_id":"4","last_reported":1726891866,"current_range_meters":38800,"station_id":"ce4bhb12rcd13ifvqel0","pricing_plan_id":"cebpf4jnsgd1na2vs0mg"},{"bike_id":"03ad0926-1bc9-4ffb-8ecf-df1db6f2a3cb","system_id":"levelo_inurba_marseille","lat":43.30308,"lon":5.36904,"is_reserved":false,"is_disabled":false,"rental_uris":{"android":"levelo://app?vid=03ad0926-1bc9-4ffb-8ecf-df1db6f2a3cb","ios":"levelo://app?vid=03ad0926-1bc9-4ffb-8ecf-df1db6f2a3cb"},"vehicle_type_id":"4","last_reported":1726891866,"current_range_meters":8800,"station_id":"ce4bgqh2rcd13ifvqc5g","pricing_plan_id":"cebpf4jnsgd1na2vs0mg"},{"bike_id":"5f3f2703-e50a-4bcd-94e9-7b782bdf49ca","system_id":"levelo_inurba_marseille","lat":43.25941,"lon":5.40906,"is_reserved":false,"is_disabled":false,"rental_uris":{"android":"levelo://app?vid=5f3f2703-e50a-4bcd-94e9-7b782bdf49ca","ios":"levelo://app?vid=5f3f2703-e50a-4bcd-94e9-7b782bdf49ca"},"vehicle_type_id":"4","last_reported":1726891866,"current_range_meters":38400,"station_id":"ce4bhm92rcd13ifvqglg","pricing_plan_id":"cebpf4jnsgd1na2vs0mg"},{"bike_id":"3fad8533-0341-469f-8cac-7801c9551436","system_id":"levelo_inurba_marseille","lat":43.34133,"lon":5.40909,"is_reserved":false,"is_disabled":false,"rental_uris":{"android":"levelo://app?vid=3fad8533-0341-469f-8cac-7801c9551436","ios":"levelo://app?vid=3fad8533-0341-469f-8cac-7801c9551436"},"vehicle_type_id":"4","last_reported":1726891866,"current_range_meters":39200,"station_id":"ce4bhqh2rcd13ifvqhlg","pricing_plan_id":"cebpf4jnsgd1na2vs0mg"},{"bike_id":"952727d5-10c0-49c8-a6ee-a4efa34b8c23","system_id":"levelo_inurba_marseille","lat":43.23956,"lon":5.3665,"is_reserved":false,"is_disabled":false,"rental_uris":{"android":"levelo://app?vid=952727d5-10c0-49c8-a6ee-a4efa34b8c23","ios":"levelo://app?vid=952727d5-10c0-49c8-a6ee-a4efa34b8c23"},"vehicle_type_id":"4","last_reported":1726891866,"current_range_meters":27600,"station_id":"ce4bhi12rcd13ifvqfp0","pricing_plan_id":"cebpf4jnsgd1na2vs0mg"},{"bike_id":"4fad5d21-3b69-47b0-8238-a453fb3176dc","system_id":"levelo_inurba_marseille","lat":43.30778,"lon":5.37653,"is_reserved":false,"is_disabled":false,"rental_uris":{"android":"levelo://app?vid=4fad5d21-3b69-47b0-8238-a453fb3176dc","ios":"levelo://app?vid=4fad5d21-3b69-47b0-8238-a453fb3176dc"},"vehicle_type_id":"4","last_reported":1726891866,"current_range_meters":24400,"station_id":"ce4bgv92rcd13ifvqcq0","pricing_plan_id":"cebpf4jnsgd1na2vs0mg"},{"bike_id":"d013d7f0-ca41-499b-a43a-d2a4d80ea6cc","system_id":"levelo_inurba_marseille","lat":43.29966,"lon":5.4132,"is_reserved":false,"is_disabled":false,"rental_uris":{"android":"levelo://app?vid=d013d7f0-ca41-499b-a43a-d2a4d80ea6cc","ios":"levelo://app?vid=d013d7f0-ca41-499b-a43a-d2a4d80ea6cc"},"vehicle_type_id":"4","last_reported":1726891866,"current_range_meters":39200,"station_id":"ce4bhp12rcd13ifvqh9g","pricing_plan_id":"cebpf4jnsgd1na2vs0mg"},{"bike_id":"df5e993e-296b-4f33-baf5-eb5fbb9ac75e","system_id":"levelo_inurba_marseille","lat":43.30414,"lon":5.41286,"is_reserved":false,"is_disabled":false,"rental_uris":{"android":"levelo://app?vid=df5e993e-296b-4f33-baf5-eb5fbb9ac75e","ios":"levelo://app?vid=df5e993e-296b-4f33-baf5-eb5fbb9ac75e"},"vehicle_type_id":"4","last_reported":1726891866,"current_range_meters":38000,"station_id":"ce4bhop2rcd13ifvqh8g","pricing_plan_id":"cebpf4jnsgd1na2vs0mg"},{"bike_id":"88aef844-3d5d-4355-afa4-98056f2807be","system_id":"levelo_inurba_marseille","lat":43.32655,"lon":5.40993,"is_reserved":false,"is_disabled":false,"rental_uris":{"android":"levelo://app?vid=88aef844-3d5d-4355-afa4-98056f2807be","ios":"levelo://app?vid=88aef844-3d5d-4355-afa4-98056f2807be"},"vehicle_type_id":"4","last_reported":1726891866,"current_range_meters":38800,"station_id":"ce4bhpp2rcd13ifvqhgg","pricing_plan_id":"cebpf4jnsgd1na2vs0mg"},{"bike_id":"671b7a04-8d95-4060-9f18-c007f432e530","system_id":"levelo_inurba_marseille","lat":43.28845,"lon":5.39309,"is_reserved":false,"is_disabled":false,"rental_uris":{"android":"levelo://app?vid=671b7a04-8d95-4060-9f18-c007f432e530","ios":"levelo://app?vid=671b7a04-8d95-4060-9f18-c007f432e530"},"vehicle_type_id":"4","last_reported":1726891866,"current_range_meters":20400,"station_id":"ce4bh2p2rcd13ifvqdi0","pricing_plan_id":"cebpf4jnsgd1na2vs0mg"},{"bike_id":"75b9a238-0902-4923-870c-463b74d203bd","system_id":"levelo_inurba_marseille","lat":43.24662,"lon":5.38173,"is_reserved":false,"is_disabled":false,"rental_uris":{"android":"levelo://app?vid=75b9a238-0902-4923-870c-463b74d203bd","ios":"levelo://app?vid=75b9a238-0902-4923-870c-463b74d203bd"},"vehicle_type_id":"4","last_reported":1726891866,"current_range_meters":38400,"station_id":"ce4bhih2rcd13ifvqfr0","pricing_plan_id":"cebpf4jnsgd1na2vs0mg"},{"bike_id":"787888e2-6206-46d5-a768-f37fbf332ec0","system_id":"levelo_inurba_marseille","lat":43.25116,"lon":5.40309,"is_reserved":false,"is_disabled":false,"rental_uris":{"android":"levelo://app?vid=787888e2-6206-46d5-a768-f37fbf332ec0","ios":"levelo://app?vid=787888e2-6206-46d5-a768-f37fbf332ec0"},"vehicle_type_id":"4","last_reported":1726891866,"current_range_meters":28400,"station_id":"ce4bhlh2rcd13ifvqgig","pricing_plan_id":"cebpf4jnsgd1na2vs0mg"},{"bike_id":"3cea86a1-9a58-478d-b244-957f4139aef0","system_id":"levelo_inurba_marseille","lat":43.33608,"lon":5.41033,"is_reserved":false,"is_disabled":false,"rental_uris":{"android":"levelo://app?vid=3cea86a1-9a58-478d-b244-957f4139aef0","ios":"levelo://app?vid=3cea86a1-9a58-478d-b244-957f4139aef0"},"vehicle_type_id":"4","last_reported":1726891866,"current_range_meters":39200,"station_id":"ce4bhqh2rcd13ifvqhmg","pricing_plan_id":"cebpf4jnsgd1na2vs0mg"},{"bike_id":"9419c796-e9c4-429b-8be8-549ad96bcaf8","system_id":"levelo_inurba_marseille","lat":43.29027,"lon":5.39965,"is_reserved":false,"is_disabled":false,"rental_uris":{"android":"levelo://app?vid=9419c796-e9c4-429b-8be8-549ad96bcaf8","ios":"levelo://app?vid=9419c796-e9c4-429b-8be8-549ad96bcaf8"},"vehicle_type_id":"4","last_reported":1726891866,"current_range_meters":36800,"station_id":"ce4bh392rcd13ifvqdm0","pricing_plan_id":"cebpf4jnsgd1na2vs0mg"},{"bike_id":"940f1153-bbd0-42fd-adb3-2c90a460d70b","system_id":"levelo_inurba_marseille","lat":43.27681,"lon":5.3889,"is_reserved":false,"is_disabled":false,"rental_uris":{"android":"levelo://app?vid=940f1153-bbd0-42fd-adb3-2c90a460d70b","ios":"levelo://app?vid=940f1153-bbd0-42fd-adb3-2c90a460d70b"},"vehicle_type_id":"4","last_reported":1726891866,"current_range_meters":38400,"station_id":"ce4bhi12rcd13ifvqfo0","pricing_plan_id":"cebpf4jnsgd1na2vs0mg"},{"bike_id":"257a419d-0eb9-4304-bf32-b7ae767798e2","system_id":"levelo_inurba_marseille","lat":43.28705,"lon":5.39974,"is_reserved":false,"is_disabled":false,"rental_uris":{"android":"levelo://app?vid=257a419d-0eb9-4304-bf32-b7ae767798e2","ios":"levelo://app?vid=257a419d-0eb9-4304-bf32-b7ae767798e2"},"vehicle_type_id":"4","last_reported":1726891866,"current_range_meters":38800,"station_id":"ce4bho92rcd13ifvqh3g","pricing_plan_id":"cebpf4jnsgd1na2vs0mg"},{"bike_id":"83e5d7e1-b7a2-47dc-871d-a20fbcd4f395","system_id":"levelo_inurba_marseille","lat":43.26556,"lon":5.39021,"is_reserved":false,"is_disabled":false,"rental_uris":{"android":"levelo://app?vid=83e5d7e1-b7a2-47dc-871d-a20fbcd4f395","ios":"levelo://app?vid=83e5d7e1-b7a2-47dc-871d-a20fbcd4f395"},"vehicle_type_id":"4","last_reported":1726891866,"current_range_meters":33600,"station_id":"ce4bhe12rcd13ifvqf30","pricing_plan_id":"cebpf4jnsgd1na2vs0mg"},{"bike_id":"548ff5e8-4be6-4fa2-b210-beb1ef8053de","system_id":"levelo_inurba_marseille","lat":43.33022,"lon":5.39043,"is_reserved":false,"is_disabled":false,"rental_uris":{"android":"levelo://app?vid=548ff5e8-4be6-4fa2-b210-beb1ef8053de","ios":"levelo://app?vid=548ff5e8-4be6-4fa2-b210-beb1ef8053de"},"vehicle_type_id":"4","last_reported":1726891866,"current_range_meters":18000,"station_id":"ce4bhr92rcd13ifvqhrg","pricing_plan_id":"cebpf4jnsgd1na2vs0mg"},{"bike_id":"3f133c78-0fe0-41df-9f9a-759a5497f987","system_id":"levelo_inurba_marseille","lat":43.30888,"lon":5.37196,"is_reserved":false,"is_disabled":false,"rental_uris":{"android":"levelo://app?vid=3f133c78-0fe0-41df-9f9a-759a5497f987","ios":"levelo://app?vid=3f133c78-0fe0-41df-9f9a-759a5497f987"},"vehicle_type_id":"4","last_reported":1726891866,"current_range_meters":39200,"station_id":"ce4bguh2rcd13ifvqckg","pricing_plan_id":"cebpf4jnsgd1na2vs0mg"},{"bike_id":"b44f3cd0-6668-407e-84bc-7a73e32c0c41","system_id":"levelo_inurba_marseille","lat":43.27179,"lon":5.40992,"is_reserved":false,"is_disabled":false,"rental_uris":{"android":"levelo://app?vid=b44f3cd0-6668-407e-84bc-7a73e32c0c41","ios":"levelo://app?vid=b44f3cd0-6668-407e-84bc-7a73e32c0c41"},"vehicle_type_id":"4","last_reported":1726891866,"current_range_meters":39200,"station_id":"ce4bhl12rcd13ifvqgf0","pricing_plan_id":"cebpf4jnsgd1na2vs0mg"},{"bike_id":"41a2b490-767a-4eef-80db-88a86b57be07","system_id":"levelo_inurba_marseille","lat":43.30879,"lon":5.3965,"is_reserved":false,"is_disabled":false,"rental_uris":{"android":"levelo://app?vid=41a2b490-767a-4eef-80db-88a86b57be07","ios":"levelo://app?vid=41a2b490-767a-4eef-80db-88a86b57be07"},"vehicle_type_id":"4","last_reported":1726891866,"current_range_meters":24400,"station_id":"ce4bh012rcd13ifvqcv0","pricing_plan_id":"cebpf4jnsgd1na2vs0mg"},{"bike_id":"bca93d5a-66c2-4450-b572-3af58629453b","system_id":"levelo_inurba_marseille","lat":43.28464,"lon":5.38415,"is_reserved":false,"is_disabled":false,"rental_uris":{"android":"levelo://app?vid=bca93d5a-66c2-4450-b572-3af58629453b","ios":"levelo://app?vid=bca93d5a-66c2-4450-b572-3af58629453b"},"vehicle_type_id":"4","last_reported":1726891866,"current_range_meters":28800,"station_id":"ce4bh512rcd13ifvqe3g","pricing_plan_id":"cebpf4jnsgd1na2vs0mg"},{"bike_id":"ee7da271-2586-49b9-8b27-7c1d2ffc4c67","system_id":"levelo_inurba_marseille","lat":43.25109,"lon":5.40323,"is_reserved":false,"is_disabled":false,"rental_uris":{"android":"levelo://app?vid=ee7da271-2586-49b9-8b27-7c1d2ffc4c67","ios":"levelo://app?vid=ee7da271-2586-49b9-8b27-7c1d2ffc4c67"},"vehicle_type_id":"4","last_reported":1726891866,"current_range_meters":30800,"station_id":"ce4bhlh2rcd13ifvqgig","pricing_plan_id":"cebpf4jnsgd1na2vs0mg"},{"bike_id":"395e7bf1-ef0f-4e7e-8553-0ab6663d872d","system_id":"levelo_inurba_marseille","lat":43.28932,"lon":5.36643,"is_reserved":false,"is_disabled":false,"rental_uris":{"android":"levelo://app?vid=395e7bf1-ef0f-4e7e-8553-0ab6663d872d","ios":"levelo://app?vid=395e7bf1-ef0f-4e7e-8553-0ab6663d872d"},"vehicle_type_id":"4","last_reported":1726891866,"current_range_meters":38800,"station_id":"ce4bhap2rcd13ifvqek0","pricing_plan_id":"cebpf4jnsgd1na2vs0mg"},{"bike_id":"46b66742-8367-4779-8589-b1fd80c508c3","system_id":"levelo_inurba_marseille","lat":43.27828,"lon":5.39203,"is_reserved":false,"is_disabled":false,"rental_uris":{"android":"levelo://app?vid=46b66742-8367-4779-8589-b1fd80c508c3","ios":"levelo://app?vid=46b66742-8367-4779-8589-b1fd80c508c3"},"vehicle_type_id":"4","last_reported":1726891866,"current_range_meters":39200,"station_id":"ce4bhjp2rcd13ifvqga0","pricing_plan_id":"cebpf4jnsgd1na2vs0mg"},{"bike_id":"1656e8dc-88ab-4a3c-b94c-0768e4c1ddf1","system_id":"levelo_inurba_marseille","lat":43.26683,"lon":5.38274,"is_reserved":false,"is_disabled":false,"rental_uris":{"android":"levelo://app?vid=1656e8dc-88ab-4a3c-b94c-0768e4c1ddf1","ios":"levelo://app?vid=1656e8dc-88ab-4a3c-b94c-0768e4c1ddf1"},"vehicle_type_id":"4","last_reported":1726891866,"current_range_meters":19600,"station_id":"ce4bhg92rcd13ifvqf90","pricing_plan_id":"cebpf4jnsgd1na2vs0mg"},{"bike_id":"9f3abbd1-86cc-47c8-95de-8dd0cd07bcd7","system_id":"levelo_inurba_marseille","lat":43.30542,"lon":5.36545,"is_reserved":false,"is_disabled":false,"rental_uris":{"android":"levelo://app?vid=9f3abbd1-86cc-47c8-95de-8dd0cd07bcd7","ios":"levelo://app?vid=9f3abbd1-86cc-47c8-95de-8dd0cd07bcd7"},"vehicle_type_id":"4","last_reported":1726891866,"current_range_meters":31200,"station_id":"ce4bgs12rcd13ifvqcag","pricing_plan_id":"cebpf4jnsgd1na2vs0mg"},{"bike_id":"acfd38db-e93b-4b83-9afa-11e828273dc3","system_id":"levelo_inurba_marseille","lat":43.33022,"lon":5.39038,"is_reserved":false,"is_disabled":false,"rental_uris":{"android":"levelo://app?vid=acfd38db-e93b-4b83-9afa-11e828273dc3","ios":"levelo://app?vid=acfd38db-e93b-4b83-9afa-11e828273dc3"},"vehicle_type_id":"4","last_reported":1726891866,"current_range_meters":4400,"station_id":"ce4bhr92rcd13ifvqhrg","pricing_plan_id":"cebpf4jnsgd1na2vs0mg"},{"bike_id":"248d15db-0bdd-4ea1-b88c-229ae48018b8","system_id":"levelo_inurba_marseille","lat":43.29227,"lon":5.36065,"is_reserved":false,"is_disabled":false,"rental_uris":{"android":"levelo://app?vid=248d15db-0bdd-4ea1-b88c-229ae48018b8","ios":"levelo://app?vid=248d15db-0bdd-4ea1-b88c-229ae48018b8"},"vehicle_type_id":"4","last_reported":1726891866,"current_range_meters":38800,"station_id":"ce4bhbh2rcd13ifvqeqg","pricing_plan_id":"cebpf4jnsgd1na2vs0mg"},{"bike_id":"4054ff49-dc3a-424d-9e09-451ef9607aae","system_id":"levelo_inurba_marseille","lat":43.29365,"lon":5.40872,"is_reserved":false,"is_disabled":false,"rental_uris":{"android":"levelo://app?vid=4054ff49-dc3a-424d-9e09-451ef9607aae","ios":"levelo://app?vid=4054ff49-dc3a-424d-9e09-451ef9607aae"},"vehicle_type_id":"4","last_reported":1726891866,"current_range_meters":6000,"station_id":"","pricing_plan_id":"cebpf4jnsgd1na2vs0mg"},{"bike_id":"66275b8c-4851-4d18-a4a5-380e9fa79d13","system_id":"levelo_inurba_marseille","lat":43.29033,"lon":5.35915,"is_reserved":false,"is_disabled":false,"rental_uris":{"android":"levelo://app?vid=66275b8c-4851-4d18-a4a5-380e9fa79d13","ios":"levelo://app?vid=66275b8c-4851-4d18-a4a5-380e9fa79d13"},"vehicle_type_id":"4","last_reported":1726891866,"current_range_meters":36800,"station_id":"ce4bha92rcd13ifvqeg0","pricing_plan_id":"cebpf4jnsgd1na2vs0mg"},{"bike_id":"dcae2268-a29f-4f09-9355-c9605b71386d","system_id":"levelo_inurba_marseille","lat":43.31327,"lon":5.39694,"is_reserved":false,"is_disabled":false,"rental_uris":{"android":"levelo://app?vid=dcae2268-a29f-4f09-9355-c9605b71386d","ios":"levelo://app?vid=dcae2268-a29f-4f09-9355-c9605b71386d"},"vehicle_type_id":"4","last_reported":1726891866,"current_range_meters":7200,"station_id":"ce4bgvp2rcd13ifvqcu0","pricing_plan_id":"cebpf4jnsgd1na2vs0mg"},{"bike_id":"f2fdefcd-a050-4065-a802-75d2680309bd","system_id":"levelo_inurba_marseille","lat":43.23184,"lon":5.39985,"is_reserved":false,"is_disabled":false,"rental_uris":{"android":"levelo://app?vid=f2fdefcd-a050-4065-a802-75d2680309bd","ios":"levelo://app?vid=f2fdefcd-a050-4065-a802-75d2680309bd"},"vehicle_type_id":"4","last_reported":1726891866,"current_range_meters":24400,"station_id":"ce4bhn12rcd13ifvqgqg","pricing_plan_id":"cebpf4jnsgd1na2vs0mg"},{"bike_id":"2382fbb5-6d0a-407d-925c-36bc000bf0fa","system_id":"levelo_inurba_marseille","lat":43.29041,"lon":5.39957,"is_reserved":false,"is_disabled":false,"rental_uris":{"android":"levelo://app?vid=2382fbb5-6d0a-407d-925c-36bc000bf0fa","ios":"levelo://app?vid=2382fbb5-6d0a-407d-925c-36bc000bf0fa"},"vehicle_type_id":"4","last_reported":1726891866,"current_range_meters":35600,"station_id":"ce4bh392rcd13ifvqdm0","pricing_plan_id":"cebpf4jnsgd1na2vs0mg"},{"bike_id":"8599327e-7a38-42cc-bae8-5460e681ba0a","system_id":"levelo_inurba_marseille","lat":43.31758,"lon":5.39021,"is_reserved":false,"is_disabled":false,"rental_uris":{"android":"levelo://app?vid=8599327e-7a38-42cc-bae8-5460e681ba0a","ios":"levelo://app?vid=8599327e-7a38-42cc-bae8-5460e681ba0a"},"vehicle_type_id":"4","last_reported":1726891866,"current_range_meters":37600,"station_id":"ce4bhqp2rcd13ifvqhng","pricing_plan_id":"cebpf4jnsgd1na2vs0mg"},{"bike_id":"39a2ab1a-7c49-4add-8dec-5efebd8dc7f4","system_id":"levelo_inurba_marseille","lat":43.27914,"lon":5.39584,"is_reserved":false,"is_disabled":false,"rental_uris":{"android":"levelo://app?vid=39a2ab1a-7c49-4add-8dec-5efebd8dc7f4","ios":"levelo://app?vid=39a2ab1a-7c49-4add-8dec-5efebd8dc7f4"},"vehicle_type_id":"4","last_reported":1726891866,"current_range_meters":30000,"station_id":"ce4bhf92rcd13ifvqf40","pricing_plan_id":"cebpf4jnsgd1na2vs0mg"},{"bike_id":"2a7db943-6265-4479-9604-043d344eb7a6","system_id":"levelo_inurba_marseille","lat":43.30241,"lon":5.38412,"is_reserved":false,"is_disabled":false,"rental_uris":{"android":"levelo://app?vid=2a7db943-6265-4479-9604-043d344eb7a6","ios":"levelo://app?vid=2a7db943-6265-4479-9604-043d344eb7a6"},"vehicle_type_id":"4","last_reported":1726891866,"current_range_meters":24800,"station_id":"","pricing_plan_id":"cebpf4jnsgd1na2vs0mg"},{"bike_id":"ba9fd23e-e8af-47ba-9ee1-69acdbae2956","system_id":"levelo_inurba_marseille","lat":43.3079,"lon":5.37643,"is_reserved":false,"is_disabled":false,"rental_uris":{"android":"levelo://app?vid=ba9fd23e-e8af-47ba-9ee1-69acdbae2956","ios":"levelo://app?vid=ba9fd23e-e8af-47ba-9ee1-69acdbae2956"},"vehicle_type_id":"4","last_reported":1726891866,"current_range_meters":38000,"station_id":"ce4bgv92rcd13ifvqcq0","pricing_plan_id":"cebpf4jnsgd1na2vs0mg"},{"bike_id":"1ab8a487-6518-4105-88d7-2e8a22182ab9","system_id":"levelo_inurba_marseille","lat":43.2871,"lon":5.37944,"is_reserved":false,"is_disabled":false,"rental_uris":{"android":"levelo://app?vid=1ab8a487-6518-4105-88d7-2e8a22182ab9","ios":"levelo://app?vid=1ab8a487-6518-4105-88d7-2e8a22182ab9"},"vehicle_type_id":"4","last_reported":1726891866,"current_range_meters":38800,"station_id":"ce4bh9p2rcd13ifvqec0","pricing_plan_id":"cebpf4jnsgd1na2vs0mg"},{"bike_id":"1ac0a20c-401d-4777-af73-d334affd0e09","system_id":"levelo_inurba_marseille","lat":43.25089,"lon":5.39519,"is_reserved":false,"is_disabled":false,"rental_uris":{"android":"levelo://app?vid=1ac0a20c-401d-4777-af73-d334affd0e09","ios":"levelo://app?vid=1ac0a20c-401d-4777-af73-d334affd0e09"},"vehicle_type_id":"4","last_reported":1726891866,"current_range_meters":38800,"station_id":"ce4bhm12rcd13ifvqgkg","pricing_plan_id":"cebpf4jnsgd1na2vs0mg"},{"bike_id":"b8afe22f-c0f3-483c-bb5f-6071483e5e25","system_id":"levelo_inurba_marseille","lat":43.25936,"lon":5.40901,"is_reserved":false,"is_disabled":false,"rental_uris":{"android":"levelo://app?vid=b8afe22f-c0f3-483c-bb5f-6071483e5e25","ios":"levelo://app?vid=b8afe22f-c0f3-483c-bb5f-6071483e5e25"},"vehicle_type_id":"4","last_reported":1726891866,"current_range_meters":32400,"station_id":"ce4bhm92rcd13ifvqglg","pricing_plan_id":"cebpf4jnsgd1na2vs0mg"},{"bike_id":"08965262-1811-4306-bc5b-21ad50353859","system_id":"levelo_inurba_marseille","lat":43.28929,"lon":5.3664,"is_reserved":false,"is_disabled":false,"rental_uris":{"android":"levelo://app?vid=08965262-1811-4306-bc5b-21ad50353859","ios":"levelo://app?vid=08965262-1811-4306-bc5b-21ad50353859"},"vehicle_type_id":"4","last_reported":1726891866,"current_range_meters":38800,"station_id":"ce4bhap2rcd13ifvqek0","pricing_plan_id":"cebpf4jnsgd1na2vs0mg"},{"bike_id":"43daa915-2a7b-4baf-a258-ed76c346effe","system_id":"levelo_inurba_marseille","lat":43.31725,"lon":5.42402,"is_reserved":false,"is_disabled":false,"rental_uris":{"android":"levelo://app?vid=43daa915-2a7b-4baf-a258-ed76c346effe","ios":"levelo://app?vid=43daa915-2a7b-4baf-a258-ed76c346effe"},"vehicle_type_id":"4","last_reported":1726891866,"current_range_meters":25600,"station_id":"ce4bhp92rcd13ifvqhbg","pricing_plan_id":"cebpf4jnsgd1na2vs0mg"},{"bike_id":"b8c4fb30-143a-40da-a94d-ac106aff7dd4","system_id":"levelo_inurba_marseille","lat":43.3127,"lon":5.40168,"is_reserved":false,"is_disabled":false,"rental_uris":{"android":"levelo://app?vid=b8c4fb30-143a-40da-a94d-ac106aff7dd4","ios":"levelo://app?vid=b8c4fb30-143a-40da-a94d-ac106aff7dd4"},"vehicle_type_id":"4","last_reported":1726891866,"current_range_meters":6400,"station_id":"ce4bh092rcd13ifvqd30","pricing_plan_id":"cebpf4jnsgd1na2vs0mg"},{"bike_id":"edfb1ff5-b81b-4225-8da9-100a9115b1e3","system_id":"levelo_inurba_marseille","lat":43.29735,"lon":5.36561,"is_reserved":false,"is_disabled":false,"rental_uris":{"android":"levelo://app?vid=edfb1ff5-b81b-4225-8da9-100a9115b1e3","ios":"levelo://app?vid=edfb1ff5-b81b-4225-8da9-100a9115b1e3"},"vehicle_type_id":"4","last_reported":1726891866,"current_range_meters":10000,"station_id":"","pricing_plan_id":"cebpf4jnsgd1na2vs0mg"},{"bike_id":"d4dbc1fa-5b15-4c22-98a8-35ad261f028b","system_id":"levelo_inurba_marseille","lat":43.29023,"lon":5.38641,"is_reserved":false,"is_disabled":false,"rental_uris":{"android":"levelo://app?vid=d4dbc1fa-5b15-4c22-98a8-35ad261f028b","ios":"levelo://app?vid=d4dbc1fa-5b15-4c22-98a8-35ad261f028b"},"vehicle_type_id":"4","last_reported":1726891866,"current_range_meters":9600,"station_id":"ce4bh4p2rcd13ifvqe0g","pricing_plan_id":"cebpf4jnsgd1na2vs0mg"},{"bike_id":"0df805ca-5348-4169-979d-f0b036f1fe02","system_id":"levelo_inurba_marseille","lat":43.31994,"lon":5.38163,"is_reserved":false,"is_disabled":false,"rental_uris":{"android":"levelo://app?vid=0df805ca-5348-4169-979d-f0b036f1fe02","ios":"levelo://app?vid=0df805ca-5348-4169-979d-f0b036f1fe02"},"vehicle_type_id":"4","last_reported":1726891866,"current_range_meters":19200,"station_id":"ce4bhr12rcd13ifvqhpg","pricing_plan_id":"cebpf4jnsgd1na2vs0mg"},{"bike_id":"fb2dbda0-1c81-437c-bf06-a2ff3baa70d3","system_id":"levelo_inurba_marseille","lat":43.28968,"lon":5.37833,"is_reserved":false,"is_disabled":false,"rental_uris":{"android":"levelo://app?vid=fb2dbda0-1c81-437c-bf06-a2ff3baa70d3","ios":"levelo://app?vid=fb2dbda0-1c81-437c-bf06-a2ff3baa70d3"},"vehicle_type_id":"4","last_reported":1726891866,"current_range_meters":38800,"station_id":"ce4bh9p2rcd13ifvqed0","pricing_plan_id":"cebpf4jnsgd1na2vs0mg"},{"bike_id":"9b593e1a-bf66-49e3-9157-adba3e02bd78","system_id":"levelo_inurba_marseille","lat":43.30121,"lon":5.39189,"is_reserved":false,"is_disabled":false,"rental_uris":{"android":"levelo://app?vid=9b593e1a-bf66-49e3-9157-adba3e02bd78","ios":"levelo://app?vid=9b593e1a-bf66-49e3-9157-adba3e02bd78"},"vehicle_type_id":"4","last_reported":1726891866,"current_range_meters":22800,"station_id":"","pricing_plan_id":"cebpf4jnsgd1na2vs0mg"},{"bike_id":"35de92f8-d509-4165-a969-76652f8aba59","system_id":"levelo_inurba_marseille","lat":43.30934,"lon":5.40147,"is_reserved":false,"is_disabled":false,"rental_uris":{"android":"levelo://app?vid=35de92f8-d509-4165-a969-76652f8aba59","ios":"levelo://app?vid=35de92f8-d509-4165-a969-76652f8aba59"},"vehicle_type_id":"4","last_reported":1726891866,"current_range_meters":7200,"station_id":"ce4bgvp2rcd13ifvqct0","pricing_plan_id":"cebpf4jnsgd1na2vs0mg"},{"bike_id":"a46f474a-57e8-44f2-96d1-7f0a8dde5b54","system_id":"levelo_inurba_marseille","lat":43.24075,"lon":5.37759,"is_reserved":false,"is_disabled":false,"rental_uris":{"android":"levelo://app?vid=a46f474a-57e8-44f2-96d1-7f0a8dde5b54","ios":"levelo://app?vid=a46f474a-57e8-44f2-96d1-7f0a8dde5b54"},"vehicle_type_id":"4","last_reported":1726891866,"current_range_meters":36800,"station_id":"ce4bhnp2rcd13ifvqgvg","pricing_plan_id":"cebpf4jnsgd1na2vs0mg"},{"bike_id":"9c208db1-30c6-4806-afc7-303597cc7eff","system_id":"levelo_inurba_marseille","lat":43.28668,"lon":5.36361,"is_reserved":false,"is_disabled":false,"rental_uris":{"android":"levelo://app?vid=9c208db1-30c6-4806-afc7-303597cc7eff","ios":"levelo://app?vid=9c208db1-30c6-4806-afc7-303597cc7eff"},"vehicle_type_id":"4","last_reported":1726891866,"current_range_meters":38400,"station_id":"ce4bhah2rcd13ifvqej0","pricing_plan_id":"cebpf4jnsgd1na2vs0mg"},{"bike_id":"569ff18e-9975-467c-9c41-e82126f03fcb","system_id":"levelo_inurba_marseille","lat":43.26057,"lon":5.39398,"is_reserved":false,"is_disabled":false,"rental_uris":{"android":"levelo://app?vid=569ff18e-9975-467c-9c41-e82126f03fcb","ios":"levelo://app?vid=569ff18e-9975-467c-9c41-e82126f03fcb"},"vehicle_type_id":"4","last_reported":1726891866,"current_range_meters":39200,"station_id":"ce4bhh92rcd13ifvqfj0","pricing_plan_id":"cebpf4jnsgd1na2vs0mg"},{"bike_id":"c47aba76-dd8d-4b6e-9b2b-3c45cf9e5115","system_id":"levelo_inurba_marseille","lat":43.31073,"lon":5.38354,"is_reserved":false,"is_disabled":false,"rental_uris":{"android":"levelo://app?vid=c47aba76-dd8d-4b6e-9b2b-3c45cf9e5115","ios":"levelo://app?vid=c47aba76-dd8d-4b6e-9b2b-3c45cf9e5115"},"vehicle_type_id":"4","last_reported":1726891866,"current_range_meters":25200,"station_id":"ce4bgv92rcd13ifvqcr0","pricing_plan_id":"cebpf4jnsgd1na2vs0mg"},{"bike_id":"e4cd288b-58e9-4c73-81ff-0e54d332441e","system_id":"levelo_inurba_marseille","lat":43.33024,"lon":5.39039,"is_reserved":false,"is_disabled":false,"rental_uris":{"android":"levelo://app?vid=e4cd288b-58e9-4c73-81ff-0e54d332441e","ios":"levelo://app?vid=e4cd288b-58e9-4c73-81ff-0e54d332441e"},"vehicle_type_id":"4","last_reported":1726891866,"current_range_meters":18000,"station_id":"ce4bhr92rcd13ifvqhrg","pricing_plan_id":"cebpf4jnsgd1na2vs0mg"},{"bike_id":"72964c67-6aed-4707-911d-186df8a12b64","system_id":"levelo_inurba_marseille","lat":43.32342,"lon":5.40617,"is_reserved":false,"is_disabled":false,"rental_uris":{"android":"levelo://app?vid=72964c67-6aed-4707-911d-186df8a12b64","ios":"levelo://app?vid=72964c67-6aed-4707-911d-186df8a12b64"},"vehicle_type_id":"4","last_reported":1726891866,"current_range_meters":39200,"station_id":"ce4bhq92rcd13ifvqhjg","pricing_plan_id":"cebpf4jnsgd1na2vs0mg"},{"bike_id":"213c1f95-93aa-4a1c-8520-e0eefcf70b9b","system_id":"levelo_inurba_marseille","lat":43.29707,"lon":5.36606,"is_reserved":false,"is_disabled":false,"rental_uris":{"android":"levelo://app?vid=213c1f95-93aa-4a1c-8520-e0eefcf70b9b","ios":"levelo://app?vid=213c1f95-93aa-4a1c-8520-e0eefcf70b9b"},"vehicle_type_id":"4","last_reported":1726891866,"current_range_meters":26800,"station_id":"ce4bgn12rcd13ifvqbt0","pricing_plan_id":"cebpf4jnsgd1na2vs0mg"},{"bike_id":"b4d8cc2f-08fa-447c-98aa-3fb508700768","system_id":"levelo_inurba_marseille","lat":43.28942,"lon":5.3578,"is_reserved":false,"is_disabled":false,"rental_uris":{"android":"levelo://app?vid=b4d8cc2f-08fa-447c-98aa-3fb508700768","ios":"levelo://app?vid=b4d8cc2f-08fa-447c-98aa-3fb508700768"},"vehicle_type_id":"4","last_reported":1726891866,"current_range_meters":5600,"station_id":"","pricing_plan_id":"cebpf4jnsgd1na2vs0mg"},{"bike_id":"a1110c0e-ff10-4328-aae2-5b52cd8cd3a7","system_id":"levelo_inurba_marseille","lat":43.28467,"lon":5.38549,"is_reserved":false,"is_disabled":false,"rental_uris":{"android":"levelo://app?vid=a1110c0e-ff10-4328-aae2-5b52cd8cd3a7","ios":"levelo://app?vid=a1110c0e-ff10-4328-aae2-5b52cd8cd3a7"},"vehicle_type_id":"4","last_reported":1726891866,"current_range_meters":27600,"station_id":"ce4bh8p2rcd13ifvqeb0","pricing_plan_id":"cebpf4jnsgd1na2vs0mg"},{"bike_id":"f21eab61-d138-4b2f-83ff-2d501b8fe47e","system_id":"levelo_inurba_marseille","lat":43.275,"lon":5.42448,"is_reserved":false,"is_disabled":false,"rental_uris":{"android":"levelo://app?vid=f21eab61-d138-4b2f-83ff-2d501b8fe47e","ios":"levelo://app?vid=f21eab61-d138-4b2f-83ff-2d501b8fe47e"},"vehicle_type_id":"4","last_reported":1726891866,"current_range_meters":40000,"station_id":"ce4bhn92rcd13ifvqgrg","pricing_plan_id":"cebpf4jnsgd1na2vs0mg"},{"bike_id":"53b0d88c-3ddb-4e2e-a1d5-9ea3b0a5c6d1","system_id":"levelo_inurba_marseille","lat":43.31327,"lon":5.39704,"is_reserved":false,"is_disabled":false,"rental_uris":{"android":"levelo://app?vid=53b0d88c-3ddb-4e2e-a1d5-9ea3b0a5c6d1","ios":"levelo://app?vid=53b0d88c-3ddb-4e2e-a1d5-9ea3b0a5c6d1"},"vehicle_type_id":"4","last_reported":1726891866,"current_range_meters":28000,"station_id":"ce4bgvp2rcd13ifvqcu0","pricing_plan_id":"cebpf4jnsgd1na2vs0mg"},{"bike_id":"56acf405-8a38-44b1-92cd-b90e5c6ff518","system_id":"levelo_inurba_marseille","lat":43.26569,"lon":5.39008,"is_reserved":false,"is_disabled":false,"rental_uris":{"android":"levelo://app?vid=56acf405-8a38-44b1-92cd-b90e5c6ff518","ios":"levelo://app?vid=56acf405-8a38-44b1-92cd-b90e5c6ff518"},"vehicle_type_id":"4","last_reported":1726891866,"current_range_meters":28400,"station_id":"ce4bhe12rcd13ifvqf30","pricing_plan_id":"cebpf4jnsgd1na2vs0mg"},{"bike_id":"7aaa3322-a030-48e3-8a01-9ab1bcfe7553","system_id":"levelo_inurba_marseille","lat":43.29731,"lon":5.37679,"is_reserved":false,"is_disabled":false,"rental_uris":{"android":"levelo://app?vid=7aaa3322-a030-48e3-8a01-9ab1bcfe7553","ios":"levelo://app?vid=7aaa3322-a030-48e3-8a01-9ab1bcfe7553"},"vehicle_type_id":"4","last_reported":1726891866,"current_range_meters":32800,"station_id":"ce4bgkh2rcd13ifvqbl0","pricing_plan_id":"cebpf4jnsgd1na2vs0mg"},{"bike_id":"bcd9d067-b093-4910-baae-4106d4c6d258","system_id":"levelo_inurba_marseille","lat":43.29219,"lon":5.36053,"is_reserved":false,"is_disabled":false,"rental_uris":{"android":"levelo://app?vid=bcd9d067-b093-4910-baae-4106d4c6d258","ios":"levelo://app?vid=bcd9d067-b093-4910-baae-4106d4c6d258"},"vehicle_type_id":"4","last_reported":1726891866,"current_range_meters":38400,"station_id":"ce4bhbh2rcd13ifvqeqg","pricing_plan_id":"cebpf4jnsgd1na2vs0mg"},{"bike_id":"8db99277-90a2-45d9-aafa-536ff23cacde","system_id":"levelo_inurba_marseille","lat":43.31329,"lon":5.39689,"is_reserved":false,"is_disabled":false,"rental_uris":{"android":"levelo://app?vid=8db99277-90a2-45d9-aafa-536ff23cacde","ios":"levelo://app?vid=8db99277-90a2-45d9-aafa-536ff23cacde"},"vehicle_type_id":"4","last_reported":1726891866,"current_range_meters":39200,"station_id":"ce4bgvp2rcd13ifvqcu0","pricing_plan_id":"cebpf4jnsgd1na2vs0mg"},{"bike_id":"724c3c6d-bedb-44c0-a29f-7c5378d99563","system_id":"levelo_inurba_marseille","lat":43.30534,"lon":5.38428,"is_reserved":false,"is_disabled":false,"rental_uris":{"android":"levelo://app?vid=724c3c6d-bedb-44c0-a29f-7c5378d99563","ios":"levelo://app?vid=724c3c6d-bedb-44c0-a29f-7c5378d99563"},"vehicle_type_id":"4","last_reported":1726891866,"current_range_meters":37600,"station_id":"ce4bgg92rcd13ifvqb30","pricing_plan_id":"cebpf4jnsgd1na2vs0mg"},{"bike_id":"c4ffebf7-570f-4e93-a597-25b4f6edf95e","system_id":"levelo_inurba_marseille","lat":43.28714,"lon":5.39995,"is_reserved":false,"is_disabled":false,"rental_uris":{"android":"levelo://app?vid=c4ffebf7-570f-4e93-a597-25b4f6edf95e","ios":"levelo://app?vid=c4ffebf7-570f-4e93-a597-25b4f6edf95e"},"vehicle_type_id":"4","last_reported":1726891866,"current_range_meters":38400,"station_id":"ce4bho92rcd13ifvqh3g","pricing_plan_id":"cebpf4jnsgd1na2vs0mg"},{"bike_id":"a551c994-df60-4a90-b372-694301157325","system_id":"levelo_inurba_marseille","lat":43.29254,"lon":5.40907,"is_reserved":false,"is_disabled":false,"rental_uris":{"android":"levelo://app?vid=a551c994-df60-4a90-b372-694301157325","ios":"levelo://app?vid=a551c994-df60-4a90-b372-694301157325"},"vehicle_type_id":"4","last_reported":1726891866,"current_range_meters":39200,"station_id":"ce4bh192rcd13ifvqdc0","pricing_plan_id":"cebpf4jnsgd1na2vs0mg"},{"bike_id":"54af610b-4090-4726-b559-e496f86958a0","system_id":"levelo_inurba_marseille","lat":43.30889,"lon":5.37208,"is_reserved":false,"is_disabled":false,"rental_uris":{"android":"levelo://app?vid=54af610b-4090-4726-b559-e496f86958a0","ios":"levelo://app?vid=54af610b-4090-4726-b559-e496f86958a0"},"vehicle_type_id":"4","last_reported":1726891866,"current_range_meters":2800,"station_id":"ce4bguh2rcd13ifvqckg","pricing_plan_id":"cebpf4jnsgd1na2vs0mg"},{"bike_id":"6247911d-3b1a-4b71-bb29-f64d3346857c","system_id":"levelo_inurba_marseille","lat":43.30784,"lon":5.37652,"is_reserved":false,"is_disabled":false,"rental_uris":{"android":"levelo://app?vid=6247911d-3b1a-4b71-bb29-f64d3346857c","ios":"levelo://app?vid=6247911d-3b1a-4b71-bb29-f64d3346857c"},"vehicle_type_id":"4","last_reported":1726891866,"current_range_meters":22800,"station_id":"ce4bgv92rcd13ifvqcq0","pricing_plan_id":"cebpf4jnsgd1na2vs0mg"},{"bike_id":"f7ad2e7a-a575-4361-994a-0ff95a85d018","system_id":"levelo_inurba_marseille","lat":43.30649,"lon":5.37193,"is_reserved":false,"is_disabled":false,"rental_uris":{"android":"levelo://app?vid=f7ad2e7a-a575-4361-994a-0ff95a85d018","ios":"levelo://app?vid=f7ad2e7a-a575-4361-994a-0ff95a85d018"},"vehicle_type_id":"4","last_reported":1726891866,"current_range_meters":3600,"station_id":"","pricing_plan_id":"cebpf4jnsgd1na2vs0mg"},{"bike_id":"6dc6f439-d4f1-41c9-b6a4-732401976389","system_id":"levelo_inurba_marseille","lat":43.26687,"lon":5.3827,"is_reserved":false,"is_disabled":false,"rental_uris":{"android":"levelo://app?vid=6dc6f439-d4f1-41c9-b6a4-732401976389","ios":"levelo://app?vid=6dc6f439-d4f1-41c9-b6a4-732401976389"},"vehicle_type_id":"4","last_reported":1726891866,"current_range_meters":39200,"station_id":"ce4bhg92rcd13ifvqf90","pricing_plan_id":"cebpf4jnsgd1na2vs0mg"},{"bike_id":"b5ba6754-8523-46dd-a9aa-c920819a2baa","system_id":"levelo_inurba_marseille","lat":43.30626,"lon":5.40105,"is_reserved":false,"is_disabled":false,"rental_uris":{"android":"levelo://app?vid=b5ba6754-8523-46dd-a9aa-c920819a2baa","ios":"levelo://app?vid=b5ba6754-8523-46dd-a9aa-c920819a2baa"},"vehicle_type_id":"4","last_reported":1726891866,"current_range_meters":8000,"station_id":"ce4bh112rcd13ifvqda0","pricing_plan_id":"cebpf4jnsgd1na2vs0mg"},{"bike_id":"382b83cf-ea4e-4bb0-8ac1-627f9b837cc0","system_id":"levelo_inurba_marseille","lat":43.30587,"lon":5.37236,"is_reserved":false,"is_disabled":false,"rental_uris":{"android":"levelo://app?vid=382b83cf-ea4e-4bb0-8ac1-627f9b837cc0","ios":"levelo://app?vid=382b83cf-ea4e-4bb0-8ac1-627f9b837cc0"},"vehicle_type_id":"4","last_reported":1726891866,"current_range_meters":25200,"station_id":"ce4bgqh2rcd13ifvqc4g","pricing_plan_id":"cebpf4jnsgd1na2vs0mg"},{"bike_id":"5a375672-8adf-4f3f-b8a0-82973eabacfd","system_id":"levelo_inurba_marseille","lat":43.31273,"lon":5.40171,"is_reserved":false,"is_disabled":false,"rental_uris":{"android":"levelo://app?vid=5a375672-8adf-4f3f-b8a0-82973eabacfd","ios":"levelo://app?vid=5a375672-8adf-4f3f-b8a0-82973eabacfd"},"vehicle_type_id":"4","last_reported":1726891866,"current_range_meters":38400,"station_id":"ce4bh092rcd13ifvqd30","pricing_plan_id":"cebpf4jnsgd1na2vs0mg"},{"bike_id":"841546c0-6dca-4af6-955b-6e5b4bf0d05c","system_id":"levelo_inurba_marseille","lat":43.29253,"lon":5.40901,"is_reserved":false,"is_disabled":false,"rental_uris":{"android":"levelo://app?vid=841546c0-6dca-4af6-955b-6e5b4bf0d05c","ios":"levelo://app?vid=841546c0-6dca-4af6-955b-6e5b4bf0d05c"},"vehicle_type_id":"4","last_reported":1726891866,"current_range_meters":33200,"station_id":"ce4bh192rcd13ifvqdc0","pricing_plan_id":"cebpf4jnsgd1na2vs0mg"},{"bike_id":"cc1442f2-df9d-4ef9-a449-bab001c25afc","system_id":"levelo_inurba_marseille","lat":43.28028,"lon":5.36956,"is_reserved":false,"is_disabled":false,"rental_uris":{"android":"levelo://app?vid=cc1442f2-df9d-4ef9-a449-bab001c25afc","ios":"levelo://app?vid=cc1442f2-df9d-4ef9-a449-bab001c25afc"},"vehicle_type_id":"4","last_reported":1726891866,"current_range_meters":38000,"station_id":"ce4bha12rcd13ifvqef0","pricing_plan_id":"cebpf4jnsgd1na2vs0mg"},{"bike_id":"99db5d1c-1989-4768-8f9d-6ce5484e24bc","system_id":"levelo_inurba_marseille","lat":43.29978,"lon":5.37188,"is_reserved":false,"is_disabled":false,"rental_uris":{"android":"levelo://app?vid=99db5d1c-1989-4768-8f9d-6ce5484e24bc","ios":"levelo://app?vid=99db5d1c-1989-4768-8f9d-6ce5484e24bc"},"vehicle_type_id":"4","last_reported":1726891866,"current_range_meters":38000,"station_id":"ce4bgr92rcd13ifvqc7g","pricing_plan_id":"cebpf4jnsgd1na2vs0mg"},{"bike_id":"5840a821-7b4a-4179-8856-92a74917e83c","system_id":"levelo_inurba_marseille","lat":43.24997,"lon":5.38927,"is_reserved":false,"is_disabled":false,"rental_uris":{"android":"levelo://app?vid=5840a821-7b4a-4179-8856-92a74917e83c","ios":"levelo://app?vid=5840a821-7b4a-4179-8856-92a74917e83c"},"vehicle_type_id":"4","last_reported":1726891866,"current_range_meters":39200,"station_id":"ce4bhgp2rcd13ifvqfd0","pricing_plan_id":"cebpf4jnsgd1na2vs0mg"},{"bike_id":"53aa3265-3aae-4710-98ee-70d60e85c676","system_id":"levelo_inurba_marseille","lat":43.29867,"lon":5.39731,"is_reserved":false,"is_disabled":false,"rental_uris":{"android":"levelo://app?vid=53aa3265-3aae-4710-98ee-70d60e85c676","ios":"levelo://app?vid=53aa3265-3aae-4710-98ee-70d60e85c676"},"vehicle_type_id":"4","last_reported":1726891866,"current_range_meters":9600,"station_id":"ce4bh0h2rcd13ifvqd50","pricing_plan_id":"cebpf4jnsgd1na2vs0mg"},{"bike_id":"f30670e1-1de8-4985-82be-d26441c3c41c","system_id":"levelo_inurba_marseille","lat":43.28463,"lon":5.35886,"is_reserved":false,"is_disabled":false,"rental_uris":{"android":"levelo://app?vid=f30670e1-1de8-4985-82be-d26441c3c41c","ios":"levelo://app?vid=f30670e1-1de8-4985-82be-d26441c3c41c"},"vehicle_type_id":"4","last_reported":1726891866,"current_range_meters":38400,"station_id":"ce4bhah2rcd13ifvqei0","pricing_plan_id":"cebpf4jnsgd1na2vs0mg"},{"bike_id":"5419b1bf-d37c-4076-a34c-52ede101758e","system_id":"levelo_inurba_marseille","lat":43.337444,"lon":5.374475,"is_reserved":false,"is_disabled":false,"rental_uris":{"android":"levelo://app?vid=5419b1bf-d37c-4076-a34c-52ede101758e","ios":"levelo://app?vid=5419b1bf-d37c-4076-a34c-52ede101758e"},"vehicle_type_id":"4","last_reported":1726891866,"current_range_meters":34000,"station_id":"","pricing_plan_id":"cebpf4jnsgd1na2vs0mg"},{"bike_id":"c33e9d45-7b28-4509-86fe-867e95c1321a","system_id":"levelo_inurba_marseille","lat":43.33608,"lon":5.41027,"is_reserved":false,"is_disabled":false,"rental_uris":{"android":"levelo://app?vid=c33e9d45-7b28-4509-86fe-867e95c1321a","ios":"levelo://app?vid=c33e9d45-7b28-4509-86fe-867e95c1321a"},"vehicle_type_id":"4","last_reported":1726891866,"current_range_meters":38800,"station_id":"ce4bhqh2rcd13ifvqhmg","pricing_plan_id":"cebpf4jnsgd1na2vs0mg"},{"bike_id":"b44f0900-5f12-4df5-a67a-3a29d1a8d8d5","system_id":"levelo_inurba_marseille","lat":43.30599,"lon":5.37219,"is_reserved":false,"is_disabled":false,"rental_uris":{"android":"levelo://app?vid=b44f0900-5f12-4df5-a67a-3a29d1a8d8d5","ios":"levelo://app?vid=b44f0900-5f12-4df5-a67a-3a29d1a8d8d5"},"vehicle_type_id":"4","last_reported":1726891866,"current_range_meters":39200,"station_id":"ce4bgqh2rcd13ifvqc4g","pricing_plan_id":"cebpf4jnsgd1na2vs0mg"},{"bike_id":"55677341-2cba-41a2-861f-7b165b732782","system_id":"levelo_inurba_marseille","lat":43.29229,"lon":5.36053,"is_reserved":false,"is_disabled":false,"rental_uris":{"android":"levelo://app?vid=55677341-2cba-41a2-861f-7b165b732782","ios":"levelo://app?vid=55677341-2cba-41a2-861f-7b165b732782"},"vehicle_type_id":"4","last_reported":1726891866,"current_range_meters":38800,"station_id":"ce4bhbh2rcd13ifvqeqg","pricing_plan_id":"cebpf4jnsgd1na2vs0mg"},{"bike_id":"f7575c27-994c-406f-8323-578b38c16d91","system_id":"levelo_inurba_marseille","lat":43.28736,"lon":5.36528,"is_reserved":false,"is_disabled":false,"rental_uris":{"android":"levelo://app?vid=f7575c27-994c-406f-8323-578b38c16d91","ios":"levelo://app?vid=f7575c27-994c-406f-8323-578b38c16d91"},"vehicle_type_id":"4","last_reported":1726891866,"current_range_meters":33600,"station_id":"","pricing_plan_id":"cebpf4jnsgd1na2vs0mg"},{"bike_id":"f55d82a5-a2f1-4a59-a6a0-790c179f4953","system_id":"levelo_inurba_marseille","lat":43.29893,"lon":5.43665,"is_reserved":false,"is_disabled":false,"rental_uris":{"android":"levelo://app?vid=f55d82a5-a2f1-4a59-a6a0-790c179f4953","ios":"levelo://app?vid=f55d82a5-a2f1-4a59-a6a0-790c179f4953"},"vehicle_type_id":"4","last_reported":1726891866,"current_range_meters":38400,"station_id":"ce4bhpp2rcd13ifvqhfg","pricing_plan_id":"cebpf4jnsgd1na2vs0mg"},{"bike_id":"3cd0283a-8634-4ea9-99d7-c50a12afbb56","system_id":"levelo_inurba_marseille","lat":43.2315,"lon":5.43721,"is_reserved":false,"is_disabled":false,"rental_uris":{"android":"levelo://app?vid=3cd0283a-8634-4ea9-99d7-c50a12afbb56","ios":"levelo://app?vid=3cd0283a-8634-4ea9-99d7-c50a12afbb56"},"vehicle_type_id":"4","last_reported":1726891866,"current_range_meters":37600,"station_id":"ce4bhmp2rcd13ifvqgog","pricing_plan_id":"cebpf4jnsgd1na2vs0mg"},{"bike_id":"a020a923-89fb-4175-829b-bdb01d885f9c","system_id":"levelo_inurba_marseille","lat":43.23063,"lon":5.35496,"is_reserved":false,"is_disabled":false,"rental_uris":{"android":"levelo://app?vid=a020a923-89fb-4175-829b-bdb01d885f9c","ios":"levelo://app?vid=a020a923-89fb-4175-829b-bdb01d885f9c"},"vehicle_type_id":"4","last_reported":1726891866,"current_range_meters":30000,"station_id":"cpo3342slgdg3j2ifvpg","pricing_plan_id":"cebpf4jnsgd1na2vs0mg"},{"bike_id":"a9603a9a-3575-4d61-8297-7e9985c61899","system_id":"levelo_inurba_marseille","lat":43.30796,"lon":5.38153,"is_reserved":false,"is_disabled":false,"rental_uris":{"android":"levelo://app?vid=a9603a9a-3575-4d61-8297-7e9985c61899","ios":"levelo://app?vid=a9603a9a-3575-4d61-8297-7e9985c61899"},"vehicle_type_id":"4","last_reported":1726891866,"current_range_meters":4800,"station_id":"ce4bgt12rcd13ifvqce0","pricing_plan_id":"cebpf4jnsgd1na2vs0mg"},{"bike_id":"5ab91edf-ac3f-4f8e-8691-806f57a02361","system_id":"levelo_inurba_marseille","lat":43.31269,"lon":5.40171,"is_reserved":false,"is_disabled":false,"rental_uris":{"android":"levelo://app?vid=5ab91edf-ac3f-4f8e-8691-806f57a02361","ios":"levelo://app?vid=5ab91edf-ac3f-4f8e-8691-806f57a02361"},"vehicle_type_id":"4","last_reported":1726891866,"current_range_meters":30400,"station_id":"ce4bh092rcd13ifvqd30","pricing_plan_id":"cebpf4jnsgd1na2vs0mg"},{"bike_id":"742a3543-343d-45b9-b876-36b8d248039c","system_id":"levelo_inurba_marseille","lat":43.28109,"lon":5.37848,"is_reserved":false,"is_disabled":false,"rental_uris":{"android":"levelo://app?vid=742a3543-343d-45b9-b876-36b8d248039c","ios":"levelo://app?vid=742a3543-343d-45b9-b876-36b8d248039c"},"vehicle_type_id":"4","last_reported":1726891866,"current_range_meters":39200,"station_id":"ce4bha12rcd13ifvqee0","pricing_plan_id":"cebpf4jnsgd1na2vs0mg"},{"bike_id":"5899dc76-4576-41fc-91db-67e269faacc4","system_id":"levelo_inurba_marseille","lat":43.31762,"lon":5.39012,"is_reserved":false,"is_disabled":false,"rental_uris":{"android":"levelo://app?vid=5899dc76-4576-41fc-91db-67e269faacc4","ios":"levelo://app?vid=5899dc76-4576-41fc-91db-67e269faacc4"},"vehicle_type_id":"4","last_reported":1726891866,"current_range_meters":38800,"station_id":"ce4bhqp2rcd13ifvqhng","pricing_plan_id":"cebpf4jnsgd1na2vs0mg"},{"bike_id":"5f096d7e-445f-4f25-b9c1-08961d1d650e","system_id":"levelo_inurba_marseille","lat":43.27925,"lon":5.39575,"is_reserved":false,"is_disabled":false,"rental_uris":{"android":"levelo://app?vid=5f096d7e-445f-4f25-b9c1-08961d1d650e","ios":"levelo://app?vid=5f096d7e-445f-4f25-b9c1-08961d1d650e"},"vehicle_type_id":"4","last_reported":1726891866,"current_range_meters":38000,"station_id":"ce4bhf92rcd13ifvqf40","pricing_plan_id":"cebpf4jnsgd1na2vs0mg"},{"bike_id":"6e2fd8fb-799c-468d-a60b-38d2bf81aa37","system_id":"levelo_inurba_marseille","lat":43.23955,"lon":5.36629,"is_reserved":false,"is_disabled":false,"rental_uris":{"android":"levelo://app?vid=6e2fd8fb-799c-468d-a60b-38d2bf81aa37","ios":"levelo://app?vid=6e2fd8fb-799c-468d-a60b-38d2bf81aa37"},"vehicle_type_id":"4","last_reported":1726891866,"current_range_meters":4800,"station_id":"ce4bhi12rcd13ifvqfp0","pricing_plan_id":"cebpf4jnsgd1na2vs0mg"},{"bike_id":"010cdbb2-cdbe-48c0-bc62-a8e1c006b540","system_id":"levelo_inurba_marseille","lat":43.31278,"lon":5.40182,"is_reserved":false,"is_disabled":false,"rental_uris":{"android":"levelo://app?vid=010cdbb2-cdbe-48c0-bc62-a8e1c006b540","ios":"levelo://app?vid=010cdbb2-cdbe-48c0-bc62-a8e1c006b540"},"vehicle_type_id":"4","last_reported":1726891866,"current_range_meters":13600,"station_id":"ce4bh092rcd13ifvqd30","pricing_plan_id":"cebpf4jnsgd1na2vs0mg"},{"bike_id":"fb730c85-cef2-43fb-877c-de273059500e","system_id":"levelo_inurba_marseille","lat":43.31761,"lon":5.39024,"is_reserved":false,"is_disabled":false,"rental_uris":{"android":"levelo://app?vid=fb730c85-cef2-43fb-877c-de273059500e","ios":"levelo://app?vid=fb730c85-cef2-43fb-877c-de273059500e"},"vehicle_type_id":"4","last_reported":1726891866,"current_range_meters":30800,"station_id":"ce4bhqp2rcd13ifvqhng","pricing_plan_id":"cebpf4jnsgd1na2vs0mg"},{"bike_id":"5bf617b6-2eea-40a9-9576-9b6f0fdecd15","system_id":"levelo_inurba_marseille","lat":43.32367,"lon":5.38881,"is_reserved":false,"is_disabled":false,"rental_uris":{"android":"levelo://app?vid=5bf617b6-2eea-40a9-9576-9b6f0fdecd15","ios":"levelo://app?vid=5bf617b6-2eea-40a9-9576-9b6f0fdecd15"},"vehicle_type_id":"4","last_reported":1726891866,"current_range_meters":18000,"station_id":"ce4bhqp2rcd13ifvqhog","pricing_plan_id":"cebpf4jnsgd1na2vs0mg"},{"bike_id":"52456480-ecc9-4b47-9c7c-bbcb8f0683e9","system_id":"levelo_inurba_marseille","lat":43.28432,"lon":5.39186,"is_reserved":false,"is_disabled":false,"rental_uris":{"android":"levelo://app?vid=52456480-ecc9-4b47-9c7c-bbcb8f0683e9","ios":"levelo://app?vid=52456480-ecc9-4b47-9c7c-bbcb8f0683e9"},"vehicle_type_id":"4","last_reported":1726891866,"current_range_meters":38800,"station_id":"ce4bhoh2rcd13ifvqh5g","pricing_plan_id":"cebpf4jnsgd1na2vs0mg"},{"bike_id":"8de964f3-991f-47cb-98ab-ed6130191177","system_id":"levelo_inurba_marseille","lat":43.24393,"lon":5.37059,"is_reserved":false,"is_disabled":false,"rental_uris":{"android":"levelo://app?vid=8de964f3-991f-47cb-98ab-ed6130191177","ios":"levelo://app?vid=8de964f3-991f-47cb-98ab-ed6130191177"},"vehicle_type_id":"4","last_reported":1726891866,"current_range_meters":37600,"station_id":"ce4bhhh2rcd13ifvqfk0","pricing_plan_id":"cebpf4jnsgd1na2vs0mg"},{"bike_id":"d056a89f-bdf1-46e2-9aca-5e72728c3787","system_id":"levelo_inurba_marseille","lat":43.27613,"lon":5.36122,"is_reserved":false,"is_disabled":false,"rental_uris":{"android":"levelo://app?vid=d056a89f-bdf1-46e2-9aca-5e72728c3787","ios":"levelo://app?vid=d056a89f-bdf1-46e2-9aca-5e72728c3787"},"vehicle_type_id":"4","last_reported":1726891866,"current_range_meters":37600,"station_id":"ce4bgj92rcd13ifvqbe0","pricing_plan_id":"cebpf4jnsgd1na2vs0mg"},{"bike_id":"48f9e451-8e95-4783-aaa6-5b6011a56ae8","system_id":"levelo_inurba_marseille","lat":43.30554,"lon":5.36565,"is_reserved":false,"is_disabled":false,"rental_uris":{"android":"levelo://app?vid=48f9e451-8e95-4783-aaa6-5b6011a56ae8","ios":"levelo://app?vid=48f9e451-8e95-4783-aaa6-5b6011a56ae8"},"vehicle_type_id":"4","last_reported":1726891866,"current_range_meters":28800,"station_id":"ce4bgs12rcd13ifvqcag","pricing_plan_id":"cebpf4jnsgd1na2vs0mg"},{"bike_id":"53bc04ae-f552-44a5-9019-52e8300f3399","system_id":"levelo_inurba_marseille","lat":43.32481,"lon":5.36565,"is_reserved":false,"is_disabled":false,"rental_uris":{"android":"levelo://app?vid=53bc04ae-f552-44a5-9019-52e8300f3399","ios":"levelo://app?vid=53bc04ae-f552-44a5-9019-52e8300f3399"},"vehicle_type_id":"4","last_reported":1726891866,"current_range_meters":30400,"station_id":"ce4bhs12rcd13ifvqhvg","pricing_plan_id":"cebpf4jnsgd1na2vs0mg"},{"bike_id":"759751c6-00ff-4153-a15e-ad962e27e329","system_id":"levelo_inurba_marseille","lat":43.28927,"lon":5.36396,"is_reserved":false,"is_disabled":false,"rental_uris":{"android":"levelo://app?vid=759751c6-00ff-4153-a15e-ad962e27e329","ios":"levelo://app?vid=759751c6-00ff-4153-a15e-ad962e27e329"},"vehicle_type_id":"4","last_reported":1726891866,"current_range_meters":39200,"station_id":"ce4bhc92rcd13ifvqetg","pricing_plan_id":"cebpf4jnsgd1na2vs0mg"},{"bike_id":"40b30bf1-df0a-47fd-bf93-8f163c982ffe","system_id":"levelo_inurba_marseille","lat":43.32284,"lon":5.38282,"is_reserved":false,"is_disabled":false,"rental_uris":{"android":"levelo://app?vid=40b30bf1-df0a-47fd-bf93-8f163c982ffe","ios":"levelo://app?vid=40b30bf1-df0a-47fd-bf93-8f163c982ffe"},"vehicle_type_id":"4","last_reported":1726891866,"current_range_meters":36400,"station_id":"ce4bhr12rcd13ifvqhqg","pricing_plan_id":"cebpf4jnsgd1na2vs0mg"},{"bike_id":"17bd986d-4672-4a62-bc5b-bbca5dc8dd53","system_id":"levelo_inurba_marseille","lat":43.30356,"lon":5.4188,"is_reserved":false,"is_disabled":false,"rental_uris":{"android":"levelo://app?vid=17bd986d-4672-4a62-bc5b-bbca5dc8dd53","ios":"levelo://app?vid=17bd986d-4672-4a62-bc5b-bbca5dc8dd53"},"vehicle_type_id":"4","last_reported":1726891866,"current_range_meters":22800,"station_id":"ce4bhop2rcd13ifvqh7g","pricing_plan_id":"cebpf4jnsgd1na2vs0mg"},{"bike_id":"1c1694a5-d9ea-4aac-a459-dcbc1bc0201e","system_id":"levelo_inurba_marseille","lat":43.28934,"lon":5.36391,"is_reserved":false,"is_disabled":false,"rental_uris":{"android":"levelo://app?vid=1c1694a5-d9ea-4aac-a459-dcbc1bc0201e","ios":"levelo://app?vid=1c1694a5-d9ea-4aac-a459-dcbc1bc0201e"},"vehicle_type_id":"4","last_reported":1726891866,"current_range_meters":38000,"station_id":"ce4bhc92rcd13ifvqetg","pricing_plan_id":"cebpf4jnsgd1na2vs0mg"},{"bike_id":"df9b1c9e-0ed6-4804-941c-22e2aebb94dd","system_id":"levelo_inurba_marseille","lat":43.23153,"lon":5.43713,"is_reserved":false,"is_disabled":false,"rental_uris":{"android":"levelo://app?vid=df9b1c9e-0ed6-4804-941c-22e2aebb94dd","ios":"levelo://app?vid=df9b1c9e-0ed6-4804-941c-22e2aebb94dd"},"vehicle_type_id":"4","last_reported":1726891866,"current_range_meters":28400,"station_id":"ce4bhmp2rcd13ifvqgog","pricing_plan_id":"cebpf4jnsgd1na2vs0mg"},{"bike_id":"546ee6bf-55f8-4946-bcee-e7096c9be4b7","system_id":"levelo_inurba_marseille","lat":43.24395,"lon":5.3706,"is_reserved":false,"is_disabled":false,"rental_uris":{"android":"levelo://app?vid=546ee6bf-55f8-4946-bcee-e7096c9be4b7","ios":"levelo://app?vid=546ee6bf-55f8-4946-bcee-e7096c9be4b7"},"vehicle_type_id":"4","last_reported":1726891866,"current_range_meters":28000,"station_id":"ce4bhhh2rcd13ifvqfk0","pricing_plan_id":"cebpf4jnsgd1na2vs0mg"},{"bike_id":"e487b570-ae0a-441e-8d21-21f51ea56705","system_id":"levelo_inurba_marseille","lat":43.33602,"lon":5.41031,"is_reserved":false,"is_disabled":false,"rental_uris":{"android":"levelo://app?vid=e487b570-ae0a-441e-8d21-21f51ea56705","ios":"levelo://app?vid=e487b570-ae0a-441e-8d21-21f51ea56705"},"vehicle_type_id":"4","last_reported":1726891866,"current_range_meters":32000,"station_id":"ce4bhqh2rcd13ifvqhmg","pricing_plan_id":"cebpf4jnsgd1na2vs0mg"},{"bike_id":"2633e599-bd28-40d3-b331-ac739c663b27","system_id":"levelo_inurba_marseille","lat":43.32486,"lon":5.36566,"is_reserved":false,"is_disabled":false,"rental_uris":{"android":"levelo://app?vid=2633e599-bd28-40d3-b331-ac739c663b27","ios":"levelo://app?vid=2633e599-bd28-40d3-b331-ac739c663b27"},"vehicle_type_id":"4","last_reported":1726891866,"current_range_meters":17600,"station_id":"ce4bhs12rcd13ifvqhvg","pricing_plan_id":"cebpf4jnsgd1na2vs0mg"},{"bike_id":"1032c0bc-2796-4700-9037-5d3e4470253f","system_id":"levelo_inurba_marseille","lat":43.28107,"lon":5.37838,"is_reserved":false,"is_disabled":false,"rental_uris":{"android":"levelo://app?vid=1032c0bc-2796-4700-9037-5d3e4470253f","ios":"levelo://app?vid=1032c0bc-2796-4700-9037-5d3e4470253f"},"vehicle_type_id":"4","last_reported":1726891866,"current_range_meters":12400,"station_id":"ce4bha12rcd13ifvqee0","pricing_plan_id":"cebpf4jnsgd1na2vs0mg"},{"bike_id":"40b4c6d2-1591-4c31-ba7e-28d863ceb674","system_id":"levelo_inurba_marseille","lat":43.30801,"lon":5.38159,"is_reserved":false,"is_disabled":false,"rental_uris":{"android":"levelo://app?vid=40b4c6d2-1591-4c31-ba7e-28d863ceb674","ios":"levelo://app?vid=40b4c6d2-1591-4c31-ba7e-28d863ceb674"},"vehicle_type_id":"4","last_reported":1726891866,"current_range_meters":33200,"station_id":"ce4bgt12rcd13ifvqce0","pricing_plan_id":"cebpf4jnsgd1na2vs0mg"},{"bike_id":"fea2226a-1aa5-4c80-9a18-89d4f37ae4ed","system_id":"levelo_inurba_marseille","lat":43.30636,"lon":5.40088,"is_reserved":false,"is_disabled":false,"rental_uris":{"android":"levelo://app?vid=fea2226a-1aa5-4c80-9a18-89d4f37ae4ed","ios":"levelo://app?vid=fea2226a-1aa5-4c80-9a18-89d4f37ae4ed"},"vehicle_type_id":"4","last_reported":1726891866,"current_range_meters":38400,"station_id":"ce4bh112rcd13ifvqda0","pricing_plan_id":"cebpf4jnsgd1na2vs0mg"},{"bike_id":"6860e9db-5d98-45b4-aae5-0f2e9c653968","system_id":"levelo_inurba_marseille","lat":43.28921,"lon":5.36635,"is_reserved":false,"is_disabled":false,"rental_uris":{"android":"levelo://app?vid=6860e9db-5d98-45b4-aae5-0f2e9c653968","ios":"levelo://app?vid=6860e9db-5d98-45b4-aae5-0f2e9c653968"},"vehicle_type_id":"4","last_reported":1726891866,"current_range_meters":38800,"station_id":"ce4bhap2rcd13ifvqek0","pricing_plan_id":"cebpf4jnsgd1na2vs0mg"},{"bike_id":"ec55276f-77cb-4620-963f-fef2e0e52774","system_id":"levelo_inurba_marseille","lat":43.27911,"lon":5.38017,"is_reserved":false,"is_disabled":false,"rental_uris":{"android":"levelo://app?vid=ec55276f-77cb-4620-963f-fef2e0e52774","ios":"levelo://app?vid=ec55276f-77cb-4620-963f-fef2e0e52774"},"vehicle_type_id":"4","last_reported":1726891866,"current_range_meters":33200,"station_id":"ce4bhf92rcd13ifvqf50","pricing_plan_id":"cebpf4jnsgd1na2vs0mg"},{"bike_id":"f3130500-f401-4a62-ae18-128419f3b3e3","system_id":"levelo_inurba_marseille","lat":43.31277,"lon":5.40175,"is_reserved":false,"is_disabled":false,"rental_uris":{"android":"levelo://app?vid=f3130500-f401-4a62-ae18-128419f3b3e3","ios":"levelo://app?vid=f3130500-f401-4a62-ae18-128419f3b3e3"},"vehicle_type_id":"4","last_reported":1726891866,"current_range_meters":26800,"station_id":"ce4bh092rcd13ifvqd30","pricing_plan_id":"cebpf4jnsgd1na2vs0mg"},{"bike_id":"604c9531-be4f-4974-bfe2-bd7828d7386f","system_id":"levelo_inurba_marseille","lat":43.29894,"lon":5.43673,"is_reserved":false,"is_disabled":false,"rental_uris":{"android":"levelo://app?vid=604c9531-be4f-4974-bfe2-bd7828d7386f","ios":"levelo://app?vid=604c9531-be4f-4974-bfe2-bd7828d7386f"},"vehicle_type_id":"4","last_reported":1726891866,"current_range_meters":25200,"station_id":"ce4bhpp2rcd13ifvqhfg","pricing_plan_id":"cebpf4jnsgd1na2vs0mg"},{"bike_id":"c1310b37-dd83-4623-a074-f471af25c7d1","system_id":"levelo_inurba_marseille","lat":43.28442,"lon":5.39193,"is_reserved":false,"is_disabled":false,"rental_uris":{"android":"levelo://app?vid=c1310b37-dd83-4623-a074-f471af25c7d1","ios":"levelo://app?vid=c1310b37-dd83-4623-a074-f471af25c7d1"},"vehicle_type_id":"4","last_reported":1726891866,"current_range_meters":38800,"station_id":"ce4bhoh2rcd13ifvqh5g","pricing_plan_id":"cebpf4jnsgd1na2vs0mg"},{"bike_id":"d90efd7c-0a3e-4081-a74b-8128853272ec","system_id":"levelo_inurba_marseille","lat":43.26499,"lon":5.39541,"is_reserved":false,"is_disabled":false,"rental_uris":{"android":"levelo://app?vid=d90efd7c-0a3e-4081-a74b-8128853272ec","ios":"levelo://app?vid=d90efd7c-0a3e-4081-a74b-8128853272ec"},"vehicle_type_id":"4","last_reported":1726891866,"current_range_meters":4800,"station_id":"ce4bhi12rcd13ifvqfq0","pricing_plan_id":"cebpf4jnsgd1na2vs0mg"},{"bike_id":"713dca00-9221-4cd7-ac35-8f074cf6f847","system_id":"levelo_inurba_marseille","lat":43.31228,"lon":5.36855,"is_reserved":false,"is_disabled":false,"rental_uris":{"android":"levelo://app?vid=713dca00-9221-4cd7-ac35-8f074cf6f847","ios":"levelo://app?vid=713dca00-9221-4cd7-ac35-8f074cf6f847"},"vehicle_type_id":"4","last_reported":1726891866,"current_range_meters":34800,"station_id":"ce4bgl92rcd13ifvqbq0","pricing_plan_id":"cebpf4jnsgd1na2vs0mg"},{"bike_id":"ac06cbe3-c5d5-4918-8fc0-6bf0136274b7","system_id":"levelo_inurba_marseille","lat":43.27496,"lon":5.4245,"is_reserved":false,"is_disabled":false,"rental_uris":{"android":"levelo://app?vid=ac06cbe3-c5d5-4918-8fc0-6bf0136274b7","ios":"levelo://app?vid=ac06cbe3-c5d5-4918-8fc0-6bf0136274b7"},"vehicle_type_id":"4","last_reported":1726891866,"current_range_meters":24000,"station_id":"ce4bhn92rcd13ifvqgrg","pricing_plan_id":"cebpf4jnsgd1na2vs0mg"},{"bike_id":"e6bcdbe7-48f0-4335-bf4f-d7a22249ce5f","system_id":"levelo_inurba_marseille","lat":43.2512,"lon":5.4032,"is_reserved":false,"is_disabled":false,"rental_uris":{"android":"levelo://app?vid=e6bcdbe7-48f0-4335-bf4f-d7a22249ce5f","ios":"levelo://app?vid=e6bcdbe7-48f0-4335-bf4f-d7a22249ce5f"},"vehicle_type_id":"4","last_reported":1726891866,"current_range_meters":22800,"station_id":"ce4bhlh2rcd13ifvqgig","pricing_plan_id":"cebpf4jnsgd1na2vs0mg"},{"bike_id":"70fee6ed-dc93-48a8-980c-9c9cdea4fa35","system_id":"levelo_inurba_marseille","lat":43.30597,"lon":5.37218,"is_reserved":false,"is_disabled":false,"rental_uris":{"android":"levelo://app?vid=70fee6ed-dc93-48a8-980c-9c9cdea4fa35","ios":"levelo://app?vid=70fee6ed-dc93-48a8-980c-9c9cdea4fa35"},"vehicle_type_id":"4","last_reported":1726891866,"current_range_meters":34800,"station_id":"ce4bgqh2rcd13ifvqc4g","pricing_plan_id":"cebpf4jnsgd1na2vs0mg"},{"bike_id":"f3f8e050-a1c2-48aa-b8de-726645beea4c","system_id":"levelo_inurba_marseille","lat":43.29035,"lon":5.35911,"is_reserved":false,"is_disabled":false,"rental_uris":{"android":"levelo://app?vid=f3f8e050-a1c2-48aa-b8de-726645beea4c","ios":"levelo://app?vid=f3f8e050-a1c2-48aa-b8de-726645beea4c"},"vehicle_type_id":"4","last_reported":1726891866,"current_range_meters":38000,"station_id":"ce4bha92rcd13ifvqeg0","pricing_plan_id":"cebpf4jnsgd1na2vs0mg"},{"bike_id":"b47f7abd-dffa-4594-ae10-66a4216fac59","system_id":"levelo_inurba_marseille","lat":43.27835,"lon":5.38493,"is_reserved":false,"is_disabled":false,"rental_uris":{"android":"levelo://app?vid=b47f7abd-dffa-4594-ae10-66a4216fac59","ios":"levelo://app?vid=b47f7abd-dffa-4594-ae10-66a4216fac59"},"vehicle_type_id":"4","last_reported":1726891866,"current_range_meters":34800,"station_id":"","pricing_plan_id":"cebpf4jnsgd1na2vs0mg"},{"bike_id":"a09b131e-b0a8-4938-a802-317747afbde1","system_id":"levelo_inurba_marseille","lat":43.29966,"lon":5.36932,"is_reserved":false,"is_disabled":false,"rental_uris":{"android":"levelo://app?vid=a09b131e-b0a8-4938-a802-317747afbde1","ios":"levelo://app?vid=a09b131e-b0a8-4938-a802-317747afbde1"},"vehicle_type_id":"4","last_reported":1726891866,"current_range_meters":4000,"station_id":"","pricing_plan_id":"cebpf4jnsgd1na2vs0mg"},{"bike_id":"8f4b950f-9bc4-49d6-b915-95ca8304b9ed","system_id":"levelo_inurba_marseille","lat":43.28701,"lon":5.39983,"is_reserved":false,"is_disabled":false,"rental_uris":{"android":"levelo://app?vid=8f4b950f-9bc4-49d6-b915-95ca8304b9ed","ios":"levelo://app?vid=8f4b950f-9bc4-49d6-b915-95ca8304b9ed"},"vehicle_type_id":"4","last_reported":1726891866,"current_range_meters":38800,"station_id":"ce4bho92rcd13ifvqh3g","pricing_plan_id":"cebpf4jnsgd1na2vs0mg"},{"bike_id":"b3a3e2cf-e173-4782-9560-348915a6093a","system_id":"levelo_inurba_marseille","lat":43.2717,"lon":5.40995,"is_reserved":false,"is_disabled":false,"rental_uris":{"android":"levelo://app?vid=b3a3e2cf-e173-4782-9560-348915a6093a","ios":"levelo://app?vid=b3a3e2cf-e173-4782-9560-348915a6093a"},"vehicle_type_id":"4","last_reported":1726891866,"current_range_meters":32400,"station_id":"ce4bhl12rcd13ifvqgf0","pricing_plan_id":"cebpf4jnsgd1na2vs0mg"},{"bike_id":"b9abb1c6-eda5-4086-8157-de0c63cc2402","system_id":"levelo_inurba_marseille","lat":43.28113,"lon":5.37845,"is_reserved":false,"is_disabled":false,"rental_uris":{"android":"levelo://app?vid=b9abb1c6-eda5-4086-8157-de0c63cc2402","ios":"levelo://app?vid=b9abb1c6-eda5-4086-8157-de0c63cc2402"},"vehicle_type_id":"4","last_reported":1726891866,"current_range_meters":33600,"station_id":"ce4bha12rcd13ifvqee0","pricing_plan_id":"cebpf4jnsgd1na2vs0mg"},{"bike_id":"542e2c69-6cd2-413d-9cfd-2c5f9a60a140","system_id":"levelo_inurba_marseille","lat":43.24067,"lon":5.37759,"is_reserved":false,"is_disabled":false,"rental_uris":{"android":"levelo://app?vid=542e2c69-6cd2-413d-9cfd-2c5f9a60a140","ios":"levelo://app?vid=542e2c69-6cd2-413d-9cfd-2c5f9a60a140"},"vehicle_type_id":"4","last_reported":1726891866,"current_range_meters":9600,"station_id":"ce4bhnp2rcd13ifvqgvg","pricing_plan_id":"cebpf4jnsgd1na2vs0mg"},{"bike_id":"f9c9be8e-ea20-4727-9516-26ff2df08de7","system_id":"levelo_inurba_marseille","lat":43.29986,"lon":5.41263,"is_reserved":false,"is_disabled":false,"rental_uris":{"android":"levelo://app?vid=f9c9be8e-ea20-4727-9516-26ff2df08de7","ios":"levelo://app?vid=f9c9be8e-ea20-4727-9516-26ff2df08de7"},"vehicle_type_id":"4","last_reported":1726891866,"current_range_meters":39200,"station_id":"ce4bhp12rcd13ifvqh9g","pricing_plan_id":"cebpf4jnsgd1na2vs0mg"},{"bike_id":"3c85a016-f18e-4bd3-ad58-600b4e457607","system_id":"levelo_inurba_marseille","lat":43.28922,"lon":5.38412,"is_reserved":false,"is_disabled":false,"rental_uris":{"android":"levelo://app?vid=3c85a016-f18e-4bd3-ad58-600b4e457607","ios":"levelo://app?vid=3c85a016-f18e-4bd3-ad58-600b4e457607"},"vehicle_type_id":"4","last_reported":1726891866,"current_range_meters":39200,"station_id":"ce4bh612rcd13ifvqe6g","pricing_plan_id":"cebpf4jnsgd1na2vs0mg"},{"bike_id":"8273c267-5219-4186-8f32-c3e55203a7ac","system_id":"levelo_inurba_marseille","lat":43.23965,"lon":5.39702,"is_reserved":false,"is_disabled":false,"rental_uris":{"android":"levelo://app?vid=8273c267-5219-4186-8f32-c3e55203a7ac","ios":"levelo://app?vid=8273c267-5219-4186-8f32-c3e55203a7ac"},"vehicle_type_id":"4","last_reported":1726891866,"current_range_meters":6800,"station_id":"","pricing_plan_id":"cebpf4jnsgd1na2vs0mg"},{"bike_id":"79ae80ec-ee51-41e3-8d81-35eef174ac0d","system_id":"levelo_inurba_marseille","lat":43.29012,"lon":5.36962,"is_reserved":false,"is_disabled":false,"rental_uris":{"android":"levelo://app?vid=79ae80ec-ee51-41e3-8d81-35eef174ac0d","ios":"levelo://app?vid=79ae80ec-ee51-41e3-8d81-35eef174ac0d"},"vehicle_type_id":"4","last_reported":1726891866,"current_range_meters":11200,"station_id":"","pricing_plan_id":"cebpf4jnsgd1na2vs0mg"},{"bike_id":"9c92648a-f006-4167-bb4c-b3ce8835b4ad","system_id":"levelo_inurba_marseille","lat":43.31713,"lon":5.43706,"is_reserved":false,"is_disabled":false,"rental_uris":{"android":"levelo://app?vid=9c92648a-f006-4167-bb4c-b3ce8835b4ad","ios":"levelo://app?vid=9c92648a-f006-4167-bb4c-b3ce8835b4ad"},"vehicle_type_id":"4","last_reported":1726891866,"current_range_meters":38800,"station_id":"ce4bhp92rcd13ifvqhcg","pricing_plan_id":"cebpf4jnsgd1na2vs0mg"},{"bike_id":"0758898b-c621-4049-b058-e9cd0ceaa979","system_id":"levelo_inurba_marseille","lat":43.3046,"lon":5.37903,"is_reserved":false,"is_disabled":false,"rental_uris":{"android":"levelo://app?vid=0758898b-c621-4049-b058-e9cd0ceaa979","ios":"levelo://app?vid=0758898b-c621-4049-b058-e9cd0ceaa979"},"vehicle_type_id":"4","last_reported":1726891866,"current_range_meters":35600,"station_id":"ce4bgup2rcd13ifvqcn0","pricing_plan_id":"cebpf4jnsgd1na2vs0mg"},{"bike_id":"302824b9-3dd5-4019-865b-adb62674e635","system_id":"levelo_inurba_marseille","lat":43.22933,"lon":5.35377,"is_reserved":false,"is_disabled":false,"rental_uris":{"android":"levelo://app?vid=302824b9-3dd5-4019-865b-adb62674e635","ios":"levelo://app?vid=302824b9-3dd5-4019-865b-adb62674e635"},"vehicle_type_id":"4","last_reported":1726891866,"current_range_meters":31200,"station_id":"cpo3532slgdg3j2ikp40","pricing_plan_id":"cebpf4jnsgd1na2vs0mg"},{"bike_id":"59ff5b6d-f654-421c-9531-eb97a5647b8c","system_id":"levelo_inurba_marseille","lat":43.30256,"lon":5.40074,"is_reserved":false,"is_disabled":false,"rental_uris":{"android":"levelo://app?vid=59ff5b6d-f654-421c-9531-eb97a5647b8c","ios":"levelo://app?vid=59ff5b6d-f654-421c-9531-eb97a5647b8c"},"vehicle_type_id":"4","last_reported":1726891866,"current_range_meters":37600,"station_id":"ce4bgvh2rcd13ifvqcs0","pricing_plan_id":"cebpf4jnsgd1na2vs0mg"},{"bike_id":"05ce1cc7-1458-4b6f-b98b-b440ad978a7c","system_id":"levelo_inurba_marseille","lat":43.28565,"lon":5.39483,"is_reserved":false,"is_disabled":false,"rental_uris":{"android":"levelo://app?vid=05ce1cc7-1458-4b6f-b98b-b440ad978a7c","ios":"levelo://app?vid=05ce1cc7-1458-4b6f-b98b-b440ad978a7c"},"vehicle_type_id":"4","last_reported":1726891866,"current_range_meters":35200,"station_id":"ce4bh292rcd13ifvqdg0","pricing_plan_id":"cebpf4jnsgd1na2vs0mg"},{"bike_id":"42fac7e5-89b5-43a0-86e0-6d691ed14493","system_id":"levelo_inurba_marseille","lat":43.31269,"lon":5.40174,"is_reserved":false,"is_disabled":false,"rental_uris":{"android":"levelo://app?vid=42fac7e5-89b5-43a0-86e0-6d691ed14493","ios":"levelo://app?vid=42fac7e5-89b5-43a0-86e0-6d691ed14493"},"vehicle_type_id":"4","last_reported":1726891866,"current_range_meters":27600,"station_id":"ce4bh092rcd13ifvqd30","pricing_plan_id":"cebpf4jnsgd1na2vs0mg"},{"bike_id":"8e22fc24-4a7c-45aa-a5d9-f186ef2348cb","system_id":"levelo_inurba_marseille","lat":43.2973,"lon":5.37688,"is_reserved":false,"is_disabled":false,"rental_uris":{"android":"levelo://app?vid=8e22fc24-4a7c-45aa-a5d9-f186ef2348cb","ios":"levelo://app?vid=8e22fc24-4a7c-45aa-a5d9-f186ef2348cb"},"vehicle_type_id":"4","last_reported":1726891866,"current_range_meters":37600,"station_id":"ce4bgkh2rcd13ifvqbl0","pricing_plan_id":"cebpf4jnsgd1na2vs0mg"},{"bike_id":"fff9e145-8789-414d-bffe-2978cf0a6dc3","system_id":"levelo_inurba_marseille","lat":43.2846,"lon":5.35886,"is_reserved":false,"is_disabled":false,"rental_uris":{"android":"levelo://app?vid=fff9e145-8789-414d-bffe-2978cf0a6dc3","ios":"levelo://app?vid=fff9e145-8789-414d-bffe-2978cf0a6dc3"},"vehicle_type_id":"4","last_reported":1726891866,"current_range_meters":38800,"station_id":"ce4bhah2rcd13ifvqei0","pricing_plan_id":"cebpf4jnsgd1na2vs0mg"},{"bike_id":"7db34aab-bb83-4943-a5a0-93955f52a4ec","system_id":"levelo_inurba_marseille","lat":43.33726,"lon":5.39179,"is_reserved":false,"is_disabled":false,"rental_uris":{"android":"levelo://app?vid=7db34aab-bb83-4943-a5a0-93955f52a4ec","ios":"levelo://app?vid=7db34aab-bb83-4943-a5a0-93955f52a4ec"},"vehicle_type_id":"4","last_reported":1726891866,"current_range_meters":38800,"station_id":"ce4bhr92rcd13ifvqhsg","pricing_plan_id":"cebpf4jnsgd1na2vs0mg"},{"bike_id":"d63454a7-1749-4b2e-9995-433038e7b1a4","system_id":"levelo_inurba_marseille","lat":43.29692,"lon":5.36617,"is_reserved":false,"is_disabled":false,"rental_uris":{"android":"levelo://app?vid=d63454a7-1749-4b2e-9995-433038e7b1a4","ios":"levelo://app?vid=d63454a7-1749-4b2e-9995-433038e7b1a4"},"vehicle_type_id":"4","last_reported":1726891866,"current_range_meters":32400,"station_id":"ce4bgn12rcd13ifvqbt0","pricing_plan_id":"cebpf4jnsgd1na2vs0mg"},{"bike_id":"f8756bd1-1b84-40a9-97cd-556eb9ea7069","system_id":"levelo_inurba_marseille","lat":43.31279,"lon":5.40163,"is_reserved":false,"is_disabled":false,"rental_uris":{"android":"levelo://app?vid=f8756bd1-1b84-40a9-97cd-556eb9ea7069","ios":"levelo://app?vid=f8756bd1-1b84-40a9-97cd-556eb9ea7069"},"vehicle_type_id":"4","last_reported":1726891866,"current_range_meters":38800,"station_id":"ce4bh092rcd13ifvqd30","pricing_plan_id":"cebpf4jnsgd1na2vs0mg"},{"bike_id":"d48f1906-adcd-45cb-a59f-a9353947a181","system_id":"levelo_inurba_marseille","lat":43.27828,"lon":5.39206,"is_reserved":false,"is_disabled":false,"rental_uris":{"android":"levelo://app?vid=d48f1906-adcd-45cb-a59f-a9353947a181","ios":"levelo://app?vid=d48f1906-adcd-45cb-a59f-a9353947a181"},"vehicle_type_id":"4","last_reported":1726891866,"current_range_meters":39200,"station_id":"ce4bhjp2rcd13ifvqga0","pricing_plan_id":"cebpf4jnsgd1na2vs0mg"},{"bike_id":"e2da9204-0e3a-46b7-853a-77f6028d8587","system_id":"levelo_inurba_marseille","lat":43.24072,"lon":5.37761,"is_reserved":false,"is_disabled":false,"rental_uris":{"android":"levelo://app?vid=e2da9204-0e3a-46b7-853a-77f6028d8587","ios":"levelo://app?vid=e2da9204-0e3a-46b7-853a-77f6028d8587"},"vehicle_type_id":"4","last_reported":1726891866,"current_range_meters":17200,"station_id":"ce4bhnp2rcd13ifvqgvg","pricing_plan_id":"cebpf4jnsgd1na2vs0mg"},{"bike_id":"2c4d5dd6-b3fc-4e99-ae10-37420ed7722b","system_id":"levelo_inurba_marseille","lat":43.31994,"lon":5.38159,"is_reserved":false,"is_disabled":false,"rental_uris":{"android":"levelo://app?vid=2c4d5dd6-b3fc-4e99-ae10-37420ed7722b","ios":"levelo://app?vid=2c4d5dd6-b3fc-4e99-ae10-37420ed7722b"},"vehicle_type_id":"4","last_reported":1726891866,"current_range_meters":38800,"station_id":"ce4bhr12rcd13ifvqhpg","pricing_plan_id":"cebpf4jnsgd1na2vs0mg"},{"bike_id":"23e5fcf4-4fac-4b05-9a6c-be73f5a6d743","system_id":"levelo_inurba_marseille","lat":43.28147,"lon":5.42651,"is_reserved":false,"is_disabled":false,"rental_uris":{"android":"levelo://app?vid=23e5fcf4-4fac-4b05-9a6c-be73f5a6d743","ios":"levelo://app?vid=23e5fcf4-4fac-4b05-9a6c-be73f5a6d743"},"vehicle_type_id":"4","last_reported":1726891866,"current_range_meters":20000,"station_id":"ce4bhnh2rcd13ifvqgug","pricing_plan_id":"cebpf4jnsgd1na2vs0mg"},{"bike_id":"c13d0fc5-3653-4034-b303-e733b4898e4b","system_id":"levelo_inurba_marseille","lat":43.28107,"lon":5.37834,"is_reserved":false,"is_disabled":false,"rental_uris":{"android":"levelo://app?vid=c13d0fc5-3653-4034-b303-e733b4898e4b","ios":"levelo://app?vid=c13d0fc5-3653-4034-b303-e733b4898e4b"},"vehicle_type_id":"4","last_reported":1726891866,"current_range_meters":38800,"station_id":"ce4bha12rcd13ifvqee0","pricing_plan_id":"cebpf4jnsgd1na2vs0mg"},{"bike_id":"9455a10c-c08f-4c95-bb85-e08f847ecbc5","system_id":"levelo_inurba_marseille","lat":43.24079,"lon":5.3775,"is_reserved":false,"is_disabled":false,"rental_uris":{"android":"levelo://app?vid=9455a10c-c08f-4c95-bb85-e08f847ecbc5","ios":"levelo://app?vid=9455a10c-c08f-4c95-bb85-e08f847ecbc5"},"vehicle_type_id":"4","last_reported":1726891866,"current_range_meters":9200,"station_id":"ce4bhnp2rcd13ifvqgvg","pricing_plan_id":"cebpf4jnsgd1na2vs0mg"},{"bike_id":"40e21d2c-4e69-4d5b-b1ff-38f4433c1826","system_id":"levelo_inurba_marseille","lat":43.25,"lon":5.38937,"is_reserved":false,"is_disabled":false,"rental_uris":{"android":"levelo://app?vid=40e21d2c-4e69-4d5b-b1ff-38f4433c1826","ios":"levelo://app?vid=40e21d2c-4e69-4d5b-b1ff-38f4433c1826"},"vehicle_type_id":"4","last_reported":1726891866,"current_range_meters":28000,"station_id":"ce4bhgp2rcd13ifvqfd0","pricing_plan_id":"cebpf4jnsgd1na2vs0mg"},{"bike_id":"146ac5f2-7c1e-46d5-9347-54e9005d3585","system_id":"levelo_inurba_marseille","lat":43.26938,"lon":5.40252,"is_reserved":false,"is_disabled":false,"rental_uris":{"android":"levelo://app?vid=146ac5f2-7c1e-46d5-9347-54e9005d3585","ios":"levelo://app?vid=146ac5f2-7c1e-46d5-9347-54e9005d3585"},"vehicle_type_id":"4","last_reported":1726891866,"current_range_meters":35200,"station_id":"cjm6bp8fraef2m0cb0m0","pricing_plan_id":"cebpf4jnsgd1na2vs0mg"},{"bike_id":"7b9dd459-340b-4978-bfb0-6c163a5263e8","system_id":"levelo_inurba_marseille","lat":43.23195,"lon":5.35555,"is_reserved":false,"is_disabled":false,"rental_uris":{"android":"levelo://app?vid=7b9dd459-340b-4978-bfb0-6c163a5263e8","ios":"levelo://app?vid=7b9dd459-340b-4978-bfb0-6c163a5263e8"},"vehicle_type_id":"4","last_reported":1726891866,"current_range_meters":39200,"station_id":"ce4bhu92rcd13ifvqi70","pricing_plan_id":"cebpf4jnsgd1na2vs0mg"},{"bike_id":"0b34c002-1469-4f0b-b54e-0134780c2840","system_id":"levelo_inurba_marseille","lat":43.28934,"lon":5.36642,"is_reserved":false,"is_disabled":false,"rental_uris":{"android":"levelo://app?vid=0b34c002-1469-4f0b-b54e-0134780c2840","ios":"levelo://app?vid=0b34c002-1469-4f0b-b54e-0134780c2840"},"vehicle_type_id":"4","last_reported":1726891866,"current_range_meters":28800,"station_id":"ce4bhap2rcd13ifvqek0","pricing_plan_id":"cebpf4jnsgd1na2vs0mg"},{"bike_id":"89e844ff-c7a5-4a44-a0fd-67cf61de3b45","system_id":"levelo_inurba_marseille","lat":43.31065,"lon":5.38349,"is_reserved":false,"is_disabled":false,"rental_uris":{"android":"levelo://app?vid=89e844ff-c7a5-4a44-a0fd-67cf61de3b45","ios":"levelo://app?vid=89e844ff-c7a5-4a44-a0fd-67cf61de3b45"},"vehicle_type_id":"4","last_reported":1726891866,"current_range_meters":32800,"station_id":"ce4bgv92rcd13ifvqcr0","pricing_plan_id":"cebpf4jnsgd1na2vs0mg"},{"bike_id":"14af6286-56f0-4221-b0cf-f9a5d206a408","system_id":"levelo_inurba_marseille","lat":43.31053,"lon":5.38348,"is_reserved":false,"is_disabled":false,"rental_uris":{"android":"levelo://app?vid=14af6286-56f0-4221-b0cf-f9a5d206a408","ios":"levelo://app?vid=14af6286-56f0-4221-b0cf-f9a5d206a408"},"vehicle_type_id":"4","last_reported":1726891866,"current_range_meters":38400,"station_id":"ce4bgv92rcd13ifvqcr0","pricing_plan_id":"cebpf4jnsgd1na2vs0mg"},{"bike_id":"cab25d25-2943-4c69-9e1b-563d2a46778b","system_id":"levelo_inurba_marseille","lat":43.29027,"lon":5.39962,"is_reserved":false,"is_disabled":false,"rental_uris":{"android":"levelo://app?vid=cab25d25-2943-4c69-9e1b-563d2a46778b","ios":"levelo://app?vid=cab25d25-2943-4c69-9e1b-563d2a46778b"},"vehicle_type_id":"4","last_reported":1726891866,"current_range_meters":38800,"station_id":"ce4bh392rcd13ifvqdm0","pricing_plan_id":"cebpf4jnsgd1na2vs0mg"},{"bike_id":"e9b8e590-3bc0-4c22-b946-0db314d5083d","system_id":"levelo_inurba_marseille","lat":43.25863,"lon":5.39904,"is_reserved":false,"is_disabled":false,"rental_uris":{"android":"levelo://app?vid=e9b8e590-3bc0-4c22-b946-0db314d5083d","ios":"levelo://app?vid=e9b8e590-3bc0-4c22-b946-0db314d5083d"},"vehicle_type_id":"4","last_reported":1726891866,"current_range_meters":7200,"station_id":"ce4bhl92rcd13ifvqghg","pricing_plan_id":"cebpf4jnsgd1na2vs0mg"},{"bike_id":"655232e5-dd47-4aeb-b051-4bd3e3ea8975","system_id":"levelo_inurba_marseille","lat":43.25725,"lon":5.41115,"is_reserved":false,"is_disabled":false,"rental_uris":{"android":"levelo://app?vid=655232e5-dd47-4aeb-b051-4bd3e3ea8975","ios":"levelo://app?vid=655232e5-dd47-4aeb-b051-4bd3e3ea8975"},"vehicle_type_id":"4","last_reported":1726891866,"current_range_meters":39200,"station_id":"ce4bhkp2rcd13ifvqgd0","pricing_plan_id":"cebpf4jnsgd1na2vs0mg"},{"bike_id":"3740c6df-06cd-419b-9ae6-b8d9e5eff548","system_id":"levelo_inurba_marseille","lat":43.2753,"lon":5.40935,"is_reserved":false,"is_disabled":false,"rental_uris":{"android":"levelo://app?vid=3740c6df-06cd-419b-9ae6-b8d9e5eff548","ios":"levelo://app?vid=3740c6df-06cd-419b-9ae6-b8d9e5eff548"},"vehicle_type_id":"4","last_reported":1726891866,"current_range_meters":19600,"station_id":"","pricing_plan_id":"cebpf4jnsgd1na2vs0mg"},{"bike_id":"fdc9626c-4acf-4c6f-aa0e-53d36187cf48","system_id":"levelo_inurba_marseille","lat":43.23156,"lon":5.43713,"is_reserved":false,"is_disabled":false,"rental_uris":{"android":"levelo://app?vid=fdc9626c-4acf-4c6f-aa0e-53d36187cf48","ios":"levelo://app?vid=fdc9626c-4acf-4c6f-aa0e-53d36187cf48"},"vehicle_type_id":"4","last_reported":1726891866,"current_range_meters":32800,"station_id":"ce4bhmp2rcd13ifvqgog","pricing_plan_id":"cebpf4jnsgd1na2vs0mg"},{"bike_id":"101a5fe6-15d3-437c-957b-711d2d82c189","system_id":"levelo_inurba_marseille","lat":43.28267,"lon":5.35071,"is_reserved":false,"is_disabled":false,"rental_uris":{"android":"levelo://app?vid=101a5fe6-15d3-437c-957b-711d2d82c189","ios":"levelo://app?vid=101a5fe6-15d3-437c-957b-711d2d82c189"},"vehicle_type_id":"4","last_reported":1726891866,"current_range_meters":33200,"station_id":"ce4bhbp2rcd13ifvqerg","pricing_plan_id":"cebpf4jnsgd1na2vs0mg"},{"bike_id":"c6a5b1c0-1ce2-46f3-8262-a62ae2cf80bf","system_id":"levelo_inurba_marseille","lat":43.3266,"lon":5.40986,"is_reserved":false,"is_disabled":false,"rental_uris":{"android":"levelo://app?vid=c6a5b1c0-1ce2-46f3-8262-a62ae2cf80bf","ios":"levelo://app?vid=c6a5b1c0-1ce2-46f3-8262-a62ae2cf80bf"},"vehicle_type_id":"4","last_reported":1726891866,"current_range_meters":38400,"station_id":"ce4bhpp2rcd13ifvqhgg","pricing_plan_id":"cebpf4jnsgd1na2vs0mg"},{"bike_id":"51f5754a-5fa4-496b-92aa-8db5fb5c04c9","system_id":"levelo_inurba_marseille","lat":43.32334,"lon":5.40623,"is_reserved":false,"is_disabled":false,"rental_uris":{"android":"levelo://app?vid=51f5754a-5fa4-496b-92aa-8db5fb5c04c9","ios":"levelo://app?vid=51f5754a-5fa4-496b-92aa-8db5fb5c04c9"},"vehicle_type_id":"4","last_reported":1726891866,"current_range_meters":40000,"station_id":"ce4bhq92rcd13ifvqhjg","pricing_plan_id":"cebpf4jnsgd1na2vs0mg"},{"bike_id":"2ce703b4-f868-4226-bdab-b34d4cd84ef6","system_id":"levelo_inurba_marseille","lat":43.33025,"lon":5.39035,"is_reserved":false,"is_disabled":false,"rental_uris":{"android":"levelo://app?vid=2ce703b4-f868-4226-bdab-b34d4cd84ef6","ios":"levelo://app?vid=2ce703b4-f868-4226-bdab-b34d4cd84ef6"},"vehicle_type_id":"4","last_reported":1726891866,"current_range_meters":8400,"station_id":"ce4bhr92rcd13ifvqhrg","pricing_plan_id":"cebpf4jnsgd1na2vs0mg"},{"bike_id":"e4342573-8142-4b0d-a5bb-647759fb2578","system_id":"levelo_inurba_marseille","lat":43.27898,"lon":5.38,"is_reserved":false,"is_disabled":false,"rental_uris":{"android":"levelo://app?vid=e4342573-8142-4b0d-a5bb-647759fb2578","ios":"levelo://app?vid=e4342573-8142-4b0d-a5bb-647759fb2578"},"vehicle_type_id":"4","last_reported":1726891866,"current_range_meters":19200,"station_id":"ce4bhf92rcd13ifvqf50","pricing_plan_id":"cebpf4jnsgd1na2vs0mg"},{"bike_id":"d050b7b6-47ad-4582-9d90-edb6ebf2db9c","system_id":"levelo_inurba_marseille","lat":43.28035,"lon":5.36938,"is_reserved":false,"is_disabled":false,"rental_uris":{"android":"levelo://app?vid=d050b7b6-47ad-4582-9d90-edb6ebf2db9c","ios":"levelo://app?vid=d050b7b6-47ad-4582-9d90-edb6ebf2db9c"},"vehicle_type_id":"4","last_reported":1726891866,"current_range_meters":24400,"station_id":"ce4bha12rcd13ifvqef0","pricing_plan_id":"cebpf4jnsgd1na2vs0mg"},{"bike_id":"146dc772-f2a3-4694-9ba5-5905f9c6938e","system_id":"levelo_inurba_marseille","lat":43.30789,"lon":5.38162,"is_reserved":false,"is_disabled":false,"rental_uris":{"android":"levelo://app?vid=146dc772-f2a3-4694-9ba5-5905f9c6938e","ios":"levelo://app?vid=146dc772-f2a3-4694-9ba5-5905f9c6938e"},"vehicle_type_id":"4","last_reported":1726891866,"current_range_meters":37600,"station_id":"ce4bgt12rcd13ifvqce0","pricing_plan_id":"cebpf4jnsgd1na2vs0mg"},{"bike_id":"36804418-55ab-48a2-8e52-fdbd55d4360a","system_id":"levelo_inurba_marseille","lat":43.25109,"lon":5.40324,"is_reserved":false,"is_disabled":false,"rental_uris":{"android":"levelo://app?vid=36804418-55ab-48a2-8e52-fdbd55d4360a","ios":"levelo://app?vid=36804418-55ab-48a2-8e52-fdbd55d4360a"},"vehicle_type_id":"4","last_reported":1726891866,"current_range_meters":27200,"station_id":"ce4bhlh2rcd13ifvqgig","pricing_plan_id":"cebpf4jnsgd1na2vs0mg"},{"bike_id":"422925b0-a793-4796-b72f-761108954c4d","system_id":"levelo_inurba_marseille","lat":43.28413,"lon":5.37517,"is_reserved":false,"is_disabled":false,"rental_uris":{"android":"levelo://app?vid=422925b0-a793-4796-b72f-761108954c4d","ios":"levelo://app?vid=422925b0-a793-4796-b72f-761108954c4d"},"vehicle_type_id":"4","last_reported":1726891866,"current_range_meters":38000,"station_id":"ce4bh412rcd13ifvqds0","pricing_plan_id":"cebpf4jnsgd1na2vs0mg"},{"bike_id":"60460f01-4fc1-4471-a1cc-fd64c0c52430","system_id":"levelo_inurba_marseille","lat":43.31327,"lon":5.39697,"is_reserved":false,"is_disabled":false,"rental_uris":{"android":"levelo://app?vid=60460f01-4fc1-4471-a1cc-fd64c0c52430","ios":"levelo://app?vid=60460f01-4fc1-4471-a1cc-fd64c0c52430"},"vehicle_type_id":"4","last_reported":1726891866,"current_range_meters":40000,"station_id":"ce4bgvp2rcd13ifvqcu0","pricing_plan_id":"cebpf4jnsgd1na2vs0mg"},{"bike_id":"183eb22f-76d4-4d15-9b3f-4751c806e2b1","system_id":"levelo_inurba_marseille","lat":43.30153,"lon":5.38074,"is_reserved":false,"is_disabled":false,"rental_uris":{"android":"levelo://app?vid=183eb22f-76d4-4d15-9b3f-4751c806e2b1","ios":"levelo://app?vid=183eb22f-76d4-4d15-9b3f-4751c806e2b1"},"vehicle_type_id":"4","last_reported":1726891866,"current_range_meters":36400,"station_id":"ce4bgjp2rcd13ifvqbh0","pricing_plan_id":"cebpf4jnsgd1na2vs0mg"},{"bike_id":"51386b7c-1be8-44ac-9509-9e2b8db5ebd6","system_id":"levelo_inurba_marseille","lat":43.30798,"lon":5.43527,"is_reserved":false,"is_disabled":false,"rental_uris":{"android":"levelo://app?vid=51386b7c-1be8-44ac-9509-9e2b8db5ebd6","ios":"levelo://app?vid=51386b7c-1be8-44ac-9509-9e2b8db5ebd6"},"vehicle_type_id":"4","last_reported":1726891866,"current_range_meters":38000,"station_id":"ce4bhph2rcd13ifvqheg","pricing_plan_id":"cebpf4jnsgd1na2vs0mg"},{"bike_id":"bab4929f-2ee8-4e72-abcd-10338869bd8f","system_id":"levelo_inurba_marseille","lat":43.31277,"lon":5.40166,"is_reserved":false,"is_disabled":false,"rental_uris":{"android":"levelo://app?vid=bab4929f-2ee8-4e72-abcd-10338869bd8f","ios":"levelo://app?vid=bab4929f-2ee8-4e72-abcd-10338869bd8f"},"vehicle_type_id":"4","last_reported":1726891866,"current_range_meters":35600,"station_id":"ce4bh092rcd13ifvqd30","pricing_plan_id":"cebpf4jnsgd1na2vs0mg"},{"bike_id":"d71ac1d9-1765-4859-833e-87065b9f7ae7","system_id":"levelo_inurba_marseille","lat":43.2844,"lon":5.39197,"is_reserved":false,"is_disabled":false,"rental_uris":{"android":"levelo://app?vid=d71ac1d9-1765-4859-833e-87065b9f7ae7","ios":"levelo://app?vid=d71ac1d9-1765-4859-833e-87065b9f7ae7"},"vehicle_type_id":"4","last_reported":1726891866,"current_range_meters":38800,"station_id":"ce4bhoh2rcd13ifvqh5g","pricing_plan_id":"cebpf4jnsgd1na2vs0mg"},{"bike_id":"d65cbc32-3a83-4b2e-90d3-f60b7e66b84a","system_id":"levelo_inurba_marseille","lat":43.2955,"lon":5.42286,"is_reserved":false,"is_disabled":false,"rental_uris":{"android":"levelo://app?vid=d65cbc32-3a83-4b2e-90d3-f60b7e66b84a","ios":"levelo://app?vid=d65cbc32-3a83-4b2e-90d3-f60b7e66b84a"},"vehicle_type_id":"4","last_reported":1726891866,"current_range_meters":38800,"station_id":"ce4bhph2rcd13ifvqhdg","pricing_plan_id":"cebpf4jnsgd1na2vs0mg"},{"bike_id":"2b829ffb-e074-4a2f-a6d8-9bb6d361c523","system_id":"levelo_inurba_marseille","lat":43.24546,"lon":5.39526,"is_reserved":false,"is_disabled":false,"rental_uris":{"android":"levelo://app?vid=2b829ffb-e074-4a2f-a6d8-9bb6d361c523","ios":"levelo://app?vid=2b829ffb-e074-4a2f-a6d8-9bb6d361c523"},"vehicle_type_id":"4","last_reported":1726891866,"current_range_meters":18800,"station_id":"ce4bhlp2rcd13ifvqgjg","pricing_plan_id":"cebpf4jnsgd1na2vs0mg"},{"bike_id":"9dc736d2-7bde-4a1b-9fd2-574f6ea60e2d","system_id":"levelo_inurba_marseille","lat":43.28844,"lon":5.39314,"is_reserved":false,"is_disabled":false,"rental_uris":{"android":"levelo://app?vid=9dc736d2-7bde-4a1b-9fd2-574f6ea60e2d","ios":"levelo://app?vid=9dc736d2-7bde-4a1b-9fd2-574f6ea60e2d"},"vehicle_type_id":"4","last_reported":1726891866,"current_range_meters":38800,"station_id":"ce4bh2p2rcd13ifvqdi0","pricing_plan_id":"cebpf4jnsgd1na2vs0mg"},{"bike_id":"4cb3e998-9f31-4749-9534-d4f36d6d39f7","system_id":"levelo_inurba_marseille","lat":43.26932,"lon":5.38917,"is_reserved":false,"is_disabled":false,"rental_uris":{"android":"levelo://app?vid=4cb3e998-9f31-4749-9534-d4f36d6d39f7","ios":"levelo://app?vid=4cb3e998-9f31-4749-9534-d4f36d6d39f7"},"vehicle_type_id":"4","last_reported":1726891866,"current_range_meters":37600,"station_id":"ce4bhhh2rcd13ifvqfl0","pricing_plan_id":"cebpf4jnsgd1na2vs0mg"},{"bike_id":"3261e81d-6f13-45a4-ba96-33ed382e28e0","system_id":"levelo_inurba_marseille","lat":43.28071,"lon":5.39652,"is_reserved":false,"is_disabled":false,"rental_uris":{"android":"levelo://app?vid=3261e81d-6f13-45a4-ba96-33ed382e28e0","ios":"levelo://app?vid=3261e81d-6f13-45a4-ba96-33ed382e28e0"},"vehicle_type_id":"4","last_reported":1726891866,"current_range_meters":38800,"station_id":"ce4bho12rcd13ifvqh2g","pricing_plan_id":"cebpf4jnsgd1na2vs0mg"},{"bike_id":"1e1c92ea-4100-48a4-80e0-a529141b8530","system_id":"levelo_inurba_marseille","lat":43.30655,"lon":5.40095,"is_reserved":false,"is_disabled":false,"rental_uris":{"android":"levelo://app?vid=1e1c92ea-4100-48a4-80e0-a529141b8530","ios":"levelo://app?vid=1e1c92ea-4100-48a4-80e0-a529141b8530"},"vehicle_type_id":"4","last_reported":1726891866,"current_range_meters":24400,"station_id":"ce4bh112rcd13ifvqda0","pricing_plan_id":"cebpf4jnsgd1na2vs0mg"},{"bike_id":"86077ec7-e0cf-42a3-8590-8aebf686c0aa","system_id":"levelo_inurba_marseille","lat":43.273706,"lon":5.385076,"is_reserved":false,"is_disabled":false,"rental_uris":{"android":"levelo://app?vid=86077ec7-e0cf-42a3-8590-8aebf686c0aa","ios":"levelo://app?vid=86077ec7-e0cf-42a3-8590-8aebf686c0aa"},"vehicle_type_id":"4","last_reported":1726891866,"current_range_meters":27200,"station_id":"ce4bhh92rcd13ifvqfh0","pricing_plan_id":"cebpf4jnsgd1na2vs0mg"},{"bike_id":"81437a93-aba3-423a-96ab-d420c4e83f71","system_id":"levelo_inurba_marseille","lat":43.31761,"lon":5.39012,"is_reserved":false,"is_disabled":false,"rental_uris":{"android":"levelo://app?vid=81437a93-aba3-423a-96ab-d420c4e83f71","ios":"levelo://app?vid=81437a93-aba3-423a-96ab-d420c4e83f71"},"vehicle_type_id":"4","last_reported":1726891866,"current_range_meters":24000,"station_id":"ce4bhqp2rcd13ifvqhng","pricing_plan_id":"cebpf4jnsgd1na2vs0mg"},{"bike_id":"7d6a4ae0-5563-478e-a351-f52ab08c155f","system_id":"levelo_inurba_marseille","lat":43.28352,"lon":5.38113,"is_reserved":false,"is_disabled":false,"rental_uris":{"android":"levelo://app?vid=7d6a4ae0-5563-478e-a351-f52ab08c155f","ios":"levelo://app?vid=7d6a4ae0-5563-478e-a351-f52ab08c155f"},"vehicle_type_id":"4","last_reported":1726891866,"current_range_meters":27200,"station_id":"ce4bh412rcd13ifvqdr0","pricing_plan_id":"cebpf4jnsgd1na2vs0mg"},{"bike_id":"8af8c321-de1a-48b7-85ee-6b8f84590c25","system_id":"levelo_inurba_marseille","lat":43.27186,"lon":5.40996,"is_reserved":false,"is_disabled":false,"rental_uris":{"android":"levelo://app?vid=8af8c321-de1a-48b7-85ee-6b8f84590c25","ios":"levelo://app?vid=8af8c321-de1a-48b7-85ee-6b8f84590c25"},"vehicle_type_id":"4","last_reported":1726891866,"current_range_meters":36800,"station_id":"ce4bhl12rcd13ifvqgf0","pricing_plan_id":"cebpf4jnsgd1na2vs0mg"},{"bike_id":"4cdb29a3-250a-4b85-b491-3b54906467b8","system_id":"levelo_inurba_marseille","lat":43.31761,"lon":5.39024,"is_reserved":false,"is_disabled":false,"rental_uris":{"android":"levelo://app?vid=4cdb29a3-250a-4b85-b491-3b54906467b8","ios":"levelo://app?vid=4cdb29a3-250a-4b85-b491-3b54906467b8"},"vehicle_type_id":"4","last_reported":1726891866,"current_range_meters":22000,"station_id":"ce4bhqp2rcd13ifvqhng","pricing_plan_id":"cebpf4jnsgd1na2vs0mg"},{"bike_id":"82c2a45b-0996-48a9-831a-213ee9535a42","system_id":"levelo_inurba_marseille","lat":43.28729,"lon":5.37948,"is_reserved":false,"is_disabled":false,"rental_uris":{"android":"levelo://app?vid=82c2a45b-0996-48a9-831a-213ee9535a42","ios":"levelo://app?vid=82c2a45b-0996-48a9-831a-213ee9535a42"},"vehicle_type_id":"4","last_reported":1726891866,"current_range_meters":36800,"station_id":"ce4bh9p2rcd13ifvqec0","pricing_plan_id":"cebpf4jnsgd1na2vs0mg"},{"bike_id":"2eac50e5-7011-4a43-8936-b2ff6ff99a36","system_id":"levelo_inurba_marseille","lat":43.31068,"lon":5.38357,"is_reserved":false,"is_disabled":false,"rental_uris":{"android":"levelo://app?vid=2eac50e5-7011-4a43-8936-b2ff6ff99a36","ios":"levelo://app?vid=2eac50e5-7011-4a43-8936-b2ff6ff99a36"},"vehicle_type_id":"4","last_reported":1726891866,"current_range_meters":27600,"station_id":"ce4bgv92rcd13ifvqcr0","pricing_plan_id":"cebpf4jnsgd1na2vs0mg"},{"bike_id":"bdc2dd31-442c-4eeb-b951-a54134fa2840","system_id":"levelo_inurba_marseille","lat":43.28031,"lon":5.36952,"is_reserved":false,"is_disabled":false,"rental_uris":{"android":"levelo://app?vid=bdc2dd31-442c-4eeb-b951-a54134fa2840","ios":"levelo://app?vid=bdc2dd31-442c-4eeb-b951-a54134fa2840"},"vehicle_type_id":"4","last_reported":1726891866,"current_range_meters":22800,"station_id":"ce4bha12rcd13ifvqef0","pricing_plan_id":"cebpf4jnsgd1na2vs0mg"},{"bike_id":"06f58f1b-eca6-465f-bdfc-71eb9b07aa63","system_id":"levelo_inurba_marseille","lat":43.317,"lon":5.37732,"is_reserved":false,"is_disabled":false,"rental_uris":{"android":"levelo://app?vid=06f58f1b-eca6-465f-bdfc-71eb9b07aa63","ios":"levelo://app?vid=06f58f1b-eca6-465f-bdfc-71eb9b07aa63"},"vehicle_type_id":"4","last_reported":1726891866,"current_range_meters":22000,"station_id":"ce4bgth2rcd13ifvqch0","pricing_plan_id":"cebpf4jnsgd1na2vs0mg"},{"bike_id":"4f6cd953-65f5-4d4f-a052-70118d864e1d","system_id":"levelo_inurba_marseille","lat":43.29891,"lon":5.43676,"is_reserved":false,"is_disabled":false,"rental_uris":{"android":"levelo://app?vid=4f6cd953-65f5-4d4f-a052-70118d864e1d","ios":"levelo://app?vid=4f6cd953-65f5-4d4f-a052-70118d864e1d"},"vehicle_type_id":"4","last_reported":1726891866,"current_range_meters":9600,"station_id":"ce4bhpp2rcd13ifvqhfg","pricing_plan_id":"cebpf4jnsgd1na2vs0mg"},{"bike_id":"b92130b9-287b-4bdb-ada9-013b95f350df","system_id":"levelo_inurba_marseille","lat":43.30423,"lon":5.3976,"is_reserved":false,"is_disabled":false,"rental_uris":{"android":"levelo://app?vid=b92130b9-287b-4bdb-ada9-013b95f350df","ios":"levelo://app?vid=b92130b9-287b-4bdb-ada9-013b95f350df"},"vehicle_type_id":"4","last_reported":1726891866,"current_range_meters":16400,"station_id":"ce4bh092rcd13ifvqd20","pricing_plan_id":"cebpf4jnsgd1na2vs0mg"},{"bike_id":"95199e94-abc6-451e-84bc-5f1bad124fee","system_id":"levelo_inurba_marseille","lat":43.28667,"lon":5.38669,"is_reserved":false,"is_disabled":false,"rental_uris":{"android":"levelo://app?vid=95199e94-abc6-451e-84bc-5f1bad124fee","ios":"levelo://app?vid=95199e94-abc6-451e-84bc-5f1bad124fee"},"vehicle_type_id":"4","last_reported":1726891866,"current_range_meters":38000,"station_id":"ce4bh492rcd13ifvqdug","pricing_plan_id":"cebpf4jnsgd1na2vs0mg"},{"bike_id":"0cbd7f65-c27f-4154-af83-97063396f9fb","system_id":"levelo_inurba_marseille","lat":43.29719,"lon":5.39269,"is_reserved":false,"is_disabled":false,"rental_uris":{"android":"levelo://app?vid=0cbd7f65-c27f-4154-af83-97063396f9fb","ios":"levelo://app?vid=0cbd7f65-c27f-4154-af83-97063396f9fb"},"vehicle_type_id":"4","last_reported":1726891866,"current_range_meters":25200,"station_id":"","pricing_plan_id":"cebpf4jnsgd1na2vs0mg"},{"bike_id":"54c9d1f1-f9fb-4d4e-8185-6fb646890270","system_id":"levelo_inurba_marseille","lat":43.31283,"lon":5.40176,"is_reserved":false,"is_disabled":false,"rental_uris":{"android":"levelo://app?vid=54c9d1f1-f9fb-4d4e-8185-6fb646890270","ios":"levelo://app?vid=54c9d1f1-f9fb-4d4e-8185-6fb646890270"},"vehicle_type_id":"4","last_reported":1726891866,"current_range_meters":9200,"station_id":"ce4bh092rcd13ifvqd30","pricing_plan_id":"cebpf4jnsgd1na2vs0mg"},{"bike_id":"610ae2bc-1ce0-4157-8b8a-62d460f1da9c","system_id":"levelo_inurba_marseille","lat":43.22923,"lon":5.3538,"is_reserved":false,"is_disabled":false,"rental_uris":{"android":"levelo://app?vid=610ae2bc-1ce0-4157-8b8a-62d460f1da9c","ios":"levelo://app?vid=610ae2bc-1ce0-4157-8b8a-62d460f1da9c"},"vehicle_type_id":"4","last_reported":1726891866,"current_range_meters":8000,"station_id":"cpo3532slgdg3j2ikp40","pricing_plan_id":"cebpf4jnsgd1na2vs0mg"},{"bike_id":"437d7254-4081-4ab2-bd2e-34dedca9de98","system_id":"levelo_inurba_marseille","lat":43.3078,"lon":5.37657,"is_reserved":false,"is_disabled":false,"rental_uris":{"android":"levelo://app?vid=437d7254-4081-4ab2-bd2e-34dedca9de98","ios":"levelo://app?vid=437d7254-4081-4ab2-bd2e-34dedca9de98"},"vehicle_type_id":"4","last_reported":1726891866,"current_range_meters":15200,"station_id":"ce4bgv92rcd13ifvqcq0","pricing_plan_id":"cebpf4jnsgd1na2vs0mg"},{"bike_id":"cf88c48f-76e1-4865-8aec-2a94db3cd4d9","system_id":"levelo_inurba_marseille","lat":43.31128,"lon":5.37761,"is_reserved":false,"is_disabled":false,"rental_uris":{"android":"levelo://app?vid=cf88c48f-76e1-4865-8aec-2a94db3cd4d9","ios":"levelo://app?vid=cf88c48f-76e1-4865-8aec-2a94db3cd4d9"},"vehicle_type_id":"4","last_reported":1726891866,"current_range_meters":28000,"station_id":"ce4bgt92rcd13ifvqcg0","pricing_plan_id":"cebpf4jnsgd1na2vs0mg"},{"bike_id":"2e0ad234-46bd-4aa7-aed9-b44f50fc5c66","system_id":"levelo_inurba_marseille","lat":43.28079,"lon":5.39657,"is_reserved":false,"is_disabled":false,"rental_uris":{"android":"levelo://app?vid=2e0ad234-46bd-4aa7-aed9-b44f50fc5c66","ios":"levelo://app?vid=2e0ad234-46bd-4aa7-aed9-b44f50fc5c66"},"vehicle_type_id":"4","last_reported":1726891866,"current_range_meters":40000,"station_id":"ce4bho12rcd13ifvqh2g","pricing_plan_id":"cebpf4jnsgd1na2vs0mg"},