{"last_updated":1756282443,"ttl":60,"version":"2.2","data":{"bikes":[{"bike_id":"bdf85e08-5676-48b0-8060-453cc8bae2cf","system_id":"levelo_inurba_marseille","lat":43.29187,"lon":5.35794,"is_reserved":false,"is_disabled":false,"rental_uris":{"android":"levelo://app?vid=bdf85e08-5676-48b0-8060-453cc8bae2cf","ios":"levelo://app?vid=bdf85e08-5676-48b0-8060-453cc8bae2cf"},"vehicle_type_id":"4","last_reported":1756282443,"current_range_meters":2800,"station_id":"ce4bhb12rcd13ifvqel0","pricing_plan_id":"cebpf4jnsgd1na2vs0mg"},{"bike_id":"69dea794-ff41-4ff0-9312-973f237cfcb2","system_id":"levelo_inurba_marseille","lat":43.21191,"lon":5.350732,"is_reserved":false,"is_disabled":false,"rental_uris":{"android":"levelo://app?vid=69dea794-ff41-4ff0-9312-973f237cfcb2","ios":"levelo://app?vid=69dea794-ff41-4ff0-9312-973f237cfcb2"},"vehicle_type_id":"4","last_reported":1756282443,"current_range_meters":2800,"station_id":"","pricing_plan_id":"cebpf4jnsgd1na2vs0mg"},{"bike_id":"b9731dbd-29b6-400c-87c4-52062da811a8","system_id":"levelo_inurba_marseille","lat":43.28037,"lon":5.36947,"is_reserved":false,"is_disabled":false,"rental_uris":{"android":"levelo://app?vid=b9731dbd-29b6-400c-87c4-52062da811a8","ios":"levelo://app?vid=b9731dbd-29b6-400c-87c4-52062da811a8"},"vehicle_type_id":"4","last_reported":1756282443,"current_range_meters":2800,"station_id":"ce4bha12rcd13ifvqef0","pricing_plan_id":"cebpf4jnsgd1na2vs0mg"},{"bike_id":"2c6911da-bb3e-4211-a2e7-78996802ae49","system_id":"levelo_inurba_marseille","lat":43.266802,"lon":5.382752,"is_reserved":false,"is_disabled":false,"rental_uris":{"android":"levelo://app?vid=2c6911da-bb3e-4211-a2e7-78996802ae49","ios":"levelo://app?vid=2c6911da-bb3e-4211-a2e7-78996802ae49"},"vehicle_type_id":"4","last_reported":1756282443,"current_range_meters":2800,"station_id":"ce4bhg92rcd13ifvqf90","pricing_plan_id":"cebpf4jnsgd1na2vs0mg"},{"bike_id":"32df07e5-34aa-4a29-acda-d0348fa0f9a0","system_id":"levelo_inurba_marseille","lat":43.28486,"lon":5.38418,"is_reserved":false,"is_disabled":false,"rental_uris":{"android":"levelo://app?vid=32df07e5-34aa-4a29-acda-d0348fa0f9a0","ios":"levelo://app?vid=32df07e5-34aa-4a29-acda-d0348fa0f9a0"},"vehicle_type_id":"4","last_reported":1756282443,"current_range_meters":2800,"station_id":"ce4bh512rcd13ifvqe3g","pricing_plan_id":"cebpf4jnsgd1na2vs0mg"},{"bike_id":"910a2fe9-c763-44c1-8de4-85789a7f1606","system_id":"levelo_inurba_marseille","lat":43.274306,"lon":5.3942,"is_reserved":false,"is_disabled":true,"rental_uris":{"android":"levelo://app?vid=910a2fe9-c763-44c1-8de4-85789a7f1606","ios":"levelo://app?vid=910a2fe9-c763-44c1-8de4-85789a7f1606"},"vehicle_type_id":"4","last_reported":1756282443,"current_range_meters":3600,"station_id":"ce4bhdp2rcd13ifvqf20","pricing_plan_id":"cebpf4jnsgd1na2vs0mg"},{"bike_id":"beacfaf2-8cec-47f5-b87b-2529a2c0205b","system_id":"levelo_inurba_marseille","lat":43.29272,"lon":5.3685,"is_reserved":false,"is_disabled":false,"rental_uris":{"android":"levelo://app?vid=beacfaf2-8cec-47f5-b87b-2529a2c0205b","ios":"levelo://app?vid=beacfaf2-8cec-47f5-b87b-2529a2c0205b"},"vehicle_type_id":"4","last_reported":1756282443,"current_range_meters":4000,"station_id":"ce4bhbp2rcd13ifvqesg","pricing_plan_id":"cebpf4jnsgd1na2vs0mg"},{"bike_id":"f88aad37-d2b1-45a3-8a14-852e5ef6b5cc","system_id":"levelo_inurba_marseille","lat":43.28937,"lon":5.37216,"is_reserved":false,"is_disabled":false,"rental_uris":{"android":"levelo://app?vid=f88aad37-d2b1-45a3-8a14-852e5ef6b5cc","ios":"levelo://app?vid=f88aad37-d2b1-45a3-8a14-852e5ef6b5cc"},"vehicle_type_id":"4","last_reported":1756282443,"current_range_meters":4000,"station_id":"","pricing_plan_id":"cebpf4jnsgd1na2vs0mg"},{"bike_id":"a756ac62-601a-4a65-b168-04bcf168284e","system_id":"levelo_inurba_marseille","lat":43.2861,"lon":5.37052,"is_reserved":false,"is_disabled":false,"rental_uris":{"android":"levelo://app?vid=a756ac62-601a-4a65-b168-04bcf168284e","ios":"levelo://app?vid=a756ac62-601a-4a65-b168-04bcf168284e"},"vehicle_type_id":"4","last_reported":1756282443,"current_range_meters":4000,"station_id":"ce4bht12rcd13ifvqi60","pricing_plan_id":"cebpf4jnsgd1na2vs0mg"},{"bike_id":"f6bd5b86-eb54-487c-8a4e-3da908b177ef","system_id":"levelo_inurba_marseille","lat":43.29743,"lon":5.37123,"is_reserved":false,"is_disabled":false,"rental_uris":{"android":"levelo://app?vid=f6bd5b86-eb54-487c-8a4e-3da908b177ef","ios":"levelo://app?vid=f6bd5b86-eb54-487c-8a4e-3da908b177ef"},"vehicle_type_id":"4","last_reported":1756282443,"current_range_meters":4400,"station_id":"ce4bgop2rcd13ifvqc1g","pricing_plan_id":"cebpf4jnsgd1na2vs0mg"},{"bike_id":"03be758f-3e6d-4c72-8876-95a4359600d6","system_id":"levelo_inurba_marseille","lat":43.33737,"lon":5.37483,"is_reserved":false,"is_disabled":false,"rental_uris":{"android":"levelo://app?vid=03be758f-3e6d-4c72-8876-95a4359600d6","ios":"levelo://app?vid=03be758f-3e6d-4c72-8876-95a4359600d6"},"vehicle_type_id":"4","last_reported":1756282443,"current_range_meters":4400,"station_id":"","pricing_plan_id":"cebpf4jnsgd1na2vs0mg"},{"bike_id":"335ecedd-fb1b-40b2-94b2-7d0fbe0bb419","system_id":"levelo_inurba_marseille","lat":43.2732,"lon":5.3906,"is_reserved":false,"is_disabled":false,"rental_uris":{"android":"levelo://app?vid=335ecedd-fb1b-40b2-94b2-7d0fbe0bb419","ios":"levelo://app?vid=335ecedd-fb1b-40b2-94b2-7d0fbe0bb419"},"vehicle_type_id":"4","last_reported":1756282443,"current_range_meters":4400,"station_id":"ce4bhgp2rcd13ifvqfe0","pricing_plan_id":"cebpf4jnsgd1na2vs0mg"},{"bike_id":"236f1a17-bd84-4b8e-977f-7df7d8cf402c","system_id":"levelo_inurba_marseille","lat":43.30783,"lon":5.43544,"is_reserved":false,"is_disabled":true,"rental_uris":{"android":"levelo://app?vid=236f1a17-bd84-4b8e-977f-7df7d8cf402c","ios":"levelo://app?vid=236f1a17-bd84-4b8e-977f-7df7d8cf402c"},"vehicle_type_id":"4","last_reported":1756282443,"current_range_meters":4400,"station_id":"ce4bhph2rcd13ifvqheg","pricing_plan_id":"cebpf4jnsgd1na2vs0mg"},{"bike_id":"1865463b-1abe-4ab9-9f85-585acac86f17","system_id":"levelo_inurba_marseille","lat":43.2794,"lon":5.41052,"is_reserved":false,"is_disabled":false,"rental_uris":{"android":"levelo://app?vid=1865463b-1abe-4ab9-9f85-585acac86f17","ios":"levelo://app?vid=1865463b-1abe-4ab9-9f85-585acac86f17"},"vehicle_type_id":"4","last_reported":1756282443,"current_range_meters":4400,"station_id":"ce4bhnp2rcd13ifvqh0g","pricing_plan_id":"cebpf4jnsgd1na2vs0mg"},{"bike_id":"cbe40940-e97c-4ce2-bbdc-63567191a6c9","system_id":"levelo_inurba_marseille","lat":43.27207,"lon":5.39184,"is_reserved":false,"is_disabled":false,"rental_uris":{"android":"levelo://app?vid=cbe40940-e97c-4ce2-bbdc-63567191a6c9","ios":"levelo://app?vid=cbe40940-e97c-4ce2-bbdc-63567191a6c9"},"vehicle_type_id":"4","last_reported":1756282443,"current_range_meters":4800,"station_id":"ce4bhhp2rcd13ifvqfm0","pricing_plan_id":"cebpf4jnsgd1na2vs0mg"},{"bike_id":"43a14931-dcd0-4ae0-861f-dece37fa7f4d","system_id":"levelo_inurba_marseille","lat":43.31068,"lon":5.40085,"is_reserved":false,"is_disabled":false,"rental_uris":{"android":"levelo://app?vid=43a14931-dcd0-4ae0-861f-dece37fa7f4d","ios":"levelo://app?vid=43a14931-dcd0-4ae0-861f-dece37fa7f4d"},"vehicle_type_id":"4","last_reported":1756282443,"current_range_meters":5600,"station_id":"","pricing_plan_id":"cebpf4jnsgd1na2vs0mg"},{"bike_id":"db0871c9-8f60-4234-8296-2c387c75c83c","system_id":"levelo_inurba_marseille","lat":43.31157,"lon":5.38724,"is_reserved":false,"is_disabled":false,"rental_uris":{"android":"levelo://app?vid=db0871c9-8f60-4234-8296-2c387c75c83c","ios":"levelo://app?vid=db0871c9-8f60-4234-8296-2c387c75c83c"},"vehicle_type_id":"4","last_reported":1756282443,"current_range_meters":5600,"station_id":"ce4bgv12rcd13ifvqcp0","pricing_plan_id":"cebpf4jnsgd1na2vs0mg"},{"bike_id":"7ea2ea4b-538f-4d35-bf2e-e65767e5c19c","system_id":"levelo_inurba_marseille","lat":43.278101,"lon":5.407244,"is_reserved":false,"is_disabled":false,"rental_uris":{"android":"levelo://app?vid=7ea2ea4b-538f-4d35-bf2e-e65767e5c19c","ios":"levelo://app?vid=7ea2ea4b-538f-4d35-bf2e-e65767e5c19c"},"vehicle_type_id":"4","last_reported":1756282443,"current_range_meters":5600,"station_id":"ce4bhnh2rcd13ifvqgtg","pricing_plan_id":"cebpf4jnsgd1na2vs0mg"},{"bike_id":"f594cf2f-4785-415d-88d3-3b59532bfd51","system_id":"levelo_inurba_marseille","lat":43.31179,"lon":5.38715,"is_reserved":false,"is_disabled":false,"rental_uris":{"android":"levelo://app?vid=f594cf2f-4785-415d-88d3-3b59532bfd51","ios":"levelo://app?vid=f594cf2f-4785-415d-88d3-3b59532bfd51"},"vehicle_type_id":"4","last_reported":1756282443,"current_range_meters":5600,"station_id":"ce4bgv12rcd13ifvqcp0","pricing_plan_id":"cebpf4jnsgd1na2vs0mg"},{"bike_id":"b46639d3-0e19-46be-a590-754abfdbb7c9","system_id":"levelo_inurba_marseille","lat":43.295337,"lon":5.38546,"is_reserved":false,"is_disabled":true,"rental_uris":{"android":"levelo://app?vid=b46639d3-0e19-46be-a590-754abfdbb7c9","ios":"levelo://app?vid=b46639d3-0e19-46be-a590-754abfdbb7c9"},"vehicle_type_id":"4","last_reported":1756282443,"current_range_meters":6000,"station_id":"ce4bgih2rcd13ifvqba0","pricing_plan_id":"cebpf4jnsgd1na2vs0mg"},{"bike_id":"fb608589-c669-4883-99d1-b5d8d0ba8332","system_id":"levelo_inurba_marseille","lat":43.2465,"lon":5.38129,"is_reserved":false,"is_disabled":false,"rental_uris":{"android":"levelo://app?vid=fb608589-c669-4883-99d1-b5d8d0ba8332","ios":"levelo://app?vid=fb608589-c669-4883-99d1-b5d8d0ba8332"},"vehicle_type_id":"4","last_reported":1756282443,"current_range_meters":6000,"station_id":"ce4bhih2rcd13ifvqfr0","pricing_plan_id":"cebpf4jnsgd1na2vs0mg"},{"bike_id":"2f4e8b28-6095-4b3f-ae0a-f9f0c872541a","system_id":"levelo_inurba_marseille","lat":43.29035,"lon":5.37571,"is_reserved":false,"is_disabled":false,"rental_uris":{"android":"levelo://app?vid=2f4e8b28-6095-4b3f-ae0a-f9f0c872541a","ios":"levelo://app?vid=2f4e8b28-6095-4b3f-ae0a-f9f0c872541a"},"vehicle_type_id":"4","last_reported":1756282443,"current_range_meters":6400,"station_id":"ce4bh692rcd13ifvqe90","pricing_plan_id":"cebpf4jnsgd1na2vs0mg"},{"bike_id":"81617a00-c6b4-470b-a90f-6e2a529e4d46","system_id":"levelo_inurba_marseille","lat":43.27949,"lon":5.41035,"is_reserved":false,"is_disabled":false,"rental_uris":{"android":"levelo://app?vid=81617a00-c6b4-470b-a90f-6e2a529e4d46","ios":"levelo://app?vid=81617a00-c6b4-470b-a90f-6e2a529e4d46"},"vehicle_type_id":"4","last_reported":1756282443,"current_range_meters":6400,"station_id":"ce4bhnp2rcd13ifvqh0g","pricing_plan_id":"cebpf4jnsgd1na2vs0mg"},{"bike_id":"f4867917-eec3-4f3a-ad08-c213029c6f75","system_id":"levelo_inurba_marseille","lat":43.24684,"lon":5.38176,"is_reserved":false,"is_disabled":false,"rental_uris":{"android":"levelo://app?vid=f4867917-eec3-4f3a-ad08-c213029c6f75","ios":"levelo://app?vid=f4867917-eec3-4f3a-ad08-c213029c6f75"},"vehicle_type_id":"4","last_reported":1756282443,"current_range_meters":6800,"station_id":"ce4bhih2rcd13ifvqfr0","pricing_plan_id":"cebpf4jnsgd1na2vs0mg"},{"bike_id":"2bd6ab23-17da-458f-a096-efb6edb833d3","system_id":"levelo_inurba_marseille","lat":43.32539,"lon":5.41428,"is_reserved":false,"is_disabled":false,"rental_uris":{"android":"levelo://app?vid=2bd6ab23-17da-458f-a096-efb6edb833d3","ios":"levelo://app?vid=2bd6ab23-17da-458f-a096-efb6edb833d3"},"vehicle_type_id":"4","last_reported":1756282443,"current_range_meters":6800,"station_id":"ce4bhq12rcd13ifvqhhg","pricing_plan_id":"cebpf4jnsgd1na2vs0mg"},{"bike_id":"5669299e-fad5-4148-bd80-3adc481a017a","system_id":"levelo_inurba_marseille","lat":43.31733,"lon":5.40483,"is_reserved":false,"is_disabled":false,"rental_uris":{"android":"levelo://app?vid=5669299e-fad5-4148-bd80-3adc481a017a","ios":"levelo://app?vid=5669299e-fad5-4148-bd80-3adc481a017a"},"vehicle_type_id":"4","last_reported":1756282443,"current_range_meters":6800,"station_id":"ce4bh012rcd13ifvqd00","pricing_plan_id":"cebpf4jnsgd1na2vs0mg"},{"bike_id":"be2cece8-ad1d-4de2-bba1-b73531e78adb","system_id":"levelo_inurba_marseille","lat":43.30124,"lon":5.38775,"is_reserved":false,"is_disabled":false,"rental_uris":{"android":"levelo://app?vid=be2cece8-ad1d-4de2-bba1-b73531e78adb","ios":"levelo://app?vid=be2cece8-ad1d-4de2-bba1-b73531e78adb"},"vehicle_type_id":"4","last_reported":1756282443,"current_range_meters":6400,"station_id":"ce4bghh2rcd13ifvqb60","pricing_plan_id":"cebpf4jnsgd1na2vs0mg"},{"bike_id":"44d1fce0-dd99-4a4b-b3fb-fb18f3319a94","system_id":"levelo_inurba_marseille","lat":43.25937,"lon":5.4091,"is_reserved":false,"is_disabled":false,"rental_uris":{"android":"levelo://app?vid=44d1fce0-dd99-4a4b-b3fb-fb18f3319a94","ios":"levelo://app?vid=44d1fce0-dd99-4a4b-b3fb-fb18f3319a94"},"vehicle_type_id":"4","last_reported":1756282443,"current_range_meters":7200,"station_id":"ce4bhm92rcd13ifvqglg","pricing_plan_id":"cebpf4jnsgd1na2vs0mg"},{"bike_id":"dd8b74c8-8226-4e82-bf57-c60f31b51cfe","system_id":"levelo_inurba_marseille","lat":43.27797,"lon":5.4073,"is_reserved":false,"is_disabled":false,"rental_uris":{"android":"levelo://app?vid=dd8b74c8-8226-4e82-bf57-c60f31b51cfe","ios":"levelo://app?vid=dd8b74c8-8226-4e82-bf57-c60f31b51cfe"},"vehicle_type_id":"4","last_reported":1756282443,"current_range_meters":7200,"station_id":"ce4bhnh2rcd13ifvqgtg","pricing_plan_id":"cebpf4jnsgd1na2vs0mg"},{"bike_id":"9ebbca0f-8b0f-49e0-bbc0-5934ebb0e846","system_id":"levelo_inurba_marseille","lat":43.21184,"lon":5.35086,"is_reserved":false,"is_disabled":false,"rental_uris":{"android":"levelo://app?vid=9ebbca0f-8b0f-49e0-bbc0-5934ebb0e846","ios":"levelo://app?vid=9ebbca0f-8b0f-49e0-bbc0-5934ebb0e846"},"vehicle_type_id":"4","last_reported":1756282443,"current_range_meters":7200,"station_id":"st_cvj6sg6p6f1abm77japg","pricing_plan_id":"cebpf4jnsgd1na2vs0mg"},{"bike_id":"edc4c588-4db1-4b48-bddb-0eba1d72ba9f","system_id":"levelo_inurba_marseille","lat":43.2118,"lon":5.35061,"is_reserved":false,"is_disabled":false,"rental_uris":{"android":"levelo://app?vid=edc4c588-4db1-4b48-bddb-0eba1d72ba9f","ios":"levelo://app?vid=edc4c588-4db1-4b48-bddb-0eba1d72ba9f"},"vehicle_type_id":"4","last_reported":1756282443,"current_range_meters":7200,"station_id":"st_cvj6sg6p6f1abm77japg","pricing_plan_id":"cebpf4jnsgd1na2vs0mg"},{"bike_id":"2be73999-d995-4bcb-b12c-302657f18f84","system_id":"levelo_inurba_marseille","lat":43.2174,"lon":5.34603,"is_reserved":false,"is_disabled":false,"rental_uris":{"android":"levelo://app?vid=2be73999-d995-4bcb-b12c-302657f18f84","ios":"levelo://app?vid=2be73999-d995-4bcb-b12c-302657f18f84"},"vehicle_type_id":"4","last_reported":1756282443,"current_range_meters":8000,"station_id":"st_cvj6r9ubvosntc0bgbag","pricing_plan_id":"cebpf4jnsgd1na2vs0mg"},{"bike_id":"f781d014-afa9-4acc-b6f7-3670b0862de3","system_id":"levelo_inurba_marseille","lat":43.21209,"lon":5.35089,"is_reserved":false,"is_disabled":false,"rental_uris":{"android":"levelo://app?vid=f781d014-afa9-4acc-b6f7-3670b0862de3","ios":"levelo://app?vid=f781d014-afa9-4acc-b6f7-3670b0862de3"},"vehicle_type_id":"4","last_reported":1756282443,"current_range_meters":8000,"station_id":"st_cvj6sg6p6f1abm77japg","pricing_plan_id":"cebpf4jnsgd1na2vs0mg"},{"bike_id":"e8270378-24cd-4843-8f99-d48afc1a2e51","system_id":"levelo_inurba_marseille","lat":43.30594,"lon":5.39367,"is_reserved":false,"is_disabled":false,"rental_uris":{"android":"levelo://app?vid=e8270378-24cd-4843-8f99-d48afc1a2e51","ios":"levelo://app?vid=e8270378-24cd-4843-8f99-d48afc1a2e51"},"vehicle_type_id":"4","last_reported":1756282443,"current_range_meters":8400,"station_id":"ce4bh0p2rcd13ifvqd80","pricing_plan_id":"cebpf4jnsgd1na2vs0mg"},{"bike_id":"ada496fa-f852-46e3-b14c-185cb7819f57","system_id":"levelo_inurba_marseille","lat":43.25001,"lon":5.38926,"is_reserved":false,"is_disabled":false,"rental_uris":{"android":"levelo://app?vid=ada496fa-f852-46e3-b14c-185cb7819f57","ios":"levelo://app?vid=ada496fa-f852-46e3-b14c-185cb7819f57"},"vehicle_type_id":"4","last_reported":1756282443,"current_range_meters":8400,"station_id":"ce4bhgp2rcd13ifvqfd0","pricing_plan_id":"cebpf4jnsgd1na2vs0mg"},{"bike_id":"0d502687-08ef-4491-8893-8a03d8688be8","system_id":"levelo_inurba_marseille","lat":43.2961,"lon":5.36136,"is_reserved":false,"is_disabled":false,"rental_uris":{"android":"levelo://app?vid=0d502687-08ef-4491-8893-8a03d8688be8","ios":"levelo://app?vid=0d502687-08ef-4491-8893-8a03d8688be8"},"vehicle_type_id":"4","last_reported":1756282443,"current_range_meters":8800,"station_id":"","pricing_plan_id":"cebpf4jnsgd1na2vs0mg"},{"bike_id":"69a01144-4cb0-4f43-b8a7-d8bba1210d75","system_id":"levelo_inurba_marseille","lat":43.31575,"lon":5.37458,"is_reserved":false,"is_disabled":false,"rental_uris":{"android":"levelo://app?vid=69a01144-4cb0-4f43-b8a7-d8bba1210d75","ios":"levelo://app?vid=69a01144-4cb0-4f43-b8a7-d8bba1210d75"},"vehicle_type_id":"4","last_reported":1756282443,"current_range_meters":8800,"station_id":"","pricing_plan_id":"cebpf4jnsgd1na2vs0mg"},{"bike_id":"cfd66be3-eb77-4fcb-9808-b084ac439d43","system_id":"levelo_inurba_marseille","lat":43.33772,"lon":5.37451,"is_reserved":false,"is_disabled":false,"rental_uris":{"android":"levelo://app?vid=cfd66be3-eb77-4fcb-9808-b084ac439d43","ios":"levelo://app?vid=cfd66be3-eb77-4fcb-9808-b084ac439d43"},"vehicle_type_id":"4","last_reported":1756282443,"current_range_meters":8800,"station_id":"","pricing_plan_id":"cebpf4jnsgd1na2vs0mg"},{"bike_id":"4dd4428e-edbe-4c5d-9dc1-a53e9a716334","system_id":"levelo_inurba_marseille","lat":43.22509,"lon":5.34796,"is_reserved":false,"is_disabled":false,"rental_uris":{"android":"levelo://app?vid=4dd4428e-edbe-4c5d-9dc1-a53e9a716334","ios":"levelo://app?vid=4dd4428e-edbe-4c5d-9dc1-a53e9a716334"},"vehicle_type_id":"4","last_reported":1756282443,"current_range_meters":9200,"station_id":"","pricing_plan_id":"cebpf4jnsgd1na2vs0mg"},{"bike_id":"325f6c5a-86a0-4b70-adef-ff6206674622","system_id":"levelo_inurba_marseille","lat":43.32353,"lon":5.36733,"is_reserved":false,"is_disabled":false,"rental_uris":{"android":"levelo://app?vid=325f6c5a-86a0-4b70-adef-ff6206674622","ios":"levelo://app?vid=325f6c5a-86a0-4b70-adef-ff6206674622"},"vehicle_type_id":"4","last_reported":1756282443,"current_range_meters":9200,"station_id":"ce4bhsh2rcd13ifvqi2g","pricing_plan_id":"cebpf4jnsgd1na2vs0mg"},{"bike_id":"52b2b5bf-d494-4457-ad5d-94ac8cb02794","system_id":"levelo_inurba_marseille","lat":43.33597,"lon":5.41034,"is_reserved":false,"is_disabled":false,"rental_uris":{"android":"levelo://app?vid=52b2b5bf-d494-4457-ad5d-94ac8cb02794","ios":"levelo://app?vid=52b2b5bf-d494-4457-ad5d-94ac8cb02794"},"vehicle_type_id":"4","last_reported":1756282443,"current_range_meters":9200,"station_id":"ce4bhqh2rcd13ifvqhmg","pricing_plan_id":"cebpf4jnsgd1na2vs0mg"},{"bike_id":"6aed4cbc-7dd3-407a-acae-3a81f9ec0588","system_id":"levelo_inurba_marseille","lat":43.2951,"lon":5.39041,"is_reserved":false,"is_disabled":false,"rental_uris":{"android":"levelo://app?vid=6aed4cbc-7dd3-407a-acae-3a81f9ec0588","ios":"levelo://app?vid=6aed4cbc-7dd3-407a-acae-3a81f9ec0588"},"vehicle_type_id":"4","last_reported":1756282443,"current_range_meters":9600,"station_id":"ce4bh3p2rcd13ifvqdp0","pricing_plan_id":"cebpf4jnsgd1na2vs0mg"},{"bike_id":"dcd1879e-ac5d-4aa0-bf26-5aa5113abe6e","system_id":"levelo_inurba_marseille","lat":43.27051,"lon":5.40263,"is_reserved":false,"is_disabled":false,"rental_uris":{"android":"levelo://app?vid=dcd1879e-ac5d-4aa0-bf26-5aa5113abe6e","ios":"levelo://app?vid=dcd1879e-ac5d-4aa0-bf26-5aa5113abe6e"},"vehicle_type_id":"4","last_reported":1756282443,"current_range_meters":9600,"station_id":"ce4bhk92rcd13ifvqgc0","pricing_plan_id":"cebpf4jnsgd1na2vs0mg"},{"bike_id":"51842e17-ef10-4624-a23e-c8a182427991","system_id":"levelo_inurba_marseille","lat":43.316078,"lon":5.381958,"is_reserved":false,"is_disabled":false,"rental_uris":{"android":"levelo://app?vid=51842e17-ef10-4624-a23e-c8a182427991","ios":"levelo://app?vid=51842e17-ef10-4624-a23e-c8a182427991"},"vehicle_type_id":"4","last_reported":1756282443,"current_range_meters":9600,"station_id":"","pricing_plan_id":"cebpf4jnsgd1na2vs0mg"},{"bike_id":"a96a4c3f-f925-4803-a689-af9d292c4e17","system_id":"levelo_inurba_marseille","lat":43.2904,"lon":5.39977,"is_reserved":false,"is_disabled":false,"rental_uris":{"android":"levelo://app?vid=a96a4c3f-f925-4803-a689-af9d292c4e17","ios":"levelo://app?vid=a96a4c3f-f925-4803-a689-af9d292c4e17"},"vehicle_type_id":"4","last_reported":1756282443,"current_range_meters":10000,"station_id":"ce4bh392rcd13ifvqdm0","pricing_plan_id":"cebpf4jnsgd1na2vs0mg"},{"bike_id":"cf113ad4-b4a3-421f-872e-dfb5537698dd","system_id":"levelo_inurba_marseille","lat":43.2957,"lon":5.39938,"is_reserved":false,"is_disabled":false,"rental_uris":{"android":"levelo://app?vid=cf113ad4-b4a3-421f-872e-dfb5537698dd","ios":"levelo://app?vid=cf113ad4-b4a3-421f-872e-dfb5537698dd"},"vehicle_type_id":"4","last_reported":1756282443,"current_range_meters":10000,"station_id":"ce4bh312rcd13ifvqdj0","pricing_plan_id":"cebpf4jnsgd1na2vs0mg"},{"bike_id":"f39a8fc2-1b7c-4473-962a-3684dc63321c","system_id":"levelo_inurba_marseille","lat":43.30592,"lon":5.39354,"is_reserved":false,"is_disabled":false,"rental_uris":{"android":"levelo://app?vid=f39a8fc2-1b7c-4473-962a-3684dc63321c","ios":"levelo://app?vid=f39a8fc2-1b7c-4473-962a-3684dc63321c"},"vehicle_type_id":"4","last_reported":1756282443,"current_range_meters":10000,"station_id":"ce4bh0p2rcd13ifvqd80","pricing_plan_id":"cebpf4jnsgd1na2vs0mg"},{"bike_id":"b4d6c33d-a0bf-42a3-9ab7-0db80b72b559","system_id":"levelo_inurba_marseille","lat":43.289373,"lon":5.366385,"is_reserved":false,"is_disabled":false,"rental_uris":{"android":"levelo://app?vid=b4d6c33d-a0bf-42a3-9ab7-0db80b72b559","ios":"levelo://app?vid=b4d6c33d-a0bf-42a3-9ab7-0db80b72b559"},"vehicle_type_id":"4","last_reported":1756282443,"current_range_meters":10800,"station_id":"ce4bhap2rcd13ifvqek0","pricing_plan_id":"cebpf4jnsgd1na2vs0mg"},{"bike_id":"c73d9183-822c-4a14-a8c1-53bf72c04baf","system_id":"levelo_inurba_marseille","lat":43.294201,"lon":5.432323,"is_reserved":false,"is_disabled":false,"rental_uris":{"android":"levelo://app?vid=c73d9183-822c-4a14-a8c1-53bf72c04baf","ios":"levelo://app?vid=c73d9183-822c-4a14-a8c1-53bf72c04baf"},"vehicle_type_id":"4","last_reported":1756282443,"current_range_meters":10800,"station_id":"","pricing_plan_id":"cebpf4jnsgd1na2vs0mg"},{"bike_id":"6b1581e2-1543-434c-b1e5-28d7a00a39b0","system_id":"levelo_inurba_marseille","lat":43.253399,"lon":5.421641,"is_reserved":false,"is_disabled":false,"rental_uris":{"android":"levelo://app?vid=6b1581e2-1543-434c-b1e5-28d7a00a39b0","ios":"levelo://app?vid=6b1581e2-1543-434c-b1e5-28d7a00a39b0"},"vehicle_type_id":"4","last_reported":1756282443,"current_range_meters":10800,"station_id":"st_d2m65c5bi1j21697t3ng","pricing_plan_id":"cebpf4jnsgd1na2vs0mg"},{"bike_id":"e8de9505-398f-429a-8851-2dc6d4cfeeb5","system_id":"levelo_inurba_marseille","lat":43.27811,"lon":5.40711,"is_reserved":false,"is_disabled":false,"rental_uris":{"android":"levelo://app?vid=e8de9505-398f-429a-8851-2dc6d4cfeeb5","ios":"levelo://app?vid=e8de9505-398f-429a-8851-2dc6d4cfeeb5"},"vehicle_type_id":"4","last_reported":1756282443,"current_range_meters":10800,"station_id":"ce4bhnh2rcd13ifvqgtg","pricing_plan_id":"cebpf4jnsgd1na2vs0mg"},{"bike_id":"182c9c57-b402-4207-a27d-b3cb013fb496","system_id":"levelo_inurba_marseille","lat":43.29043,"lon":5.37566,"is_reserved":false,"is_disabled":false,"rental_uris":{"android":"levelo://app?vid=182c9c57-b402-4207-a27d-b3cb013fb496","ios":"levelo://app?vid=182c9c57-b402-4207-a27d-b3cb013fb496"},"vehicle_type_id":"4","last_reported":1756282443,"current_range_meters":10800,"station_id":"ce4bh692rcd13ifvqe90","pricing_plan_id":"cebpf4jnsgd1na2vs0mg"},{"bike_id":"39002f5b-a23e-4630-90a0-e2481b8443c4","system_id":"levelo_inurba_marseille","lat":43.25006,"lon":5.389113,"is_reserved":false,"is_disabled":false,"rental_uris":{"android":"levelo://app?vid=39002f5b-a23e-4630-90a0-e2481b8443c4","ios":"levelo://app?vid=39002f5b-a23e-4630-90a0-e2481b8443c4"},"vehicle_type_id":"4","last_reported":1756282443,"current_range_meters":10800,"station_id":"","pricing_plan_id":"cebpf4jnsgd1na2vs0mg"},{"bike_id":"7bb76b32-f64a-4b06-8925-67a86c5c4890","system_id":"levelo_inurba_marseille","lat":43.31173,"lon":5.38715,"is_reserved":false,"is_disabled":false,"rental_uris":{"android":"levelo://app?vid=7bb76b32-f64a-4b06-8925-67a86c5c4890","ios":"levelo://app?vid=7bb76b32-f64a-4b06-8925-67a86c5c4890"},"vehicle_type_id":"4","last_reported":1756282443,"current_range_meters":11200,"station_id":"ce4bgv12rcd13ifvqcp0","pricing_plan_id":"cebpf4jnsgd1na2vs0mg"},{"bike_id":"254413ba-ba76-4b5d-8da9-f55a83f4ca59","system_id":"levelo_inurba_marseille","lat":43.330239,"lon":5.390359,"is_reserved":false,"is_disabled":false,"rental_uris":{"android":"levelo://app?vid=254413ba-ba76-4b5d-8da9-f55a83f4ca59","ios":"levelo://app?vid=254413ba-ba76-4b5d-8da9-f55a83f4ca59"},"vehicle_type_id":"4","last_reported":1756282443,"current_range_meters":11200,"station_id":"ce4bhr92rcd13ifvqhrg","pricing_plan_id":"cebpf4jnsgd1na2vs0mg"},{"bike_id":"d962b7f9-c565-4172-829d-7cb8d4909bab","system_id":"levelo_inurba_marseille","lat":43.29274,"lon":5.36837,"is_reserved":false,"is_disabled":false,"rental_uris":{"android":"levelo://app?vid=d962b7f9-c565-4172-829d-7cb8d4909bab","ios":"levelo://app?vid=d962b7f9-c565-4172-829d-7cb8d4909bab"},"vehicle_type_id":"4","last_reported":1756282443,"current_range_meters":11200,"station_id":"ce4bhbp2rcd13ifvqesg","pricing_plan_id":"cebpf4jnsgd1na2vs0mg"},{"bike_id":"1027bb83-a668-47de-9094-84302cb909d4","system_id":"levelo_inurba_marseille","lat":43.211913,"lon":5.350783,"is_reserved":false,"is_disabled":false,"rental_uris":{"android":"levelo://app?vid=1027bb83-a668-47de-9094-84302cb909d4","ios":"levelo://app?vid=1027bb83-a668-47de-9094-84302cb909d4"},"vehicle_type_id":"4","last_reported":1756282443,"current_range_meters":11200,"station_id":"st_cvj6sg6p6f1abm77japg","pricing_plan_id":"cebpf4jnsgd1na2vs0mg"},{"bike_id":"fbf0e9b4-0244-4455-89e8-bb336b1646cf","system_id":"levelo_inurba_marseille","lat":43.231842,"lon":5.39985,"is_reserved":false,"is_disabled":false,"rental_uris":{"android":"levelo://app?vid=fbf0e9b4-0244-4455-89e8-bb336b1646cf","ios":"levelo://app?vid=fbf0e9b4-0244-4455-89e8-bb336b1646cf"},"vehicle_type_id":"4","last_reported":1756282443,"current_range_meters":11200,"station_id":"ce4bhn12rcd13ifvqgqg","pricing_plan_id":"cebpf4jnsgd1na2vs0mg"},{"bike_id":"f0842509-8bca-40f3-96e3-b2de817486e4","system_id":"levelo_inurba_marseille","lat":43.29278,"lon":5.40154,"is_reserved":false,"is_disabled":false,"rental_uris":{"android":"levelo://app?vid=f0842509-8bca-40f3-96e3-b2de817486e4","ios":"levelo://app?vid=f0842509-8bca-40f3-96e3-b2de817486e4"},"vehicle_type_id":"4","last_reported":1756282443,"current_range_meters":11200,"station_id":"ce4bh312rcd13ifvqdk0","pricing_plan_id":"cebpf4jnsgd1na2vs0mg"},{"bike_id":"b34ce8e8-e471-4522-abe2-93d326636f2d","system_id":"levelo_inurba_marseille","lat":43.25939,"lon":5.40914,"is_reserved":false,"is_disabled":false,"rental_uris":{"android":"levelo://app?vid=b34ce8e8-e471-4522-abe2-93d326636f2d","ios":"levelo://app?vid=b34ce8e8-e471-4522-abe2-93d326636f2d"},"vehicle_type_id":"4","last_reported":1756282443,"current_range_meters":11200,"station_id":"ce4bhm92rcd13ifvqglg","pricing_plan_id":"cebpf4jnsgd1na2vs0mg"},{"bike_id":"907b70b3-7461-4376-a750-1dbe63811ed6","system_id":"levelo_inurba_marseille","lat":43.28713,"lon":5.39977,"is_reserved":false,"is_disabled":false,"rental_uris":{"android":"levelo://app?vid=907b70b3-7461-4376-a750-1dbe63811ed6","ios":"levelo://app?vid=907b70b3-7461-4376-a750-1dbe63811ed6"},"vehicle_type_id":"4","last_reported":1756282443,"current_range_meters":11600,"station_id":"ce4bho92rcd13ifvqh3g","pricing_plan_id":"cebpf4jnsgd1na2vs0mg"},{"bike_id":"f0400c37-c7f6-4929-b1ac-d92430ff6f2d","system_id":"levelo_inurba_marseille","lat":43.27586,"lon":5.39684,"is_reserved":false,"is_disabled":false,"rental_uris":{"android":"levelo://app?vid=f0400c37-c7f6-4929-b1ac-d92430ff6f2d","ios":"levelo://app?vid=f0400c37-c7f6-4929-b1ac-d92430ff6f2d"},"vehicle_type_id":"4","last_reported":1756282443,"current_range_meters":11600,"station_id":"","pricing_plan_id":"cebpf4jnsgd1na2vs0mg"},{"bike_id":"1d7023ef-959e-48df-b075-0a4bd90cc9ae","system_id":"levelo_inurba_marseille","lat":43.27365,"lon":5.36253,"is_reserved":false,"is_disabled":true,"rental_uris":{"android":"levelo://app?vid=1d7023ef-959e-48df-b075-0a4bd90cc9ae","ios":"levelo://app?vid=1d7023ef-959e-48df-b075-0a4bd90cc9ae"},"vehicle_type_id":"4","last_reported":1756282443,"current_range_meters":11600,"station_id":"ce4bhbh2rcd13ifvqeo0","pricing_plan_id":"cebpf4jnsgd1na2vs0mg"},{"bike_id":"14947f10-51c9-4538-82c8-53a5bc644a0e","system_id":"levelo_inurba_marseille","lat":43.32049,"lon":5.41538,"is_reserved":false,"is_disabled":false,"rental_uris":{"android":"levelo://app?vid=14947f10-51c9-4538-82c8-53a5bc644a0e","ios":"levelo://app?vid=14947f10-51c9-4538-82c8-53a5bc644a0e"},"vehicle_type_id":"4","last_reported":1756282443,"current_range_meters":11600,"station_id":"ce4bhq92rcd13ifvqhkg","pricing_plan_id":"cebpf4jnsgd1na2vs0mg"},{"bike_id":"35293f9d-ecc5-4090-ae0e-2e4ab9a73a16","system_id":"levelo_inurba_marseille","lat":43.323555,"lon":5.367401,"is_reserved":false,"is_disabled":false,"rental_uris":{"android":"levelo://app?vid=35293f9d-ecc5-4090-ae0e-2e4ab9a73a16","ios":"levelo://app?vid=35293f9d-ecc5-4090-ae0e-2e4ab9a73a16"},"vehicle_type_id":"4","last_reported":1756282443,"current_range_meters":11600,"station_id":"ce4bhsh2rcd13ifvqi2g","pricing_plan_id":"cebpf4jnsgd1na2vs0mg"},{"bike_id":"c3990717-1c4e-4c65-994c-f9ae9cddf825","system_id":"levelo_inurba_marseille","lat":43.33625,"lon":5.41074,"is_reserved":false,"is_disabled":false,"rental_uris":{"android":"levelo://app?vid=c3990717-1c4e-4c65-994c-f9ae9cddf825","ios":"levelo://app?vid=c3990717-1c4e-4c65-994c-f9ae9cddf825"},"vehicle_type_id":"4","last_reported":1756282443,"current_range_meters":11600,"station_id":"ce4bhqh2rcd13ifvqhmg","pricing_plan_id":"cebpf4jnsgd1na2vs0mg"},{"bike_id":"777a8c83-aed8-4881-84b6-34465956e738","system_id":"levelo_inurba_marseille","lat":43.257428,"lon":5.41008,"is_reserved":false,"is_disabled":false,"rental_uris":{"android":"levelo://app?vid=777a8c83-aed8-4881-84b6-34465956e738","ios":"levelo://app?vid=777a8c83-aed8-4881-84b6-34465956e738"},"vehicle_type_id":"4","last_reported":1756282443,"current_range_meters":11600,"station_id":"","pricing_plan_id":"cebpf4jnsgd1na2vs0mg"},{"bike_id":"d55c9974-c25d-46ba-ac78-507e478cef8f","system_id":"levelo_inurba_marseille","lat":43.29038,"lon":5.39973,"is_reserved":false,"is_disabled":false,"rental_uris":{"android":"levelo://app?vid=d55c9974-c25d-46ba-ac78-507e478cef8f","ios":"levelo://app?vid=d55c9974-c25d-46ba-ac78-507e478cef8f"},"vehicle_type_id":"4","last_reported":1756282443,"current_range_meters":12000,"station_id":"ce4bh392rcd13ifvqdm0","pricing_plan_id":"cebpf4jnsgd1na2vs0mg"},{"bike_id":"43215e1a-2a2c-44b3-906b-d3cd7d18e500","system_id":"levelo_inurba_marseille","lat":43.24393,"lon":5.37045,"is_reserved":false,"is_disabled":false,"rental_uris":{"android":"levelo://app?vid=43215e1a-2a2c-44b3-906b-d3cd7d18e500","ios":"levelo://app?vid=43215e1a-2a2c-44b3-906b-d3cd7d18e500"},"vehicle_type_id":"4","last_reported":1756282443,"current_range_meters":12000,"station_id":"ce4bhhh2rcd13ifvqfk0","pricing_plan_id":"cebpf4jnsgd1na2vs0mg"},{"bike_id":"5404bc40-09d1-4503-ba14-24dbda4a3a02","system_id":"levelo_inurba_marseille","lat":43.28413,"lon":5.34981,"is_reserved":false,"is_disabled":false,"rental_uris":{"android":"levelo://app?vid=5404bc40-09d1-4503-ba14-24dbda4a3a02","ios":"levelo://app?vid=5404bc40-09d1-4503-ba14-24dbda4a3a02"},"vehicle_type_id":"4","last_reported":1756282443,"current_range_meters":12000,"station_id":"ce4bhbh2rcd13ifvqepg","pricing_plan_id":"cebpf4jnsgd1na2vs0mg"},{"bike_id":"db142566-801e-4a8e-8d82-8f4c75397261","system_id":"levelo_inurba_marseille","lat":43.240726,"lon":5.377582,"is_reserved":false,"is_disabled":false,"rental_uris":{"android":"levelo://app?vid=db142566-801e-4a8e-8d82-8f4c75397261","ios":"levelo://app?vid=db142566-801e-4a8e-8d82-8f4c75397261"},"vehicle_type_id":"4","last_reported":1756282443,"current_range_meters":12000,"station_id":"ce4bhnp2rcd13ifvqgvg","pricing_plan_id":"cebpf4jnsgd1na2vs0mg"},{"bike_id":"532cce87-fa0c-4713-b2a7-c2e8a86b6b5b","system_id":"levelo_inurba_marseille","lat":43.241772,"lon":5.397236,"is_reserved":false,"is_disabled":false,"rental_uris":{"android":"levelo://app?vid=532cce87-fa0c-4713-b2a7-c2e8a86b6b5b","ios":"levelo://app?vid=532cce87-fa0c-4713-b2a7-c2e8a86b6b5b"},"vehicle_type_id":"4","last_reported":1756282443,"current_range_meters":12000,"station_id":"ce4bhn12rcd13ifvqgpg","pricing_plan_id":"cebpf4jnsgd1na2vs0mg"},{"bike_id":"6eca34b4-28e2-4994-9a44-60ec0f7f1517","system_id":"levelo_inurba_marseille","lat":43.25915,"lon":5.40865,"is_reserved":false,"is_disabled":false,"rental_uris":{"android":"levelo://app?vid=6eca34b4-28e2-4994-9a44-60ec0f7f1517","ios":"levelo://app?vid=6eca34b4-28e2-4994-9a44-60ec0f7f1517"},"vehicle_type_id":"4","last_reported":1756282443,"current_range_meters":12000,"station_id":"ce4bhm92rcd13ifvqglg","pricing_plan_id":"cebpf4jnsgd1na2vs0mg"},{"bike_id":"5bce688b-fc81-4596-8277-b66f54be87c1","system_id":"levelo_inurba_marseille","lat":43.33768,"lon":5.37438,"is_reserved":false,"is_disabled":false,"rental_uris":{"android":"levelo://app?vid=5bce688b-fc81-4596-8277-b66f54be87c1","ios":"levelo://app?vid=5bce688b-fc81-4596-8277-b66f54be87c1"},"vehicle_type_id":"4","last_reported":1756282443,"current_range_meters":12400,"station_id":"","pricing_plan_id":"cebpf4jnsgd1na2vs0mg"},{"bike_id":"b063cf6a-d344-4b12-8278-b502108c7559","system_id":"levelo_inurba_marseille","lat":43.24802,"lon":5.37456,"is_reserved":false,"is_disabled":false,"rental_uris":{"android":"levelo://app?vid=b063cf6a-d344-4b12-8278-b502108c7559","ios":"levelo://app?vid=b063cf6a-d344-4b12-8278-b502108c7559"},"vehicle_type_id":"4","last_reported":1756282443,"current_range_meters":12400,"station_id":"ce4bhgh2rcd13ifvqfb0","pricing_plan_id":"cebpf4jnsgd1na2vs0mg"},{"bike_id":"f16dea20-7c43-4a57-90b2-8918f4738ec7","system_id":"levelo_inurba_marseille","lat":43.29279,"lon":5.36846,"is_reserved":false,"is_disabled":false,"rental_uris":{"android":"levelo://app?vid=f16dea20-7c43-4a57-90b2-8918f4738ec7","ios":"levelo://app?vid=f16dea20-7c43-4a57-90b2-8918f4738ec7"},"vehicle_type_id":"4","last_reported":1756282443,"current_range_meters":12400,"station_id":"ce4bhbp2rcd13ifvqesg","pricing_plan_id":"cebpf4jnsgd1na2vs0mg"},{"bike_id":"8b076876-1e74-46de-8534-d3c1af20256b","system_id":"levelo_inurba_marseille","lat":43.28965,"lon":5.35526,"is_reserved":false,"is_disabled":false,"rental_uris":{"android":"levelo://app?vid=8b076876-1e74-46de-8534-d3c1af20256b","ios":"levelo://app?vid=8b076876-1e74-46de-8534-d3c1af20256b"},"vehicle_type_id":"4","last_reported":1756282443,"current_range_meters":12400,"station_id":"","pricing_plan_id":"cebpf4jnsgd1na2vs0mg"},{"bike_id":"444185a1-99b2-4724-a588-1f691746c053","system_id":"levelo_inurba_marseille","lat":43.2709,"lon":5.42268,"is_reserved":false,"is_disabled":false,"rental_uris":{"android":"levelo://app?vid=444185a1-99b2-4724-a588-1f691746c053","ios":"levelo://app?vid=444185a1-99b2-4724-a588-1f691746c053"},"vehicle_type_id":"4","last_reported":1756282443,"current_range_meters":12800,"station_id":"ce4bhk92rcd13ifvqgb0","pricing_plan_id":"cebpf4jnsgd1na2vs0mg"},{"bike_id":"13e5ff1d-b71b-4af9-9648-f26b19993b5e","system_id":"levelo_inurba_marseille","lat":43.3106,"lon":5.3835,"is_reserved":false,"is_disabled":false,"rental_uris":{"android":"levelo://app?vid=13e5ff1d-b71b-4af9-9648-f26b19993b5e","ios":"levelo://app?vid=13e5ff1d-b71b-4af9-9648-f26b19993b5e"},"vehicle_type_id":"4","last_reported":1756282443,"current_range_meters":12800,"station_id":"ce4bgv92rcd13ifvqcr0","pricing_plan_id":"cebpf4jnsgd1na2vs0mg"},{"bike_id":"d09aba44-7580-4ea4-b01d-76b95cbf337a","system_id":"levelo_inurba_marseille","lat":43.31318,"lon":5.39651,"is_reserved":false,"is_disabled":false,"rental_uris":{"android":"levelo://app?vid=d09aba44-7580-4ea4-b01d-76b95cbf337a","ios":"levelo://app?vid=d09aba44-7580-4ea4-b01d-76b95cbf337a"},"vehicle_type_id":"4","last_reported":1756282443,"current_range_meters":12800,"station_id":"ce4bgvp2rcd13ifvqcu0","pricing_plan_id":"cebpf4jnsgd1na2vs0mg"},{"bike_id":"e71745a0-e1dd-46b2-b178-c77ff9f67425","system_id":"levelo_inurba_marseille","lat":43.23184,"lon":5.39986,"is_reserved":false,"is_disabled":false,"rental_uris":{"android":"levelo://app?vid=e71745a0-e1dd-46b2-b178-c77ff9f67425","ios":"levelo://app?vid=e71745a0-e1dd-46b2-b178-c77ff9f67425"},"vehicle_type_id":"4","last_reported":1756282443,"current_range_meters":12800,"station_id":"ce4bhn12rcd13ifvqgqg","pricing_plan_id":"cebpf4jnsgd1na2vs0mg"},{"bike_id":"4986b3b0-4846-40ba-9ad7-fd2e5a3f8021","system_id":"levelo_inurba_marseille","lat":43.28981,"lon":5.37835,"is_reserved":false,"is_disabled":false,"rental_uris":{"android":"levelo://app?vid=4986b3b0-4846-40ba-9ad7-fd2e5a3f8021","ios":"levelo://app?vid=4986b3b0-4846-40ba-9ad7-fd2e5a3f8021"},"vehicle_type_id":"4","last_reported":1756282443,"current_range_meters":12800,"station_id":"ce4bh9p2rcd13ifvqed0","pricing_plan_id":"cebpf4jnsgd1na2vs0mg"},{"bike_id":"823ef9c8-3dd8-4d40-9db3-bf0aadca5977","system_id":"levelo_inurba_marseille","lat":43.28664,"lon":5.38679,"is_reserved":false,"is_disabled":false,"rental_uris":{"android":"levelo://app?vid=823ef9c8-3dd8-4d40-9db3-bf0aadca5977","ios":"levelo://app?vid=823ef9c8-3dd8-4d40-9db3-bf0aadca5977"},"vehicle_type_id":"4","last_reported":1756282443,"current_range_meters":12800,"station_id":"ce4bh492rcd13ifvqdug","pricing_plan_id":"cebpf4jnsgd1na2vs0mg"},{"bike_id":"388dacf9-776c-47d6-a4cd-aea1ac1fbe3d","system_id":"levelo_inurba_marseille","lat":43.29805,"lon":5.40401,"is_reserved":false,"is_disabled":false,"rental_uris":{"android":"levelo://app?vid=388dacf9-776c-47d6-a4cd-aea1ac1fbe3d","ios":"levelo://app?vid=388dacf9-776c-47d6-a4cd-aea1ac1fbe3d"},"vehicle_type_id":"4","last_reported":1756282443,"current_range_meters":12800,"station_id":"ce4bh112rcd13ifvqd90","pricing_plan_id":"cebpf4jnsgd1na2vs0mg"},{"bike_id":"55806391-7b33-41cb-9701-b69f3515bef3","system_id":"levelo_inurba_marseille","lat":43.25938,"lon":5.40905,"is_reserved":false,"is_disabled":false,"rental_uris":{"android":"levelo://app?vid=55806391-7b33-41cb-9701-b69f3515bef3","ios":"levelo://app?vid=55806391-7b33-41cb-9701-b69f3515bef3"},"vehicle_type_id":"4","last_reported":1756282443,"current_range_meters":12800,"station_id":"ce4bhm92rcd13ifvqglg","pricing_plan_id":"cebpf4jnsgd1na2vs0mg"},{"bike_id":"5ac0f8f5-c1ae-4c4e-b6ed-0c0d723f58cc","system_id":"levelo_inurba_marseille","lat":43.24386,"lon":5.37056,"is_reserved":false,"is_disabled":false,"rental_uris":{"android":"levelo://app?vid=5ac0f8f5-c1ae-4c4e-b6ed-0c0d723f58cc","ios":"levelo://app?vid=5ac0f8f5-c1ae-4c4e-b6ed-0c0d723f58cc"},"vehicle_type_id":"4","last_reported":1756282443,"current_range_meters":13600,"station_id":"ce4bhhh2rcd13ifvqfk0","pricing_plan_id":"cebpf4jnsgd1na2vs0mg"},{"bike_id":"b79f626f-4cce-45e0-9b7e-79f3f3a6033f","system_id":"levelo_inurba_marseille","lat":43.24652,"lon":5.43173,"is_reserved":false,"is_disabled":false,"rental_uris":{"android":"levelo://app?vid=b79f626f-4cce-45e0-9b7e-79f3f3a6033f","ios":"levelo://app?vid=b79f626f-4cce-45e0-9b7e-79f3f3a6033f"},"vehicle_type_id":"4","last_reported":1756282443,"current_range_meters":13600,"station_id":"st_d2m6c4gdas8pm72e190g","pricing_plan_id":"cebpf4jnsgd1na2vs0mg"},{"bike_id":"bbc781a3-50d1-4e98-8560-df1d99977189","system_id":"levelo_inurba_marseille","lat":43.26504,"lon":5.3954,"is_reserved":false,"is_disabled":false,"rental_uris":{"android":"levelo://app?vid=bbc781a3-50d1-4e98-8560-df1d99977189","ios":"levelo://app?vid=bbc781a3-50d1-4e98-8560-df1d99977189"},"vehicle_type_id":"4","last_reported":1756282443,"current_range_meters":13600,"station_id":"ce4bhi12rcd13ifvqfq0","pricing_plan_id":"cebpf4jnsgd1na2vs0mg"},{"bike_id":"09ca4265-b5c0-4057-9822-ded725fbbd43","system_id":"levelo_inurba_marseille","lat":43.28441,"lon":5.39175,"is_reserved":false,"is_disabled":false,"rental_uris":{"android":"levelo://app?vid=09ca4265-b5c0-4057-9822-ded725fbbd43","ios":"levelo://app?vid=09ca4265-b5c0-4057-9822-ded725fbbd43"},"vehicle_type_id":"4","last_reported":1756282443,"current_range_meters":13600,"station_id":"ce4bhoh2rcd13ifvqh5g","pricing_plan_id":"cebpf4jnsgd1na2vs0mg"},{"bike_id":"b3343c33-41a0-46c5-bc81-b2b62fd22fa5","system_id":"levelo_inurba_marseille","lat":43.2856,"lon":5.39472,"is_reserved":false,"is_disabled":false,"rental_uris":{"android":"levelo://app?vid=b3343c33-41a0-46c5-bc81-b2b62fd22fa5","ios":"levelo://app?vid=b3343c33-41a0-46c5-bc81-b2b62fd22fa5"},"vehicle_type_id":"4","last_reported":1756282443,"current_range_meters":13600,"station_id":"ce4bh292rcd13ifvqdg0","pricing_plan_id":"cebpf4jnsgd1na2vs0mg"},{"bike_id":"f8569812-fc84-4ff1-86b1-c427435eab0e","system_id":"levelo_inurba_marseille","lat":43.30956,"lon":5.39057,"is_reserved":false,"is_disabled":false,"rental_uris":{"android":"levelo://app?vid=f8569812-fc84-4ff1-86b1-c427435eab0e","ios":"levelo://app?vid=f8569812-fc84-4ff1-86b1-c427435eab0e"},"vehicle_type_id":"4","last_reported":1756282443,"current_range_meters":13600,"station_id":"ce4bgup2rcd13ifvqco0","pricing_plan_id":"cebpf4jnsgd1na2vs0mg"},{"bike_id":"9e39c44e-cf49-4782-8537-cf9f64cdf7e9","system_id":"levelo_inurba_marseille","lat":43.28599,"lon":5.37065,"is_reserved":false,"is_disabled":false,"rental_uris":{"android":"levelo://app?vid=9e39c44e-cf49-4782-8537-cf9f64cdf7e9","ios":"levelo://app?vid=9e39c44e-cf49-4782-8537-cf9f64cdf7e9"},"vehicle_type_id":"4","last_reported":1756282443,"current_range_meters":14000,"station_id":"","pricing_plan_id":"cebpf4jnsgd1na2vs0mg"},{"bike_id":"16ffd5c2-31ae-43e4-9d4b-a32211f13845","system_id":"levelo_inurba_marseille","lat":43.31508,"lon":5.37267,"is_reserved":false,"is_disabled":false,"rental_uris":{"android":"levelo://app?vid=16ffd5c2-31ae-43e4-9d4b-a32211f13845","ios":"levelo://app?vid=16ffd5c2-31ae-43e4-9d4b-a32211f13845"},"vehicle_type_id":"4","last_reported":1756282443,"current_range_meters":14000,"station_id":"ce4bgt12rcd13ifvqcd0","pricing_plan_id":"cebpf4jnsgd1na2vs0mg"},{"bike_id":"152991b6-cb71-4c71-8b74-02feb30c2d3b","system_id":"levelo_inurba_marseille","lat":43.30471,"lon":5.37901,"is_reserved":false,"is_disabled":false,"rental_uris":{"android":"levelo://app?vid=152991b6-cb71-4c71-8b74-02feb30c2d3b","ios":"levelo://app?vid=152991b6-cb71-4c71-8b74-02feb30c2d3b"},"vehicle_type_id":"4","last_reported":1756282443,"current_range_meters":14000,"station_id":"ce4bgup2rcd13ifvqcn0","pricing_plan_id":"cebpf4jnsgd1na2vs0mg"},{"bike_id":"af732ca8-2cea-448a-9928-59e03d12656f","system_id":"levelo_inurba_marseille","lat":43.33478,"lon":5.35997,"is_reserved":false,"is_disabled":false,"rental_uris":{"android":"levelo://app?vid=af732ca8-2cea-448a-9928-59e03d12656f","ios":"levelo://app?vid=af732ca8-2cea-448a-9928-59e03d12656f"},"vehicle_type_id":"4","last_reported":1756282443,"current_range_meters":14000,"station_id":"","pricing_plan_id":"cebpf4jnsgd1na2vs0mg"},{"bike_id":"a7a53c19-66aa-4d2e-85c1-ae889e6d2638","system_id":"levelo_inurba_marseille","lat":43.30797,"lon":5.4352,"is_reserved":false,"is_disabled":false,"rental_uris":{"android":"levelo://app?vid=a7a53c19-66aa-4d2e-85c1-ae889e6d2638","ios":"levelo://app?vid=a7a53c19-66aa-4d2e-85c1-ae889e6d2638"},"vehicle_type_id":"4","last_reported":1756282443,"current_range_meters":14000,"station_id":"ce4bhph2rcd13ifvqheg","pricing_plan_id":"cebpf4jnsgd1na2vs0mg"},{"bike_id":"3448e159-471f-45cf-b0bc-dcb672574311","system_id":"levelo_inurba_marseille","lat":43.2619,"lon":5.37459,"is_reserved":false,"is_disabled":true,"rental_uris":{"android":"levelo://app?vid=3448e159-471f-45cf-b0bc-dcb672574311","ios":"levelo://app?vid=3448e159-471f-45cf-b0bc-dcb672574311"},"vehicle_type_id":"4","last_reported":1756282443,"current_range_meters":14400,"station_id":"ce4bhgp2rcd13ifvqfc0","pricing_plan_id":"cebpf4jnsgd1na2vs0mg"},{"bike_id":"0306ba73-3d0f-4523-9d11-9a4554b2d8ff","system_id":"levelo_inurba_marseille","lat":43.21201,"lon":5.35101,"is_reserved":false,"is_disabled":false,"rental_uris":{"android":"levelo://app?vid=0306ba73-3d0f-4523-9d11-9a4554b2d8ff","ios":"levelo://app?vid=0306ba73-3d0f-4523-9d11-9a4554b2d8ff"},"vehicle_type_id":"4","last_reported":1756282443,"current_range_meters":14400,"station_id":"st_cvj6sg6p6f1abm77japg","pricing_plan_id":"cebpf4jnsgd1na2vs0mg"},{"bike_id":"d3533003-56f4-43b4-92f5-a95ec633dd6b","system_id":"levelo_inurba_marseille","lat":43.24665,"lon":5.38164,"is_reserved":false,"is_disabled":false,"rental_uris":{"android":"levelo://app?vid=d3533003-56f4-43b4-92f5-a95ec633dd6b","ios":"levelo://app?vid=d3533003-56f4-43b4-92f5-a95ec633dd6b"},"vehicle_type_id":"4","last_reported":1756282443,"current_range_meters":14400,"station_id":"ce4bhih2rcd13ifvqfr0","pricing_plan_id":"cebpf4jnsgd1na2vs0mg"},{"bike_id":"67f9e38d-f9ac-418e-8bd0-f3d715a27b00","system_id":"levelo_inurba_marseille","lat":43.30907,"lon":5.36848,"is_reserved":false,"is_disabled":false,"rental_uris":{"android":"levelo://app?vid=67f9e38d-f9ac-418e-8bd0-f3d715a27b00","ios":"levelo://app?vid=67f9e38d-f9ac-418e-8bd0-f3d715a27b00"},"vehicle_type_id":"4","last_reported":1756282443,"current_range_meters":14400,"station_id":"ce4bgn92rcd13ifvqbvg","pricing_plan_id":"cebpf4jnsgd1na2vs0mg"},{"bike_id":"bbb1445b-b41b-404c-8a8a-ebca4dfea29d","system_id":"levelo_inurba_marseille","lat":43.292728,"lon":5.401175,"is_reserved":false,"is_disabled":true,"rental_uris":{"android":"levelo://app?vid=bbb1445b-b41b-404c-8a8a-ebca4dfea29d","ios":"levelo://app?vid=bbb1445b-b41b-404c-8a8a-ebca4dfea29d"},"vehicle_type_id":"4","last_reported":1756282443,"current_range_meters":14800,"station_id":"ce4bh312rcd13ifvqdk0","pricing_plan_id":"cebpf4jnsgd1na2vs0mg"},{"bike_id":"e5eabf25-4e1c-476e-b130-9f83cdcfc80c","system_id":"levelo_inurba_marseille","lat":43.2981,"lon":5.417,"is_reserved":false,"is_disabled":false,"rental_uris":{"android":"levelo://app?vid=e5eabf25-4e1c-476e-b130-9f83cdcfc80c","ios":"levelo://app?vid=e5eabf25-4e1c-476e-b130-9f83cdcfc80c"},"vehicle_type_id":"4","last_reported":1756282443,"current_range_meters":14800,"station_id":"","pricing_plan_id":"cebpf4jnsgd1na2vs0mg"},{"bike_id":"d9d572f7-d811-4b4d-9ec5-cb85e6210f42","system_id":"levelo_inurba_marseille","lat":43.32097,"lon":5.3677,"is_reserved":false,"is_disabled":false,"rental_uris":{"android":"levelo://app?vid=d9d572f7-d811-4b4d-9ec5-cb85e6210f42","ios":"levelo://app?vid=d9d572f7-d811-4b4d-9ec5-cb85e6210f42"},"vehicle_type_id":"4","last_reported":1756282443,"current_range_meters":14800,"station_id":"ce4bhrh2rcd13ifvqhug","pricing_plan_id":"cebpf4jnsgd1na2vs0mg"},{"bike_id":"bcaad008-53d7-49b4-b4f0-e67413426773","system_id":"levelo_inurba_marseille","lat":43.25939,"lon":5.40863,"is_reserved":false,"is_disabled":false,"rental_uris":{"android":"levelo://app?vid=bcaad008-53d7-49b4-b4f0-e67413426773","ios":"levelo://app?vid=bcaad008-53d7-49b4-b4f0-e67413426773"},"vehicle_type_id":"4","last_reported":1756282443,"current_range_meters":14800,"station_id":"ce4bhm92rcd13ifvqglg","pricing_plan_id":"cebpf4jnsgd1na2vs0mg"},{"bike_id":"1b7fbadf-4f42-4797-8142-cc78de0d9a76","system_id":"levelo_inurba_marseille","lat":43.30149,"lon":5.38079,"is_reserved":false,"is_disabled":false,"rental_uris":{"android":"levelo://app?vid=1b7fbadf-4f42-4797-8142-cc78de0d9a76","ios":"levelo://app?vid=1b7fbadf-4f42-4797-8142-cc78de0d9a76"},"vehicle_type_id":"4","last_reported":1756282443,"current_range_meters":14800,"station_id":"ce4bgjp2rcd13ifvqbh0","pricing_plan_id":"cebpf4jnsgd1na2vs0mg"},{"bike_id":"b5ae0016-67e1-4c37-91cb-4d986fbc09a4","system_id":"levelo_inurba_marseille","lat":43.24617,"lon":5.43164,"is_reserved":false,"is_disabled":false,"rental_uris":{"android":"levelo://app?vid=b5ae0016-67e1-4c37-91cb-4d986fbc09a4","ios":"levelo://app?vid=b5ae0016-67e1-4c37-91cb-4d986fbc09a4"},"vehicle_type_id":"4","last_reported":1756282443,"current_range_meters":15200,"station_id":"st_d2m6c4gdas8pm72e190g","pricing_plan_id":"cebpf4jnsgd1na2vs0mg"},{"bike_id":"b5133710-52a6-42c6-b487-40f265b37cba","system_id":"levelo_inurba_marseille","lat":43.30799,"lon":5.43522,"is_reserved":false,"is_disabled":false,"rental_uris":{"android":"levelo://app?vid=b5133710-52a6-42c6-b487-40f265b37cba","ios":"levelo://app?vid=b5133710-52a6-42c6-b487-40f265b37cba"},"vehicle_type_id":"4","last_reported":1756282443,"current_range_meters":15200,"station_id":"ce4bhph2rcd13ifvqheg","pricing_plan_id":"cebpf4jnsgd1na2vs0mg"},{"bike_id":"4ce1e130-30a5-4622-b32c-8a7814e4d825","system_id":"levelo_inurba_marseille","lat":43.28935,"lon":5.37165,"is_reserved":false,"is_disabled":false,"rental_uris":{"android":"levelo://app?vid=4ce1e130-30a5-4622-b32c-8a7814e4d825","ios":"levelo://app?vid=4ce1e130-30a5-4622-b32c-8a7814e4d825"},"vehicle_type_id":"4","last_reported":1756282443,"current_range_meters":15200,"station_id":"","pricing_plan_id":"cebpf4jnsgd1na2vs0mg"},{"bike_id":"685105d1-bcda-4899-9d64-d94adf158a64","system_id":"levelo_inurba_marseille","lat":43.314676,"lon":5.373608,"is_reserved":false,"is_disabled":true,"rental_uris":{"android":"levelo://app?vid=685105d1-bcda-4899-9d64-d94adf158a64","ios":"levelo://app?vid=685105d1-bcda-4899-9d64-d94adf158a64"},"vehicle_type_id":"4","last_reported":1756282443,"current_range_meters":16000,"station_id":"","pricing_plan_id":"cebpf4jnsgd1na2vs0mg"},{"bike_id":"6ee8c285-56da-46d8-9bc7-2543ffb7ebc5","system_id":"levelo_inurba_marseille","lat":43.30801,"lon":5.43523,"is_reserved":false,"is_disabled":false,"rental_uris":{"android":"levelo://app?vid=6ee8c285-56da-46d8-9bc7-2543ffb7ebc5","ios":"levelo://app?vid=6ee8c285-56da-46d8-9bc7-2543ffb7ebc5"},"vehicle_type_id":"4","last_reported":1756282443,"current_range_meters":16000,"station_id":"ce4bhph2rcd13ifvqheg","pricing_plan_id":"cebpf4jnsgd1na2vs0mg"},{"bike_id":"1dec5f96-d953-4203-b13d-0ce3f02e61a0","system_id":"levelo_inurba_marseille","lat":43.27066,"lon":5.4227,"is_reserved":false,"is_disabled":false,"rental_uris":{"android":"levelo://app?vid=1dec5f96-d953-4203-b13d-0ce3f02e61a0","ios":"levelo://app?vid=1dec5f96-d953-4203-b13d-0ce3f02e61a0"},"vehicle_type_id":"4","last_reported":1756282443,"current_range_meters":16000,"station_id":"ce4bhk92rcd13ifvqgb0","pricing_plan_id":"cebpf4jnsgd1na2vs0mg"},{"bike_id":"53eefd1d-7070-4cf3-b88a-d1ad003382a1","system_id":"levelo_inurba_marseille","lat":43.26567,"lon":5.39015,"is_reserved":false,"is_disabled":false,"rental_uris":{"android":"levelo://app?vid=53eefd1d-7070-4cf3-b88a-d1ad003382a1","ios":"levelo://app?vid=53eefd1d-7070-4cf3-b88a-d1ad003382a1"},"vehicle_type_id":"4","last_reported":1756282443,"current_range_meters":16000,"station_id":"ce4bhe12rcd13ifvqf30","pricing_plan_id":"cebpf4jnsgd1na2vs0mg"},{"bike_id":"05333f1f-8cc0-4dc9-bbd8-a1f0e18ceb88","system_id":"levelo_inurba_marseille","lat":43.26276,"lon":5.399,"is_reserved":false,"is_disabled":false,"rental_uris":{"android":"levelo://app?vid=05333f1f-8cc0-4dc9-bbd8-a1f0e18ceb88","ios":"levelo://app?vid=05333f1f-8cc0-4dc9-bbd8-a1f0e18ceb88"},"vehicle_type_id":"4","last_reported":1756282443,"current_range_meters":16000,"station_id":"","pricing_plan_id":"cebpf4jnsgd1na2vs0mg"},{"bike_id":"3ce18fbc-ec38-4f9e-9dd9-9a3dee5c503d","system_id":"levelo_inurba_marseille","lat":43.26061,"lon":5.3758,"is_reserved":false,"is_disabled":true,"rental_uris":{"android":"levelo://app?vid=3ce18fbc-ec38-4f9e-9dd9-9a3dee5c503d","ios":"levelo://app?vid=3ce18fbc-ec38-4f9e-9dd9-9a3dee5c503d"},"vehicle_type_id":"4","last_reported":1756282443,"current_range_meters":16000,"station_id":"","pricing_plan_id":"cebpf4jnsgd1na2vs0mg"},{"bike_id":"9cfe1749-a664-469a-aa46-5b928251e398","system_id":"levelo_inurba_marseille","lat":43.28669,"lon":5.3865,"is_reserved":false,"is_disabled":false,"rental_uris":{"android":"levelo://app?vid=9cfe1749-a664-469a-aa46-5b928251e398","ios":"levelo://app?vid=9cfe1749-a664-469a-aa46-5b928251e398"},"vehicle_type_id":"4","last_reported":1756282443,"current_range_meters":16000,"station_id":"ce4bh492rcd13ifvqdug","pricing_plan_id":"cebpf4jnsgd1na2vs0mg"},{"bike_id":"3dff11d5-3872-4ffe-8cce-b5631d6c6058","system_id":"levelo_inurba_marseille","lat":43.3267,"lon":5.39163,"is_reserved":false,"is_disabled":false,"rental_uris":{"android":"levelo://app?vid=3dff11d5-3872-4ffe-8cce-b5631d6c6058","ios":"levelo://app?vid=3dff11d5-3872-4ffe-8cce-b5631d6c6058"},"vehicle_type_id":"4","last_reported":1756282443,"current_range_meters":16000,"station_id":"","pricing_plan_id":"cebpf4jnsgd1na2vs0mg"},{"bike_id":"9cee6ac4-b323-4dc3-9e81-cfd228e75a7f","system_id":"levelo_inurba_marseille","lat":43.31083,"lon":5.38929,"is_reserved":false,"is_disabled":false,"rental_uris":{"android":"levelo://app?vid=9cee6ac4-b323-4dc3-9e81-cfd228e75a7f","ios":"levelo://app?vid=9cee6ac4-b323-4dc3-9e81-cfd228e75a7f"},"vehicle_type_id":"4","last_reported":1756282443,"current_range_meters":16400,"station_id":"","pricing_plan_id":"cebpf4jnsgd1na2vs0mg"},{"bike_id":"5c26a54e-1e97-4ad3-a16d-614ad930b130","system_id":"levelo_inurba_marseille","lat":43.32087,"lon":5.36769,"is_reserved":false,"is_disabled":false,"rental_uris":{"android":"levelo://app?vid=5c26a54e-1e97-4ad3-a16d-614ad930b130","ios":"levelo://app?vid=5c26a54e-1e97-4ad3-a16d-614ad930b130"},"vehicle_type_id":"4","last_reported":1756282443,"current_range_meters":16400,"station_id":"ce4bhrh2rcd13ifvqhug","pricing_plan_id":"cebpf4jnsgd1na2vs0mg"},{"bike_id":"71136ea1-3aaf-4521-8084-554abe261412","system_id":"levelo_inurba_marseille","lat":43.303037,"lon":5.369059,"is_reserved":false,"is_disabled":true,"rental_uris":{"android":"levelo://app?vid=71136ea1-3aaf-4521-8084-554abe261412","ios":"levelo://app?vid=71136ea1-3aaf-4521-8084-554abe261412"},"vehicle_type_id":"4","last_reported":1756282443,"current_range_meters":16400,"station_id":"","pricing_plan_id":"cebpf4jnsgd1na2vs0mg"},{"bike_id":"95f848b0-16a6-4e4a-9b12-04276a2c6679","system_id":"levelo_inurba_marseille","lat":43.29246,"lon":5.40913,"is_reserved":false,"is_disabled":true,"rental_uris":{"android":"levelo://app?vid=95f848b0-16a6-4e4a-9b12-04276a2c6679","ios":"levelo://app?vid=95f848b0-16a6-4e4a-9b12-04276a2c6679"},"vehicle_type_id":"4","last_reported":1756282443,"current_range_meters":16400,"station_id":"ce4bh192rcd13ifvqdc0","pricing_plan_id":"cebpf4jnsgd1na2vs0mg"},{"bike_id":"f67c8e5e-7af8-4847-a4ce-1e12088b4291","system_id":"levelo_inurba_marseille","lat":43.32868,"lon":5.36573,"is_reserved":false,"is_disabled":false,"rental_uris":{"android":"levelo://app?vid=f67c8e5e-7af8-4847-a4ce-1e12088b4291","ios":"levelo://app?vid=f67c8e5e-7af8-4847-a4ce-1e12088b4291"},"vehicle_type_id":"4","last_reported":1756282443,"current_range_meters":16400,"station_id":"","pricing_plan_id":"cebpf4jnsgd1na2vs0mg"},{"bike_id":"182848e1-c128-499b-944e-cad0c910e9fb","system_id":"levelo_inurba_marseille","lat":43.21187,"lon":5.35075,"is_reserved":false,"is_disabled":false,"rental_uris":{"android":"levelo://app?vid=182848e1-c128-499b-944e-cad0c910e9fb","ios":"levelo://app?vid=182848e1-c128-499b-944e-cad0c910e9fb"},"vehicle_type_id":"4","last_reported":1756282443,"current_range_meters":16400,"station_id":"st_cvj6sg6p6f1abm77japg","pricing_plan_id":"cebpf4jnsgd1na2vs0mg"},{"bike_id":"4b60e254-7939-4421-a3b9-bcf4a6f5300d","system_id":"levelo_inurba_marseille","lat":43.27185,"lon":5.39184,"is_reserved":false,"is_disabled":false,"rental_uris":{"android":"levelo://app?vid=4b60e254-7939-4421-a3b9-bcf4a6f5300d","ios":"levelo://app?vid=4b60e254-7939-4421-a3b9-bcf4a6f5300d"},"vehicle_type_id":"4","last_reported":1756282443,"current_range_meters":16400,"station_id":"ce4bhhp2rcd13ifvqfm0","pricing_plan_id":"cebpf4jnsgd1na2vs0mg"},{"bike_id":"70725e45-1278-4337-bab4-392de6291b76","system_id":"levelo_inurba_marseille","lat":43.2783,"lon":5.40738,"is_reserved":false,"is_disabled":false,"rental_uris":{"android":"levelo://app?vid=70725e45-1278-4337-bab4-392de6291b76","ios":"levelo://app?vid=70725e45-1278-4337-bab4-392de6291b76"},"vehicle_type_id":"4","last_reported":1756282443,"current_range_meters":16400,"station_id":"ce4bhnh2rcd13ifvqgtg","pricing_plan_id":"cebpf4jnsgd1na2vs0mg"},{"bike_id":"9bd527d9-3984-4b57-9ac8-0126cdfe2bf3","system_id":"levelo_inurba_marseille","lat":43.23192,"lon":5.35556,"is_reserved":false,"is_disabled":false,"rental_uris":{"android":"levelo://app?vid=9bd527d9-3984-4b57-9ac8-0126cdfe2bf3","ios":"levelo://app?vid=9bd527d9-3984-4b57-9ac8-0126cdfe2bf3"},"vehicle_type_id":"4","last_reported":1756282443,"current_range_meters":16000,"station_id":"ce4bhu92rcd13ifvqi70","pricing_plan_id":"cebpf4jnsgd1na2vs0mg"},{"bike_id":"154c6750-07b3-4d4f-a3fa-216c325ccc7f","system_id":"levelo_inurba_marseille","lat":43.33023,"lon":5.39091,"is_reserved":false,"is_disabled":false,"rental_uris":{"android":"levelo://app?vid=154c6750-07b3-4d4f-a3fa-216c325ccc7f","ios":"levelo://app?vid=154c6750-07b3-4d4f-a3fa-216c325ccc7f"},"vehicle_type_id":"4","last_reported":1756282443,"current_range_meters":16400,"station_id":"ce4bhr92rcd13ifvqhrg","pricing_plan_id":"cebpf4jnsgd1na2vs0mg"},{"bike_id":"db7d3d83-f39a-4469-8445-29697e69fec4","system_id":"levelo_inurba_marseille","lat":43.31074,"lon":5.40094,"is_reserved":false,"is_disabled":false,"rental_uris":{"android":"levelo://app?vid=db7d3d83-f39a-4469-8445-29697e69fec4","ios":"levelo://app?vid=db7d3d83-f39a-4469-8445-29697e69fec4"},"vehicle_type_id":"4","last_reported":1756282443,"current_range_meters":16400,"station_id":"","pricing_plan_id":"cebpf4jnsgd1na2vs0mg"},{"bike_id":"55963d90-f7a2-4dfd-a469-b600ae2ffd4b","system_id":"levelo_inurba_marseille","lat":43.28424,"lon":5.34974,"is_reserved":false,"is_disabled":false,"rental_uris":{"android":"levelo://app?vid=55963d90-f7a2-4dfd-a469-b600ae2ffd4b","ios":"levelo://app?vid=55963d90-f7a2-4dfd-a469-b600ae2ffd4b"},"vehicle_type_id":"4","last_reported":1756282443,"current_range_meters":16800,"station_id":"ce4bhbh2rcd13ifvqepg","pricing_plan_id":"cebpf4jnsgd1na2vs0mg"},{"bike_id":"c3c7c840-9702-4de6-9d6a-d6bedb451b4d","system_id":"levelo_inurba_marseille","lat":43.31124,"lon":5.37772,"is_reserved":false,"is_disabled":false,"rental_uris":{"android":"levelo://app?vid=c3c7c840-9702-4de6-9d6a-d6bedb451b4d","ios":"levelo://app?vid=c3c7c840-9702-4de6-9d6a-d6bedb451b4d"},"vehicle_type_id":"4","last_reported":1756282443,"current_range_meters":16800,"station_id":"ce4bgt92rcd13ifvqcg0","pricing_plan_id":"cebpf4jnsgd1na2vs0mg"},{"bike_id":"fc33c77b-a9d9-4a1b-847c-adcfbe10f61e","system_id":"levelo_inurba_marseille","lat":43.2467,"lon":5.3819,"is_reserved":false,"is_disabled":false,"rental_uris":{"android":"levelo://app?vid=fc33c77b-a9d9-4a1b-847c-adcfbe10f61e","ios":"levelo://app?vid=fc33c77b-a9d9-4a1b-847c-adcfbe10f61e"},"vehicle_type_id":"4","last_reported":1756282443,"current_range_meters":16800,"station_id":"ce4bhih2rcd13ifvqfr0","pricing_plan_id":"cebpf4jnsgd1na2vs0mg"},{"bike_id":"ffd21136-ae47-45ee-8fc5-e7f85ea84802","system_id":"levelo_inurba_marseille","lat":43.29817,"lon":5.38259,"is_reserved":false,"is_disabled":false,"rental_uris":{"android":"levelo://app?vid=ffd21136-ae47-45ee-8fc5-e7f85ea84802","ios":"levelo://app?vid=ffd21136-ae47-45ee-8fc5-e7f85ea84802"},"vehicle_type_id":"4","last_reported":1756282443,"current_range_meters":16800,"station_id":"","pricing_plan_id":"cebpf4jnsgd1na2vs0mg"},{"bike_id":"33db383b-5b27-4ee3-b77f-51489812521c","system_id":"levelo_inurba_marseille","lat":43.30558,"lon":5.367,"is_reserved":false,"is_disabled":false,"rental_uris":{"android":"levelo://app?vid=33db383b-5b27-4ee3-b77f-51489812521c","ios":"levelo://app?vid=33db383b-5b27-4ee3-b77f-51489812521c"},"vehicle_type_id":"4","last_reported":1756282443,"current_range_meters":16800,"station_id":"ce4bgrp2rcd13ifvqc9g","pricing_plan_id":"cebpf4jnsgd1na2vs0mg"},{"bike_id":"f84f46c8-243d-42cd-b308-2b289e4c09d3","system_id":"levelo_inurba_marseille","lat":43.33444,"lon":5.35696,"is_reserved":false,"is_disabled":false,"rental_uris":{"android":"levelo://app?vid=f84f46c8-243d-42cd-b308-2b289e4c09d3","ios":"levelo://app?vid=f84f46c8-243d-42cd-b308-2b289e4c09d3"},"vehicle_type_id":"4","last_reported":1756282443,"current_range_meters":16800,"station_id":"","pricing_plan_id":"cebpf4jnsgd1na2vs0mg"},{"bike_id":"814645c9-7af5-4408-879c-1836489b0342","system_id":"levelo_inurba_marseille","lat":43.26545,"lon":5.37264,"is_reserved":false,"is_disabled":false,"rental_uris":{"android":"levelo://app?vid=814645c9-7af5-4408-879c-1836489b0342","ios":"levelo://app?vid=814645c9-7af5-4408-879c-1836489b0342"},"vehicle_type_id":"4","last_reported":1756282443,"current_range_meters":16800,"station_id":"ce4bhg12rcd13ifvqf70","pricing_plan_id":"cebpf4jnsgd1na2vs0mg"},{"bike_id":"c561b3be-23f4-46ed-8d38-1fc2450f503d","system_id":"levelo_inurba_marseille","lat":43.23661,"lon":5.36241,"is_reserved":false,"is_disabled":false,"rental_uris":{"android":"levelo://app?vid=c561b3be-23f4-46ed-8d38-1fc2450f503d","ios":"levelo://app?vid=c561b3be-23f4-46ed-8d38-1fc2450f503d"},"vehicle_type_id":"4","last_reported":1756282443,"current_range_meters":16800,"station_id":"","pricing_plan_id":"cebpf4jnsgd1na2vs0mg"},{"bike_id":"cd822ebe-8d01-44f2-b9e8-1f0b3a981bae","system_id":"levelo_inurba_marseille","lat":43.28858,"lon":5.35859,"is_reserved":false,"is_disabled":true,"rental_uris":{"android":"levelo://app?vid=cd822ebe-8d01-44f2-b9e8-1f0b3a981bae","ios":"levelo://app?vid=cd822ebe-8d01-44f2-b9e8-1f0b3a981bae"},"vehicle_type_id":"4","last_reported":1756282443,"current_range_meters":16800,"station_id":"ce4bhb12rcd13ifvqem0","pricing_plan_id":"cebpf4jnsgd1na2vs0mg"},{"bike_id":"1dd563e8-8a4d-4bc1-9712-8b5d971b43eb","system_id":"levelo_inurba_marseille","lat":43.29055,"lon":5.37167,"is_reserved":false,"is_disabled":false,"rental_uris":{"android":"levelo://app?vid=1dd563e8-8a4d-4bc1-9712-8b5d971b43eb","ios":"levelo://app?vid=1dd563e8-8a4d-4bc1-9712-8b5d971b43eb"},"vehicle_type_id":"4","last_reported":1756282443,"current_range_meters":16800,"station_id":"ce4bh5p2rcd13ifvqe4g","pricing_plan_id":"cebpf4jnsgd1na2vs0mg"},{"bike_id":"cd3249a0-e248-41fd-ba97-a63a54b0e865","system_id":"levelo_inurba_marseille","lat":43.26778,"lon":5.39414,"is_reserved":false,"is_disabled":false,"rental_uris":{"android":"levelo://app?vid=cd3249a0-e248-41fd-ba97-a63a54b0e865","ios":"levelo://app?vid=cd3249a0-e248-41fd-ba97-a63a54b0e865"},"vehicle_type_id":"4","last_reported":1756282443,"current_range_meters":16800,"station_id":"ce4bhh12rcd13ifvqfg0","pricing_plan_id":"cebpf4jnsgd1na2vs0mg"},{"bike_id":"20c40bc5-0fe7-4d2a-aeac-3e4dba377090","system_id":"levelo_inurba_marseille","lat":43.31488,"lon":5.37317,"is_reserved":false,"is_disabled":false,"rental_uris":{"android":"levelo://app?vid=20c40bc5-0fe7-4d2a-aeac-3e4dba377090","ios":"levelo://app?vid=20c40bc5-0fe7-4d2a-aeac-3e4dba377090"},"vehicle_type_id":"4","last_reported":1756282443,"current_range_meters":17200,"station_id":"ce4bgt12rcd13ifvqcd0","pricing_plan_id":"cebpf4jnsgd1na2vs0mg"},{"bike_id":"219189a7-6b7a-47fd-8a66-ed7ef9c30784","system_id":"levelo_inurba_marseille","lat":43.33034,"lon":5.39235,"is_reserved":false,"is_disabled":false,"rental_uris":{"android":"levelo://app?vid=219189a7-6b7a-47fd-8a66-ed7ef9c30784","ios":"levelo://app?vid=219189a7-6b7a-47fd-8a66-ed7ef9c30784"},"vehicle_type_id":"4","last_reported":1756282443,"current_range_meters":17200,"station_id":"","pricing_plan_id":"cebpf4jnsgd1na2vs0mg"},{"bike_id":"2b164df0-a198-41a5-860c-5521f55ad32a","system_id":"levelo_inurba_marseille","lat":43.24183,"lon":5.39728,"is_reserved":false,"is_disabled":false,"rental_uris":{"android":"levelo://app?vid=2b164df0-a198-41a5-860c-5521f55ad32a","ios":"levelo://app?vid=2b164df0-a198-41a5-860c-5521f55ad32a"},"vehicle_type_id":"4","last_reported":1756282443,"current_range_meters":17200,"station_id":"ce4bhn12rcd13ifvqgpg","pricing_plan_id":"cebpf4jnsgd1na2vs0mg"},{"bike_id":"d1ab4433-94d0-4b2e-aecd-cb94ea10bdaa","system_id":"levelo_inurba_marseille","lat":43.261926,"lon":5.374481,"is_reserved":false,"is_disabled":true,"rental_uris":{"android":"levelo://app?vid=d1ab4433-94d0-4b2e-aecd-cb94ea10bdaa","ios":"levelo://app?vid=d1ab4433-94d0-4b2e-aecd-cb94ea10bdaa"},"vehicle_type_id":"4","last_reported":1756282443,"current_range_meters":17200,"station_id":"","pricing_plan_id":"cebpf4jnsgd1na2vs0mg"},{"bike_id":"a0775e7e-be25-499a-b9dc-0adf07bea132","system_id":"levelo_inurba_marseille","lat":43.26781,"lon":5.39424,"is_reserved":false,"is_disabled":false,"rental_uris":{"android":"levelo://app?vid=a0775e7e-be25-499a-b9dc-0adf07bea132","ios":"levelo://app?vid=a0775e7e-be25-499a-b9dc-0adf07bea132"},"vehicle_type_id":"4","last_reported":1756282443,"current_range_meters":17200,"station_id":"ce4bhh12rcd13ifvqfg0","pricing_plan_id":"cebpf4jnsgd1na2vs0mg"},{"bike_id":"98bd734b-1a92-4a06-bd14-78315dd4e572","system_id":"levelo_inurba_marseille","lat":43.2668,"lon":5.38249,"is_reserved":false,"is_disabled":false,"rental_uris":{"android":"levelo://app?vid=98bd734b-1a92-4a06-bd14-78315dd4e572","ios":"levelo://app?vid=98bd734b-1a92-4a06-bd14-78315dd4e572"},"vehicle_type_id":"4","last_reported":1756282443,"current_range_meters":17200,"station_id":"ce4bhg92rcd13ifvqf90","pricing_plan_id":"cebpf4jnsgd1na2vs0mg"},{"bike_id":"e27ff046-edfb-4a52-b1ec-a41641f3b6b0","system_id":"levelo_inurba_marseille","lat":43.28617,"lon":5.35109,"is_reserved":false,"is_disabled":false,"rental_uris":{"android":"levelo://app?vid=e27ff046-edfb-4a52-b1ec-a41641f3b6b0","ios":"levelo://app?vid=e27ff046-edfb-4a52-b1ec-a41641f3b6b0"},"vehicle_type_id":"4","last_reported":1756282443,"current_range_meters":17200,"station_id":"ce4bhch2rcd13ifvqeug","pricing_plan_id":"cebpf4jnsgd1na2vs0mg"},{"bike_id":"e6f58ad9-485c-4ea8-ab3c-b490735d1425","system_id":"levelo_inurba_marseille","lat":43.28105,"lon":5.37834,"is_reserved":false,"is_disabled":false,"rental_uris":{"android":"levelo://app?vid=e6f58ad9-485c-4ea8-ab3c-b490735d1425","ios":"levelo://app?vid=e6f58ad9-485c-4ea8-ab3c-b490735d1425"},"vehicle_type_id":"4","last_reported":1756282443,"current_range_meters":17200,"station_id":"ce4bha12rcd13ifvqee0","pricing_plan_id":"cebpf4jnsgd1na2vs0mg"},{"bike_id":"726775a9-d9b4-45ce-bc96-5c27216ad375","system_id":"levelo_inurba_marseille","lat":43.2929,"lon":5.37482,"is_reserved":false,"is_disabled":false,"rental_uris":{"android":"levelo://app?vid=726775a9-d9b4-45ce-bc96-5c27216ad375","ios":"levelo://app?vid=726775a9-d9b4-45ce-bc96-5c27216ad375"},"vehicle_type_id":"4","last_reported":1756282443,"current_range_meters":17600,"station_id":"ce4bgi12rcd13ifvqb70","pricing_plan_id":"cebpf4jnsgd1na2vs0mg"},{"bike_id":"66e0a403-9848-4a61-83d6-ca6c879e0442","system_id":"levelo_inurba_marseille","lat":43.292206,"lon":5.360571,"is_reserved":false,"is_disabled":false,"rental_uris":{"android":"levelo://app?vid=66e0a403-9848-4a61-83d6-ca6c879e0442","ios":"levelo://app?vid=66e0a403-9848-4a61-83d6-ca6c879e0442"},"vehicle_type_id":"4","last_reported":1756282443,"current_range_meters":17600,"station_id":"ce4bhbh2rcd13ifvqeqg","pricing_plan_id":"cebpf4jnsgd1na2vs0mg"},{"bike_id":"16c3708d-db1a-47a2-8d5f-ec7ff870bf8f","system_id":"levelo_inurba_marseille","lat":43.264953,"lon":5.395383,"is_reserved":false,"is_disabled":false,"rental_uris":{"android":"levelo://app?vid=16c3708d-db1a-47a2-8d5f-ec7ff870bf8f","ios":"levelo://app?vid=16c3708d-db1a-47a2-8d5f-ec7ff870bf8f"},"vehicle_type_id":"4","last_reported":1756282443,"current_range_meters":17600,"station_id":"ce4bhi12rcd13ifvqfq0","pricing_plan_id":"cebpf4jnsgd1na2vs0mg"},{"bike_id":"1cc7be4a-092b-4536-86d5-d9e62382f70e","system_id":"levelo_inurba_marseille","lat":43.30884,"lon":5.36847,"is_reserved":false,"is_disabled":false,"rental_uris":{"android":"levelo://app?vid=1cc7be4a-092b-4536-86d5-d9e62382f70e","ios":"levelo://app?vid=1cc7be4a-092b-4536-86d5-d9e62382f70e"},"vehicle_type_id":"4","last_reported":1756282443,"current_range_meters":17600,"station_id":"ce4bgn92rcd13ifvqbvg","pricing_plan_id":"cebpf4jnsgd1na2vs0mg"},{"bike_id":"25b93c9c-9ae9-4756-a35b-fa6bb8161372","system_id":"levelo_inurba_marseille","lat":43.26502,"lon":5.39535,"is_reserved":false,"is_disabled":false,"rental_uris":{"android":"levelo://app?vid=25b93c9c-9ae9-4756-a35b-fa6bb8161372","ios":"levelo://app?vid=25b93c9c-9ae9-4756-a35b-fa6bb8161372"},"vehicle_type_id":"4","last_reported":1756282443,"current_range_meters":17600,"station_id":"ce4bhi12rcd13ifvqfq0","pricing_plan_id":"cebpf4jnsgd1na2vs0mg"},{"bike_id":"d810acf0-5bd2-4bf1-848d-31cd30d105e6","system_id":"levelo_inurba_marseille","lat":43.269831,"lon":5.392782,"is_reserved":false,"is_disabled":false,"rental_uris":{"android":"levelo://app?vid=d810acf0-5bd2-4bf1-848d-31cd30d105e6","ios":"levelo://app?vid=d810acf0-5bd2-4bf1-848d-31cd30d105e6"},"vehicle_type_id":"4","last_reported":1756282443,"current_range_meters":17600,"station_id":"","pricing_plan_id":"cebpf4jnsgd1na2vs0mg"},{"bike_id":"273eac3d-362a-419b-83a2-2423e6e318c7","system_id":"levelo_inurba_marseille","lat":43.286088,"lon":5.37067,"is_reserved":false,"is_disabled":false,"rental_uris":{"android":"levelo://app?vid=273eac3d-362a-419b-83a2-2423e6e318c7","ios":"levelo://app?vid=273eac3d-362a-419b-83a2-2423e6e318c7"},"vehicle_type_id":"4","last_reported":1756282443,"current_range_meters":17600,"station_id":"ce4bht12rcd13ifvqi60","pricing_plan_id":"cebpf4jnsgd1na2vs0mg"},{"bike_id":"4c82beab-1cad-46f7-a8ca-eb8dcbd949ef","system_id":"levelo_inurba_marseille","lat":43.2758,"lon":5.39697,"is_reserved":false,"is_disabled":false,"rental_uris":{"android":"levelo://app?vid=4c82beab-1cad-46f7-a8ca-eb8dcbd949ef","ios":"levelo://app?vid=4c82beab-1cad-46f7-a8ca-eb8dcbd949ef"},"vehicle_type_id":"4","last_reported":1756282443,"current_range_meters":17600,"station_id":"","pricing_plan_id":"cebpf4jnsgd1na2vs0mg"},{"bike_id":"4b213815-3ac3-469e-9a36-381f959d387b","system_id":"levelo_inurba_marseille","lat":43.292952,"lon":5.374623,"is_reserved":false,"is_disabled":false,"rental_uris":{"android":"levelo://app?vid=4b213815-3ac3-469e-9a36-381f959d387b","ios":"levelo://app?vid=4b213815-3ac3-469e-9a36-381f959d387b"},"vehicle_type_id":"4","last_reported":1756282443,"current_range_meters":17600,"station_id":"ce4bgi12rcd13ifvqb70","pricing_plan_id":"cebpf4jnsgd1na2vs0mg"},{"bike_id":"4e9e705b-7667-42c6-adf5-4a09a858987f","system_id":"levelo_inurba_marseille","lat":43.21191,"lon":5.35064,"is_reserved":false,"is_disabled":false,"rental_uris":{"android":"levelo://app?vid=4e9e705b-7667-42c6-adf5-4a09a858987f","ios":"levelo://app?vid=4e9e705b-7667-42c6-adf5-4a09a858987f"},"vehicle_type_id":"4","last_reported":1756282443,"current_range_meters":17600,"station_id":"st_cvj6sg6p6f1abm77japg","pricing_plan_id":"cebpf4jnsgd1na2vs0mg"},{"bike_id":"94c44f36-d45b-48d8-9eb0-02cde482dcfd","system_id":"levelo_inurba_marseille","lat":43.26026,"lon":5.37541,"is_reserved":false,"is_disabled":false,"rental_uris":{"android":"levelo://app?vid=94c44f36-d45b-48d8-9eb0-02cde482dcfd","ios":"levelo://app?vid=94c44f36-d45b-48d8-9eb0-02cde482dcfd"},"vehicle_type_id":"4","last_reported":1756282443,"current_range_meters":17600,"station_id":"ce4bhgh2rcd13ifvqfa0","pricing_plan_id":"cebpf4jnsgd1na2vs0mg"},{"bike_id":"56617e93-dfaa-4db2-9c67-a6ef24f9648e","system_id":"levelo_inurba_marseille","lat":43.231907,"lon":5.355579,"is_reserved":false,"is_disabled":false,"rental_uris":{"android":"levelo://app?vid=56617e93-dfaa-4db2-9c67-a6ef24f9648e","ios":"levelo://app?vid=56617e93-dfaa-4db2-9c67-a6ef24f9648e"},"vehicle_type_id":"4","last_reported":1756282443,"current_range_meters":17600,"station_id":"ce4bhu92rcd13ifvqi70","pricing_plan_id":"cebpf4jnsgd1na2vs0mg"},{"bike_id":"33767b19-49d2-43d6-9855-7f25ee9dd4ce","system_id":"levelo_inurba_marseille","lat":43.2952,"lon":5.37534,"is_reserved":false,"is_disabled":true,"rental_uris":{"android":"levelo://app?vid=33767b19-49d2-43d6-9855-7f25ee9dd4ce","ios":"levelo://app?vid=33767b19-49d2-43d6-9855-7f25ee9dd4ce"},"vehicle_type_id":"4","last_reported":1756282443,"current_range_meters":17600,"station_id":"ce4bgkp2rcd13ifvqbmg","pricing_plan_id":"cebpf4jnsgd1na2vs0mg"},{"bike_id":"3a07555b-cbd3-4bc2-b1bb-1a09b77d3a5c","system_id":"levelo_inurba_marseille","lat":43.32662,"lon":5.4099,"is_reserved":false,"is_disabled":false,"rental_uris":{"android":"levelo://app?vid=3a07555b-cbd3-4bc2-b1bb-1a09b77d3a5c","ios":"levelo://app?vid=3a07555b-cbd3-4bc2-b1bb-1a09b77d3a5c"},"vehicle_type_id":"4","last_reported":1756282443,"current_range_meters":18000,"station_id":"ce4bhpp2rcd13ifvqhgg","pricing_plan_id":"cebpf4jnsgd1na2vs0mg"},{"bike_id":"56c04261-47b9-41fc-b166-0497df898b6e","system_id":"levelo_inurba_marseille","lat":43.27541,"lon":5.38423,"is_reserved":false,"is_disabled":false,"rental_uris":{"android":"levelo://app?vid=56c04261-47b9-41fc-b166-0497df898b6e","ios":"levelo://app?vid=56c04261-47b9-41fc-b166-0497df898b6e"},"vehicle_type_id":"4","last_reported":1756282443,"current_range_meters":18000,"station_id":"ce4bhh92rcd13ifvqfi0","pricing_plan_id":"cebpf4jnsgd1na2vs0mg"},{"bike_id":"fdcffe28-2b08-4a49-b5dc-b62f1a4763c0","system_id":"levelo_inurba_marseille","lat":43.290343,"lon":5.399727,"is_reserved":false,"is_disabled":false,"rental_uris":{"android":"levelo://app?vid=fdcffe28-2b08-4a49-b5dc-b62f1a4763c0","ios":"levelo://app?vid=fdcffe28-2b08-4a49-b5dc-b62f1a4763c0"},"vehicle_type_id":"4","last_reported":1756282443,"current_range_meters":18000,"station_id":"ce4bh392rcd13ifvqdm0","pricing_plan_id":"cebpf4jnsgd1na2vs0mg"},{"bike_id":"bc4c6e1c-d694-4a7d-b3af-90d3bb1a77a1","system_id":"levelo_inurba_marseille","lat":43.21187,"lon":5.35076,"is_reserved":false,"is_disabled":false,"rental_uris":{"android":"levelo://app?vid=bc4c6e1c-d694-4a7d-b3af-90d3bb1a77a1","ios":"levelo://app?vid=bc4c6e1c-d694-4a7d-b3af-90d3bb1a77a1"},"vehicle_type_id":"4","last_reported":1756282443,"current_range_meters":18000,"station_id":"st_cvj6sg6p6f1abm77japg","pricing_plan_id":"cebpf4jnsgd1na2vs0mg"},{"bike_id":"c3128714-260a-45e7-bac0-4aaea3730310","system_id":"levelo_inurba_marseille","lat":43.27906,"lon":5.38017,"is_reserved":false,"is_disabled":false,"rental_uris":{"android":"levelo://app?vid=c3128714-260a-45e7-bac0-4aaea3730310","ios":"levelo://app?vid=c3128714-260a-45e7-bac0-4aaea3730310"},"vehicle_type_id":"4","last_reported":1756282443,"current_range_meters":18000,"station_id":"ce4bhf92rcd13ifvqf50","pricing_plan_id":"cebpf4jnsgd1na2vs0mg"},{"bike_id":"ffe6df59-3fc1-4d81-9326-f6f6418e7718","system_id":"levelo_inurba_marseille","lat":43.297605,"lon":5.373129,"is_reserved":false,"is_disabled":false,"rental_uris":{"android":"levelo://app?vid=ffe6df59-3fc1-4d81-9326-f6f6418e7718","ios":"levelo://app?vid=ffe6df59-3fc1-4d81-9326-f6f6418e7718"},"vehicle_type_id":"4","last_reported":1756282443,"current_range_meters":18000,"station_id":"","pricing_plan_id":"cebpf4jnsgd1na2vs0mg"},{"bike_id":"e0491887-f4bb-48cf-9663-c9add23e727c","system_id":"levelo_inurba_marseille","lat":43.28701,"lon":5.37387,"is_reserved":false,"is_disabled":false,"rental_uris":{"android":"levelo://app?vid=e0491887-f4bb-48cf-9663-c9add23e727c","ios":"levelo://app?vid=e0491887-f4bb-48cf-9663-c9add23e727c"},"vehicle_type_id":"4","last_reported":1756282443,"current_range_meters":18000,"station_id":"ce4bh3p2rcd13ifvqdq0","pricing_plan_id":"cebpf4jnsgd1na2vs0mg"},{"bike_id":"fc250eac-2e3f-4ab7-87d8-17a9651aaa58","system_id":"levelo_inurba_marseille","lat":43.26196,"lon":5.37453,"is_reserved":false,"is_disabled":false,"rental_uris":{"android":"levelo://app?vid=fc250eac-2e3f-4ab7-87d8-17a9651aaa58","ios":"levelo://app?vid=fc250eac-2e3f-4ab7-87d8-17a9651aaa58"},"vehicle_type_id":"4","last_reported":1756282443,"current_range_meters":18000,"station_id":"ce4bhgp2rcd13ifvqfc0","pricing_plan_id":"cebpf4jnsgd1na2vs0mg"},{"bike_id":"6c83adfd-6e50-4a57-980c-569b605502d1","system_id":"levelo_inurba_marseille","lat":43.231884,"lon":5.39992,"is_reserved":false,"is_disabled":false,"rental_uris":{"android":"levelo://app?vid=6c83adfd-6e50-4a57-980c-569b605502d1","ios":"levelo://app?vid=6c83adfd-6e50-4a57-980c-569b605502d1"},"vehicle_type_id":"4","last_reported":1756282443,"current_range_meters":18000,"station_id":"ce4bhn12rcd13ifvqgqg","pricing_plan_id":"cebpf4jnsgd1na2vs0mg"},{"bike_id":"10461901-bb80-4e0b-9f69-b80d7fe789fe","system_id":"levelo_inurba_marseille","lat":43.2512,"lon":5.40322,"is_reserved":false,"is_disabled":false,"rental_uris":{"android":"levelo://app?vid=10461901-bb80-4e0b-9f69-b80d7fe789fe","ios":"levelo://app?vid=10461901-bb80-4e0b-9f69-b80d7fe789fe"},"vehicle_type_id":"4","last_reported":1756282443,"current_range_meters":18000,"station_id":"ce4bhlh2rcd13ifvqgig","pricing_plan_id":"cebpf4jnsgd1na2vs0mg"},{"bike_id":"7a6ba0e4-0845-44af-8bf2-af850a87f539","system_id":"levelo_inurba_marseille","lat":43.259621,"lon":5.413711,"is_reserved":false,"is_disabled":false,"rental_uris":{"android":"levelo://app?vid=7a6ba0e4-0845-44af-8bf2-af850a87f539","ios":"levelo://app?vid=7a6ba0e4-0845-44af-8bf2-af850a87f539"},"vehicle_type_id":"4","last_reported":1756282443,"current_range_meters":18000,"station_id":"","pricing_plan_id":"cebpf4jnsgd1na2vs0mg"},{"bike_id":"651c04c7-c2f3-4258-98c4-2abdeb471500","system_id":"levelo_inurba_marseille","lat":43.26549,"lon":5.37317,"is_reserved":false,"is_disabled":false,"rental_uris":{"android":"levelo://app?vid=651c04c7-c2f3-4258-98c4-2abdeb471500","ios":"levelo://app?vid=651c04c7-c2f3-4258-98c4-2abdeb471500"},"vehicle_type_id":"4","last_reported":1756282443,"current_range_meters":18000,"station_id":"ce4bhg12rcd13ifvqf70","pricing_plan_id":"cebpf4jnsgd1na2vs0mg"},{"bike_id":"6008ddfc-4bd6-4e62-a7ee-a269926f98b1","system_id":"levelo_inurba_marseille","lat":43.30141,"lon":5.38109,"is_reserved":false,"is_disabled":false,"rental_uris":{"android":"levelo://app?vid=6008ddfc-4bd6-4e62-a7ee-a269926f98b1","ios":"levelo://app?vid=6008ddfc-4bd6-4e62-a7ee-a269926f98b1"},"vehicle_type_id":"4","last_reported":1756282443,"current_range_meters":18000,"station_id":"ce4bgjp2rcd13ifvqbh0","pricing_plan_id":"cebpf4jnsgd1na2vs0mg"},{"bike_id":"8df4d72a-2534-4225-b0d0-5b48bd4c7385","system_id":"levelo_inurba_marseille","lat":43.29405,"lon":5.39751,"is_reserved":false,"is_disabled":false,"rental_uris":{"android":"levelo://app?vid=8df4d72a-2534-4225-b0d0-5b48bd4c7385","ios":"levelo://app?vid=8df4d72a-2534-4225-b0d0-5b48bd4c7385"},"vehicle_type_id":"4","last_reported":1756282443,"current_range_meters":18800,"station_id":"ce4bh3h2rcd13ifvqdo0","pricing_plan_id":"cebpf4jnsgd1na2vs0mg"},{"bike_id":"488512d9-522d-4965-96db-b776bf3444de","system_id":"levelo_inurba_marseille","lat":43.3106,"lon":5.38371,"is_reserved":false,"is_disabled":false,"rental_uris":{"android":"levelo://app?vid=488512d9-522d-4965-96db-b776bf3444de","ios":"levelo://app?vid=488512d9-522d-4965-96db-b776bf3444de"},"vehicle_type_id":"4","last_reported":1756282443,"current_range_meters":18800,"station_id":"ce4bgv92rcd13ifvqcr0","pricing_plan_id":"cebpf4jnsgd1na2vs0mg"},{"bike_id":"bfb37470-86a6-4b74-b20e-69ee8bc3d684","system_id":"levelo_inurba_marseille","lat":43.26681,"lon":5.38275,"is_reserved":false,"is_disabled":false,"rental_uris":{"android":"levelo://app?vid=bfb37470-86a6-4b74-b20e-69ee8bc3d684","ios":"levelo://app?vid=bfb37470-86a6-4b74-b20e-69ee8bc3d684"},"vehicle_type_id":"4","last_reported":1756282443,"current_range_meters":18800,"station_id":"ce4bhg92rcd13ifvqf90","pricing_plan_id":"cebpf4jnsgd1na2vs0mg"},{"bike_id":"19bf8938-c3ac-477a-9c27-edd856e98aab","system_id":"levelo_inurba_marseille","lat":43.28112,"lon":5.37788,"is_reserved":false,"is_disabled":false,"rental_uris":{"android":"levelo://app?vid=19bf8938-c3ac-477a-9c27-edd856e98aab","ios":"levelo://app?vid=19bf8938-c3ac-477a-9c27-edd856e98aab"},"vehicle_type_id":"4","last_reported":1756282443,"current_range_meters":18800,"station_id":"ce4bha12rcd13ifvqee0","pricing_plan_id":"cebpf4jnsgd1na2vs0mg"},{"bike_id":"23ae6fed-deff-411b-8b6e-f95e32ccd4d0","system_id":"levelo_inurba_marseille","lat":43.321278,"lon":5.367646,"is_reserved":false,"is_disabled":false,"rental_uris":{"android":"levelo://app?vid=23ae6fed-deff-411b-8b6e-f95e32ccd4d0","ios":"levelo://app?vid=23ae6fed-deff-411b-8b6e-f95e32ccd4d0"},"vehicle_type_id":"4","last_reported":1756282443,"current_range_meters":18800,"station_id":"ce4bhrh2rcd13ifvqhug","pricing_plan_id":"cebpf4jnsgd1na2vs0mg"},{"bike_id":"5dd83fad-2449-4d56-be74-c8599abb9a5e","system_id":"levelo_inurba_marseille","lat":43.269488,"lon":5.386654,"is_reserved":false,"is_disabled":false,"rental_uris":{"android":"levelo://app?vid=5dd83fad-2449-4d56-be74-c8599abb9a5e","ios":"levelo://app?vid=5dd83fad-2449-4d56-be74-c8599abb9a5e"},"vehicle_type_id":"4","last_reported":1756282443,"current_range_meters":18800,"station_id":"ce4bhgp2rcd13ifvqfc0","pricing_plan_id":"cebpf4jnsgd1na2vs0mg"},{"bike_id":"95973e18-1339-4596-a205-8df1bd7fef1f","system_id":"levelo_inurba_marseille","lat":43.2319,"lon":5.3556,"is_reserved":false,"is_disabled":false,"rental_uris":{"android":"levelo://app?vid=95973e18-1339-4596-a205-8df1bd7fef1f","ios":"levelo://app?vid=95973e18-1339-4596-a205-8df1bd7fef1f"},"vehicle_type_id":"4","last_reported":1756282443,"current_range_meters":18800,"station_id":"ce4bhu92rcd13ifvqi70","pricing_plan_id":"cebpf4jnsgd1na2vs0mg"},{"bike_id":"714d5c3f-5ed0-416d-abfd-48ed1fa771ef","system_id":"levelo_inurba_marseille","lat":43.2119,"lon":5.350733,"is_reserved":false,"is_disabled":false,"rental_uris":{"android":"levelo://app?vid=714d5c3f-5ed0-416d-abfd-48ed1fa771ef","ios":"levelo://app?vid=714d5c3f-5ed0-416d-abfd-48ed1fa771ef"},"vehicle_type_id":"4","last_reported":1756282443,"current_range_meters":18800,"station_id":"st_cvj6sg6p6f1abm77japg","pricing_plan_id":"cebpf4jnsgd1na2vs0mg"},{"bike_id":"05d97e45-19dc-4128-88fe-ffa6fa61464f","system_id":"levelo_inurba_marseille","lat":43.26214,"lon":5.37455,"is_reserved":false,"is_disabled":false,"rental_uris":{"android":"levelo://app?vid=05d97e45-19dc-4128-88fe-ffa6fa61464f","ios":"levelo://app?vid=05d97e45-19dc-4128-88fe-ffa6fa61464f"},"vehicle_type_id":"4","last_reported":1756282443,"current_range_meters":18800,"station_id":"ce4bhgp2rcd13ifvqfc0","pricing_plan_id":"cebpf4jnsgd1na2vs0mg"},{"bike_id":"1a4d88ab-0cbd-4c60-b818-7693654b09e8","system_id":"levelo_inurba_marseille","lat":43.30945,"lon":5.39049,"is_reserved":false,"is_disabled":false,"rental_uris":{"android":"levelo://app?vid=1a4d88ab-0cbd-4c60-b818-7693654b09e8","ios":"levelo://app?vid=1a4d88ab-0cbd-4c60-b818-7693654b09e8"},"vehicle_type_id":"4","last_reported":1756282443,"current_range_meters":18800,"station_id":"ce4bgup2rcd13ifvqco0","pricing_plan_id":"cebpf4jnsgd1na2vs0mg"},{"bike_id":"77dd3211-7275-44ff-b3bf-0dde7ac3208b","system_id":"levelo_inurba_marseille","lat":43.28263,"lon":5.35063,"is_reserved":false,"is_disabled":false,"rental_uris":{"android":"levelo://app?vid=77dd3211-7275-44ff-b3bf-0dde7ac3208b","ios":"levelo://app?vid=77dd3211-7275-44ff-b3bf-0dde7ac3208b"},"vehicle_type_id":"4","last_reported":1756282443,"current_range_meters":18800,"station_id":"ce4bhbp2rcd13ifvqerg","pricing_plan_id":"cebpf4jnsgd1na2vs0mg"},{"bike_id":"2e3aae09-3435-4078-b479-7a7368bce8c0","system_id":"levelo_inurba_marseille","lat":43.30898,"lon":5.36859,"is_reserved":false,"is_disabled":false,"rental_uris":{"android":"levelo://app?vid=2e3aae09-3435-4078-b479-7a7368bce8c0","ios":"levelo://app?vid=2e3aae09-3435-4078-b479-7a7368bce8c0"},"vehicle_type_id":"4","last_reported":1756282443,"current_range_meters":18800,"station_id":"ce4bgn92rcd13ifvqbvg","pricing_plan_id":"cebpf4jnsgd1na2vs0mg"},{"bike_id":"ca43582f-1faa-43b9-8bc5-434d17ea2f02","system_id":"levelo_inurba_marseille","lat":43.291976,"lon":5.360381,"is_reserved":false,"is_disabled":true,"rental_uris":{"android":"levelo://app?vid=ca43582f-1faa-43b9-8bc5-434d17ea2f02","ios":"levelo://app?vid=ca43582f-1faa-43b9-8bc5-434d17ea2f02"},"vehicle_type_id":"4","last_reported":1756282443,"current_range_meters":18800,"station_id":"ce4bhbh2rcd13ifvqeqg","pricing_plan_id":"cebpf4jnsgd1na2vs0mg"},{"bike_id":"6a2ea8b9-6394-4e41-abab-c37fc41f2c7f","system_id":"levelo_inurba_marseille","lat":43.25934,"lon":5.40891,"is_reserved":false,"is_disabled":false,"rental_uris":{"android":"levelo://app?vid=6a2ea8b9-6394-4e41-abab-c37fc41f2c7f","ios":"levelo://app?vid=6a2ea8b9-6394-4e41-abab-c37fc41f2c7f"},"vehicle_type_id":"4","last_reported":1756282443,"current_range_meters":18800,"station_id":"ce4bhm92rcd13ifvqglg","pricing_plan_id":"cebpf4jnsgd1na2vs0mg"},{"bike_id":"e2fbebd2-5cfb-46ea-9a6c-7ce580038f3c","system_id":"levelo_inurba_marseille","lat":43.3176,"lon":5.39013,"is_reserved":false,"is_disabled":false,"rental_uris":{"android":"levelo://app?vid=e2fbebd2-5cfb-46ea-9a6c-7ce580038f3c","ios":"levelo://app?vid=e2fbebd2-5cfb-46ea-9a6c-7ce580038f3c"},"vehicle_type_id":"4","last_reported":1756282443,"current_range_meters":18800,"station_id":"ce4bhqp2rcd13ifvqhng","pricing_plan_id":"cebpf4jnsgd1na2vs0mg"},{"bike_id":"97ce9e11-e709-4b8c-9bda-c0782ac4204a","system_id":"levelo_inurba_marseille","lat":43.240814,"lon":5.377562,"is_reserved":false,"is_disabled":false,"rental_uris":{"android":"levelo://app?vid=97ce9e11-e709-4b8c-9bda-c0782ac4204a","ios":"levelo://app?vid=97ce9e11-e709-4b8c-9bda-c0782ac4204a"},"vehicle_type_id":"4","last_reported":1756282443,"current_range_meters":19200,"station_id":"ce4bhnp2rcd13ifvqgvg","pricing_plan_id":"cebpf4jnsgd1na2vs0mg"},{"bike_id":"1eaed432-d741-49f3-954c-a779b7da3528","system_id":"levelo_inurba_marseille","lat":43.31213,"lon":5.36841,"is_reserved":false,"is_disabled":false,"rental_uris":{"android":"levelo://app?vid=1eaed432-d741-49f3-954c-a779b7da3528","ios":"levelo://app?vid=1eaed432-d741-49f3-954c-a779b7da3528"},"vehicle_type_id":"4","last_reported":1756282443,"current_range_meters":19200,"station_id":"ce4bgl92rcd13ifvqbq0","pricing_plan_id":"cebpf4jnsgd1na2vs0mg"},{"bike_id":"1091f287-02ee-4a66-888b-59c35fd65791","system_id":"levelo_inurba_marseille","lat":43.23184,"lon":5.35558,"is_reserved":false,"is_disabled":false,"rental_uris":{"android":"levelo://app?vid=1091f287-02ee-4a66-888b-59c35fd65791","ios":"levelo://app?vid=1091f287-02ee-4a66-888b-59c35fd65791"},"vehicle_type_id":"4","last_reported":1756282443,"current_range_meters":19200,"station_id":"ce4bhu92rcd13ifvqi70","pricing_plan_id":"cebpf4jnsgd1na2vs0mg"},{"bike_id":"64d71690-a1ff-46c5-8b53-847ec594fbff","system_id":"levelo_inurba_marseille","lat":43.304154,"lon":5.412818,"is_reserved":false,"is_disabled":false,"rental_uris":{"android":"levelo://app?vid=64d71690-a1ff-46c5-8b53-847ec594fbff","ios":"levelo://app?vid=64d71690-a1ff-46c5-8b53-847ec594fbff"},"vehicle_type_id":"4","last_reported":1756282443,"current_range_meters":19200,"station_id":"ce4bhop2rcd13ifvqh8g","pricing_plan_id":"cebpf4jnsgd1na2vs0mg"},{"bike_id":"6976514c-90f3-43b9-934f-172e31bcab6b","system_id":"levelo_inurba_marseille","lat":43.29851,"lon":5.36253,"is_reserved":false,"is_disabled":false,"rental_uris":{"android":"levelo://app?vid=6976514c-90f3-43b9-934f-172e31bcab6b","ios":"levelo://app?vid=6976514c-90f3-43b9-934f-172e31bcab6b"},"vehicle_type_id":"4","last_reported":1756282443,"current_range_meters":19200,"station_id":"ce4bgpp2rcd13ifvqc3g","pricing_plan_id":"cebpf4jnsgd1na2vs0mg"},{"bike_id":"ec0f9f0d-0796-42ac-9cf5-bb8596cdf342","system_id":"levelo_inurba_marseille","lat":43.21185,"lon":5.35078,"is_reserved":false,"is_disabled":false,"rental_uris":{"android":"levelo://app?vid=ec0f9f0d-0796-42ac-9cf5-bb8596cdf342","ios":"levelo://app?vid=ec0f9f0d-0796-42ac-9cf5-bb8596cdf342"},"vehicle_type_id":"4","last_reported":1756282443,"current_range_meters":19200,"station_id":"","pricing_plan_id":"cebpf4jnsgd1na2vs0mg"},{"bike_id":"8fba985a-a290-4466-89e4-67ff963b90f5","system_id":"levelo_inurba_marseille","lat":43.30138,"lon":5.38777,"is_reserved":false,"is_disabled":false,"rental_uris":{"android":"levelo://app?vid=8fba985a-a290-4466-89e4-67ff963b90f5","ios":"levelo://app?vid=8fba985a-a290-4466-89e4-67ff963b90f5"},"vehicle_type_id":"4","last_reported":1756282443,"current_range_meters":19200,"station_id":"ce4bghh2rcd13ifvqb60","pricing_plan_id":"cebpf4jnsgd1na2vs0mg"},{"bike_id":"770a433d-10d0-408a-b8c0-499d1453b3e2","system_id":"levelo_inurba_marseille","lat":43.31355,"lon":5.36713,"is_reserved":false,"is_disabled":false,"rental_uris":{"android":"levelo://app?vid=770a433d-10d0-408a-b8c0-499d1453b3e2","ios":"levelo://app?vid=770a433d-10d0-408a-b8c0-499d1453b3e2"},"vehicle_type_id":"4","last_reported":1756282443,"current_range_meters":19200,"station_id":"ce4bgr92rcd13ifvqc6g","pricing_plan_id":"cebpf4jnsgd1na2vs0mg"},{"bike_id":"2c47ac4c-6803-4b79-976c-3bdaf15e9ed8","system_id":"levelo_inurba_marseille","lat":43.307943,"lon":5.376505,"is_reserved":false,"is_disabled":false,"rental_uris":{"android":"levelo://app?vid=2c47ac4c-6803-4b79-976c-3bdaf15e9ed8","ios":"levelo://app?vid=2c47ac4c-6803-4b79-976c-3bdaf15e9ed8"},"vehicle_type_id":"4","last_reported":1756282443,"current_range_meters":19200,"station_id":"ce4bgv92rcd13ifvqcq0","pricing_plan_id":"cebpf4jnsgd1na2vs0mg"},{"bike_id":"7564ec07-b2a4-4e50-afac-bca8862f6ba0","system_id":"levelo_inurba_marseille","lat":43.28759,"lon":5.3793,"is_reserved":false,"is_disabled":false,"rental_uris":{"android":"levelo://app?vid=7564ec07-b2a4-4e50-afac-bca8862f6ba0","ios":"levelo://app?vid=7564ec07-b2a4-4e50-afac-bca8862f6ba0"},"vehicle_type_id":"4","last_reported":1756282443,"current_range_meters":19200,"station_id":"ce4bh9p2rcd13ifvqec0","pricing_plan_id":"cebpf4jnsgd1na2vs0mg"},{"bike_id":"e5c4e63c-c9fb-4e50-b0b4-5ec2baa5f40c","system_id":"levelo_inurba_marseille","lat":43.289771,"lon":5.378349,"is_reserved":false,"is_disabled":false,"rental_uris":{"android":"levelo://app?vid=e5c4e63c-c9fb-4e50-b0b4-5ec2baa5f40c","ios":"levelo://app?vid=e5c4e63c-c9fb-4e50-b0b4-5ec2baa5f40c"},"vehicle_type_id":"4","last_reported":1756282443,"current_range_meters":18800,"station_id":"ce4bh9p2rcd13ifvqed0","pricing_plan_id":"cebpf4jnsgd1na2vs0mg"},{"bike_id":"b4468296-e251-4859-a706-7f030bd8a5d1","system_id":"levelo_inurba_marseille","lat":43.31347,"lon":5.36707,"is_reserved":false,"is_disabled":false,"rental_uris":{"android":"levelo://app?vid=b4468296-e251-4859-a706-7f030bd8a5d1","ios":"levelo://app?vid=b4468296-e251-4859-a706-7f030bd8a5d1"},"vehicle_type_id":"4","last_reported":1756282443,"current_range_meters":18800,"station_id":"ce4bgr92rcd13ifvqc6g","pricing_plan_id":"cebpf4jnsgd1na2vs0mg"},{"bike_id":"a25ac4a4-6cef-43ab-a922-8d27007c7373","system_id":"levelo_inurba_marseille","lat":43.24388,"lon":5.37052,"is_reserved":false,"is_disabled":false,"rental_uris":{"android":"levelo://app?vid=a25ac4a4-6cef-43ab-a922-8d27007c7373","ios":"levelo://app?vid=a25ac4a4-6cef-43ab-a922-8d27007c7373"},"vehicle_type_id":"4","last_reported":1756282443,"current_range_meters":19600,"station_id":"ce4bhhh2rcd13ifvqfk0","pricing_plan_id":"cebpf4jnsgd1na2vs0mg"},{"bike_id":"a254428e-3886-4681-8ae9-68af5af7991f","system_id":"levelo_inurba_marseille","lat":43.23966,"lon":5.36636,"is_reserved":false,"is_disabled":false,"rental_uris":{"android":"levelo://app?vid=a254428e-3886-4681-8ae9-68af5af7991f","ios":"levelo://app?vid=a254428e-3886-4681-8ae9-68af5af7991f"},"vehicle_type_id":"4","last_reported":1756282443,"current_range_meters":19600,"station_id":"ce4bhi12rcd13ifvqfp0","pricing_plan_id":"cebpf4jnsgd1na2vs0mg"},{"bike_id":"1724d69b-3d21-40e8-b8b3-8d4047cd0498","system_id":"levelo_inurba_marseille","lat":43.24998,"lon":5.38924,"is_reserved":false,"is_disabled":false,"rental_uris":{"android":"levelo://app?vid=1724d69b-3d21-40e8-b8b3-8d4047cd0498","ios":"levelo://app?vid=1724d69b-3d21-40e8-b8b3-8d4047cd0498"},"vehicle_type_id":"4","last_reported":1756282443,"current_range_meters":19600,"station_id":"ce4bhgp2rcd13ifvqfd0","pricing_plan_id":"cebpf4jnsgd1na2vs0mg"},{"bike_id":"9b376013-1b8a-4834-bd67-7c283f5ae10a","system_id":"levelo_inurba_marseille","lat":43.32395,"lon":5.406588,"is_reserved":false,"is_disabled":false,"rental_uris":{"android":"levelo://app?vid=9b376013-1b8a-4834-bd67-7c283f5ae10a","ios":"levelo://app?vid=9b376013-1b8a-4834-bd67-7c283f5ae10a"},"vehicle_type_id":"4","last_reported":1756282443,"current_range_meters":19600,"station_id":"","pricing_plan_id":"cebpf4jnsgd1na2vs0mg"},{"bike_id":"1ee2de7a-db36-4807-adc6-aba2427cc65a","system_id":"levelo_inurba_marseille","lat":43.29267,"lon":5.3764,"is_reserved":false,"is_disabled":false,"rental_uris":{"android":"levelo://app?vid=1ee2de7a-db36-4807-adc6-aba2427cc65a","ios":"levelo://app?vid=1ee2de7a-db36-4807-adc6-aba2427cc65a"},"vehicle_type_id":"4","last_reported":1756282443,"current_range_meters":19600,"station_id":"ce4bgi12rcd13ifvqb80","pricing_plan_id":"cebpf4jnsgd1na2vs0mg"},{"bike_id":"da5b7e2d-2790-4ee5-a81d-0881f11493da","system_id":"levelo_inurba_marseille","lat":43.30952,"lon":5.39048,"is_reserved":false,"is_disabled":false,"rental_uris":{"android":"levelo://app?vid=da5b7e2d-2790-4ee5-a81d-0881f11493da","ios":"levelo://app?vid=da5b7e2d-2790-4ee5-a81d-0881f11493da"},"vehicle_type_id":"4","last_reported":1756282443,"current_range_meters":19600,"station_id":"ce4bgup2rcd13ifvqco0","pricing_plan_id":"cebpf4jnsgd1na2vs0mg"},{"bike_id":"b0560de0-5992-4d53-a1ca-667412773f73","system_id":"levelo_inurba_marseille","lat":43.29729,"lon":5.37713,"is_reserved":false,"is_disabled":false,"rental_uris":{"android":"levelo://app?vid=b0560de0-5992-4d53-a1ca-667412773f73","ios":"levelo://app?vid=b0560de0-5992-4d53-a1ca-667412773f73"},"vehicle_type_id":"4","last_reported":1756282443,"current_range_meters":19600,"station_id":"ce4bgkh2rcd13ifvqbl0","pricing_plan_id":"cebpf4jnsgd1na2vs0mg"},{"bike_id":"0337ea93-caa5-43b1-9318-3a0b1b28be55","system_id":"levelo_inurba_marseille","lat":43.317131,"lon":5.437011,"is_reserved":false,"is_disabled":false,"rental_uris":{"android":"levelo://app?vid=0337ea93-caa5-43b1-9318-3a0b1b28be55","ios":"levelo://app?vid=0337ea93-caa5-43b1-9318-3a0b1b28be55"},"vehicle_type_id":"4","last_reported":1756282443,"current_range_meters":19600,"station_id":"ce4bhp92rcd13ifvqhcg","pricing_plan_id":"cebpf4jnsgd1na2vs0mg"},{"bike_id":"2c246624-962d-4f72-8341-3c6523db29ef","system_id":"levelo_inurba_marseille","lat":43.26554,"lon":5.37303,"is_reserved":false,"is_disabled":true,"rental_uris":{"android":"levelo://app?vid=2c246624-962d-4f72-8341-3c6523db29ef","ios":"levelo://app?vid=2c246624-962d-4f72-8341-3c6523db29ef"},"vehicle_type_id":"4","last_reported":1756282443,"current_range_meters":19600,"station_id":"ce4bhg12rcd13ifvqf70","pricing_plan_id":"cebpf4jnsgd1na2vs0mg"},{"bike_id":"7f96cfc7-6b62-4cd3-a164-5a1ee471a17d","system_id":"levelo_inurba_marseille","lat":43.30542,"lon":5.36542,"is_reserved":false,"is_disabled":false,"rental_uris":{"android":"levelo://app?vid=7f96cfc7-6b62-4cd3-a164-5a1ee471a17d","ios":"levelo://app?vid=7f96cfc7-6b62-4cd3-a164-5a1ee471a17d"},"vehicle_type_id":"4","last_reported":1756282443,"current_range_meters":19600,"station_id":"ce4bgs12rcd13ifvqcag","pricing_plan_id":"cebpf4jnsgd1na2vs0mg"},{"bike_id":"5c9729a9-14ab-45c9-8df1-449545c4b230","system_id":"levelo_inurba_marseille","lat":43.29586,"lon":5.375227,"is_reserved":false,"is_disabled":false,"rental_uris":{"android":"levelo://app?vid=5c9729a9-14ab-45c9-8df1-449545c4b230","ios":"levelo://app?vid=5c9729a9-14ab-45c9-8df1-449545c4b230"},"vehicle_type_id":"4","last_reported":1756282443,"current_range_meters":20000,"station_id":"","pricing_plan_id":"cebpf4jnsgd1na2vs0mg"},{"bike_id":"3f017cfc-9f53-4f06-ab50-6f2d85cd3d29","system_id":"levelo_inurba_marseille","lat":43.29751,"lon":5.37111,"is_reserved":false,"is_disabled":false,"rental_uris":{"android":"levelo://app?vid=3f017cfc-9f53-4f06-ab50-6f2d85cd3d29","ios":"levelo://app?vid=3f017cfc-9f53-4f06-ab50-6f2d85cd3d29"},"vehicle_type_id":"4","last_reported":1756282443,"current_range_meters":20000,"station_id":"ce4bgop2rcd13ifvqc1g","pricing_plan_id":"cebpf4jnsgd1na2vs0mg"},{"bike_id":"4277ef28-2c35-4ef5-b037-643e65998f5c","system_id":"levelo_inurba_marseille","lat":43.26169,"lon":5.37535,"is_reserved":false,"is_disabled":false,"rental_uris":{"android":"levelo://app?vid=4277ef28-2c35-4ef5-b037-643e65998f5c","ios":"levelo://app?vid=4277ef28-2c35-4ef5-b037-643e65998f5c"},"vehicle_type_id":"4","last_reported":1756282443,"current_range_meters":20000,"station_id":"","pricing_plan_id":"cebpf4jnsgd1na2vs0mg"},{"bike_id":"66c89bfd-aee1-4f3a-9042-e12bae086d07","system_id":"levelo_inurba_marseille","lat":43.30148,"lon":5.38103,"is_reserved":false,"is_disabled":false,"rental_uris":{"android":"levelo://app?vid=66c89bfd-aee1-4f3a-9042-e12bae086d07","ios":"levelo://app?vid=66c89bfd-aee1-4f3a-9042-e12bae086d07"},"vehicle_type_id":"4","last_reported":1756282443,"current_range_meters":20000,"station_id":"ce4bgjp2rcd13ifvqbh0","pricing_plan_id":"cebpf4jnsgd1na2vs0mg"},{"bike_id":"831a2354-0919-4530-8e5a-84c32dcc2c03","system_id":"levelo_inurba_marseille","lat":43.272052,"lon":5.391826,"is_reserved":false,"is_disabled":false,"rental_uris":{"android":"levelo://app?vid=831a2354-0919-4530-8e5a-84c32dcc2c03","ios":"levelo://app?vid=831a2354-0919-4530-8e5a-84c32dcc2c03"},"vehicle_type_id":"4","last_reported":1756282443,"current_range_meters":20000,"station_id":"","pricing_plan_id":"cebpf4jnsgd1na2vs0mg"},{"bike_id":"41206d24-710d-406c-91e0-c06bb1a64813","system_id":"levelo_inurba_marseille","lat":43.3056,"lon":5.36545,"is_reserved":false,"is_disabled":false,"rental_uris":{"android":"levelo://app?vid=41206d24-710d-406c-91e0-c06bb1a64813","ios":"levelo://app?vid=41206d24-710d-406c-91e0-c06bb1a64813"},"vehicle_type_id":"4","last_reported":1756282443,"current_range_meters":20000,"station_id":"ce4bgs12rcd13ifvqcag","pricing_plan_id":"cebpf4jnsgd1na2vs0mg"},{"bike_id":"a71d0bca-bc7c-4692-bf55-794c9f5c67fc","system_id":"levelo_inurba_marseille","lat":43.30515,"lon":5.36549,"is_reserved":false,"is_disabled":false,"rental_uris":{"android":"levelo://app?vid=a71d0bca-bc7c-4692-bf55-794c9f5c67fc","ios":"levelo://app?vid=a71d0bca-bc7c-4692-bf55-794c9f5c67fc"},"vehicle_type_id":"4","last_reported":1756282443,"current_range_meters":20000,"station_id":"","pricing_plan_id":"cebpf4jnsgd1na2vs0mg"},{"bike_id":"e6355257-0814-4cf5-8dbe-cf3412b6ec52","system_id":"levelo_inurba_marseille","lat":43.271842,"lon":5.410004,"is_reserved":false,"is_disabled":false,"rental_uris":{"android":"levelo://app?vid=e6355257-0814-4cf5-8dbe-cf3412b6ec52","ios":"levelo://app?vid=e6355257-0814-4cf5-8dbe-cf3412b6ec52"},"vehicle_type_id":"4","last_reported":1756282443,"current_range_meters":20000,"station_id":"ce4bhl12rcd13ifvqgf0","pricing_plan_id":"cebpf4jnsgd1na2vs0mg"},{"bike_id":"6f99aee9-d08d-4fd8-ac85-cd5e7f78798a","system_id":"levelo_inurba_marseille","lat":43.3054,"lon":5.3672,"is_reserved":false,"is_disabled":false,"rental_uris":{"android":"levelo://app?vid=6f99aee9-d08d-4fd8-ac85-cd5e7f78798a","ios":"levelo://app?vid=6f99aee9-d08d-4fd8-ac85-cd5e7f78798a"},"vehicle_type_id":"4","last_reported":1756282443,"current_range_meters":20000,"station_id":"ce4bgrp2rcd13ifvqc9g","pricing_plan_id":"cebpf4jnsgd1na2vs0mg"},{"bike_id":"eb83a071-fe62-4f1b-b01c-f2f5f2a80b96","system_id":"levelo_inurba_marseille","lat":43.3124,"lon":5.36863,"is_reserved":false,"is_disabled":false,"rental_uris":{"android":"levelo://app?vid=eb83a071-fe62-4f1b-b01c-f2f5f2a80b96","ios":"levelo://app?vid=eb83a071-fe62-4f1b-b01c-f2f5f2a80b96"},"vehicle_type_id":"4","last_reported":1756282443,"current_range_meters":20400,"station_id":"ce4bgl92rcd13ifvqbq0","pricing_plan_id":"cebpf4jnsgd1na2vs0mg"},{"bike_id":"34fe0d2e-2ea7-4c10-a56e-f75fee52756b","system_id":"levelo_inurba_marseille","lat":43.29846,"lon":5.36268,"is_reserved":false,"is_disabled":false,"rental_uris":{"android":"levelo://app?vid=34fe0d2e-2ea7-4c10-a56e-f75fee52756b","ios":"levelo://app?vid=34fe0d2e-2ea7-4c10-a56e-f75fee52756b"},"vehicle_type_id":"4","last_reported":1756282443,"current_range_meters":20400,"station_id":"ce4bgpp2rcd13ifvqc3g","pricing_plan_id":"cebpf4jnsgd1na2vs0mg"},