{"last_updated":1689098972,"ttl":30,"version":"2.2","data":{"bikes":[{"bike_id":"6287b212-d983-4e35-905c-25f91800590b","system_id":"levelo_inurba_marseille","lat":43.309076,"lon":5.368465,"is_reserved":false,"is_disabled":false,"rental_uris":{"android":"levelo://app?vid=6287b212-d983-4e35-905c-25f91800590b","ios":"levelo://app?vid=6287b212-d983-4e35-905c-25f91800590b"},"vehicle_type_id":"4","last_reported":1689098973,"current_range_meters":16800,"station_id":"ce4bgn92rcd13ifvqbvg","pricing_plan_id":"free"},{"bike_id":"699a40ee-df91-46e7-97ef-f54df9dcea7d","system_id":"levelo_inurba_marseille","lat":43.314811,"lon":5.373103,"is_reserved":false,"is_disabled":false,"rental_uris":{"android":"levelo://app?vid=699a40ee-df91-46e7-97ef-f54df9dcea7d","ios":"levelo://app?vid=699a40ee-df91-46e7-97ef-f54df9dcea7d"},"vehicle_type_id":"4","last_reported":1689098973,"current_range_meters":13600,"station_id":"ce4bgt12rcd13ifvqcd0","pricing_plan_id":"free"},{"bike_id":"45987ca2-5faf-4df1-8ec3-4935fc9f7bb0","system_id":"levelo_inurba_marseille","lat":43.314811,"lon":5.373103,"is_reserved":false,"is_disabled":false,"rental_uris":{"android":"levelo://app?vid=45987ca2-5faf-4df1-8ec3-4935fc9f7bb0","ios":"levelo://app?vid=45987ca2-5faf-4df1-8ec3-4935fc9f7bb0"},"vehicle_type_id":"4","last_reported":1689098973,"current_range_meters":25200,"station_id":"ce4bgt12rcd13ifvqcd0","pricing_plan_id":"free"},{"bike_id":"897eacf8-f738-4270-a515-64a27fbb068e","system_id":"levelo_inurba_marseille","lat":43.314811,"lon":5.373103,"is_reserved":false,"is_disabled":false,"rental_uris":{"android":"levelo://app?vid=897eacf8-f738-4270-a515-64a27fbb068e","ios":"levelo://app?vid=897eacf8-f738-4270-a515-64a27fbb068e"},"vehicle_type_id":"4","last_reported":1689098973,"current_range_meters":11600,"station_id":"ce4bgt12rcd13ifvqcd0","pricing_plan_id":"free"},{"bike_id":"6873e51c-8afd-46e5-b1d8-a2381602c464","system_id":"levelo_inurba_marseille","lat":43.309039,"lon":5.371797,"is_reserved":false,"is_disabled":false,"rental_uris":{"android":"levelo://app?vid=6873e51c-8afd-46e5-b1d8-a2381602c464","ios":"levelo://app?vid=6873e51c-8afd-46e5-b1d8-a2381602c464"},"vehicle_type_id":"4","last_reported":1689098973,"current_range_meters":25200,"station_id":"ce4bguh2rcd13ifvqckg","pricing_plan_id":"free"},{"bike_id":"58da43ca-2f79-4efc-bdb7-8f87dc148c2e","system_id":"levelo_inurba_marseille","lat":43.309034,"lon":5.371783,"is_reserved":false,"is_disabled":false,"rental_uris":{"android":"levelo://app?vid=58da43ca-2f79-4efc-bdb7-8f87dc148c2e","ios":"levelo://app?vid=58da43ca-2f79-4efc-bdb7-8f87dc148c2e"},"vehicle_type_id":"4","last_reported":1689098973,"current_range_meters":19600,"station_id":"ce4bguh2rcd13ifvqckg","pricing_plan_id":"free"},{"bike_id":"38df26a7-c216-447d-97d0-0a5dfba2e471","system_id":"levelo_inurba_marseille","lat":43.305368,"lon":5.367343,"is_reserved":false,"is_disabled":false,"rental_uris":{"android":"levelo://app?vid=38df26a7-c216-447d-97d0-0a5dfba2e471","ios":"levelo://app?vid=38df26a7-c216-447d-97d0-0a5dfba2e471"},"vehicle_type_id":"4","last_reported":1689098973,"current_range_meters":25600,"station_id":"ce4bgrp2rcd13ifvqc9g","pricing_plan_id":"free"},{"bike_id":"719e5141-edd2-4f90-9a1b-f79c4d785816","system_id":"levelo_inurba_marseille","lat":43.305714,"lon":5.365633,"is_reserved":false,"is_disabled":false,"rental_uris":{"android":"levelo://app?vid=719e5141-edd2-4f90-9a1b-f79c4d785816","ios":"levelo://app?vid=719e5141-edd2-4f90-9a1b-f79c4d785816"},"vehicle_type_id":"4","last_reported":1689098973,"current_range_meters":14400,"station_id":"ce4bgs12rcd13ifvqcag","pricing_plan_id":"free"},{"bike_id":"486bb43f-a033-45fd-93e6-ce331f6a480c","system_id":"levelo_inurba_marseille","lat":43.30539,"lon":5.36554,"is_reserved":false,"is_disabled":false,"rental_uris":{"android":"levelo://app?vid=486bb43f-a033-45fd-93e6-ce331f6a480c","ios":"levelo://app?vid=486bb43f-a033-45fd-93e6-ce331f6a480c"},"vehicle_type_id":"4","last_reported":1689098973,"current_range_meters":18400,"station_id":"ce4bgs12rcd13ifvqcag","pricing_plan_id":"free"},{"bike_id":"581c8e63-3155-4578-9ba4-034549ba0c62","system_id":"levelo_inurba_marseille","lat":43.311125,"lon":5.377624,"is_reserved":false,"is_disabled":false,"rental_uris":{"android":"levelo://app?vid=581c8e63-3155-4578-9ba4-034549ba0c62","ios":"levelo://app?vid=581c8e63-3155-4578-9ba4-034549ba0c62"},"vehicle_type_id":"4","last_reported":1689098973,"current_range_meters":1200,"station_id":"ce4bgt92rcd13ifvqcg0","pricing_plan_id":"free"},{"bike_id":"8fb4a51c-7094-4e66-817c-71286d3bf540","system_id":"levelo_inurba_marseille","lat":43.317075,"lon":5.377367,"is_reserved":false,"is_disabled":false,"rental_uris":{"android":"levelo://app?vid=8fb4a51c-7094-4e66-817c-71286d3bf540","ios":"levelo://app?vid=8fb4a51c-7094-4e66-817c-71286d3bf540"},"vehicle_type_id":"4","last_reported":1689098973,"current_range_meters":18800,"station_id":"ce4bgth2rcd13ifvqch0","pricing_plan_id":"free"},{"bike_id":"b88350ee-8b4c-472e-b77b-ba019458b51e","system_id":"levelo_inurba_marseille","lat":43.317075,"lon":5.377367,"is_reserved":false,"is_disabled":false,"rental_uris":{"android":"levelo://app?vid=b88350ee-8b4c-472e-b77b-ba019458b51e","ios":"levelo://app?vid=b88350ee-8b4c-472e-b77b-ba019458b51e"},"vehicle_type_id":"4","last_reported":1689098973,"current_range_meters":30400,"station_id":"ce4bgth2rcd13ifvqch0","pricing_plan_id":"free"},{"bike_id":"b34060d4-4505-48ce-b7b6-2e56eba06aa6","system_id":"levelo_inurba_marseille","lat":43.315293,"lon":5.380349,"is_reserved":false,"is_disabled":false,"rental_uris":{"android":"levelo://app?vid=b34060d4-4505-48ce-b7b6-2e56eba06aa6","ios":"levelo://app?vid=b34060d4-4505-48ce-b7b6-2e56eba06aa6"},"vehicle_type_id":"4","last_reported":1689098973,"current_range_meters":23200,"station_id":"ce4bhsp2rcd13ifvqi50","pricing_plan_id":"free"},{"bike_id":"f3343058-b746-4899-a1e1-e409d00a259d","system_id":"levelo_inurba_marseille","lat":43.315293,"lon":5.380349,"is_reserved":false,"is_disabled":false,"rental_uris":{"android":"levelo://app?vid=f3343058-b746-4899-a1e1-e409d00a259d","ios":"levelo://app?vid=f3343058-b746-4899-a1e1-e409d00a259d"},"vehicle_type_id":"4","last_reported":1689098973,"current_range_meters":20000,"station_id":"ce4bhsp2rcd13ifvqi50","pricing_plan_id":"free"},{"bike_id":"e873c620-e79e-41f2-bd5a-d71b831eacef","system_id":"levelo_inurba_marseille","lat":43.315277,"lon":5.380372,"is_reserved":false,"is_disabled":false,"rental_uris":{"android":"levelo://app?vid=e873c620-e79e-41f2-bd5a-d71b831eacef","ios":"levelo://app?vid=e873c620-e79e-41f2-bd5a-d71b831eacef"},"vehicle_type_id":"4","last_reported":1689098973,"current_range_meters":16000,"station_id":"","pricing_plan_id":"free"},{"bike_id":"4ea5eff1-914d-4c0a-8f97-16098655b658","system_id":"levelo_inurba_marseille","lat":43.315293,"lon":5.380349,"is_reserved":false,"is_disabled":false,"rental_uris":{"android":"levelo://app?vid=4ea5eff1-914d-4c0a-8f97-16098655b658","ios":"levelo://app?vid=4ea5eff1-914d-4c0a-8f97-16098655b658"},"vehicle_type_id":"4","last_reported":1689098973,"current_range_meters":15600,"station_id":"ce4bhsp2rcd13ifvqi50","pricing_plan_id":"free"},{"bike_id":"44354a85-2bb4-4f9d-b259-1b108e151ddf","system_id":"levelo_inurba_marseille","lat":43.315293,"lon":5.380349,"is_reserved":false,"is_disabled":false,"rental_uris":{"android":"levelo://app?vid=44354a85-2bb4-4f9d-b259-1b108e151ddf","ios":"levelo://app?vid=44354a85-2bb4-4f9d-b259-1b108e151ddf"},"vehicle_type_id":"4","last_reported":1689098973,"current_range_meters":400,"station_id":"ce4bhsp2rcd13ifvqi50","pricing_plan_id":"free"},{"bike_id":"40808a37-5e28-42fa-acda-95169036e5e0","system_id":"levelo_inurba_marseille","lat":43.301939,"lon":5.366286,"is_reserved":false,"is_disabled":false,"rental_uris":{"android":"levelo://app?vid=40808a37-5e28-42fa-acda-95169036e5e0","ios":"levelo://app?vid=40808a37-5e28-42fa-acda-95169036e5e0"},"vehicle_type_id":"4","last_reported":1689098973,"current_range_meters":0,"station_id":"ce4bgrh2rcd13ifvqc8g","pricing_plan_id":"free"},{"bike_id":"2f7bdc85-caaa-4140-97cb-e64ba533ad01","system_id":"levelo_inurba_marseille","lat":43.308012,"lon":5.381511,"is_reserved":false,"is_disabled":false,"rental_uris":{"android":"levelo://app?vid=2f7bdc85-caaa-4140-97cb-e64ba533ad01","ios":"levelo://app?vid=2f7bdc85-caaa-4140-97cb-e64ba533ad01"},"vehicle_type_id":"4","last_reported":1689098973,"current_range_meters":9600,"station_id":"ce4bgt12rcd13ifvqce0","pricing_plan_id":"free"},{"bike_id":"c7dd4a59-3813-4ba6-9928-d58cd0a7de18","system_id":"levelo_inurba_marseille","lat":43.304606,"lon":5.379026,"is_reserved":false,"is_disabled":false,"rental_uris":{"android":"levelo://app?vid=c7dd4a59-3813-4ba6-9928-d58cd0a7de18","ios":"levelo://app?vid=c7dd4a59-3813-4ba6-9928-d58cd0a7de18"},"vehicle_type_id":"4","last_reported":1689098973,"current_range_meters":21200,"station_id":"ce4bgup2rcd13ifvqcn0","pricing_plan_id":"free"},{"bike_id":"2e336d56-af33-4c68-b50d-2de2fe01a10f","system_id":"levelo_inurba_marseille","lat":43.319935,"lon":5.381699,"is_reserved":false,"is_disabled":false,"rental_uris":{"android":"levelo://app?vid=2e336d56-af33-4c68-b50d-2de2fe01a10f","ios":"levelo://app?vid=2e336d56-af33-4c68-b50d-2de2fe01a10f"},"vehicle_type_id":"4","last_reported":1689098973,"current_range_meters":25200,"station_id":"ce4bhr12rcd13ifvqhpg","pricing_plan_id":"free"},{"bike_id":"20da19a1-51f4-4f7f-b13e-c936c2633e29","system_id":"levelo_inurba_marseille","lat":43.31994,"lon":5.38148,"is_reserved":false,"is_disabled":false,"rental_uris":{"android":"levelo://app?vid=20da19a1-51f4-4f7f-b13e-c936c2633e29","ios":"levelo://app?vid=20da19a1-51f4-4f7f-b13e-c936c2633e29"},"vehicle_type_id":"4","last_reported":1689098973,"current_range_meters":8800,"station_id":"ce4bhr12rcd13ifvqhpg","pricing_plan_id":"free"},{"bike_id":"55998a11-4423-4004-9936-dc1ed0fc8271","system_id":"levelo_inurba_marseille","lat":43.319935,"lon":5.381699,"is_reserved":false,"is_disabled":false,"rental_uris":{"android":"levelo://app?vid=55998a11-4423-4004-9936-dc1ed0fc8271","ios":"levelo://app?vid=55998a11-4423-4004-9936-dc1ed0fc8271"},"vehicle_type_id":"4","last_reported":1689098973,"current_range_meters":25600,"station_id":"ce4bhr12rcd13ifvqhpg","pricing_plan_id":"free"},{"bike_id":"7bf3f968-df70-4a20-8fa3-b3af2a4e3dc3","system_id":"levelo_inurba_marseille","lat":43.319935,"lon":5.381699,"is_reserved":false,"is_disabled":false,"rental_uris":{"android":"levelo://app?vid=7bf3f968-df70-4a20-8fa3-b3af2a4e3dc3","ios":"levelo://app?vid=7bf3f968-df70-4a20-8fa3-b3af2a4e3dc3"},"vehicle_type_id":"4","last_reported":1689098973,"current_range_meters":25200,"station_id":"ce4bhr12rcd13ifvqhpg","pricing_plan_id":"free"},{"bike_id":"c799b661-15e1-44d3-94b7-3b1dd858c869","system_id":"levelo_inurba_marseille","lat":43.319935,"lon":5.381699,"is_reserved":false,"is_disabled":false,"rental_uris":{"android":"levelo://app?vid=c799b661-15e1-44d3-94b7-3b1dd858c869","ios":"levelo://app?vid=c799b661-15e1-44d3-94b7-3b1dd858c869"},"vehicle_type_id":"4","last_reported":1689098973,"current_range_meters":18400,"station_id":"ce4bhr12rcd13ifvqhpg","pricing_plan_id":"free"},{"bike_id":"bb9249b0-2e94-411b-924f-7dea24d43fa1","system_id":"levelo_inurba_marseille","lat":43.319935,"lon":5.381699,"is_reserved":false,"is_disabled":false,"rental_uris":{"android":"levelo://app?vid=bb9249b0-2e94-411b-924f-7dea24d43fa1","ios":"levelo://app?vid=bb9249b0-2e94-411b-924f-7dea24d43fa1"},"vehicle_type_id":"4","last_reported":1689098973,"current_range_meters":21600,"station_id":"ce4bhr12rcd13ifvqhpg","pricing_plan_id":"free"},{"bike_id":"f61916fb-50af-4551-8893-5b9ccc500fb2","system_id":"levelo_inurba_marseille","lat":43.319935,"lon":5.381699,"is_reserved":false,"is_disabled":false,"rental_uris":{"android":"levelo://app?vid=f61916fb-50af-4551-8893-5b9ccc500fb2","ios":"levelo://app?vid=f61916fb-50af-4551-8893-5b9ccc500fb2"},"vehicle_type_id":"4","last_reported":1689098973,"current_range_meters":30800,"station_id":"ce4bhr12rcd13ifvqhpg","pricing_plan_id":"free"},{"bike_id":"593dd702-df39-4fb8-a370-781321b1b16d","system_id":"levelo_inurba_marseille","lat":43.319935,"lon":5.381699,"is_reserved":false,"is_disabled":false,"rental_uris":{"android":"levelo://app?vid=593dd702-df39-4fb8-a370-781321b1b16d","ios":"levelo://app?vid=593dd702-df39-4fb8-a370-781321b1b16d"},"vehicle_type_id":"4","last_reported":1689098973,"current_range_meters":25200,"station_id":"ce4bhr12rcd13ifvqhpg","pricing_plan_id":"free"},{"bike_id":"e00e3cc5-f997-485c-8b56-e530a479a988","system_id":"levelo_inurba_marseille","lat":43.319935,"lon":5.381699,"is_reserved":false,"is_disabled":false,"rental_uris":{"android":"levelo://app?vid=e00e3cc5-f997-485c-8b56-e530a479a988","ios":"levelo://app?vid=e00e3cc5-f997-485c-8b56-e530a479a988"},"vehicle_type_id":"4","last_reported":1689098973,"current_range_meters":23600,"station_id":"ce4bhr12rcd13ifvqhpg","pricing_plan_id":"free"},{"bike_id":"31155526-1bbd-4f76-abd7-dbee7c535a3f","system_id":"levelo_inurba_marseille","lat":43.31999,"lon":5.38162,"is_reserved":false,"is_disabled":false,"rental_uris":{"android":"levelo://app?vid=31155526-1bbd-4f76-abd7-dbee7c535a3f","ios":"levelo://app?vid=31155526-1bbd-4f76-abd7-dbee7c535a3f"},"vehicle_type_id":"4","last_reported":1689098973,"current_range_meters":5600,"station_id":"ce4bhr12rcd13ifvqhpg","pricing_plan_id":"free"},{"bike_id":"14c34846-37e4-4770-be76-9393ad06b814","system_id":"levelo_inurba_marseille","lat":43.319935,"lon":5.381699,"is_reserved":false,"is_disabled":false,"rental_uris":{"android":"levelo://app?vid=14c34846-37e4-4770-be76-9393ad06b814","ios":"levelo://app?vid=14c34846-37e4-4770-be76-9393ad06b814"},"vehicle_type_id":"4","last_reported":1689098973,"current_range_meters":25200,"station_id":"ce4bhr12rcd13ifvqhpg","pricing_plan_id":"free"},{"bike_id":"5008f8da-b6f1-40f9-a79e-bc94e701cd4a","system_id":"levelo_inurba_marseille","lat":43.319935,"lon":5.381699,"is_reserved":false,"is_disabled":false,"rental_uris":{"android":"levelo://app?vid=5008f8da-b6f1-40f9-a79e-bc94e701cd4a","ios":"levelo://app?vid=5008f8da-b6f1-40f9-a79e-bc94e701cd4a"},"vehicle_type_id":"4","last_reported":1689098973,"current_range_meters":25200,"station_id":"ce4bhr12rcd13ifvqhpg","pricing_plan_id":"free"},{"bike_id":"db9f235c-5b13-45a0-9c24-098107b5d447","system_id":"levelo_inurba_marseille","lat":43.31363,"lon":5.38488,"is_reserved":false,"is_disabled":false,"rental_uris":{"android":"levelo://app?vid=db9f235c-5b13-45a0-9c24-098107b5d447","ios":"levelo://app?vid=db9f235c-5b13-45a0-9c24-098107b5d447"},"vehicle_type_id":"4","last_reported":1689098973,"current_range_meters":16800,"station_id":"ce4bgt92rcd13ifvqcf0","pricing_plan_id":"free"},{"bike_id":"6e3fe0b7-1af9-48f5-9225-0b181c8e0b7a","system_id":"levelo_inurba_marseille","lat":43.31365,"lon":5.38493,"is_reserved":false,"is_disabled":false,"rental_uris":{"android":"levelo://app?vid=6e3fe0b7-1af9-48f5-9225-0b181c8e0b7a","ios":"levelo://app?vid=6e3fe0b7-1af9-48f5-9225-0b181c8e0b7a"},"vehicle_type_id":"4","last_reported":1689098973,"current_range_meters":27600,"station_id":"ce4bgt92rcd13ifvqcf0","pricing_plan_id":"free"},{"bike_id":"67307e8f-33b5-4c12-992e-28e037e68d77","system_id":"levelo_inurba_marseille","lat":43.29946,"lon":5.36566,"is_reserved":false,"is_disabled":false,"rental_uris":{"android":"levelo://app?vid=67307e8f-33b5-4c12-992e-28e037e68d77","ios":"levelo://app?vid=67307e8f-33b5-4c12-992e-28e037e68d77"},"vehicle_type_id":"4","last_reported":1689098973,"current_range_meters":13200,"station_id":"","pricing_plan_id":"free"},{"bike_id":"1d6348ec-b195-493c-a92f-70b7b775a13f","system_id":"levelo_inurba_marseille","lat":43.29938,"lon":5.36554,"is_reserved":false,"is_disabled":false,"rental_uris":{"android":"levelo://app?vid=1d6348ec-b195-493c-a92f-70b7b775a13f","ios":"levelo://app?vid=1d6348ec-b195-493c-a92f-70b7b775a13f"},"vehicle_type_id":"4","last_reported":1689098973,"current_range_meters":14800,"station_id":"ce4bgm92rcd13ifvqbr0","pricing_plan_id":"free"},{"bike_id":"068b0cab-f3d5-4e34-a5a2-c8679a612473","system_id":"levelo_inurba_marseille","lat":43.29938,"lon":5.36544,"is_reserved":false,"is_disabled":false,"rental_uris":{"android":"levelo://app?vid=068b0cab-f3d5-4e34-a5a2-c8679a612473","ios":"levelo://app?vid=068b0cab-f3d5-4e34-a5a2-c8679a612473"},"vehicle_type_id":"4","last_reported":1689098973,"current_range_meters":6400,"station_id":"ce4bgm92rcd13ifvqbr0","pricing_plan_id":"free"},{"bike_id":"f0668ec1-42ef-4f65-ab17-befc3fee374c","system_id":"levelo_inurba_marseille","lat":43.299222,"lon":5.365554,"is_reserved":false,"is_disabled":false,"rental_uris":{"android":"levelo://app?vid=f0668ec1-42ef-4f65-ab17-befc3fee374c","ios":"levelo://app?vid=f0668ec1-42ef-4f65-ab17-befc3fee374c"},"vehicle_type_id":"4","last_reported":1689098973,"current_range_meters":16000,"station_id":"ce4bgm92rcd13ifvqbr0","pricing_plan_id":"free"},{"bike_id":"6dc3185d-b11b-4b58-915a-9605ed3f5819","system_id":"levelo_inurba_marseille","lat":43.299222,"lon":5.365554,"is_reserved":false,"is_disabled":false,"rental_uris":{"android":"levelo://app?vid=6dc3185d-b11b-4b58-915a-9605ed3f5819","ios":"levelo://app?vid=6dc3185d-b11b-4b58-915a-9605ed3f5819"},"vehicle_type_id":"4","last_reported":1689098973,"current_range_meters":20400,"station_id":"ce4bgm92rcd13ifvqbr0","pricing_plan_id":"free"},{"bike_id":"e4c1020b-976a-4601-80ef-e471886075ae","system_id":"levelo_inurba_marseille","lat":43.29934,"lon":5.36547,"is_reserved":false,"is_disabled":false,"rental_uris":{"android":"levelo://app?vid=e4c1020b-976a-4601-80ef-e471886075ae","ios":"levelo://app?vid=e4c1020b-976a-4601-80ef-e471886075ae"},"vehicle_type_id":"4","last_reported":1689098973,"current_range_meters":12000,"station_id":"ce4bgm92rcd13ifvqbr0","pricing_plan_id":"free"},{"bike_id":"6e7b34bd-8448-48b8-918a-e5a6472b0a1a","system_id":"levelo_inurba_marseille","lat":43.29933,"lon":5.36546,"is_reserved":false,"is_disabled":false,"rental_uris":{"android":"levelo://app?vid=6e7b34bd-8448-48b8-918a-e5a6472b0a1a","ios":"levelo://app?vid=6e7b34bd-8448-48b8-918a-e5a6472b0a1a"},"vehicle_type_id":"4","last_reported":1689098973,"current_range_meters":8000,"station_id":"ce4bgm92rcd13ifvqbr0","pricing_plan_id":"free"},{"bike_id":"28adfe04-f21c-454d-9159-c6d70db5c890","system_id":"levelo_inurba_marseille","lat":43.299222,"lon":5.365554,"is_reserved":false,"is_disabled":false,"rental_uris":{"android":"levelo://app?vid=28adfe04-f21c-454d-9159-c6d70db5c890","ios":"levelo://app?vid=28adfe04-f21c-454d-9159-c6d70db5c890"},"vehicle_type_id":"4","last_reported":1689098973,"current_range_meters":24800,"station_id":"ce4bgm92rcd13ifvqbr0","pricing_plan_id":"free"},{"bike_id":"922ef884-6d04-42f3-8f14-71b8ba8e5c52","system_id":"levelo_inurba_marseille","lat":43.305364,"lon":5.384119,"is_reserved":false,"is_disabled":false,"rental_uris":{"android":"levelo://app?vid=922ef884-6d04-42f3-8f14-71b8ba8e5c52","ios":"levelo://app?vid=922ef884-6d04-42f3-8f14-71b8ba8e5c52"},"vehicle_type_id":"4","last_reported":1689098973,"current_range_meters":30800,"station_id":"ce4bgg92rcd13ifvqb30","pricing_plan_id":"free"},{"bike_id":"620883b3-fe42-4ea0-8e3b-fb33994c7176","system_id":"levelo_inurba_marseille","lat":43.298433,"lon":5.362774,"is_reserved":false,"is_disabled":false,"rental_uris":{"android":"levelo://app?vid=620883b3-fe42-4ea0-8e3b-fb33994c7176","ios":"levelo://app?vid=620883b3-fe42-4ea0-8e3b-fb33994c7176"},"vehicle_type_id":"4","last_reported":1689098973,"current_range_meters":14800,"station_id":"ce4bgpp2rcd13ifvqc3g","pricing_plan_id":"free"},{"bike_id":"893a8983-dfb3-46bb-878f-a7e500b30edb","system_id":"levelo_inurba_marseille","lat":43.298433,"lon":5.362774,"is_reserved":false,"is_disabled":false,"rental_uris":{"android":"levelo://app?vid=893a8983-dfb3-46bb-878f-a7e500b30edb","ios":"levelo://app?vid=893a8983-dfb3-46bb-878f-a7e500b30edb"},"vehicle_type_id":"4","last_reported":1689098973,"current_range_meters":17600,"station_id":"ce4bgpp2rcd13ifvqc3g","pricing_plan_id":"free"},{"bike_id":"9f61090a-8b97-47e3-be4b-528d88a40006","system_id":"levelo_inurba_marseille","lat":43.298433,"lon":5.362774,"is_reserved":false,"is_disabled":false,"rental_uris":{"android":"levelo://app?vid=9f61090a-8b97-47e3-be4b-528d88a40006","ios":"levelo://app?vid=9f61090a-8b97-47e3-be4b-528d88a40006"},"vehicle_type_id":"4","last_reported":1689098973,"current_range_meters":1600,"station_id":"ce4bgpp2rcd13ifvqc3g","pricing_plan_id":"free"},{"bike_id":"057ede1f-247c-450e-bc18-51deb2f9c061","system_id":"levelo_inurba_marseille","lat":43.30254,"lon":5.38154,"is_reserved":false,"is_disabled":false,"rental_uris":{"android":"levelo://app?vid=057ede1f-247c-450e-bc18-51deb2f9c061","ios":"levelo://app?vid=057ede1f-247c-450e-bc18-51deb2f9c061"},"vehicle_type_id":"4","last_reported":1689098973,"current_range_meters":11200,"station_id":"","pricing_plan_id":"free"},{"bike_id":"0c854b66-f696-4834-889f-1fa9eb395c0c","system_id":"levelo_inurba_marseille","lat":43.311722,"lon":5.387247,"is_reserved":false,"is_disabled":false,"rental_uris":{"android":"levelo://app?vid=0c854b66-f696-4834-889f-1fa9eb395c0c","ios":"levelo://app?vid=0c854b66-f696-4834-889f-1fa9eb395c0c"},"vehicle_type_id":"4","last_reported":1689098973,"current_range_meters":16000,"station_id":"ce4bgv12rcd13ifvqcp0","pricing_plan_id":"free"},{"bike_id":"397c489e-6079-4d7b-ad14-c9d5577c93e6","system_id":"levelo_inurba_marseille","lat":43.311722,"lon":5.387247,"is_reserved":false,"is_disabled":false,"rental_uris":{"android":"levelo://app?vid=397c489e-6079-4d7b-ad14-c9d5577c93e6","ios":"levelo://app?vid=397c489e-6079-4d7b-ad14-c9d5577c93e6"},"vehicle_type_id":"4","last_reported":1689098973,"current_range_meters":0,"station_id":"ce4bgv12rcd13ifvqcp0","pricing_plan_id":"free"},{"bike_id":"07d209ff-47b1-4e6f-8280-cf1ef248b30a","system_id":"levelo_inurba_marseille","lat":43.297794,"lon":5.370888,"is_reserved":false,"is_disabled":false,"rental_uris":{"android":"levelo://app?vid=07d209ff-47b1-4e6f-8280-cf1ef248b30a","ios":"levelo://app?vid=07d209ff-47b1-4e6f-8280-cf1ef248b30a"},"vehicle_type_id":"4","last_reported":1689098973,"current_range_meters":30800,"station_id":"ce4bgop2rcd13ifvqc1g","pricing_plan_id":"free"},{"bike_id":"74407244-ba39-462d-88fc-a473c2c49845","system_id":"levelo_inurba_marseille","lat":43.328371,"lon":5.366909,"is_reserved":false,"is_disabled":false,"rental_uris":{"android":"levelo://app?vid=74407244-ba39-462d-88fc-a473c2c49845","ios":"levelo://app?vid=74407244-ba39-462d-88fc-a473c2c49845"},"vehicle_type_id":"4","last_reported":1689098973,"current_range_meters":21200,"station_id":"ce4bhs92rcd13ifvqi0g","pricing_plan_id":"free"},{"bike_id":"fe60ac76-0b1b-4d4f-b715-ae8878e61f90","system_id":"levelo_inurba_marseille","lat":43.328371,"lon":5.366909,"is_reserved":false,"is_disabled":false,"rental_uris":{"android":"levelo://app?vid=fe60ac76-0b1b-4d4f-b715-ae8878e61f90","ios":"levelo://app?vid=fe60ac76-0b1b-4d4f-b715-ae8878e61f90"},"vehicle_type_id":"4","last_reported":1689098973,"current_range_meters":6000,"station_id":"ce4bhs92rcd13ifvqi0g","pricing_plan_id":"free"},{"bike_id":"82c0663d-b10b-41e9-a3f9-9ee62ea8c128","system_id":"levelo_inurba_marseille","lat":43.328371,"lon":5.366909,"is_reserved":false,"is_disabled":false,"rental_uris":{"android":"levelo://app?vid=82c0663d-b10b-41e9-a3f9-9ee62ea8c128","ios":"levelo://app?vid=82c0663d-b10b-41e9-a3f9-9ee62ea8c128"},"vehicle_type_id":"4","last_reported":1689098973,"current_range_meters":20000,"station_id":"ce4bhs92rcd13ifvqi0g","pricing_plan_id":"free"},{"bike_id":"dd3846f3-ff6b-4b88-92a4-1d7ff732aedf","system_id":"levelo_inurba_marseille","lat":43.328371,"lon":5.366909,"is_reserved":false,"is_disabled":false,"rental_uris":{"android":"levelo://app?vid=dd3846f3-ff6b-4b88-92a4-1d7ff732aedf","ios":"levelo://app?vid=dd3846f3-ff6b-4b88-92a4-1d7ff732aedf"},"vehicle_type_id":"4","last_reported":1689098973,"current_range_meters":19600,"station_id":"ce4bhs92rcd13ifvqi0g","pricing_plan_id":"free"},{"bike_id":"7cc51e05-826e-4bad-9cfe-c17287decf29","system_id":"levelo_inurba_marseille","lat":43.297163,"lon":5.365866,"is_reserved":false,"is_disabled":false,"rental_uris":{"android":"levelo://app?vid=7cc51e05-826e-4bad-9cfe-c17287decf29","ios":"levelo://app?vid=7cc51e05-826e-4bad-9cfe-c17287decf29"},"vehicle_type_id":"4","last_reported":1689098973,"current_range_meters":17600,"station_id":"ce4bgn12rcd13ifvqbt0","pricing_plan_id":"free"},{"bike_id":"9ab6acd3-36c0-40d7-a8cb-2e2f800b400f","system_id":"levelo_inurba_marseille","lat":43.328371,"lon":5.366909,"is_reserved":false,"is_disabled":false,"rental_uris":{"android":"levelo://app?vid=9ab6acd3-36c0-40d7-a8cb-2e2f800b400f","ios":"levelo://app?vid=9ab6acd3-36c0-40d7-a8cb-2e2f800b400f"},"vehicle_type_id":"4","last_reported":1689098973,"current_range_meters":8800,"station_id":"ce4bhs92rcd13ifvqi0g","pricing_plan_id":"free"},{"bike_id":"9f57cb93-34a4-469b-aa35-60194e34c25e","system_id":"levelo_inurba_marseille","lat":43.297163,"lon":5.365866,"is_reserved":false,"is_disabled":false,"rental_uris":{"android":"levelo://app?vid=9f57cb93-34a4-469b-aa35-60194e34c25e","ios":"levelo://app?vid=9f57cb93-34a4-469b-aa35-60194e34c25e"},"vehicle_type_id":"4","last_reported":1689098973,"current_range_meters":31600,"station_id":"ce4bgn12rcd13ifvqbt0","pricing_plan_id":"free"},{"bike_id":"71cff3a3-0a67-4159-8e0c-f10f8ae2b748","system_id":"levelo_inurba_marseille","lat":43.328371,"lon":5.366909,"is_reserved":false,"is_disabled":false,"rental_uris":{"android":"levelo://app?vid=71cff3a3-0a67-4159-8e0c-f10f8ae2b748","ios":"levelo://app?vid=71cff3a3-0a67-4159-8e0c-f10f8ae2b748"},"vehicle_type_id":"4","last_reported":1689098973,"current_range_meters":21600,"station_id":"ce4bhs92rcd13ifvqi0g","pricing_plan_id":"free"},{"bike_id":"98be7db6-8143-41d3-9935-185fe9ab20f3","system_id":"levelo_inurba_marseille","lat":43.32832,"lon":5.36697,"is_reserved":false,"is_disabled":false,"rental_uris":{"android":"levelo://app?vid=98be7db6-8143-41d3-9935-185fe9ab20f3","ios":"levelo://app?vid=98be7db6-8143-41d3-9935-185fe9ab20f3"},"vehicle_type_id":"4","last_reported":1689098973,"current_range_meters":26400,"station_id":"ce4bhs92rcd13ifvqi0g","pricing_plan_id":"free"},{"bike_id":"ac0ab414-c38e-4625-b276-0d829fe79721","system_id":"levelo_inurba_marseille","lat":43.328371,"lon":5.366909,"is_reserved":false,"is_disabled":false,"rental_uris":{"android":"levelo://app?vid=ac0ab414-c38e-4625-b276-0d829fe79721","ios":"levelo://app?vid=ac0ab414-c38e-4625-b276-0d829fe79721"},"vehicle_type_id":"4","last_reported":1689098973,"current_range_meters":29600,"station_id":"ce4bhs92rcd13ifvqi0g","pricing_plan_id":"free"},{"bike_id":"74e091c8-36c9-4932-b52b-92a60f25a803","system_id":"levelo_inurba_marseille","lat":43.297163,"lon":5.365866,"is_reserved":false,"is_disabled":false,"rental_uris":{"android":"levelo://app?vid=74e091c8-36c9-4932-b52b-92a60f25a803","ios":"levelo://app?vid=74e091c8-36c9-4932-b52b-92a60f25a803"},"vehicle_type_id":"4","last_reported":1689098973,"current_range_meters":18400,"station_id":"ce4bgn12rcd13ifvqbt0","pricing_plan_id":"free"},{"bike_id":"7026f680-b637-4c29-8ca8-3286106d6c68","system_id":"levelo_inurba_marseille","lat":43.32833,"lon":5.36696,"is_reserved":false,"is_disabled":false,"rental_uris":{"android":"levelo://app?vid=7026f680-b637-4c29-8ca8-3286106d6c68","ios":"levelo://app?vid=7026f680-b637-4c29-8ca8-3286106d6c68"},"vehicle_type_id":"4","last_reported":1689098973,"current_range_meters":22400,"station_id":"ce4bhs92rcd13ifvqi0g","pricing_plan_id":"free"},{"bike_id":"dae73537-ced7-481d-90e5-a224c0c7707b","system_id":"levelo_inurba_marseille","lat":43.32833,"lon":5.36687,"is_reserved":false,"is_disabled":false,"rental_uris":{"android":"levelo://app?vid=dae73537-ced7-481d-90e5-a224c0c7707b","ios":"levelo://app?vid=dae73537-ced7-481d-90e5-a224c0c7707b"},"vehicle_type_id":"4","last_reported":1689098973,"current_range_meters":9200,"station_id":"ce4bhs92rcd13ifvqi0g","pricing_plan_id":"free"},{"bike_id":"6e84172c-531f-4b24-a0a2-0973f54d26cc","system_id":"levelo_inurba_marseille","lat":43.32835,"lon":5.3669,"is_reserved":false,"is_disabled":false,"rental_uris":{"android":"levelo://app?vid=6e84172c-531f-4b24-a0a2-0973f54d26cc","ios":"levelo://app?vid=6e84172c-531f-4b24-a0a2-0973f54d26cc"},"vehicle_type_id":"4","last_reported":1689098973,"current_range_meters":28400,"station_id":"ce4bhs92rcd13ifvqi0g","pricing_plan_id":"free"},{"bike_id":"952311b3-baa3-42e6-81a5-2b1fe857ca8c","system_id":"levelo_inurba_marseille","lat":43.32835,"lon":5.36689,"is_reserved":false,"is_disabled":false,"rental_uris":{"android":"levelo://app?vid=952311b3-baa3-42e6-81a5-2b1fe857ca8c","ios":"levelo://app?vid=952311b3-baa3-42e6-81a5-2b1fe857ca8c"},"vehicle_type_id":"4","last_reported":1689098973,"current_range_meters":18400,"station_id":"ce4bhs92rcd13ifvqi0g","pricing_plan_id":"free"},{"bike_id":"a54240bd-886a-40d8-b179-983d41370a19","system_id":"levelo_inurba_marseille","lat":43.32836,"lon":5.36687,"is_reserved":false,"is_disabled":false,"rental_uris":{"android":"levelo://app?vid=a54240bd-886a-40d8-b179-983d41370a19","ios":"levelo://app?vid=a54240bd-886a-40d8-b179-983d41370a19"},"vehicle_type_id":"4","last_reported":1689098973,"current_range_meters":5200,"station_id":"ce4bhs92rcd13ifvqi0g","pricing_plan_id":"free"},{"bike_id":"51f48678-26d4-4bbc-8f52-5e2b219eda87","system_id":"levelo_inurba_marseille","lat":43.297163,"lon":5.365866,"is_reserved":false,"is_disabled":false,"rental_uris":{"android":"levelo://app?vid=51f48678-26d4-4bbc-8f52-5e2b219eda87","ios":"levelo://app?vid=51f48678-26d4-4bbc-8f52-5e2b219eda87"},"vehicle_type_id":"4","last_reported":1689098973,"current_range_meters":28000,"station_id":"ce4bgn12rcd13ifvqbt0","pricing_plan_id":"free"},{"bike_id":"11812485-737e-4775-a7b0-c1dbec57bd7f","system_id":"levelo_inurba_marseille","lat":43.297163,"lon":5.365866,"is_reserved":false,"is_disabled":false,"rental_uris":{"android":"levelo://app?vid=11812485-737e-4775-a7b0-c1dbec57bd7f","ios":"levelo://app?vid=11812485-737e-4775-a7b0-c1dbec57bd7f"},"vehicle_type_id":"4","last_reported":1689098973,"current_range_meters":27600,"station_id":"ce4bgn12rcd13ifvqbt0","pricing_plan_id":"free"},{"bike_id":"bb52540a-5452-40ba-a697-b012ab3b2089","system_id":"levelo_inurba_marseille","lat":43.297163,"lon":5.365866,"is_reserved":false,"is_disabled":false,"rental_uris":{"android":"levelo://app?vid=bb52540a-5452-40ba-a697-b012ab3b2089","ios":"levelo://app?vid=bb52540a-5452-40ba-a697-b012ab3b2089"},"vehicle_type_id":"4","last_reported":1689098973,"current_range_meters":24000,"station_id":"ce4bgn12rcd13ifvqbt0","pricing_plan_id":"free"},{"bike_id":"69721170-6860-4950-a441-cae38fd34dd8","system_id":"levelo_inurba_marseille","lat":43.297163,"lon":5.365866,"is_reserved":false,"is_disabled":false,"rental_uris":{"android":"levelo://app?vid=69721170-6860-4950-a441-cae38fd34dd8","ios":"levelo://app?vid=69721170-6860-4950-a441-cae38fd34dd8"},"vehicle_type_id":"4","last_reported":1689098973,"current_range_meters":29600,"station_id":"ce4bgn12rcd13ifvqbt0","pricing_plan_id":"free"},{"bike_id":"9f2221e7-b787-46f9-a389-00005fa81751","system_id":"levelo_inurba_marseille","lat":43.297163,"lon":5.365866,"is_reserved":false,"is_disabled":false,"rental_uris":{"android":"levelo://app?vid=9f2221e7-b787-46f9-a389-00005fa81751","ios":"levelo://app?vid=9f2221e7-b787-46f9-a389-00005fa81751"},"vehicle_type_id":"4","last_reported":1689098973,"current_range_meters":30000,"station_id":"ce4bgn12rcd13ifvqbt0","pricing_plan_id":"free"},{"bike_id":"cdf9e058-d514-4616-8e03-dea271f0e397","system_id":"levelo_inurba_marseille","lat":43.297163,"lon":5.365866,"is_reserved":false,"is_disabled":false,"rental_uris":{"android":"levelo://app?vid=cdf9e058-d514-4616-8e03-dea271f0e397","ios":"levelo://app?vid=cdf9e058-d514-4616-8e03-dea271f0e397"},"vehicle_type_id":"4","last_reported":1689098973,"current_range_meters":16400,"station_id":"ce4bgn12rcd13ifvqbt0","pricing_plan_id":"free"},{"bike_id":"671e6103-749a-44d5-9262-c0380ac8955e","system_id":"levelo_inurba_marseille","lat":43.297163,"lon":5.365866,"is_reserved":false,"is_disabled":false,"rental_uris":{"android":"levelo://app?vid=671e6103-749a-44d5-9262-c0380ac8955e","ios":"levelo://app?vid=671e6103-749a-44d5-9262-c0380ac8955e"},"vehicle_type_id":"4","last_reported":1689098973,"current_range_meters":31200,"station_id":"ce4bgn12rcd13ifvqbt0","pricing_plan_id":"free"},{"bike_id":"ef3292ac-4c17-4b7c-90d7-c5914dbb1f86","system_id":"levelo_inurba_marseille","lat":43.2968,"lon":5.37291,"is_reserved":false,"is_disabled":false,"rental_uris":{"android":"levelo://app?vid=ef3292ac-4c17-4b7c-90d7-c5914dbb1f86","ios":"levelo://app?vid=ef3292ac-4c17-4b7c-90d7-c5914dbb1f86"},"vehicle_type_id":"4","last_reported":1689098973,"current_range_meters":10000,"station_id":"ce4bgk12rcd13ifvqbj0","pricing_plan_id":"free"},{"bike_id":"a2432f80-a63d-4365-af9e-3331896d581e","system_id":"levelo_inurba_marseille","lat":43.2968,"lon":5.37291,"is_reserved":false,"is_disabled":false,"rental_uris":{"android":"levelo://app?vid=a2432f80-a63d-4365-af9e-3331896d581e","ios":"levelo://app?vid=a2432f80-a63d-4365-af9e-3331896d581e"},"vehicle_type_id":"4","last_reported":1689098973,"current_range_meters":5200,"station_id":"ce4bgk12rcd13ifvqbj0","pricing_plan_id":"free"},{"bike_id":"4b3c936b-4bc0-4732-a765-1e7b7a81d788","system_id":"levelo_inurba_marseille","lat":43.2968,"lon":5.37291,"is_reserved":false,"is_disabled":false,"rental_uris":{"android":"levelo://app?vid=4b3c936b-4bc0-4732-a765-1e7b7a81d788","ios":"levelo://app?vid=4b3c936b-4bc0-4732-a765-1e7b7a81d788"},"vehicle_type_id":"4","last_reported":1689098973,"current_range_meters":26400,"station_id":"ce4bgk12rcd13ifvqbj0","pricing_plan_id":"free"},{"bike_id":"898d62b2-6b07-45e5-a014-d1795d2adf94","system_id":"levelo_inurba_marseille","lat":43.2968,"lon":5.37291,"is_reserved":false,"is_disabled":false,"rental_uris":{"android":"levelo://app?vid=898d62b2-6b07-45e5-a014-d1795d2adf94","ios":"levelo://app?vid=898d62b2-6b07-45e5-a014-d1795d2adf94"},"vehicle_type_id":"4","last_reported":1689098973,"current_range_meters":10800,"station_id":"ce4bgk12rcd13ifvqbj0","pricing_plan_id":"free"},{"bike_id":"045ebef0-f0f4-4de8-8670-2116adc6a767","system_id":"levelo_inurba_marseille","lat":43.2968,"lon":5.37291,"is_reserved":false,"is_disabled":false,"rental_uris":{"android":"levelo://app?vid=045ebef0-f0f4-4de8-8670-2116adc6a767","ios":"levelo://app?vid=045ebef0-f0f4-4de8-8670-2116adc6a767"},"vehicle_type_id":"4","last_reported":1689098973,"current_range_meters":27200,"station_id":"ce4bgk12rcd13ifvqbj0","pricing_plan_id":"free"},{"bike_id":"43aa2cee-5c56-4d93-b450-5ca9e68eed7c","system_id":"levelo_inurba_marseille","lat":43.2968,"lon":5.37291,"is_reserved":false,"is_disabled":false,"rental_uris":{"android":"levelo://app?vid=43aa2cee-5c56-4d93-b450-5ca9e68eed7c","ios":"levelo://app?vid=43aa2cee-5c56-4d93-b450-5ca9e68eed7c"},"vehicle_type_id":"4","last_reported":1689098973,"current_range_meters":12400,"station_id":"ce4bgk12rcd13ifvqbj0","pricing_plan_id":"free"},{"bike_id":"b51d4572-0b99-4c6f-8a2e-ba5cef78d4e2","system_id":"levelo_inurba_marseille","lat":43.29573,"lon":5.367355,"is_reserved":false,"is_disabled":false,"rental_uris":{"android":"levelo://app?vid=b51d4572-0b99-4c6f-8a2e-ba5cef78d4e2","ios":"levelo://app?vid=b51d4572-0b99-4c6f-8a2e-ba5cef78d4e2"},"vehicle_type_id":"4","last_reported":1689098973,"current_range_meters":16800,"station_id":"ce4bgph2rcd13ifvqc2g","pricing_plan_id":"free"},{"bike_id":"f231524d-2400-4fca-8027-534ba3e8db44","system_id":"levelo_inurba_marseille","lat":43.29628,"lon":5.37158,"is_reserved":false,"is_disabled":false,"rental_uris":{"android":"levelo://app?vid=f231524d-2400-4fca-8027-534ba3e8db44","ios":"levelo://app?vid=f231524d-2400-4fca-8027-534ba3e8db44"},"vehicle_type_id":"4","last_reported":1689098973,"current_range_meters":4000,"station_id":"ce4bgnh2rcd13ifvqc0g","pricing_plan_id":"free"},{"bike_id":"7f8d3a55-027d-49de-a32d-fac4824bd9b1","system_id":"levelo_inurba_marseille","lat":43.29629,"lon":5.37168,"is_reserved":false,"is_disabled":false,"rental_uris":{"android":"levelo://app?vid=7f8d3a55-027d-49de-a32d-fac4824bd9b1","ios":"levelo://app?vid=7f8d3a55-027d-49de-a32d-fac4824bd9b1"},"vehicle_type_id":"4","last_reported":1689098973,"current_range_meters":30400,"station_id":"ce4bgnh2rcd13ifvqc0g","pricing_plan_id":"free"},{"bike_id":"cbd0f99c-7556-496a-a8a1-7e3cfa419cf9","system_id":"levelo_inurba_marseille","lat":43.29573,"lon":5.367355,"is_reserved":false,"is_disabled":false,"rental_uris":{"android":"levelo://app?vid=cbd0f99c-7556-496a-a8a1-7e3cfa419cf9","ios":"levelo://app?vid=cbd0f99c-7556-496a-a8a1-7e3cfa419cf9"},"vehicle_type_id":"4","last_reported":1689098973,"current_range_meters":26800,"station_id":"ce4bgph2rcd13ifvqc2g","pricing_plan_id":"free"},{"bike_id":"746ae8de-7461-4808-a3da-d7e1a9fab1ac","system_id":"levelo_inurba_marseille","lat":43.29622,"lon":5.37151,"is_reserved":false,"is_disabled":false,"rental_uris":{"android":"levelo://app?vid=746ae8de-7461-4808-a3da-d7e1a9fab1ac","ios":"levelo://app?vid=746ae8de-7461-4808-a3da-d7e1a9fab1ac"},"vehicle_type_id":"4","last_reported":1689098973,"current_range_meters":28800,"station_id":"ce4bgnh2rcd13ifvqc0g","pricing_plan_id":"free"},{"bike_id":"06b050c1-f19b-4f51-89ee-190fb7b6f1ab","system_id":"levelo_inurba_marseille","lat":43.29573,"lon":5.367355,"is_reserved":false,"is_disabled":false,"rental_uris":{"android":"levelo://app?vid=06b050c1-f19b-4f51-89ee-190fb7b6f1ab","ios":"levelo://app?vid=06b050c1-f19b-4f51-89ee-190fb7b6f1ab"},"vehicle_type_id":"4","last_reported":1689098973,"current_range_meters":30800,"station_id":"ce4bgph2rcd13ifvqc2g","pricing_plan_id":"free"},{"bike_id":"e0e482bb-9a83-4ca6-8280-aed0e051ec9b","system_id":"levelo_inurba_marseille","lat":43.29621,"lon":5.37157,"is_reserved":false,"is_disabled":false,"rental_uris":{"android":"levelo://app?vid=e0e482bb-9a83-4ca6-8280-aed0e051ec9b","ios":"levelo://app?vid=e0e482bb-9a83-4ca6-8280-aed0e051ec9b"},"vehicle_type_id":"4","last_reported":1689098973,"current_range_meters":25200,"station_id":"ce4bgnh2rcd13ifvqc0g","pricing_plan_id":"free"},{"bike_id":"7065ec92-6110-4733-80c2-bad078394238","system_id":"levelo_inurba_marseille","lat":43.29621,"lon":5.37157,"is_reserved":false,"is_disabled":false,"rental_uris":{"android":"levelo://app?vid=7065ec92-6110-4733-80c2-bad078394238","ios":"levelo://app?vid=7065ec92-6110-4733-80c2-bad078394238"},"vehicle_type_id":"4","last_reported":1689098973,"current_range_meters":29600,"station_id":"ce4bgnh2rcd13ifvqc0g","pricing_plan_id":"free"},{"bike_id":"b2c97c2a-d9ad-4943-be29-bd44f0909516","system_id":"levelo_inurba_marseille","lat":43.2962,"lon":5.37154,"is_reserved":false,"is_disabled":false,"rental_uris":{"android":"levelo://app?vid=b2c97c2a-d9ad-4943-be29-bd44f0909516","ios":"levelo://app?vid=b2c97c2a-d9ad-4943-be29-bd44f0909516"},"vehicle_type_id":"4","last_reported":1689098973,"current_range_meters":20800,"station_id":"ce4bgnh2rcd13ifvqc0g","pricing_plan_id":"free"},{"bike_id":"75638656-7879-443f-affa-9b9cfb37f0fe","system_id":"levelo_inurba_marseille","lat":43.29586,"lon":5.36742,"is_reserved":false,"is_disabled":false,"rental_uris":{"android":"levelo://app?vid=75638656-7879-443f-affa-9b9cfb37f0fe","ios":"levelo://app?vid=75638656-7879-443f-affa-9b9cfb37f0fe"},"vehicle_type_id":"4","last_reported":1689098973,"current_range_meters":24800,"station_id":"ce4bgph2rcd13ifvqc2g","pricing_plan_id":"free"},{"bike_id":"ed2fac1a-337f-4f74-93a8-aa9b4e958d2a","system_id":"levelo_inurba_marseille","lat":43.29586,"lon":5.36746,"is_reserved":false,"is_disabled":false,"rental_uris":{"android":"levelo://app?vid=ed2fac1a-337f-4f74-93a8-aa9b4e958d2a","ios":"levelo://app?vid=ed2fac1a-337f-4f74-93a8-aa9b4e958d2a"},"vehicle_type_id":"4","last_reported":1689098973,"current_range_meters":26000,"station_id":"ce4bgph2rcd13ifvqc2g","pricing_plan_id":"free"},{"bike_id":"50ae40b8-e431-4ac2-a47f-6959c96c7181","system_id":"levelo_inurba_marseille","lat":43.29619,"lon":5.37157,"is_reserved":false,"is_disabled":false,"rental_uris":{"android":"levelo://app?vid=50ae40b8-e431-4ac2-a47f-6959c96c7181","ios":"levelo://app?vid=50ae40b8-e431-4ac2-a47f-6959c96c7181"},"vehicle_type_id":"4","last_reported":1689098973,"current_range_meters":6400,"station_id":"ce4bgnh2rcd13ifvqc0g","pricing_plan_id":"free"},{"bike_id":"681ff7d1-e0c6-47ea-ab79-1317fadbc245","system_id":"levelo_inurba_marseille","lat":43.29583,"lon":5.36747,"is_reserved":false,"is_disabled":false,"rental_uris":{"android":"levelo://app?vid=681ff7d1-e0c6-47ea-ab79-1317fadbc245","ios":"levelo://app?vid=681ff7d1-e0c6-47ea-ab79-1317fadbc245"},"vehicle_type_id":"4","last_reported":1689098973,"current_range_meters":1200,"station_id":"","pricing_plan_id":"free"},{"bike_id":"4d069a9d-add7-412e-ab05-ed268995fee9","system_id":"levelo_inurba_marseille","lat":43.29582,"lon":5.36738,"is_reserved":false,"is_disabled":false,"rental_uris":{"android":"levelo://app?vid=4d069a9d-add7-412e-ab05-ed268995fee9","ios":"levelo://app?vid=4d069a9d-add7-412e-ab05-ed268995fee9"},"vehicle_type_id":"4","last_reported":1689098973,"current_range_meters":12400,"station_id":"ce4bgph2rcd13ifvqc2g","pricing_plan_id":"free"},{"bike_id":"a6816788-b487-4f37-a45e-a8d5253c3dcc","system_id":"levelo_inurba_marseille","lat":43.29573,"lon":5.367355,"is_reserved":false,"is_disabled":false,"rental_uris":{"android":"levelo://app?vid=a6816788-b487-4f37-a45e-a8d5253c3dcc","ios":"levelo://app?vid=a6816788-b487-4f37-a45e-a8d5253c3dcc"},"vehicle_type_id":"4","last_reported":1689098973,"current_range_meters":10400,"station_id":"ce4bgph2rcd13ifvqc2g","pricing_plan_id":"free"},{"bike_id":"e53b0f13-a54a-46cc-a9c7-9b7c10dbb0a6","system_id":"levelo_inurba_marseille","lat":43.29582,"lon":5.36745,"is_reserved":false,"is_disabled":false,"rental_uris":{"android":"levelo://app?vid=e53b0f13-a54a-46cc-a9c7-9b7c10dbb0a6","ios":"levelo://app?vid=e53b0f13-a54a-46cc-a9c7-9b7c10dbb0a6"},"vehicle_type_id":"4","last_reported":1689098973,"current_range_meters":13200,"station_id":"ce4bgph2rcd13ifvqc2g","pricing_plan_id":"free"},{"bike_id":"9febabb4-de2c-4630-9611-dcefee142a43","system_id":"levelo_inurba_marseille","lat":43.29582,"lon":5.36745,"is_reserved":false,"is_disabled":false,"rental_uris":{"android":"levelo://app?vid=9febabb4-de2c-4630-9611-dcefee142a43","ios":"levelo://app?vid=9febabb4-de2c-4630-9611-dcefee142a43"},"vehicle_type_id":"4","last_reported":1689098973,"current_range_meters":12800,"station_id":"ce4bgph2rcd13ifvqc2g","pricing_plan_id":"free"},{"bike_id":"6e5a3965-756c-4196-b3eb-25ce1a97f8d2","system_id":"levelo_inurba_marseille","lat":43.29573,"lon":5.367355,"is_reserved":false,"is_disabled":false,"rental_uris":{"android":"levelo://app?vid=6e5a3965-756c-4196-b3eb-25ce1a97f8d2","ios":"levelo://app?vid=6e5a3965-756c-4196-b3eb-25ce1a97f8d2"},"vehicle_type_id":"4","last_reported":1689098973,"current_range_meters":5200,"station_id":"ce4bgph2rcd13ifvqc2g","pricing_plan_id":"free"},{"bike_id":"3ff50c47-93cd-435d-88ef-fc29d06cb836","system_id":"levelo_inurba_marseille","lat":43.295818,"lon":5.367508,"is_reserved":false,"is_disabled":false,"rental_uris":{"android":"levelo://app?vid=3ff50c47-93cd-435d-88ef-fc29d06cb836","ios":"levelo://app?vid=3ff50c47-93cd-435d-88ef-fc29d06cb836"},"vehicle_type_id":"4","last_reported":1689098973,"current_range_meters":16800,"station_id":"ce4bgph2rcd13ifvqc2g","pricing_plan_id":"free"},{"bike_id":"8ede39fa-56c4-4058-92e2-a61f06a9122b","system_id":"levelo_inurba_marseille","lat":43.29581,"lon":5.36752,"is_reserved":false,"is_disabled":false,"rental_uris":{"android":"levelo://app?vid=8ede39fa-56c4-4058-92e2-a61f06a9122b","ios":"levelo://app?vid=8ede39fa-56c4-4058-92e2-a61f06a9122b"},"vehicle_type_id":"4","last_reported":1689098973,"current_range_meters":17600,"station_id":"ce4bgph2rcd13ifvqc2g","pricing_plan_id":"free"},{"bike_id":"7c1f223b-a9bf-4d2f-889d-60badc516ac7","system_id":"levelo_inurba_marseille","lat":43.2958,"lon":5.36738,"is_reserved":false,"is_disabled":false,"rental_uris":{"android":"levelo://app?vid=7c1f223b-a9bf-4d2f-889d-60badc516ac7","ios":"levelo://app?vid=7c1f223b-a9bf-4d2f-889d-60badc516ac7"},"vehicle_type_id":"4","last_reported":1689098973,"current_range_meters":29200,"station_id":"ce4bgph2rcd13ifvqc2g","pricing_plan_id":"free"},{"bike_id":"6da12b32-8763-477f-8f71-a7953dec56d6","system_id":"levelo_inurba_marseille","lat":43.29573,"lon":5.367355,"is_reserved":false,"is_disabled":false,"rental_uris":{"android":"levelo://app?vid=6da12b32-8763-477f-8f71-a7953dec56d6","ios":"levelo://app?vid=6da12b32-8763-477f-8f71-a7953dec56d6"},"vehicle_type_id":"4","last_reported":1689098973,"current_range_meters":18400,"station_id":"ce4bgph2rcd13ifvqc2g","pricing_plan_id":"free"},{"bike_id":"4fb240b2-7871-4791-8cfb-062ec580be6b","system_id":"levelo_inurba_marseille","lat":43.2958,"lon":5.3675,"is_reserved":false,"is_disabled":false,"rental_uris":{"android":"levelo://app?vid=4fb240b2-7871-4791-8cfb-062ec580be6b","ios":"levelo://app?vid=4fb240b2-7871-4791-8cfb-062ec580be6b"},"vehicle_type_id":"4","last_reported":1689098973,"current_range_meters":7200,"station_id":"ce4bgph2rcd13ifvqc2g","pricing_plan_id":"free"},{"bike_id":"edb05402-0369-48fb-9e75-576501dbcd90","system_id":"levelo_inurba_marseille","lat":43.29573,"lon":5.367355,"is_reserved":false,"is_disabled":false,"rental_uris":{"android":"levelo://app?vid=edb05402-0369-48fb-9e75-576501dbcd90","ios":"levelo://app?vid=edb05402-0369-48fb-9e75-576501dbcd90"},"vehicle_type_id":"4","last_reported":1689098973,"current_range_meters":20000,"station_id":"ce4bgph2rcd13ifvqc2g","pricing_plan_id":"free"},{"bike_id":"0eac30cf-16d3-42df-b986-e795f24c3413","system_id":"levelo_inurba_marseille","lat":43.29577,"lon":5.3674,"is_reserved":false,"is_disabled":false,"rental_uris":{"android":"levelo://app?vid=0eac30cf-16d3-42df-b986-e795f24c3413","ios":"levelo://app?vid=0eac30cf-16d3-42df-b986-e795f24c3413"},"vehicle_type_id":"4","last_reported":1689098973,"current_range_meters":23600,"station_id":"ce4bgph2rcd13ifvqc2g","pricing_plan_id":"free"},{"bike_id":"c77f01bc-2589-488d-b2af-8e641fc79de7","system_id":"levelo_inurba_marseille","lat":43.30954,"lon":5.39035,"is_reserved":false,"is_disabled":false,"rental_uris":{"android":"levelo://app?vid=c77f01bc-2589-488d-b2af-8e641fc79de7","ios":"levelo://app?vid=c77f01bc-2589-488d-b2af-8e641fc79de7"},"vehicle_type_id":"4","last_reported":1689098973,"current_range_meters":30800,"station_id":"ce4bgup2rcd13ifvqco0","pricing_plan_id":"free"},{"bike_id":"909c4fd6-c664-4469-be40-13db298a4140","system_id":"levelo_inurba_marseille","lat":43.30958,"lon":5.39043,"is_reserved":false,"is_disabled":false,"rental_uris":{"android":"levelo://app?vid=909c4fd6-c664-4469-be40-13db298a4140","ios":"levelo://app?vid=909c4fd6-c664-4469-be40-13db298a4140"},"vehicle_type_id":"4","last_reported":1689098973,"current_range_meters":0,"station_id":"ce4bgup2rcd13ifvqco0","pricing_plan_id":"free"},{"bike_id":"0b94d718-c38b-4f0f-82d3-55a93b41ddee","system_id":"levelo_inurba_marseille","lat":43.317557,"lon":5.390173,"is_reserved":false,"is_disabled":false,"rental_uris":{"android":"levelo://app?vid=0b94d718-c38b-4f0f-82d3-55a93b41ddee","ios":"levelo://app?vid=0b94d718-c38b-4f0f-82d3-55a93b41ddee"},"vehicle_type_id":"4","last_reported":1689098973,"current_range_meters":22800,"station_id":"ce4bhqp2rcd13ifvqhng","pricing_plan_id":"free"},{"bike_id":"d5723717-8f36-4514-bcde-f753dfeebd28","system_id":"levelo_inurba_marseille","lat":43.317557,"lon":5.390173,"is_reserved":false,"is_disabled":false,"rental_uris":{"android":"levelo://app?vid=d5723717-8f36-4514-bcde-f753dfeebd28","ios":"levelo://app?vid=d5723717-8f36-4514-bcde-f753dfeebd28"},"vehicle_type_id":"4","last_reported":1689098973,"current_range_meters":27200,"station_id":"ce4bhqp2rcd13ifvqhng","pricing_plan_id":"free"},{"bike_id":"d4f7cd59-0c2e-4cd9-acc0-d2db61240575","system_id":"levelo_inurba_marseille","lat":43.31858,"lon":5.38994,"is_reserved":false,"is_disabled":false,"rental_uris":{"android":"levelo://app?vid=d4f7cd59-0c2e-4cd9-acc0-d2db61240575","ios":"levelo://app?vid=d4f7cd59-0c2e-4cd9-acc0-d2db61240575"},"vehicle_type_id":"4","last_reported":1689098973,"current_range_meters":24000,"station_id":"","pricing_plan_id":"free"},{"bike_id":"7e8ca79d-6aa0-43d1-8dc5-eb4e29ef1805","system_id":"levelo_inurba_marseille","lat":43.298037,"lon":5.381066,"is_reserved":false,"is_disabled":false,"rental_uris":{"android":"levelo://app?vid=7e8ca79d-6aa0-43d1-8dc5-eb4e29ef1805","ios":"levelo://app?vid=7e8ca79d-6aa0-43d1-8dc5-eb4e29ef1805"},"vehicle_type_id":"4","last_reported":1689098973,"current_range_meters":10800,"station_id":"ce4bgip2rcd13ifvqbb0","pricing_plan_id":"free"},{"bike_id":"c30a5099-f455-4c0c-92e7-1cbd97d71391","system_id":"levelo_inurba_marseille","lat":43.295748,"lon":5.37522,"is_reserved":false,"is_disabled":false,"rental_uris":{"android":"levelo://app?vid=c30a5099-f455-4c0c-92e7-1cbd97d71391","ios":"levelo://app?vid=c30a5099-f455-4c0c-92e7-1cbd97d71391"},"vehicle_type_id":"4","last_reported":1689098973,"current_range_meters":3600,"station_id":"ce4bgh92rcd13ifvqb50","pricing_plan_id":"free"},{"bike_id":"1a68582d-764d-463a-8d64-86b8b0e33d3e","system_id":"levelo_inurba_marseille","lat":43.29582,"lon":5.37511,"is_reserved":false,"is_disabled":false,"rental_uris":{"android":"levelo://app?vid=1a68582d-764d-463a-8d64-86b8b0e33d3e","ios":"levelo://app?vid=1a68582d-764d-463a-8d64-86b8b0e33d3e"},"vehicle_type_id":"4","last_reported":1689098973,"current_range_meters":15200,"station_id":"ce4bgh92rcd13ifvqb50","pricing_plan_id":"free"},{"bike_id":"ba7b6fd0-6da2-42af-889d-0d2ac300f201","system_id":"levelo_inurba_marseille","lat":43.2958,"lon":5.3752,"is_reserved":false,"is_disabled":false,"rental_uris":{"android":"levelo://app?vid=ba7b6fd0-6da2-42af-889d-0d2ac300f201","ios":"levelo://app?vid=ba7b6fd0-6da2-42af-889d-0d2ac300f201"},"vehicle_type_id":"4","last_reported":1689098973,"current_range_meters":4400,"station_id":"ce4bgh92rcd13ifvqb50","pricing_plan_id":"free"},{"bike_id":"2f66300e-0a6a-4b65-9cdd-cf693a5ee17b","system_id":"levelo_inurba_marseille","lat":43.29576,"lon":5.37515,"is_reserved":false,"is_disabled":false,"rental_uris":{"android":"levelo://app?vid=2f66300e-0a6a-4b65-9cdd-cf693a5ee17b","ios":"levelo://app?vid=2f66300e-0a6a-4b65-9cdd-cf693a5ee17b"},"vehicle_type_id":"4","last_reported":1689098973,"current_range_meters":5600,"station_id":"ce4bgh92rcd13ifvqb50","pricing_plan_id":"free"},{"bike_id":"f617e6f1-af80-4190-a28d-264c7426bd8e","system_id":"levelo_inurba_marseille","lat":43.29577,"lon":5.37519,"is_reserved":false,"is_disabled":false,"rental_uris":{"android":"levelo://app?vid=f617e6f1-af80-4190-a28d-264c7426bd8e","ios":"levelo://app?vid=f617e6f1-af80-4190-a28d-264c7426bd8e"},"vehicle_type_id":"4","last_reported":1689098973,"current_range_meters":15600,"station_id":"ce4bgh92rcd13ifvqb50","pricing_plan_id":"free"},{"bike_id":"502a9c9c-0c3f-4b09-bfa6-b942c93d45b2","system_id":"levelo_inurba_marseille","lat":43.295748,"lon":5.37522,"is_reserved":false,"is_disabled":false,"rental_uris":{"android":"levelo://app?vid=502a9c9c-0c3f-4b09-bfa6-b942c93d45b2","ios":"levelo://app?vid=502a9c9c-0c3f-4b09-bfa6-b942c93d45b2"},"vehicle_type_id":"4","last_reported":1689098973,"current_range_meters":8800,"station_id":"ce4bgh92rcd13ifvqb50","pricing_plan_id":"free"},{"bike_id":"d06997f3-9bfc-408e-941b-727d7b8ca80a","system_id":"levelo_inurba_marseille","lat":43.295748,"lon":5.37522,"is_reserved":false,"is_disabled":false,"rental_uris":{"android":"levelo://app?vid=d06997f3-9bfc-408e-941b-727d7b8ca80a","ios":"levelo://app?vid=d06997f3-9bfc-408e-941b-727d7b8ca80a"},"vehicle_type_id":"4","last_reported":1689098973,"current_range_meters":18800,"station_id":"ce4bgh92rcd13ifvqb50","pricing_plan_id":"free"},{"bike_id":"872e3c61-2ed5-46be-a5fa-8e6647a0d2b1","system_id":"levelo_inurba_marseille","lat":43.295748,"lon":5.37522,"is_reserved":false,"is_disabled":false,"rental_uris":{"android":"levelo://app?vid=872e3c61-2ed5-46be-a5fa-8e6647a0d2b1","ios":"levelo://app?vid=872e3c61-2ed5-46be-a5fa-8e6647a0d2b1"},"vehicle_type_id":"4","last_reported":1689098973,"current_range_meters":15600,"station_id":"ce4bgh92rcd13ifvqb50","pricing_plan_id":"free"},{"bike_id":"d5b8186f-af0d-4df9-a17f-28b78edbb50e","system_id":"levelo_inurba_marseille","lat":43.29573,"lon":5.37514,"is_reserved":false,"is_disabled":false,"rental_uris":{"android":"levelo://app?vid=d5b8186f-af0d-4df9-a17f-28b78edbb50e","ios":"levelo://app?vid=d5b8186f-af0d-4df9-a17f-28b78edbb50e"},"vehicle_type_id":"4","last_reported":1689098973,"current_range_meters":28000,"station_id":"ce4bgh92rcd13ifvqb50","pricing_plan_id":"free"},{"bike_id":"888e520d-4d20-401b-9d2e-c6250aed328c","system_id":"levelo_inurba_marseille","lat":43.29577,"lon":5.3753,"is_reserved":false,"is_disabled":false,"rental_uris":{"android":"levelo://app?vid=888e520d-4d20-401b-9d2e-c6250aed328c","ios":"levelo://app?vid=888e520d-4d20-401b-9d2e-c6250aed328c"},"vehicle_type_id":"4","last_reported":1689098973,"current_range_meters":800,"station_id":"ce4bgh92rcd13ifvqb50","pricing_plan_id":"free"},{"bike_id":"25927939-00bd-4057-9df4-71dd2f22ba7e","system_id":"levelo_inurba_marseille","lat":43.29575,"lon":5.37525,"is_reserved":false,"is_disabled":false,"rental_uris":{"android":"levelo://app?vid=25927939-00bd-4057-9df4-71dd2f22ba7e","ios":"levelo://app?vid=25927939-00bd-4057-9df4-71dd2f22ba7e"},"vehicle_type_id":"4","last_reported":1689098973,"current_range_meters":11200,"station_id":"ce4bgh92rcd13ifvqb50","pricing_plan_id":"free"},{"bike_id":"6bb4066b-dfcc-4449-aee9-b32b06aa7d19","system_id":"levelo_inurba_marseille","lat":43.304278,"lon":5.388868,"is_reserved":false,"is_disabled":false,"rental_uris":{"android":"levelo://app?vid=6bb4066b-dfcc-4449-aee9-b32b06aa7d19","ios":"levelo://app?vid=6bb4066b-dfcc-4449-aee9-b32b06aa7d19"},"vehicle_type_id":"4","last_reported":1689098973,"current_range_meters":4400,"station_id":"ce4bgk12rcd13ifvqbi0","pricing_plan_id":"free"},{"bike_id":"326782fa-ef64-445d-9eef-340a40c68045","system_id":"levelo_inurba_marseille","lat":43.29572,"lon":5.37524,"is_reserved":false,"is_disabled":false,"rental_uris":{"android":"levelo://app?vid=326782fa-ef64-445d-9eef-340a40c68045","ios":"levelo://app?vid=326782fa-ef64-445d-9eef-340a40c68045"},"vehicle_type_id":"4","last_reported":1689098973,"current_range_meters":20400,"station_id":"ce4bgh92rcd13ifvqb50","pricing_plan_id":"free"},{"bike_id":"70a496d9-82ad-48be-9494-0064ba1510c9","system_id":"levelo_inurba_marseille","lat":43.304278,"lon":5.388868,"is_reserved":false,"is_disabled":false,"rental_uris":{"android":"levelo://app?vid=70a496d9-82ad-48be-9494-0064ba1510c9","ios":"levelo://app?vid=70a496d9-82ad-48be-9494-0064ba1510c9"},"vehicle_type_id":"4","last_reported":1689098973,"current_range_meters":30000,"station_id":"ce4bgk12rcd13ifvqbi0","pricing_plan_id":"free"},{"bike_id":"e4463e2c-5300-4c4c-973a-362563a1bc81","system_id":"levelo_inurba_marseille","lat":43.304278,"lon":5.388868,"is_reserved":false,"is_disabled":false,"rental_uris":{"android":"levelo://app?vid=e4463e2c-5300-4c4c-973a-362563a1bc81","ios":"levelo://app?vid=e4463e2c-5300-4c4c-973a-362563a1bc81"},"vehicle_type_id":"4","last_reported":1689098973,"current_range_meters":12400,"station_id":"ce4bgk12rcd13ifvqbi0","pricing_plan_id":"free"},{"bike_id":"d62b4710-bb91-4715-b497-7fd81cdf7ffb","system_id":"levelo_inurba_marseille","lat":43.295748,"lon":5.37522,"is_reserved":false,"is_disabled":false,"rental_uris":{"android":"levelo://app?vid=d62b4710-bb91-4715-b497-7fd81cdf7ffb","ios":"levelo://app?vid=d62b4710-bb91-4715-b497-7fd81cdf7ffb"},"vehicle_type_id":"4","last_reported":1689098973,"current_range_meters":20400,"station_id":"ce4bgh92rcd13ifvqb50","pricing_plan_id":"free"},{"bike_id":"93ef2490-9e80-4666-95c9-04a9296a28bf","system_id":"levelo_inurba_marseille","lat":43.30421,"lon":5.38891,"is_reserved":false,"is_disabled":false,"rental_uris":{"android":"levelo://app?vid=93ef2490-9e80-4666-95c9-04a9296a28bf","ios":"levelo://app?vid=93ef2490-9e80-4666-95c9-04a9296a28bf"},"vehicle_type_id":"4","last_reported":1689098973,"current_range_meters":21200,"station_id":"ce4bgk12rcd13ifvqbi0","pricing_plan_id":"free"},{"bike_id":"9c4cc360-45d0-416a-9da3-d95f6bae58e8","system_id":"levelo_inurba_marseille","lat":43.295748,"lon":5.37522,"is_reserved":false,"is_disabled":false,"rental_uris":{"android":"levelo://app?vid=9c4cc360-45d0-416a-9da3-d95f6bae58e8","ios":"levelo://app?vid=9c4cc360-45d0-416a-9da3-d95f6bae58e8"},"vehicle_type_id":"4","last_reported":1689098973,"current_range_meters":20400,"station_id":"ce4bgh92rcd13ifvqb50","pricing_plan_id":"free"},{"bike_id":"38a0e2d9-f3a1-47ad-acf4-60492b636e45","system_id":"levelo_inurba_marseille","lat":43.304278,"lon":5.388868,"is_reserved":false,"is_disabled":false,"rental_uris":{"android":"levelo://app?vid=38a0e2d9-f3a1-47ad-acf4-60492b636e45","ios":"levelo://app?vid=38a0e2d9-f3a1-47ad-acf4-60492b636e45"},"vehicle_type_id":"4","last_reported":1689098973,"current_range_meters":29600,"station_id":"ce4bgk12rcd13ifvqbi0","pricing_plan_id":"free"},{"bike_id":"b0c88ef8-5fa2-4695-9630-efe84ea21e2c","system_id":"levelo_inurba_marseille","lat":43.304278,"lon":5.388868,"is_reserved":false,"is_disabled":false,"rental_uris":{"android":"levelo://app?vid=b0c88ef8-5fa2-4695-9630-efe84ea21e2c","ios":"levelo://app?vid=b0c88ef8-5fa2-4695-9630-efe84ea21e2c"},"vehicle_type_id":"4","last_reported":1689098973,"current_range_meters":22000,"station_id":"ce4bgk12rcd13ifvqbi0","pricing_plan_id":"free"},{"bike_id":"b3fcf93a-9145-4663-ac31-c2b3d5f68630","system_id":"levelo_inurba_marseille","lat":43.295279,"lon":5.375048,"is_reserved":false,"is_disabled":false,"rental_uris":{"android":"levelo://app?vid=b3fcf93a-9145-4663-ac31-c2b3d5f68630","ios":"levelo://app?vid=b3fcf93a-9145-4663-ac31-c2b3d5f68630"},"vehicle_type_id":"4","last_reported":1689098973,"current_range_meters":4400,"station_id":"ce4bgkp2rcd13ifvqbmg","pricing_plan_id":"free"},{"bike_id":"28889971-f879-483d-a962-efb5663e89e4","system_id":"levelo_inurba_marseille","lat":43.295279,"lon":5.375048,"is_reserved":false,"is_disabled":false,"rental_uris":{"android":"levelo://app?vid=28889971-f879-483d-a962-efb5663e89e4","ios":"levelo://app?vid=28889971-f879-483d-a962-efb5663e89e4"},"vehicle_type_id":"4","last_reported":1689098973,"current_range_meters":14000,"station_id":"ce4bgkp2rcd13ifvqbmg","pricing_plan_id":"free"},{"bike_id":"e0d01d93-40ca-41ab-9e1f-7cde254fa207","system_id":"levelo_inurba_marseille","lat":43.295279,"lon":5.375048,"is_reserved":false,"is_disabled":false,"rental_uris":{"android":"levelo://app?vid=e0d01d93-40ca-41ab-9e1f-7cde254fa207","ios":"levelo://app?vid=e0d01d93-40ca-41ab-9e1f-7cde254fa207"},"vehicle_type_id":"4","last_reported":1689098973,"current_range_meters":6000,"station_id":"ce4bgkp2rcd13ifvqbmg","pricing_plan_id":"free"},{"bike_id":"4b7871bf-09fc-4230-8806-9e5b152b9b1b","system_id":"levelo_inurba_marseille","lat":43.29522,"lon":5.37497,"is_reserved":false,"is_disabled":false,"rental_uris":{"android":"levelo://app?vid=4b7871bf-09fc-4230-8806-9e5b152b9b1b","ios":"levelo://app?vid=4b7871bf-09fc-4230-8806-9e5b152b9b1b"},"vehicle_type_id":"4","last_reported":1689098973,"current_range_meters":14400,"station_id":"ce4bgkp2rcd13ifvqbmg","pricing_plan_id":"free"},{"bike_id":"c039a1f1-4ed4-40dc-ad92-d635d122c5db","system_id":"levelo_inurba_marseille","lat":43.295279,"lon":5.375048,"is_reserved":false,"is_disabled":false,"rental_uris":{"android":"levelo://app?vid=c039a1f1-4ed4-40dc-ad92-d635d122c5db","ios":"levelo://app?vid=c039a1f1-4ed4-40dc-ad92-d635d122c5db"},"vehicle_type_id":"4","last_reported":1689098973,"current_range_meters":8000,"station_id":"ce4bgkp2rcd13ifvqbmg","pricing_plan_id":"free"},{"bike_id":"983509fc-90ae-4241-ac68-e784440d07f8","system_id":"levelo_inurba_marseille","lat":43.32367,"lon":5.388836,"is_reserved":false,"is_disabled":false,"rental_uris":{"android":"levelo://app?vid=983509fc-90ae-4241-ac68-e784440d07f8","ios":"levelo://app?vid=983509fc-90ae-4241-ac68-e784440d07f8"},"vehicle_type_id":"4","last_reported":1689098973,"current_range_meters":18000,"station_id":"ce4bhqp2rcd13ifvqhog","pricing_plan_id":"free"},{"bike_id":"e7a214e7-e874-4cd1-9dd0-9349e66bb712","system_id":"levelo_inurba_marseille","lat":43.32365,"lon":5.38884,"is_reserved":false,"is_disabled":false,"rental_uris":{"android":"levelo://app?vid=e7a214e7-e874-4cd1-9dd0-9349e66bb712","ios":"levelo://app?vid=e7a214e7-e874-4cd1-9dd0-9349e66bb712"},"vehicle_type_id":"4","last_reported":1689098973,"current_range_meters":21200,"station_id":"ce4bhqp2rcd13ifvqhog","pricing_plan_id":"free"},{"bike_id":"d4a21e6a-fb36-4b76-a953-da76a8bc5cd0","system_id":"levelo_inurba_marseille","lat":43.32366,"lon":5.38885,"is_reserved":false,"is_disabled":false,"rental_uris":{"android":"levelo://app?vid=d4a21e6a-fb36-4b76-a953-da76a8bc5cd0","ios":"levelo://app?vid=d4a21e6a-fb36-4b76-a953-da76a8bc5cd0"},"vehicle_type_id":"4","last_reported":1689098973,"current_range_meters":20800,"station_id":"ce4bhqp2rcd13ifvqhog","pricing_plan_id":"free"},{"bike_id":"ce67efb7-7bd9-4278-8dde-4a18585b5692","system_id":"levelo_inurba_marseille","lat":43.32367,"lon":5.388836,"is_reserved":false,"is_disabled":false,"rental_uris":{"android":"levelo://app?vid=ce67efb7-7bd9-4278-8dde-4a18585b5692","ios":"levelo://app?vid=ce67efb7-7bd9-4278-8dde-4a18585b5692"},"vehicle_type_id":"4","last_reported":1689098973,"current_range_meters":19600,"station_id":"ce4bhqp2rcd13ifvqhog","pricing_plan_id":"free"},{"bike_id":"d9314bd9-8eec-4438-85dc-a2e6fbb2955e","system_id":"levelo_inurba_marseille","lat":43.32367,"lon":5.388836,"is_reserved":false,"is_disabled":false,"rental_uris":{"android":"levelo://app?vid=d9314bd9-8eec-4438-85dc-a2e6fbb2955e","ios":"levelo://app?vid=d9314bd9-8eec-4438-85dc-a2e6fbb2955e"},"vehicle_type_id":"4","last_reported":1689098973,"current_range_meters":19200,"station_id":"ce4bhqp2rcd13ifvqhog","pricing_plan_id":"free"},{"bike_id":"bccdbb3e-6651-4827-8680-339bf885c73c","system_id":"levelo_inurba_marseille","lat":43.29602,"lon":5.381084,"is_reserved":false,"is_disabled":false,"rental_uris":{"android":"levelo://app?vid=bccdbb3e-6651-4827-8680-339bf885c73c","ios":"levelo://app?vid=bccdbb3e-6651-4827-8680-339bf885c73c"},"vehicle_type_id":"4","last_reported":1689098973,"current_range_meters":22000,"station_id":"ce4bgl12rcd13ifvqbo0","pricing_plan_id":"free"},{"bike_id":"41ba94e2-a0d7-47fb-914f-4ddf628552a4","system_id":"levelo_inurba_marseille","lat":43.293249,"lon":5.371578,"is_reserved":false,"is_disabled":false,"rental_uris":{"android":"levelo://app?vid=41ba94e2-a0d7-47fb-914f-4ddf628552a4","ios":"levelo://app?vid=41ba94e2-a0d7-47fb-914f-4ddf628552a4"},"vehicle_type_id":"4","last_reported":1689098973,"current_range_meters":25600,"station_id":"ce4bgh92rcd13ifvqb40","pricing_plan_id":"free"},{"bike_id":"c66de962-daf9-4879-b07a-17c0861d4753","system_id":"levelo_inurba_marseille","lat":43.292749,"lon":5.368402,"is_reserved":false,"is_disabled":false,"rental_uris":{"android":"levelo://app?vid=c66de962-daf9-4879-b07a-17c0861d4753","ios":"levelo://app?vid=c66de962-daf9-4879-b07a-17c0861d4753"},"vehicle_type_id":"4","last_reported":1689098973,"current_range_meters":2400,"station_id":"ce4bhbp2rcd13ifvqesg","pricing_plan_id":"free"},{"bike_id":"9eec1f18-3043-47a2-a883-6b2701b58a7e","system_id":"levelo_inurba_marseille","lat":43.293009,"lon":5.374584,"is_reserved":false,"is_disabled":false,"rental_uris":{"android":"levelo://app?vid=9eec1f18-3043-47a2-a883-6b2701b58a7e","ios":"levelo://app?vid=9eec1f18-3043-47a2-a883-6b2701b58a7e"},"vehicle_type_id":"4","last_reported":1689098973,"current_range_meters":28800,"station_id":"ce4bgi12rcd13ifvqb70","pricing_plan_id":"free"},{"bike_id":"aa74be1b-37a9-4767-960c-8c6ccf13a322","system_id":"levelo_inurba_marseille","lat":43.293009,"lon":5.374584,"is_reserved":false,"is_disabled":false,"rental_uris":{"android":"levelo://app?vid=aa74be1b-37a9-4767-960c-8c6ccf13a322","ios":"levelo://app?vid=aa74be1b-37a9-4767-960c-8c6ccf13a322"},"vehicle_type_id":"4","last_reported":1689098973,"current_range_meters":4000,"station_id":"ce4bgi12rcd13ifvqb70","pricing_plan_id":"free"},{"bike_id":"bfa35c6f-8725-459e-909f-8b374e153ce3","system_id":"levelo_inurba_marseille","lat":43.305994,"lon":5.393687,"is_reserved":false,"is_disabled":false,"rental_uris":{"android":"levelo://app?vid=bfa35c6f-8725-459e-909f-8b374e153ce3","ios":"levelo://app?vid=bfa35c6f-8725-459e-909f-8b374e153ce3"},"vehicle_type_id":"4","last_reported":1689098973,"current_range_meters":31200,"station_id":"ce4bh0p2rcd13ifvqd80","pricing_plan_id":"free"},{"bike_id":"0ab93e16-fd17-4774-ad2d-d026acf4e21a","system_id":"levelo_inurba_marseille","lat":43.29304,"lon":5.37461,"is_reserved":false,"is_disabled":false,"rental_uris":{"android":"levelo://app?vid=0ab93e16-fd17-4774-ad2d-d026acf4e21a","ios":"levelo://app?vid=0ab93e16-fd17-4774-ad2d-d026acf4e21a"},"vehicle_type_id":"4","last_reported":1689098973,"current_range_meters":12800,"station_id":"ce4bgi12rcd13ifvqb70","pricing_plan_id":"free"},{"bike_id":"cfcc7c5f-3793-44a7-8498-398e38f28b63","system_id":"levelo_inurba_marseille","lat":43.293009,"lon":5.374584,"is_reserved":false,"is_disabled":false,"rental_uris":{"android":"levelo://app?vid=cfcc7c5f-3793-44a7-8498-398e38f28b63","ios":"levelo://app?vid=cfcc7c5f-3793-44a7-8498-398e38f28b63"},"vehicle_type_id":"4","last_reported":1689098973,"current_range_meters":23200,"station_id":"ce4bgi12rcd13ifvqb70","pricing_plan_id":"free"},{"bike_id":"74d4b531-ad30-4148-8648-ed9ea8909e47","system_id":"levelo_inurba_marseille","lat":43.302992,"lon":5.392136,"is_reserved":false,"is_disabled":false,"rental_uris":{"android":"levelo://app?vid=74d4b531-ad30-4148-8648-ed9ea8909e47","ios":"levelo://app?vid=74d4b531-ad30-4148-8648-ed9ea8909e47"},"vehicle_type_id":"4","last_reported":1689098973,"current_range_meters":0,"station_id":"ce4bgkh2rcd13ifvqbk0","pricing_plan_id":"free"},{"bike_id":"29b73554-47be-41fb-a9ae-f34a266a10a4","system_id":"levelo_inurba_marseille","lat":43.29229,"lon":5.36064,"is_reserved":false,"is_disabled":false,"rental_uris":{"android":"levelo://app?vid=29b73554-47be-41fb-a9ae-f34a266a10a4","ios":"levelo://app?vid=29b73554-47be-41fb-a9ae-f34a266a10a4"},"vehicle_type_id":"4","last_reported":1689098973,"current_range_meters":16400,"station_id":"ce4bhbh2rcd13ifvqeqg","pricing_plan_id":"free"},{"bike_id":"513f09ec-ec56-4d7c-b9d4-047169b67fc0","system_id":"levelo_inurba_marseille","lat":43.29228,"lon":5.36067,"is_reserved":false,"is_disabled":false,"rental_uris":{"android":"levelo://app?vid=513f09ec-ec56-4d7c-b9d4-047169b67fc0","ios":"levelo://app?vid=513f09ec-ec56-4d7c-b9d4-047169b67fc0"},"vehicle_type_id":"4","last_reported":1689098973,"current_range_meters":7200,"station_id":"ce4bhbh2rcd13ifvqeqg","pricing_plan_id":"free"},{"bike_id":"ff8d735f-91a9-4db9-90ce-2d11a8275512","system_id":"levelo_inurba_marseille","lat":43.30085,"lon":5.390856,"is_reserved":false,"is_disabled":false,"rental_uris":{"android":"levelo://app?vid=ff8d735f-91a9-4db9-90ce-2d11a8275512","ios":"levelo://app?vid=ff8d735f-91a9-4db9-90ce-2d11a8275512"},"vehicle_type_id":"4","last_reported":1689098973,"current_range_meters":20400,"station_id":"ce4bh192rcd13ifvqdb0","pricing_plan_id":"free"},{"bike_id":"6bddba65-6efc-41b7-b290-1e79a6395149","system_id":"levelo_inurba_marseille","lat":43.30085,"lon":5.390856,"is_reserved":false,"is_disabled":false,"rental_uris":{"android":"levelo://app?vid=6bddba65-6efc-41b7-b290-1e79a6395149","ios":"levelo://app?vid=6bddba65-6efc-41b7-b290-1e79a6395149"},"vehicle_type_id":"4","last_reported":1689098973,"current_range_meters":24800,"station_id":"ce4bh192rcd13ifvqdb0","pricing_plan_id":"free"},{"bike_id":"7b4ac1a1-953e-4f56-88c8-3f7e15574478","system_id":"levelo_inurba_marseille","lat":43.292277,"lon":5.360559,"is_reserved":false,"is_disabled":false,"rental_uris":{"android":"levelo://app?vid=7b4ac1a1-953e-4f56-88c8-3f7e15574478","ios":"levelo://app?vid=7b4ac1a1-953e-4f56-88c8-3f7e15574478"},"vehicle_type_id":"4","last_reported":1689098973,"current_range_meters":26000,"station_id":"ce4bhbh2rcd13ifvqeqg","pricing_plan_id":"free"},{"bike_id":"3454f23e-d2d2-4fa3-ba8c-cafa7ce53228","system_id":"levelo_inurba_marseille","lat":43.29219,"lon":5.36062,"is_reserved":false,"is_disabled":false,"rental_uris":{"android":"levelo://app?vid=3454f23e-d2d2-4fa3-ba8c-cafa7ce53228","ios":"levelo://app?vid=3454f23e-d2d2-4fa3-ba8c-cafa7ce53228"},"vehicle_type_id":"4","last_reported":1689098973,"current_range_meters":6000,"station_id":"ce4bhbh2rcd13ifvqeqg","pricing_plan_id":"free"},{"bike_id":"a4a80885-e51f-4360-aed3-a687743870c2","system_id":"levelo_inurba_marseille","lat":43.29882,"lon":5.38898,"is_reserved":false,"is_disabled":false,"rental_uris":{"android":"levelo://app?vid=a4a80885-e51f-4360-aed3-a687743870c2","ios":"levelo://app?vid=a4a80885-e51f-4360-aed3-a687743870c2"},"vehicle_type_id":"4","last_reported":1689098973,"current_range_meters":9200,"station_id":"","pricing_plan_id":"free"},{"bike_id":"937dad20-fcae-451d-bd52-b0c16ab59352","system_id":"levelo_inurba_marseille","lat":43.292663,"lon":5.376394,"is_reserved":false,"is_disabled":false,"rental_uris":{"android":"levelo://app?vid=937dad20-fcae-451d-bd52-b0c16ab59352","ios":"levelo://app?vid=937dad20-fcae-451d-bd52-b0c16ab59352"},"vehicle_type_id":"4","last_reported":1689098973,"current_range_meters":0,"station_id":"ce4bgi12rcd13ifvqb80","pricing_plan_id":"free"},{"bike_id":"a3fab6c3-fb25-49cc-ab81-b1ef5a55e6d8","system_id":"levelo_inurba_marseille","lat":43.29165,"lon":5.37166,"is_reserved":false,"is_disabled":false,"rental_uris":{"android":"levelo://app?vid=a3fab6c3-fb25-49cc-ab81-b1ef5a55e6d8","ios":"levelo://app?vid=a3fab6c3-fb25-49cc-ab81-b1ef5a55e6d8"},"vehicle_type_id":"4","last_reported":1689098973,"current_range_meters":29200,"station_id":"","pricing_plan_id":"free"},{"bike_id":"73295848-8a16-4ff2-b1a2-d1dafa99c007","system_id":"levelo_inurba_marseille","lat":43.291994,"lon":5.357886,"is_reserved":false,"is_disabled":false,"rental_uris":{"android":"levelo://app?vid=73295848-8a16-4ff2-b1a2-d1dafa99c007","ios":"levelo://app?vid=73295848-8a16-4ff2-b1a2-d1dafa99c007"},"vehicle_type_id":"4","last_reported":1689098973,"current_range_meters":9600,"station_id":"ce4bhb12rcd13ifvqel0","pricing_plan_id":"free"},{"bike_id":"cc21d79b-3ee8-4746-8e20-ffdddbdcb6d6","system_id":"levelo_inurba_marseille","lat":43.291994,"lon":5.357886,"is_reserved":false,"is_disabled":false,"rental_uris":{"android":"levelo://app?vid=cc21d79b-3ee8-4746-8e20-ffdddbdcb6d6","ios":"levelo://app?vid=cc21d79b-3ee8-4746-8e20-ffdddbdcb6d6"},"vehicle_type_id":"4","last_reported":1689098973,"current_range_meters":13200,"station_id":"ce4bhb12rcd13ifvqel0","pricing_plan_id":"free"},{"bike_id":"d24f5eaf-125c-48ef-8b30-f32f4516a1a2","system_id":"levelo_inurba_marseille","lat":43.29196,"lon":5.35799,"is_reserved":false,"is_disabled":false,"rental_uris":{"android":"levelo://app?vid=d24f5eaf-125c-48ef-8b30-f32f4516a1a2","ios":"levelo://app?vid=d24f5eaf-125c-48ef-8b30-f32f4516a1a2"},"vehicle_type_id":"4","last_reported":1689098973,"current_range_meters":6000,"station_id":"ce4bhb12rcd13ifvqel0","pricing_plan_id":"free"},{"bike_id":"5e12703f-2efc-4abb-8921-8e82a8ae8a61","system_id":"levelo_inurba_marseille","lat":43.29195,"lon":5.35798,"is_reserved":false,"is_disabled":false,"rental_uris":{"android":"levelo://app?vid=5e12703f-2efc-4abb-8921-8e82a8ae8a61","ios":"levelo://app?vid=5e12703f-2efc-4abb-8921-8e82a8ae8a61"},"vehicle_type_id":"4","last_reported":1689098973,"current_range_meters":2400,"station_id":"ce4bhb12rcd13ifvqel0","pricing_plan_id":"free"},{"bike_id":"f53fa176-0e99-4fd9-b3ba-b339394ff628","system_id":"levelo_inurba_marseille","lat":43.31328,"lon":5.39688,"is_reserved":false,"is_disabled":false,"rental_uris":{"android":"levelo://app?vid=f53fa176-0e99-4fd9-b3ba-b339394ff628","ios":"levelo://app?vid=f53fa176-0e99-4fd9-b3ba-b339394ff628"},"vehicle_type_id":"4","last_reported":1689098973,"current_range_meters":30000,"station_id":"ce4bgvp2rcd13ifvqcu0","pricing_plan_id":"free"},{"bike_id":"2bf82982-d9af-46d7-9976-ba09391a217e","system_id":"levelo_inurba_marseille","lat":43.31328,"lon":5.39691,"is_reserved":false,"is_disabled":false,"rental_uris":{"android":"levelo://app?vid=2bf82982-d9af-46d7-9976-ba09391a217e","ios":"levelo://app?vid=2bf82982-d9af-46d7-9976-ba09391a217e"},"vehicle_type_id":"4","last_reported":1689098973,"current_range_meters":4800,"station_id":"","pricing_plan_id":"free"},{"bike_id":"ec8fae45-4583-498c-b917-0e4c674ca928","system_id":"levelo_inurba_marseille","lat":43.31334,"lon":5.39691,"is_reserved":false,"is_disabled":false,"rental_uris":{"android":"levelo://app?vid=ec8fae45-4583-498c-b917-0e4c674ca928","ios":"levelo://app?vid=ec8fae45-4583-498c-b917-0e4c674ca928"},"vehicle_type_id":"4","last_reported":1689098973,"current_range_meters":22400,"station_id":"ce4bgvp2rcd13ifvqcu0","pricing_plan_id":"free"},{"bike_id":"98126cae-3564-4fd8-81da-d31f3f94b0ae","system_id":"levelo_inurba_marseille","lat":43.31326,"lon":5.39696,"is_reserved":false,"is_disabled":false,"rental_uris":{"android":"levelo://app?vid=98126cae-3564-4fd8-81da-d31f3f94b0ae","ios":"levelo://app?vid=98126cae-3564-4fd8-81da-d31f3f94b0ae"},"vehicle_type_id":"4","last_reported":1689098973,"current_range_meters":8800,"station_id":"","pricing_plan_id":"free"},{"bike_id":"4bab8186-2c97-4c76-9f3f-e32f854ace41","system_id":"levelo_inurba_marseille","lat":43.31328,"lon":5.39696,"is_reserved":false,"is_disabled":false,"rental_uris":{"android":"levelo://app?vid=4bab8186-2c97-4c76-9f3f-e32f854ace41","ios":"levelo://app?vid=4bab8186-2c97-4c76-9f3f-e32f854ace41"},"vehicle_type_id":"4","last_reported":1689098973,"current_range_meters":30000,"station_id":"","pricing_plan_id":"free"},{"bike_id":"9f2d38c8-2549-4939-825b-66aa5facf70d","system_id":"levelo_inurba_marseille","lat":43.309038,"lon":5.396546,"is_reserved":false,"is_disabled":false,"rental_uris":{"android":"levelo://app?vid=9f2d38c8-2549-4939-825b-66aa5facf70d","ios":"levelo://app?vid=9f2d38c8-2549-4939-825b-66aa5facf70d"},"vehicle_type_id":"4","last_reported":1689098973,"current_range_meters":17200,"station_id":"ce4bh012rcd13ifvqcv0","pricing_plan_id":"free"},{"bike_id":"b01fb2d1-8167-4916-8969-df74ea46eb74","system_id":"levelo_inurba_marseille","lat":43.31328,"lon":5.397,"is_reserved":false,"is_disabled":false,"rental_uris":{"android":"levelo://app?vid=b01fb2d1-8167-4916-8969-df74ea46eb74","ios":"levelo://app?vid=b01fb2d1-8167-4916-8969-df74ea46eb74"},"vehicle_type_id":"4","last_reported":1689098973,"current_range_meters":30000,"station_id":"ce4bgvp2rcd13ifvqcu0","pricing_plan_id":"free"},{"bike_id":"c92c9ee2-bda9-4ec5-b9d3-4a97cc0864cc","system_id":"levelo_inurba_marseille","lat":43.309105,"lon":5.396606,"is_reserved":false,"is_disabled":false,"rental_uris":{"android":"levelo://app?vid=c92c9ee2-bda9-4ec5-b9d3-4a97cc0864cc","ios":"levelo://app?vid=c92c9ee2-bda9-4ec5-b9d3-4a97cc0864cc"},"vehicle_type_id":"4","last_reported":1689098973,"current_range_meters":19200,"station_id":"","pricing_plan_id":"free"},{"bike_id":"3ec620dc-8eb1-457b-b32d-cc2ca08c863c","system_id":"levelo_inurba_marseille","lat":43.31325,"lon":5.39702,"is_reserved":false,"is_disabled":false,"rental_uris":{"android":"levelo://app?vid=3ec620dc-8eb1-457b-b32d-cc2ca08c863c","ios":"levelo://app?vid=3ec620dc-8eb1-457b-b32d-cc2ca08c863c"},"vehicle_type_id":"4","last_reported":1689098973,"current_range_meters":12400,"station_id":"","pricing_plan_id":"free"},{"bike_id":"3c6e02cd-275b-4a79-9c7e-8ac0aaec9f21","system_id":"levelo_inurba_marseille","lat":43.30885,"lon":5.39666,"is_reserved":false,"is_disabled":false,"rental_uris":{"android":"levelo://app?vid=3c6e02cd-275b-4a79-9c7e-8ac0aaec9f21","ios":"levelo://app?vid=3c6e02cd-275b-4a79-9c7e-8ac0aaec9f21"},"vehicle_type_id":"4","last_reported":1689098973,"current_range_meters":20400,"station_id":"ce4bh012rcd13ifvqcv0","pricing_plan_id":"free"},{"bike_id":"e93b7145-be52-489f-9752-68a4574c42f9","system_id":"levelo_inurba_marseille","lat":43.29531,"lon":5.38535,"is_reserved":false,"is_disabled":false,"rental_uris":{"android":"levelo://app?vid=e93b7145-be52-489f-9752-68a4574c42f9","ios":"levelo://app?vid=e93b7145-be52-489f-9752-68a4574c42f9"},"vehicle_type_id":"4","last_reported":1689098973,"current_range_meters":20000,"station_id":"ce4bgih2rcd13ifvqba0","pricing_plan_id":"free"},{"bike_id":"e445c95b-c296-4abc-9866-36579b8cafaa","system_id":"levelo_inurba_marseille","lat":43.290779,"lon":5.371482,"is_reserved":false,"is_disabled":false,"rental_uris":{"android":"levelo://app?vid=e445c95b-c296-4abc-9866-36579b8cafaa","ios":"levelo://app?vid=e445c95b-c296-4abc-9866-36579b8cafaa"},"vehicle_type_id":"4","last_reported":1689098973,"current_range_meters":28800,"station_id":"ce4bh5p2rcd13ifvqe4g","pricing_plan_id":"free"},{"bike_id":"b5060b51-6a97-416a-ba10-2b5705fbb7fc","system_id":"levelo_inurba_marseille","lat":43.302008,"lon":5.394694,"is_reserved":false,"is_disabled":false,"rental_uris":{"android":"levelo://app?vid=b5060b51-6a97-416a-ba10-2b5705fbb7fc","ios":"levelo://app?vid=b5060b51-6a97-416a-ba10-2b5705fbb7fc"},"vehicle_type_id":"4","last_reported":1689098973,"current_range_meters":2400,"station_id":"ce4bh0p2rcd13ifvqd70","pricing_plan_id":"free"},{"bike_id":"b878674a-9a16-4472-9294-88f4e1f47ed3","system_id":"levelo_inurba_marseille","lat":43.302008,"lon":5.394694,"is_reserved":false,"is_disabled":false,"rental_uris":{"android":"levelo://app?vid=b878674a-9a16-4472-9294-88f4e1f47ed3","ios":"levelo://app?vid=b878674a-9a16-4472-9294-88f4e1f47ed3"},"vehicle_type_id":"4","last_reported":1689098973,"current_range_meters":31200,"station_id":"ce4bh0p2rcd13ifvqd70","pricing_plan_id":"free"},{"bike_id":"5a90cce0-142a-4383-a14a-5788662c8bfb","system_id":"levelo_inurba_marseille","lat":43.302008,"lon":5.394694,"is_reserved":false,"is_disabled":false,"rental_uris":{"android":"levelo://app?vid=5a90cce0-142a-4383-a14a-5788662c8bfb","ios":"levelo://app?vid=5a90cce0-142a-4383-a14a-5788662c8bfb"},"vehicle_type_id":"4","last_reported":1689098973,"current_range_meters":16000,"station_id":"ce4bh0p2rcd13ifvqd70","pricing_plan_id":"free"},{"bike_id":"a521c25f-3625-4420-a347-febd8fd96d6c","system_id":"levelo_inurba_marseille","lat":43.302008,"lon":5.394694,"is_reserved":false,"is_disabled":false,"rental_uris":{"android":"levelo://app?vid=a521c25f-3625-4420-a347-febd8fd96d6c","ios":"levelo://app?vid=a521c25f-3625-4420-a347-febd8fd96d6c"},"vehicle_type_id":"4","last_reported":1689098973,"current_range_meters":12000,"station_id":"ce4bh0p2rcd13ifvqd70","pricing_plan_id":"free"},{"bike_id":"58cb8d7d-290d-4c86-aca9-82b7893d51a3","system_id":"levelo_inurba_marseille","lat":43.30206,"lon":5.3947,"is_reserved":false,"is_disabled":false,"rental_uris":{"android":"levelo://app?vid=58cb8d7d-290d-4c86-aca9-82b7893d51a3","ios":"levelo://app?vid=58cb8d7d-290d-4c86-aca9-82b7893d51a3"},"vehicle_type_id":"4","last_reported":1689098973,"current_range_meters":12000,"station_id":"ce4bh0p2rcd13ifvqd70","pricing_plan_id":"free"},{"bike_id":"5760c98a-6532-46a6-bb23-aa0c96989d21","system_id":"levelo_inurba_marseille","lat":43.302008,"lon":5.394694,"is_reserved":false,"is_disabled":false,"rental_uris":{"android":"levelo://app?vid=5760c98a-6532-46a6-bb23-aa0c96989d21","ios":"levelo://app?vid=5760c98a-6532-46a6-bb23-aa0c96989d21"},"vehicle_type_id":"4","last_reported":1689098973,"current_range_meters":31600,"station_id":"ce4bh0p2rcd13ifvqd70","pricing_plan_id":"free"},{"bike_id":"d5f3e4ac-8892-47a4-a20d-a069786b44bc","system_id":"levelo_inurba_marseille","lat":43.302008,"lon":5.394694,"is_reserved":false,"is_disabled":false,"rental_uris":{"android":"levelo://app?vid=d5f3e4ac-8892-47a4-a20d-a069786b44bc","ios":"levelo://app?vid=d5f3e4ac-8892-47a4-a20d-a069786b44bc"},"vehicle_type_id":"4","last_reported":1689098973,"current_range_meters":31200,"station_id":"ce4bh0p2rcd13ifvqd70","pricing_plan_id":"free"},{"bike_id":"f0e2aa12-46bc-4120-b507-d05e7f4c7ab1","system_id":"levelo_inurba_marseille","lat":43.302008,"lon":5.394694,"is_reserved":false,"is_disabled":false,"rental_uris":{"android":"levelo://app?vid=f0e2aa12-46bc-4120-b507-d05e7f4c7ab1","ios":"levelo://app?vid=f0e2aa12-46bc-4120-b507-d05e7f4c7ab1"},"vehicle_type_id":"4","last_reported":1689098973,"current_range_meters":31600,"station_id":"ce4bh0p2rcd13ifvqd70","pricing_plan_id":"free"},{"bike_id":"97d53da2-41cc-4608-8c0d-2247e35451a8","system_id":"levelo_inurba_marseille","lat":43.290631,"lon":5.359244,"is_reserved":false,"is_disabled":false,"rental_uris":{"android":"levelo://app?vid=97d53da2-41cc-4608-8c0d-2247e35451a8","ios":"levelo://app?vid=97d53da2-41cc-4608-8c0d-2247e35451a8"},"vehicle_type_id":"4","last_reported":1689098973,"current_range_meters":22800,"station_id":"ce4bha92rcd13ifvqeg0","pricing_plan_id":"free"},{"bike_id":"825225e9-ebc5-4187-8f18-b29286616b9a","system_id":"levelo_inurba_marseille","lat":43.290624,"lon":5.359245,"is_reserved":false,"is_disabled":false,"rental_uris":{"android":"levelo://app?vid=825225e9-ebc5-4187-8f18-b29286616b9a","ios":"levelo://app?vid=825225e9-ebc5-4187-8f18-b29286616b9a"},"vehicle_type_id":"4","last_reported":1689098973,"current_range_meters":31200,"station_id":"ce4bha92rcd13ifvqeg0","pricing_plan_id":"free"},{"bike_id":"b6998888-5e44-4d6b-a03f-c224532e9d74","system_id":"levelo_inurba_marseille","lat":43.290631,"lon":5.359244,"is_reserved":false,"is_disabled":false,"rental_uris":{"android":"levelo://app?vid=b6998888-5e44-4d6b-a03f-c224532e9d74","ios":"levelo://app?vid=b6998888-5e44-4d6b-a03f-c224532e9d74"},"vehicle_type_id":"4","last_reported":1689098973,"current_range_meters":31200,"station_id":"ce4bha92rcd13ifvqeg0","pricing_plan_id":"free"},{"bike_id":"f58ea4a8-7fac-4cbf-8f56-88edaa48dc04","system_id":"levelo_inurba_marseille","lat":43.290631,"lon":5.359244,"is_reserved":false,"is_disabled":false,"rental_uris":{"android":"levelo://app?vid=f58ea4a8-7fac-4cbf-8f56-88edaa48dc04","ios":"levelo://app?vid=f58ea4a8-7fac-4cbf-8f56-88edaa48dc04"},"vehicle_type_id":"4","last_reported":1689098973,"current_range_meters":14000,"station_id":"ce4bha92rcd13ifvqeg0","pricing_plan_id":"free"},{"bike_id":"5b97e2d6-2244-4e0e-9fb8-f6b49f6aa7e3","system_id":"levelo_inurba_marseille","lat":43.290631,"lon":5.359244,"is_reserved":false,"is_disabled":false,"rental_uris":{"android":"levelo://app?vid=5b97e2d6-2244-4e0e-9fb8-f6b49f6aa7e3","ios":"levelo://app?vid=5b97e2d6-2244-4e0e-9fb8-f6b49f6aa7e3"},"vehicle_type_id":"4","last_reported":1689098973,"current_range_meters":27200,"station_id":"ce4bha92rcd13ifvqeg0","pricing_plan_id":"free"},{"bike_id":"6fb92cb4-0e36-426f-944a-4e2d392138cf","system_id":"levelo_inurba_marseille","lat":43.29035,"lon":5.35917,"is_reserved":false,"is_disabled":false,"rental_uris":{"android":"levelo://app?vid=6fb92cb4-0e36-426f-944a-4e2d392138cf","ios":"levelo://app?vid=6fb92cb4-0e36-426f-944a-4e2d392138cf"},"vehicle_type_id":"4","last_reported":1689098973,"current_range_meters":21600,"station_id":"","pricing_plan_id":"free"},{"bike_id":"ecc2a999-4a38-4223-b1b5-1b9958071361","system_id":"levelo_inurba_marseille","lat":43.294153,"lon":5.386305,"is_reserved":false,"is_disabled":false,"rental_uris":{"android":"levelo://app?vid=ecc2a999-4a38-4223-b1b5-1b9958071361","ios":"levelo://app?vid=ecc2a999-4a38-4223-b1b5-1b9958071361"},"vehicle_type_id":"4","last_reported":1689098973,"current_range_meters":14400,"station_id":"ce4bh2h2rcd13ifvqdh0","pricing_plan_id":"free"},{"bike_id":"a325ec54-fac6-435b-bd18-7c9107e968d9","system_id":"levelo_inurba_marseille","lat":43.289184,"lon":5.366408,"is_reserved":false,"is_disabled":false,"rental_uris":{"android":"levelo://app?vid=a325ec54-fac6-435b-bd18-7c9107e968d9","ios":"levelo://app?vid=a325ec54-fac6-435b-bd18-7c9107e968d9"},"vehicle_type_id":"4","last_reported":1689098973,"current_range_meters":31200,"station_id":"ce4bhap2rcd13ifvqek0","pricing_plan_id":"free"},{"bike_id":"ec4c55f5-573f-438a-a358-50c7f2e95fba","system_id":"levelo_inurba_marseille","lat":43.294153,"lon":5.386305,"is_reserved":false,"is_disabled":false,"rental_uris":{"android":"levelo://app?vid=ec4c55f5-573f-438a-a358-50c7f2e95fba","ios":"levelo://app?vid=ec4c55f5-573f-438a-a358-50c7f2e95fba"},"vehicle_type_id":"4","last_reported":1689098973,"current_range_meters":14000,"station_id":"ce4bh2h2rcd13ifvqdh0","pricing_plan_id":"free"},{"bike_id":"c11b2f67-640e-44fa-a63c-add8832a3438","system_id":"levelo_inurba_marseille","lat":43.294162,"lon":5.386292,"is_reserved":false,"is_disabled":false,"rental_uris":{"android":"levelo://app?vid=c11b2f67-640e-44fa-a63c-add8832a3438","ios":"levelo://app?vid=c11b2f67-640e-44fa-a63c-add8832a3438"},"vehicle_type_id":"4","last_reported":1689098973,"current_range_meters":8800,"station_id":"ce4bh2h2rcd13ifvqdh0","pricing_plan_id":"free"},{"bike_id":"601443de-519b-40b4-ad2f-b6e71ed00208","system_id":"levelo_inurba_marseille","lat":43.294162,"lon":5.386292,"is_reserved":false,"is_disabled":false,"rental_uris":{"android":"levelo://app?vid=601443de-519b-40b4-ad2f-b6e71ed00208","ios":"levelo://app?vid=601443de-519b-40b4-ad2f-b6e71ed00208"},"vehicle_type_id":"4","last_reported":1689098973,"current_range_meters":1600,"station_id":"ce4bh2h2rcd13ifvqdh0","pricing_plan_id":"free"},{"bike_id":"3f1a91c0-3cbd-4d9a-b71b-b91d4e6431ea","system_id":"levelo_inurba_marseille","lat":43.289184,"lon":5.366408,"is_reserved":false,"is_disabled":false,"rental_uris":{"android":"levelo://app?vid=3f1a91c0-3cbd-4d9a-b71b-b91d4e6431ea","ios":"levelo://app?vid=3f1a91c0-3cbd-4d9a-b71b-b91d4e6431ea"},"vehicle_type_id":"4","last_reported":1689098973,"current_range_meters":27600,"station_id":"ce4bhap2rcd13ifvqek0","pricing_plan_id":"free"},{"bike_id":"46ce9e63-7d89-4138-84cb-798de6c1e9b0","system_id":"levelo_inurba_marseille","lat":43.289184,"lon":5.366408,"is_reserved":false,"is_disabled":false,"rental_uris":{"android":"levelo://app?vid=46ce9e63-7d89-4138-84cb-798de6c1e9b0","ios":"levelo://app?vid=46ce9e63-7d89-4138-84cb-798de6c1e9b0"},"vehicle_type_id":"4","last_reported":1689098973,"current_range_meters":25200,"station_id":"ce4bhap2rcd13ifvqek0","pricing_plan_id":"free"},{"bike_id":"b382805d-62f2-4e5d-a7ae-82dfee69327b","system_id":"levelo_inurba_marseille","lat":43.289184,"lon":5.366408,"is_reserved":false,"is_disabled":false,"rental_uris":{"android":"levelo://app?vid=b382805d-62f2-4e5d-a7ae-82dfee69327b","ios":"levelo://app?vid=b382805d-62f2-4e5d-a7ae-82dfee69327b"},"vehicle_type_id":"4","last_reported":1689098973,"current_range_meters":12800,"station_id":"ce4bhap2rcd13ifvqek0","pricing_plan_id":"free"},{"bike_id":"f6887d43-6139-4cac-bc6b-1a9e75b48ecc","system_id":"levelo_inurba_marseille","lat":43.289184,"lon":5.366408,"is_reserved":false,"is_disabled":false,"rental_uris":{"android":"levelo://app?vid=f6887d43-6139-4cac-bc6b-1a9e75b48ecc","ios":"levelo://app?vid=f6887d43-6139-4cac-bc6b-1a9e75b48ecc"},"vehicle_type_id":"4","last_reported":1689098973,"current_range_meters":8000,"station_id":"ce4bhap2rcd13ifvqek0","pricing_plan_id":"free"},{"bike_id":"e42ca61b-5089-48a1-865b-40003237dad5","system_id":"levelo_inurba_marseille","lat":43.294162,"lon":5.386292,"is_reserved":false,"is_disabled":false,"rental_uris":{"android":"levelo://app?vid=e42ca61b-5089-48a1-865b-40003237dad5","ios":"levelo://app?vid=e42ca61b-5089-48a1-865b-40003237dad5"},"vehicle_type_id":"4","last_reported":1689098973,"current_range_meters":28000,"station_id":"ce4bh2h2rcd13ifvqdh0","pricing_plan_id":"free"},{"bike_id":"ed0f0481-46c2-4239-b5af-8c0dcfb1f002","system_id":"levelo_inurba_marseille","lat":43.289184,"lon":5.366408,"is_reserved":false,"is_disabled":false,"rental_uris":{"android":"levelo://app?vid=ed0f0481-46c2-4239-b5af-8c0dcfb1f002","ios":"levelo://app?vid=ed0f0481-46c2-4239-b5af-8c0dcfb1f002"},"vehicle_type_id":"4","last_reported":1689098973,"current_range_meters":16800,"station_id":"ce4bhap2rcd13ifvqek0","pricing_plan_id":"free"},{"bike_id":"c468875a-6dd3-4046-9ff5-a17b97133872","system_id":"levelo_inurba_marseille","lat":43.294162,"lon":5.386292,"is_reserved":false,"is_disabled":false,"rental_uris":{"android":"levelo://app?vid=c468875a-6dd3-4046-9ff5-a17b97133872","ios":"levelo://app?vid=c468875a-6dd3-4046-9ff5-a17b97133872"},"vehicle_type_id":"4","last_reported":1689098973,"current_range_meters":31200,"station_id":"ce4bh2h2rcd13ifvqdh0","pricing_plan_id":"free"},{"bike_id":"a9c781e8-53be-44be-8dad-4b05fb1da642","system_id":"levelo_inurba_marseille","lat":43.289184,"lon":5.366408,"is_reserved":false,"is_disabled":false,"rental_uris":{"android":"levelo://app?vid=a9c781e8-53be-44be-8dad-4b05fb1da642","ios":"levelo://app?vid=a9c781e8-53be-44be-8dad-4b05fb1da642"},"vehicle_type_id":"4","last_reported":1689098973,"current_range_meters":31200,"station_id":"ce4bhap2rcd13ifvqek0","pricing_plan_id":"free"},{"bike_id":"68d368ac-3c85-4f00-af58-68e7455312d8","system_id":"levelo_inurba_marseille","lat":43.290327,"lon":5.375711,"is_reserved":false,"is_disabled":false,"rental_uris":{"android":"levelo://app?vid=68d368ac-3c85-4f00-af58-68e7455312d8","ios":"levelo://app?vid=68d368ac-3c85-4f00-af58-68e7455312d8"},"vehicle_type_id":"4","last_reported":1689098973,"current_range_meters":20000,"station_id":"ce4bh692rcd13ifvqe90","pricing_plan_id":"free"},{"bike_id":"e0ffdbb3-8453-46da-b6ce-b6a35146bf4b","system_id":"levelo_inurba_marseille","lat":43.289184,"lon":5.366408,"is_reserved":false,"is_disabled":false,"rental_uris":{"android":"levelo://app?vid=e0ffdbb3-8453-46da-b6ce-b6a35146bf4b","ios":"levelo://app?vid=e0ffdbb3-8453-46da-b6ce-b6a35146bf4b"},"vehicle_type_id":"4","last_reported":1689098973,"current_range_meters":24000,"station_id":"ce4bhap2rcd13ifvqek0","pricing_plan_id":"free"},{"bike_id":"2a3722be-08c3-40cc-86e2-bfc1d471588b","system_id":"levelo_inurba_marseille","lat":43.289468,"lon":5.363719,"is_reserved":false,"is_disabled":false,"rental_uris":{"android":"levelo://app?vid=2a3722be-08c3-40cc-86e2-bfc1d471588b","ios":"levelo://app?vid=2a3722be-08c3-40cc-86e2-bfc1d471588b"},"vehicle_type_id":"4","last_reported":1689098973,"current_range_meters":4800,"station_id":"ce4bhc92rcd13ifvqetg","pricing_plan_id":"free"},{"bike_id":"1bc4fd66-1db6-4d50-8133-60251a71d7b3","system_id":"levelo_inurba_marseille","lat":43.289468,"lon":5.363719,"is_reserved":false,"is_disabled":false,"rental_uris":{"android":"levelo://app?vid=1bc4fd66-1db6-4d50-8133-60251a71d7b3","ios":"levelo://app?vid=1bc4fd66-1db6-4d50-8133-60251a71d7b3"},"vehicle_type_id":"4","last_reported":1689098973,"current_range_meters":8400,"station_id":"ce4bhc92rcd13ifvqetg","pricing_plan_id":"free"},{"bike_id":"10cec0a9-8481-41fc-9218-2d5ba29aeaa6","system_id":"levelo_inurba_marseille","lat":43.289468,"lon":5.363719,"is_reserved":false,"is_disabled":false,"rental_uris":{"android":"levelo://app?vid=10cec0a9-8481-41fc-9218-2d5ba29aeaa6","ios":"levelo://app?vid=10cec0a9-8481-41fc-9218-2d5ba29aeaa6"},"vehicle_type_id":"4","last_reported":1689098973,"current_range_meters":31200,"station_id":"ce4bhc92rcd13ifvqetg","pricing_plan_id":"free"},{"bike_id":"79b01f7a-0164-465e-89b1-bfa669259211","system_id":"levelo_inurba_marseille","lat":43.289468,"lon":5.363719,"is_reserved":false,"is_disabled":false,"rental_uris":{"android":"levelo://app?vid=79b01f7a-0164-465e-89b1-bfa669259211","ios":"levelo://app?vid=79b01f7a-0164-465e-89b1-bfa669259211"},"vehicle_type_id":"4","last_reported":1689098973,"current_range_meters":26400,"station_id":"ce4bhc92rcd13ifvqetg","pricing_plan_id":"free"},{"bike_id":"b95046fe-4e31-460e-bd75-44d73cdf7f39","system_id":"levelo_inurba_marseille","lat":43.292642,"lon":5.384254,"is_reserved":false,"is_disabled":false,"rental_uris":{"android":"levelo://app?vid=b95046fe-4e31-460e-bd75-44d73cdf7f39","ios":"levelo://app?vid=b95046fe-4e31-460e-bd75-44d73cdf7f39"},"vehicle_type_id":"4","last_reported":1689098973,"current_range_meters":28800,"station_id":"ce4bh692rcd13ifvqea0","pricing_plan_id":"free"},{"bike_id":"6fb23e41-5597-4835-9195-3e637ef2588b","system_id":"levelo_inurba_marseille","lat":43.292642,"lon":5.384254,"is_reserved":false,"is_disabled":false,"rental_uris":{"android":"levelo://app?vid=6fb23e41-5597-4835-9195-3e637ef2588b","ios":"levelo://app?vid=6fb23e41-5597-4835-9195-3e637ef2588b"},"vehicle_type_id":"4","last_reported":1689098973,"current_range_meters":17200,"station_id":"ce4bh692rcd13ifvqea0","pricing_plan_id":"free"},{"bike_id":"3d4c367d-27b9-4ee9-bd56-54f48f7df8ca","system_id":"levelo_inurba_marseille","lat":43.292644,"lon":5.384257,"is_reserved":false,"is_disabled":false,"rental_uris":{"android":"levelo://app?vid=3d4c367d-27b9-4ee9-bd56-54f48f7df8ca","ios":"levelo://app?vid=3d4c367d-27b9-4ee9-bd56-54f48f7df8ca"},"vehicle_type_id":"4","last_reported":1689098973,"current_range_meters":15200,"station_id":"ce4bh692rcd13ifvqea0","pricing_plan_id":"free"},{"bike_id":"68e1c80d-523c-46ce-94a9-bbfba7efb1cf","system_id":"levelo_inurba_marseille","lat":43.292644,"lon":5.384257,"is_reserved":false,"is_disabled":false,"rental_uris":{"android":"levelo://app?vid=68e1c80d-523c-46ce-94a9-bbfba7efb1cf","ios":"levelo://app?vid=68e1c80d-523c-46ce-94a9-bbfba7efb1cf"},"vehicle_type_id":"4","last_reported":1689098973,"current_range_meters":3200,"station_id":"ce4bh692rcd13ifvqea0","pricing_plan_id":"free"},{"bike_id":"bd2a9690-5602-49f8-a3b5-de9277ed3480","system_id":"levelo_inurba_marseille","lat":43.292642,"lon":5.384254,"is_reserved":false,"is_disabled":false,"rental_uris":{"android":"levelo://app?vid=bd2a9690-5602-49f8-a3b5-de9277ed3480","ios":"levelo://app?vid=bd2a9690-5602-49f8-a3b5-de9277ed3480"},"vehicle_type_id":"4","last_reported":1689098973,"current_range_meters":28000,"station_id":"ce4bh692rcd13ifvqea0","pricing_plan_id":"free"},{"bike_id":"f9ca56f6-64c7-4fe2-96f0-542854933907","system_id":"levelo_inurba_marseille","lat":43.292642,"lon":5.384254,"is_reserved":false,"is_disabled":false,"rental_uris":{"android":"levelo://app?vid=f9ca56f6-64c7-4fe2-96f0-542854933907","ios":"levelo://app?vid=f9ca56f6-64c7-4fe2-96f0-542854933907"},"vehicle_type_id":"4","last_reported":1689098973,"current_range_meters":13200,"station_id":"ce4bh692rcd13ifvqea0","pricing_plan_id":"free"},{"bike_id":"b028aeaf-e30f-4a50-ac1c-8f5140159a32","system_id":"levelo_inurba_marseille","lat":43.292644,"lon":5.384257,"is_reserved":false,"is_disabled":false,"rental_uris":{"android":"levelo://app?vid=b028aeaf-e30f-4a50-ac1c-8f5140159a32","ios":"levelo://app?vid=b028aeaf-e30f-4a50-ac1c-8f5140159a32"},"vehicle_type_id":"4","last_reported":1689098973,"current_range_meters":18400,"station_id":"ce4bh692rcd13ifvqea0","pricing_plan_id":"free"},{"bike_id":"98e0c11c-5fb4-4553-8a85-bd600ed85829","system_id":"levelo_inurba_marseille","lat":43.29264,"lon":5.38454,"is_reserved":false,"is_disabled":false,"rental_uris":{"android":"levelo://app?vid=98e0c11c-5fb4-4553-8a85-bd600ed85829","ios":"levelo://app?vid=98e0c11c-5fb4-4553-8a85-bd600ed85829"},"vehicle_type_id":"4","last_reported":1689098973,"current_range_meters":29600,"station_id":"ce4bh692rcd13ifvqea0","pricing_plan_id":"free"},{"bike_id":"be125038-00e4-455d-af9e-9f78199249d3","system_id":"levelo_inurba_marseille","lat":43.29263,"lon":5.38455,"is_reserved":false,"is_disabled":false,"rental_uris":{"android":"levelo://app?vid=be125038-00e4-455d-af9e-9f78199249d3","ios":"levelo://app?vid=be125038-00e4-455d-af9e-9f78199249d3"},"vehicle_type_id":"4","last_reported":1689098973,"current_range_meters":11600,"station_id":"ce4bh692rcd13ifvqea0","pricing_plan_id":"free"},{"bike_id":"fe1ebc01-043c-4be4-938a-fcc3f622142f","system_id":"levelo_inurba_marseille","lat":43.292644,"lon":5.384257,"is_reserved":false,"is_disabled":false,"rental_uris":{"android":"levelo://app?vid=fe1ebc01-043c-4be4-938a-fcc3f622142f","ios":"levelo://app?vid=fe1ebc01-043c-4be4-938a-fcc3f622142f"},"vehicle_type_id":"4","last_reported":1689098973,"current_range_meters":19200,"station_id":"ce4bh692rcd13ifvqea0","pricing_plan_id":"free"},{"bike_id":"33c8c6b8-01bb-4f56-9d1b-37b0080c65f5","system_id":"levelo_inurba_marseille","lat":43.33043,"lon":5.38913,"is_reserved":false,"is_disabled":false,"rental_uris":{"android":"levelo://app?vid=33c8c6b8-01bb-4f56-9d1b-37b0080c65f5","ios":"levelo://app?vid=33c8c6b8-01bb-4f56-9d1b-37b0080c65f5"},"vehicle_type_id":"4","last_reported":1689098973,"current_range_meters":24800,"station_id":"ce4bhr92rcd13ifvqhrg","pricing_plan_id":"free"},{"bike_id":"95017f1b-59be-4330-85d3-b3f9afde9c2e","system_id":"levelo_inurba_marseille","lat":43.290104,"lon":5.356111,"is_reserved":false,"is_disabled":false,"rental_uris":{"android":"levelo://app?vid=95017f1b-59be-4330-85d3-b3f9afde9c2e","ios":"levelo://app?vid=95017f1b-59be-4330-85d3-b3f9afde9c2e"},"vehicle_type_id":"4","last_reported":1689098973,"current_range_meters":25200,"station_id":"ce4bhb92rcd13ifvqen0","pricing_plan_id":"free"},{"bike_id":"743c1347-900e-40fd-b87f-fbaa24e62d44","system_id":"levelo_inurba_marseille","lat":43.33041,"lon":5.38924,"is_reserved":false,"is_disabled":false,"rental_uris":{"android":"levelo://app?vid=743c1347-900e-40fd-b87f-fbaa24e62d44","ios":"levelo://app?vid=743c1347-900e-40fd-b87f-fbaa24e62d44"},"vehicle_type_id":"4","last_reported":1689098973,"current_range_meters":10400,"station_id":"ce4bhr92rcd13ifvqhrg","pricing_plan_id":"free"},{"bike_id":"fafc27ae-dd2e-467a-91c2-549a493ee141","system_id":"levelo_inurba_marseille","lat":43.290104,"lon":5.356111,"is_reserved":false,"is_disabled":false,"rental_uris":{"android":"levelo://app?vid=fafc27ae-dd2e-467a-91c2-549a493ee141","ios":"levelo://app?vid=fafc27ae-dd2e-467a-91c2-549a493ee141"},"vehicle_type_id":"4","last_reported":1689098973,"current_range_meters":17600,"station_id":"ce4bhb92rcd13ifvqen0","pricing_plan_id":"free"},{"bike_id":"7b5a69de-827f-4f43-b655-5530807421df","system_id":"levelo_inurba_marseille","lat":43.33047,"lon":5.38916,"is_reserved":false,"is_disabled":false,"rental_uris":{"android":"levelo://app?vid=7b5a69de-827f-4f43-b655-5530807421df","ios":"levelo://app?vid=7b5a69de-827f-4f43-b655-5530807421df"},"vehicle_type_id":"4","last_reported":1689098973,"current_range_meters":4800,"station_id":"ce4bhr92rcd13ifvqhrg","pricing_plan_id":"free"},{"bike_id":"e14af37b-ad3c-4c8a-bad1-59401d959c20","system_id":"levelo_inurba_marseille","lat":43.33045,"lon":5.3892,"is_reserved":false,"is_disabled":false,"rental_uris":{"android":"levelo://app?vid=e14af37b-ad3c-4c8a-bad1-59401d959c20","ios":"levelo://app?vid=e14af37b-ad3c-4c8a-bad1-59401d959c20"},"vehicle_type_id":"4","last_reported":1689098973,"current_range_meters":25200,"station_id":"ce4bhr92rcd13ifvqhrg","pricing_plan_id":"free"},{"bike_id":"ffc951d5-2882-44b4-91d5-daf6ce3ad8c8","system_id":"levelo_inurba_marseille","lat":43.33046,"lon":5.38919,"is_reserved":false,"is_disabled":false,"rental_uris":{"android":"levelo://app?vid=ffc951d5-2882-44b4-91d5-daf6ce3ad8c8","ios":"levelo://app?vid=ffc951d5-2882-44b4-91d5-daf6ce3ad8c8"},"vehicle_type_id":"4","last_reported":1689098973,"current_range_meters":24800,"station_id":"ce4bhr92rcd13ifvqhrg","pricing_plan_id":"free"},{"bike_id":"c80ba075-ea04-47a9-a3e4-189de8944ece","system_id":"levelo_inurba_marseille","lat":43.33046,"lon":5.38919,"is_reserved":false,"is_disabled":false,"rental_uris":{"android":"levelo://app?vid=c80ba075-ea04-47a9-a3e4-189de8944ece","ios":"levelo://app?vid=c80ba075-ea04-47a9-a3e4-189de8944ece"},"vehicle_type_id":"4","last_reported":1689098973,"current_range_meters":23200,"station_id":"ce4bhr92rcd13ifvqhrg","pricing_plan_id":"free"},{"bike_id":"e402f0f1-9559-4ab8-9071-67c65ec7adc7","system_id":"levelo_inurba_marseille","lat":43.33047,"lon":5.38918,"is_reserved":false,"is_disabled":false,"rental_uris":{"android":"levelo://app?vid=e402f0f1-9559-4ab8-9071-67c65ec7adc7","ios":"levelo://app?vid=e402f0f1-9559-4ab8-9071-67c65ec7adc7"},"vehicle_type_id":"4","last_reported":1689098973,"current_range_meters":23200,"station_id":"ce4bhr92rcd13ifvqhrg","pricing_plan_id":"free"},{"bike_id":"b294de62-ccd6-468d-a55f-ee43fd1f3ff7","system_id":"levelo_inurba_marseille","lat":43.33046,"lon":5.3892,"is_reserved":false,"is_disabled":false,"rental_uris":{"android":"levelo://app?vid=b294de62-ccd6-468d-a55f-ee43fd1f3ff7","ios":"levelo://app?vid=b294de62-ccd6-468d-a55f-ee43fd1f3ff7"},