{"last_updated":1773853380,"ttl":60,"version":"2.2","data":{"bikes":[{"bike_id":"890c0d04-aac0-4cef-9a1c-30b0c3214286","system_id":"levelo_inurba_marseille","lat":43.21185,"lon":5.35097,"is_reserved":false,"is_disabled":false,"rental_uris":{"android":"levelo://app?vid=890c0d04-aac0-4cef-9a1c-30b0c3214286","ios":"levelo://app?vid=890c0d04-aac0-4cef-9a1c-30b0c3214286"},"vehicle_type_id":"4","last_reported":1773853381,"current_range_meters":1600,"station_id":"st_cvj6sg6p6f1abm77japg","pricing_plan_id":"cebpf4jnsgd1na2vs0mg"},{"bike_id":"85b9db0a-cd48-4ab4-b76c-2d8bccf5baf0","system_id":"levelo_inurba_marseille","lat":43.29503,"lon":5.43292,"is_reserved":false,"is_disabled":false,"rental_uris":{"android":"levelo://app?vid=85b9db0a-cd48-4ab4-b76c-2d8bccf5baf0","ios":"levelo://app?vid=85b9db0a-cd48-4ab4-b76c-2d8bccf5baf0"},"vehicle_type_id":"4","last_reported":1773853381,"current_range_meters":2000,"station_id":"st_d3j5ugp08ojc73fj9d10","pricing_plan_id":"cebpf4jnsgd1na2vs0mg"},{"bike_id":"3c78306f-5f87-4ae4-8eda-f493985844a1","system_id":"levelo_inurba_marseille","lat":43.23199,"lon":5.35581,"is_reserved":false,"is_disabled":false,"rental_uris":{"android":"levelo://app?vid=3c78306f-5f87-4ae4-8eda-f493985844a1","ios":"levelo://app?vid=3c78306f-5f87-4ae4-8eda-f493985844a1"},"vehicle_type_id":"4","last_reported":1773853381,"current_range_meters":2800,"station_id":"ce4bhu92rcd13ifvqi70","pricing_plan_id":"cebpf4jnsgd1na2vs0mg"},{"bike_id":"48dd97dd-1a0e-411b-9342-de7b9e2ef26a","system_id":"levelo_inurba_marseille","lat":43.26552,"lon":5.37306,"is_reserved":false,"is_disabled":false,"rental_uris":{"android":"levelo://app?vid=48dd97dd-1a0e-411b-9342-de7b9e2ef26a","ios":"levelo://app?vid=48dd97dd-1a0e-411b-9342-de7b9e2ef26a"},"vehicle_type_id":"4","last_reported":1773853381,"current_range_meters":2800,"station_id":"ce4bhg12rcd13ifvqf70","pricing_plan_id":"cebpf4jnsgd1na2vs0mg"},{"bike_id":"57f59ea7-9661-484b-ab62-8930e39b76a3","system_id":"levelo_inurba_marseille","lat":43.23793,"lon":5.36635,"is_reserved":false,"is_disabled":false,"rental_uris":{"android":"levelo://app?vid=57f59ea7-9661-484b-ab62-8930e39b76a3","ios":"levelo://app?vid=57f59ea7-9661-484b-ab62-8930e39b76a3"},"vehicle_type_id":"4","last_reported":1773853381,"current_range_meters":2800,"station_id":"st_d3nk18o9ro0c73en2l3g","pricing_plan_id":"cebpf4jnsgd1na2vs0mg"},{"bike_id":"a0e9253c-2089-4551-a5a3-474b5ebf74d4","system_id":"levelo_inurba_marseille","lat":43.28421,"lon":5.3751,"is_reserved":false,"is_disabled":false,"rental_uris":{"android":"levelo://app?vid=a0e9253c-2089-4551-a5a3-474b5ebf74d4","ios":"levelo://app?vid=a0e9253c-2089-4551-a5a3-474b5ebf74d4"},"vehicle_type_id":"4","last_reported":1773853381,"current_range_meters":2800,"station_id":"ce4bh412rcd13ifvqds0","pricing_plan_id":"cebpf4jnsgd1na2vs0mg"},{"bike_id":"dcb82b3c-3ef6-4b66-af8c-1c0f84ef0309","system_id":"levelo_inurba_marseille","lat":43.26568,"lon":5.40325,"is_reserved":false,"is_disabled":false,"rental_uris":{"android":"levelo://app?vid=dcb82b3c-3ef6-4b66-af8c-1c0f84ef0309","ios":"levelo://app?vid=dcb82b3c-3ef6-4b66-af8c-1c0f84ef0309"},"vehicle_type_id":"4","last_reported":1773853381,"current_range_meters":2800,"station_id":"ce4bhmp2rcd13ifvqgng","pricing_plan_id":"cebpf4jnsgd1na2vs0mg"},{"bike_id":"25a84886-f772-4dd4-a9bf-720b12a46c32","system_id":"levelo_inurba_marseille","lat":43.30308,"lon":5.36862,"is_reserved":false,"is_disabled":false,"rental_uris":{"android":"levelo://app?vid=25a84886-f772-4dd4-a9bf-720b12a46c32","ios":"levelo://app?vid=25a84886-f772-4dd4-a9bf-720b12a46c32"},"vehicle_type_id":"4","last_reported":1773853381,"current_range_meters":2800,"station_id":"ce4bgqh2rcd13ifvqc5g","pricing_plan_id":"cebpf4jnsgd1na2vs0mg"},{"bike_id":"95d31319-d36d-403e-adf6-0b51cdaa5b1b","system_id":"levelo_inurba_marseille","lat":43.31346,"lon":5.39681,"is_reserved":false,"is_disabled":true,"rental_uris":{"android":"levelo://app?vid=95d31319-d36d-403e-adf6-0b51cdaa5b1b","ios":"levelo://app?vid=95d31319-d36d-403e-adf6-0b51cdaa5b1b"},"vehicle_type_id":"4","last_reported":1773853381,"current_range_meters":2800,"station_id":"ce4bgvp2rcd13ifvqcu0","pricing_plan_id":"cebpf4jnsgd1na2vs0mg"},{"bike_id":"ad03e7a8-2dd2-4307-81c3-c99cfbe1c191","system_id":"levelo_inurba_marseille","lat":43.29795,"lon":5.38084,"is_reserved":false,"is_disabled":false,"rental_uris":{"android":"levelo://app?vid=ad03e7a8-2dd2-4307-81c3-c99cfbe1c191","ios":"levelo://app?vid=ad03e7a8-2dd2-4307-81c3-c99cfbe1c191"},"vehicle_type_id":"4","last_reported":1773853381,"current_range_meters":2800,"station_id":"ce4bgip2rcd13ifvqbb0","pricing_plan_id":"cebpf4jnsgd1na2vs0mg"},{"bike_id":"86c54edf-6acc-40f7-860b-754c5203cb3d","system_id":"levelo_inurba_marseille","lat":43.29265,"lon":5.38449,"is_reserved":false,"is_disabled":false,"rental_uris":{"android":"levelo://app?vid=86c54edf-6acc-40f7-860b-754c5203cb3d","ios":"levelo://app?vid=86c54edf-6acc-40f7-860b-754c5203cb3d"},"vehicle_type_id":"4","last_reported":1773853381,"current_range_meters":2800,"station_id":"ce4bh692rcd13ifvqea0","pricing_plan_id":"cebpf4jnsgd1na2vs0mg"},{"bike_id":"609ff955-cede-4d9d-ac35-5530b696e6c2","system_id":"levelo_inurba_marseille","lat":43.2945,"lon":5.39753,"is_reserved":false,"is_disabled":false,"rental_uris":{"android":"levelo://app?vid=609ff955-cede-4d9d-ac35-5530b696e6c2","ios":"levelo://app?vid=609ff955-cede-4d9d-ac35-5530b696e6c2"},"vehicle_type_id":"4","last_reported":1773853381,"current_range_meters":2800,"station_id":"ce4bh3h2rcd13ifvqdo0","pricing_plan_id":"cebpf4jnsgd1na2vs0mg"},{"bike_id":"02e79ef5-73f0-4db6-b776-7a39c3a8e3e1","system_id":"levelo_inurba_marseille","lat":43.30647,"lon":5.40086,"is_reserved":false,"is_disabled":false,"rental_uris":{"android":"levelo://app?vid=02e79ef5-73f0-4db6-b776-7a39c3a8e3e1","ios":"levelo://app?vid=02e79ef5-73f0-4db6-b776-7a39c3a8e3e1"},"vehicle_type_id":"4","last_reported":1773853381,"current_range_meters":2800,"station_id":"ce4bh112rcd13ifvqda0","pricing_plan_id":"cebpf4jnsgd1na2vs0mg"},{"bike_id":"61e9b9cb-836c-40f4-ac65-c3931247b157","system_id":"levelo_inurba_marseille","lat":43.276633,"lon":5.388668,"is_reserved":false,"is_disabled":false,"rental_uris":{"android":"levelo://app?vid=61e9b9cb-836c-40f4-ac65-c3931247b157","ios":"levelo://app?vid=61e9b9cb-836c-40f4-ac65-c3931247b157"},"vehicle_type_id":"4","last_reported":1773853381,"current_range_meters":2800,"station_id":"ce4bhi12rcd13ifvqfo0","pricing_plan_id":"cebpf4jnsgd1na2vs0mg"},{"bike_id":"0edc70b6-d69b-4a82-b984-b6dcbfbcb380","system_id":"levelo_inurba_marseille","lat":43.32931,"lon":5.37492,"is_reserved":false,"is_disabled":false,"rental_uris":{"android":"levelo://app?vid=0edc70b6-d69b-4a82-b984-b6dcbfbcb380","ios":"levelo://app?vid=0edc70b6-d69b-4a82-b984-b6dcbfbcb380"},"vehicle_type_id":"4","last_reported":1773853381,"current_range_meters":2800,"station_id":"","pricing_plan_id":"cebpf4jnsgd1na2vs0mg"},{"bike_id":"7e6c54d4-26f0-4191-a535-f9c022e183b5","system_id":"levelo_inurba_marseille","lat":43.29535,"lon":5.38555,"is_reserved":false,"is_disabled":false,"rental_uris":{"android":"levelo://app?vid=7e6c54d4-26f0-4191-a535-f9c022e183b5","ios":"levelo://app?vid=7e6c54d4-26f0-4191-a535-f9c022e183b5"},"vehicle_type_id":"4","last_reported":1773853381,"current_range_meters":2800,"station_id":"ce4bgih2rcd13ifvqba0","pricing_plan_id":"cebpf4jnsgd1na2vs0mg"},{"bike_id":"2d5cf975-1f5b-497a-ac6b-209e99c59bad","system_id":"levelo_inurba_marseille","lat":43.28966,"lon":5.35517,"is_reserved":false,"is_disabled":false,"rental_uris":{"android":"levelo://app?vid=2d5cf975-1f5b-497a-ac6b-209e99c59bad","ios":"levelo://app?vid=2d5cf975-1f5b-497a-ac6b-209e99c59bad"},"vehicle_type_id":"4","last_reported":1773853381,"current_range_meters":2800,"station_id":"","pricing_plan_id":"cebpf4jnsgd1na2vs0mg"},{"bike_id":"b906e095-9446-45c1-a624-6594f6f4212d","system_id":"levelo_inurba_marseille","lat":43.2415,"lon":5.36438,"is_reserved":false,"is_disabled":false,"rental_uris":{"android":"levelo://app?vid=b906e095-9446-45c1-a624-6594f6f4212d","ios":"levelo://app?vid=b906e095-9446-45c1-a624-6594f6f4212d"},"vehicle_type_id":"4","last_reported":1773853381,"current_range_meters":2800,"station_id":"cpo36qri1sfpv3e86is0","pricing_plan_id":"cebpf4jnsgd1na2vs0mg"},{"bike_id":"8a42e221-f322-4904-93ea-e1756a64a680","system_id":"levelo_inurba_marseille","lat":43.280156,"lon":5.400362,"is_reserved":false,"is_disabled":false,"rental_uris":{"android":"levelo://app?vid=8a42e221-f322-4904-93ea-e1756a64a680","ios":"levelo://app?vid=8a42e221-f322-4904-93ea-e1756a64a680"},"vehicle_type_id":"4","last_reported":1773853381,"current_range_meters":2800,"station_id":"ce4bho92rcd13ifvqh4g","pricing_plan_id":"cebpf4jnsgd1na2vs0mg"},{"bike_id":"1572e35a-579a-41fd-9834-0373ad758b1c","system_id":"levelo_inurba_marseille","lat":43.292258,"lon":5.360479,"is_reserved":false,"is_disabled":false,"rental_uris":{"android":"levelo://app?vid=1572e35a-579a-41fd-9834-0373ad758b1c","ios":"levelo://app?vid=1572e35a-579a-41fd-9834-0373ad758b1c"},"vehicle_type_id":"4","last_reported":1773853381,"current_range_meters":2800,"station_id":"ce4bhbh2rcd13ifvqeqg","pricing_plan_id":"cebpf4jnsgd1na2vs0mg"},{"bike_id":"1be3249f-f14a-4b8a-b108-558db8d21d21","system_id":"levelo_inurba_marseille","lat":43.29534,"lon":5.38546,"is_reserved":false,"is_disabled":false,"rental_uris":{"android":"levelo://app?vid=1be3249f-f14a-4b8a-b108-558db8d21d21","ios":"levelo://app?vid=1be3249f-f14a-4b8a-b108-558db8d21d21"},"vehicle_type_id":"4","last_reported":1773853381,"current_range_meters":3200,"station_id":"ce4bgih2rcd13ifvqba0","pricing_plan_id":"cebpf4jnsgd1na2vs0mg"},{"bike_id":"d1e94812-6879-40ef-95d9-a5391f767197","system_id":"levelo_inurba_marseille","lat":43.29201,"lon":5.35782,"is_reserved":false,"is_disabled":false,"rental_uris":{"android":"levelo://app?vid=d1e94812-6879-40ef-95d9-a5391f767197","ios":"levelo://app?vid=d1e94812-6879-40ef-95d9-a5391f767197"},"vehicle_type_id":"4","last_reported":1773853381,"current_range_meters":3200,"station_id":"ce4bhb12rcd13ifvqel0","pricing_plan_id":"cebpf4jnsgd1na2vs0mg"},{"bike_id":"292abd82-4146-466f-9e34-79bd05209e5a","system_id":"levelo_inurba_marseille","lat":43.29949,"lon":5.38521,"is_reserved":false,"is_disabled":false,"rental_uris":{"android":"levelo://app?vid=292abd82-4146-466f-9e34-79bd05209e5a","ios":"levelo://app?vid=292abd82-4146-466f-9e34-79bd05209e5a"},"vehicle_type_id":"4","last_reported":1773853381,"current_range_meters":3200,"station_id":"ce4bgj92rcd13ifvqbd0","pricing_plan_id":"cebpf4jnsgd1na2vs0mg"},{"bike_id":"d99c8e58-9782-48d8-b7fb-c0ce9ee3eeca","system_id":"levelo_inurba_marseille","lat":43.2965,"lon":5.40602,"is_reserved":false,"is_disabled":false,"rental_uris":{"android":"levelo://app?vid=d99c8e58-9782-48d8-b7fb-c0ce9ee3eeca","ios":"levelo://app?vid=d99c8e58-9782-48d8-b7fb-c0ce9ee3eeca"},"vehicle_type_id":"4","last_reported":1773853381,"current_range_meters":3200,"station_id":"ce4bh0h2rcd13ifvqd60","pricing_plan_id":"cebpf4jnsgd1na2vs0mg"},{"bike_id":"737cba0a-f889-4e3c-8a68-6566990a5fd9","system_id":"levelo_inurba_marseille","lat":43.29227,"lon":5.36068,"is_reserved":false,"is_disabled":false,"rental_uris":{"android":"levelo://app?vid=737cba0a-f889-4e3c-8a68-6566990a5fd9","ios":"levelo://app?vid=737cba0a-f889-4e3c-8a68-6566990a5fd9"},"vehicle_type_id":"4","last_reported":1773853381,"current_range_meters":3200,"station_id":"ce4bhbh2rcd13ifvqeqg","pricing_plan_id":"cebpf4jnsgd1na2vs0mg"},{"bike_id":"4e4ba8f7-60dc-4959-9a01-6da668abb084","system_id":"levelo_inurba_marseille","lat":43.2119,"lon":5.35075,"is_reserved":false,"is_disabled":false,"rental_uris":{"android":"levelo://app?vid=4e4ba8f7-60dc-4959-9a01-6da668abb084","ios":"levelo://app?vid=4e4ba8f7-60dc-4959-9a01-6da668abb084"},"vehicle_type_id":"4","last_reported":1773853381,"current_range_meters":3200,"station_id":"st_cvj6sg6p6f1abm77japg","pricing_plan_id":"cebpf4jnsgd1na2vs0mg"},{"bike_id":"fae98e9a-2ca7-4fb7-8b98-a4d3430a57f0","system_id":"levelo_inurba_marseille","lat":43.31046,"lon":5.39374,"is_reserved":false,"is_disabled":false,"rental_uris":{"android":"levelo://app?vid=fae98e9a-2ca7-4fb7-8b98-a4d3430a57f0","ios":"levelo://app?vid=fae98e9a-2ca7-4fb7-8b98-a4d3430a57f0"},"vehicle_type_id":"4","last_reported":1773853381,"current_range_meters":3200,"station_id":"","pricing_plan_id":"cebpf4jnsgd1na2vs0mg"},{"bike_id":"21ac282a-82ad-4d00-877f-5ee6fbce0eb9","system_id":"levelo_inurba_marseille","lat":43.26565,"lon":5.39005,"is_reserved":false,"is_disabled":false,"rental_uris":{"android":"levelo://app?vid=21ac282a-82ad-4d00-877f-5ee6fbce0eb9","ios":"levelo://app?vid=21ac282a-82ad-4d00-877f-5ee6fbce0eb9"},"vehicle_type_id":"4","last_reported":1773853381,"current_range_meters":3200,"station_id":"ce4bhe12rcd13ifvqf30","pricing_plan_id":"cebpf4jnsgd1na2vs0mg"},{"bike_id":"df6406ec-23fc-4c85-89f0-6b5e6b0a4cf0","system_id":"levelo_inurba_marseille","lat":43.30193,"lon":5.38195,"is_reserved":false,"is_disabled":false,"rental_uris":{"android":"levelo://app?vid=df6406ec-23fc-4c85-89f0-6b5e6b0a4cf0","ios":"levelo://app?vid=df6406ec-23fc-4c85-89f0-6b5e6b0a4cf0"},"vehicle_type_id":"4","last_reported":1773853381,"current_range_meters":3200,"station_id":"","pricing_plan_id":"cebpf4jnsgd1na2vs0mg"},{"bike_id":"09d1fb8b-f3ec-4a8d-bbb0-effc212e3b16","system_id":"levelo_inurba_marseille","lat":43.28489,"lon":5.38429,"is_reserved":false,"is_disabled":false,"rental_uris":{"android":"levelo://app?vid=09d1fb8b-f3ec-4a8d-bbb0-effc212e3b16","ios":"levelo://app?vid=09d1fb8b-f3ec-4a8d-bbb0-effc212e3b16"},"vehicle_type_id":"4","last_reported":1773853381,"current_range_meters":3200,"station_id":"ce4bh512rcd13ifvqe3g","pricing_plan_id":"cebpf4jnsgd1na2vs0mg"},{"bike_id":"a1cfb408-da52-4413-a934-9b5c4a9189a4","system_id":"levelo_inurba_marseille","lat":43.29584,"lon":5.37524,"is_reserved":false,"is_disabled":false,"rental_uris":{"android":"levelo://app?vid=a1cfb408-da52-4413-a934-9b5c4a9189a4","ios":"levelo://app?vid=a1cfb408-da52-4413-a934-9b5c4a9189a4"},"vehicle_type_id":"4","last_reported":1773853381,"current_range_meters":3200,"station_id":"ce4bgh92rcd13ifvqb50","pricing_plan_id":"cebpf4jnsgd1na2vs0mg"},{"bike_id":"0250d5d7-eb13-4f55-9296-237cc9d09551","system_id":"levelo_inurba_marseille","lat":43.2994,"lon":5.36547,"is_reserved":false,"is_disabled":false,"rental_uris":{"android":"levelo://app?vid=0250d5d7-eb13-4f55-9296-237cc9d09551","ios":"levelo://app?vid=0250d5d7-eb13-4f55-9296-237cc9d09551"},"vehicle_type_id":"4","last_reported":1773853381,"current_range_meters":3600,"station_id":"ce4bgm92rcd13ifvqbr0","pricing_plan_id":"cebpf4jnsgd1na2vs0mg"},{"bike_id":"458f604b-e062-47bf-ac14-a001a31d10d8","system_id":"levelo_inurba_marseille","lat":43.28476,"lon":5.48393,"is_reserved":false,"is_disabled":false,"rental_uris":{"android":"levelo://app?vid=458f604b-e062-47bf-ac14-a001a31d10d8","ios":"levelo://app?vid=458f604b-e062-47bf-ac14-a001a31d10d8"},"vehicle_type_id":"4","last_reported":1773853381,"current_range_meters":3600,"station_id":"","pricing_plan_id":"cebpf4jnsgd1na2vs0mg"},{"bike_id":"b05f2d22-4aff-439b-82f2-ac5fada00d0c","system_id":"levelo_inurba_marseille","lat":43.2707,"lon":5.4228,"is_reserved":false,"is_disabled":false,"rental_uris":{"android":"levelo://app?vid=b05f2d22-4aff-439b-82f2-ac5fada00d0c","ios":"levelo://app?vid=b05f2d22-4aff-439b-82f2-ac5fada00d0c"},"vehicle_type_id":"4","last_reported":1773853381,"current_range_meters":3600,"station_id":"ce4bhk92rcd13ifvqgb0","pricing_plan_id":"cebpf4jnsgd1na2vs0mg"},{"bike_id":"2134a193-4b3a-4038-a280-1a0ba6458570","system_id":"levelo_inurba_marseille","lat":43.29801,"lon":5.42114,"is_reserved":false,"is_disabled":false,"rental_uris":{"android":"levelo://app?vid=2134a193-4b3a-4038-a280-1a0ba6458570","ios":"levelo://app?vid=2134a193-4b3a-4038-a280-1a0ba6458570"},"vehicle_type_id":"4","last_reported":1773853381,"current_range_meters":3600,"station_id":"","pricing_plan_id":"cebpf4jnsgd1na2vs0mg"},{"bike_id":"3ba26ef4-f461-4e5b-ae08-30b593f3b4b7","system_id":"levelo_inurba_marseille","lat":43.29748,"lon":5.37698,"is_reserved":false,"is_disabled":false,"rental_uris":{"android":"levelo://app?vid=3ba26ef4-f461-4e5b-ae08-30b593f3b4b7","ios":"levelo://app?vid=3ba26ef4-f461-4e5b-ae08-30b593f3b4b7"},"vehicle_type_id":"4","last_reported":1773853381,"current_range_meters":3600,"station_id":"ce4bgkh2rcd13ifvqbl0","pricing_plan_id":"cebpf4jnsgd1na2vs0mg"},{"bike_id":"fbdb0e09-6aa4-43ea-85b9-45bf95a95bd4","system_id":"levelo_inurba_marseille","lat":43.276154,"lon":5.361291,"is_reserved":false,"is_disabled":false,"rental_uris":{"android":"levelo://app?vid=fbdb0e09-6aa4-43ea-85b9-45bf95a95bd4","ios":"levelo://app?vid=fbdb0e09-6aa4-43ea-85b9-45bf95a95bd4"},"vehicle_type_id":"4","last_reported":1773853381,"current_range_meters":3600,"station_id":"ce4bgj92rcd13ifvqbe0","pricing_plan_id":"cebpf4jnsgd1na2vs0mg"},{"bike_id":"60d2ea08-2b7e-44e7-8315-9304b8a5f88f","system_id":"levelo_inurba_marseille","lat":43.31719,"lon":5.4239,"is_reserved":false,"is_disabled":true,"rental_uris":{"android":"levelo://app?vid=60d2ea08-2b7e-44e7-8315-9304b8a5f88f","ios":"levelo://app?vid=60d2ea08-2b7e-44e7-8315-9304b8a5f88f"},"vehicle_type_id":"4","last_reported":1773853381,"current_range_meters":3600,"station_id":"ce4bhp92rcd13ifvqhbg","pricing_plan_id":"cebpf4jnsgd1na2vs0mg"},{"bike_id":"bf249f81-2ef0-45f9-a595-8436dd14fe0c","system_id":"levelo_inurba_marseille","lat":43.32068,"lon":5.36851,"is_reserved":false,"is_disabled":false,"rental_uris":{"android":"levelo://app?vid=bf249f81-2ef0-45f9-a595-8436dd14fe0c","ios":"levelo://app?vid=bf249f81-2ef0-45f9-a595-8436dd14fe0c"},"vehicle_type_id":"4","last_reported":1773853381,"current_range_meters":3600,"station_id":"","pricing_plan_id":"cebpf4jnsgd1na2vs0mg"},{"bike_id":"3464d554-b763-4344-9691-af0456a9341f","system_id":"levelo_inurba_marseille","lat":43.29875,"lon":5.39737,"is_reserved":false,"is_disabled":false,"rental_uris":{"android":"levelo://app?vid=3464d554-b763-4344-9691-af0456a9341f","ios":"levelo://app?vid=3464d554-b763-4344-9691-af0456a9341f"},"vehicle_type_id":"4","last_reported":1773853381,"current_range_meters":3600,"station_id":"ce4bh0h2rcd13ifvqd50","pricing_plan_id":"cebpf4jnsgd1na2vs0mg"},{"bike_id":"7f5c866c-9681-4c84-b196-babfd2220202","system_id":"levelo_inurba_marseille","lat":43.28466,"lon":5.35882,"is_reserved":false,"is_disabled":false,"rental_uris":{"android":"levelo://app?vid=7f5c866c-9681-4c84-b196-babfd2220202","ios":"levelo://app?vid=7f5c866c-9681-4c84-b196-babfd2220202"},"vehicle_type_id":"4","last_reported":1773853381,"current_range_meters":3600,"station_id":"ce4bhah2rcd13ifvqei0","pricing_plan_id":"cebpf4jnsgd1na2vs0mg"},{"bike_id":"ab2125f0-f477-425b-9c9a-e4231f7f002b","system_id":"levelo_inurba_marseille","lat":43.21745,"lon":5.34635,"is_reserved":false,"is_disabled":true,"rental_uris":{"android":"levelo://app?vid=ab2125f0-f477-425b-9c9a-e4231f7f002b","ios":"levelo://app?vid=ab2125f0-f477-425b-9c9a-e4231f7f002b"},"vehicle_type_id":"4","last_reported":1773853381,"current_range_meters":3600,"station_id":"st_cvj6r9ubvosntc0bgbag","pricing_plan_id":"cebpf4jnsgd1na2vs0mg"},{"bike_id":"a0ac2246-9e7f-437c-a4db-c626663f282c","system_id":"levelo_inurba_marseille","lat":43.31228,"lon":5.36839,"is_reserved":false,"is_disabled":false,"rental_uris":{"android":"levelo://app?vid=a0ac2246-9e7f-437c-a4db-c626663f282c","ios":"levelo://app?vid=a0ac2246-9e7f-437c-a4db-c626663f282c"},"vehicle_type_id":"4","last_reported":1773853381,"current_range_meters":3600,"station_id":"ce4bgl92rcd13ifvqbq0","pricing_plan_id":"cebpf4jnsgd1na2vs0mg"},{"bike_id":"8b9dcc82-96e1-4ec2-b989-8cdfb252dfdf","system_id":"levelo_inurba_marseille","lat":43.23403,"lon":5.41239,"is_reserved":false,"is_disabled":false,"rental_uris":{"android":"levelo://app?vid=8b9dcc82-96e1-4ec2-b989-8cdfb252dfdf","ios":"levelo://app?vid=8b9dcc82-96e1-4ec2-b989-8cdfb252dfdf"},"vehicle_type_id":"4","last_reported":1773853381,"current_range_meters":3600,"station_id":"","pricing_plan_id":"cebpf4jnsgd1na2vs0mg"},{"bike_id":"db7aac54-314c-4210-b6fb-9672328980c7","system_id":"levelo_inurba_marseille","lat":43.30268,"lon":5.40103,"is_reserved":false,"is_disabled":false,"rental_uris":{"android":"levelo://app?vid=db7aac54-314c-4210-b6fb-9672328980c7","ios":"levelo://app?vid=db7aac54-314c-4210-b6fb-9672328980c7"},"vehicle_type_id":"4","last_reported":1773853381,"current_range_meters":3600,"station_id":"ce4bgvh2rcd13ifvqcs0","pricing_plan_id":"cebpf4jnsgd1na2vs0mg"},{"bike_id":"b5968ff7-9aaf-4265-8aca-02c330883b8d","system_id":"levelo_inurba_marseille","lat":43.28955,"lon":5.36607,"is_reserved":false,"is_disabled":false,"rental_uris":{"android":"levelo://app?vid=b5968ff7-9aaf-4265-8aca-02c330883b8d","ios":"levelo://app?vid=b5968ff7-9aaf-4265-8aca-02c330883b8d"},"vehicle_type_id":"4","last_reported":1773853381,"current_range_meters":3600,"station_id":"ce4bhap2rcd13ifvqek0","pricing_plan_id":"cebpf4jnsgd1na2vs0mg"},{"bike_id":"ae037d1e-3b31-42b9-b5ac-d785a4495dff","system_id":"levelo_inurba_marseille","lat":43.27376,"lon":5.36262,"is_reserved":false,"is_disabled":false,"rental_uris":{"android":"levelo://app?vid=ae037d1e-3b31-42b9-b5ac-d785a4495dff","ios":"levelo://app?vid=ae037d1e-3b31-42b9-b5ac-d785a4495dff"},"vehicle_type_id":"4","last_reported":1773853381,"current_range_meters":4000,"station_id":"ce4bhbh2rcd13ifvqeo0","pricing_plan_id":"cebpf4jnsgd1na2vs0mg"},{"bike_id":"80170eaf-d2d0-4e4a-8429-601b9932505d","system_id":"levelo_inurba_marseille","lat":43.29537,"lon":5.38537,"is_reserved":false,"is_disabled":false,"rental_uris":{"android":"levelo://app?vid=80170eaf-d2d0-4e4a-8429-601b9932505d","ios":"levelo://app?vid=80170eaf-d2d0-4e4a-8429-601b9932505d"},"vehicle_type_id":"4","last_reported":1773853381,"current_range_meters":4000,"station_id":"ce4bgih2rcd13ifvqba0","pricing_plan_id":"cebpf4jnsgd1na2vs0mg"},{"bike_id":"7ada2641-316b-4e07-8cf0-f1c79c755356","system_id":"levelo_inurba_marseille","lat":43.24943,"lon":5.40484,"is_reserved":false,"is_disabled":false,"rental_uris":{"android":"levelo://app?vid=7ada2641-316b-4e07-8cf0-f1c79c755356","ios":"levelo://app?vid=7ada2641-316b-4e07-8cf0-f1c79c755356"},"vehicle_type_id":"4","last_reported":1773853381,"current_range_meters":4000,"station_id":"st_d2ngiaodas8pm72gd1h0","pricing_plan_id":"cebpf4jnsgd1na2vs0mg"},{"bike_id":"aea2f69f-5105-4084-8045-e7a689571517","system_id":"levelo_inurba_marseille","lat":43.29255,"lon":5.38451,"is_reserved":false,"is_disabled":false,"rental_uris":{"android":"levelo://app?vid=aea2f69f-5105-4084-8045-e7a689571517","ios":"levelo://app?vid=aea2f69f-5105-4084-8045-e7a689571517"},"vehicle_type_id":"4","last_reported":1773853381,"current_range_meters":4000,"station_id":"ce4bh692rcd13ifvqea0","pricing_plan_id":"cebpf4jnsgd1na2vs0mg"},{"bike_id":"6192c4a9-d4b2-466d-8680-4c5903d88ffc","system_id":"levelo_inurba_marseille","lat":43.23911,"lon":5.39671,"is_reserved":false,"is_disabled":false,"rental_uris":{"android":"levelo://app?vid=6192c4a9-d4b2-466d-8680-4c5903d88ffc","ios":"levelo://app?vid=6192c4a9-d4b2-466d-8680-4c5903d88ffc"},"vehicle_type_id":"4","last_reported":1773853381,"current_range_meters":4000,"station_id":"","pricing_plan_id":"cebpf4jnsgd1na2vs0mg"},{"bike_id":"b232db55-5a86-4ab1-b666-2403200fe017","system_id":"levelo_inurba_marseille","lat":43.29009,"lon":5.35618,"is_reserved":false,"is_disabled":false,"rental_uris":{"android":"levelo://app?vid=b232db55-5a86-4ab1-b666-2403200fe017","ios":"levelo://app?vid=b232db55-5a86-4ab1-b666-2403200fe017"},"vehicle_type_id":"4","last_reported":1773853381,"current_range_meters":4000,"station_id":"ce4bhb92rcd13ifvqen0","pricing_plan_id":"cebpf4jnsgd1na2vs0mg"},{"bike_id":"64e4942c-04ec-475a-8745-de522dcf5faa","system_id":"levelo_inurba_marseille","lat":43.22966,"lon":5.3538,"is_reserved":false,"is_disabled":false,"rental_uris":{"android":"levelo://app?vid=64e4942c-04ec-475a-8745-de522dcf5faa","ios":"levelo://app?vid=64e4942c-04ec-475a-8745-de522dcf5faa"},"vehicle_type_id":"4","last_reported":1773853381,"current_range_meters":4000,"station_id":"cpo3532slgdg3j2ikp40","pricing_plan_id":"cebpf4jnsgd1na2vs0mg"},{"bike_id":"1f2a989b-6e20-4b87-9929-835f70730db4","system_id":"levelo_inurba_marseille","lat":43.29928,"lon":5.37483,"is_reserved":false,"is_disabled":false,"rental_uris":{"android":"levelo://app?vid=1f2a989b-6e20-4b87-9929-835f70730db4","ios":"levelo://app?vid=1f2a989b-6e20-4b87-9929-835f70730db4"},"vehicle_type_id":"4","last_reported":1773853381,"current_range_meters":4000,"station_id":"ce4bgjh2rcd13ifvqbg0","pricing_plan_id":"cebpf4jnsgd1na2vs0mg"},{"bike_id":"0f40bcbd-5d68-45ca-9a6b-b67e0fe03b83","system_id":"levelo_inurba_marseille","lat":43.2893,"lon":5.3663,"is_reserved":false,"is_disabled":false,"rental_uris":{"android":"levelo://app?vid=0f40bcbd-5d68-45ca-9a6b-b67e0fe03b83","ios":"levelo://app?vid=0f40bcbd-5d68-45ca-9a6b-b67e0fe03b83"},"vehicle_type_id":"4","last_reported":1773853381,"current_range_meters":4000,"station_id":"ce4bhap2rcd13ifvqek0","pricing_plan_id":"cebpf4jnsgd1na2vs0mg"},{"bike_id":"d5655ba8-4d46-49f0-8094-63b09d073637","system_id":"levelo_inurba_marseille","lat":43.29844,"lon":5.36273,"is_reserved":false,"is_disabled":false,"rental_uris":{"android":"levelo://app?vid=d5655ba8-4d46-49f0-8094-63b09d073637","ios":"levelo://app?vid=d5655ba8-4d46-49f0-8094-63b09d073637"},"vehicle_type_id":"4","last_reported":1773853381,"current_range_meters":4000,"station_id":"ce4bgpp2rcd13ifvqc3g","pricing_plan_id":"cebpf4jnsgd1na2vs0mg"},{"bike_id":"823ef5bd-788f-44c0-a537-1697d2e7e70e","system_id":"levelo_inurba_marseille","lat":43.28481,"lon":5.38427,"is_reserved":false,"is_disabled":false,"rental_uris":{"android":"levelo://app?vid=823ef5bd-788f-44c0-a537-1697d2e7e70e","ios":"levelo://app?vid=823ef5bd-788f-44c0-a537-1697d2e7e70e"},"vehicle_type_id":"4","last_reported":1773853381,"current_range_meters":4000,"station_id":"ce4bh512rcd13ifvqe3g","pricing_plan_id":"cebpf4jnsgd1na2vs0mg"},{"bike_id":"96dac97a-0c76-4079-a74f-d3b50e0ff04c","system_id":"levelo_inurba_marseille","lat":43.21192,"lon":5.35071,"is_reserved":false,"is_disabled":false,"rental_uris":{"android":"levelo://app?vid=96dac97a-0c76-4079-a74f-d3b50e0ff04c","ios":"levelo://app?vid=96dac97a-0c76-4079-a74f-d3b50e0ff04c"},"vehicle_type_id":"4","last_reported":1773853381,"current_range_meters":4000,"station_id":"st_cvj6sg6p6f1abm77japg","pricing_plan_id":"cebpf4jnsgd1na2vs0mg"},{"bike_id":"3283b0e0-723b-4314-95cc-381df1215e03","system_id":"levelo_inurba_marseille","lat":43.308004,"lon":5.376592,"is_reserved":false,"is_disabled":false,"rental_uris":{"android":"levelo://app?vid=3283b0e0-723b-4314-95cc-381df1215e03","ios":"levelo://app?vid=3283b0e0-723b-4314-95cc-381df1215e03"},"vehicle_type_id":"4","last_reported":1773853381,"current_range_meters":4000,"station_id":"ce4bgv92rcd13ifvqcq0","pricing_plan_id":"cebpf4jnsgd1na2vs0mg"},{"bike_id":"0940c0ab-3cca-4660-9974-509b4f5e9818","system_id":"levelo_inurba_marseille","lat":43.28927,"lon":5.3951,"is_reserved":false,"is_disabled":false,"rental_uris":{"android":"levelo://app?vid=0940c0ab-3cca-4660-9974-509b4f5e9818","ios":"levelo://app?vid=0940c0ab-3cca-4660-9974-509b4f5e9818"},"vehicle_type_id":"4","last_reported":1773853381,"current_range_meters":4000,"station_id":"","pricing_plan_id":"cebpf4jnsgd1na2vs0mg"},{"bike_id":"e638f6b2-0350-4043-91c2-c9dedb73cb2c","system_id":"levelo_inurba_marseille","lat":43.2751,"lon":5.4158,"is_reserved":false,"is_disabled":false,"rental_uris":{"android":"levelo://app?vid=e638f6b2-0350-4043-91c2-c9dedb73cb2c","ios":"levelo://app?vid=e638f6b2-0350-4043-91c2-c9dedb73cb2c"},"vehicle_type_id":"4","last_reported":1773853381,"current_range_meters":4000,"station_id":"st_d6im8g6chgec73a5pndg","pricing_plan_id":"cebpf4jnsgd1na2vs0mg"},{"bike_id":"ff4d60f5-767c-4ae3-b27e-dfea0c87e749","system_id":"levelo_inurba_marseille","lat":43.22941,"lon":5.354,"is_reserved":false,"is_disabled":false,"rental_uris":{"android":"levelo://app?vid=ff4d60f5-767c-4ae3-b27e-dfea0c87e749","ios":"levelo://app?vid=ff4d60f5-767c-4ae3-b27e-dfea0c87e749"},"vehicle_type_id":"4","last_reported":1773853381,"current_range_meters":4000,"station_id":"cpo3532slgdg3j2ikp40","pricing_plan_id":"cebpf4jnsgd1na2vs0mg"},{"bike_id":"c2c7c530-5d90-493e-bc68-4654d00e1dc7","system_id":"levelo_inurba_marseille","lat":43.25214,"lon":5.40638,"is_reserved":false,"is_disabled":false,"rental_uris":{"android":"levelo://app?vid=c2c7c530-5d90-493e-bc68-4654d00e1dc7","ios":"levelo://app?vid=c2c7c530-5d90-493e-bc68-4654d00e1dc7"},"vehicle_type_id":"4","last_reported":1773853381,"current_range_meters":4000,"station_id":"","pricing_plan_id":"cebpf4jnsgd1na2vs0mg"},{"bike_id":"77f82e91-30b6-4c8c-a0ef-dfcf78d748db","system_id":"levelo_inurba_marseille","lat":43.28869,"lon":5.42542,"is_reserved":false,"is_disabled":false,"rental_uris":{"android":"levelo://app?vid=77f82e91-30b6-4c8c-a0ef-dfcf78d748db","ios":"levelo://app?vid=77f82e91-30b6-4c8c-a0ef-dfcf78d748db"},"vehicle_type_id":"4","last_reported":1773853381,"current_range_meters":4400,"station_id":"","pricing_plan_id":"cebpf4jnsgd1na2vs0mg"},{"bike_id":"5e5bb484-0dc6-4c15-b957-4b8cd34a3fba","system_id":"levelo_inurba_marseille","lat":43.30468,"lon":5.38912,"is_reserved":false,"is_disabled":false,"rental_uris":{"android":"levelo://app?vid=5e5bb484-0dc6-4c15-b957-4b8cd34a3fba","ios":"levelo://app?vid=5e5bb484-0dc6-4c15-b957-4b8cd34a3fba"},"vehicle_type_id":"4","last_reported":1773853381,"current_range_meters":4400,"station_id":"ce4bgk12rcd13ifvqbi0","pricing_plan_id":"cebpf4jnsgd1na2vs0mg"},{"bike_id":"b583bcae-222a-4bac-9853-11b0f91fa0b6","system_id":"levelo_inurba_marseille","lat":43.2886,"lon":5.35842,"is_reserved":false,"is_disabled":false,"rental_uris":{"android":"levelo://app?vid=b583bcae-222a-4bac-9853-11b0f91fa0b6","ios":"levelo://app?vid=b583bcae-222a-4bac-9853-11b0f91fa0b6"},"vehicle_type_id":"4","last_reported":1773853381,"current_range_meters":4400,"station_id":"ce4bhb12rcd13ifvqem0","pricing_plan_id":"cebpf4jnsgd1na2vs0mg"},{"bike_id":"09096e7d-bef1-4f8d-822b-aee32be72fe4","system_id":"levelo_inurba_marseille","lat":43.28425,"lon":5.3498,"is_reserved":false,"is_disabled":false,"rental_uris":{"android":"levelo://app?vid=09096e7d-bef1-4f8d-822b-aee32be72fe4","ios":"levelo://app?vid=09096e7d-bef1-4f8d-822b-aee32be72fe4"},"vehicle_type_id":"4","last_reported":1773853381,"current_range_meters":4400,"station_id":"ce4bhbh2rcd13ifvqepg","pricing_plan_id":"cebpf4jnsgd1na2vs0mg"},{"bike_id":"7e372e61-a4a4-4320-b78e-0115edf72ed5","system_id":"levelo_inurba_marseille","lat":43.24173,"lon":5.36407,"is_reserved":false,"is_disabled":true,"rental_uris":{"android":"levelo://app?vid=7e372e61-a4a4-4320-b78e-0115edf72ed5","ios":"levelo://app?vid=7e372e61-a4a4-4320-b78e-0115edf72ed5"},"vehicle_type_id":"4","last_reported":1773853381,"current_range_meters":4400,"station_id":"cpo36qri1sfpv3e86is0","pricing_plan_id":"cebpf4jnsgd1na2vs0mg"},{"bike_id":"f098d9b7-2e86-49b7-b795-e3b7e2e73676","system_id":"levelo_inurba_marseille","lat":43.30107,"lon":5.37222,"is_reserved":false,"is_disabled":false,"rental_uris":{"android":"levelo://app?vid=f098d9b7-2e86-49b7-b795-e3b7e2e73676","ios":"levelo://app?vid=f098d9b7-2e86-49b7-b795-e3b7e2e73676"},"vehicle_type_id":"4","last_reported":1773853381,"current_range_meters":4400,"station_id":"","pricing_plan_id":"cebpf4jnsgd1na2vs0mg"},{"bike_id":"4e415c73-577b-47fc-851f-78854f8f1c4b","system_id":"levelo_inurba_marseille","lat":43.30887,"lon":5.39638,"is_reserved":false,"is_disabled":false,"rental_uris":{"android":"levelo://app?vid=4e415c73-577b-47fc-851f-78854f8f1c4b","ios":"levelo://app?vid=4e415c73-577b-47fc-851f-78854f8f1c4b"},"vehicle_type_id":"4","last_reported":1773853381,"current_range_meters":4400,"station_id":"ce4bh012rcd13ifvqcv0","pricing_plan_id":"cebpf4jnsgd1na2vs0mg"},{"bike_id":"df51f949-c059-425b-93d2-f280e0d91676","system_id":"levelo_inurba_marseille","lat":43.28614,"lon":5.35098,"is_reserved":false,"is_disabled":false,"rental_uris":{"android":"levelo://app?vid=df51f949-c059-425b-93d2-f280e0d91676","ios":"levelo://app?vid=df51f949-c059-425b-93d2-f280e0d91676"},"vehicle_type_id":"4","last_reported":1773853381,"current_range_meters":4400,"station_id":"ce4bhch2rcd13ifvqeug","pricing_plan_id":"cebpf4jnsgd1na2vs0mg"},{"bike_id":"2874775b-146e-45de-9a13-98bbe699d55d","system_id":"levelo_inurba_marseille","lat":43.2464,"lon":5.43162,"is_reserved":false,"is_disabled":true,"rental_uris":{"android":"levelo://app?vid=2874775b-146e-45de-9a13-98bbe699d55d","ios":"levelo://app?vid=2874775b-146e-45de-9a13-98bbe699d55d"},"vehicle_type_id":"4","last_reported":1773853381,"current_range_meters":4400,"station_id":"","pricing_plan_id":"cebpf4jnsgd1na2vs0mg"},{"bike_id":"b9f2e5d5-d6ac-4c0d-86f2-4fe1a54ef3b3","system_id":"levelo_inurba_marseille","lat":43.32109,"lon":5.36772,"is_reserved":false,"is_disabled":false,"rental_uris":{"android":"levelo://app?vid=b9f2e5d5-d6ac-4c0d-86f2-4fe1a54ef3b3","ios":"levelo://app?vid=b9f2e5d5-d6ac-4c0d-86f2-4fe1a54ef3b3"},"vehicle_type_id":"4","last_reported":1773853381,"current_range_meters":4400,"station_id":"ce4bhrh2rcd13ifvqhug","pricing_plan_id":"cebpf4jnsgd1na2vs0mg"},{"bike_id":"ba3a93e9-0ab6-4e6f-87e7-88a20529a0ea","system_id":"levelo_inurba_marseille","lat":43.31336,"lon":5.39716,"is_reserved":false,"is_disabled":false,"rental_uris":{"android":"levelo://app?vid=ba3a93e9-0ab6-4e6f-87e7-88a20529a0ea","ios":"levelo://app?vid=ba3a93e9-0ab6-4e6f-87e7-88a20529a0ea"},"vehicle_type_id":"4","last_reported":1773853381,"current_range_meters":4400,"station_id":"ce4bgvp2rcd13ifvqcu0","pricing_plan_id":"cebpf4jnsgd1na2vs0mg"},{"bike_id":"8ec9fa06-bae7-433d-a727-56c6a8890348","system_id":"levelo_inurba_marseille","lat":43.25738,"lon":5.41078,"is_reserved":false,"is_disabled":false,"rental_uris":{"android":"levelo://app?vid=8ec9fa06-bae7-433d-a727-56c6a8890348","ios":"levelo://app?vid=8ec9fa06-bae7-433d-a727-56c6a8890348"},"vehicle_type_id":"4","last_reported":1773853381,"current_range_meters":4400,"station_id":"ce4bhkp2rcd13ifvqgd0","pricing_plan_id":"cebpf4jnsgd1na2vs0mg"},{"bike_id":"4c844148-7a77-4249-814c-3a92db3ece7f","system_id":"levelo_inurba_marseille","lat":43.30377,"lon":5.42491,"is_reserved":false,"is_disabled":false,"rental_uris":{"android":"levelo://app?vid=4c844148-7a77-4249-814c-3a92db3ece7f","ios":"levelo://app?vid=4c844148-7a77-4249-814c-3a92db3ece7f"},"vehicle_type_id":"4","last_reported":1773853381,"current_range_meters":4400,"station_id":"ce4bhoh2rcd13ifvqh6g","pricing_plan_id":"cebpf4jnsgd1na2vs0mg"},{"bike_id":"c10ab64d-cf00-47d1-beda-0958e264c06e","system_id":"levelo_inurba_marseille","lat":43.29017,"lon":5.38167,"is_reserved":false,"is_disabled":false,"rental_uris":{"android":"levelo://app?vid=c10ab64d-cf00-47d1-beda-0958e264c06e","ios":"levelo://app?vid=c10ab64d-cf00-47d1-beda-0958e264c06e"},"vehicle_type_id":"4","last_reported":1773853381,"current_range_meters":4800,"station_id":"ce4bh4p2rcd13ifvqe1g","pricing_plan_id":"cebpf4jnsgd1na2vs0mg"},{"bike_id":"703ca89c-1331-43e8-b5ad-7989f5c60c98","system_id":"levelo_inurba_marseille","lat":43.31326,"lon":5.3671,"is_reserved":false,"is_disabled":false,"rental_uris":{"android":"levelo://app?vid=703ca89c-1331-43e8-b5ad-7989f5c60c98","ios":"levelo://app?vid=703ca89c-1331-43e8-b5ad-7989f5c60c98"},"vehicle_type_id":"4","last_reported":1773853381,"current_range_meters":4800,"station_id":"ce4bgr92rcd13ifvqc6g","pricing_plan_id":"cebpf4jnsgd1na2vs0mg"},{"bike_id":"d42fcf1a-7a9a-476d-be8b-616fecbed21c","system_id":"levelo_inurba_marseille","lat":43.29275,"lon":5.38443,"is_reserved":false,"is_disabled":false,"rental_uris":{"android":"levelo://app?vid=d42fcf1a-7a9a-476d-be8b-616fecbed21c","ios":"levelo://app?vid=d42fcf1a-7a9a-476d-be8b-616fecbed21c"},"vehicle_type_id":"4","last_reported":1773853381,"current_range_meters":4800,"station_id":"ce4bh692rcd13ifvqea0","pricing_plan_id":"cebpf4jnsgd1na2vs0mg"},{"bike_id":"c55f7607-0458-4ef2-b13c-c16772c2b5ed","system_id":"levelo_inurba_marseille","lat":43.28381,"lon":5.38629,"is_reserved":false,"is_disabled":false,"rental_uris":{"android":"levelo://app?vid=c55f7607-0458-4ef2-b13c-c16772c2b5ed","ios":"levelo://app?vid=c55f7607-0458-4ef2-b13c-c16772c2b5ed"},"vehicle_type_id":"4","last_reported":1773853381,"current_range_meters":4800,"station_id":"ce4bh492rcd13ifvqdvg","pricing_plan_id":"cebpf4jnsgd1na2vs0mg"},{"bike_id":"e19bbcec-af9d-483d-ac29-18df3b9c0ab9","system_id":"levelo_inurba_marseille","lat":43.2849,"lon":5.48401,"is_reserved":false,"is_disabled":false,"rental_uris":{"android":"levelo://app?vid=e19bbcec-af9d-483d-ac29-18df3b9c0ab9","ios":"levelo://app?vid=e19bbcec-af9d-483d-ac29-18df3b9c0ab9"},"vehicle_type_id":"4","last_reported":1773853381,"current_range_meters":4800,"station_id":"st_d3svhcjqgbts73a3dn0g","pricing_plan_id":"cebpf4jnsgd1na2vs0mg"},{"bike_id":"f7cad0dd-4929-454b-8848-7575c69435e1","system_id":"levelo_inurba_marseille","lat":43.25864,"lon":5.39901,"is_reserved":false,"is_disabled":true,"rental_uris":{"android":"levelo://app?vid=f7cad0dd-4929-454b-8848-7575c69435e1","ios":"levelo://app?vid=f7cad0dd-4929-454b-8848-7575c69435e1"},"vehicle_type_id":"4","last_reported":1773853381,"current_range_meters":4800,"station_id":"ce4bhl92rcd13ifvqghg","pricing_plan_id":"cebpf4jnsgd1na2vs0mg"},{"bike_id":"efa56788-fd95-4d6e-84ce-b31b80bc3dea","system_id":"levelo_inurba_marseille","lat":43.29275,"lon":5.37438,"is_reserved":false,"is_disabled":true,"rental_uris":{"android":"levelo://app?vid=efa56788-fd95-4d6e-84ce-b31b80bc3dea","ios":"levelo://app?vid=efa56788-fd95-4d6e-84ce-b31b80bc3dea"},"vehicle_type_id":"4","last_reported":1773853381,"current_range_meters":4800,"station_id":"ce4bgi12rcd13ifvqb70","pricing_plan_id":"cebpf4jnsgd1na2vs0mg"},{"bike_id":"cf49dc12-4a63-4ebe-bc28-e24314a4ed14","system_id":"levelo_inurba_marseille","lat":43.23198,"lon":5.35556,"is_reserved":false,"is_disabled":false,"rental_uris":{"android":"levelo://app?vid=cf49dc12-4a63-4ebe-bc28-e24314a4ed14","ios":"levelo://app?vid=cf49dc12-4a63-4ebe-bc28-e24314a4ed14"},"vehicle_type_id":"4","last_reported":1773853381,"current_range_meters":4800,"station_id":"ce4bhu92rcd13ifvqi70","pricing_plan_id":"cebpf4jnsgd1na2vs0mg"},{"bike_id":"4a33c2fa-8ae9-4288-a978-d90fafdae7fa","system_id":"levelo_inurba_marseille","lat":43.29787,"lon":5.39335,"is_reserved":false,"is_disabled":false,"rental_uris":{"android":"levelo://app?vid=4a33c2fa-8ae9-4288-a978-d90fafdae7fa","ios":"levelo://app?vid=4a33c2fa-8ae9-4288-a978-d90fafdae7fa"},"vehicle_type_id":"4","last_reported":1773853381,"current_range_meters":4800,"station_id":"chh1huq6cuj3fo74tm60","pricing_plan_id":"cebpf4jnsgd1na2vs0mg"},{"bike_id":"d44c1a9c-785a-4af2-9cdf-c1cf47bed6bd","system_id":"levelo_inurba_marseille","lat":43.28938,"lon":5.36642,"is_reserved":false,"is_disabled":false,"rental_uris":{"android":"levelo://app?vid=d44c1a9c-785a-4af2-9cdf-c1cf47bed6bd","ios":"levelo://app?vid=d44c1a9c-785a-4af2-9cdf-c1cf47bed6bd"},"vehicle_type_id":"4","last_reported":1773853381,"current_range_meters":4800,"station_id":"ce4bhap2rcd13ifvqek0","pricing_plan_id":"cebpf4jnsgd1na2vs0mg"},{"bike_id":"cb2c175e-fc1a-43c7-8316-e12b1c668a27","system_id":"levelo_inurba_marseille","lat":43.30527,"lon":5.36726,"is_reserved":false,"is_disabled":true,"rental_uris":{"android":"levelo://app?vid=cb2c175e-fc1a-43c7-8316-e12b1c668a27","ios":"levelo://app?vid=cb2c175e-fc1a-43c7-8316-e12b1c668a27"},"vehicle_type_id":"4","last_reported":1773853381,"current_range_meters":5600,"station_id":"ce4bgrp2rcd13ifvqc9g","pricing_plan_id":"cebpf4jnsgd1na2vs0mg"},{"bike_id":"4f5be7bd-8bd9-4195-8304-bfa4c36e87f7","system_id":"levelo_inurba_marseille","lat":43.29509,"lon":5.43328,"is_reserved":false,"is_disabled":false,"rental_uris":{"android":"levelo://app?vid=4f5be7bd-8bd9-4195-8304-bfa4c36e87f7","ios":"levelo://app?vid=4f5be7bd-8bd9-4195-8304-bfa4c36e87f7"},"vehicle_type_id":"4","last_reported":1773853381,"current_range_meters":5600,"station_id":"st_d3j5ugp08ojc73fj9d10","pricing_plan_id":"cebpf4jnsgd1na2vs0mg"},{"bike_id":"b703c509-0a53-4f14-907b-c60fb0017c10","system_id":"levelo_inurba_marseille","lat":43.30968,"lon":5.37178,"is_reserved":false,"is_disabled":false,"rental_uris":{"android":"levelo://app?vid=b703c509-0a53-4f14-907b-c60fb0017c10","ios":"levelo://app?vid=b703c509-0a53-4f14-907b-c60fb0017c10"},"vehicle_type_id":"4","last_reported":1773853381,"current_range_meters":5600,"station_id":"","pricing_plan_id":"cebpf4jnsgd1na2vs0mg"},{"bike_id":"e563383a-8a89-4304-b11f-18268886193e","system_id":"levelo_inurba_marseille","lat":43.25574,"lon":5.38236,"is_reserved":false,"is_disabled":false,"rental_uris":{"android":"levelo://app?vid=e563383a-8a89-4304-b11f-18268886193e","ios":"levelo://app?vid=e563383a-8a89-4304-b11f-18268886193e"},"vehicle_type_id":"4","last_reported":1773853381,"current_range_meters":5600,"station_id":"ce4bhih2rcd13ifvqfs0","pricing_plan_id":"cebpf4jnsgd1na2vs0mg"},{"bike_id":"e1282d04-f7b7-4606-b775-ed192685a5f4","system_id":"levelo_inurba_marseille","lat":43.24156,"lon":5.39675,"is_reserved":false,"is_disabled":true,"rental_uris":{"android":"levelo://app?vid=e1282d04-f7b7-4606-b775-ed192685a5f4","ios":"levelo://app?vid=e1282d04-f7b7-4606-b775-ed192685a5f4"},"vehicle_type_id":"4","last_reported":1773853381,"current_range_meters":5600,"station_id":"ce4bhn12rcd13ifvqgpg","pricing_plan_id":"cebpf4jnsgd1na2vs0mg"},{"bike_id":"410674fb-b147-4520-96f8-270991ce6873","system_id":"levelo_inurba_marseille","lat":43.298008,"lon":5.40407,"is_reserved":false,"is_disabled":false,"rental_uris":{"android":"levelo://app?vid=410674fb-b147-4520-96f8-270991ce6873","ios":"levelo://app?vid=410674fb-b147-4520-96f8-270991ce6873"},"vehicle_type_id":"4","last_reported":1773853381,"current_range_meters":5600,"station_id":"ce4bh112rcd13ifvqd90","pricing_plan_id":"cebpf4jnsgd1na2vs0mg"},{"bike_id":"3feb4c73-6e63-47f9-927f-446525b49f72","system_id":"levelo_inurba_marseille","lat":43.31894,"lon":5.36814,"is_reserved":false,"is_disabled":false,"rental_uris":{"android":"levelo://app?vid=3feb4c73-6e63-47f9-927f-446525b49f72","ios":"levelo://app?vid=3feb4c73-6e63-47f9-927f-446525b49f72"},"vehicle_type_id":"4","last_reported":1773853381,"current_range_meters":5600,"station_id":"st_d6o2h0d0559c73evc1b0","pricing_plan_id":"cebpf4jnsgd1na2vs0mg"},{"bike_id":"4bba5189-f328-4334-910f-711b0731bab4","system_id":"levelo_inurba_marseille","lat":43.26943,"lon":5.40258,"is_reserved":false,"is_disabled":false,"rental_uris":{"android":"levelo://app?vid=4bba5189-f328-4334-910f-711b0731bab4","ios":"levelo://app?vid=4bba5189-f328-4334-910f-711b0731bab4"},"vehicle_type_id":"4","last_reported":1773853381,"current_range_meters":5600,"station_id":"cjm6bp8fraef2m0cb0m0","pricing_plan_id":"cebpf4jnsgd1na2vs0mg"},{"bike_id":"f8a00c49-c93d-41ce-9f11-d81257ca6394","system_id":"levelo_inurba_marseille","lat":43.22943,"lon":5.35394,"is_reserved":false,"is_disabled":false,"rental_uris":{"android":"levelo://app?vid=f8a00c49-c93d-41ce-9f11-d81257ca6394","ios":"levelo://app?vid=f8a00c49-c93d-41ce-9f11-d81257ca6394"},"vehicle_type_id":"4","last_reported":1773853381,"current_range_meters":5600,"station_id":"cpo3532slgdg3j2ikp40","pricing_plan_id":"cebpf4jnsgd1na2vs0mg"},{"bike_id":"052529ef-e830-4cab-8ec5-80cc67e17b5c","system_id":"levelo_inurba_marseille","lat":43.29557,"lon":5.42292,"is_reserved":false,"is_disabled":false,"rental_uris":{"android":"levelo://app?vid=052529ef-e830-4cab-8ec5-80cc67e17b5c","ios":"levelo://app?vid=052529ef-e830-4cab-8ec5-80cc67e17b5c"},"vehicle_type_id":"4","last_reported":1773853381,"current_range_meters":5600,"station_id":"ce4bhph2rcd13ifvqhdg","pricing_plan_id":"cebpf4jnsgd1na2vs0mg"},{"bike_id":"40b4c9a9-7a66-4906-8741-41c41b4ee56b","system_id":"levelo_inurba_marseille","lat":43.27067,"lon":5.42273,"is_reserved":false,"is_disabled":true,"rental_uris":{"android":"levelo://app?vid=40b4c9a9-7a66-4906-8741-41c41b4ee56b","ios":"levelo://app?vid=40b4c9a9-7a66-4906-8741-41c41b4ee56b"},"vehicle_type_id":"4","last_reported":1773853381,"current_range_meters":5600,"station_id":"ce4bhk92rcd13ifvqgb0","pricing_plan_id":"cebpf4jnsgd1na2vs0mg"},{"bike_id":"3b0fe8fc-5382-4c60-9b8f-69da3367f913","system_id":"levelo_inurba_marseille","lat":43.26499,"lon":5.39534,"is_reserved":false,"is_disabled":false,"rental_uris":{"android":"levelo://app?vid=3b0fe8fc-5382-4c60-9b8f-69da3367f913","ios":"levelo://app?vid=3b0fe8fc-5382-4c60-9b8f-69da3367f913"},"vehicle_type_id":"4","last_reported":1773853381,"current_range_meters":5600,"station_id":"ce4bhi12rcd13ifvqfq0","pricing_plan_id":"cebpf4jnsgd1na2vs0mg"},{"bike_id":"a17cb982-aeaf-4d4a-aca3-df4534d39162","system_id":"levelo_inurba_marseille","lat":43.28861,"lon":5.35845,"is_reserved":false,"is_disabled":false,"rental_uris":{"android":"levelo://app?vid=a17cb982-aeaf-4d4a-aca3-df4534d39162","ios":"levelo://app?vid=a17cb982-aeaf-4d4a-aca3-df4534d39162"},"vehicle_type_id":"4","last_reported":1773853381,"current_range_meters":5600,"station_id":"ce4bhb12rcd13ifvqem0","pricing_plan_id":"cebpf4jnsgd1na2vs0mg"},{"bike_id":"052c329f-19a6-48ab-ba9f-1d15ae7d3f09","system_id":"levelo_inurba_marseille","lat":43.3105,"lon":5.3717,"is_reserved":false,"is_disabled":false,"rental_uris":{"android":"levelo://app?vid=052c329f-19a6-48ab-ba9f-1d15ae7d3f09","ios":"levelo://app?vid=052c329f-19a6-48ab-ba9f-1d15ae7d3f09"},"vehicle_type_id":"4","last_reported":1773853381,"current_range_meters":6000,"station_id":"st_d4kl2rp97mjs73e7tdfg","pricing_plan_id":"cebpf4jnsgd1na2vs0mg"},{"bike_id":"88697e8b-01fd-4696-bab5-73747ef3d57e","system_id":"levelo_inurba_marseille","lat":43.21766,"lon":5.34633,"is_reserved":false,"is_disabled":false,"rental_uris":{"android":"levelo://app?vid=88697e8b-01fd-4696-bab5-73747ef3d57e","ios":"levelo://app?vid=88697e8b-01fd-4696-bab5-73747ef3d57e"},"vehicle_type_id":"4","last_reported":1773853381,"current_range_meters":6000,"station_id":"st_cvj6r9ubvosntc0bgbag","pricing_plan_id":"cebpf4jnsgd1na2vs0mg"},{"bike_id":"7c27bbc1-43c8-4af1-8a34-48b79713d044","system_id":"levelo_inurba_marseille","lat":43.21199,"lon":5.35077,"is_reserved":false,"is_disabled":false,"rental_uris":{"android":"levelo://app?vid=7c27bbc1-43c8-4af1-8a34-48b79713d044","ios":"levelo://app?vid=7c27bbc1-43c8-4af1-8a34-48b79713d044"},"vehicle_type_id":"4","last_reported":1773853381,"current_range_meters":6000,"station_id":"st_cvj6sg6p6f1abm77japg","pricing_plan_id":"cebpf4jnsgd1na2vs0mg"},{"bike_id":"70f98469-d2c0-43f4-9102-c6ad6fb97bca","system_id":"levelo_inurba_marseille","lat":43.21746,"lon":5.34602,"is_reserved":false,"is_disabled":false,"rental_uris":{"android":"levelo://app?vid=70f98469-d2c0-43f4-9102-c6ad6fb97bca","ios":"levelo://app?vid=70f98469-d2c0-43f4-9102-c6ad6fb97bca"},"vehicle_type_id":"4","last_reported":1773853381,"current_range_meters":6000,"station_id":"st_cvj6r9ubvosntc0bgbag","pricing_plan_id":"cebpf4jnsgd1na2vs0mg"},{"bike_id":"b1e50f0e-4646-41d9-a58e-27b33cfa656f","system_id":"levelo_inurba_marseille","lat":43.29533,"lon":5.38534,"is_reserved":false,"is_disabled":false,"rental_uris":{"android":"levelo://app?vid=b1e50f0e-4646-41d9-a58e-27b33cfa656f","ios":"levelo://app?vid=b1e50f0e-4646-41d9-a58e-27b33cfa656f"},"vehicle_type_id":"4","last_reported":1773853381,"current_range_meters":6000,"station_id":"ce4bgih2rcd13ifvqba0","pricing_plan_id":"cebpf4jnsgd1na2vs0mg"},{"bike_id":"acee938d-a721-4472-a52b-4b126dfe5bdb","system_id":"levelo_inurba_marseille","lat":43.26219,"lon":5.37448,"is_reserved":false,"is_disabled":false,"rental_uris":{"android":"levelo://app?vid=acee938d-a721-4472-a52b-4b126dfe5bdb","ios":"levelo://app?vid=acee938d-a721-4472-a52b-4b126dfe5bdb"},"vehicle_type_id":"4","last_reported":1773853381,"current_range_meters":6000,"station_id":"ce4bhgp2rcd13ifvqfc0","pricing_plan_id":"cebpf4jnsgd1na2vs0mg"},{"bike_id":"193b507b-35a6-4c74-b139-c807192201fa","system_id":"levelo_inurba_marseille","lat":43.28157,"lon":5.42637,"is_reserved":false,"is_disabled":false,"rental_uris":{"android":"levelo://app?vid=193b507b-35a6-4c74-b139-c807192201fa","ios":"levelo://app?vid=193b507b-35a6-4c74-b139-c807192201fa"},"vehicle_type_id":"4","last_reported":1773853381,"current_range_meters":6000,"station_id":"ce4bhnh2rcd13ifvqgug","pricing_plan_id":"cebpf4jnsgd1na2vs0mg"},{"bike_id":"f7315d1e-73c8-4876-9e17-aedad5ed61d7","system_id":"levelo_inurba_marseille","lat":43.31131,"lon":5.38645,"is_reserved":false,"is_disabled":false,"rental_uris":{"android":"levelo://app?vid=f7315d1e-73c8-4876-9e17-aedad5ed61d7","ios":"levelo://app?vid=f7315d1e-73c8-4876-9e17-aedad5ed61d7"},"vehicle_type_id":"4","last_reported":1773853381,"current_range_meters":6000,"station_id":"","pricing_plan_id":"cebpf4jnsgd1na2vs0mg"},{"bike_id":"03b4bfed-c989-4a07-b093-460c16c27acc","system_id":"levelo_inurba_marseille","lat":43.29274,"lon":5.38441,"is_reserved":false,"is_disabled":false,"rental_uris":{"android":"levelo://app?vid=03b4bfed-c989-4a07-b093-460c16c27acc","ios":"levelo://app?vid=03b4bfed-c989-4a07-b093-460c16c27acc"},"vehicle_type_id":"4","last_reported":1773853381,"current_range_meters":6000,"station_id":"ce4bh692rcd13ifvqea0","pricing_plan_id":"cebpf4jnsgd1na2vs0mg"},{"bike_id":"0aff73f0-36f2-49db-94ce-9dff8dc2a102","system_id":"levelo_inurba_marseille","lat":43.28484,"lon":5.38438,"is_reserved":false,"is_disabled":false,"rental_uris":{"android":"levelo://app?vid=0aff73f0-36f2-49db-94ce-9dff8dc2a102","ios":"levelo://app?vid=0aff73f0-36f2-49db-94ce-9dff8dc2a102"},"vehicle_type_id":"4","last_reported":1773853381,"current_range_meters":6000,"station_id":"ce4bh512rcd13ifvqe3g","pricing_plan_id":"cebpf4jnsgd1na2vs0mg"},{"bike_id":"2706db3b-3f01-4b6b-a1e9-42e6bda22571","system_id":"levelo_inurba_marseille","lat":43.26199,"lon":5.37291,"is_reserved":false,"is_disabled":false,"rental_uris":{"android":"levelo://app?vid=2706db3b-3f01-4b6b-a1e9-42e6bda22571","ios":"levelo://app?vid=2706db3b-3f01-4b6b-a1e9-42e6bda22571"},"vehicle_type_id":"4","last_reported":1773853381,"current_range_meters":6000,"station_id":"","pricing_plan_id":"cebpf4jnsgd1na2vs0mg"},{"bike_id":"16967007-8cd0-40e7-804c-e46eb8ee368b","system_id":"levelo_inurba_marseille","lat":43.25106,"lon":5.40322,"is_reserved":false,"is_disabled":false,"rental_uris":{"android":"levelo://app?vid=16967007-8cd0-40e7-804c-e46eb8ee368b","ios":"levelo://app?vid=16967007-8cd0-40e7-804c-e46eb8ee368b"},"vehicle_type_id":"4","last_reported":1773853381,"current_range_meters":6400,"station_id":"ce4bhlh2rcd13ifvqgig","pricing_plan_id":"cebpf4jnsgd1na2vs0mg"},{"bike_id":"82304c29-4882-4609-8ac8-14cd6fc2d3aa","system_id":"levelo_inurba_marseille","lat":43.30289,"lon":5.37719,"is_reserved":false,"is_disabled":false,"rental_uris":{"android":"levelo://app?vid=82304c29-4882-4609-8ac8-14cd6fc2d3aa","ios":"levelo://app?vid=82304c29-4882-4609-8ac8-14cd6fc2d3aa"},"vehicle_type_id":"4","last_reported":1773853381,"current_range_meters":6400,"station_id":"ce4bguh2rcd13ifvqcj0","pricing_plan_id":"cebpf4jnsgd1na2vs0mg"},{"bike_id":"037cf032-eb8e-4648-9ef1-ac94f6c7ef83","system_id":"levelo_inurba_marseille","lat":43.29338,"lon":5.37142,"is_reserved":false,"is_disabled":false,"rental_uris":{"android":"levelo://app?vid=037cf032-eb8e-4648-9ef1-ac94f6c7ef83","ios":"levelo://app?vid=037cf032-eb8e-4648-9ef1-ac94f6c7ef83"},"vehicle_type_id":"4","last_reported":1773853381,"current_range_meters":6400,"station_id":"ce4bgh92rcd13ifvqb40","pricing_plan_id":"cebpf4jnsgd1na2vs0mg"},{"bike_id":"766aba37-5f86-44fb-9475-138eee346aeb","system_id":"levelo_inurba_marseille","lat":43.306005,"lon":5.372295,"is_reserved":false,"is_disabled":false,"rental_uris":{"android":"levelo://app?vid=766aba37-5f86-44fb-9475-138eee346aeb","ios":"levelo://app?vid=766aba37-5f86-44fb-9475-138eee346aeb"},"vehicle_type_id":"4","last_reported":1773853381,"current_range_meters":6400,"station_id":"ce4bgqh2rcd13ifvqc4g","pricing_plan_id":"cebpf4jnsgd1na2vs0mg"},{"bike_id":"1ebec2f2-6d66-4dcc-8994-638f367e094e","system_id":"levelo_inurba_marseille","lat":43.26549,"lon":5.39546,"is_reserved":false,"is_disabled":false,"rental_uris":{"android":"levelo://app?vid=1ebec2f2-6d66-4dcc-8994-638f367e094e","ios":"levelo://app?vid=1ebec2f2-6d66-4dcc-8994-638f367e094e"},"vehicle_type_id":"4","last_reported":1773853381,"current_range_meters":6400,"station_id":"","pricing_plan_id":"cebpf4jnsgd1na2vs0mg"},{"bike_id":"8cbe94f7-0cf6-4aef-ab8b-c7a9685c39a1","system_id":"levelo_inurba_marseille","lat":43.31172,"lon":5.38713,"is_reserved":false,"is_disabled":false,"rental_uris":{"android":"levelo://app?vid=8cbe94f7-0cf6-4aef-ab8b-c7a9685c39a1","ios":"levelo://app?vid=8cbe94f7-0cf6-4aef-ab8b-c7a9685c39a1"},"vehicle_type_id":"4","last_reported":1773853381,"current_range_meters":6400,"station_id":"ce4bgv12rcd13ifvqcp0","pricing_plan_id":"cebpf4jnsgd1na2vs0mg"},{"bike_id":"6d8e23db-a1a6-41ce-90fb-a686b32dba80","system_id":"levelo_inurba_marseille","lat":43.29784,"lon":5.38519,"is_reserved":false,"is_disabled":false,"rental_uris":{"android":"levelo://app?vid=6d8e23db-a1a6-41ce-90fb-a686b32dba80","ios":"levelo://app?vid=6d8e23db-a1a6-41ce-90fb-a686b32dba80"},"vehicle_type_id":"4","last_reported":1773853381,"current_range_meters":6400,"station_id":"","pricing_plan_id":"cebpf4jnsgd1na2vs0mg"},{"bike_id":"e32dc013-3545-4c4b-a841-4fe04fe3ee3c","system_id":"levelo_inurba_marseille","lat":43.27378,"lon":5.36264,"is_reserved":false,"is_disabled":false,"rental_uris":{"android":"levelo://app?vid=e32dc013-3545-4c4b-a841-4fe04fe3ee3c","ios":"levelo://app?vid=e32dc013-3545-4c4b-a841-4fe04fe3ee3c"},"vehicle_type_id":"4","last_reported":1773853381,"current_range_meters":6400,"station_id":"ce4bhbh2rcd13ifvqeo0","pricing_plan_id":"cebpf4jnsgd1na2vs0mg"},{"bike_id":"a266db77-7d4b-47a3-b204-b136086706b0","system_id":"levelo_inurba_marseille","lat":43.31168,"lon":5.369,"is_reserved":false,"is_disabled":false,"rental_uris":{"android":"levelo://app?vid=a266db77-7d4b-47a3-b204-b136086706b0","ios":"levelo://app?vid=a266db77-7d4b-47a3-b204-b136086706b0"},"vehicle_type_id":"4","last_reported":1773853381,"current_range_meters":6400,"station_id":"","pricing_plan_id":"cebpf4jnsgd1na2vs0mg"},{"bike_id":"7c245f6b-63fb-4c36-8493-afb8fd5288f8","system_id":"levelo_inurba_marseille","lat":43.31182,"lon":5.39077,"is_reserved":false,"is_disabled":false,"rental_uris":{"android":"levelo://app?vid=7c245f6b-63fb-4c36-8493-afb8fd5288f8","ios":"levelo://app?vid=7c245f6b-63fb-4c36-8493-afb8fd5288f8"},"vehicle_type_id":"4","last_reported":1773853381,"current_range_meters":6400,"station_id":"","pricing_plan_id":"cebpf4jnsgd1na2vs0mg"},{"bike_id":"b509c14c-cfc4-4b55-8e9b-bceaa717827f","system_id":"levelo_inurba_marseille","lat":43.26212,"lon":5.37445,"is_reserved":false,"is_disabled":false,"rental_uris":{"android":"levelo://app?vid=b509c14c-cfc4-4b55-8e9b-bceaa717827f","ios":"levelo://app?vid=b509c14c-cfc4-4b55-8e9b-bceaa717827f"},"vehicle_type_id":"4","last_reported":1773853381,"current_range_meters":6400,"station_id":"ce4bhgp2rcd13ifvqfc0","pricing_plan_id":"cebpf4jnsgd1na2vs0mg"},{"bike_id":"383333ab-900a-4d8e-9e5f-5f8443133843","system_id":"levelo_inurba_marseille","lat":43.23965,"lon":5.36654,"is_reserved":false,"is_disabled":true,"rental_uris":{"android":"levelo://app?vid=383333ab-900a-4d8e-9e5f-5f8443133843","ios":"levelo://app?vid=383333ab-900a-4d8e-9e5f-5f8443133843"},"vehicle_type_id":"4","last_reported":1773853381,"current_range_meters":6400,"station_id":"ce4bhi12rcd13ifvqfp0","pricing_plan_id":"cebpf4jnsgd1na2vs0mg"},{"bike_id":"0f0f3f3e-0b16-46b6-a723-9cf6c82a3bfc","system_id":"levelo_inurba_marseille","lat":43.2751,"lon":5.41578,"is_reserved":false,"is_disabled":false,"rental_uris":{"android":"levelo://app?vid=0f0f3f3e-0b16-46b6-a723-9cf6c82a3bfc","ios":"levelo://app?vid=0f0f3f3e-0b16-46b6-a723-9cf6c82a3bfc"},"vehicle_type_id":"4","last_reported":1773853381,"current_range_meters":6400,"station_id":"st_d6im8g6chgec73a5pndg","pricing_plan_id":"cebpf4jnsgd1na2vs0mg"},{"bike_id":"50e0584e-4dc0-49b6-950a-79953725031f","system_id":"levelo_inurba_marseille","lat":43.23061,"lon":5.3547,"is_reserved":false,"is_disabled":false,"rental_uris":{"android":"levelo://app?vid=50e0584e-4dc0-49b6-950a-79953725031f","ios":"levelo://app?vid=50e0584e-4dc0-49b6-950a-79953725031f"},"vehicle_type_id":"4","last_reported":1773853381,"current_range_meters":6400,"station_id":"cpo3342slgdg3j2ifvpg","pricing_plan_id":"cebpf4jnsgd1na2vs0mg"},{"bike_id":"678b6c9c-a116-4af5-b89b-a22995431517","system_id":"levelo_inurba_marseille","lat":43.25585,"lon":5.38214,"is_reserved":false,"is_disabled":false,"rental_uris":{"android":"levelo://app?vid=678b6c9c-a116-4af5-b89b-a22995431517","ios":"levelo://app?vid=678b6c9c-a116-4af5-b89b-a22995431517"},"vehicle_type_id":"4","last_reported":1773853381,"current_range_meters":6400,"station_id":"ce4bhih2rcd13ifvqfs0","pricing_plan_id":"cebpf4jnsgd1na2vs0mg"},{"bike_id":"5032ee4c-643b-4fa7-8a5c-8d5e764831f6","system_id":"levelo_inurba_marseille","lat":43.21738,"lon":5.34602,"is_reserved":false,"is_disabled":false,"rental_uris":{"android":"levelo://app?vid=5032ee4c-643b-4fa7-8a5c-8d5e764831f6","ios":"levelo://app?vid=5032ee4c-643b-4fa7-8a5c-8d5e764831f6"},"vehicle_type_id":"4","last_reported":1773853381,"current_range_meters":6800,"station_id":"st_cvj6r9ubvosntc0bgbag","pricing_plan_id":"cebpf4jnsgd1na2vs0mg"},{"bike_id":"7287b8bb-199e-4d3a-9144-1aca82d116c7","system_id":"levelo_inurba_marseille","lat":43.275732,"lon":5.384421,"is_reserved":false,"is_disabled":false,"rental_uris":{"android":"levelo://app?vid=7287b8bb-199e-4d3a-9144-1aca82d116c7","ios":"levelo://app?vid=7287b8bb-199e-4d3a-9144-1aca82d116c7"},"vehicle_type_id":"4","last_reported":1773853381,"current_range_meters":6800,"station_id":"ce4bhh92rcd13ifvqfi0","pricing_plan_id":"cebpf4jnsgd1na2vs0mg"},{"bike_id":"6b80d3c5-022e-411d-9c37-08980d3e1e31","system_id":"levelo_inurba_marseille","lat":43.31339,"lon":5.38517,"is_reserved":false,"is_disabled":false,"rental_uris":{"android":"levelo://app?vid=6b80d3c5-022e-411d-9c37-08980d3e1e31","ios":"levelo://app?vid=6b80d3c5-022e-411d-9c37-08980d3e1e31"},"vehicle_type_id":"4","last_reported":1773853381,"current_range_meters":6800,"station_id":"ce4bgt92rcd13ifvqcf0","pricing_plan_id":"cebpf4jnsgd1na2vs0mg"},{"bike_id":"d86f7f17-c40c-40d2-9445-70d30fa0ef64","system_id":"levelo_inurba_marseille","lat":43.21747,"lon":5.34623,"is_reserved":false,"is_disabled":true,"rental_uris":{"android":"levelo://app?vid=d86f7f17-c40c-40d2-9445-70d30fa0ef64","ios":"levelo://app?vid=d86f7f17-c40c-40d2-9445-70d30fa0ef64"},"vehicle_type_id":"4","last_reported":1773853381,"current_range_meters":6800,"station_id":"st_cvj6r9ubvosntc0bgbag","pricing_plan_id":"cebpf4jnsgd1na2vs0mg"},{"bike_id":"278f6ce5-5d85-4196-a90f-8eed61c86155","system_id":"levelo_inurba_marseille","lat":43.26955,"lon":5.38628,"is_reserved":false,"is_disabled":false,"rental_uris":{"android":"levelo://app?vid=278f6ce5-5d85-4196-a90f-8eed61c86155","ios":"levelo://app?vid=278f6ce5-5d85-4196-a90f-8eed61c86155"},"vehicle_type_id":"4","last_reported":1773853381,"current_range_meters":6800,"station_id":"ce4bhh92rcd13ifvqfh0","pricing_plan_id":"cebpf4jnsgd1na2vs0mg"},{"bike_id":"6affb947-f924-4ce3-98c5-972178d1ea60","system_id":"levelo_inurba_marseille","lat":43.30134,"lon":5.39849,"is_reserved":false,"is_disabled":false,"rental_uris":{"android":"levelo://app?vid=6affb947-f924-4ce3-98c5-972178d1ea60","ios":"levelo://app?vid=6affb947-f924-4ce3-98c5-972178d1ea60"},"vehicle_type_id":"4","last_reported":1773853381,"current_range_meters":6800,"station_id":"ce4bh0h2rcd13ifvqd40","pricing_plan_id":"cebpf4jnsgd1na2vs0mg"},{"bike_id":"7b3ebdcb-0b54-4b8b-842c-9dec380da7b8","system_id":"levelo_inurba_marseille","lat":43.29632,"lon":5.38785,"is_reserved":false,"is_disabled":false,"rental_uris":{"android":"levelo://app?vid=7b3ebdcb-0b54-4b8b-842c-9dec380da7b8","ios":"levelo://app?vid=7b3ebdcb-0b54-4b8b-842c-9dec380da7b8"},"vehicle_type_id":"4","last_reported":1773853381,"current_range_meters":6800,"station_id":"","pricing_plan_id":"cebpf4jnsgd1na2vs0mg"},{"bike_id":"04a672df-c3bb-4c7f-bb76-8e3d4b80c3af","system_id":"levelo_inurba_marseille","lat":43.284064,"lon":5.37511,"is_reserved":false,"is_disabled":false,"rental_uris":{"android":"levelo://app?vid=04a672df-c3bb-4c7f-bb76-8e3d4b80c3af","ios":"levelo://app?vid=04a672df-c3bb-4c7f-bb76-8e3d4b80c3af"},"vehicle_type_id":"4","last_reported":1773853381,"current_range_meters":6800,"station_id":"ce4bh412rcd13ifvqds0","pricing_plan_id":"cebpf4jnsgd1na2vs0mg"},{"bike_id":"b7e87515-c3ea-478e-bf01-a70f86b2f092","system_id":"levelo_inurba_marseille","lat":43.24245,"lon":5.36564,"is_reserved":false,"is_disabled":false,"rental_uris":{"android":"levelo://app?vid=b7e87515-c3ea-478e-bf01-a70f86b2f092","ios":"levelo://app?vid=b7e87515-c3ea-478e-bf01-a70f86b2f092"},"vehicle_type_id":"4","last_reported":1773853381,"current_range_meters":6800,"station_id":"cpo36qri1sfpv3e86is0","pricing_plan_id":"cebpf4jnsgd1na2vs0mg"},{"bike_id":"6b09bcf2-f7c1-4518-b5f9-a1797d79ee59","system_id":"levelo_inurba_marseille","lat":43.262071,"lon":5.379273,"is_reserved":false,"is_disabled":false,"rental_uris":{"android":"levelo://app?vid=6b09bcf2-f7c1-4518-b5f9-a1797d79ee59","ios":"levelo://app?vid=6b09bcf2-f7c1-4518-b5f9-a1797d79ee59"},"vehicle_type_id":"4","last_reported":1773853381,"current_range_meters":6800,"station_id":"ce4bhjp2rcd13ifvqg90","pricing_plan_id":"cebpf4jnsgd1na2vs0mg"},{"bike_id":"ee206628-58d2-4e13-b61f-f55e529e633b","system_id":"levelo_inurba_marseille","lat":43.29547,"lon":5.38539,"is_reserved":false,"is_disabled":false,"rental_uris":{"android":"levelo://app?vid=ee206628-58d2-4e13-b61f-f55e529e633b","ios":"levelo://app?vid=ee206628-58d2-4e13-b61f-f55e529e633b"},"vehicle_type_id":"4","last_reported":1773853381,"current_range_meters":6800,"station_id":"ce4bgih2rcd13ifvqba0","pricing_plan_id":"cebpf4jnsgd1na2vs0mg"},{"bike_id":"779b8a3c-1846-46b5-9cab-bf0ec2b1118f","system_id":"levelo_inurba_marseille","lat":43.28479,"lon":5.48381,"is_reserved":false,"is_disabled":false,"rental_uris":{"android":"levelo://app?vid=779b8a3c-1846-46b5-9cab-bf0ec2b1118f","ios":"levelo://app?vid=779b8a3c-1846-46b5-9cab-bf0ec2b1118f"},"vehicle_type_id":"4","last_reported":1773853381,"current_range_meters":6800,"station_id":"st_d3svhcjqgbts73a3dn0g","pricing_plan_id":"cebpf4jnsgd1na2vs0mg"},{"bike_id":"91472141-3427-4a3c-8d44-aa322d033af6","system_id":"levelo_inurba_marseille","lat":43.28938,"lon":5.38382,"is_reserved":false,"is_disabled":false,"rental_uris":{"android":"levelo://app?vid=91472141-3427-4a3c-8d44-aa322d033af6","ios":"levelo://app?vid=91472141-3427-4a3c-8d44-aa322d033af6"},"vehicle_type_id":"4","last_reported":1773853381,"current_range_meters":6800,"station_id":"ce4bh612rcd13ifvqe6g","pricing_plan_id":"cebpf4jnsgd1na2vs0mg"},{"bike_id":"d642e866-0e29-4ddc-94cc-0695970a966b","system_id":"levelo_inurba_marseille","lat":43.30887,"lon":5.36882,"is_reserved":false,"is_disabled":false,"rental_uris":{"android":"levelo://app?vid=d642e866-0e29-4ddc-94cc-0695970a966b","ios":"levelo://app?vid=d642e866-0e29-4ddc-94cc-0695970a966b"},"vehicle_type_id":"4","last_reported":1773853381,"current_range_meters":7200,"station_id":"ce4bgn92rcd13ifvqbvg","pricing_plan_id":"cebpf4jnsgd1na2vs0mg"},{"bike_id":"78811ac8-d0b5-417a-afd7-1b7b81fef5f5","system_id":"levelo_inurba_marseille","lat":43.23169,"lon":5.437,"is_reserved":false,"is_disabled":false,"rental_uris":{"android":"levelo://app?vid=78811ac8-d0b5-417a-afd7-1b7b81fef5f5","ios":"levelo://app?vid=78811ac8-d0b5-417a-afd7-1b7b81fef5f5"},"vehicle_type_id":"4","last_reported":1773853381,"current_range_meters":7200,"station_id":"ce4bhmp2rcd13ifvqgog","pricing_plan_id":"cebpf4jnsgd1na2vs0mg"},{"bike_id":"c0ce446a-9085-4968-895d-00725cc652ae","system_id":"levelo_inurba_marseille","lat":43.29557,"lon":5.42288,"is_reserved":false,"is_disabled":false,"rental_uris":{"android":"levelo://app?vid=c0ce446a-9085-4968-895d-00725cc652ae","ios":"levelo://app?vid=c0ce446a-9085-4968-895d-00725cc652ae"},"vehicle_type_id":"4","last_reported":1773853381,"current_range_meters":7200,"station_id":"ce4bhph2rcd13ifvqhdg","pricing_plan_id":"cebpf4jnsgd1na2vs0mg"},{"bike_id":"1eeb8fd8-3c0c-40ec-bab7-6b173acf9405","system_id":"levelo_inurba_marseille","lat":43.22934,"lon":5.35369,"is_reserved":false,"is_disabled":false,"rental_uris":{"android":"levelo://app?vid=1eeb8fd8-3c0c-40ec-bab7-6b173acf9405","ios":"levelo://app?vid=1eeb8fd8-3c0c-40ec-bab7-6b173acf9405"},"vehicle_type_id":"4","last_reported":1773853381,"current_range_meters":7200,"station_id":"cpo3532slgdg3j2ikp40","pricing_plan_id":"cebpf4jnsgd1na2vs0mg"},{"bike_id":"4ca5e067-9350-4cc0-855c-d565dcef7221","system_id":"levelo_inurba_marseille","lat":43.23199,"lon":5.35567,"is_reserved":false,"is_disabled":false,"rental_uris":{"android":"levelo://app?vid=4ca5e067-9350-4cc0-855c-d565dcef7221","ios":"levelo://app?vid=4ca5e067-9350-4cc0-855c-d565dcef7221"},"vehicle_type_id":"4","last_reported":1773853381,"current_range_meters":7200,"station_id":"ce4bhu92rcd13ifvqi70","pricing_plan_id":"cebpf4jnsgd1na2vs0mg"},{"bike_id":"b1678298-3f5b-4e9b-bb34-63fa7c9d9c9c","system_id":"levelo_inurba_marseille","lat":43.28463,"lon":5.48397,"is_reserved":false,"is_disabled":false,"rental_uris":{"android":"levelo://app?vid=b1678298-3f5b-4e9b-bb34-63fa7c9d9c9c","ios":"levelo://app?vid=b1678298-3f5b-4e9b-bb34-63fa7c9d9c9c"},"vehicle_type_id":"4","last_reported":1773853381,"current_range_meters":7200,"station_id":"","pricing_plan_id":"cebpf4jnsgd1na2vs0mg"},{"bike_id":"90e06dc1-4034-4aa0-b2a4-e14e93cda8f6","system_id":"levelo_inurba_marseille","lat":43.28464,"lon":5.35898,"is_reserved":false,"is_disabled":false,"rental_uris":{"android":"levelo://app?vid=90e06dc1-4034-4aa0-b2a4-e14e93cda8f6","ios":"levelo://app?vid=90e06dc1-4034-4aa0-b2a4-e14e93cda8f6"},"vehicle_type_id":"4","last_reported":1773853381,"current_range_meters":7200,"station_id":"ce4bhah2rcd13ifvqei0","pricing_plan_id":"cebpf4jnsgd1na2vs0mg"},{"bike_id":"a9d31829-7e0d-482f-af05-97ddd320ae16","system_id":"levelo_inurba_marseille","lat":43.29742,"lon":5.42825,"is_reserved":false,"is_disabled":true,"rental_uris":{"android":"levelo://app?vid=a9d31829-7e0d-482f-af05-97ddd320ae16","ios":"levelo://app?vid=a9d31829-7e0d-482f-af05-97ddd320ae16"},"vehicle_type_id":"4","last_reported":1773853381,"current_range_meters":7200,"station_id":"st_d3md5207bmas73dh9klg","pricing_plan_id":"cebpf4jnsgd1na2vs0mg"},{"bike_id":"e107cb22-a13d-4c03-93ce-8114e06b9a0f","system_id":"levelo_inurba_marseille","lat":43.2847,"lon":5.4839,"is_reserved":false,"is_disabled":false,"rental_uris":{"android":"levelo://app?vid=e107cb22-a13d-4c03-93ce-8114e06b9a0f","ios":"levelo://app?vid=e107cb22-a13d-4c03-93ce-8114e06b9a0f"},"vehicle_type_id":"4","last_reported":1773853381,"current_range_meters":7200,"station_id":"","pricing_plan_id":"cebpf4jnsgd1na2vs0mg"},{"bike_id":"b9236ee7-cd1b-4e39-b04e-4a8e959fc4d2","system_id":"levelo_inurba_marseille","lat":43.29747,"lon":5.42706,"is_reserved":false,"is_disabled":false,"rental_uris":{"android":"levelo://app?vid=b9236ee7-cd1b-4e39-b04e-4a8e959fc4d2","ios":"levelo://app?vid=b9236ee7-cd1b-4e39-b04e-4a8e959fc4d2"},"vehicle_type_id":"4","last_reported":1773853381,"current_range_meters":7200,"station_id":"st_d3md5207bmas73dh9klg","pricing_plan_id":"cebpf4jnsgd1na2vs0mg"},{"bike_id":"b2721829-d3ab-49b0-b45b-f52a549d85e5","system_id":"levelo_inurba_marseille","lat":43.29798,"lon":5.38101,"is_reserved":false,"is_disabled":false,"rental_uris":{"android":"levelo://app?vid=b2721829-d3ab-49b0-b45b-f52a549d85e5","ios":"levelo://app?vid=b2721829-d3ab-49b0-b45b-f52a549d85e5"},"vehicle_type_id":"4","last_reported":1773853381,"current_range_meters":8000,"station_id":"ce4bgip2rcd13ifvqbb0","pricing_plan_id":"cebpf4jnsgd1na2vs0mg"},{"bike_id":"6c00d295-37e9-47dc-8afc-599571a146bd","system_id":"levelo_inurba_marseille","lat":43.28705,"lon":5.39982,"is_reserved":false,"is_disabled":false,"rental_uris":{"android":"levelo://app?vid=6c00d295-37e9-47dc-8afc-599571a146bd","ios":"levelo://app?vid=6c00d295-37e9-47dc-8afc-599571a146bd"},"vehicle_type_id":"4","last_reported":1773853381,"current_range_meters":8000,"station_id":"ce4bho92rcd13ifvqh3g","pricing_plan_id":"cebpf4jnsgd1na2vs0mg"},{"bike_id":"1c51670a-46e5-4a0c-9d9c-3c2806d077a8","system_id":"levelo_inurba_marseille","lat":43.29027,"lon":5.38156,"is_reserved":false,"is_disabled":true,"rental_uris":{"android":"levelo://app?vid=1c51670a-46e5-4a0c-9d9c-3c2806d077a8","ios":"levelo://app?vid=1c51670a-46e5-4a0c-9d9c-3c2806d077a8"},"vehicle_type_id":"4","last_reported":1773853381,"current_range_meters":8000,"station_id":"ce4bh4p2rcd13ifvqe1g","pricing_plan_id":"cebpf4jnsgd1na2vs0mg"},{"bike_id":"0c568fbf-621d-4cc8-ade7-4b24ab6705de","system_id":"levelo_inurba_marseille","lat":43.21765,"lon":5.34619,"is_reserved":false,"is_disabled":false,"rental_uris":{"android":"levelo://app?vid=0c568fbf-621d-4cc8-ade7-4b24ab6705de","ios":"levelo://app?vid=0c568fbf-621d-4cc8-ade7-4b24ab6705de"},"vehicle_type_id":"4","last_reported":1773853381,"current_range_meters":8000,"station_id":"st_cvj6r9ubvosntc0bgbag","pricing_plan_id":"cebpf4jnsgd1na2vs0mg"},{"bike_id":"63897bc0-2980-4d0f-92d8-5dd0a6b98015","system_id":"levelo_inurba_marseille","lat":43.29263,"lon":5.38424,"is_reserved":false,"is_disabled":false,"rental_uris":{"android":"levelo://app?vid=63897bc0-2980-4d0f-92d8-5dd0a6b98015","ios":"levelo://app?vid=63897bc0-2980-4d0f-92d8-5dd0a6b98015"},"vehicle_type_id":"4","last_reported":1773853381,"current_range_meters":8000,"station_id":"ce4bh692rcd13ifvqea0","pricing_plan_id":"cebpf4jnsgd1na2vs0mg"},{"bike_id":"d9597a5d-9c4f-405d-8eee-f574e40fb9c8","system_id":"levelo_inurba_marseille","lat":43.29564,"lon":5.42263,"is_reserved":false,"is_disabled":false,"rental_uris":{"android":"levelo://app?vid=d9597a5d-9c4f-405d-8eee-f574e40fb9c8","ios":"levelo://app?vid=d9597a5d-9c4f-405d-8eee-f574e40fb9c8"},"vehicle_type_id":"4","last_reported":1773853381,"current_range_meters":8000,"station_id":"ce4bhph2rcd13ifvqhdg","pricing_plan_id":"cebpf4jnsgd1na2vs0mg"},{"bike_id":"d0b1f448-6af4-4ef1-a755-e03baf4488aa","system_id":"levelo_inurba_marseille","lat":43.29252,"lon":5.35747,"is_reserved":false,"is_disabled":false,"rental_uris":{"android":"levelo://app?vid=d0b1f448-6af4-4ef1-a755-e03baf4488aa","ios":"levelo://app?vid=d0b1f448-6af4-4ef1-a755-e03baf4488aa"},"vehicle_type_id":"4","last_reported":1773853381,"current_range_meters":8000,"station_id":"","pricing_plan_id":"cebpf4jnsgd1na2vs0mg"},{"bike_id":"ed16ab64-9c0f-4050-80fd-94e1f15913c3","system_id":"levelo_inurba_marseille","lat":43.25059,"lon":5.40428,"is_reserved":false,"is_disabled":false,"rental_uris":{"android":"levelo://app?vid=ed16ab64-9c0f-4050-80fd-94e1f15913c3","ios":"levelo://app?vid=ed16ab64-9c0f-4050-80fd-94e1f15913c3"},"vehicle_type_id":"4","last_reported":1773853381,"current_range_meters":8000,"station_id":"","pricing_plan_id":"cebpf4jnsgd1na2vs0mg"},{"bike_id":"5173eb01-1501-409d-8735-5cd4a7564229","system_id":"levelo_inurba_marseille","lat":43.31782,"lon":5.44635,"is_reserved":false,"is_disabled":false,"rental_uris":{"android":"levelo://app?vid=5173eb01-1501-409d-8735-5cd4a7564229","ios":"levelo://app?vid=5173eb01-1501-409d-8735-5cd4a7564229"},"vehicle_type_id":"4","last_reported":1773853381,"current_range_meters":8000,"station_id":"","pricing_plan_id":"cebpf4jnsgd1na2vs0mg"},{"bike_id":"447b11a1-21b5-4523-80dc-ebe593853403","system_id":"levelo_inurba_marseille","lat":43.29206,"lon":5.4267,"is_reserved":false,"is_disabled":false,"rental_uris":{"android":"levelo://app?vid=447b11a1-21b5-4523-80dc-ebe593853403","ios":"levelo://app?vid=447b11a1-21b5-4523-80dc-ebe593853403"},"vehicle_type_id":"4","last_reported":1773853381,"current_range_meters":8000,"station_id":"","pricing_plan_id":"cebpf4jnsgd1na2vs0mg"},{"bike_id":"d4531119-47d1-4e6e-8eab-6fb1adfb9a69","system_id":"levelo_inurba_marseille","lat":43.29493,"lon":5.43306,"is_reserved":false,"is_disabled":false,"rental_uris":{"android":"levelo://app?vid=d4531119-47d1-4e6e-8eab-6fb1adfb9a69","ios":"levelo://app?vid=d4531119-47d1-4e6e-8eab-6fb1adfb9a69"},"vehicle_type_id":"4","last_reported":1773853381,"current_range_meters":8000,"station_id":"st_d3j5ugp08ojc73fj9d10","pricing_plan_id":"cebpf4jnsgd1na2vs0mg"},{"bike_id":"39096a93-d437-476d-bd29-f8ad6aff3205","system_id":"levelo_inurba_marseille","lat":43.26485,"lon":5.39531,"is_reserved":false,"is_disabled":false,"rental_uris":{"android":"levelo://app?vid=39096a93-d437-476d-bd29-f8ad6aff3205","ios":"levelo://app?vid=39096a93-d437-476d-bd29-f8ad6aff3205"},"vehicle_type_id":"4","last_reported":1773853381,"current_range_meters":8000,"station_id":"ce4bhi12rcd13ifvqfq0","pricing_plan_id":"cebpf4jnsgd1na2vs0mg"},{"bike_id":"73806b64-d453-4803-aa39-999ff37fe772","system_id":"levelo_inurba_marseille","lat":43.28705,"lon":5.39987,"is_reserved":false,"is_disabled":false,"rental_uris":{"android":"levelo://app?vid=73806b64-d453-4803-aa39-999ff37fe772","ios":"levelo://app?vid=73806b64-d453-4803-aa39-999ff37fe772"},"vehicle_type_id":"4","last_reported":1773853381,"current_range_meters":8000,"station_id":"ce4bho92rcd13ifvqh3g","pricing_plan_id":"cebpf4jnsgd1na2vs0mg"},{"bike_id":"b51425a2-b294-4b12-a06b-78afda0873c2","system_id":"levelo_inurba_marseille","lat":43.29813,"lon":5.40249,"is_reserved":false,"is_disabled":false,"rental_uris":{"android":"levelo://app?vid=b51425a2-b294-4b12-a06b-78afda0873c2","ios":"levelo://app?vid=b51425a2-b294-4b12-a06b-78afda0873c2"},"vehicle_type_id":"4","last_reported":1773853381,"current_range_meters":8000,"station_id":"","pricing_plan_id":"cebpf4jnsgd1na2vs0mg"},{"bike_id":"936c1a15-80f0-4545-9d05-d5a60079cac3","system_id":"levelo_inurba_marseille","lat":43.30932,"lon":5.40148,"is_reserved":false,"is_disabled":false,"rental_uris":{"android":"levelo://app?vid=936c1a15-80f0-4545-9d05-d5a60079cac3","ios":"levelo://app?vid=936c1a15-80f0-4545-9d05-d5a60079cac3"},"vehicle_type_id":"4","last_reported":1773853381,"current_range_meters":8000,"station_id":"ce4bgvp2rcd13ifvqct0","pricing_plan_id":"cebpf4jnsgd1na2vs0mg"},{"bike_id":"1d3a89e2-bb68-4801-a59b-223d5ad4ddfa","system_id":"levelo_inurba_marseille","lat":43.24665,"lon":5.38164,"is_reserved":false,"is_disabled":false,"rental_uris":{"android":"levelo://app?vid=1d3a89e2-bb68-4801-a59b-223d5ad4ddfa","ios":"levelo://app?vid=1d3a89e2-bb68-4801-a59b-223d5ad4ddfa"},"vehicle_type_id":"4","last_reported":1773853381,"current_range_meters":8000,"station_id":"ce4bhih2rcd13ifvqfr0","pricing_plan_id":"cebpf4jnsgd1na2vs0mg"},{"bike_id":"446bf5b2-1a52-4d83-8f5c-75ffd573bfb9","system_id":"levelo_inurba_marseille","lat":43.2972,"lon":5.36616,"is_reserved":false,"is_disabled":false,"rental_uris":{"android":"levelo://app?vid=446bf5b2-1a52-4d83-8f5c-75ffd573bfb9","ios":"levelo://app?vid=446bf5b2-1a52-4d83-8f5c-75ffd573bfb9"},"vehicle_type_id":"4","last_reported":1773853381,"current_range_meters":8000,"station_id":"ce4bgn12rcd13ifvqbt0","pricing_plan_id":"cebpf4jnsgd1na2vs0mg"},{"bike_id":"e24fbf8b-1ec6-440a-a850-4d730aacb917","system_id":"levelo_inurba_marseille","lat":43.28692,"lon":5.39977,"is_reserved":false,"is_disabled":false,"rental_uris":{"android":"levelo://app?vid=e24fbf8b-1ec6-440a-a850-4d730aacb917","ios":"levelo://app?vid=e24fbf8b-1ec6-440a-a850-4d730aacb917"},"vehicle_type_id":"4","last_reported":1773853381,"current_range_meters":8400,"station_id":"ce4bho92rcd13ifvqh3g","pricing_plan_id":"cebpf4jnsgd1na2vs0mg"},{"bike_id":"bd60a6ec-18d4-4476-ab1b-f354043c4b72","system_id":"levelo_inurba_marseille","lat":43.29798,"lon":5.42667,"is_reserved":false,"is_disabled":false,"rental_uris":{"android":"levelo://app?vid=bd60a6ec-18d4-4476-ab1b-f354043c4b72","ios":"levelo://app?vid=bd60a6ec-18d4-4476-ab1b-f354043c4b72"},"vehicle_type_id":"4","last_reported":1773853381,"current_range_meters":8400,"station_id":"","pricing_plan_id":"cebpf4jnsgd1na2vs0mg"},{"bike_id":"e9d5bcff-d737-4654-8b07-9a071b0df561","system_id":"levelo_inurba_marseille","lat":43.29095,"lon":5.38136,"is_reserved":false,"is_disabled":false,"rental_uris":{"android":"levelo://app?vid=e9d5bcff-d737-4654-8b07-9a071b0df561","ios":"levelo://app?vid=e9d5bcff-d737-4654-8b07-9a071b0df561"},"vehicle_type_id":"4","last_reported":1773853381,"current_range_meters":8400,"station_id":"ce4bh512rcd13ifvqe2g","pricing_plan_id":"cebpf4jnsgd1na2vs0mg"},{"bike_id":"2cd6d2c4-9839-4b08-8d75-805c4c2214dc","system_id":"levelo_inurba_marseille","lat":43.23047,"lon":5.35497,"is_reserved":false,"is_disabled":false,"rental_uris":{"android":"levelo://app?vid=2cd6d2c4-9839-4b08-8d75-805c4c2214dc","ios":"levelo://app?vid=2cd6d2c4-9839-4b08-8d75-805c4c2214dc"},"vehicle_type_id":"4","last_reported":1773853381,"current_range_meters":8400,"station_id":"cpo3342slgdg3j2ifvpg","pricing_plan_id":"cebpf4jnsgd1na2vs0mg"},{"bike_id":"13ad50bf-7f2f-4ad1-a82f-209db682ff58","system_id":"levelo_inurba_marseille","lat":43.26561,"lon":5.38996,"is_reserved":false,"is_disabled":true,"rental_uris":{"android":"levelo://app?vid=13ad50bf-7f2f-4ad1-a82f-209db682ff58","ios":"levelo://app?vid=13ad50bf-7f2f-4ad1-a82f-209db682ff58"},"vehicle_type_id":"4","last_reported":1773853381,"current_range_meters":8400,"station_id":"ce4bhe12rcd13ifvqf30","pricing_plan_id":"cebpf4jnsgd1na2vs0mg"},{"bike_id":"b075ff20-924c-4c26-9204-b869ede13d13","system_id":"levelo_inurba_marseille","lat":43.29201,"lon":5.35806,"is_reserved":false,"is_disabled":false,"rental_uris":{"android":"levelo://app?vid=b075ff20-924c-4c26-9204-b869ede13d13","ios":"levelo://app?vid=b075ff20-924c-4c26-9204-b869ede13d13"},"vehicle_type_id":"4","last_reported":1773853381,"current_range_meters":8400,"station_id":"ce4bhb12rcd13ifvqel0","pricing_plan_id":"cebpf4jnsgd1na2vs0mg"},{"bike_id":"c889ad0f-a4e9-4f4c-b413-d51ec8c53bc9","system_id":"levelo_inurba_marseille","lat":43.26209,"lon":5.40469,"is_reserved":false,"is_disabled":false,"rental_uris":{"android":"levelo://app?vid=c889ad0f-a4e9-4f4c-b413-d51ec8c53bc9","ios":"levelo://app?vid=c889ad0f-a4e9-4f4c-b413-d51ec8c53bc9"},"vehicle_type_id":"4","last_reported":1773853381,"current_range_meters":8400,"station_id":"ce4bhmh2rcd13ifvqgmg","pricing_plan_id":"cebpf4jnsgd1na2vs0mg"},{"bike_id":"caf5e45c-f3f2-43eb-99a6-b11ec33451e8","system_id":"levelo_inurba_marseille","lat":43.23969,"lon":5.36621,"is_reserved":false,"is_disabled":false,"rental_uris":{"android":"levelo://app?vid=caf5e45c-f3f2-43eb-99a6-b11ec33451e8","ios":"levelo://app?vid=caf5e45c-f3f2-43eb-99a6-b11ec33451e8"},"vehicle_type_id":"4","last_reported":1773853381,"current_range_meters":8400,"station_id":"ce4bhi12rcd13ifvqfp0","pricing_plan_id":"cebpf4jnsgd1na2vs0mg"},{"bike_id":"11e9cab2-9c61-4854-94c5-2d5f64ebd038","system_id":"levelo_inurba_marseille","lat":43.25003,"lon":5.38922,"is_reserved":false,"is_disabled":false,"rental_uris":{"android":"levelo://app?vid=11e9cab2-9c61-4854-94c5-2d5f64ebd038","ios":"levelo://app?vid=11e9cab2-9c61-4854-94c5-2d5f64ebd038"},"vehicle_type_id":"4","last_reported":1773853381,"current_range_meters":8400,"station_id":"ce4bhgp2rcd13ifvqfd0","pricing_plan_id":"cebpf4jnsgd1na2vs0mg"},{"bike_id":"ff871007-e5d8-43b1-85e4-36bdd2615b13","system_id":"levelo_inurba_marseille","lat":43.24171,"lon":5.36407,"is_reserved":false,"is_disabled":false,"rental_uris":{"android":"levelo://app?vid=ff871007-e5d8-43b1-85e4-36bdd2615b13","ios":"levelo://app?vid=ff871007-e5d8-43b1-85e4-36bdd2615b13"},"vehicle_type_id":"4","last_reported":1773853381,"current_range_meters":8400,"station_id":"cpo36qri1sfpv3e86is0","pricing_plan_id":"cebpf4jnsgd1na2vs0mg"},{"bike_id":"fad8e96d-acb2-4874-9608-7180f6b034b8","system_id":"levelo_inurba_marseille","lat":43.29152,"lon":5.40814,"is_reserved":false,"is_disabled":false,"rental_uris":{"android":"levelo://app?vid=fad8e96d-acb2-4874-9608-7180f6b034b8","ios":"levelo://app?vid=fad8e96d-acb2-4874-9608-7180f6b034b8"},"vehicle_type_id":"4","last_reported":1773853381,"current_range_meters":8400,"station_id":"","pricing_plan_id":"cebpf4jnsgd1na2vs0mg"},{"bike_id":"78c86868-a79f-4f2a-bb9a-961b0f22d36b","system_id":"levelo_inurba_marseille","lat":43.29988,"lon":5.38639,"is_reserved":false,"is_disabled":false,"rental_uris":{"android":"levelo://app?vid=78c86868-a79f-4f2a-bb9a-961b0f22d36b","ios":"levelo://app?vid=78c86868-a79f-4f2a-bb9a-961b0f22d36b"},"vehicle_type_id":"4","last_reported":1773853381,"current_range_meters":8400,"station_id":"","pricing_plan_id":"cebpf4jnsgd1na2vs0mg"},{"bike_id":"f8352a32-eb1b-4cf0-b94f-f78d5df452c7","system_id":"levelo_inurba_marseille","lat":43.25824,"lon":5.39434,"is_reserved":false,"is_disabled":false,"rental_uris":{"android":"levelo://app?vid=f8352a32-eb1b-4cf0-b94f-f78d5df452c7","ios":"levelo://app?vid=f8352a32-eb1b-4cf0-b94f-f78d5df452c7"},"vehicle_type_id":"4","last_reported":1773853381,"current_range_meters":8400,"station_id":"ce4bhip2rcd13ifvqft0","pricing_plan_id":"cebpf4jnsgd1na2vs0mg"},{"bike_id":"bc6cf2fc-aff6-4330-a86d-76184f08ad51","system_id":"levelo_inurba_marseille","lat":43.26937,"lon":5.40232,"is_reserved":false,"is_disabled":false,"rental_uris":{"android":"levelo://app?vid=bc6cf2fc-aff6-4330-a86d-76184f08ad51","ios":"levelo://app?vid=bc6cf2fc-aff6-4330-a86d-76184f08ad51"},"vehicle_type_id":"4","last_reported":1773853381,"current_range_meters":8400,"station_id":"cjm6bp8fraef2m0cb0m0","pricing_plan_id":"cebpf4jnsgd1na2vs0mg"},{"bike_id":"0e688613-212e-474e-a060-fa12bae36b55","system_id":"levelo_inurba_marseille","lat":43.25114,"lon":5.40318,"is_reserved":false,"is_disabled":false,"rental_uris":{"android":"levelo://app?vid=0e688613-212e-474e-a060-fa12bae36b55","ios":"levelo://app?vid=0e688613-212e-474e-a060-fa12bae36b55"},"vehicle_type_id":"4","last_reported":1773853381,"current_range_meters":8400,"station_id":"ce4bhlh2rcd13ifvqgig","pricing_plan_id":"cebpf4jnsgd1na2vs0mg"},{"bike_id":"55614024-db25-486b-99e8-ed28b6d6957b","system_id":"levelo_inurba_marseille","lat":43.29122,"lon":5.39955,"is_reserved":false,"is_disabled":false,"rental_uris":{"android":"levelo://app?vid=55614024-db25-486b-99e8-ed28b6d6957b","ios":"levelo://app?vid=55614024-db25-486b-99e8-ed28b6d6957b"},"vehicle_type_id":"4","last_reported":1773853381,"current_range_meters":8400,"station_id":"","pricing_plan_id":"cebpf4jnsgd1na2vs0mg"},{"bike_id":"7ab9b7c8-09ca-4a57-b3ba-73e66a6792ea","system_id":"levelo_inurba_marseille","lat":43.24807,"lon":5.37452,"is_reserved":false,"is_disabled":false,"rental_uris":{"android":"levelo://app?vid=7ab9b7c8-09ca-4a57-b3ba-73e66a6792ea","ios":"levelo://app?vid=7ab9b7c8-09ca-4a57-b3ba-73e66a6792ea"},"vehicle_type_id":"4","last_reported":1773853381,"current_range_meters":8400,"station_id":"ce4bhgh2rcd13ifvqfb0","pricing_plan_id":"cebpf4jnsgd1na2vs0mg"},{"bike_id":"0c506fac-9822-4d55-93b9-ec283cf22639","system_id":"levelo_inurba_marseille","lat":43.2688,"lon":5.40497,"is_reserved":false,"is_disabled":false,"rental_uris":{"android":"levelo://app?vid=0c506fac-9822-4d55-93b9-ec283cf22639","ios":"levelo://app?vid=0c506fac-9822-4d55-93b9-ec283cf22639"},"vehicle_type_id":"4","last_reported":1773853381,"current_range_meters":8400,"station_id":"","pricing_plan_id":"cebpf4jnsgd1na2vs0mg"},{"bike_id":"d532de73-31b0-408e-96ce-6676e6435a22","system_id":"levelo_inurba_marseille","lat":43.2119,"lon":5.35075,"is_reserved":false,"is_disabled":false,"rental_uris":{"android":"levelo://app?vid=d532de73-31b0-408e-96ce-6676e6435a22","ios":"levelo://app?vid=d532de73-31b0-408e-96ce-6676e6435a22"},"vehicle_type_id":"4","last_reported":1773853381,"current_range_meters":8800,"station_id":"st_cvj6sg6p6f1abm77japg","pricing_plan_id":"cebpf4jnsgd1na2vs0mg"},{"bike_id":"3903529a-97cf-43f8-9c3a-f35f9c9bbdf2","system_id":"levelo_inurba_marseille","lat":43.313552,"lon":5.367146,"is_reserved":false,"is_disabled":true,"rental_uris":{"android":"levelo://app?vid=3903529a-97cf-43f8-9c3a-f35f9c9bbdf2","ios":"levelo://app?vid=3903529a-97cf-43f8-9c3a-f35f9c9bbdf2"},"vehicle_type_id":"4","last_reported":1773853381,"current_range_meters":8800,"station_id":"ce4bgr92rcd13ifvqc6g","pricing_plan_id":"cebpf4jnsgd1na2vs0mg"},{"bike_id":"5110b07a-292e-4c16-b63d-d5b16ca2666d","system_id":"levelo_inurba_marseille","lat":43.30301,"lon":5.39202,"is_reserved":false,"is_disabled":false,"rental_uris":{"android":"levelo://app?vid=5110b07a-292e-4c16-b63d-d5b16ca2666d","ios":"levelo://app?vid=5110b07a-292e-4c16-b63d-d5b16ca2666d"},"vehicle_type_id":"4","last_reported":1773853381,"current_range_meters":8800,"station_id":"ce4bgkh2rcd13ifvqbk0","pricing_plan_id":"cebpf4jnsgd1na2vs0mg"},{"bike_id":"94f8f466-8e71-4f87-978f-df55f1bc6e54","system_id":"levelo_inurba_marseille","lat":43.21211,"lon":5.35076,"is_reserved":false,"is_disabled":false,"rental_uris":{"android":"levelo://app?vid=94f8f466-8e71-4f87-978f-df55f1bc6e54","ios":"levelo://app?vid=94f8f466-8e71-4f87-978f-df55f1bc6e54"},"vehicle_type_id":"4","last_reported":1773853381,"current_range_meters":8800,"station_id":"st_cvj6sg6p6f1abm77japg","pricing_plan_id":"cebpf4jnsgd1na2vs0mg"},{"bike_id":"14088a16-fdc3-4ddc-a629-193ccf4601c3","system_id":"levelo_inurba_marseille","lat":43.24475,"lon":5.42535,"is_reserved":false,"is_disabled":false,"rental_uris":{"android":"levelo://app?vid=14088a16-fdc3-4ddc-a629-193ccf4601c3","ios":"levelo://app?vid=14088a16-fdc3-4ddc-a629-193ccf4601c3"},"vehicle_type_id":"4","last_reported":1773853381,"current_range_meters":8800,"station_id":"st_d4a3vfp97mjs738cd8kg","pricing_plan_id":"cebpf4jnsgd1na2vs0mg"},{"bike_id":"8c29270d-5d11-446e-a3f0-f5c56ae9c816","system_id":"levelo_inurba_marseille","lat":43.27562,"lon":5.43321,"is_reserved":false,"is_disabled":false,"rental_uris":{"android":"levelo://app?vid=8c29270d-5d11-446e-a3f0-f5c56ae9c816","ios":"levelo://app?vid=8c29270d-5d11-446e-a3f0-f5c56ae9c816"},"vehicle_type_id":"4","last_reported":1773853381,"current_range_meters":8800,"station_id":"","pricing_plan_id":"cebpf4jnsgd1na2vs0mg"},{"bike_id":"c7a58df1-e626-4613-bd92-acf1a3516baf","system_id":"levelo_inurba_marseille","lat":43.21752,"lon":5.34604,"is_reserved":false,"is_disabled":false,"rental_uris":{"android":"levelo://app?vid=c7a58df1-e626-4613-bd92-acf1a3516baf","ios":"levelo://app?vid=c7a58df1-e626-4613-bd92-acf1a3516baf"},"vehicle_type_id":"4","last_reported":1773853381,"current_range_meters":8800,"station_id":"st_cvj6r9ubvosntc0bgbag","pricing_plan_id":"cebpf4jnsgd1na2vs0mg"},{"bike_id":"0ee4ce16-829f-49ee-9a2a-4b4670dfbc6f","system_id":"levelo_inurba_marseille","lat":43.28479,"lon":5.48393,"is_reserved":false,"is_disabled":false,"rental_uris":{"android":"levelo://app?vid=0ee4ce16-829f-49ee-9a2a-4b4670dfbc6f","ios":"levelo://app?vid=0ee4ce16-829f-49ee-9a2a-4b4670dfbc6f"},"vehicle_type_id":"4","last_reported":1773853381,"current_range_meters":8800,"station_id":"st_d3svhcjqgbts73a3dn0g","pricing_plan_id":"cebpf4jnsgd1na2vs0mg"},{"bike_id":"840c37e7-e380-4f53-bb8b-6430f86256a1","system_id":"levelo_inurba_marseille","lat":43.30353,"lon":5.41867,"is_reserved":false,"is_disabled":false,"rental_uris":{"android":"levelo://app?vid=840c37e7-e380-4f53-bb8b-6430f86256a1","ios":"levelo://app?vid=840c37e7-e380-4f53-bb8b-6430f86256a1"},"vehicle_type_id":"4","last_reported":1773853381,"current_range_meters":8800,"station_id":"ce4bhop2rcd13ifvqh7g","pricing_plan_id":"cebpf4jnsgd1na2vs0mg"},{"bike_id":"1d965bde-3756-4e4c-8ff2-3c27985d3299","system_id":"levelo_inurba_marseille","lat":43.30113,"lon":5.39962,"is_reserved":false,"is_disabled":false,"rental_uris":{"android":"levelo://app?vid=1d965bde-3756-4e4c-8ff2-3c27985d3299","ios":"levelo://app?vid=1d965bde-3756-4e4c-8ff2-3c27985d3299"},"vehicle_type_id":"4","last_reported":1773853381,"current_range_meters":8800,"station_id":"","pricing_plan_id":"cebpf4jnsgd1na2vs0mg"},{"bike_id":"e6746a52-2fa9-4e24-be99-8b69b77251df","system_id":"levelo_inurba_marseille","lat":43.257207,"lon":5.411143,"is_reserved":false,"is_disabled":false,"rental_uris":{"android":"levelo://app?vid=e6746a52-2fa9-4e24-be99-8b69b77251df","ios":"levelo://app?vid=e6746a52-2fa9-4e24-be99-8b69b77251df"},"vehicle_type_id":"4","last_reported":1773853381,"current_range_meters":8800,"station_id":"ce4bhkp2rcd13ifvqgd0","pricing_plan_id":"cebpf4jnsgd1na2vs0mg"},{"bike_id":"5e0a2eae-fd69-4b5e-81b9-6f58774a15fa","system_id":"levelo_inurba_marseille","lat":43.29981,"lon":5.39908,"is_reserved":false,"is_disabled":false,"rental_uris":{"android":"levelo://app?vid=5e0a2eae-fd69-4b5e-81b9-6f58774a15fa","ios":"levelo://app?vid=5e0a2eae-fd69-4b5e-81b9-6f58774a15fa"},"vehicle_type_id":"4","last_reported":1773853381,"current_range_meters":8800,"station_id":"","pricing_plan_id":"cebpf4jnsgd1na2vs0mg"},{"bike_id":"9e5162d5-6996-4153-aac7-986273a3941f","system_id":"levelo_inurba_marseille","lat":43.26478,"lon":5.39551,"is_reserved":false,"is_disabled":false,"rental_uris":{"android":"levelo://app?vid=9e5162d5-6996-4153-aac7-986273a3941f","ios":"levelo://app?vid=9e5162d5-6996-4153-aac7-986273a3941f"},"vehicle_type_id":"4","last_reported":1773853381,"current_range_meters":8800,"station_id":"ce4bhi12rcd13ifvqfq0","pricing_plan_id":"cebpf4jnsgd1na2vs0mg"},{"bike_id":"3b8482ae-3121-4f0d-be87-fbe3057d4d80","system_id":"levelo_inurba_marseille","lat":43.24668,"lon":5.38158,"is_reserved":false,"is_disabled":false,"rental_uris":{"android":"levelo://app?vid=3b8482ae-3121-4f0d-be87-fbe3057d4d80","ios":"levelo://app?vid=3b8482ae-3121-4f0d-be87-fbe3057d4d80"},"vehicle_type_id":"4","last_reported":1773853381,"current_range_meters":8800,"station_id":"ce4bhih2rcd13ifvqfr0","pricing_plan_id":"cebpf4jnsgd1na2vs0mg"},{"bike_id":"88db41f5-96f3-4155-a4d0-ecc56f594edb","system_id":"levelo_inurba_marseille","lat":43.22931,"lon":5.35372,"is_reserved":false,"is_disabled":false,"rental_uris":{"android":"levelo://app?vid=88db41f5-96f3-4155-a4d0-ecc56f594edb","ios":"levelo://app?vid=88db41f5-96f3-4155-a4d0-ecc56f594edb"},"vehicle_type_id":"4","last_reported":1773853381,"current_range_meters":8800,"station_id":"cpo3532slgdg3j2ikp40","pricing_plan_id":"cebpf4jnsgd1na2vs0mg"},{"bike_id":"ec8906d5-c667-4bd9-a056-6c3ee9e039fe","system_id":"levelo_inurba_marseille","lat":43.29014,"lon":5.35613,"is_reserved":false,"is_disabled":false,"rental_uris":{"android":"levelo://app?vid=ec8906d5-c667-4bd9-a056-6c3ee9e039fe","ios":"levelo://app?vid=ec8906d5-c667-4bd9-a056-6c3ee9e039fe"},"vehicle_type_id":"4","last_reported":1773853381,"current_range_meters":8800,"station_id":"ce4bhb92rcd13ifvqen0","pricing_plan_id":"cebpf4jnsgd1na2vs0mg"},{"bike_id":"73e44213-1cd8-4593-a09e-a9c4a914a5d2","system_id":"levelo_inurba_marseille","lat":43.28475,"lon":5.48388,"is_reserved":false,"is_disabled":false,"rental_uris":{"android":"levelo://app?vid=73e44213-1cd8-4593-a09e-a9c4a914a5d2","ios":"levelo://app?vid=73e44213-1cd8-4593-a09e-a9c4a914a5d2"},"vehicle_type_id":"4","last_reported":1773853381,"current_range_meters":8800,"station_id":"","pricing_plan_id":"cebpf4jnsgd1na2vs0mg"},{"bike_id":"252a9814-4e51-471c-8225-9d765d5993de","system_id":"levelo_inurba_marseille","lat":43.29533,"lon":5.38551,"is_reserved":false,"is_disabled":false,"rental_uris":{"android":"levelo://app?vid=252a9814-4e51-471c-8225-9d765d5993de","ios":"levelo://app?vid=252a9814-4e51-471c-8225-9d765d5993de"},"vehicle_type_id":"4","last_reported":1773853381,"current_range_meters":8800,"station_id":"ce4bgih2rcd13ifvqba0","pricing_plan_id":"cebpf4jnsgd1na2vs0mg"},{"bike_id":"64d0197e-cdf1-4c00-b252-248f2d016acf","system_id":"levelo_inurba_marseille","lat":43.28939,"lon":5.3664,"is_reserved":false,"is_disabled":false,"rental_uris":{"android":"levelo://app?vid=64d0197e-cdf1-4c00-b252-248f2d016acf","ios":"levelo://app?vid=64d0197e-cdf1-4c00-b252-248f2d016acf"},"vehicle_type_id":"4","last_reported":1773853381,"current_range_meters":8800,"station_id":"ce4bhap2rcd13ifvqek0","pricing_plan_id":"cebpf4jnsgd1na2vs0mg"},{"bike_id":"4603d8e6-1bdb-4e77-a999-dd174df795dd","system_id":"levelo_inurba_marseille","lat":43.21749,"lon":5.34618,"is_reserved":false,"is_disabled":false,"rental_uris":{"android":"levelo://app?vid=4603d8e6-1bdb-4e77-a999-dd174df795dd","ios":"levelo://app?vid=4603d8e6-1bdb-4e77-a999-dd174df795dd"},"vehicle_type_id":"4","last_reported":1773853381,"current_range_meters":9200,"station_id":"st_cvj6r9ubvosntc0bgbag","pricing_plan_id":"cebpf4jnsgd1na2vs0mg"},{"bike_id":"24dc1ce5-2db6-421b-869a-69d6f082b300","system_id":"levelo_inurba_marseille","lat":43.29804,"lon":5.36305,"is_reserved":false,"is_disabled":false,"rental_uris":{"android":"levelo://app?vid=24dc1ce5-2db6-421b-869a-69d6f082b300","ios":"levelo://app?vid=24dc1ce5-2db6-421b-869a-69d6f082b300"},"vehicle_type_id":"4","last_reported":1773853381,"current_range_meters":9200,"station_id":"ce4bgpp2rcd13ifvqc3g","pricing_plan_id":"cebpf4jnsgd1na2vs0mg"},{"bike_id":"4f89437d-bbad-4b20-ac4b-5303251ac1fd","system_id":"levelo_inurba_marseille","lat":43.29046,"lon":5.38644,"is_reserved":false,"is_disabled":false,"rental_uris":{"android":"levelo://app?vid=4f89437d-bbad-4b20-ac4b-5303251ac1fd","ios":"levelo://app?vid=4f89437d-bbad-4b20-ac4b-5303251ac1fd"},"vehicle_type_id":"4","last_reported":1773853381,"current_range_meters":9200,"station_id":"ce4bh4p2rcd13ifvqe0g","pricing_plan_id":"cebpf4jnsgd1na2vs0mg"},{"bike_id":"f7e79517-161a-451a-8a95-bb710b1b4d21","system_id":"levelo_inurba_marseille","lat":43.29848,"lon":5.37891,"is_reserved":false,"is_disabled":true,"rental_uris":{"android":"levelo://app?vid=f7e79517-161a-451a-8a95-bb710b1b4d21","ios":"levelo://app?vid=f7e79517-161a-451a-8a95-bb710b1b4d21"},"vehicle_type_id":"4","last_reported":1773853381,"current_range_meters":9200,"station_id":"","pricing_plan_id":"cebpf4jnsgd1na2vs0mg"},{"bike_id":"e96aa17b-a380-4269-aa15-f0a6d9e3febf","system_id":"levelo_inurba_marseille","lat":43.21741,"lon":5.34609,"is_reserved":false,"is_disabled":false,"rental_uris":{"android":"levelo://app?vid=e96aa17b-a380-4269-aa15-f0a6d9e3febf","ios":"levelo://app?vid=e96aa17b-a380-4269-aa15-f0a6d9e3febf"},"vehicle_type_id":"4","last_reported":1773853381,"current_range_meters":9200,"station_id":"st_cvj6r9ubvosntc0bgbag","pricing_plan_id":"cebpf4jnsgd1na2vs0mg"},{"bike_id":"81ec1cca-ed04-4b2e-848d-ebb0f5ff2456","system_id":"levelo_inurba_marseille","lat":43.28856,"lon":5.3931,"is_reserved":false,"is_disabled":false,"rental_uris":{"android":"levelo://app?vid=81ec1cca-ed04-4b2e-848d-ebb0f5ff2456","ios":"levelo://app?vid=81ec1cca-ed04-4b2e-848d-ebb0f5ff2456"},"vehicle_type_id":"4","last_reported":1773853381,"current_range_meters":9200,"station_id":"ce4bh2p2rcd13ifvqdi0","pricing_plan_id":"cebpf4jnsgd1na2vs0mg"},{"bike_id":"506661fa-d7d4-473c-8038-c16d45410fe8","system_id":"levelo_inurba_marseille","lat":43.28859,"lon":5.42515,"is_reserved":false,"is_disabled":false,"rental_uris":{"android":"levelo://app?vid=506661fa-d7d4-473c-8038-c16d45410fe8","ios":"levelo://app?vid=506661fa-d7d4-473c-8038-c16d45410fe8"},"vehicle_type_id":"4","last_reported":1773853381,"current_range_meters":9200,"station_id":"","pricing_plan_id":"cebpf4jnsgd1na2vs0mg"},{"bike_id":"623306fd-5411-42ac-b7b9-0776b8a65ddf","system_id":"levelo_inurba_marseille","lat":43.24798,"lon":5.37487,"is_reserved":false,"is_disabled":false,"rental_uris":{"android":"levelo://app?vid=623306fd-5411-42ac-b7b9-0776b8a65ddf","ios":"levelo://app?vid=623306fd-5411-42ac-b7b9-0776b8a65ddf"},"vehicle_type_id":"4","last_reported":1773853381,"current_range_meters":9200,"station_id":"ce4bhgh2rcd13ifvqfb0","pricing_plan_id":"cebpf4jnsgd1na2vs0mg"},{"bike_id":"089b95da-88c8-42c0-b401-c610460c289a","system_id":"levelo_inurba_marseille","lat":43.31535,"lon":5.38004,"is_reserved":false,"is_disabled":false,"rental_uris":{"android":"levelo://app?vid=089b95da-88c8-42c0-b401-c610460c289a","ios":"levelo://app?vid=089b95da-88c8-42c0-b401-c610460c289a"},"vehicle_type_id":"4","last_reported":1773853381,"current_range_meters":9200,"station_id":"ce4bhsp2rcd13ifvqi50","pricing_plan_id":"cebpf4jnsgd1na2vs0mg"},{"bike_id":"2c87fd71-4172-47f8-ac32-754c4f7a5516","system_id":"levelo_inurba_marseille","lat":43.21715,"lon":5.34628,"is_reserved":false,"is_disabled":false,"rental_uris":{"android":"levelo://app?vid=2c87fd71-4172-47f8-ac32-754c4f7a5516","ios":"levelo://app?vid=2c87fd71-4172-47f8-ac32-754c4f7a5516"},"vehicle_type_id":"4","last_reported":1773853381,"current_range_meters":9200,"station_id":"st_cvj6r9ubvosntc0bgbag","pricing_plan_id":"cebpf4jnsgd1na2vs0mg"},{"bike_id":"ab5ec513-ee99-4671-ae67-83a9f94f8972","system_id":"levelo_inurba_marseille","lat":43.21742,"lon":5.34607,"is_reserved":false,"is_disabled":false,"rental_uris":{"android":"levelo://app?vid=ab5ec513-ee99-4671-ae67-83a9f94f8972","ios":"levelo://app?vid=ab5ec513-ee99-4671-ae67-83a9f94f8972"},"vehicle_type_id":"4","last_reported":1773853381,"current_range_meters":9200,"station_id":"st_cvj6r9ubvosntc0bgbag","pricing_plan_id":"cebpf4jnsgd1na2vs0mg"},{"bike_id":"87196ced-625c-4777-af70-d518f01fc977","system_id":"levelo_inurba_marseille","lat":43.29938,"lon":5.39752,"is_reserved":false,"is_disabled":false,"rental_uris":{"android":"levelo://app?vid=87196ced-625c-4777-af70-d518f01fc977","ios":"levelo://app?vid=87196ced-625c-4777-af70-d518f01fc977"},"vehicle_type_id":"4","last_reported":1773853381,"current_range_meters":9600,"station_id":"ce4bh0h2rcd13ifvqd50","pricing_plan_id":"cebpf4jnsgd1na2vs0mg"},{"bike_id":"a11c8cfa-453a-4892-a974-6a22bafa8290","system_id":"levelo_inurba_marseille","lat":43.23195,"lon":5.35541,"is_reserved":false,"is_disabled":false,"rental_uris":{"android":"levelo://app?vid=a11c8cfa-453a-4892-a974-6a22bafa8290","ios":"levelo://app?vid=a11c8cfa-453a-4892-a974-6a22bafa8290"},"vehicle_type_id":"4","last_reported":1773853381,"current_range_meters":9600,"station_id":"ce4bhu92rcd13ifvqi70","pricing_plan_id":"cebpf4jnsgd1na2vs0mg"},{"bike_id":"a8c701a2-bed9-4be5-9b59-edb8e73c793c","system_id":"levelo_inurba_marseille","lat":43.26066,"lon":5.39387,"is_reserved":false,"is_disabled":false,"rental_uris":{"android":"levelo://app?vid=a8c701a2-bed9-4be5-9b59-edb8e73c793c","ios":"levelo://app?vid=a8c701a2-bed9-4be5-9b59-edb8e73c793c"},"vehicle_type_id":"4","last_reported":1773853381,"current_range_meters":9600,"station_id":"ce4bhh92rcd13ifvqfj0","pricing_plan_id":"cebpf4jnsgd1na2vs0mg"},{"bike_id":"1fdbd032-af28-4158-a02e-01bb107fd2a7","system_id":"levelo_inurba_marseille","lat":43.337444,"lon":5.374475,"is_reserved":false,"is_disabled":false,"rental_uris":{"android":"levelo://app?vid=1fdbd032-af28-4158-a02e-01bb107fd2a7","ios":"levelo://app?vid=1fdbd032-af28-4158-a02e-01bb107fd2a7"},"vehicle_type_id":"4","last_reported":1773853381,"current_range_meters":9600,"station_id":"","pricing_plan_id":"cebpf4jnsgd1na2vs0mg"},{"bike_id":"2518bae7-c776-42cd-b319-3c6b0327da59","system_id":"levelo_inurba_marseille","lat":43.2847,"lon":5.35874,"is_reserved":false,"is_disabled":false,"rental_uris":{"android":"levelo://app?vid=2518bae7-c776-42cd-b319-3c6b0327da59","ios":"levelo://app?vid=2518bae7-c776-42cd-b319-3c6b0327da59"},"vehicle_type_id":"4","last_reported":1773853381,"current_range_meters":9600,"station_id":"ce4bhah2rcd13ifvqei0","pricing_plan_id":"cebpf4jnsgd1na2vs0mg"},{"bike_id":"347a0133-45d3-4213-ae48-606f4453bbf3","system_id":"levelo_inurba_marseille","lat":43.23066,"lon":5.35497,"is_reserved":false,"is_disabled":false,"rental_uris":{"android":"levelo://app?vid=347a0133-45d3-4213-ae48-606f4453bbf3","ios":"levelo://app?vid=347a0133-45d3-4213-ae48-606f4453bbf3"},"vehicle_type_id":"4","last_reported":1773853381,"current_range_meters":9600,"station_id":"cpo3342slgdg3j2ifvpg","pricing_plan_id":"cebpf4jnsgd1na2vs0mg"},{"bike_id":"8ebd303e-45b8-4132-a585-39a3dcaff13e","system_id":"levelo_inurba_marseille","lat":43.3211,"lon":5.36791,"is_reserved":false,"is_disabled":false,"rental_uris":{"android":"levelo://app?vid=8ebd303e-45b8-4132-a585-39a3dcaff13e","ios":"levelo://app?vid=8ebd303e-45b8-4132-a585-39a3dcaff13e"},"vehicle_type_id":"4","last_reported":1773853381,"current_range_meters":9600,"station_id":"ce4bhrh2rcd13ifvqhug","pricing_plan_id":"cebpf4jnsgd1na2vs0mg"},{"bike_id":"82cd1399-796a-49e3-bcd4-7c76233710d8","system_id":"levelo_inurba_marseille","lat":43.31495,"lon":5.37278,"is_reserved":false,"is_disabled":false,"rental_uris":{"android":"levelo://app?vid=82cd1399-796a-49e3-bcd4-7c76233710d8","ios":"levelo://app?vid=82cd1399-796a-49e3-bcd4-7c76233710d8"},