{"last_updated":1751656083,"ttl":60,"version":"2.2","data":{"bikes":[{"bike_id":"3da29fb8-fc97-44c6-b9ac-31dd456b2fd4","system_id":"levelo_inurba_marseille","lat":43.33771,"lon":5.37424,"is_reserved":false,"is_disabled":true,"rental_uris":{"android":"levelo://app?vid=3da29fb8-fc97-44c6-b9ac-31dd456b2fd4","ios":"levelo://app?vid=3da29fb8-fc97-44c6-b9ac-31dd456b2fd4"},"vehicle_type_id":"4","last_reported":1751656083,"current_range_meters":0,"station_id":"","pricing_plan_id":"cebpf4jnsgd1na2vs0mg"},{"bike_id":"01861ad8-a8d7-4be6-816e-651927c87584","system_id":"levelo_inurba_marseille","lat":43.33751,"lon":5.37456,"is_reserved":false,"is_disabled":true,"rental_uris":{"android":"levelo://app?vid=01861ad8-a8d7-4be6-816e-651927c87584","ios":"levelo://app?vid=01861ad8-a8d7-4be6-816e-651927c87584"},"vehicle_type_id":"4","last_reported":1751656083,"current_range_meters":0,"station_id":"","pricing_plan_id":"cebpf4jnsgd1na2vs0mg"},{"bike_id":"fb7eaa34-3090-467a-bc3a-a4c2c7cd510d","system_id":"levelo_inurba_marseille","lat":43.21743,"lon":5.34602,"is_reserved":false,"is_disabled":true,"rental_uris":{"android":"levelo://app?vid=fb7eaa34-3090-467a-bc3a-a4c2c7cd510d","ios":"levelo://app?vid=fb7eaa34-3090-467a-bc3a-a4c2c7cd510d"},"vehicle_type_id":"4","last_reported":1751656083,"current_range_meters":0,"station_id":"","pricing_plan_id":"cebpf4jnsgd1na2vs0mg"},{"bike_id":"c600bd53-162b-46bc-8bb8-e935da8b34df","system_id":"levelo_inurba_marseille","lat":43.292664,"lon":5.384305,"is_reserved":false,"is_disabled":true,"rental_uris":{"android":"levelo://app?vid=c600bd53-162b-46bc-8bb8-e935da8b34df","ios":"levelo://app?vid=c600bd53-162b-46bc-8bb8-e935da8b34df"},"vehicle_type_id":"4","last_reported":1751656083,"current_range_meters":0,"station_id":"","pricing_plan_id":"cebpf4jnsgd1na2vs0mg"},{"bike_id":"eb2a50ca-506b-4e80-b379-08adc8ae9a82","system_id":"levelo_inurba_marseille","lat":43.25396,"lon":5.37511,"is_reserved":false,"is_disabled":true,"rental_uris":{"android":"levelo://app?vid=eb2a50ca-506b-4e80-b379-08adc8ae9a82","ios":"levelo://app?vid=eb2a50ca-506b-4e80-b379-08adc8ae9a82"},"vehicle_type_id":"4","last_reported":1751656083,"current_range_meters":0,"station_id":"","pricing_plan_id":"cebpf4jnsgd1na2vs0mg"},{"bike_id":"5f2e1ccb-e063-436a-9a6a-8b37c41168f6","system_id":"levelo_inurba_marseille","lat":43.26248,"lon":5.37461,"is_reserved":false,"is_disabled":true,"rental_uris":{"android":"levelo://app?vid=5f2e1ccb-e063-436a-9a6a-8b37c41168f6","ios":"levelo://app?vid=5f2e1ccb-e063-436a-9a6a-8b37c41168f6"},"vehicle_type_id":"4","last_reported":1751656083,"current_range_meters":0,"station_id":"","pricing_plan_id":"cebpf4jnsgd1na2vs0mg"},{"bike_id":"d594088d-7cb9-4f95-8646-b495a2c02aa9","system_id":"levelo_inurba_marseille","lat":43.31678,"lon":5.40462,"is_reserved":false,"is_disabled":true,"rental_uris":{"android":"levelo://app?vid=d594088d-7cb9-4f95-8646-b495a2c02aa9","ios":"levelo://app?vid=d594088d-7cb9-4f95-8646-b495a2c02aa9"},"vehicle_type_id":"4","last_reported":1751656083,"current_range_meters":0,"station_id":"ce4bh012rcd13ifvqd00","pricing_plan_id":"cebpf4jnsgd1na2vs0mg"},{"bike_id":"e0273622-eef9-4296-ae2b-bb8c1e44d0cd","system_id":"levelo_inurba_marseille","lat":43.30644,"lon":5.40067,"is_reserved":false,"is_disabled":true,"rental_uris":{"android":"levelo://app?vid=e0273622-eef9-4296-ae2b-bb8c1e44d0cd","ios":"levelo://app?vid=e0273622-eef9-4296-ae2b-bb8c1e44d0cd"},"vehicle_type_id":"4","last_reported":1751656083,"current_range_meters":0,"station_id":"ce4bh112rcd13ifvqda0","pricing_plan_id":"cebpf4jnsgd1na2vs0mg"},{"bike_id":"9ed472ea-ef38-4bbd-8a6d-065822ad0e85","system_id":"levelo_inurba_marseille","lat":43.29434,"lon":5.39758,"is_reserved":false,"is_disabled":true,"rental_uris":{"android":"levelo://app?vid=9ed472ea-ef38-4bbd-8a6d-065822ad0e85","ios":"levelo://app?vid=9ed472ea-ef38-4bbd-8a6d-065822ad0e85"},"vehicle_type_id":"4","last_reported":1751656083,"current_range_meters":0,"station_id":"ce4bh3h2rcd13ifvqdo0","pricing_plan_id":"cebpf4jnsgd1na2vs0mg"},{"bike_id":"b38b549b-7e08-4150-bdf3-3f2e3e200db5","system_id":"levelo_inurba_marseille","lat":43.28422,"lon":5.37523,"is_reserved":false,"is_disabled":true,"rental_uris":{"android":"levelo://app?vid=b38b549b-7e08-4150-bdf3-3f2e3e200db5","ios":"levelo://app?vid=b38b549b-7e08-4150-bdf3-3f2e3e200db5"},"vehicle_type_id":"4","last_reported":1751656083,"current_range_meters":0,"station_id":"ce4bh412rcd13ifvqds0","pricing_plan_id":"cebpf4jnsgd1na2vs0mg"},{"bike_id":"6f3c319d-e880-41cb-9878-a425edcb52e6","system_id":"levelo_inurba_marseille","lat":43.27916,"lon":5.39577,"is_reserved":false,"is_disabled":true,"rental_uris":{"android":"levelo://app?vid=6f3c319d-e880-41cb-9878-a425edcb52e6","ios":"levelo://app?vid=6f3c319d-e880-41cb-9878-a425edcb52e6"},"vehicle_type_id":"4","last_reported":1751656083,"current_range_meters":0,"station_id":"ce4bhf92rcd13ifvqf40","pricing_plan_id":"cebpf4jnsgd1na2vs0mg"},{"bike_id":"61dec7f8-9d4f-4c3c-812f-6c8dce76df9b","system_id":"levelo_inurba_marseille","lat":43.26205,"lon":5.37443,"is_reserved":false,"is_disabled":true,"rental_uris":{"android":"levelo://app?vid=61dec7f8-9d4f-4c3c-812f-6c8dce76df9b","ios":"levelo://app?vid=61dec7f8-9d4f-4c3c-812f-6c8dce76df9b"},"vehicle_type_id":"4","last_reported":1751656083,"current_range_meters":0,"station_id":"ce4bhgp2rcd13ifvqfc0","pricing_plan_id":"cebpf4jnsgd1na2vs0mg"},{"bike_id":"f29777fb-b494-4194-afb6-550432d6710c","system_id":"levelo_inurba_marseille","lat":43.27567,"lon":5.38422,"is_reserved":false,"is_disabled":true,"rental_uris":{"android":"levelo://app?vid=f29777fb-b494-4194-afb6-550432d6710c","ios":"levelo://app?vid=f29777fb-b494-4194-afb6-550432d6710c"},"vehicle_type_id":"4","last_reported":1751656083,"current_range_meters":0,"station_id":"ce4bhh92rcd13ifvqfi0","pricing_plan_id":"cebpf4jnsgd1na2vs0mg"},{"bike_id":"d53817d2-b899-4b7f-b5f5-bb49cb9679e1","system_id":"levelo_inurba_marseille","lat":43.23958,"lon":5.36642,"is_reserved":false,"is_disabled":true,"rental_uris":{"android":"levelo://app?vid=d53817d2-b899-4b7f-b5f5-bb49cb9679e1","ios":"levelo://app?vid=d53817d2-b899-4b7f-b5f5-bb49cb9679e1"},"vehicle_type_id":"4","last_reported":1751656083,"current_range_meters":0,"station_id":"ce4bhi12rcd13ifvqfp0","pricing_plan_id":"cebpf4jnsgd1na2vs0mg"},{"bike_id":"b55f8d20-4ab0-4ac7-8196-6e6c2dfc5439","system_id":"levelo_inurba_marseille","lat":43.2293,"lon":5.35373,"is_reserved":false,"is_disabled":true,"rental_uris":{"android":"levelo://app?vid=b55f8d20-4ab0-4ac7-8196-6e6c2dfc5439","ios":"levelo://app?vid=b55f8d20-4ab0-4ac7-8196-6e6c2dfc5439"},"vehicle_type_id":"4","last_reported":1751656083,"current_range_meters":0,"station_id":"cpo3532slgdg3j2ikp40","pricing_plan_id":"cebpf4jnsgd1na2vs0mg"},{"bike_id":"2db7de25-6c57-447b-bff5-ea01c3753780","system_id":"levelo_inurba_marseille","lat":43.21765,"lon":5.34554,"is_reserved":false,"is_disabled":true,"rental_uris":{"android":"levelo://app?vid=2db7de25-6c57-447b-bff5-ea01c3753780","ios":"levelo://app?vid=2db7de25-6c57-447b-bff5-ea01c3753780"},"vehicle_type_id":"4","last_reported":1751656083,"current_range_meters":0,"station_id":"st_cvj6r9ubvosntc0bgbag","pricing_plan_id":"cebpf4jnsgd1na2vs0mg"},{"bike_id":"5e8830ec-34e5-4f0f-b607-434b2954d153","system_id":"levelo_inurba_marseille","lat":43.211939,"lon":5.350717,"is_reserved":false,"is_disabled":true,"rental_uris":{"android":"levelo://app?vid=5e8830ec-34e5-4f0f-b607-434b2954d153","ios":"levelo://app?vid=5e8830ec-34e5-4f0f-b607-434b2954d153"},"vehicle_type_id":"4","last_reported":1751656083,"current_range_meters":0,"station_id":"st_cvj6sg6p6f1abm77japg","pricing_plan_id":"cebpf4jnsgd1na2vs0mg"},{"bike_id":"cd2a3af2-854b-4519-92e5-1eaf70ba8a37","system_id":"levelo_inurba_marseille","lat":43.21202,"lon":5.35077,"is_reserved":false,"is_disabled":true,"rental_uris":{"android":"levelo://app?vid=cd2a3af2-854b-4519-92e5-1eaf70ba8a37","ios":"levelo://app?vid=cd2a3af2-854b-4519-92e5-1eaf70ba8a37"},"vehicle_type_id":"4","last_reported":1751656083,"current_range_meters":0,"station_id":"st_cvj6sg6p6f1abm77japg","pricing_plan_id":"cebpf4jnsgd1na2vs0mg"},{"bike_id":"78c1c86f-3ce1-43e4-a7eb-c8b2e2eef4d4","system_id":"levelo_inurba_marseille","lat":43.25116,"lon":5.40313,"is_reserved":false,"is_disabled":true,"rental_uris":{"android":"levelo://app?vid=78c1c86f-3ce1-43e4-a7eb-c8b2e2eef4d4","ios":"levelo://app?vid=78c1c86f-3ce1-43e4-a7eb-c8b2e2eef4d4"},"vehicle_type_id":"4","last_reported":1751656083,"current_range_meters":400,"station_id":"ce4bhlh2rcd13ifvqgig","pricing_plan_id":"cebpf4jnsgd1na2vs0mg"},{"bike_id":"9bb47507-b61f-4c86-abbb-82d78e84c8a7","system_id":"levelo_inurba_marseille","lat":43.32651,"lon":5.40993,"is_reserved":false,"is_disabled":true,"rental_uris":{"android":"levelo://app?vid=9bb47507-b61f-4c86-abbb-82d78e84c8a7","ios":"levelo://app?vid=9bb47507-b61f-4c86-abbb-82d78e84c8a7"},"vehicle_type_id":"4","last_reported":1751656083,"current_range_meters":400,"station_id":"ce4bhpp2rcd13ifvqhgg","pricing_plan_id":"cebpf4jnsgd1na2vs0mg"},{"bike_id":"cee0b5b6-9b90-457a-85f4-540287a23b84","system_id":"levelo_inurba_marseille","lat":43.21191,"lon":5.35071,"is_reserved":false,"is_disabled":true,"rental_uris":{"android":"levelo://app?vid=cee0b5b6-9b90-457a-85f4-540287a23b84","ios":"levelo://app?vid=cee0b5b6-9b90-457a-85f4-540287a23b84"},"vehicle_type_id":"4","last_reported":1751656083,"current_range_meters":400,"station_id":"st_cvj6sg6p6f1abm77japg","pricing_plan_id":"cebpf4jnsgd1na2vs0mg"},{"bike_id":"9ed61d67-06bf-4340-813c-ed10fc967cb4","system_id":"levelo_inurba_marseille","lat":43.30942,"lon":5.39022,"is_reserved":false,"is_disabled":true,"rental_uris":{"android":"levelo://app?vid=9ed61d67-06bf-4340-813c-ed10fc967cb4","ios":"levelo://app?vid=9ed61d67-06bf-4340-813c-ed10fc967cb4"},"vehicle_type_id":"4","last_reported":1751656083,"current_range_meters":800,"station_id":"ce4bgup2rcd13ifvqco0","pricing_plan_id":"cebpf4jnsgd1na2vs0mg"},{"bike_id":"324163b1-2378-4f73-b3b5-426550d2b6ab","system_id":"levelo_inurba_marseille","lat":43.28685,"lon":5.38642,"is_reserved":false,"is_disabled":true,"rental_uris":{"android":"levelo://app?vid=324163b1-2378-4f73-b3b5-426550d2b6ab","ios":"levelo://app?vid=324163b1-2378-4f73-b3b5-426550d2b6ab"},"vehicle_type_id":"4","last_reported":1751656083,"current_range_meters":1200,"station_id":"ce4bh492rcd13ifvqdug","pricing_plan_id":"cebpf4jnsgd1na2vs0mg"},{"bike_id":"16cf0e61-2d78-4c93-98a7-bce518b4bfff","system_id":"levelo_inurba_marseille","lat":43.27304,"lon":5.39082,"is_reserved":false,"is_disabled":false,"rental_uris":{"android":"levelo://app?vid=16cf0e61-2d78-4c93-98a7-bce518b4bfff","ios":"levelo://app?vid=16cf0e61-2d78-4c93-98a7-bce518b4bfff"},"vehicle_type_id":"4","last_reported":1751656083,"current_range_meters":1200,"station_id":"ce4bhgp2rcd13ifvqfe0","pricing_plan_id":"cebpf4jnsgd1na2vs0mg"},{"bike_id":"34c6e3d0-b005-424f-a0a7-52f9f8bd654f","system_id":"levelo_inurba_marseille","lat":43.23622,"lon":5.36207,"is_reserved":false,"is_disabled":true,"rental_uris":{"android":"levelo://app?vid=34c6e3d0-b005-424f-a0a7-52f9f8bd654f","ios":"levelo://app?vid=34c6e3d0-b005-424f-a0a7-52f9f8bd654f"},"vehicle_type_id":"4","last_reported":1751656083,"current_range_meters":1600,"station_id":"","pricing_plan_id":"cebpf4jnsgd1na2vs0mg"},{"bike_id":"670151f5-a594-4f64-ba9d-f122921d0a2e","system_id":"levelo_inurba_marseille","lat":43.31485,"lon":5.37291,"is_reserved":false,"is_disabled":true,"rental_uris":{"android":"levelo://app?vid=670151f5-a594-4f64-ba9d-f122921d0a2e","ios":"levelo://app?vid=670151f5-a594-4f64-ba9d-f122921d0a2e"},"vehicle_type_id":"4","last_reported":1751656083,"current_range_meters":1600,"station_id":"ce4bgt12rcd13ifvqcd0","pricing_plan_id":"cebpf4jnsgd1na2vs0mg"},{"bike_id":"194967de-8775-47fe-b36d-d444dc5438c6","system_id":"levelo_inurba_marseille","lat":43.28858,"lon":5.35849,"is_reserved":false,"is_disabled":true,"rental_uris":{"android":"levelo://app?vid=194967de-8775-47fe-b36d-d444dc5438c6","ios":"levelo://app?vid=194967de-8775-47fe-b36d-d444dc5438c6"},"vehicle_type_id":"4","last_reported":1751656083,"current_range_meters":1600,"station_id":"ce4bhb12rcd13ifvqem0","pricing_plan_id":"cebpf4jnsgd1na2vs0mg"},{"bike_id":"0876bcb7-a371-4364-a7af-cdfe53393ce4","system_id":"levelo_inurba_marseille","lat":43.27058,"lon":5.4226,"is_reserved":false,"is_disabled":true,"rental_uris":{"android":"levelo://app?vid=0876bcb7-a371-4364-a7af-cdfe53393ce4","ios":"levelo://app?vid=0876bcb7-a371-4364-a7af-cdfe53393ce4"},"vehicle_type_id":"4","last_reported":1751656083,"current_range_meters":1600,"station_id":"ce4bhk92rcd13ifvqgb0","pricing_plan_id":"cebpf4jnsgd1na2vs0mg"},{"bike_id":"7ca6791d-831f-4c54-bd91-3d303e286bdd","system_id":"levelo_inurba_marseille","lat":43.23058,"lon":5.3549,"is_reserved":false,"is_disabled":false,"rental_uris":{"android":"levelo://app?vid=7ca6791d-831f-4c54-bd91-3d303e286bdd","ios":"levelo://app?vid=7ca6791d-831f-4c54-bd91-3d303e286bdd"},"vehicle_type_id":"4","last_reported":1751656083,"current_range_meters":1600,"station_id":"cpo3342slgdg3j2ifvpg","pricing_plan_id":"cebpf4jnsgd1na2vs0mg"},{"bike_id":"600bf555-6122-4184-b5de-a76315c2b0b1","system_id":"levelo_inurba_marseille","lat":43.23064,"lon":5.35493,"is_reserved":false,"is_disabled":true,"rental_uris":{"android":"levelo://app?vid=600bf555-6122-4184-b5de-a76315c2b0b1","ios":"levelo://app?vid=600bf555-6122-4184-b5de-a76315c2b0b1"},"vehicle_type_id":"4","last_reported":1751656083,"current_range_meters":1600,"station_id":"cpo3342slgdg3j2ifvpg","pricing_plan_id":"cebpf4jnsgd1na2vs0mg"},{"bike_id":"232c7599-afff-41a5-b0d2-0bcec5f48bb6","system_id":"levelo_inurba_marseille","lat":43.21766,"lon":5.34599,"is_reserved":false,"is_disabled":true,"rental_uris":{"android":"levelo://app?vid=232c7599-afff-41a5-b0d2-0bcec5f48bb6","ios":"levelo://app?vid=232c7599-afff-41a5-b0d2-0bcec5f48bb6"},"vehicle_type_id":"4","last_reported":1751656083,"current_range_meters":1600,"station_id":"st_cvj6r9ubvosntc0bgbag","pricing_plan_id":"cebpf4jnsgd1na2vs0mg"},{"bike_id":"d3d0dbbe-a460-47ee-be46-56fdcea45d06","system_id":"levelo_inurba_marseille","lat":43.2549,"lon":5.37664,"is_reserved":false,"is_disabled":true,"rental_uris":{"android":"levelo://app?vid=d3d0dbbe-a460-47ee-be46-56fdcea45d06","ios":"levelo://app?vid=d3d0dbbe-a460-47ee-be46-56fdcea45d06"},"vehicle_type_id":"4","last_reported":1751656083,"current_range_meters":2000,"station_id":"ce4bhh12rcd13ifvqff0","pricing_plan_id":"cebpf4jnsgd1na2vs0mg"},{"bike_id":"4cd49751-6506-4904-a289-b3f7f4b6f626","system_id":"levelo_inurba_marseille","lat":43.25475,"lon":5.37662,"is_reserved":false,"is_disabled":true,"rental_uris":{"android":"levelo://app?vid=4cd49751-6506-4904-a289-b3f7f4b6f626","ios":"levelo://app?vid=4cd49751-6506-4904-a289-b3f7f4b6f626"},"vehicle_type_id":"4","last_reported":1751656083,"current_range_meters":2000,"station_id":"ce4bhh12rcd13ifvqff0","pricing_plan_id":"cebpf4jnsgd1na2vs0mg"},{"bike_id":"c39e76d2-ecfa-4b62-9437-26436bd774b1","system_id":"levelo_inurba_marseille","lat":43.28706,"lon":5.39996,"is_reserved":false,"is_disabled":true,"rental_uris":{"android":"levelo://app?vid=c39e76d2-ecfa-4b62-9437-26436bd774b1","ios":"levelo://app?vid=c39e76d2-ecfa-4b62-9437-26436bd774b1"},"vehicle_type_id":"4","last_reported":1751656083,"current_range_meters":2000,"station_id":"ce4bho92rcd13ifvqh3g","pricing_plan_id":"cebpf4jnsgd1na2vs0mg"},{"bike_id":"281f0395-3e55-43c6-a95d-85fc787cf386","system_id":"levelo_inurba_marseille","lat":43.29276,"lon":5.368416,"is_reserved":false,"is_disabled":false,"rental_uris":{"android":"levelo://app?vid=281f0395-3e55-43c6-a95d-85fc787cf386","ios":"levelo://app?vid=281f0395-3e55-43c6-a95d-85fc787cf386"},"vehicle_type_id":"4","last_reported":1751656083,"current_range_meters":2800,"station_id":"","pricing_plan_id":"cebpf4jnsgd1na2vs0mg"},{"bike_id":"d2ca97e6-8f8c-4d36-b2e3-62c21d8b7d0b","system_id":"levelo_inurba_marseille","lat":43.309421,"lon":5.390373,"is_reserved":false,"is_disabled":false,"rental_uris":{"android":"levelo://app?vid=d2ca97e6-8f8c-4d36-b2e3-62c21d8b7d0b","ios":"levelo://app?vid=d2ca97e6-8f8c-4d36-b2e3-62c21d8b7d0b"},"vehicle_type_id":"4","last_reported":1751656083,"current_range_meters":2800,"station_id":"ce4bgup2rcd13ifvqco0","pricing_plan_id":"cebpf4jnsgd1na2vs0mg"},{"bike_id":"c7533102-0959-4964-b196-28d1dc81c26d","system_id":"levelo_inurba_marseille","lat":43.28036,"lon":5.36942,"is_reserved":false,"is_disabled":false,"rental_uris":{"android":"levelo://app?vid=c7533102-0959-4964-b196-28d1dc81c26d","ios":"levelo://app?vid=c7533102-0959-4964-b196-28d1dc81c26d"},"vehicle_type_id":"4","last_reported":1751656083,"current_range_meters":2800,"station_id":"ce4bha12rcd13ifvqef0","pricing_plan_id":"cebpf4jnsgd1na2vs0mg"},{"bike_id":"11e7b8be-6254-46c8-a705-c6941c346d56","system_id":"levelo_inurba_marseille","lat":43.30152,"lon":5.37736,"is_reserved":false,"is_disabled":false,"rental_uris":{"android":"levelo://app?vid=11e7b8be-6254-46c8-a705-c6941c346d56","ios":"levelo://app?vid=11e7b8be-6254-46c8-a705-c6941c346d56"},"vehicle_type_id":"4","last_reported":1751656083,"current_range_meters":3200,"station_id":"","pricing_plan_id":"cebpf4jnsgd1na2vs0mg"},{"bike_id":"d192d036-0dc6-45d1-8c9c-1f419995b215","system_id":"levelo_inurba_marseille","lat":43.295166,"lon":5.393994,"is_reserved":false,"is_disabled":false,"rental_uris":{"android":"levelo://app?vid=d192d036-0dc6-45d1-8c9c-1f419995b215","ios":"levelo://app?vid=d192d036-0dc6-45d1-8c9c-1f419995b215"},"vehicle_type_id":"4","last_reported":1751656083,"current_range_meters":3200,"station_id":"ce4bh292rcd13ifvqdf0","pricing_plan_id":"cebpf4jnsgd1na2vs0mg"},{"bike_id":"b537497f-0baa-4d4a-a9e1-cc8e25d8e50b","system_id":"levelo_inurba_marseille","lat":43.2454,"lon":5.39519,"is_reserved":false,"is_disabled":false,"rental_uris":{"android":"levelo://app?vid=b537497f-0baa-4d4a-a9e1-cc8e25d8e50b","ios":"levelo://app?vid=b537497f-0baa-4d4a-a9e1-cc8e25d8e50b"},"vehicle_type_id":"4","last_reported":1751656083,"current_range_meters":3200,"station_id":"ce4bhlp2rcd13ifvqgjg","pricing_plan_id":"cebpf4jnsgd1na2vs0mg"},{"bike_id":"b604b927-3f32-482c-846c-5a6fd206d360","system_id":"levelo_inurba_marseille","lat":43.29785,"lon":5.37105,"is_reserved":false,"is_disabled":false,"rental_uris":{"android":"levelo://app?vid=b604b927-3f32-482c-846c-5a6fd206d360","ios":"levelo://app?vid=b604b927-3f32-482c-846c-5a6fd206d360"},"vehicle_type_id":"4","last_reported":1751656083,"current_range_meters":3600,"station_id":"ce4bgop2rcd13ifvqc1g","pricing_plan_id":"cebpf4jnsgd1na2vs0mg"},{"bike_id":"05e14981-2058-4ff7-8503-4dcea2b08f0b","system_id":"levelo_inurba_marseille","lat":43.27962,"lon":5.38758,"is_reserved":false,"is_disabled":false,"rental_uris":{"android":"levelo://app?vid=05e14981-2058-4ff7-8503-4dcea2b08f0b","ios":"levelo://app?vid=05e14981-2058-4ff7-8503-4dcea2b08f0b"},"vehicle_type_id":"4","last_reported":1751656083,"current_range_meters":3600,"station_id":"ce4bhg12rcd13ifvqf80","pricing_plan_id":"cebpf4jnsgd1na2vs0mg"},{"bike_id":"aaf88b9f-3a2e-43f9-bcbd-3dd93831ff21","system_id":"levelo_inurba_marseille","lat":43.30943,"lon":5.39032,"is_reserved":false,"is_disabled":false,"rental_uris":{"android":"levelo://app?vid=aaf88b9f-3a2e-43f9-bcbd-3dd93831ff21","ios":"levelo://app?vid=aaf88b9f-3a2e-43f9-bcbd-3dd93831ff21"},"vehicle_type_id":"4","last_reported":1751656083,"current_range_meters":4000,"station_id":"ce4bgup2rcd13ifvqco0","pricing_plan_id":"cebpf4jnsgd1na2vs0mg"},{"bike_id":"954a085f-2783-4f35-849a-150773d7867a","system_id":"levelo_inurba_marseille","lat":43.29959,"lon":5.37169,"is_reserved":false,"is_disabled":false,"rental_uris":{"android":"levelo://app?vid=954a085f-2783-4f35-849a-150773d7867a","ios":"levelo://app?vid=954a085f-2783-4f35-849a-150773d7867a"},"vehicle_type_id":"4","last_reported":1751656083,"current_range_meters":4400,"station_id":"ce4bgr92rcd13ifvqc7g","pricing_plan_id":"cebpf4jnsgd1na2vs0mg"},{"bike_id":"8afa7640-ebe8-4025-983a-c83f3912a2dd","system_id":"levelo_inurba_marseille","lat":43.2119,"lon":5.350738,"is_reserved":false,"is_disabled":false,"rental_uris":{"android":"levelo://app?vid=8afa7640-ebe8-4025-983a-c83f3912a2dd","ios":"levelo://app?vid=8afa7640-ebe8-4025-983a-c83f3912a2dd"},"vehicle_type_id":"4","last_reported":1751656083,"current_range_meters":4400,"station_id":"st_cvj6sg6p6f1abm77japg","pricing_plan_id":"cebpf4jnsgd1na2vs0mg"},{"bike_id":"e26ba497-efc7-4420-b8c5-9fa5e27f2ce4","system_id":"levelo_inurba_marseille","lat":43.31352,"lon":5.37066,"is_reserved":false,"is_disabled":false,"rental_uris":{"android":"levelo://app?vid=e26ba497-efc7-4420-b8c5-9fa5e27f2ce4","ios":"levelo://app?vid=e26ba497-efc7-4420-b8c5-9fa5e27f2ce4"},"vehicle_type_id":"4","last_reported":1751656083,"current_range_meters":4800,"station_id":"","pricing_plan_id":"cebpf4jnsgd1na2vs0mg"},{"bike_id":"d0db5b32-d375-4dd1-ad76-d7c4d5d1e9ac","system_id":"levelo_inurba_marseille","lat":43.3052,"lon":5.38408,"is_reserved":false,"is_disabled":false,"rental_uris":{"android":"levelo://app?vid=d0db5b32-d375-4dd1-ad76-d7c4d5d1e9ac","ios":"levelo://app?vid=d0db5b32-d375-4dd1-ad76-d7c4d5d1e9ac"},"vehicle_type_id":"4","last_reported":1751656083,"current_range_meters":4800,"station_id":"ce4bgg92rcd13ifvqb30","pricing_plan_id":"cebpf4jnsgd1na2vs0mg"},{"bike_id":"b9137d28-6adc-4de4-9333-2763177445bb","system_id":"levelo_inurba_marseille","lat":43.2318,"lon":5.39981,"is_reserved":false,"is_disabled":false,"rental_uris":{"android":"levelo://app?vid=b9137d28-6adc-4de4-9333-2763177445bb","ios":"levelo://app?vid=b9137d28-6adc-4de4-9333-2763177445bb"},"vehicle_type_id":"4","last_reported":1751656083,"current_range_meters":4800,"station_id":"ce4bhn12rcd13ifvqgqg","pricing_plan_id":"cebpf4jnsgd1na2vs0mg"},{"bike_id":"de90600e-e1fe-466f-90a9-a94df7347093","system_id":"levelo_inurba_marseille","lat":43.31485,"lon":5.37311,"is_reserved":false,"is_disabled":false,"rental_uris":{"android":"levelo://app?vid=de90600e-e1fe-466f-90a9-a94df7347093","ios":"levelo://app?vid=de90600e-e1fe-466f-90a9-a94df7347093"},"vehicle_type_id":"4","last_reported":1751656083,"current_range_meters":6000,"station_id":"ce4bgt12rcd13ifvqcd0","pricing_plan_id":"cebpf4jnsgd1na2vs0mg"},{"bike_id":"269c791f-f4f5-4027-af19-5f10481ca52d","system_id":"levelo_inurba_marseille","lat":43.292,"lon":5.39324,"is_reserved":false,"is_disabled":false,"rental_uris":{"android":"levelo://app?vid=269c791f-f4f5-4027-af19-5f10481ca52d","ios":"levelo://app?vid=269c791f-f4f5-4027-af19-5f10481ca52d"},"vehicle_type_id":"4","last_reported":1751656083,"current_range_meters":6000,"station_id":"ce4bh192rcd13ifvqdd0","pricing_plan_id":"cebpf4jnsgd1na2vs0mg"},{"bike_id":"c3ae91a3-84a1-49e1-b302-b2dd0c68bce6","system_id":"levelo_inurba_marseille","lat":43.28317,"lon":5.43279,"is_reserved":false,"is_disabled":false,"rental_uris":{"android":"levelo://app?vid=c3ae91a3-84a1-49e1-b302-b2dd0c68bce6","ios":"levelo://app?vid=c3ae91a3-84a1-49e1-b302-b2dd0c68bce6"},"vehicle_type_id":"4","last_reported":1751656083,"current_range_meters":6400,"station_id":"","pricing_plan_id":"cebpf4jnsgd1na2vs0mg"},{"bike_id":"09454f46-e55e-4559-820c-cbc05b531847","system_id":"levelo_inurba_marseille","lat":43.32292,"lon":5.38998,"is_reserved":false,"is_disabled":false,"rental_uris":{"android":"levelo://app?vid=09454f46-e55e-4559-820c-cbc05b531847","ios":"levelo://app?vid=09454f46-e55e-4559-820c-cbc05b531847"},"vehicle_type_id":"4","last_reported":1751656083,"current_range_meters":6400,"station_id":"","pricing_plan_id":"cebpf4jnsgd1na2vs0mg"},{"bike_id":"c8063873-82e2-4929-a84e-8645a44ba0ec","system_id":"levelo_inurba_marseille","lat":43.30948,"lon":5.39044,"is_reserved":false,"is_disabled":false,"rental_uris":{"android":"levelo://app?vid=c8063873-82e2-4929-a84e-8645a44ba0ec","ios":"levelo://app?vid=c8063873-82e2-4929-a84e-8645a44ba0ec"},"vehicle_type_id":"4","last_reported":1751656083,"current_range_meters":6400,"station_id":"ce4bgup2rcd13ifvqco0","pricing_plan_id":"cebpf4jnsgd1na2vs0mg"},{"bike_id":"2f8879a5-bfda-4735-ae6b-31291a3a3adc","system_id":"levelo_inurba_marseille","lat":43.31493,"lon":5.37305,"is_reserved":false,"is_disabled":false,"rental_uris":{"android":"levelo://app?vid=2f8879a5-bfda-4735-ae6b-31291a3a3adc","ios":"levelo://app?vid=2f8879a5-bfda-4735-ae6b-31291a3a3adc"},"vehicle_type_id":"4","last_reported":1751656083,"current_range_meters":6800,"station_id":"ce4bgt12rcd13ifvqcd0","pricing_plan_id":"cebpf4jnsgd1na2vs0mg"},{"bike_id":"7aa0d8bd-1d8e-40a4-a3db-34abb39b3caa","system_id":"levelo_inurba_marseille","lat":43.28942,"lon":5.364,"is_reserved":false,"is_disabled":false,"rental_uris":{"android":"levelo://app?vid=7aa0d8bd-1d8e-40a4-a3db-34abb39b3caa","ios":"levelo://app?vid=7aa0d8bd-1d8e-40a4-a3db-34abb39b3caa"},"vehicle_type_id":"4","last_reported":1751656083,"current_range_meters":6800,"station_id":"ce4bhc92rcd13ifvqetg","pricing_plan_id":"cebpf4jnsgd1na2vs0mg"},{"bike_id":"5ae78077-f502-4a66-8a57-a6a5281bc64d","system_id":"levelo_inurba_marseille","lat":43.26681,"lon":5.38265,"is_reserved":false,"is_disabled":false,"rental_uris":{"android":"levelo://app?vid=5ae78077-f502-4a66-8a57-a6a5281bc64d","ios":"levelo://app?vid=5ae78077-f502-4a66-8a57-a6a5281bc64d"},"vehicle_type_id":"4","last_reported":1751656083,"current_range_meters":6800,"station_id":"ce4bhg92rcd13ifvqf90","pricing_plan_id":"cebpf4jnsgd1na2vs0mg"},{"bike_id":"f6850c7e-defc-4978-a42c-12d5cf031dcb","system_id":"levelo_inurba_marseille","lat":43.31762,"lon":5.39001,"is_reserved":false,"is_disabled":false,"rental_uris":{"android":"levelo://app?vid=f6850c7e-defc-4978-a42c-12d5cf031dcb","ios":"levelo://app?vid=f6850c7e-defc-4978-a42c-12d5cf031dcb"},"vehicle_type_id":"4","last_reported":1751656083,"current_range_meters":6800,"station_id":"ce4bhqp2rcd13ifvqhng","pricing_plan_id":"cebpf4jnsgd1na2vs0mg"},{"bike_id":"2f2decbd-a82a-4a6c-bd15-dbb5978b7d66","system_id":"levelo_inurba_marseille","lat":43.276187,"lon":5.361041,"is_reserved":false,"is_disabled":false,"rental_uris":{"android":"levelo://app?vid=2f2decbd-a82a-4a6c-bd15-dbb5978b7d66","ios":"levelo://app?vid=2f2decbd-a82a-4a6c-bd15-dbb5978b7d66"},"vehicle_type_id":"4","last_reported":1751656083,"current_range_meters":7200,"station_id":"ce4bgj92rcd13ifvqbe0","pricing_plan_id":"cebpf4jnsgd1na2vs0mg"},{"bike_id":"88a09365-6db8-49ae-a620-16f7f876f36b","system_id":"levelo_inurba_marseille","lat":43.31161,"lon":5.38718,"is_reserved":false,"is_disabled":false,"rental_uris":{"android":"levelo://app?vid=88a09365-6db8-49ae-a620-16f7f876f36b","ios":"levelo://app?vid=88a09365-6db8-49ae-a620-16f7f876f36b"},"vehicle_type_id":"4","last_reported":1751656083,"current_range_meters":7200,"station_id":"ce4bgv12rcd13ifvqcp0","pricing_plan_id":"cebpf4jnsgd1na2vs0mg"},{"bike_id":"9bfc7d3d-4e60-4f8a-9c32-ef3d0e77ec5b","system_id":"levelo_inurba_marseille","lat":43.21216,"lon":5.35064,"is_reserved":false,"is_disabled":false,"rental_uris":{"android":"levelo://app?vid=9bfc7d3d-4e60-4f8a-9c32-ef3d0e77ec5b","ios":"levelo://app?vid=9bfc7d3d-4e60-4f8a-9c32-ef3d0e77ec5b"},"vehicle_type_id":"4","last_reported":1751656083,"current_range_meters":7200,"station_id":"st_cvj6sg6p6f1abm77japg","pricing_plan_id":"cebpf4jnsgd1na2vs0mg"},{"bike_id":"7998d2e2-cd8a-4bad-805e-255fbf6706b8","system_id":"levelo_inurba_marseille","lat":43.29555,"lon":5.42294,"is_reserved":false,"is_disabled":false,"rental_uris":{"android":"levelo://app?vid=7998d2e2-cd8a-4bad-805e-255fbf6706b8","ios":"levelo://app?vid=7998d2e2-cd8a-4bad-805e-255fbf6706b8"},"vehicle_type_id":"4","last_reported":1751656083,"current_range_meters":8000,"station_id":"","pricing_plan_id":"cebpf4jnsgd1na2vs0mg"},{"bike_id":"6c4978e8-0fc5-4634-91e4-a277443beb80","system_id":"levelo_inurba_marseille","lat":43.30793,"lon":5.43529,"is_reserved":false,"is_disabled":false,"rental_uris":{"android":"levelo://app?vid=6c4978e8-0fc5-4634-91e4-a277443beb80","ios":"levelo://app?vid=6c4978e8-0fc5-4634-91e4-a277443beb80"},"vehicle_type_id":"4","last_reported":1751656083,"current_range_meters":8000,"station_id":"ce4bhph2rcd13ifvqheg","pricing_plan_id":"cebpf4jnsgd1na2vs0mg"},{"bike_id":"1838da5d-9302-4d9d-b51c-f9641c850068","system_id":"levelo_inurba_marseille","lat":43.31527,"lon":5.38046,"is_reserved":false,"is_disabled":false,"rental_uris":{"android":"levelo://app?vid=1838da5d-9302-4d9d-b51c-f9641c850068","ios":"levelo://app?vid=1838da5d-9302-4d9d-b51c-f9641c850068"},"vehicle_type_id":"4","last_reported":1751656083,"current_range_meters":8000,"station_id":"ce4bhsp2rcd13ifvqi50","pricing_plan_id":"cebpf4jnsgd1na2vs0mg"},{"bike_id":"be4e2ba2-f83c-4be6-923a-932d435bb5ce","system_id":"levelo_inurba_marseille","lat":43.28243,"lon":5.40425,"is_reserved":false,"is_disabled":false,"rental_uris":{"android":"levelo://app?vid=be4e2ba2-f83c-4be6-923a-932d435bb5ce","ios":"levelo://app?vid=be4e2ba2-f83c-4be6-923a-932d435bb5ce"},"vehicle_type_id":"4","last_reported":1751656083,"current_range_meters":8400,"station_id":"","pricing_plan_id":"cebpf4jnsgd1na2vs0mg"},{"bike_id":"b19454cc-c20e-4154-ad7c-80d9639aa0a9","system_id":"levelo_inurba_marseille","lat":43.3117,"lon":5.38717,"is_reserved":false,"is_disabled":false,"rental_uris":{"android":"levelo://app?vid=b19454cc-c20e-4154-ad7c-80d9639aa0a9","ios":"levelo://app?vid=b19454cc-c20e-4154-ad7c-80d9639aa0a9"},"vehicle_type_id":"4","last_reported":1751656083,"current_range_meters":8400,"station_id":"ce4bgv12rcd13ifvqcp0","pricing_plan_id":"cebpf4jnsgd1na2vs0mg"},{"bike_id":"71efdcc5-f818-4918-9df2-d65a2f17a3f3","system_id":"levelo_inurba_marseille","lat":43.31689,"lon":5.40476,"is_reserved":false,"is_disabled":false,"rental_uris":{"android":"levelo://app?vid=71efdcc5-f818-4918-9df2-d65a2f17a3f3","ios":"levelo://app?vid=71efdcc5-f818-4918-9df2-d65a2f17a3f3"},"vehicle_type_id":"4","last_reported":1751656083,"current_range_meters":8400,"station_id":"ce4bh012rcd13ifvqd00","pricing_plan_id":"cebpf4jnsgd1na2vs0mg"},{"bike_id":"213741da-6dd8-461c-ace0-fa9a049c9287","system_id":"levelo_inurba_marseille","lat":43.30638,"lon":5.40078,"is_reserved":false,"is_disabled":false,"rental_uris":{"android":"levelo://app?vid=213741da-6dd8-461c-ace0-fa9a049c9287","ios":"levelo://app?vid=213741da-6dd8-461c-ace0-fa9a049c9287"},"vehicle_type_id":"4","last_reported":1751656083,"current_range_meters":8400,"station_id":"ce4bh112rcd13ifvqda0","pricing_plan_id":"cebpf4jnsgd1na2vs0mg"},{"bike_id":"3b9730f3-d0b5-472c-b336-da9f1a4514fd","system_id":"levelo_inurba_marseille","lat":43.29058,"lon":5.35568,"is_reserved":false,"is_disabled":false,"rental_uris":{"android":"levelo://app?vid=3b9730f3-d0b5-472c-b336-da9f1a4514fd","ios":"levelo://app?vid=3b9730f3-d0b5-472c-b336-da9f1a4514fd"},"vehicle_type_id":"4","last_reported":1751656083,"current_range_meters":8800,"station_id":"","pricing_plan_id":"cebpf4jnsgd1na2vs0mg"},{"bike_id":"d799b321-3a7d-4201-b46e-ffe2ad124f19","system_id":"levelo_inurba_marseille","lat":43.328823,"lon":5.38389,"is_reserved":false,"is_disabled":false,"rental_uris":{"android":"levelo://app?vid=d799b321-3a7d-4201-b46e-ffe2ad124f19","ios":"levelo://app?vid=d799b321-3a7d-4201-b46e-ffe2ad124f19"},"vehicle_type_id":"4","last_reported":1751656083,"current_range_meters":8800,"station_id":"","pricing_plan_id":"cebpf4jnsgd1na2vs0mg"},{"bike_id":"4ff464cf-e959-4765-b23c-1722e4f1b80d","system_id":"levelo_inurba_marseille","lat":43.282879,"lon":5.373286,"is_reserved":false,"is_disabled":false,"rental_uris":{"android":"levelo://app?vid=4ff464cf-e959-4765-b23c-1722e4f1b80d","ios":"levelo://app?vid=4ff464cf-e959-4765-b23c-1722e4f1b80d"},"vehicle_type_id":"4","last_reported":1751656083,"current_range_meters":8800,"station_id":"ce4bhbh2rcd13ifvqepg","pricing_plan_id":"cebpf4jnsgd1na2vs0mg"},{"bike_id":"8fac92a5-694f-435f-be00-cba73de9a823","system_id":"levelo_inurba_marseille","lat":43.29274,"lon":5.376147,"is_reserved":false,"is_disabled":false,"rental_uris":{"android":"levelo://app?vid=8fac92a5-694f-435f-be00-cba73de9a823","ios":"levelo://app?vid=8fac92a5-694f-435f-be00-cba73de9a823"},"vehicle_type_id":"4","last_reported":1751656083,"current_range_meters":8800,"station_id":"ce4bhgh2rcd13ifvqfa0","pricing_plan_id":"cebpf4jnsgd1na2vs0mg"},{"bike_id":"4bac3f2b-eb39-405f-9e58-7764b5148051","system_id":"levelo_inurba_marseille","lat":43.321698,"lon":5.417751,"is_reserved":false,"is_disabled":false,"rental_uris":{"android":"levelo://app?vid=4bac3f2b-eb39-405f-9e58-7764b5148051","ios":"levelo://app?vid=4bac3f2b-eb39-405f-9e58-7764b5148051"},"vehicle_type_id":"4","last_reported":1751656083,"current_range_meters":9200,"station_id":"","pricing_plan_id":"cebpf4jnsgd1na2vs0mg"},{"bike_id":"db1a2e53-b83f-4562-996b-394660a6bfd5","system_id":"levelo_inurba_marseille","lat":43.30797,"lon":5.38159,"is_reserved":false,"is_disabled":false,"rental_uris":{"android":"levelo://app?vid=db1a2e53-b83f-4562-996b-394660a6bfd5","ios":"levelo://app?vid=db1a2e53-b83f-4562-996b-394660a6bfd5"},"vehicle_type_id":"4","last_reported":1751656083,"current_range_meters":9200,"station_id":"ce4bgt12rcd13ifvqce0","pricing_plan_id":"cebpf4jnsgd1na2vs0mg"},{"bike_id":"363753c8-8847-4739-8d19-0bb2f310f9d7","system_id":"levelo_inurba_marseille","lat":43.30945,"lon":5.39032,"is_reserved":false,"is_disabled":false,"rental_uris":{"android":"levelo://app?vid=363753c8-8847-4739-8d19-0bb2f310f9d7","ios":"levelo://app?vid=363753c8-8847-4739-8d19-0bb2f310f9d7"},"vehicle_type_id":"4","last_reported":1751656083,"current_range_meters":9200,"station_id":"ce4bgup2rcd13ifvqco0","pricing_plan_id":"cebpf4jnsgd1na2vs0mg"},{"bike_id":"c76381fd-b6b9-4d02-a8a4-fd4e6891e706","system_id":"levelo_inurba_marseille","lat":43.302501,"lon":5.390241,"is_reserved":false,"is_disabled":false,"rental_uris":{"android":"levelo://app?vid=c76381fd-b6b9-4d02-a8a4-fd4e6891e706","ios":"levelo://app?vid=c76381fd-b6b9-4d02-a8a4-fd4e6891e706"},"vehicle_type_id":"4","last_reported":1751656083,"current_range_meters":9600,"station_id":"","pricing_plan_id":"cebpf4jnsgd1na2vs0mg"},{"bike_id":"63b70293-0ab5-4a71-9a37-4401dc285d4c","system_id":"levelo_inurba_marseille","lat":43.29534,"lon":5.39382,"is_reserved":false,"is_disabled":false,"rental_uris":{"android":"levelo://app?vid=63b70293-0ab5-4a71-9a37-4401dc285d4c","ios":"levelo://app?vid=63b70293-0ab5-4a71-9a37-4401dc285d4c"},"vehicle_type_id":"4","last_reported":1751656083,"current_range_meters":9600,"station_id":"ce4bh292rcd13ifvqdf0","pricing_plan_id":"cebpf4jnsgd1na2vs0mg"},{"bike_id":"18e03d2b-69ba-4af2-bdb8-60416e0aab62","system_id":"levelo_inurba_marseille","lat":43.298988,"lon":5.436702,"is_reserved":false,"is_disabled":false,"rental_uris":{"android":"levelo://app?vid=18e03d2b-69ba-4af2-bdb8-60416e0aab62","ios":"levelo://app?vid=18e03d2b-69ba-4af2-bdb8-60416e0aab62"},"vehicle_type_id":"4","last_reported":1751656083,"current_range_meters":9600,"station_id":"ce4bhpp2rcd13ifvqhfg","pricing_plan_id":"cebpf4jnsgd1na2vs0mg"},{"bike_id":"9f1f6042-7e07-4b00-9dc1-8f0343d9174e","system_id":"levelo_inurba_marseille","lat":43.21191,"lon":5.35064,"is_reserved":false,"is_disabled":false,"rental_uris":{"android":"levelo://app?vid=9f1f6042-7e07-4b00-9dc1-8f0343d9174e","ios":"levelo://app?vid=9f1f6042-7e07-4b00-9dc1-8f0343d9174e"},"vehicle_type_id":"4","last_reported":1751656083,"current_range_meters":9600,"station_id":"st_cvj6sg6p6f1abm77japg","pricing_plan_id":"cebpf4jnsgd1na2vs0mg"},{"bike_id":"ba154a12-11bd-42a5-958a-5992f5d043d1","system_id":"levelo_inurba_marseille","lat":43.30509,"lon":5.37055,"is_reserved":false,"is_disabled":false,"rental_uris":{"android":"levelo://app?vid=ba154a12-11bd-42a5-958a-5992f5d043d1","ios":"levelo://app?vid=ba154a12-11bd-42a5-958a-5992f5d043d1"},"vehicle_type_id":"4","last_reported":1751656083,"current_range_meters":10000,"station_id":"","pricing_plan_id":"cebpf4jnsgd1na2vs0mg"},{"bike_id":"9821c756-290f-467a-b77b-af9f7282ff6f","system_id":"levelo_inurba_marseille","lat":43.28424,"lon":5.34985,"is_reserved":false,"is_disabled":false,"rental_uris":{"android":"levelo://app?vid=9821c756-290f-467a-b77b-af9f7282ff6f","ios":"levelo://app?vid=9821c756-290f-467a-b77b-af9f7282ff6f"},"vehicle_type_id":"4","last_reported":1751656083,"current_range_meters":10000,"station_id":"","pricing_plan_id":"cebpf4jnsgd1na2vs0mg"},{"bike_id":"1debf7b4-a1eb-4556-aecf-a2644e2b30cb","system_id":"levelo_inurba_marseille","lat":43.30951,"lon":5.39032,"is_reserved":false,"is_disabled":false,"rental_uris":{"android":"levelo://app?vid=1debf7b4-a1eb-4556-aecf-a2644e2b30cb","ios":"levelo://app?vid=1debf7b4-a1eb-4556-aecf-a2644e2b30cb"},"vehicle_type_id":"4","last_reported":1751656083,"current_range_meters":10000,"station_id":"ce4bgup2rcd13ifvqco0","pricing_plan_id":"cebpf4jnsgd1na2vs0mg"},{"bike_id":"f1141b37-4355-4ae1-918b-9e7944a771ed","system_id":"levelo_inurba_marseille","lat":43.24166,"lon":5.36398,"is_reserved":false,"is_disabled":false,"rental_uris":{"android":"levelo://app?vid=f1141b37-4355-4ae1-918b-9e7944a771ed","ios":"levelo://app?vid=f1141b37-4355-4ae1-918b-9e7944a771ed"},"vehicle_type_id":"4","last_reported":1751656083,"current_range_meters":10000,"station_id":"cpo36qri1sfpv3e86is0","pricing_plan_id":"cebpf4jnsgd1na2vs0mg"},{"bike_id":"0c4b7fdb-b39e-49b3-a2b0-ae3d0f43e89d","system_id":"levelo_inurba_marseille","lat":43.32931,"lon":5.40619,"is_reserved":false,"is_disabled":false,"rental_uris":{"android":"levelo://app?vid=0c4b7fdb-b39e-49b3-a2b0-ae3d0f43e89d","ios":"levelo://app?vid=0c4b7fdb-b39e-49b3-a2b0-ae3d0f43e89d"},"vehicle_type_id":"4","last_reported":1751656083,"current_range_meters":10800,"station_id":"","pricing_plan_id":"cebpf4jnsgd1na2vs0mg"},{"bike_id":"98349eb9-50f4-4507-88ec-89ca18ad700b","system_id":"levelo_inurba_marseille","lat":43.28419,"lon":5.34978,"is_reserved":false,"is_disabled":false,"rental_uris":{"android":"levelo://app?vid=98349eb9-50f4-4507-88ec-89ca18ad700b","ios":"levelo://app?vid=98349eb9-50f4-4507-88ec-89ca18ad700b"},"vehicle_type_id":"4","last_reported":1751656083,"current_range_meters":10800,"station_id":"ce4bhbh2rcd13ifvqepg","pricing_plan_id":"cebpf4jnsgd1na2vs0mg"},{"bike_id":"91971a8f-6a3b-44e2-a601-3b7adf65c7df","system_id":"levelo_inurba_marseille","lat":43.25506,"lon":5.37652,"is_reserved":false,"is_disabled":false,"rental_uris":{"android":"levelo://app?vid=91971a8f-6a3b-44e2-a601-3b7adf65c7df","ios":"levelo://app?vid=91971a8f-6a3b-44e2-a601-3b7adf65c7df"},"vehicle_type_id":"4","last_reported":1751656083,"current_range_meters":10800,"station_id":"ce4bhh12rcd13ifvqff0","pricing_plan_id":"cebpf4jnsgd1na2vs0mg"},{"bike_id":"175513bb-dce2-48e2-83c8-1e9f1cb23cd0","system_id":"levelo_inurba_marseille","lat":43.286255,"lon":5.412651,"is_reserved":false,"is_disabled":false,"rental_uris":{"android":"levelo://app?vid=175513bb-dce2-48e2-83c8-1e9f1cb23cd0","ios":"levelo://app?vid=175513bb-dce2-48e2-83c8-1e9f1cb23cd0"},"vehicle_type_id":"4","last_reported":1751656083,"current_range_meters":11200,"station_id":"","pricing_plan_id":"cebpf4jnsgd1na2vs0mg"},{"bike_id":"43d940a0-e7c2-4eae-863e-a066d673014d","system_id":"levelo_inurba_marseille","lat":43.29295,"lon":5.37455,"is_reserved":false,"is_disabled":false,"rental_uris":{"android":"levelo://app?vid=43d940a0-e7c2-4eae-863e-a066d673014d","ios":"levelo://app?vid=43d940a0-e7c2-4eae-863e-a066d673014d"},"vehicle_type_id":"4","last_reported":1751656083,"current_range_meters":11200,"station_id":"ce4bgi12rcd13ifvqb70","pricing_plan_id":"cebpf4jnsgd1na2vs0mg"},{"bike_id":"be171bb5-e5d2-4fe2-ba60-e070a8a69717","system_id":"levelo_inurba_marseille","lat":43.2841,"lon":5.34987,"is_reserved":false,"is_disabled":false,"rental_uris":{"android":"levelo://app?vid=be171bb5-e5d2-4fe2-ba60-e070a8a69717","ios":"levelo://app?vid=be171bb5-e5d2-4fe2-ba60-e070a8a69717"},"vehicle_type_id":"4","last_reported":1751656083,"current_range_meters":11200,"station_id":"ce4bhbh2rcd13ifvqepg","pricing_plan_id":"cebpf4jnsgd1na2vs0mg"},{"bike_id":"206db6d2-11cd-4da9-a770-d2b56013096b","system_id":"levelo_inurba_marseille","lat":43.31721,"lon":5.42398,"is_reserved":false,"is_disabled":false,"rental_uris":{"android":"levelo://app?vid=206db6d2-11cd-4da9-a770-d2b56013096b","ios":"levelo://app?vid=206db6d2-11cd-4da9-a770-d2b56013096b"},"vehicle_type_id":"4","last_reported":1751656083,"current_range_meters":11200,"station_id":"ce4bhp92rcd13ifvqhbg","pricing_plan_id":"cebpf4jnsgd1na2vs0mg"},{"bike_id":"7e56ead9-dd2c-49f8-ad46-690db8ff0643","system_id":"levelo_inurba_marseille","lat":43.23059,"lon":5.35485,"is_reserved":false,"is_disabled":false,"rental_uris":{"android":"levelo://app?vid=7e56ead9-dd2c-49f8-ad46-690db8ff0643","ios":"levelo://app?vid=7e56ead9-dd2c-49f8-ad46-690db8ff0643"},"vehicle_type_id":"4","last_reported":1751656083,"current_range_meters":11200,"station_id":"cpo3342slgdg3j2ifvpg","pricing_plan_id":"cebpf4jnsgd1na2vs0mg"},{"bike_id":"5e197122-e8ec-4f01-b370-6bbfc10c6950","system_id":"levelo_inurba_marseille","lat":43.21198,"lon":5.35052,"is_reserved":false,"is_disabled":false,"rental_uris":{"android":"levelo://app?vid=5e197122-e8ec-4f01-b370-6bbfc10c6950","ios":"levelo://app?vid=5e197122-e8ec-4f01-b370-6bbfc10c6950"},"vehicle_type_id":"4","last_reported":1751656083,"current_range_meters":11200,"station_id":"st_cvj6sg6p6f1abm77japg","pricing_plan_id":"cebpf4jnsgd1na2vs0mg"},{"bike_id":"243ed435-6dd8-4418-8108-4a803582120e","system_id":"levelo_inurba_marseille","lat":43.28402,"lon":5.34968,"is_reserved":false,"is_disabled":false,"rental_uris":{"android":"levelo://app?vid=243ed435-6dd8-4418-8108-4a803582120e","ios":"levelo://app?vid=243ed435-6dd8-4418-8108-4a803582120e"},"vehicle_type_id":"4","last_reported":1751656083,"current_range_meters":11600,"station_id":"ce4bhbh2rcd13ifvqepg","pricing_plan_id":"cebpf4jnsgd1na2vs0mg"},{"bike_id":"4eaf6bf3-4bdb-4743-b5ac-39f8d81f0330","system_id":"levelo_inurba_marseille","lat":43.27907,"lon":5.38002,"is_reserved":false,"is_disabled":false,"rental_uris":{"android":"levelo://app?vid=4eaf6bf3-4bdb-4743-b5ac-39f8d81f0330","ios":"levelo://app?vid=4eaf6bf3-4bdb-4743-b5ac-39f8d81f0330"},"vehicle_type_id":"4","last_reported":1751656083,"current_range_meters":11600,"station_id":"ce4bhf92rcd13ifvqf50","pricing_plan_id":"cebpf4jnsgd1na2vs0mg"},{"bike_id":"c6a7a20d-73cc-480a-ae14-522ac461af29","system_id":"levelo_inurba_marseille","lat":43.26211,"lon":5.37439,"is_reserved":false,"is_disabled":false,"rental_uris":{"android":"levelo://app?vid=c6a7a20d-73cc-480a-ae14-522ac461af29","ios":"levelo://app?vid=c6a7a20d-73cc-480a-ae14-522ac461af29"},"vehicle_type_id":"4","last_reported":1751656083,"current_range_meters":11600,"station_id":"ce4bhgp2rcd13ifvqfc0","pricing_plan_id":"cebpf4jnsgd1na2vs0mg"},{"bike_id":"1f81d10d-d2ff-4523-aefb-7f897158527a","system_id":"levelo_inurba_marseille","lat":43.29557,"lon":5.42291,"is_reserved":false,"is_disabled":false,"rental_uris":{"android":"levelo://app?vid=1f81d10d-d2ff-4523-aefb-7f897158527a","ios":"levelo://app?vid=1f81d10d-d2ff-4523-aefb-7f897158527a"},"vehicle_type_id":"4","last_reported":1751656083,"current_range_meters":11600,"station_id":"ce4bhph2rcd13ifvqhdg","pricing_plan_id":"cebpf4jnsgd1na2vs0mg"},{"bike_id":"43b8b648-960e-46ea-bfad-839bb09cb576","system_id":"levelo_inurba_marseille","lat":43.26214,"lon":5.37041,"is_reserved":false,"is_disabled":false,"rental_uris":{"android":"levelo://app?vid=43b8b648-960e-46ea-bfad-839bb09cb576","ios":"levelo://app?vid=43b8b648-960e-46ea-bfad-839bb09cb576"},"vehicle_type_id":"4","last_reported":1751656083,"current_range_meters":12000,"station_id":"","pricing_plan_id":"cebpf4jnsgd1na2vs0mg"},{"bike_id":"c1e701b6-a6f5-4537-bf42-0fb3af1d65c0","system_id":"levelo_inurba_marseille","lat":43.29684,"lon":5.37279,"is_reserved":false,"is_disabled":false,"rental_uris":{"android":"levelo://app?vid=c1e701b6-a6f5-4537-bf42-0fb3af1d65c0","ios":"levelo://app?vid=c1e701b6-a6f5-4537-bf42-0fb3af1d65c0"},"vehicle_type_id":"4","last_reported":1751656083,"current_range_meters":12000,"station_id":"ce4bgk12rcd13ifvqbj0","pricing_plan_id":"cebpf4jnsgd1na2vs0mg"},{"bike_id":"81c01867-a78c-44d4-a6fe-9960f72348b0","system_id":"levelo_inurba_marseille","lat":43.2904,"lon":5.359,"is_reserved":false,"is_disabled":false,"rental_uris":{"android":"levelo://app?vid=81c01867-a78c-44d4-a6fe-9960f72348b0","ios":"levelo://app?vid=81c01867-a78c-44d4-a6fe-9960f72348b0"},"vehicle_type_id":"4","last_reported":1751656083,"current_range_meters":12000,"station_id":"ce4bha92rcd13ifvqeg0","pricing_plan_id":"cebpf4jnsgd1na2vs0mg"},{"bike_id":"1a0b7371-ce7d-4808-8de2-8d1a17cc8ebb","system_id":"levelo_inurba_marseille","lat":43.26956,"lon":5.38633,"is_reserved":false,"is_disabled":false,"rental_uris":{"android":"levelo://app?vid=1a0b7371-ce7d-4808-8de2-8d1a17cc8ebb","ios":"levelo://app?vid=1a0b7371-ce7d-4808-8de2-8d1a17cc8ebb"},"vehicle_type_id":"4","last_reported":1751656083,"current_range_meters":12000,"station_id":"ce4bhh92rcd13ifvqfh0","pricing_plan_id":"cebpf4jnsgd1na2vs0mg"},{"bike_id":"92f08c49-3b19-48f0-b90f-c9426e942927","system_id":"levelo_inurba_marseille","lat":43.30929,"lon":5.4015,"is_reserved":false,"is_disabled":false,"rental_uris":{"android":"levelo://app?vid=92f08c49-3b19-48f0-b90f-c9426e942927","ios":"levelo://app?vid=92f08c49-3b19-48f0-b90f-c9426e942927"},"vehicle_type_id":"4","last_reported":1751656083,"current_range_meters":12400,"station_id":"ce4bgvp2rcd13ifvqct0","pricing_plan_id":"cebpf4jnsgd1na2vs0mg"},{"bike_id":"0a50ab1b-7be5-4491-8b4d-5c09617712dc","system_id":"levelo_inurba_marseille","lat":43.27377,"lon":5.3626,"is_reserved":false,"is_disabled":false,"rental_uris":{"android":"levelo://app?vid=0a50ab1b-7be5-4491-8b4d-5c09617712dc","ios":"levelo://app?vid=0a50ab1b-7be5-4491-8b4d-5c09617712dc"},"vehicle_type_id":"4","last_reported":1751656083,"current_range_meters":12400,"station_id":"ce4bhbh2rcd13ifvqeo0","pricing_plan_id":"cebpf4jnsgd1na2vs0mg"},{"bike_id":"22888734-05db-4b2c-9ebf-e2f83575acc2","system_id":"levelo_inurba_marseille","lat":43.284052,"lon":5.3499,"is_reserved":false,"is_disabled":false,"rental_uris":{"android":"levelo://app?vid=22888734-05db-4b2c-9ebf-e2f83575acc2","ios":"levelo://app?vid=22888734-05db-4b2c-9ebf-e2f83575acc2"},"vehicle_type_id":"4","last_reported":1751656083,"current_range_meters":12400,"station_id":"ce4bhbh2rcd13ifvqepg","pricing_plan_id":"cebpf4jnsgd1na2vs0mg"},{"bike_id":"4fba6857-67de-4aa5-83a0-b9971702dd01","system_id":"levelo_inurba_marseille","lat":43.21186,"lon":5.35067,"is_reserved":false,"is_disabled":false,"rental_uris":{"android":"levelo://app?vid=4fba6857-67de-4aa5-83a0-b9971702dd01","ios":"levelo://app?vid=4fba6857-67de-4aa5-83a0-b9971702dd01"},"vehicle_type_id":"4","last_reported":1751656083,"current_range_meters":12400,"station_id":"st_cvj6sg6p6f1abm77japg","pricing_plan_id":"cebpf4jnsgd1na2vs0mg"},{"bike_id":"1c8ab180-05fd-405f-9922-b2b2c2d5142f","system_id":"levelo_inurba_marseille","lat":43.33792,"lon":5.38114,"is_reserved":false,"is_disabled":false,"rental_uris":{"android":"levelo://app?vid=1c8ab180-05fd-405f-9922-b2b2c2d5142f","ios":"levelo://app?vid=1c8ab180-05fd-405f-9922-b2b2c2d5142f"},"vehicle_type_id":"4","last_reported":1751656083,"current_range_meters":12800,"station_id":"","pricing_plan_id":"cebpf4jnsgd1na2vs0mg"},{"bike_id":"fabc36e7-95b3-4316-a5bb-66cf4b2e55fc","system_id":"levelo_inurba_marseille","lat":43.29684,"lon":5.37287,"is_reserved":false,"is_disabled":false,"rental_uris":{"android":"levelo://app?vid=fabc36e7-95b3-4316-a5bb-66cf4b2e55fc","ios":"levelo://app?vid=fabc36e7-95b3-4316-a5bb-66cf4b2e55fc"},"vehicle_type_id":"4","last_reported":1751656083,"current_range_meters":12800,"station_id":"ce4bgk12rcd13ifvqbj0","pricing_plan_id":"cebpf4jnsgd1na2vs0mg"},{"bike_id":"fdbca52a-0d1e-48bb-bae1-18dce5ce8efc","system_id":"levelo_inurba_marseille","lat":43.28427,"lon":5.34966,"is_reserved":false,"is_disabled":false,"rental_uris":{"android":"levelo://app?vid=fdbca52a-0d1e-48bb-bae1-18dce5ce8efc","ios":"levelo://app?vid=fdbca52a-0d1e-48bb-bae1-18dce5ce8efc"},"vehicle_type_id":"4","last_reported":1751656083,"current_range_meters":12800,"station_id":"ce4bhbh2rcd13ifvqepg","pricing_plan_id":"cebpf4jnsgd1na2vs0mg"},{"bike_id":"bf3d6f1f-bd58-495e-9496-07ed886eb058","system_id":"levelo_inurba_marseille","lat":43.2841,"lon":5.34982,"is_reserved":false,"is_disabled":false,"rental_uris":{"android":"levelo://app?vid=bf3d6f1f-bd58-495e-9496-07ed886eb058","ios":"levelo://app?vid=bf3d6f1f-bd58-495e-9496-07ed886eb058"},"vehicle_type_id":"4","last_reported":1751656083,"current_range_meters":12800,"station_id":"ce4bhbh2rcd13ifvqepg","pricing_plan_id":"cebpf4jnsgd1na2vs0mg"},{"bike_id":"b26fae72-751e-4090-a9c4-76ff5de1ad66","system_id":"levelo_inurba_marseille","lat":43.3326,"lon":5.38037,"is_reserved":false,"is_disabled":false,"rental_uris":{"android":"levelo://app?vid=b26fae72-751e-4090-a9c4-76ff5de1ad66","ios":"levelo://app?vid=b26fae72-751e-4090-a9c4-76ff5de1ad66"},"vehicle_type_id":"4","last_reported":1751656083,"current_range_meters":13600,"station_id":"","pricing_plan_id":"cebpf4jnsgd1na2vs0mg"},{"bike_id":"f8a53584-0074-4e30-85ea-83adb322e929","system_id":"levelo_inurba_marseille","lat":43.305427,"lon":5.384432,"is_reserved":false,"is_disabled":false,"rental_uris":{"android":"levelo://app?vid=f8a53584-0074-4e30-85ea-83adb322e929","ios":"levelo://app?vid=f8a53584-0074-4e30-85ea-83adb322e929"},"vehicle_type_id":"4","last_reported":1751656083,"current_range_meters":13600,"station_id":"ce4bgg92rcd13ifvqb30","pricing_plan_id":"cebpf4jnsgd1na2vs0mg"},{"bike_id":"3924b8ff-b582-4916-8def-157fa9841bf6","system_id":"levelo_inurba_marseille","lat":43.30879,"lon":5.39647,"is_reserved":false,"is_disabled":false,"rental_uris":{"android":"levelo://app?vid=3924b8ff-b582-4916-8def-157fa9841bf6","ios":"levelo://app?vid=3924b8ff-b582-4916-8def-157fa9841bf6"},"vehicle_type_id":"4","last_reported":1751656083,"current_range_meters":13600,"station_id":"ce4bh012rcd13ifvqcv0","pricing_plan_id":"cebpf4jnsgd1na2vs0mg"},{"bike_id":"2b8753c4-6aed-42a9-9a63-cc48544af559","system_id":"levelo_inurba_marseille","lat":43.28929,"lon":5.36642,"is_reserved":false,"is_disabled":false,"rental_uris":{"android":"levelo://app?vid=2b8753c4-6aed-42a9-9a63-cc48544af559","ios":"levelo://app?vid=2b8753c4-6aed-42a9-9a63-cc48544af559"},"vehicle_type_id":"4","last_reported":1751656083,"current_range_meters":13600,"station_id":"ce4bhap2rcd13ifvqek0","pricing_plan_id":"cebpf4jnsgd1na2vs0mg"},{"bike_id":"0ced684f-4467-4ff6-8bbe-ec4c3c687f44","system_id":"levelo_inurba_marseille","lat":43.28415,"lon":5.34968,"is_reserved":false,"is_disabled":false,"rental_uris":{"android":"levelo://app?vid=0ced684f-4467-4ff6-8bbe-ec4c3c687f44","ios":"levelo://app?vid=0ced684f-4467-4ff6-8bbe-ec4c3c687f44"},"vehicle_type_id":"4","last_reported":1751656083,"current_range_meters":13600,"station_id":"ce4bhbh2rcd13ifvqepg","pricing_plan_id":"cebpf4jnsgd1na2vs0mg"},{"bike_id":"bf16840f-2e0f-47eb-8d30-3dc4199df254","system_id":"levelo_inurba_marseille","lat":43.317646,"lon":5.389974,"is_reserved":false,"is_disabled":false,"rental_uris":{"android":"levelo://app?vid=bf16840f-2e0f-47eb-8d30-3dc4199df254","ios":"levelo://app?vid=bf16840f-2e0f-47eb-8d30-3dc4199df254"},"vehicle_type_id":"4","last_reported":1751656083,"current_range_meters":13600,"station_id":"ce4bhqp2rcd13ifvqhng","pricing_plan_id":"cebpf4jnsgd1na2vs0mg"},{"bike_id":"0b395354-7630-45f5-932d-b850b92f47af","system_id":"levelo_inurba_marseille","lat":43.28928,"lon":5.36631,"is_reserved":false,"is_disabled":false,"rental_uris":{"android":"levelo://app?vid=0b395354-7630-45f5-932d-b850b92f47af","ios":"levelo://app?vid=0b395354-7630-45f5-932d-b850b92f47af"},"vehicle_type_id":"4","last_reported":1751656083,"current_range_meters":14000,"station_id":"ce4bhap2rcd13ifvqek0","pricing_plan_id":"cebpf4jnsgd1na2vs0mg"},{"bike_id":"e8b199ed-744c-47f9-ad68-7c59de5be47d","system_id":"levelo_inurba_marseille","lat":43.28616,"lon":5.35097,"is_reserved":false,"is_disabled":false,"rental_uris":{"android":"levelo://app?vid=e8b199ed-744c-47f9-ad68-7c59de5be47d","ios":"levelo://app?vid=e8b199ed-744c-47f9-ad68-7c59de5be47d"},"vehicle_type_id":"4","last_reported":1751656083,"current_range_meters":14000,"station_id":"ce4bhch2rcd13ifvqeug","pricing_plan_id":"cebpf4jnsgd1na2vs0mg"},{"bike_id":"da2867e3-37fc-4f25-99eb-68533f87a37d","system_id":"levelo_inurba_marseille","lat":43.262,"lon":5.3745,"is_reserved":false,"is_disabled":false,"rental_uris":{"android":"levelo://app?vid=da2867e3-37fc-4f25-99eb-68533f87a37d","ios":"levelo://app?vid=da2867e3-37fc-4f25-99eb-68533f87a37d"},"vehicle_type_id":"4","last_reported":1751656083,"current_range_meters":14000,"station_id":"ce4bhgp2rcd13ifvqfc0","pricing_plan_id":"cebpf4jnsgd1na2vs0mg"},{"bike_id":"f62ca18a-bcd1-4bc9-bd56-fe0d779eff1d","system_id":"levelo_inurba_marseille","lat":43.26215,"lon":5.37442,"is_reserved":false,"is_disabled":false,"rental_uris":{"android":"levelo://app?vid=f62ca18a-bcd1-4bc9-bd56-fe0d779eff1d","ios":"levelo://app?vid=f62ca18a-bcd1-4bc9-bd56-fe0d779eff1d"},"vehicle_type_id":"4","last_reported":1751656083,"current_range_meters":14000,"station_id":"ce4bhgp2rcd13ifvqfc0","pricing_plan_id":"cebpf4jnsgd1na2vs0mg"},{"bike_id":"ce57626f-6803-4dfd-978e-9e5468f45ce7","system_id":"levelo_inurba_marseille","lat":43.29569,"lon":5.37515,"is_reserved":false,"is_disabled":false,"rental_uris":{"android":"levelo://app?vid=ce57626f-6803-4dfd-978e-9e5468f45ce7","ios":"levelo://app?vid=ce57626f-6803-4dfd-978e-9e5468f45ce7"},"vehicle_type_id":"4","last_reported":1751656083,"current_range_meters":14400,"station_id":"ce4bgh92rcd13ifvqb50","pricing_plan_id":"cebpf4jnsgd1na2vs0mg"},{"bike_id":"bbf42ae6-0ecf-47b4-830f-ad2e8162e3a1","system_id":"levelo_inurba_marseille","lat":43.31173,"lon":5.38706,"is_reserved":false,"is_disabled":false,"rental_uris":{"android":"levelo://app?vid=bbf42ae6-0ecf-47b4-830f-ad2e8162e3a1","ios":"levelo://app?vid=bbf42ae6-0ecf-47b4-830f-ad2e8162e3a1"},"vehicle_type_id":"4","last_reported":1751656083,"current_range_meters":14400,"station_id":"ce4bgv12rcd13ifvqcp0","pricing_plan_id":"cebpf4jnsgd1na2vs0mg"},{"bike_id":"282f46f6-58bd-4bef-8b1a-429186abaf07","system_id":"levelo_inurba_marseille","lat":43.2862,"lon":5.35095,"is_reserved":false,"is_disabled":false,"rental_uris":{"android":"levelo://app?vid=282f46f6-58bd-4bef-8b1a-429186abaf07","ios":"levelo://app?vid=282f46f6-58bd-4bef-8b1a-429186abaf07"},"vehicle_type_id":"4","last_reported":1751656083,"current_range_meters":14400,"station_id":"ce4bhch2rcd13ifvqeug","pricing_plan_id":"cebpf4jnsgd1na2vs0mg"},{"bike_id":"b13f9578-9d5b-45ba-8519-80d6865a2640","system_id":"levelo_inurba_marseille","lat":43.24806,"lon":5.37455,"is_reserved":false,"is_disabled":false,"rental_uris":{"android":"levelo://app?vid=b13f9578-9d5b-45ba-8519-80d6865a2640","ios":"levelo://app?vid=b13f9578-9d5b-45ba-8519-80d6865a2640"},"vehicle_type_id":"4","last_reported":1751656083,"current_range_meters":14400,"station_id":"ce4bhgh2rcd13ifvqfb0","pricing_plan_id":"cebpf4jnsgd1na2vs0mg"},{"bike_id":"7d713857-8ae4-476f-b452-86fcb680e178","system_id":"levelo_inurba_marseille","lat":43.30792,"lon":5.38141,"is_reserved":false,"is_disabled":false,"rental_uris":{"android":"levelo://app?vid=7d713857-8ae4-476f-b452-86fcb680e178","ios":"levelo://app?vid=7d713857-8ae4-476f-b452-86fcb680e178"},"vehicle_type_id":"4","last_reported":1751656083,"current_range_meters":14800,"station_id":"ce4bgt12rcd13ifvqce0","pricing_plan_id":"cebpf4jnsgd1na2vs0mg"},{"bike_id":"9fefc881-cb44-4f8a-be0a-2f1b51b3fa55","system_id":"levelo_inurba_marseille","lat":43.2842,"lon":5.34985,"is_reserved":false,"is_disabled":false,"rental_uris":{"android":"levelo://app?vid=9fefc881-cb44-4f8a-be0a-2f1b51b3fa55","ios":"levelo://app?vid=9fefc881-cb44-4f8a-be0a-2f1b51b3fa55"},"vehicle_type_id":"4","last_reported":1751656083,"current_range_meters":14800,"station_id":"ce4bhbh2rcd13ifvqepg","pricing_plan_id":"cebpf4jnsgd1na2vs0mg"},{"bike_id":"fd9e11cf-6806-41ff-bce2-0dd66386883d","system_id":"levelo_inurba_marseille","lat":43.28424,"lon":5.34975,"is_reserved":false,"is_disabled":false,"rental_uris":{"android":"levelo://app?vid=fd9e11cf-6806-41ff-bce2-0dd66386883d","ios":"levelo://app?vid=fd9e11cf-6806-41ff-bce2-0dd66386883d"},"vehicle_type_id":"4","last_reported":1751656083,"current_range_meters":14800,"station_id":"ce4bhbh2rcd13ifvqepg","pricing_plan_id":"cebpf4jnsgd1na2vs0mg"},{"bike_id":"4b8da722-ee9e-48a4-a5e5-3a8a10364708","system_id":"levelo_inurba_marseille","lat":43.312322,"lon":5.378154,"is_reserved":false,"is_disabled":false,"rental_uris":{"android":"levelo://app?vid=4b8da722-ee9e-48a4-a5e5-3a8a10364708","ios":"levelo://app?vid=4b8da722-ee9e-48a4-a5e5-3a8a10364708"},"vehicle_type_id":"4","last_reported":1751656083,"current_range_meters":15200,"station_id":"","pricing_plan_id":"cebpf4jnsgd1na2vs0mg"},{"bike_id":"35399659-46a4-458d-8f4e-378884824094","system_id":"levelo_inurba_marseille","lat":43.29791,"lon":5.38103,"is_reserved":false,"is_disabled":false,"rental_uris":{"android":"levelo://app?vid=35399659-46a4-458d-8f4e-378884824094","ios":"levelo://app?vid=35399659-46a4-458d-8f4e-378884824094"},"vehicle_type_id":"4","last_reported":1751656083,"current_range_meters":15200,"station_id":"ce4bgip2rcd13ifvqbb0","pricing_plan_id":"cebpf4jnsgd1na2vs0mg"},{"bike_id":"3f22c2fa-3fb4-433f-bc98-0f83d287a49c","system_id":"levelo_inurba_marseille","lat":43.30945,"lon":5.39016,"is_reserved":false,"is_disabled":false,"rental_uris":{"android":"levelo://app?vid=3f22c2fa-3fb4-433f-bc98-0f83d287a49c","ios":"levelo://app?vid=3f22c2fa-3fb4-433f-bc98-0f83d287a49c"},"vehicle_type_id":"4","last_reported":1751656083,"current_range_meters":15200,"station_id":"ce4bgup2rcd13ifvqco0","pricing_plan_id":"cebpf4jnsgd1na2vs0mg"},{"bike_id":"38ecca3f-18eb-4a45-b9d5-c26afbfc2aa1","system_id":"levelo_inurba_marseille","lat":43.27373,"lon":5.36253,"is_reserved":false,"is_disabled":false,"rental_uris":{"android":"levelo://app?vid=38ecca3f-18eb-4a45-b9d5-c26afbfc2aa1","ios":"levelo://app?vid=38ecca3f-18eb-4a45-b9d5-c26afbfc2aa1"},"vehicle_type_id":"4","last_reported":1751656083,"current_range_meters":15200,"station_id":"ce4bhbh2rcd13ifvqeo0","pricing_plan_id":"cebpf4jnsgd1na2vs0mg"},{"bike_id":"cc691ccb-edf3-4792-a217-f69116462577","system_id":"levelo_inurba_marseille","lat":43.26026,"lon":5.37539,"is_reserved":false,"is_disabled":false,"rental_uris":{"android":"levelo://app?vid=cc691ccb-edf3-4792-a217-f69116462577","ios":"levelo://app?vid=cc691ccb-edf3-4792-a217-f69116462577"},"vehicle_type_id":"4","last_reported":1751656083,"current_range_meters":15200,"station_id":"ce4bhgh2rcd13ifvqfa0","pricing_plan_id":"cebpf4jnsgd1na2vs0mg"},{"bike_id":"8406f1fe-a176-4758-849f-004c0a32188e","system_id":"levelo_inurba_marseille","lat":43.27808,"lon":5.40714,"is_reserved":false,"is_disabled":false,"rental_uris":{"android":"levelo://app?vid=8406f1fe-a176-4758-849f-004c0a32188e","ios":"levelo://app?vid=8406f1fe-a176-4758-849f-004c0a32188e"},"vehicle_type_id":"4","last_reported":1751656083,"current_range_meters":15200,"station_id":"ce4bhnh2rcd13ifvqgtg","pricing_plan_id":"cebpf4jnsgd1na2vs0mg"},{"bike_id":"9674f3c4-8903-4ff5-8126-a25b2ca8ba8d","system_id":"levelo_inurba_marseille","lat":43.28152,"lon":5.42641,"is_reserved":false,"is_disabled":false,"rental_uris":{"android":"levelo://app?vid=9674f3c4-8903-4ff5-8126-a25b2ca8ba8d","ios":"levelo://app?vid=9674f3c4-8903-4ff5-8126-a25b2ca8ba8d"},"vehicle_type_id":"4","last_reported":1751656083,"current_range_meters":15200,"station_id":"ce4bhnh2rcd13ifvqgug","pricing_plan_id":"cebpf4jnsgd1na2vs0mg"},{"bike_id":"36cee6b4-b2f9-4684-aef9-543ae329a9ec","system_id":"levelo_inurba_marseille","lat":43.275342,"lon":5.36004,"is_reserved":false,"is_disabled":false,"rental_uris":{"android":"levelo://app?vid=36cee6b4-b2f9-4684-aef9-543ae329a9ec","ios":"levelo://app?vid=36cee6b4-b2f9-4684-aef9-543ae329a9ec"},"vehicle_type_id":"4","last_reported":1751656083,"current_range_meters":16000,"station_id":"ce4bgj92rcd13ifvqbe0","pricing_plan_id":"cebpf4jnsgd1na2vs0mg"},{"bike_id":"8c7b5457-b790-4ceb-8535-d321af702702","system_id":"levelo_inurba_marseille","lat":43.31275,"lon":5.40164,"is_reserved":false,"is_disabled":false,"rental_uris":{"android":"levelo://app?vid=8c7b5457-b790-4ceb-8535-d321af702702","ios":"levelo://app?vid=8c7b5457-b790-4ceb-8535-d321af702702"},"vehicle_type_id":"4","last_reported":1751656083,"current_range_meters":16000,"station_id":"ce4bh092rcd13ifvqd30","pricing_plan_id":"cebpf4jnsgd1na2vs0mg"},{"bike_id":"3f650a82-1923-431f-a3fb-3ece21cf98bd","system_id":"levelo_inurba_marseille","lat":43.29886,"lon":5.38887,"is_reserved":false,"is_disabled":false,"rental_uris":{"android":"levelo://app?vid=3f650a82-1923-431f-a3fb-3ece21cf98bd","ios":"levelo://app?vid=3f650a82-1923-431f-a3fb-3ece21cf98bd"},"vehicle_type_id":"4","last_reported":1751656083,"current_range_meters":16000,"station_id":"ce4bh392rcd13ifvqdl0","pricing_plan_id":"cebpf4jnsgd1na2vs0mg"},{"bike_id":"3ccba8d6-82da-4180-b5cd-b6e64d0a00c9","system_id":"levelo_inurba_marseille","lat":43.28416,"lon":5.34987,"is_reserved":false,"is_disabled":false,"rental_uris":{"android":"levelo://app?vid=3ccba8d6-82da-4180-b5cd-b6e64d0a00c9","ios":"levelo://app?vid=3ccba8d6-82da-4180-b5cd-b6e64d0a00c9"},"vehicle_type_id":"4","last_reported":1751656083,"current_range_meters":16000,"station_id":"ce4bhbh2rcd13ifvqepg","pricing_plan_id":"cebpf4jnsgd1na2vs0mg"},{"bike_id":"5326c31a-e762-4674-9bae-7686ae5e9d9a","system_id":"levelo_inurba_marseille","lat":43.2396,"lon":5.36628,"is_reserved":false,"is_disabled":false,"rental_uris":{"android":"levelo://app?vid=5326c31a-e762-4674-9bae-7686ae5e9d9a","ios":"levelo://app?vid=5326c31a-e762-4674-9bae-7686ae5e9d9a"},"vehicle_type_id":"4","last_reported":1751656083,"current_range_meters":16000,"station_id":"ce4bhi12rcd13ifvqfp0","pricing_plan_id":"cebpf4jnsgd1na2vs0mg"},{"bike_id":"9ebf49df-d81d-4e59-adaf-0b54574f21f5","system_id":"levelo_inurba_marseille","lat":43.26204,"lon":5.37926,"is_reserved":false,"is_disabled":false,"rental_uris":{"android":"levelo://app?vid=9ebf49df-d81d-4e59-adaf-0b54574f21f5","ios":"levelo://app?vid=9ebf49df-d81d-4e59-adaf-0b54574f21f5"},"vehicle_type_id":"4","last_reported":1751656083,"current_range_meters":16000,"station_id":"ce4bhjp2rcd13ifvqg90","pricing_plan_id":"cebpf4jnsgd1na2vs0mg"},{"bike_id":"b2b3e6d3-0dda-4a31-a83a-99e95487b3e6","system_id":"levelo_inurba_marseille","lat":43.26789,"lon":5.41076,"is_reserved":false,"is_disabled":false,"rental_uris":{"android":"levelo://app?vid=b2b3e6d3-0dda-4a31-a83a-99e95487b3e6","ios":"levelo://app?vid=b2b3e6d3-0dda-4a31-a83a-99e95487b3e6"},"vehicle_type_id":"4","last_reported":1751656083,"current_range_meters":16000,"station_id":"ce4bhmh2rcd13ifvqgmg","pricing_plan_id":"cebpf4jnsgd1na2vs0mg"},{"bike_id":"c8c6862d-b574-4e5d-b151-9c659790f63b","system_id":"levelo_inurba_marseille","lat":43.22509,"lon":5.34785,"is_reserved":false,"is_disabled":false,"rental_uris":{"android":"levelo://app?vid=c8c6862d-b574-4e5d-b151-9c659790f63b","ios":"levelo://app?vid=c8c6862d-b574-4e5d-b151-9c659790f63b"},"vehicle_type_id":"4","last_reported":1751656083,"current_range_meters":16000,"station_id":"st_cvj5dfep6f1abm77gieg","pricing_plan_id":"cebpf4jnsgd1na2vs0mg"},{"bike_id":"3847022a-5187-4521-af78-80f88fe96595","system_id":"levelo_inurba_marseille","lat":43.21188,"lon":5.35076,"is_reserved":false,"is_disabled":false,"rental_uris":{"android":"levelo://app?vid=3847022a-5187-4521-af78-80f88fe96595","ios":"levelo://app?vid=3847022a-5187-4521-af78-80f88fe96595"},"vehicle_type_id":"4","last_reported":1751656083,"current_range_meters":16000,"station_id":"st_cvj6sg6p6f1abm77japg","pricing_plan_id":"cebpf4jnsgd1na2vs0mg"},{"bike_id":"4db45513-e520-4598-82fa-5809d80d4f3d","system_id":"levelo_inurba_marseille","lat":43.28099,"lon":5.35482,"is_reserved":false,"is_disabled":false,"rental_uris":{"android":"levelo://app?vid=4db45513-e520-4598-82fa-5809d80d4f3d","ios":"levelo://app?vid=4db45513-e520-4598-82fa-5809d80d4f3d"},"vehicle_type_id":"4","last_reported":1751656083,"current_range_meters":16400,"station_id":"","pricing_plan_id":"cebpf4jnsgd1na2vs0mg"},{"bike_id":"a463a034-02f2-4909-a374-3aba3128d555","system_id":"levelo_inurba_marseille","lat":43.25662,"lon":5.37642,"is_reserved":false,"is_disabled":false,"rental_uris":{"android":"levelo://app?vid=a463a034-02f2-4909-a374-3aba3128d555","ios":"levelo://app?vid=a463a034-02f2-4909-a374-3aba3128d555"},"vehicle_type_id":"4","last_reported":1751656083,"current_range_meters":16400,"station_id":"","pricing_plan_id":"cebpf4jnsgd1na2vs0mg"},{"bike_id":"5b89a211-7f0d-4ee7-951c-ef4e1cd2a6c8","system_id":"levelo_inurba_marseille","lat":43.301331,"lon":5.387887,"is_reserved":false,"is_disabled":false,"rental_uris":{"android":"levelo://app?vid=5b89a211-7f0d-4ee7-951c-ef4e1cd2a6c8","ios":"levelo://app?vid=5b89a211-7f0d-4ee7-951c-ef4e1cd2a6c8"},"vehicle_type_id":"4","last_reported":1751656083,"current_range_meters":16400,"station_id":"ce4bghh2rcd13ifvqb60","pricing_plan_id":"cebpf4jnsgd1na2vs0mg"},{"bike_id":"81cc92d8-3ff9-417c-aa7b-ae41fd6dba0b","system_id":"levelo_inurba_marseille","lat":43.31355,"lon":5.38489,"is_reserved":false,"is_disabled":false,"rental_uris":{"android":"levelo://app?vid=81cc92d8-3ff9-417c-aa7b-ae41fd6dba0b","ios":"levelo://app?vid=81cc92d8-3ff9-417c-aa7b-ae41fd6dba0b"},"vehicle_type_id":"4","last_reported":1751656083,"current_range_meters":16400,"station_id":"ce4bgt92rcd13ifvqcf0","pricing_plan_id":"cebpf4jnsgd1na2vs0mg"},{"bike_id":"ea4f7f7c-96be-4f64-9624-e82240e9dd28","system_id":"levelo_inurba_marseille","lat":43.30943,"lon":5.39029,"is_reserved":false,"is_disabled":false,"rental_uris":{"android":"levelo://app?vid=ea4f7f7c-96be-4f64-9624-e82240e9dd28","ios":"levelo://app?vid=ea4f7f7c-96be-4f64-9624-e82240e9dd28"},"vehicle_type_id":"4","last_reported":1751656083,"current_range_meters":16400,"station_id":"ce4bgup2rcd13ifvqco0","pricing_plan_id":"cebpf4jnsgd1na2vs0mg"},{"bike_id":"c5401d1a-3211-425d-8900-7e256f6118b6","system_id":"levelo_inurba_marseille","lat":43.28623,"lon":5.35092,"is_reserved":false,"is_disabled":false,"rental_uris":{"android":"levelo://app?vid=c5401d1a-3211-425d-8900-7e256f6118b6","ios":"levelo://app?vid=c5401d1a-3211-425d-8900-7e256f6118b6"},"vehicle_type_id":"4","last_reported":1751656083,"current_range_meters":16400,"station_id":"ce4bhch2rcd13ifvqeug","pricing_plan_id":"cebpf4jnsgd1na2vs0mg"},{"bike_id":"f1753d26-8935-4f4b-9e83-1a8f6f412606","system_id":"levelo_inurba_marseille","lat":43.24661,"lon":5.38135,"is_reserved":false,"is_disabled":false,"rental_uris":{"android":"levelo://app?vid=f1753d26-8935-4f4b-9e83-1a8f6f412606","ios":"levelo://app?vid=f1753d26-8935-4f4b-9e83-1a8f6f412606"},"vehicle_type_id":"4","last_reported":1751656083,"current_range_meters":16400,"station_id":"ce4bhih2rcd13ifvqfr0","pricing_plan_id":"cebpf4jnsgd1na2vs0mg"},{"bike_id":"1e6a7dc6-636f-4e6d-b27f-ff1fb66d2dd7","system_id":"levelo_inurba_marseille","lat":43.32363,"lon":5.38877,"is_reserved":false,"is_disabled":false,"rental_uris":{"android":"levelo://app?vid=1e6a7dc6-636f-4e6d-b27f-ff1fb66d2dd7","ios":"levelo://app?vid=1e6a7dc6-636f-4e6d-b27f-ff1fb66d2dd7"},"vehicle_type_id":"4","last_reported":1751656083,"current_range_meters":16400,"station_id":"ce4bhqp2rcd13ifvqhog","pricing_plan_id":"cebpf4jnsgd1na2vs0mg"},{"bike_id":"daf39eb3-597e-4aeb-88b4-1c3edda3a216","system_id":"levelo_inurba_marseille","lat":43.28411,"lon":5.37503,"is_reserved":false,"is_disabled":false,"rental_uris":{"android":"levelo://app?vid=daf39eb3-597e-4aeb-88b4-1c3edda3a216","ios":"levelo://app?vid=daf39eb3-597e-4aeb-88b4-1c3edda3a216"},"vehicle_type_id":"4","last_reported":1751656083,"current_range_meters":16800,"station_id":"ce4bh412rcd13ifvqds0","pricing_plan_id":"cebpf4jnsgd1na2vs0mg"},{"bike_id":"b4f7edba-ce98-4287-8284-f233aad5d9d1","system_id":"levelo_inurba_marseille","lat":43.28355,"lon":5.38629,"is_reserved":false,"is_disabled":false,"rental_uris":{"android":"levelo://app?vid=b4f7edba-ce98-4287-8284-f233aad5d9d1","ios":"levelo://app?vid=b4f7edba-ce98-4287-8284-f233aad5d9d1"},"vehicle_type_id":"4","last_reported":1751656083,"current_range_meters":16800,"station_id":"ce4bh492rcd13ifvqdvg","pricing_plan_id":"cebpf4jnsgd1na2vs0mg"},{"bike_id":"552bcf28-72f1-4f10-b8f6-f0512fe0cc4b","system_id":"levelo_inurba_marseille","lat":43.27376,"lon":5.36251,"is_reserved":false,"is_disabled":false,"rental_uris":{"android":"levelo://app?vid=552bcf28-72f1-4f10-b8f6-f0512fe0cc4b","ios":"levelo://app?vid=552bcf28-72f1-4f10-b8f6-f0512fe0cc4b"},"vehicle_type_id":"4","last_reported":1751656083,"current_range_meters":16800,"station_id":"ce4bhbh2rcd13ifvqeo0","pricing_plan_id":"cebpf4jnsgd1na2vs0mg"},{"bike_id":"a70e5335-fb5d-4e50-af2f-e7fb4ef6c838","system_id":"levelo_inurba_marseille","lat":43.28399,"lon":5.34976,"is_reserved":false,"is_disabled":false,"rental_uris":{"android":"levelo://app?vid=a70e5335-fb5d-4e50-af2f-e7fb4ef6c838","ios":"levelo://app?vid=a70e5335-fb5d-4e50-af2f-e7fb4ef6c838"},"vehicle_type_id":"4","last_reported":1751656083,"current_range_meters":16800,"station_id":"ce4bhbh2rcd13ifvqepg","pricing_plan_id":"cebpf4jnsgd1na2vs0mg"},{"bike_id":"eceb5fb2-cdc8-4aee-8087-441329723f4b","system_id":"levelo_inurba_marseille","lat":43.31763,"lon":5.3901,"is_reserved":false,"is_disabled":false,"rental_uris":{"android":"levelo://app?vid=eceb5fb2-cdc8-4aee-8087-441329723f4b","ios":"levelo://app?vid=eceb5fb2-cdc8-4aee-8087-441329723f4b"},"vehicle_type_id":"4","last_reported":1751656083,"current_range_meters":16800,"station_id":"ce4bhqp2rcd13ifvqhng","pricing_plan_id":"cebpf4jnsgd1na2vs0mg"},{"bike_id":"29b19e99-4845-4ee3-b1ee-35721cd36dc7","system_id":"levelo_inurba_marseille","lat":43.23198,"lon":5.35523,"is_reserved":false,"is_disabled":false,"rental_uris":{"android":"levelo://app?vid=29b19e99-4845-4ee3-b1ee-35721cd36dc7","ios":"levelo://app?vid=29b19e99-4845-4ee3-b1ee-35721cd36dc7"},"vehicle_type_id":"4","last_reported":1751656083,"current_range_meters":16800,"station_id":"ce4bhu92rcd13ifvqi70","pricing_plan_id":"cebpf4jnsgd1na2vs0mg"},{"bike_id":"5f470112-8139-4343-b082-08a74e0b7074","system_id":"levelo_inurba_marseille","lat":43.21178,"lon":5.35064,"is_reserved":false,"is_disabled":false,"rental_uris":{"android":"levelo://app?vid=5f470112-8139-4343-b082-08a74e0b7074","ios":"levelo://app?vid=5f470112-8139-4343-b082-08a74e0b7074"},"vehicle_type_id":"4","last_reported":1751656083,"current_range_meters":16800,"station_id":"st_cvj6sg6p6f1abm77japg","pricing_plan_id":"cebpf4jnsgd1na2vs0mg"},{"bike_id":"b1d40197-e49c-4962-8cd8-0babe05d31a6","system_id":"levelo_inurba_marseille","lat":43.2127,"lon":5.35241,"is_reserved":false,"is_disabled":false,"rental_uris":{"android":"levelo://app?vid=b1d40197-e49c-4962-8cd8-0babe05d31a6","ios":"levelo://app?vid=b1d40197-e49c-4962-8cd8-0babe05d31a6"},"vehicle_type_id":"4","last_reported":1751656083,"current_range_meters":17200,"station_id":"","pricing_plan_id":"cebpf4jnsgd1na2vs0mg"},{"bike_id":"c079e397-3750-4856-ad55-44bf6cfaf2df","system_id":"levelo_inurba_marseille","lat":43.28416,"lon":5.34977,"is_reserved":false,"is_disabled":false,"rental_uris":{"android":"levelo://app?vid=c079e397-3750-4856-ad55-44bf6cfaf2df","ios":"levelo://app?vid=c079e397-3750-4856-ad55-44bf6cfaf2df"},"vehicle_type_id":"4","last_reported":1751656083,"current_range_meters":17200,"station_id":"ce4bhbh2rcd13ifvqepg","pricing_plan_id":"cebpf4jnsgd1na2vs0mg"},{"bike_id":"e3a258ec-016e-4c25-9052-fedede4b288d","system_id":"levelo_inurba_marseille","lat":43.26782,"lon":5.39407,"is_reserved":false,"is_disabled":false,"rental_uris":{"android":"levelo://app?vid=e3a258ec-016e-4c25-9052-fedede4b288d","ios":"levelo://app?vid=e3a258ec-016e-4c25-9052-fedede4b288d"},"vehicle_type_id":"4","last_reported":1751656083,"current_range_meters":17200,"station_id":"ce4bhh12rcd13ifvqfg0","pricing_plan_id":"cebpf4jnsgd1na2vs0mg"},{"bike_id":"114b6d2d-ddad-4a9e-a225-0a8892da99b6","system_id":"levelo_inurba_marseille","lat":43.23968,"lon":5.36634,"is_reserved":false,"is_disabled":false,"rental_uris":{"android":"levelo://app?vid=114b6d2d-ddad-4a9e-a225-0a8892da99b6","ios":"levelo://app?vid=114b6d2d-ddad-4a9e-a225-0a8892da99b6"},"vehicle_type_id":"4","last_reported":1751656083,"current_range_meters":17200,"station_id":"ce4bhi12rcd13ifvqfp0","pricing_plan_id":"cebpf4jnsgd1na2vs0mg"},{"bike_id":"29ade5b3-0c24-42d4-87d5-b56ee0267083","system_id":"levelo_inurba_marseille","lat":43.305847,"lon":5.393543,"is_reserved":false,"is_disabled":false,"rental_uris":{"android":"levelo://app?vid=29ade5b3-0c24-42d4-87d5-b56ee0267083","ios":"levelo://app?vid=29ade5b3-0c24-42d4-87d5-b56ee0267083"},"vehicle_type_id":"4","last_reported":1751656083,"current_range_meters":17600,"station_id":"","pricing_plan_id":"cebpf4jnsgd1na2vs0mg"},{"bike_id":"25d65b54-2483-49ad-9e8c-b4102ded682f","system_id":"levelo_inurba_marseille","lat":43.21215,"lon":5.35045,"is_reserved":false,"is_disabled":false,"rental_uris":{"android":"levelo://app?vid=25d65b54-2483-49ad-9e8c-b4102ded682f","ios":"levelo://app?vid=25d65b54-2483-49ad-9e8c-b4102ded682f"},"vehicle_type_id":"4","last_reported":1751656083,"current_range_meters":17600,"station_id":"","pricing_plan_id":"cebpf4jnsgd1na2vs0mg"},{"bike_id":"3c1f56c8-4e3b-48bc-a009-7f70fcdbcdd5","system_id":"levelo_inurba_marseille","lat":43.30595,"lon":5.39347,"is_reserved":false,"is_disabled":false,"rental_uris":{"android":"levelo://app?vid=3c1f56c8-4e3b-48bc-a009-7f70fcdbcdd5","ios":"levelo://app?vid=3c1f56c8-4e3b-48bc-a009-7f70fcdbcdd5"},"vehicle_type_id":"4","last_reported":1751656083,"current_range_meters":17600,"station_id":"ce4bh0p2rcd13ifvqd80","pricing_plan_id":"cebpf4jnsgd1na2vs0mg"},{"bike_id":"4461704d-08f5-48f1-a995-a104d26baf59","system_id":"levelo_inurba_marseille","lat":43.30647,"lon":5.40095,"is_reserved":false,"is_disabled":false,"rental_uris":{"android":"levelo://app?vid=4461704d-08f5-48f1-a995-a104d26baf59","ios":"levelo://app?vid=4461704d-08f5-48f1-a995-a104d26baf59"},"vehicle_type_id":"4","last_reported":1751656083,"current_range_meters":17600,"station_id":"ce4bh112rcd13ifvqda0","pricing_plan_id":"cebpf4jnsgd1na2vs0mg"},{"bike_id":"23f2bb3c-3acb-4914-be82-17f0be093411","system_id":"levelo_inurba_marseille","lat":43.28256,"lon":5.35069,"is_reserved":false,"is_disabled":false,"rental_uris":{"android":"levelo://app?vid=23f2bb3c-3acb-4914-be82-17f0be093411","ios":"levelo://app?vid=23f2bb3c-3acb-4914-be82-17f0be093411"},"vehicle_type_id":"4","last_reported":1751656083,"current_range_meters":17600,"station_id":"ce4bhbp2rcd13ifvqerg","pricing_plan_id":"cebpf4jnsgd1na2vs0mg"},{"bike_id":"85e59ae2-b351-4789-8c40-11e04c4e6808","system_id":"levelo_inurba_marseille","lat":43.23203,"lon":5.35532,"is_reserved":false,"is_disabled":false,"rental_uris":{"android":"levelo://app?vid=85e59ae2-b351-4789-8c40-11e04c4e6808","ios":"levelo://app?vid=85e59ae2-b351-4789-8c40-11e04c4e6808"},"vehicle_type_id":"4","last_reported":1751656083,"current_range_meters":17600,"station_id":"ce4bhu92rcd13ifvqi70","pricing_plan_id":"cebpf4jnsgd1na2vs0mg"},{"bike_id":"ef26d274-58a7-40bc-9cf0-6287718684d4","system_id":"levelo_inurba_marseille","lat":43.30735,"lon":5.42446,"is_reserved":false,"is_disabled":false,"rental_uris":{"android":"levelo://app?vid=ef26d274-58a7-40bc-9cf0-6287718684d4","ios":"levelo://app?vid=ef26d274-58a7-40bc-9cf0-6287718684d4"},"vehicle_type_id":"4","last_reported":1751656083,"current_range_meters":17600,"station_id":"st_cvj6ca6bvosntc0bfgr0","pricing_plan_id":"cebpf4jnsgd1na2vs0mg"},{"bike_id":"b67e3de7-3a98-48a8-ada1-6072073e6e54","system_id":"levelo_inurba_marseille","lat":43.245702,"lon":5.373601,"is_reserved":false,"is_disabled":false,"rental_uris":{"android":"levelo://app?vid=b67e3de7-3a98-48a8-ada1-6072073e6e54","ios":"levelo://app?vid=b67e3de7-3a98-48a8-ada1-6072073e6e54"},"vehicle_type_id":"4","last_reported":1751656083,"current_range_meters":18000,"station_id":"","pricing_plan_id":"cebpf4jnsgd1na2vs0mg"},{"bike_id":"eee40584-a53a-46c2-94a4-491b77e8d9d1","system_id":"levelo_inurba_marseille","lat":43.21747,"lon":5.34597,"is_reserved":false,"is_disabled":false,"rental_uris":{"android":"levelo://app?vid=eee40584-a53a-46c2-94a4-491b77e8d9d1","ios":"levelo://app?vid=eee40584-a53a-46c2-94a4-491b77e8d9d1"},"vehicle_type_id":"4","last_reported":1751656083,"current_range_meters":18000,"station_id":"","pricing_plan_id":"cebpf4jnsgd1na2vs0mg"},{"bike_id":"a584e8ba-cc7d-49c8-818b-96b2cf09a742","system_id":"levelo_inurba_marseille","lat":43.27612,"lon":5.36114,"is_reserved":false,"is_disabled":false,"rental_uris":{"android":"levelo://app?vid=a584e8ba-cc7d-49c8-818b-96b2cf09a742","ios":"levelo://app?vid=a584e8ba-cc7d-49c8-818b-96b2cf09a742"},"vehicle_type_id":"4","last_reported":1751656083,"current_range_meters":18000,"station_id":"ce4bgj92rcd13ifvqbe0","pricing_plan_id":"cebpf4jnsgd1na2vs0mg"},{"bike_id":"aca05101-36a3-469a-8f75-e3270e85fd82","system_id":"levelo_inurba_marseille","lat":43.28402,"lon":5.34983,"is_reserved":false,"is_disabled":false,"rental_uris":{"android":"levelo://app?vid=aca05101-36a3-469a-8f75-e3270e85fd82","ios":"levelo://app?vid=aca05101-36a3-469a-8f75-e3270e85fd82"},"vehicle_type_id":"4","last_reported":1751656083,"current_range_meters":18000,"station_id":"ce4bhbh2rcd13ifvqepg","pricing_plan_id":"cebpf4jnsgd1na2vs0mg"},{"bike_id":"c06af67a-a1a4-4b63-9aa1-e2d020dcb3d5","system_id":"levelo_inurba_marseille","lat":43.2841,"lon":5.34981,"is_reserved":false,"is_disabled":false,"rental_uris":{"android":"levelo://app?vid=c06af67a-a1a4-4b63-9aa1-e2d020dcb3d5","ios":"levelo://app?vid=c06af67a-a1a4-4b63-9aa1-e2d020dcb3d5"},"vehicle_type_id":"4","last_reported":1751656083,"current_range_meters":18000,"station_id":"ce4bhbh2rcd13ifvqepg","pricing_plan_id":"cebpf4jnsgd1na2vs0mg"},{"bike_id":"113458e2-c8a8-4c77-978b-c78d100084f9","system_id":"levelo_inurba_marseille","lat":43.28257,"lon":5.35082,"is_reserved":false,"is_disabled":false,"rental_uris":{"android":"levelo://app?vid=113458e2-c8a8-4c77-978b-c78d100084f9","ios":"levelo://app?vid=113458e2-c8a8-4c77-978b-c78d100084f9"},"vehicle_type_id":"4","last_reported":1751656083,"current_range_meters":18000,"station_id":"ce4bhbp2rcd13ifvqerg","pricing_plan_id":"cebpf4jnsgd1na2vs0mg"},{"bike_id":"0aa91f77-b343-47a1-af02-f2f9382aa5a4","system_id":"levelo_inurba_marseille","lat":43.28612,"lon":5.35097,"is_reserved":false,"is_disabled":false,"rental_uris":{"android":"levelo://app?vid=0aa91f77-b343-47a1-af02-f2f9382aa5a4","ios":"levelo://app?vid=0aa91f77-b343-47a1-af02-f2f9382aa5a4"},"vehicle_type_id":"4","last_reported":1751656083,"current_range_meters":18000,"station_id":"ce4bhch2rcd13ifvqeug","pricing_plan_id":"cebpf4jnsgd1na2vs0mg"},{"bike_id":"8501c7f1-4540-433a-9226-9677bd87b71a","system_id":"levelo_inurba_marseille","lat":43.21204,"lon":5.35064,"is_reserved":false,"is_disabled":false,"rental_uris":{"android":"levelo://app?vid=8501c7f1-4540-433a-9226-9677bd87b71a","ios":"levelo://app?vid=8501c7f1-4540-433a-9226-9677bd87b71a"},"vehicle_type_id":"4","last_reported":1751656083,"current_range_meters":18000,"station_id":"st_cvj6sg6p6f1abm77japg","pricing_plan_id":"cebpf4jnsgd1na2vs0mg"},{"bike_id":"94b8253a-c816-47be-9f9e-876cf02f4a4f","system_id":"levelo_inurba_marseille","lat":43.21188,"lon":5.35067,"is_reserved":false,"is_disabled":false,"rental_uris":{"android":"levelo://app?vid=94b8253a-c816-47be-9f9e-876cf02f4a4f","ios":"levelo://app?vid=94b8253a-c816-47be-9f9e-876cf02f4a4f"},"vehicle_type_id":"4","last_reported":1751656083,"current_range_meters":18000,"station_id":"st_cvj6sg6p6f1abm77japg","pricing_plan_id":"cebpf4jnsgd1na2vs0mg"},{"bike_id":"134a6fd1-cb8b-4ade-a0c2-0b22bf7dca76","system_id":"levelo_inurba_marseille","lat":43.21186,"lon":5.35073,"is_reserved":false,"is_disabled":false,"rental_uris":{"android":"levelo://app?vid=134a6fd1-cb8b-4ade-a0c2-0b22bf7dca76","ios":"levelo://app?vid=134a6fd1-cb8b-4ade-a0c2-0b22bf7dca76"},"vehicle_type_id":"4","last_reported":1751656083,"current_range_meters":18000,"station_id":"st_cvj6sg6p6f1abm77japg","pricing_plan_id":"cebpf4jnsgd1na2vs0mg"},{"bike_id":"adf1d38d-1f03-40cf-9b57-0a8f15f62b2d","system_id":"levelo_inurba_marseille","lat":43.32959,"lon":5.36382,"is_reserved":false,"is_disabled":false,"rental_uris":{"android":"levelo://app?vid=adf1d38d-1f03-40cf-9b57-0a8f15f62b2d","ios":"levelo://app?vid=adf1d38d-1f03-40cf-9b57-0a8f15f62b2d"},"vehicle_type_id":"4","last_reported":1751656083,"current_range_meters":18800,"station_id":"","pricing_plan_id":"cebpf4jnsgd1na2vs0mg"},{"bike_id":"9f364b3f-24a1-4100-8549-0aaf85ad192b","system_id":"levelo_inurba_marseille","lat":43.29795,"lon":5.37088,"is_reserved":false,"is_disabled":false,"rental_uris":{"android":"levelo://app?vid=9f364b3f-24a1-4100-8549-0aaf85ad192b","ios":"levelo://app?vid=9f364b3f-24a1-4100-8549-0aaf85ad192b"},"vehicle_type_id":"4","last_reported":1751656083,"current_range_meters":18800,"station_id":"ce4bgop2rcd13ifvqc1g","pricing_plan_id":"cebpf4jnsgd1na2vs0mg"},{"bike_id":"ef44026d-fc6a-4f33-949a-9175020b15f3","system_id":"levelo_inurba_marseille","lat":43.3117,"lon":5.38718,"is_reserved":false,"is_disabled":false,"rental_uris":{"android":"levelo://app?vid=ef44026d-fc6a-4f33-949a-9175020b15f3","ios":"levelo://app?vid=ef44026d-fc6a-4f33-949a-9175020b15f3"},"vehicle_type_id":"4","last_reported":1751656083,"current_range_meters":18800,"station_id":"ce4bgv12rcd13ifvqcp0","pricing_plan_id":"cebpf4jnsgd1na2vs0mg"},{"bike_id":"5af0691d-f3d6-4042-b013-6dd04eeada43","system_id":"levelo_inurba_marseille","lat":43.31755,"lon":5.39017,"is_reserved":false,"is_disabled":false,"rental_uris":{"android":"levelo://app?vid=5af0691d-f3d6-4042-b013-6dd04eeada43","ios":"levelo://app?vid=5af0691d-f3d6-4042-b013-6dd04eeada43"},"vehicle_type_id":"4","last_reported":1751656083,"current_range_meters":18800,"station_id":"ce4bhqp2rcd13ifvqhng","pricing_plan_id":"cebpf4jnsgd1na2vs0mg"},{"bike_id":"fe8ee84c-fdfc-40aa-a1c2-6e36409c0740","system_id":"levelo_inurba_marseille","lat":43.26821,"lon":5.39041,"is_reserved":false,"is_disabled":false,"rental_uris":{"android":"levelo://app?vid=fe8ee84c-fdfc-40aa-a1c2-6e36409c0740","ios":"levelo://app?vid=fe8ee84c-fdfc-40aa-a1c2-6e36409c0740"},"vehicle_type_id":"4","last_reported":1751656083,"current_range_meters":19200,"station_id":"","pricing_plan_id":"cebpf4jnsgd1na2vs0mg"},{"bike_id":"3fc62123-78f7-4bfd-9645-67a7412e0768","system_id":"levelo_inurba_marseille","lat":43.2573,"lon":5.41107,"is_reserved":false,"is_disabled":false,"rental_uris":{"android":"levelo://app?vid=3fc62123-78f7-4bfd-9645-67a7412e0768","ios":"levelo://app?vid=3fc62123-78f7-4bfd-9645-67a7412e0768"},"vehicle_type_id":"4","last_reported":1751656083,"current_range_meters":19200,"station_id":"","pricing_plan_id":"cebpf4jnsgd1na2vs0mg"},{"bike_id":"72768a23-c755-47e3-9bb7-cbe34d2c2099","system_id":"levelo_inurba_marseille","lat":43.29681,"lon":5.37296,"is_reserved":false,"is_disabled":false,"rental_uris":{"android":"levelo://app?vid=72768a23-c755-47e3-9bb7-cbe34d2c2099","ios":"levelo://app?vid=72768a23-c755-47e3-9bb7-cbe34d2c2099"},"vehicle_type_id":"4","last_reported":1751656083,"current_range_meters":19200,"station_id":"ce4bgk12rcd13ifvqbj0","pricing_plan_id":"cebpf4jnsgd1na2vs0mg"},{"bike_id":"61d2b847-a136-41a6-9c78-aca00da94fa0","system_id":"levelo_inurba_marseille","lat":43.31176,"lon":5.38713,"is_reserved":false,"is_disabled":false,"rental_uris":{"android":"levelo://app?vid=61d2b847-a136-41a6-9c78-aca00da94fa0","ios":"levelo://app?vid=61d2b847-a136-41a6-9c78-aca00da94fa0"},"vehicle_type_id":"4","last_reported":1751656083,"current_range_meters":19200,"station_id":"ce4bgv12rcd13ifvqcp0","pricing_plan_id":"cebpf4jnsgd1na2vs0mg"},{"bike_id":"c1ba972a-c3fa-4a8f-8510-f4c6bd29e0eb","system_id":"levelo_inurba_marseille","lat":43.30791,"lon":5.37646,"is_reserved":false,"is_disabled":false,"rental_uris":{"android":"levelo://app?vid=c1ba972a-c3fa-4a8f-8510-f4c6bd29e0eb","ios":"levelo://app?vid=c1ba972a-c3fa-4a8f-8510-f4c6bd29e0eb"},"vehicle_type_id":"4","last_reported":1751656083,"current_range_meters":19200,"station_id":"ce4bgv92rcd13ifvqcq0","pricing_plan_id":"cebpf4jnsgd1na2vs0mg"},{"bike_id":"14afccc5-6de2-4834-b5bf-ea06b355065b","system_id":"levelo_inurba_marseille","lat":43.29865,"lon":5.389,"is_reserved":false,"is_disabled":false,"rental_uris":{"android":"levelo://app?vid=14afccc5-6de2-4834-b5bf-ea06b355065b","ios":"levelo://app?vid=14afccc5-6de2-4834-b5bf-ea06b355065b"},"vehicle_type_id":"4","last_reported":1751656083,"current_range_meters":19200,"station_id":"ce4bh392rcd13ifvqdl0","pricing_plan_id":"cebpf4jnsgd1na2vs0mg"},{"bike_id":"3ad44345-9616-42e5-8a13-a2e22cbbf363","system_id":"levelo_inurba_marseille","lat":43.28418,"lon":5.34981,"is_reserved":false,"is_disabled":false,"rental_uris":{"android":"levelo://app?vid=3ad44345-9616-42e5-8a13-a2e22cbbf363","ios":"levelo://app?vid=3ad44345-9616-42e5-8a13-a2e22cbbf363"},"vehicle_type_id":"4","last_reported":1751656083,"current_range_meters":19200,"station_id":"ce4bhbh2rcd13ifvqepg","pricing_plan_id":"cebpf4jnsgd1na2vs0mg"},{"bike_id":"867aed11-4cd3-4dba-8dd2-be1f9fd64cec","system_id":"levelo_inurba_marseille","lat":43.28416,"lon":5.34977,"is_reserved":false,"is_disabled":false,"rental_uris":{"android":"levelo://app?vid=867aed11-4cd3-4dba-8dd2-be1f9fd64cec","ios":"levelo://app?vid=867aed11-4cd3-4dba-8dd2-be1f9fd64cec"},"vehicle_type_id":"4","last_reported":1751656083,"current_range_meters":19200,"station_id":"ce4bhbh2rcd13ifvqepg","pricing_plan_id":"cebpf4jnsgd1na2vs0mg"},{"bike_id":"552f8070-e04d-467b-952c-bd5d8fb5e432","system_id":"levelo_inurba_marseille","lat":43.28612,"lon":5.35092,"is_reserved":false,"is_disabled":false,"rental_uris":{"android":"levelo://app?vid=552f8070-e04d-467b-952c-bd5d8fb5e432","ios":"levelo://app?vid=552f8070-e04d-467b-952c-bd5d8fb5e432"},"vehicle_type_id":"4","last_reported":1751656083,"current_range_meters":19200,"station_id":"ce4bhch2rcd13ifvqeug","pricing_plan_id":"cebpf4jnsgd1na2vs0mg"},{"bike_id":"76a2bef7-398e-4f1f-8e0a-99cd2bb38c2d","system_id":"levelo_inurba_marseille","lat":43.28626,"lon":5.35094,"is_reserved":false,"is_disabled":false,"rental_uris":{"android":"levelo://app?vid=76a2bef7-398e-4f1f-8e0a-99cd2bb38c2d","ios":"levelo://app?vid=76a2bef7-398e-4f1f-8e0a-99cd2bb38c2d"},"vehicle_type_id":"4","last_reported":1751656083,"current_range_meters":19200,"station_id":"ce4bhch2rcd13ifvqeug","pricing_plan_id":"cebpf4jnsgd1na2vs0mg"},{"bike_id":"87cc4f7b-b0e3-4488-b4d8-70f032e439ea","system_id":"levelo_inurba_marseille","lat":43.26554,"lon":5.37285,"is_reserved":false,"is_disabled":false,"rental_uris":{"android":"levelo://app?vid=87cc4f7b-b0e3-4488-b4d8-70f032e439ea","ios":"levelo://app?vid=87cc4f7b-b0e3-4488-b4d8-70f032e439ea"},"vehicle_type_id":"4","last_reported":1751656083,"current_range_meters":19200,"station_id":"ce4bhg12rcd13ifvqf70","pricing_plan_id":"cebpf4jnsgd1na2vs0mg"},{"bike_id":"54756faf-cb40-4ef1-aa74-0a23070f1a67","system_id":"levelo_inurba_marseille","lat":43.26215,"lon":5.37441,"is_reserved":false,"is_disabled":false,"rental_uris":{"android":"levelo://app?vid=54756faf-cb40-4ef1-aa74-0a23070f1a67","ios":"levelo://app?vid=54756faf-cb40-4ef1-aa74-0a23070f1a67"},"vehicle_type_id":"4","last_reported":1751656083,"current_range_meters":19200,"station_id":"ce4bhgp2rcd13ifvqfc0","pricing_plan_id":"cebpf4jnsgd1na2vs0mg"},{"bike_id":"848c2a7a-afee-42a3-a2d9-9bf91c43d83a","system_id":"levelo_inurba_marseille","lat":43.28701,"lon":5.39986,"is_reserved":false,"is_disabled":false,"rental_uris":{"android":"levelo://app?vid=848c2a7a-afee-42a3-a2d9-9bf91c43d83a","ios":"levelo://app?vid=848c2a7a-afee-42a3-a2d9-9bf91c43d83a"},"vehicle_type_id":"4","last_reported":1751656083,"current_range_meters":19200,"station_id":"ce4bho92rcd13ifvqh3g","pricing_plan_id":"cebpf4jnsgd1na2vs0mg"},{"bike_id":"d5ef770d-9759-47e3-b3a5-7d2785ef76db","system_id":"levelo_inurba_marseille","lat":43.33035,"lon":5.39034,"is_reserved":false,"is_disabled":false,"rental_uris":{"android":"levelo://app?vid=d5ef770d-9759-47e3-b3a5-7d2785ef76db","ios":"levelo://app?vid=d5ef770d-9759-47e3-b3a5-7d2785ef76db"},"vehicle_type_id":"4","last_reported":1751656083,"current_range_meters":19200,"station_id":"ce4bhr92rcd13ifvqhrg","pricing_plan_id":"cebpf4jnsgd1na2vs0mg"},{"bike_id":"bf24b26e-7f51-4120-9a48-54c87edaa2f7","system_id":"levelo_inurba_marseille","lat":43.211891,"lon":5.350758,"is_reserved":false,"is_disabled":false,"rental_uris":{"android":"levelo://app?vid=bf24b26e-7f51-4120-9a48-54c87edaa2f7","ios":"levelo://app?vid=bf24b26e-7f51-4120-9a48-54c87edaa2f7"},"vehicle_type_id":"4","last_reported":1751656083,"current_range_meters":19200,"station_id":"st_cvj6sg6p6f1abm77japg","pricing_plan_id":"cebpf4jnsgd1na2vs0mg"},{"bike_id":"de82732e-0a39-4d40-b3cf-607f82f986f4","system_id":"levelo_inurba_marseille","lat":43.26885,"lon":5.36848,"is_reserved":false,"is_disabled":false,"rental_uris":{"android":"levelo://app?vid=de82732e-0a39-4d40-b3cf-607f82f986f4","ios":"levelo://app?vid=de82732e-0a39-4d40-b3cf-607f82f986f4"},"vehicle_type_id":"4","last_reported":1751656083,"current_range_meters":19600,"station_id":"","pricing_plan_id":"cebpf4jnsgd1na2vs0mg"},{"bike_id":"5b5ca915-19f5-4c5c-ba88-71fe4a9869eb","system_id":"levelo_inurba_marseille","lat":43.316895,"lon":5.377565,"is_reserved":false,"is_disabled":false,"rental_uris":{"android":"levelo://app?vid=5b5ca915-19f5-4c5c-ba88-71fe4a9869eb","ios":"levelo://app?vid=5b5ca915-19f5-4c5c-ba88-71fe4a9869eb"},"vehicle_type_id":"4","last_reported":1751656083,"current_range_meters":19600,"station_id":"ce4bgth2rcd13ifvqch0","pricing_plan_id":"cebpf4jnsgd1na2vs0mg"},{"bike_id":"7bba8a3e-5b56-4797-a43e-860cbf4b2360","system_id":"levelo_inurba_marseille","lat":43.27366,"lon":5.36241,"is_reserved":false,"is_disabled":false,"rental_uris":{"android":"levelo://app?vid=7bba8a3e-5b56-4797-a43e-860cbf4b2360","ios":"levelo://app?vid=7bba8a3e-5b56-4797-a43e-860cbf4b2360"},"vehicle_type_id":"4","last_reported":1751656083,"current_range_meters":19600,"station_id":"ce4bhbh2rcd13ifvqeo0","pricing_plan_id":"cebpf4jnsgd1na2vs0mg"},{"bike_id":"f8be8802-8b06-487a-8a50-da6b6ba5bd1d","system_id":"levelo_inurba_marseille","lat":43.2737,"lon":5.36253,"is_reserved":false,"is_disabled":false,"rental_uris":{"android":"levelo://app?vid=f8be8802-8b06-487a-8a50-da6b6ba5bd1d","ios":"levelo://app?vid=f8be8802-8b06-487a-8a50-da6b6ba5bd1d"},"vehicle_type_id":"4","last_reported":1751656083,"current_range_meters":19600,"station_id":"ce4bhbh2rcd13ifvqeo0","pricing_plan_id":"cebpf4jnsgd1na2vs0mg"},{"bike_id":"d79582d6-f852-42e4-b0e4-8e8e52185a45","system_id":"levelo_inurba_marseille","lat":43.28615,"lon":5.35106,"is_reserved":false,"is_disabled":false,"rental_uris":{"android":"levelo://app?vid=d79582d6-f852-42e4-b0e4-8e8e52185a45","ios":"levelo://app?vid=d79582d6-f852-42e4-b0e4-8e8e52185a45"},"vehicle_type_id":"4","last_reported":1751656083,"current_range_meters":19600,"station_id":"ce4bhch2rcd13ifvqeug","pricing_plan_id":"cebpf4jnsgd1na2vs0mg"},{"bike_id":"b4058664-73fa-45d4-8873-cdb9fe43bb59","system_id":"levelo_inurba_marseille","lat":43.30534,"lon":5.38417,"is_reserved":false,"is_disabled":false,"rental_uris":{"android":"levelo://app?vid=b4058664-73fa-45d4-8873-cdb9fe43bb59","ios":"levelo://app?vid=b4058664-73fa-45d4-8873-cdb9fe43bb59"},"vehicle_type_id":"4","last_reported":1751656083,"current_range_meters":20000,"station_id":"ce4bgg92rcd13ifvqb30","pricing_plan_id":"cebpf4jnsgd1na2vs0mg"},{"bike_id":"544e8649-2907-4498-9428-219bd5df36f9","system_id":"levelo_inurba_marseille","lat":43.30213,"lon":5.39466,"is_reserved":false,"is_disabled":false,"rental_uris":{"android":"levelo://app?vid=544e8649-2907-4498-9428-219bd5df36f9","ios":"levelo://app?vid=544e8649-2907-4498-9428-219bd5df36f9"},"vehicle_type_id":"4","last_reported":1751656083,"current_range_meters":20000,"station_id":"ce4bh0p2rcd13ifvqd70","pricing_plan_id":"cebpf4jnsgd1na2vs0mg"},{"bike_id":"a599d48f-b21a-462e-ba87-44282577c500","system_id":"levelo_inurba_marseille","lat":43.28414,"lon":5.34987,"is_reserved":false,"is_disabled":false,"rental_uris":{"android":"levelo://app?vid=a599d48f-b21a-462e-ba87-44282577c500","ios":"levelo://app?vid=a599d48f-b21a-462e-ba87-44282577c500"},"vehicle_type_id":"4","last_reported":1751656083,"current_range_meters":20000,"station_id":"ce4bhbh2rcd13ifvqepg","pricing_plan_id":"cebpf4jnsgd1na2vs0mg"},{"bike_id":"1e56371b-d377-4182-8646-1fa64a1d6aa6","system_id":"levelo_inurba_marseille","lat":43.29896,"lon":5.43674,"is_reserved":false,"is_disabled":false,"rental_uris":{"android":"levelo://app?vid=1e56371b-d377-4182-8646-1fa64a1d6aa6","ios":"levelo://app?vid=1e56371b-d377-4182-8646-1fa64a1d6aa6"},"vehicle_type_id":"4","last_reported":1751656083,"current_range_meters":20000,"station_id":"ce4bhpp2rcd13ifvqhfg","pricing_plan_id":"cebpf4jnsgd1na2vs0mg"},{"bike_id":"4ace7afc-9ce8-4c1e-99de-f96cfe6437d2","system_id":"levelo_inurba_marseille","lat":43.31759,"lon":5.39021,"is_reserved":false,"is_disabled":false,"rental_uris":{"android":"levelo://app?vid=4ace7afc-9ce8-4c1e-99de-f96cfe6437d2","ios":"levelo://app?vid=4ace7afc-9ce8-4c1e-99de-f96cfe6437d2"},"vehicle_type_id":"4","last_reported":1751656083,"current_range_meters":20000,"station_id":"ce4bhqp2rcd13ifvqhng","pricing_plan_id":"cebpf4jnsgd1na2vs0mg"},{"bike_id":"e449aa29-cae1-4432-9aec-dedc13360b20","system_id":"levelo_inurba_marseille","lat":43.21196,"lon":5.35076,"is_reserved":false,"is_disabled":false,"rental_uris":{"android":"levelo://app?vid=e449aa29-cae1-4432-9aec-dedc13360b20","ios":"levelo://app?vid=e449aa29-cae1-4432-9aec-dedc13360b20"},"vehicle_type_id":"4","last_reported":1751656083,"current_range_meters":20000,"station_id":"st_cvj6sg6p6f1abm77japg","pricing_plan_id":"cebpf4jnsgd1na2vs0mg"},{"bike_id":"bfe23a29-db00-427e-8fe5-9a9b53050996","system_id":"levelo_inurba_marseille","lat":43.29563,"lon":5.37505,"is_reserved":false,"is_disabled":false,"rental_uris":{"android":"levelo://app?vid=bfe23a29-db00-427e-8fe5-9a9b53050996","ios":"levelo://app?vid=bfe23a29-db00-427e-8fe5-9a9b53050996"},"vehicle_type_id":"4","last_reported":1751656083,"current_range_meters":20400,"station_id":"","pricing_plan_id":"cebpf4jnsgd1na2vs0mg"},{"bike_id":"bda9ca29-4054-4926-ba92-be21babd6b12","system_id":"levelo_inurba_marseille","lat":43.30136,"lon":5.38774,"is_reserved":false,"is_disabled":false,"rental_uris":{"android":"levelo://app?vid=bda9ca29-4054-4926-ba92-be21babd6b12","ios":"levelo://app?vid=bda9ca29-4054-4926-ba92-be21babd6b12"},"vehicle_type_id":"4","last_reported":1751656083,"current_range_meters":20400,"station_id":"ce4bghh2rcd13ifvqb60","pricing_plan_id":"cebpf4jnsgd1na2vs0mg"},{"bike_id":"df166a43-8463-4382-bc65-ba5f79bb8dda","system_id":"levelo_inurba_marseille","lat":43.3054,"lon":5.36551,"is_reserved":false,"is_disabled":false,"rental_uris":{"android":"levelo://app?vid=df166a43-8463-4382-bc65-ba5f79bb8dda","ios":"levelo://app?vid=df166a43-8463-4382-bc65-ba5f79bb8dda"},"vehicle_type_id":"4","last_reported":1751656083,"current_range_meters":20400,"station_id":"ce4bgs12rcd13ifvqcag","pricing_plan_id":"cebpf4jnsgd1na2vs0mg"},{"bike_id":"9bb4387c-d70a-42a7-a4a5-5b9d227e7746","system_id":"levelo_inurba_marseille","lat":43.27392,"lon":5.36257,"is_reserved":false,"is_disabled":false,"rental_uris":{"android":"levelo://app?vid=9bb4387c-d70a-42a7-a4a5-5b9d227e7746","ios":"levelo://app?vid=9bb4387c-d70a-42a7-a4a5-5b9d227e7746"},"vehicle_type_id":"4","last_reported":1751656083,"current_range_meters":20400,"station_id":"ce4bhbh2rcd13ifvqeo0","pricing_plan_id":"cebpf4jnsgd1na2vs0mg"},{"bike_id":"702a2ef1-0870-4fc2-baba-e6ee90340c91","system_id":"levelo_inurba_marseille","lat":43.284051,"lon":5.349946,"is_reserved":false,"is_disabled":false,"rental_uris":{"android":"levelo://app?vid=702a2ef1-0870-4fc2-baba-e6ee90340c91","ios":"levelo://app?vid=702a2ef1-0870-4fc2-baba-e6ee90340c91"},"vehicle_type_id":"4","last_reported":1751656083,"current_range_meters":20400,"station_id":"ce4bhbh2rcd13ifvqepg","pricing_plan_id":"cebpf4jnsgd1na2vs0mg"},{"bike_id":"01ceb79c-6f0e-492a-bc7a-543748abc6f9","system_id":"levelo_inurba_marseille","lat":43.28413,"lon":5.34963,"is_reserved":false,"is_disabled":false,"rental_uris":{"android":"levelo://app?vid=01ceb79c-6f0e-492a-bc7a-543748abc6f9","ios":"levelo://app?vid=01ceb79c-6f0e-492a-bc7a-543748abc6f9"},"vehicle_type_id":"4","last_reported":1751656083,"current_range_meters":20400,"station_id":"ce4bhbh2rcd13ifvqepg","pricing_plan_id":"cebpf4jnsgd1na2vs0mg"},{"bike_id":"04f50802-3f9c-4476-96af-122e1c9f73b5","system_id":"levelo_inurba_marseille","lat":43.28426,"lon":5.34979,"is_reserved":false,"is_disabled":false,"rental_uris":{"android":"levelo://app?vid=04f50802-3f9c-4476-96af-122e1c9f73b5","ios":"levelo://app?vid=04f50802-3f9c-4476-96af-122e1c9f73b5"},"vehicle_type_id":"4","last_reported":1751656083,"current_range_meters":20400,"station_id":"ce4bhbh2rcd13ifvqepg","pricing_plan_id":"cebpf4jnsgd1na2vs0mg"},{"bike_id":"7a0ad893-099b-4bd9-b0d0-7007474e6e3d","system_id":"levelo_inurba_marseille","lat":43.24387,"lon":5.37055,"is_reserved":false,"is_disabled":false,"rental_uris":{"android":"levelo://app?vid=7a0ad893-099b-4bd9-b0d0-7007474e6e3d","ios":"levelo://app?vid=7a0ad893-099b-4bd9-b0d0-7007474e6e3d"},"vehicle_type_id":"4","last_reported":1751656083,"current_range_meters":20400,"station_id":"ce4bhhh2rcd13ifvqfk0","pricing_plan_id":"cebpf4jnsgd1na2vs0mg"},{"bike_id":"9664627c-46c7-4c2a-becb-c22e0de67a3f","system_id":"levelo_inurba_marseille","lat":43.31996,"lon":5.38163,"is_reserved":false,"is_disabled":false,"rental_uris":{"android":"levelo://app?vid=9664627c-46c7-4c2a-becb-c22e0de67a3f","ios":"levelo://app?vid=9664627c-46c7-4c2a-becb-c22e0de67a3f"},"vehicle_type_id":"4","last_reported":1751656083,"current_range_meters":20400,"station_id":"ce4bhr12rcd13ifvqhpg","pricing_plan_id":"cebpf4jnsgd1na2vs0mg"},{"bike_id":"f37760c6-ab8b-450e-9ddc-f3de596404e2","system_id":"levelo_inurba_marseille","lat":43.290224,"lon":5.375486,"is_reserved":false,"is_disabled":false,"rental_uris":{"android":"levelo://app?vid=f37760c6-ab8b-450e-9ddc-f3de596404e2","ios":"levelo://app?vid=f37760c6-ab8b-450e-9ddc-f3de596404e2"},"vehicle_type_id":"4","last_reported":1751656083,"current_range_meters":20800,"station_id":"","pricing_plan_id":"cebpf4jnsgd1na2vs0mg"},{"bike_id":"62556e08-d7fe-4e2a-87e5-343576f2df17","system_id":"levelo_inurba_marseille","lat":43.295659,"lon":5.37513,"is_reserved":false,"is_disabled":false,"rental_uris":{"android":"levelo://app?vid=62556e08-d7fe-4e2a-87e5-343576f2df17","ios":"levelo://app?vid=62556e08-d7fe-4e2a-87e5-343576f2df17"},"vehicle_type_id":"4","last_reported":1751656083,"current_range_meters":20800,"station_id":"ce4bgh92rcd13ifvqb50","pricing_plan_id":"cebpf4jnsgd1na2vs0mg"},{"bike_id":"fe1d704a-59ca-40d3-ac06-f42d64518dd6","system_id":"levelo_inurba_marseille","lat":43.30429,"lon":5.38887,"is_reserved":false,"is_disabled":false,"rental_uris":{"android":"levelo://app?vid=fe1d704a-59ca-40d3-ac06-f42d64518dd6","ios":"levelo://app?vid=fe1d704a-59ca-40d3-ac06-f42d64518dd6"},"vehicle_type_id":"4","last_reported":1751656083,"current_range_meters":20800,"station_id":"ce4bgk12rcd13ifvqbi0","pricing_plan_id":"cebpf4jnsgd1na2vs0mg"},{"bike_id":"040cb44e-581c-4641-9786-2161cf8b0303","system_id":"levelo_inurba_marseille","lat":43.29239,"lon":5.36059,"is_reserved":false,"is_disabled":false,"rental_uris":{"android":"levelo://app?vid=040cb44e-581c-4641-9786-2161cf8b0303","ios":"levelo://app?vid=040cb44e-581c-4641-9786-2161cf8b0303"},"vehicle_type_id":"4","last_reported":1751656083,"current_range_meters":20800,"station_id":"ce4bhbh2rcd13ifvqeqg","pricing_plan_id":"cebpf4jnsgd1na2vs0mg"},{"bike_id":"d2bcc1cf-2af1-43c3-9223-1fe477e4c6fa","system_id":"levelo_inurba_marseille","lat":43.29556,"lon":5.422895,"is_reserved":false,"is_disabled":false,"rental_uris":{"android":"levelo://app?vid=d2bcc1cf-2af1-43c3-9223-1fe477e4c6fa","ios":"levelo://app?vid=d2bcc1cf-2af1-43c3-9223-1fe477e4c6fa"},"vehicle_type_id":"4","last_reported":1751656083,"current_range_meters":20800,"station_id":"ce4bhph2rcd13ifvqhdg","pricing_plan_id":"cebpf4jnsgd1na2vs0mg"},