{"last_updated":1692727681,"ttl":30,"version":"2.2","data":{"bikes":[{"bike_id":"f22ca441-4e4e-4660-b824-b2f46943e54d","system_id":"levelo_inurba_marseille","lat":43.312239,"lon":5.368562,"is_reserved":false,"is_disabled":false,"rental_uris":{"android":"levelo://app?vid=f22ca441-4e4e-4660-b824-b2f46943e54d","ios":"levelo://app?vid=f22ca441-4e4e-4660-b824-b2f46943e54d"},"vehicle_type_id":"4","last_reported":1692727681,"current_range_meters":31200,"station_id":"ce4bgl92rcd13ifvqbq0","pricing_plan_id":"free"},{"bike_id":"d2be997d-44d2-40a5-bb20-02aeaaf65fa5","system_id":"levelo_inurba_marseille","lat":43.314811,"lon":5.373103,"is_reserved":false,"is_disabled":false,"rental_uris":{"android":"levelo://app?vid=d2be997d-44d2-40a5-bb20-02aeaaf65fa5","ios":"levelo://app?vid=d2be997d-44d2-40a5-bb20-02aeaaf65fa5"},"vehicle_type_id":"4","last_reported":1692727681,"current_range_meters":31600,"station_id":"ce4bgt12rcd13ifvqcd0","pricing_plan_id":"free"},{"bike_id":"46740717-cd70-47aa-90e0-377232f2cae9","system_id":"levelo_inurba_marseille","lat":43.30991,"lon":5.37503,"is_reserved":false,"is_disabled":false,"rental_uris":{"android":"levelo://app?vid=46740717-cd70-47aa-90e0-377232f2cae9","ios":"levelo://app?vid=46740717-cd70-47aa-90e0-377232f2cae9"},"vehicle_type_id":"4","last_reported":1692727681,"current_range_meters":24000,"station_id":"","pricing_plan_id":"free"},{"bike_id":"d165f354-25d2-485f-acc9-e151fc501439","system_id":"levelo_inurba_marseille","lat":43.305712,"lon":5.365641,"is_reserved":false,"is_disabled":false,"rental_uris":{"android":"levelo://app?vid=d165f354-25d2-485f-acc9-e151fc501439","ios":"levelo://app?vid=d165f354-25d2-485f-acc9-e151fc501439"},"vehicle_type_id":"4","last_reported":1692727681,"current_range_meters":4400,"station_id":"ce4bgs12rcd13ifvqcag","pricing_plan_id":"free"},{"bike_id":"bc4bd3c8-6723-43c5-953c-060c8e0b947c","system_id":"levelo_inurba_marseille","lat":43.305368,"lon":5.367343,"is_reserved":false,"is_disabled":false,"rental_uris":{"android":"levelo://app?vid=bc4bd3c8-6723-43c5-953c-060c8e0b947c","ios":"levelo://app?vid=bc4bd3c8-6723-43c5-953c-060c8e0b947c"},"vehicle_type_id":"4","last_reported":1692727681,"current_range_meters":0,"station_id":"ce4bgrp2rcd13ifvqc9g","pricing_plan_id":"free"},{"bike_id":"85196aab-c8a7-4bc9-8ff0-8451eab65de8","system_id":"levelo_inurba_marseille","lat":43.305706,"lon":5.365654,"is_reserved":false,"is_disabled":false,"rental_uris":{"android":"levelo://app?vid=85196aab-c8a7-4bc9-8ff0-8451eab65de8","ios":"levelo://app?vid=85196aab-c8a7-4bc9-8ff0-8451eab65de8"},"vehicle_type_id":"4","last_reported":1692727681,"current_range_meters":2800,"station_id":"ce4bgs12rcd13ifvqcag","pricing_plan_id":"free"},{"bike_id":"9fbe6e18-d192-44c2-98b5-cafb68b41aa4","system_id":"levelo_inurba_marseille","lat":43.30536,"lon":5.36531,"is_reserved":false,"is_disabled":false,"rental_uris":{"android":"levelo://app?vid=9fbe6e18-d192-44c2-98b5-cafb68b41aa4","ios":"levelo://app?vid=9fbe6e18-d192-44c2-98b5-cafb68b41aa4"},"vehicle_type_id":"4","last_reported":1692727681,"current_range_meters":26400,"station_id":"ce4bgs12rcd13ifvqcag","pricing_plan_id":"free"},{"bike_id":"81ed120d-c73a-444f-b9dd-751663b7955d","system_id":"levelo_inurba_marseille","lat":43.311125,"lon":5.377624,"is_reserved":false,"is_disabled":false,"rental_uris":{"android":"levelo://app?vid=81ed120d-c73a-444f-b9dd-751663b7955d","ios":"levelo://app?vid=81ed120d-c73a-444f-b9dd-751663b7955d"},"vehicle_type_id":"4","last_reported":1692727681,"current_range_meters":27200,"station_id":"ce4bgt92rcd13ifvqcg0","pricing_plan_id":"free"},{"bike_id":"874e34a8-80c1-4d79-8e18-aa1bd38adad4","system_id":"levelo_inurba_marseille","lat":43.317065,"lon":5.377313,"is_reserved":false,"is_disabled":false,"rental_uris":{"android":"levelo://app?vid=874e34a8-80c1-4d79-8e18-aa1bd38adad4","ios":"levelo://app?vid=874e34a8-80c1-4d79-8e18-aa1bd38adad4"},"vehicle_type_id":"4","last_reported":1692727681,"current_range_meters":0,"station_id":"ce4bgth2rcd13ifvqch0","pricing_plan_id":"free"},{"bike_id":"bf279468-f40f-45e3-8483-1ad96d3dd83b","system_id":"levelo_inurba_marseille","lat":43.315293,"lon":5.380349,"is_reserved":false,"is_disabled":false,"rental_uris":{"android":"levelo://app?vid=bf279468-f40f-45e3-8483-1ad96d3dd83b","ios":"levelo://app?vid=bf279468-f40f-45e3-8483-1ad96d3dd83b"},"vehicle_type_id":"4","last_reported":1692727681,"current_range_meters":10400,"station_id":"ce4bhsp2rcd13ifvqi50","pricing_plan_id":"free"},{"bike_id":"2a3d5432-0108-4eb9-882d-694bea8753ec","system_id":"levelo_inurba_marseille","lat":43.315289,"lon":5.380349,"is_reserved":false,"is_disabled":false,"rental_uris":{"android":"levelo://app?vid=2a3d5432-0108-4eb9-882d-694bea8753ec","ios":"levelo://app?vid=2a3d5432-0108-4eb9-882d-694bea8753ec"},"vehicle_type_id":"4","last_reported":1692727681,"current_range_meters":4800,"station_id":"ce4bhsp2rcd13ifvqi50","pricing_plan_id":"free"},{"bike_id":"1035934b-c3a9-46a9-9f7b-2b02b6369d79","system_id":"levelo_inurba_marseille","lat":43.315293,"lon":5.380349,"is_reserved":false,"is_disabled":false,"rental_uris":{"android":"levelo://app?vid=1035934b-c3a9-46a9-9f7b-2b02b6369d79","ios":"levelo://app?vid=1035934b-c3a9-46a9-9f7b-2b02b6369d79"},"vehicle_type_id":"4","last_reported":1692727681,"current_range_meters":14400,"station_id":"ce4bhsp2rcd13ifvqi50","pricing_plan_id":"free"},{"bike_id":"237c1187-0b1e-4a6a-83f3-89fcb0ea5cea","system_id":"levelo_inurba_marseille","lat":43.307898,"lon":5.381549,"is_reserved":false,"is_disabled":false,"rental_uris":{"android":"levelo://app?vid=237c1187-0b1e-4a6a-83f3-89fcb0ea5cea","ios":"levelo://app?vid=237c1187-0b1e-4a6a-83f3-89fcb0ea5cea"},"vehicle_type_id":"4","last_reported":1692727681,"current_range_meters":0,"station_id":"ce4bgt92rcd13ifvqcg0","pricing_plan_id":"free"},{"bike_id":"8edc8449-9939-4874-89b3-49c2f6b1f06e","system_id":"levelo_inurba_marseille","lat":43.30289,"lon":5.37686,"is_reserved":false,"is_disabled":false,"rental_uris":{"android":"levelo://app?vid=8edc8449-9939-4874-89b3-49c2f6b1f06e","ios":"levelo://app?vid=8edc8449-9939-4874-89b3-49c2f6b1f06e"},"vehicle_type_id":"4","last_reported":1692727681,"current_range_meters":28400,"station_id":"","pricing_plan_id":"free"},{"bike_id":"909c11fd-a977-4364-ba87-b5fe57f1571d","system_id":"levelo_inurba_marseille","lat":43.30284,"lon":5.37696,"is_reserved":false,"is_disabled":false,"rental_uris":{"android":"levelo://app?vid=909c11fd-a977-4364-ba87-b5fe57f1571d","ios":"levelo://app?vid=909c11fd-a977-4364-ba87-b5fe57f1571d"},"vehicle_type_id":"4","last_reported":1692727681,"current_range_meters":22400,"station_id":"ce4bguh2rcd13ifvqcj0","pricing_plan_id":"free"},{"bike_id":"0304bcdb-de48-443c-b6c7-e0aa203e8dfa","system_id":"levelo_inurba_marseille","lat":43.299724,"lon":5.371829,"is_reserved":false,"is_disabled":false,"rental_uris":{"android":"levelo://app?vid=0304bcdb-de48-443c-b6c7-e0aa203e8dfa","ios":"levelo://app?vid=0304bcdb-de48-443c-b6c7-e0aa203e8dfa"},"vehicle_type_id":"4","last_reported":1692727681,"current_range_meters":3600,"station_id":"ce4bgr92rcd13ifvqc7g","pricing_plan_id":"free"},{"bike_id":"4ca4c199-2b71-4416-99ae-754c8af0d44a","system_id":"levelo_inurba_marseille","lat":43.31351,"lon":5.38596,"is_reserved":false,"is_disabled":false,"rental_uris":{"android":"levelo://app?vid=4ca4c199-2b71-4416-99ae-754c8af0d44a","ios":"levelo://app?vid=4ca4c199-2b71-4416-99ae-754c8af0d44a"},"vehicle_type_id":"4","last_reported":1692727681,"current_range_meters":10000,"station_id":"","pricing_plan_id":"free"},{"bike_id":"95dc9ecf-047e-4c3a-bb12-a5676cb36ad4","system_id":"levelo_inurba_marseille","lat":43.3216,"lon":5.38166,"is_reserved":false,"is_disabled":false,"rental_uris":{"android":"levelo://app?vid=95dc9ecf-047e-4c3a-bb12-a5676cb36ad4","ios":"levelo://app?vid=95dc9ecf-047e-4c3a-bb12-a5676cb36ad4"},"vehicle_type_id":"4","last_reported":1692727681,"current_range_meters":6400,"station_id":"","pricing_plan_id":"free"},{"bike_id":"b6c3388a-8e19-4d8f-91e7-638e0e00a45a","system_id":"levelo_inurba_marseille","lat":43.298433,"lon":5.362774,"is_reserved":false,"is_disabled":false,"rental_uris":{"android":"levelo://app?vid=b6c3388a-8e19-4d8f-91e7-638e0e00a45a","ios":"levelo://app?vid=b6c3388a-8e19-4d8f-91e7-638e0e00a45a"},"vehicle_type_id":"4","last_reported":1692727681,"current_range_meters":24800,"station_id":"ce4bgpp2rcd13ifvqc3g","pricing_plan_id":"free"},{"bike_id":"da4726a3-5c6f-4770-a20e-ce781e5bb87d","system_id":"levelo_inurba_marseille","lat":43.298433,"lon":5.362774,"is_reserved":false,"is_disabled":false,"rental_uris":{"android":"levelo://app?vid=da4726a3-5c6f-4770-a20e-ce781e5bb87d","ios":"levelo://app?vid=da4726a3-5c6f-4770-a20e-ce781e5bb87d"},"vehicle_type_id":"4","last_reported":1692727681,"current_range_meters":1200,"station_id":"ce4bgpp2rcd13ifvqc3g","pricing_plan_id":"free"},{"bike_id":"b885f463-e8c5-42cc-902f-7152167ce1c7","system_id":"levelo_inurba_marseille","lat":43.299243,"lon":5.37481,"is_reserved":false,"is_disabled":false,"rental_uris":{"android":"levelo://app?vid=b885f463-e8c5-42cc-902f-7152167ce1c7","ios":"levelo://app?vid=b885f463-e8c5-42cc-902f-7152167ce1c7"},"vehicle_type_id":"4","last_reported":1692727681,"current_range_meters":31600,"station_id":"ce4bgjh2rcd13ifvqbg0","pricing_plan_id":"free"},{"bike_id":"2f9e2def-2173-4eb4-a460-9a385f59debe","system_id":"levelo_inurba_marseille","lat":43.29912,"lon":5.37473,"is_reserved":false,"is_disabled":false,"rental_uris":{"android":"levelo://app?vid=2f9e2def-2173-4eb4-a460-9a385f59debe","ios":"levelo://app?vid=2f9e2def-2173-4eb4-a460-9a385f59debe"},"vehicle_type_id":"4","last_reported":1692727681,"current_range_meters":31200,"station_id":"ce4bgjh2rcd13ifvqbg0","pricing_plan_id":"free"},{"bike_id":"48773837-8a01-4137-95bb-600dc54ff51e","system_id":"levelo_inurba_marseille","lat":43.32295,"lon":5.38236,"is_reserved":false,"is_disabled":false,"rental_uris":{"android":"levelo://app?vid=48773837-8a01-4137-95bb-600dc54ff51e","ios":"levelo://app?vid=48773837-8a01-4137-95bb-600dc54ff51e"},"vehicle_type_id":"4","last_reported":1692727681,"current_range_meters":28000,"station_id":"ce4bhr12rcd13ifvqhqg","pricing_plan_id":"free"},{"bike_id":"eb70974a-c524-46d9-b5be-026bf2b9f1f4","system_id":"levelo_inurba_marseille","lat":43.32832,"lon":5.36696,"is_reserved":false,"is_disabled":false,"rental_uris":{"android":"levelo://app?vid=eb70974a-c524-46d9-b5be-026bf2b9f1f4","ios":"levelo://app?vid=eb70974a-c524-46d9-b5be-026bf2b9f1f4"},"vehicle_type_id":"4","last_reported":1692727681,"current_range_meters":20000,"station_id":"ce4bhs92rcd13ifvqi0g","pricing_plan_id":"free"},{"bike_id":"c4f64bda-f78b-44c7-8bdb-9d067cd420a4","system_id":"levelo_inurba_marseille","lat":43.32833,"lon":5.36677,"is_reserved":false,"is_disabled":false,"rental_uris":{"android":"levelo://app?vid=c4f64bda-f78b-44c7-8bdb-9d067cd420a4","ios":"levelo://app?vid=c4f64bda-f78b-44c7-8bdb-9d067cd420a4"},"vehicle_type_id":"4","last_reported":1692727681,"current_range_meters":24000,"station_id":"ce4bhs92rcd13ifvqi0g","pricing_plan_id":"free"},{"bike_id":"dd789220-e7b5-42c1-b9dc-dc4243148021","system_id":"levelo_inurba_marseille","lat":43.297163,"lon":5.365866,"is_reserved":false,"is_disabled":false,"rental_uris":{"android":"levelo://app?vid=dd789220-e7b5-42c1-b9dc-dc4243148021","ios":"levelo://app?vid=dd789220-e7b5-42c1-b9dc-dc4243148021"},"vehicle_type_id":"4","last_reported":1692727681,"current_range_meters":31600,"station_id":"ce4bgn12rcd13ifvqbt0","pricing_plan_id":"free"},{"bike_id":"a520c0e4-9a3e-4c8b-a582-27a7a0b5eb34","system_id":"levelo_inurba_marseille","lat":43.32847,"lon":5.36679,"is_reserved":false,"is_disabled":false,"rental_uris":{"android":"levelo://app?vid=a520c0e4-9a3e-4c8b-a582-27a7a0b5eb34","ios":"levelo://app?vid=a520c0e4-9a3e-4c8b-a582-27a7a0b5eb34"},"vehicle_type_id":"4","last_reported":1692727681,"current_range_meters":16400,"station_id":"ce4bhs92rcd13ifvqi0g","pricing_plan_id":"free"},{"bike_id":"d3139180-8ba9-4c91-b6e4-8baae3c22113","system_id":"levelo_inurba_marseille","lat":43.296131,"lon":5.370791,"is_reserved":false,"is_disabled":false,"rental_uris":{"android":"levelo://app?vid=d3139180-8ba9-4c91-b6e4-8baae3c22113","ios":"levelo://app?vid=d3139180-8ba9-4c91-b6e4-8baae3c22113"},"vehicle_type_id":"4","last_reported":1692727681,"current_range_meters":30400,"station_id":"ce4bgnh2rcd13ifvqc0g","pricing_plan_id":"free"},{"bike_id":"3b63129a-2e3e-4552-9cc9-b73d43c6eb41","system_id":"levelo_inurba_marseille","lat":43.296131,"lon":5.370791,"is_reserved":false,"is_disabled":false,"rental_uris":{"android":"levelo://app?vid=3b63129a-2e3e-4552-9cc9-b73d43c6eb41","ios":"levelo://app?vid=3b63129a-2e3e-4552-9cc9-b73d43c6eb41"},"vehicle_type_id":"4","last_reported":1692727681,"current_range_meters":6000,"station_id":"ce4bgnh2rcd13ifvqc0g","pricing_plan_id":"free"},{"bike_id":"bb155e93-116e-494a-9911-2df351c7dae8","system_id":"levelo_inurba_marseille","lat":43.29624,"lon":5.37164,"is_reserved":false,"is_disabled":false,"rental_uris":{"android":"levelo://app?vid=bb155e93-116e-494a-9911-2df351c7dae8","ios":"levelo://app?vid=bb155e93-116e-494a-9911-2df351c7dae8"},"vehicle_type_id":"4","last_reported":1692727681,"current_range_meters":28400,"station_id":"","pricing_plan_id":"free"},{"bike_id":"2229a92d-c57f-487c-b904-cc85ea63a0e8","system_id":"levelo_inurba_marseille","lat":43.29588,"lon":5.36743,"is_reserved":false,"is_disabled":false,"rental_uris":{"android":"levelo://app?vid=2229a92d-c57f-487c-b904-cc85ea63a0e8","ios":"levelo://app?vid=2229a92d-c57f-487c-b904-cc85ea63a0e8"},"vehicle_type_id":"4","last_reported":1692727681,"current_range_meters":31200,"station_id":"ce4bgph2rcd13ifvqc2g","pricing_plan_id":"free"},{"bike_id":"eddf1338-8ad1-42d7-bbb7-d3e39f3842ff","system_id":"levelo_inurba_marseille","lat":43.296935,"lon":5.376544,"is_reserved":false,"is_disabled":false,"rental_uris":{"android":"levelo://app?vid=eddf1338-8ad1-42d7-bbb7-d3e39f3842ff","ios":"levelo://app?vid=eddf1338-8ad1-42d7-bbb7-d3e39f3842ff"},"vehicle_type_id":"4","last_reported":1692727681,"current_range_meters":24800,"station_id":"ce4bgkh2rcd13ifvqbl0","pricing_plan_id":"free"},{"bike_id":"2c93ce6f-c5e1-4ec9-9941-ebb7469bb8f2","system_id":"levelo_inurba_marseille","lat":43.31742,"lon":5.39001,"is_reserved":false,"is_disabled":false,"rental_uris":{"android":"levelo://app?vid=2c93ce6f-c5e1-4ec9-9941-ebb7469bb8f2","ios":"levelo://app?vid=2c93ce6f-c5e1-4ec9-9941-ebb7469bb8f2"},"vehicle_type_id":"4","last_reported":1692727681,"current_range_meters":26400,"station_id":"ce4bhqp2rcd13ifvqhng","pricing_plan_id":"free"},{"bike_id":"10d49767-eeb5-4e3d-998d-c554e6e933ef","system_id":"levelo_inurba_marseille","lat":43.31755,"lon":5.39018,"is_reserved":false,"is_disabled":false,"rental_uris":{"android":"levelo://app?vid=10d49767-eeb5-4e3d-998d-c554e6e933ef","ios":"levelo://app?vid=10d49767-eeb5-4e3d-998d-c554e6e933ef"},"vehicle_type_id":"4","last_reported":1692727681,"current_range_meters":22800,"station_id":"ce4bhqp2rcd13ifvqhng","pricing_plan_id":"free"},{"bike_id":"ffa3e0c1-2ecd-4476-a762-b42ace7f3e51","system_id":"levelo_inurba_marseille","lat":43.317543,"lon":5.390194,"is_reserved":false,"is_disabled":false,"rental_uris":{"android":"levelo://app?vid=ffa3e0c1-2ecd-4476-a762-b42ace7f3e51","ios":"levelo://app?vid=ffa3e0c1-2ecd-4476-a762-b42ace7f3e51"},"vehicle_type_id":"4","last_reported":1692727681,"current_range_meters":800,"station_id":"","pricing_plan_id":"free"},{"bike_id":"bd99e42a-87d7-4802-ab36-46bf8f163bda","system_id":"levelo_inurba_marseille","lat":43.317557,"lon":5.390173,"is_reserved":false,"is_disabled":false,"rental_uris":{"android":"levelo://app?vid=bd99e42a-87d7-4802-ab36-46bf8f163bda","ios":"levelo://app?vid=bd99e42a-87d7-4802-ab36-46bf8f163bda"},"vehicle_type_id":"4","last_reported":1692727681,"current_range_meters":0,"station_id":"ce4bhqp2rcd13ifvqhng","pricing_plan_id":"free"},{"bike_id":"952a19e7-6602-41c3-942f-79cfb514366f","system_id":"levelo_inurba_marseille","lat":43.29804,"lon":5.38078,"is_reserved":false,"is_disabled":false,"rental_uris":{"android":"levelo://app?vid=952a19e7-6602-41c3-942f-79cfb514366f","ios":"levelo://app?vid=952a19e7-6602-41c3-942f-79cfb514366f"},"vehicle_type_id":"4","last_reported":1692727681,"current_range_meters":27600,"station_id":"ce4bgip2rcd13ifvqbb0","pricing_plan_id":"free"},{"bike_id":"a4df99ce-0488-49dd-a888-94686f562e88","system_id":"levelo_inurba_marseille","lat":43.295748,"lon":5.37522,"is_reserved":false,"is_disabled":false,"rental_uris":{"android":"levelo://app?vid=a4df99ce-0488-49dd-a888-94686f562e88","ios":"levelo://app?vid=a4df99ce-0488-49dd-a888-94686f562e88"},"vehicle_type_id":"4","last_reported":1692727681,"current_range_meters":30000,"station_id":"ce4bgh92rcd13ifvqb50","pricing_plan_id":"free"},{"bike_id":"b4c5d4ac-53db-4152-9356-b0473da9b3ed","system_id":"levelo_inurba_marseille","lat":43.296277,"lon":5.377108,"is_reserved":false,"is_disabled":false,"rental_uris":{"android":"levelo://app?vid=b4c5d4ac-53db-4152-9356-b0473da9b3ed","ios":"levelo://app?vid=b4c5d4ac-53db-4152-9356-b0473da9b3ed"},"vehicle_type_id":"4","last_reported":1692727681,"current_range_meters":4800,"station_id":"ce4bgi92rcd13ifvqb90","pricing_plan_id":"free"},{"bike_id":"26dfe9cb-dc83-4a96-b98f-37a14e268d42","system_id":"levelo_inurba_marseille","lat":43.296921,"lon":5.376579,"is_reserved":false,"is_disabled":false,"rental_uris":{"android":"levelo://app?vid=26dfe9cb-dc83-4a96-b98f-37a14e268d42","ios":"levelo://app?vid=26dfe9cb-dc83-4a96-b98f-37a14e268d42"},"vehicle_type_id":"4","last_reported":1692727681,"current_range_meters":11600,"station_id":"ce4bgkh2rcd13ifvqbl0","pricing_plan_id":"free"},{"bike_id":"d8519647-19ce-4c78-b0d1-6a2314908389","system_id":"levelo_inurba_marseille","lat":43.31901,"lon":5.39174,"is_reserved":false,"is_disabled":false,"rental_uris":{"android":"levelo://app?vid=d8519647-19ce-4c78-b0d1-6a2314908389","ios":"levelo://app?vid=d8519647-19ce-4c78-b0d1-6a2314908389"},"vehicle_type_id":"4","last_reported":1692727681,"current_range_meters":26000,"station_id":"","pricing_plan_id":"free"},{"bike_id":"00883cd9-a56a-4720-bb55-237d0136a4a1","system_id":"levelo_inurba_marseille","lat":43.32367,"lon":5.38877,"is_reserved":false,"is_disabled":false,"rental_uris":{"android":"levelo://app?vid=00883cd9-a56a-4720-bb55-237d0136a4a1","ios":"levelo://app?vid=00883cd9-a56a-4720-bb55-237d0136a4a1"},"vehicle_type_id":"4","last_reported":1692727681,"current_range_meters":12800,"station_id":"ce4bhqp2rcd13ifvqhog","pricing_plan_id":"free"},{"bike_id":"9de1e66b-fe90-41db-a5a1-8faf89baecda","system_id":"levelo_inurba_marseille","lat":43.32367,"lon":5.38885,"is_reserved":false,"is_disabled":false,"rental_uris":{"android":"levelo://app?vid=9de1e66b-fe90-41db-a5a1-8faf89baecda","ios":"levelo://app?vid=9de1e66b-fe90-41db-a5a1-8faf89baecda"},"vehicle_type_id":"4","last_reported":1692727681,"current_range_meters":14400,"station_id":"ce4bhqp2rcd13ifvqhog","pricing_plan_id":"free"},{"bike_id":"410077a4-c5c3-4496-af36-8c42d253e608","system_id":"levelo_inurba_marseille","lat":43.29309,"lon":5.37164,"is_reserved":false,"is_disabled":false,"rental_uris":{"android":"levelo://app?vid=410077a4-c5c3-4496-af36-8c42d253e608","ios":"levelo://app?vid=410077a4-c5c3-4496-af36-8c42d253e608"},"vehicle_type_id":"4","last_reported":1692727681,"current_range_meters":4000,"station_id":"ce4bgh92rcd13ifvqb40","pricing_plan_id":"free"},{"bike_id":"dbdff617-f9e3-46c6-a253-cde62abb5f4c","system_id":"levelo_inurba_marseille","lat":43.292749,"lon":5.368402,"is_reserved":false,"is_disabled":false,"rental_uris":{"android":"levelo://app?vid=dbdff617-f9e3-46c6-a253-cde62abb5f4c","ios":"levelo://app?vid=dbdff617-f9e3-46c6-a253-cde62abb5f4c"},"vehicle_type_id":"4","last_reported":1692727681,"current_range_meters":30000,"station_id":"ce4bhbp2rcd13ifvqesg","pricing_plan_id":"free"},{"bike_id":"b8612d29-5782-48f8-b848-99ddd89ba415","system_id":"levelo_inurba_marseille","lat":43.292749,"lon":5.368402,"is_reserved":false,"is_disabled":false,"rental_uris":{"android":"levelo://app?vid=b8612d29-5782-48f8-b848-99ddd89ba415","ios":"levelo://app?vid=b8612d29-5782-48f8-b848-99ddd89ba415"},"vehicle_type_id":"4","last_reported":1692727681,"current_range_meters":17600,"station_id":"ce4bhbp2rcd13ifvqesg","pricing_plan_id":"free"},{"bike_id":"d662b986-111c-4da8-8784-f6cb7043e260","system_id":"levelo_inurba_marseille","lat":43.293,"lon":5.37177,"is_reserved":false,"is_disabled":false,"rental_uris":{"android":"levelo://app?vid=d662b986-111c-4da8-8784-f6cb7043e260","ios":"levelo://app?vid=d662b986-111c-4da8-8784-f6cb7043e260"},"vehicle_type_id":"4","last_reported":1692727681,"current_range_meters":25600,"station_id":"ce4bgh92rcd13ifvqb40","pricing_plan_id":"free"},{"bike_id":"4ba49f4a-9136-494d-906a-4c7deac20f4a","system_id":"levelo_inurba_marseille","lat":43.29241,"lon":5.36468,"is_reserved":false,"is_disabled":false,"rental_uris":{"android":"levelo://app?vid=4ba49f4a-9136-494d-906a-4c7deac20f4a","ios":"levelo://app?vid=4ba49f4a-9136-494d-906a-4c7deac20f4a"},"vehicle_type_id":"4","last_reported":1692727681,"current_range_meters":1200,"station_id":"","pricing_plan_id":"free"},{"bike_id":"38fef587-7cc5-4800-b069-87b8f296a10a","system_id":"levelo_inurba_marseille","lat":43.29286,"lon":5.37476,"is_reserved":false,"is_disabled":false,"rental_uris":{"android":"levelo://app?vid=38fef587-7cc5-4800-b069-87b8f296a10a","ios":"levelo://app?vid=38fef587-7cc5-4800-b069-87b8f296a10a"},"vehicle_type_id":"4","last_reported":1692727681,"current_range_meters":31200,"station_id":"ce4bgi12rcd13ifvqb70","pricing_plan_id":"free"},{"bike_id":"ac6fe617-e108-489e-8eee-37c1a470c8b7","system_id":"levelo_inurba_marseille","lat":43.30307,"lon":5.39209,"is_reserved":false,"is_disabled":false,"rental_uris":{"android":"levelo://app?vid=ac6fe617-e108-489e-8eee-37c1a470c8b7","ios":"levelo://app?vid=ac6fe617-e108-489e-8eee-37c1a470c8b7"},"vehicle_type_id":"4","last_reported":1692727681,"current_range_meters":0,"station_id":"ce4bgkh2rcd13ifvqbk0","pricing_plan_id":"free"},{"bike_id":"0724f352-a262-45b7-9b71-9a09ff17d945","system_id":"levelo_inurba_marseille","lat":43.30301,"lon":5.39207,"is_reserved":false,"is_disabled":false,"rental_uris":{"android":"levelo://app?vid=0724f352-a262-45b7-9b71-9a09ff17d945","ios":"levelo://app?vid=0724f352-a262-45b7-9b71-9a09ff17d945"},"vehicle_type_id":"4","last_reported":1692727681,"current_range_meters":30800,"station_id":"ce4bgkh2rcd13ifvqbk0","pricing_plan_id":"free"},{"bike_id":"92a15fb4-4829-46b6-b18d-667b169412c4","system_id":"levelo_inurba_marseille","lat":43.2937,"lon":5.37843,"is_reserved":false,"is_disabled":false,"rental_uris":{"android":"levelo://app?vid=92a15fb4-4829-46b6-b18d-667b169412c4","ios":"levelo://app?vid=92a15fb4-4829-46b6-b18d-667b169412c4"},"vehicle_type_id":"4","last_reported":1692727681,"current_range_meters":0,"station_id":"ce4bgjh2rcd13ifvqbf0","pricing_plan_id":"free"},{"bike_id":"16b7a58a-46de-4152-ad94-30a31560d3e5","system_id":"levelo_inurba_marseille","lat":43.300852,"lon":5.390859,"is_reserved":false,"is_disabled":false,"rental_uris":{"android":"levelo://app?vid=16b7a58a-46de-4152-ad94-30a31560d3e5","ios":"levelo://app?vid=16b7a58a-46de-4152-ad94-30a31560d3e5"},"vehicle_type_id":"4","last_reported":1692727681,"current_range_meters":2000,"station_id":"ce4bh192rcd13ifvqdb0","pricing_plan_id":"free"},{"bike_id":"91eaa53d-9b9c-44cd-b6f7-b14221482ac7","system_id":"levelo_inurba_marseille","lat":43.29891,"lon":5.38893,"is_reserved":false,"is_disabled":false,"rental_uris":{"android":"levelo://app?vid=91eaa53d-9b9c-44cd-b6f7-b14221482ac7","ios":"levelo://app?vid=91eaa53d-9b9c-44cd-b6f7-b14221482ac7"},"vehicle_type_id":"4","last_reported":1692727681,"current_range_meters":800,"station_id":"ce4bh392rcd13ifvqdl0","pricing_plan_id":"free"},{"bike_id":"40b43f2b-3479-4305-891e-ca11a078d717","system_id":"levelo_inurba_marseille","lat":43.291671,"lon":5.371575,"is_reserved":false,"is_disabled":false,"rental_uris":{"android":"levelo://app?vid=40b43f2b-3479-4305-891e-ca11a078d717","ios":"levelo://app?vid=40b43f2b-3479-4305-891e-ca11a078d717"},"vehicle_type_id":"4","last_reported":1692727681,"current_range_meters":11200,"station_id":"ce4bha92rcd13ifvqeh0","pricing_plan_id":"free"},{"bike_id":"afecb046-5119-4e49-8746-60be8973c22c","system_id":"levelo_inurba_marseille","lat":43.29171,"lon":5.37164,"is_reserved":false,"is_disabled":false,"rental_uris":{"android":"levelo://app?vid=afecb046-5119-4e49-8746-60be8973c22c","ios":"levelo://app?vid=afecb046-5119-4e49-8746-60be8973c22c"},"vehicle_type_id":"4","last_reported":1692727681,"current_range_meters":0,"station_id":"","pricing_plan_id":"free"},{"bike_id":"dd0d2845-8d93-4d39-ba72-927242b336b3","system_id":"levelo_inurba_marseille","lat":43.298764,"lon":5.388973,"is_reserved":false,"is_disabled":false,"rental_uris":{"android":"levelo://app?vid=dd0d2845-8d93-4d39-ba72-927242b336b3","ios":"levelo://app?vid=dd0d2845-8d93-4d39-ba72-927242b336b3"},"vehicle_type_id":"4","last_reported":1692727681,"current_range_meters":16800,"station_id":"ce4bh392rcd13ifvqdl0","pricing_plan_id":"free"},{"bike_id":"e6803843-7cb6-44f7-8915-7e931170505a","system_id":"levelo_inurba_marseille","lat":43.291675,"lon":5.371583,"is_reserved":false,"is_disabled":false,"rental_uris":{"android":"levelo://app?vid=e6803843-7cb6-44f7-8915-7e931170505a","ios":"levelo://app?vid=e6803843-7cb6-44f7-8915-7e931170505a"},"vehicle_type_id":"4","last_reported":1692727681,"current_range_meters":0,"station_id":"ce4bha92rcd13ifvqeh0","pricing_plan_id":"free"},{"bike_id":"e8598d05-f74d-4ed6-8cf8-c05b2dbf8dbb","system_id":"levelo_inurba_marseille","lat":43.309038,"lon":5.396546,"is_reserved":false,"is_disabled":false,"rental_uris":{"android":"levelo://app?vid=e8598d05-f74d-4ed6-8cf8-c05b2dbf8dbb","ios":"levelo://app?vid=e8598d05-f74d-4ed6-8cf8-c05b2dbf8dbb"},"vehicle_type_id":"4","last_reported":1692727681,"current_range_meters":1600,"station_id":"ce4bh012rcd13ifvqcv0","pricing_plan_id":"free"},{"bike_id":"9f6226cc-4cfd-4a16-b65e-13c897ea3556","system_id":"levelo_inurba_marseille","lat":43.309038,"lon":5.396546,"is_reserved":false,"is_disabled":false,"rental_uris":{"android":"levelo://app?vid=9f6226cc-4cfd-4a16-b65e-13c897ea3556","ios":"levelo://app?vid=9f6226cc-4cfd-4a16-b65e-13c897ea3556"},"vehicle_type_id":"4","last_reported":1692727681,"current_range_meters":14400,"station_id":"ce4bh012rcd13ifvqcv0","pricing_plan_id":"free"},{"bike_id":"c9381d18-0f91-4410-bc95-4d4c440af691","system_id":"levelo_inurba_marseille","lat":43.3133,"lon":5.3969,"is_reserved":false,"is_disabled":false,"rental_uris":{"android":"levelo://app?vid=c9381d18-0f91-4410-bc95-4d4c440af691","ios":"levelo://app?vid=c9381d18-0f91-4410-bc95-4d4c440af691"},"vehicle_type_id":"4","last_reported":1692727681,"current_range_meters":4800,"station_id":"ce4bgvp2rcd13ifvqcu0","pricing_plan_id":"free"},{"bike_id":"c2c7325d-f586-4f91-863c-e0be5f7ef952","system_id":"levelo_inurba_marseille","lat":43.2919,"lon":5.35792,"is_reserved":false,"is_disabled":false,"rental_uris":{"android":"levelo://app?vid=c2c7325d-f586-4f91-863c-e0be5f7ef952","ios":"levelo://app?vid=c2c7325d-f586-4f91-863c-e0be5f7ef952"},"vehicle_type_id":"4","last_reported":1692727681,"current_range_meters":30800,"station_id":"ce4bhb12rcd13ifvqel0","pricing_plan_id":"free"},{"bike_id":"80c9e9b6-d3df-4a95-bdf8-885c7ddc74af","system_id":"levelo_inurba_marseille","lat":43.30889,"lon":5.39659,"is_reserved":false,"is_disabled":false,"rental_uris":{"android":"levelo://app?vid=80c9e9b6-d3df-4a95-bdf8-885c7ddc74af","ios":"levelo://app?vid=80c9e9b6-d3df-4a95-bdf8-885c7ddc74af"},"vehicle_type_id":"4","last_reported":1692727681,"current_range_meters":0,"station_id":"ce4bh012rcd13ifvqcv0","pricing_plan_id":"free"},{"bike_id":"6800ee44-7fdb-4a92-bde4-0a004f71ad8b","system_id":"levelo_inurba_marseille","lat":43.30881,"lon":5.39659,"is_reserved":false,"is_disabled":false,"rental_uris":{"android":"levelo://app?vid=6800ee44-7fdb-4a92-bde4-0a004f71ad8b","ios":"levelo://app?vid=6800ee44-7fdb-4a92-bde4-0a004f71ad8b"},"vehicle_type_id":"4","last_reported":1692727681,"current_range_meters":24000,"station_id":"ce4bh012rcd13ifvqcv0","pricing_plan_id":"free"},{"bike_id":"54564148-3927-4c7f-b1ed-dee703ac1054","system_id":"levelo_inurba_marseille","lat":43.29529,"lon":5.385581,"is_reserved":false,"is_disabled":false,"rental_uris":{"android":"levelo://app?vid=54564148-3927-4c7f-b1ed-dee703ac1054","ios":"levelo://app?vid=54564148-3927-4c7f-b1ed-dee703ac1054"},"vehicle_type_id":"4","last_reported":1692727681,"current_range_meters":15200,"station_id":"ce4bgih2rcd13ifvqba0","pricing_plan_id":"free"},{"bike_id":"1cf076bb-b04c-42c6-a654-dd47f5f8e9ab","system_id":"levelo_inurba_marseille","lat":43.29529,"lon":5.385581,"is_reserved":false,"is_disabled":false,"rental_uris":{"android":"levelo://app?vid=1cf076bb-b04c-42c6-a654-dd47f5f8e9ab","ios":"levelo://app?vid=1cf076bb-b04c-42c6-a654-dd47f5f8e9ab"},"vehicle_type_id":"4","last_reported":1692727681,"current_range_meters":3200,"station_id":"ce4bgih2rcd13ifvqba0","pricing_plan_id":"free"},{"bike_id":"3c10ae3d-12a5-4c6a-8917-0ecfc922336a","system_id":"levelo_inurba_marseille","lat":43.290779,"lon":5.371482,"is_reserved":false,"is_disabled":false,"rental_uris":{"android":"levelo://app?vid=3c10ae3d-12a5-4c6a-8917-0ecfc922336a","ios":"levelo://app?vid=3c10ae3d-12a5-4c6a-8917-0ecfc922336a"},"vehicle_type_id":"4","last_reported":1692727681,"current_range_meters":1600,"station_id":"ce4bh5p2rcd13ifvqe4g","pricing_plan_id":"free"},{"bike_id":"39b5b5cf-86ef-48ea-a176-58e554756417","system_id":"levelo_inurba_marseille","lat":43.302008,"lon":5.394694,"is_reserved":false,"is_disabled":false,"rental_uris":{"android":"levelo://app?vid=39b5b5cf-86ef-48ea-a176-58e554756417","ios":"levelo://app?vid=39b5b5cf-86ef-48ea-a176-58e554756417"},"vehicle_type_id":"4","last_reported":1692727681,"current_range_meters":31600,"station_id":"ce4bh0p2rcd13ifvqd70","pricing_plan_id":"free"},{"bike_id":"998cb4f4-59c3-4100-bece-641bbd90a841","system_id":"levelo_inurba_marseille","lat":43.29046,"lon":5.35915,"is_reserved":false,"is_disabled":false,"rental_uris":{"android":"levelo://app?vid=998cb4f4-59c3-4100-bece-641bbd90a841","ios":"levelo://app?vid=998cb4f4-59c3-4100-bece-641bbd90a841"},"vehicle_type_id":"4","last_reported":1692727681,"current_range_meters":0,"station_id":"ce4bha92rcd13ifvqeg0","pricing_plan_id":"free"},{"bike_id":"460fbd12-6a02-45f2-b433-5c7b75fd29b8","system_id":"levelo_inurba_marseille","lat":43.2904,"lon":5.359,"is_reserved":false,"is_disabled":false,"rental_uris":{"android":"levelo://app?vid=460fbd12-6a02-45f2-b433-5c7b75fd29b8","ios":"levelo://app?vid=460fbd12-6a02-45f2-b433-5c7b75fd29b8"},"vehicle_type_id":"4","last_reported":1692727681,"current_range_meters":11600,"station_id":"ce4bha92rcd13ifvqeg0","pricing_plan_id":"free"},{"bike_id":"6607e382-3d0b-41b2-90d4-1564bcdf8fe2","system_id":"levelo_inurba_marseille","lat":43.289184,"lon":5.366408,"is_reserved":false,"is_disabled":false,"rental_uris":{"android":"levelo://app?vid=6607e382-3d0b-41b2-90d4-1564bcdf8fe2","ios":"levelo://app?vid=6607e382-3d0b-41b2-90d4-1564bcdf8fe2"},"vehicle_type_id":"4","last_reported":1692727681,"current_range_meters":3600,"station_id":"ce4bhap2rcd13ifvqek0","pricing_plan_id":"free"},{"bike_id":"b94dd15b-a79b-4c3f-b339-9c1dbc2b2845","system_id":"levelo_inurba_marseille","lat":43.289468,"lon":5.363719,"is_reserved":false,"is_disabled":false,"rental_uris":{"android":"levelo://app?vid=b94dd15b-a79b-4c3f-b339-9c1dbc2b2845","ios":"levelo://app?vid=b94dd15b-a79b-4c3f-b339-9c1dbc2b2845"},"vehicle_type_id":"4","last_reported":1692727681,"current_range_meters":22000,"station_id":"ce4bhc92rcd13ifvqetg","pricing_plan_id":"free"},{"bike_id":"1d5ff5e8-64e4-43c0-b471-f0c4824d5829","system_id":"levelo_inurba_marseille","lat":43.28929,"lon":5.36631,"is_reserved":false,"is_disabled":false,"rental_uris":{"android":"levelo://app?vid=1d5ff5e8-64e4-43c0-b471-f0c4824d5829","ios":"levelo://app?vid=1d5ff5e8-64e4-43c0-b471-f0c4824d5829"},"vehicle_type_id":"4","last_reported":1692727681,"current_range_meters":16000,"station_id":"ce4bhap2rcd13ifvqek0","pricing_plan_id":"free"},{"bike_id":"f85d8c2b-c09f-4e16-8213-ee7ffc2a88b5","system_id":"levelo_inurba_marseille","lat":43.289468,"lon":5.363719,"is_reserved":false,"is_disabled":false,"rental_uris":{"android":"levelo://app?vid=f85d8c2b-c09f-4e16-8213-ee7ffc2a88b5","ios":"levelo://app?vid=f85d8c2b-c09f-4e16-8213-ee7ffc2a88b5"},"vehicle_type_id":"4","last_reported":1692727681,"current_range_meters":27200,"station_id":"ce4bhc92rcd13ifvqetg","pricing_plan_id":"free"},{"bike_id":"303e84e1-4d05-454a-b6b5-56142241a967","system_id":"levelo_inurba_marseille","lat":43.292644,"lon":5.384257,"is_reserved":false,"is_disabled":false,"rental_uris":{"android":"levelo://app?vid=303e84e1-4d05-454a-b6b5-56142241a967","ios":"levelo://app?vid=303e84e1-4d05-454a-b6b5-56142241a967"},"vehicle_type_id":"4","last_reported":1692727681,"current_range_meters":10800,"station_id":"ce4bh692rcd13ifvqea0","pricing_plan_id":"free"},{"bike_id":"24ed973c-ca74-432f-a18f-76ac93ae52fb","system_id":"levelo_inurba_marseille","lat":43.304296,"lon":5.397513,"is_reserved":false,"is_disabled":false,"rental_uris":{"android":"levelo://app?vid=24ed973c-ca74-432f-a18f-76ac93ae52fb","ios":"levelo://app?vid=24ed973c-ca74-432f-a18f-76ac93ae52fb"},"vehicle_type_id":"4","last_reported":1692727681,"current_range_meters":8800,"station_id":"ce4bh092rcd13ifvqd20","pricing_plan_id":"free"},{"bike_id":"d220265d-f337-4c0e-888d-4f2162e35376","system_id":"levelo_inurba_marseille","lat":43.304296,"lon":5.397513,"is_reserved":false,"is_disabled":false,"rental_uris":{"android":"levelo://app?vid=d220265d-f337-4c0e-888d-4f2162e35376","ios":"levelo://app?vid=d220265d-f337-4c0e-888d-4f2162e35376"},"vehicle_type_id":"4","last_reported":1692727681,"current_range_meters":16000,"station_id":"ce4bh092rcd13ifvqd20","pricing_plan_id":"free"},{"bike_id":"e0d9a4c3-45a4-4be5-a88f-de4a6135f702","system_id":"levelo_inurba_marseille","lat":43.2926,"lon":5.38437,"is_reserved":false,"is_disabled":false,"rental_uris":{"android":"levelo://app?vid=e0d9a4c3-45a4-4be5-a88f-de4a6135f702","ios":"levelo://app?vid=e0d9a4c3-45a4-4be5-a88f-de4a6135f702"},"vehicle_type_id":"4","last_reported":1692727681,"current_range_meters":19200,"station_id":"","pricing_plan_id":"free"},{"bike_id":"0f060318-14ff-4bbb-b1bd-d3bad0d20b4a","system_id":"levelo_inurba_marseille","lat":43.33039,"lon":5.3892,"is_reserved":false,"is_disabled":false,"rental_uris":{"android":"levelo://app?vid=0f060318-14ff-4bbb-b1bd-d3bad0d20b4a","ios":"levelo://app?vid=0f060318-14ff-4bbb-b1bd-d3bad0d20b4a"},"vehicle_type_id":"4","last_reported":1692727681,"current_range_meters":13600,"station_id":"ce4bhr92rcd13ifvqhrg","pricing_plan_id":"free"},{"bike_id":"3edec34c-b5e0-4c51-b916-cb7b6255aa81","system_id":"levelo_inurba_marseille","lat":43.3304,"lon":5.38921,"is_reserved":false,"is_disabled":false,"rental_uris":{"android":"levelo://app?vid=3edec34c-b5e0-4c51-b916-cb7b6255aa81","ios":"levelo://app?vid=3edec34c-b5e0-4c51-b916-cb7b6255aa81"},"vehicle_type_id":"4","last_reported":1692727681,"current_range_meters":16000,"station_id":"ce4bhr92rcd13ifvqhrg","pricing_plan_id":"free"},{"bike_id":"7691d65d-d321-467f-86e8-b26ac6013c5b","system_id":"levelo_inurba_marseille","lat":43.33043,"lon":5.38917,"is_reserved":false,"is_disabled":false,"rental_uris":{"android":"levelo://app?vid=7691d65d-d321-467f-86e8-b26ac6013c5b","ios":"levelo://app?vid=7691d65d-d321-467f-86e8-b26ac6013c5b"},"vehicle_type_id":"4","last_reported":1692727681,"current_range_meters":28000,"station_id":"ce4bhr92rcd13ifvqhrg","pricing_plan_id":"free"},{"bike_id":"b0e0ae0a-2bc1-4a56-890f-24dc2485e7d8","system_id":"levelo_inurba_marseille","lat":43.33041,"lon":5.38921,"is_reserved":false,"is_disabled":false,"rental_uris":{"android":"levelo://app?vid=b0e0ae0a-2bc1-4a56-890f-24dc2485e7d8","ios":"levelo://app?vid=b0e0ae0a-2bc1-4a56-890f-24dc2485e7d8"},"vehicle_type_id":"4","last_reported":1692727681,"current_range_meters":25200,"station_id":"ce4bhr92rcd13ifvqhrg","pricing_plan_id":"free"},{"bike_id":"ea2c072a-c599-4cb1-a67c-c82011d9d932","system_id":"levelo_inurba_marseille","lat":43.330449,"lon":5.389181,"is_reserved":false,"is_disabled":false,"rental_uris":{"android":"levelo://app?vid=ea2c072a-c599-4cb1-a67c-c82011d9d932","ios":"levelo://app?vid=ea2c072a-c599-4cb1-a67c-c82011d9d932"},"vehicle_type_id":"4","last_reported":1692727681,"current_range_meters":400,"station_id":"ce4bhr92rcd13ifvqhrg","pricing_plan_id":"free"},{"bike_id":"c49c4045-dd00-4af4-8dc0-2380409c85e6","system_id":"levelo_inurba_marseille","lat":43.290103,"lon":5.356114,"is_reserved":false,"is_disabled":false,"rental_uris":{"android":"levelo://app?vid=c49c4045-dd00-4af4-8dc0-2380409c85e6","ios":"levelo://app?vid=c49c4045-dd00-4af4-8dc0-2380409c85e6"},"vehicle_type_id":"4","last_reported":1692727681,"current_range_meters":9600,"station_id":"ce4bhb92rcd13ifvqen0","pricing_plan_id":"free"},{"bike_id":"e0185c0a-3342-4973-98a8-d4a1b4fdfa6d","system_id":"levelo_inurba_marseille","lat":43.295169,"lon":5.390426,"is_reserved":false,"is_disabled":false,"rental_uris":{"android":"levelo://app?vid=e0185c0a-3342-4973-98a8-d4a1b4fdfa6d","ios":"levelo://app?vid=e0185c0a-3342-4973-98a8-d4a1b4fdfa6d"},"vehicle_type_id":"4","last_reported":1692727681,"current_range_meters":2000,"station_id":"ce4bh3p2rcd13ifvqdp0","pricing_plan_id":"free"},{"bike_id":"a9a8ec7b-b306-4d31-b01b-b1974e88ebed","system_id":"levelo_inurba_marseille","lat":43.295169,"lon":5.390426,"is_reserved":false,"is_disabled":false,"rental_uris":{"android":"levelo://app?vid=a9a8ec7b-b306-4d31-b01b-b1974e88ebed","ios":"levelo://app?vid=a9a8ec7b-b306-4d31-b01b-b1974e88ebed"},"vehicle_type_id":"4","last_reported":1692727681,"current_range_meters":12000,"station_id":"ce4bh3p2rcd13ifvqdp0","pricing_plan_id":"free"},{"bike_id":"acb76973-b0e9-4fd5-b177-bc7ca6152ebf","system_id":"levelo_inurba_marseille","lat":43.309371,"lon":5.401449,"is_reserved":false,"is_disabled":false,"rental_uris":{"android":"levelo://app?vid=acb76973-b0e9-4fd5-b177-bc7ca6152ebf","ios":"levelo://app?vid=acb76973-b0e9-4fd5-b177-bc7ca6152ebf"},"vehicle_type_id":"4","last_reported":1692727681,"current_range_meters":0,"station_id":"ce4bgvp2rcd13ifvqct0","pricing_plan_id":"free"},{"bike_id":"b5e81349-9ae3-4214-956e-08578433a1fb","system_id":"levelo_inurba_marseille","lat":43.295169,"lon":5.390426,"is_reserved":false,"is_disabled":false,"rental_uris":{"android":"levelo://app?vid=b5e81349-9ae3-4214-956e-08578433a1fb","ios":"levelo://app?vid=b5e81349-9ae3-4214-956e-08578433a1fb"},"vehicle_type_id":"4","last_reported":1692727681,"current_range_meters":8400,"station_id":"ce4bh3p2rcd13ifvqdp0","pricing_plan_id":"free"},{"bike_id":"b8d63eea-de05-43f6-9ab0-067d2835ec7a","system_id":"levelo_inurba_marseille","lat":43.29026,"lon":5.38132,"is_reserved":false,"is_disabled":false,"rental_uris":{"android":"levelo://app?vid=b8d63eea-de05-43f6-9ab0-067d2835ec7a","ios":"levelo://app?vid=b8d63eea-de05-43f6-9ab0-067d2835ec7a"},"vehicle_type_id":"4","last_reported":1692727681,"current_range_meters":25200,"station_id":"ce4bh4p2rcd13ifvqe1g","pricing_plan_id":"free"},{"bike_id":"49901d5b-513a-407e-8462-9e969577c0ab","system_id":"levelo_inurba_marseille","lat":43.28856,"lon":5.358371,"is_reserved":false,"is_disabled":false,"rental_uris":{"android":"levelo://app?vid=49901d5b-513a-407e-8462-9e969577c0ab","ios":"levelo://app?vid=49901d5b-513a-407e-8462-9e969577c0ab"},"vehicle_type_id":"4","last_reported":1692727681,"current_range_meters":5600,"station_id":"ce4bhb12rcd13ifvqem0","pricing_plan_id":"free"},{"bike_id":"36eda03e-7b3d-451e-bf55-f29715b995f8","system_id":"levelo_inurba_marseille","lat":43.28856,"lon":5.358371,"is_reserved":false,"is_disabled":false,"rental_uris":{"android":"levelo://app?vid=36eda03e-7b3d-451e-bf55-f29715b995f8","ios":"levelo://app?vid=36eda03e-7b3d-451e-bf55-f29715b995f8"},"vehicle_type_id":"4","last_reported":1692727681,"current_range_meters":28000,"station_id":"ce4bhb12rcd13ifvqem0","pricing_plan_id":"free"},{"bike_id":"9547a6d5-f17e-4996-8101-cb492e4a1f14","system_id":"levelo_inurba_marseille","lat":43.28856,"lon":5.358371,"is_reserved":false,"is_disabled":false,"rental_uris":{"android":"levelo://app?vid=9547a6d5-f17e-4996-8101-cb492e4a1f14","ios":"levelo://app?vid=9547a6d5-f17e-4996-8101-cb492e4a1f14"},"vehicle_type_id":"4","last_reported":1692727681,"current_range_meters":13200,"station_id":"ce4bhb12rcd13ifvqem0","pricing_plan_id":"free"},{"bike_id":"90e068d0-604a-4aaf-baca-512c969ade84","system_id":"levelo_inurba_marseille","lat":43.337677,"lon":5.374546,"is_reserved":false,"is_disabled":false,"rental_uris":{"android":"levelo://app?vid=90e068d0-604a-4aaf-baca-512c969ade84","ios":"levelo://app?vid=90e068d0-604a-4aaf-baca-512c969ade84"},"vehicle_type_id":"4","last_reported":1692727681,"current_range_meters":31200,"station_id":"","pricing_plan_id":"free"},{"bike_id":"408ce6bc-5826-4f37-ab38-abec16aac8cb","system_id":"levelo_inurba_marseille","lat":43.301117,"lon":5.398795,"is_reserved":false,"is_disabled":false,"rental_uris":{"android":"levelo://app?vid=408ce6bc-5826-4f37-ab38-abec16aac8cb","ios":"levelo://app?vid=408ce6bc-5826-4f37-ab38-abec16aac8cb"},"vehicle_type_id":"4","last_reported":1692727681,"current_range_meters":10800,"station_id":"ce4bh0h2rcd13ifvqd40","pricing_plan_id":"free"},{"bike_id":"75199276-b705-4ad7-b6a9-49aeaa84628a","system_id":"levelo_inurba_marseille","lat":43.286591,"lon":5.363346,"is_reserved":false,"is_disabled":false,"rental_uris":{"android":"levelo://app?vid=75199276-b705-4ad7-b6a9-49aeaa84628a","ios":"levelo://app?vid=75199276-b705-4ad7-b6a9-49aeaa84628a"},"vehicle_type_id":"4","last_reported":1692727681,"current_range_meters":30400,"station_id":"ce4bhah2rcd13ifvqej0","pricing_plan_id":"free"},{"bike_id":"05bc30d4-2a2b-43c5-8b46-98ca90fc775b","system_id":"levelo_inurba_marseille","lat":43.286961,"lon":5.373785,"is_reserved":false,"is_disabled":false,"rental_uris":{"android":"levelo://app?vid=05bc30d4-2a2b-43c5-8b46-98ca90fc775b","ios":"levelo://app?vid=05bc30d4-2a2b-43c5-8b46-98ca90fc775b"},"vehicle_type_id":"4","last_reported":1692727681,"current_range_meters":8000,"station_id":"ce4bh3p2rcd13ifvqdq0","pricing_plan_id":"free"},{"bike_id":"52a0d2dd-6ad3-4421-b684-3e504a3ea0be","system_id":"levelo_inurba_marseille","lat":43.286961,"lon":5.373785,"is_reserved":false,"is_disabled":false,"rental_uris":{"android":"levelo://app?vid=52a0d2dd-6ad3-4421-b684-3e504a3ea0be","ios":"levelo://app?vid=52a0d2dd-6ad3-4421-b684-3e504a3ea0be"},"vehicle_type_id":"4","last_reported":1692727681,"current_range_meters":5200,"station_id":"ce4bh3p2rcd13ifvqdq0","pricing_plan_id":"free"},{"bike_id":"34eea529-6a73-4ce7-8037-1bf9fd9d1047","system_id":"levelo_inurba_marseille","lat":43.286961,"lon":5.373785,"is_reserved":false,"is_disabled":false,"rental_uris":{"android":"levelo://app?vid=34eea529-6a73-4ce7-8037-1bf9fd9d1047","ios":"levelo://app?vid=34eea529-6a73-4ce7-8037-1bf9fd9d1047"},"vehicle_type_id":"4","last_reported":1692727681,"current_range_meters":9200,"station_id":"ce4bh3p2rcd13ifvqdq0","pricing_plan_id":"free"},{"bike_id":"2b2b3897-a2a5-4321-b3f3-eee68d38a6cc","system_id":"levelo_inurba_marseille","lat":43.286039,"lon":5.370681,"is_reserved":false,"is_disabled":false,"rental_uris":{"android":"levelo://app?vid=2b2b3897-a2a5-4321-b3f3-eee68d38a6cc","ios":"levelo://app?vid=2b2b3897-a2a5-4321-b3f3-eee68d38a6cc"},"vehicle_type_id":"4","last_reported":1692727681,"current_range_meters":5600,"station_id":"ce4bht12rcd13ifvqi60","pricing_plan_id":"free"},{"bike_id":"49e1d7ce-11a8-4446-a919-72409c90966d","system_id":"levelo_inurba_marseille","lat":43.28734,"lon":5.37938,"is_reserved":false,"is_disabled":false,"rental_uris":{"android":"levelo://app?vid=49e1d7ce-11a8-4446-a919-72409c90966d","ios":"levelo://app?vid=49e1d7ce-11a8-4446-a919-72409c90966d"},"vehicle_type_id":"4","last_reported":1692727681,"current_range_meters":29600,"station_id":"ce4bh9p2rcd13ifvqec0","pricing_plan_id":"free"},{"bike_id":"f33589c2-11f0-4bc5-b1db-6ca4d20e2524","system_id":"levelo_inurba_marseille","lat":43.287184,"lon":5.37937,"is_reserved":false,"is_disabled":false,"rental_uris":{"android":"levelo://app?vid=f33589c2-11f0-4bc5-b1db-6ca4d20e2524","ios":"levelo://app?vid=f33589c2-11f0-4bc5-b1db-6ca4d20e2524"},"vehicle_type_id":"4","last_reported":1692727681,"current_range_meters":8400,"station_id":"ce4bh9p2rcd13ifvqec0","pricing_plan_id":"free"},{"bike_id":"099883d4-8345-480c-96bf-5e28e919ce78","system_id":"levelo_inurba_marseille","lat":43.28608,"lon":5.36036,"is_reserved":false,"is_disabled":false,"rental_uris":{"android":"levelo://app?vid=099883d4-8345-480c-96bf-5e28e919ce78","ios":"levelo://app?vid=099883d4-8345-480c-96bf-5e28e919ce78"},"vehicle_type_id":"4","last_reported":1692727681,"current_range_meters":28000,"station_id":"","pricing_plan_id":"free"},{"bike_id":"bb6cada8-3dd4-4921-a25d-a8d2241fab29","system_id":"levelo_inurba_marseille","lat":43.2871,"lon":5.37936,"is_reserved":false,"is_disabled":false,"rental_uris":{"android":"levelo://app?vid=bb6cada8-3dd4-4921-a25d-a8d2241fab29","ios":"levelo://app?vid=bb6cada8-3dd4-4921-a25d-a8d2241fab29"},"vehicle_type_id":"4","last_reported":1692727681,"current_range_meters":19200,"station_id":"ce4bh9p2rcd13ifvqec0","pricing_plan_id":"free"},{"bike_id":"81755fcc-00b1-4f77-86a1-4e4cbc235699","system_id":"levelo_inurba_marseille","lat":43.31645,"lon":5.40434,"is_reserved":false,"is_disabled":false,"rental_uris":{"android":"levelo://app?vid=81755fcc-00b1-4f77-86a1-4e4cbc235699","ios":"levelo://app?vid=81755fcc-00b1-4f77-86a1-4e4cbc235699"},"vehicle_type_id":"4","last_reported":1692727681,"current_range_meters":7200,"station_id":"ce4bh012rcd13ifvqd00","pricing_plan_id":"free"},{"bike_id":"7da9e437-1e79-4b5f-9ab0-65254ac17dd7","system_id":"levelo_inurba_marseille","lat":43.31641,"lon":5.40439,"is_reserved":false,"is_disabled":false,"rental_uris":{"android":"levelo://app?vid=7da9e437-1e79-4b5f-9ab0-65254ac17dd7","ios":"levelo://app?vid=7da9e437-1e79-4b5f-9ab0-65254ac17dd7"},"vehicle_type_id":"4","last_reported":1692727681,"current_range_meters":31200,"station_id":"ce4bh012rcd13ifvqd00","pricing_plan_id":"free"},{"bike_id":"18331eb1-46bc-44e4-9304-7339dee025a0","system_id":"levelo_inurba_marseille","lat":43.2919,"lon":5.39316,"is_reserved":false,"is_disabled":false,"rental_uris":{"android":"levelo://app?vid=18331eb1-46bc-44e4-9304-7339dee025a0","ios":"levelo://app?vid=18331eb1-46bc-44e4-9304-7339dee025a0"},"vehicle_type_id":"4","last_reported":1692727681,"current_range_meters":1200,"station_id":"ce4bh192rcd13ifvqdd0","pricing_plan_id":"free"},{"bike_id":"3d87bbab-e810-44e3-b3da-3fda941e6ac6","system_id":"levelo_inurba_marseille","lat":43.291994,"lon":5.392907,"is_reserved":false,"is_disabled":false,"rental_uris":{"android":"levelo://app?vid=3d87bbab-e810-44e3-b3da-3fda941e6ac6","ios":"levelo://app?vid=3d87bbab-e810-44e3-b3da-3fda941e6ac6"},"vehicle_type_id":"4","last_reported":1692727681,"current_range_meters":15200,"station_id":"ce4bh192rcd13ifvqdd0","pricing_plan_id":"free"},{"bike_id":"32972163-9558-4e5e-b014-a0e16883d8f7","system_id":"levelo_inurba_marseille","lat":43.284656,"lon":5.358885,"is_reserved":false,"is_disabled":false,"rental_uris":{"android":"levelo://app?vid=32972163-9558-4e5e-b014-a0e16883d8f7","ios":"levelo://app?vid=32972163-9558-4e5e-b014-a0e16883d8f7"},"vehicle_type_id":"4","last_reported":1692727681,"current_range_meters":26000,"station_id":"","pricing_plan_id":"free"},{"bike_id":"1fb7f5c7-1f01-4d30-aad6-2ce2d0a03a4b","system_id":"levelo_inurba_marseille","lat":43.284534,"lon":5.358662,"is_reserved":false,"is_disabled":false,"rental_uris":{"android":"levelo://app?vid=1fb7f5c7-1f01-4d30-aad6-2ce2d0a03a4b","ios":"levelo://app?vid=1fb7f5c7-1f01-4d30-aad6-2ce2d0a03a4b"},"vehicle_type_id":"4","last_reported":1692727681,"current_range_meters":31600,"station_id":"ce4bhah2rcd13ifvqei0","pricing_plan_id":"free"},{"bike_id":"a4b8f6fd-80ab-4da2-823e-b4cb760a3ac2","system_id":"levelo_inurba_marseille","lat":43.284534,"lon":5.358662,"is_reserved":false,"is_disabled":false,"rental_uris":{"android":"levelo://app?vid=a4b8f6fd-80ab-4da2-823e-b4cb760a3ac2","ios":"levelo://app?vid=a4b8f6fd-80ab-4da2-823e-b4cb760a3ac2"},"vehicle_type_id":"4","last_reported":1692727681,"current_range_meters":25200,"station_id":"ce4bhah2rcd13ifvqei0","pricing_plan_id":"free"},{"bike_id":"013829f6-3e9b-4a9c-953b-b9ef6d53aae6","system_id":"levelo_inurba_marseille","lat":43.286232,"lon":5.351038,"is_reserved":false,"is_disabled":false,"rental_uris":{"android":"levelo://app?vid=013829f6-3e9b-4a9c-953b-b9ef6d53aae6","ios":"levelo://app?vid=013829f6-3e9b-4a9c-953b-b9ef6d53aae6"},"vehicle_type_id":"4","last_reported":1692727681,"current_range_meters":31600,"station_id":"ce4bhch2rcd13ifvqeug","pricing_plan_id":"free"},{"bike_id":"f670e8c9-f8b6-4b4a-897a-e6ffe2931da8","system_id":"levelo_inurba_marseille","lat":43.286234,"lon":5.351025,"is_reserved":false,"is_disabled":false,"rental_uris":{"android":"levelo://app?vid=f670e8c9-f8b6-4b4a-897a-e6ffe2931da8","ios":"levelo://app?vid=f670e8c9-f8b6-4b4a-897a-e6ffe2931da8"},"vehicle_type_id":"4","last_reported":1692727681,"current_range_meters":25600,"station_id":"ce4bhch2rcd13ifvqeug","pricing_plan_id":"free"},{"bike_id":"0d6821ab-9dca-42f2-9888-aef2badebd20","system_id":"levelo_inurba_marseille","lat":43.286226,"lon":5.351026,"is_reserved":false,"is_disabled":false,"rental_uris":{"android":"levelo://app?vid=0d6821ab-9dca-42f2-9888-aef2badebd20","ios":"levelo://app?vid=0d6821ab-9dca-42f2-9888-aef2badebd20"},"vehicle_type_id":"4","last_reported":1692727681,"current_range_meters":30000,"station_id":"ce4bhch2rcd13ifvqeug","pricing_plan_id":"free"},{"bike_id":"325bd84c-a4b7-4e22-8bac-344772277090","system_id":"levelo_inurba_marseille","lat":43.286213,"lon":5.351054,"is_reserved":false,"is_disabled":false,"rental_uris":{"android":"levelo://app?vid=325bd84c-a4b7-4e22-8bac-344772277090","ios":"levelo://app?vid=325bd84c-a4b7-4e22-8bac-344772277090"},"vehicle_type_id":"4","last_reported":1692727681,"current_range_meters":31600,"station_id":"ce4bhch2rcd13ifvqeug","pricing_plan_id":"free"},{"bike_id":"75ea156a-ba6a-44ac-bfcd-8fd0a1784755","system_id":"levelo_inurba_marseille","lat":43.28621,"lon":5.351063,"is_reserved":false,"is_disabled":false,"rental_uris":{"android":"levelo://app?vid=75ea156a-ba6a-44ac-bfcd-8fd0a1784755","ios":"levelo://app?vid=75ea156a-ba6a-44ac-bfcd-8fd0a1784755"},"vehicle_type_id":"4","last_reported":1692727681,"current_range_meters":31600,"station_id":"ce4bhch2rcd13ifvqeug","pricing_plan_id":"free"},{"bike_id":"52c236de-7130-4d40-a6bf-f0b9e6085659","system_id":"levelo_inurba_marseille","lat":43.286208,"lon":5.351057,"is_reserved":false,"is_disabled":false,"rental_uris":{"android":"levelo://app?vid=52c236de-7130-4d40-a6bf-f0b9e6085659","ios":"levelo://app?vid=52c236de-7130-4d40-a6bf-f0b9e6085659"},"vehicle_type_id":"4","last_reported":1692727681,"current_range_meters":16800,"station_id":"ce4bhch2rcd13ifvqeug","pricing_plan_id":"free"},{"bike_id":"a6df4941-3036-4352-9535-9c2338cad4c5","system_id":"levelo_inurba_marseille","lat":43.286205,"lon":5.351066,"is_reserved":false,"is_disabled":false,"rental_uris":{"android":"levelo://app?vid=a6df4941-3036-4352-9535-9c2338cad4c5","ios":"levelo://app?vid=a6df4941-3036-4352-9535-9c2338cad4c5"},"vehicle_type_id":"4","last_reported":1692727681,"current_range_meters":31600,"station_id":"ce4bhch2rcd13ifvqeug","pricing_plan_id":"free"},{"bike_id":"25918e11-4dea-4965-9979-d793dd53b173","system_id":"levelo_inurba_marseille","lat":43.286209,"lon":5.351049,"is_reserved":false,"is_disabled":false,"rental_uris":{"android":"levelo://app?vid=25918e11-4dea-4965-9979-d793dd53b173","ios":"levelo://app?vid=25918e11-4dea-4965-9979-d793dd53b173"},"vehicle_type_id":"4","last_reported":1692727681,"current_range_meters":31200,"station_id":"ce4bhch2rcd13ifvqeug","pricing_plan_id":"free"},{"bike_id":"faa9f4c1-9f99-4256-aa53-07103553689a","system_id":"levelo_inurba_marseille","lat":43.286217,"lon":5.351019,"is_reserved":false,"is_disabled":false,"rental_uris":{"android":"levelo://app?vid=faa9f4c1-9f99-4256-aa53-07103553689a","ios":"levelo://app?vid=faa9f4c1-9f99-4256-aa53-07103553689a"},"vehicle_type_id":"4","last_reported":1692727681,"current_range_meters":14000,"station_id":"ce4bhch2rcd13ifvqeug","pricing_plan_id":"free"},{"bike_id":"6bbe974b-7c27-4a29-a7ee-11a5e4f31584","system_id":"levelo_inurba_marseille","lat":43.286214,"lon":5.351029,"is_reserved":false,"is_disabled":false,"rental_uris":{"android":"levelo://app?vid=6bbe974b-7c27-4a29-a7ee-11a5e4f31584","ios":"levelo://app?vid=6bbe974b-7c27-4a29-a7ee-11a5e4f31584"},"vehicle_type_id":"4","last_reported":1692727681,"current_range_meters":24400,"station_id":"ce4bhch2rcd13ifvqeug","pricing_plan_id":"free"},{"bike_id":"8078e323-ec50-4871-9a9f-fa3b24975a11","system_id":"levelo_inurba_marseille","lat":43.285856,"lon":5.350771,"is_reserved":false,"is_disabled":false,"rental_uris":{"android":"levelo://app?vid=8078e323-ec50-4871-9a9f-fa3b24975a11","ios":"levelo://app?vid=8078e323-ec50-4871-9a9f-fa3b24975a11"},"vehicle_type_id":"4","last_reported":1692727681,"current_range_meters":31200,"station_id":"ce4bhch2rcd13ifvqeug","pricing_plan_id":"free"},{"bike_id":"d30f5672-a273-45c9-82af-a62e50f19e69","system_id":"levelo_inurba_marseille","lat":43.28619,"lon":5.35107,"is_reserved":false,"is_disabled":false,"rental_uris":{"android":"levelo://app?vid=d30f5672-a273-45c9-82af-a62e50f19e69","ios":"levelo://app?vid=d30f5672-a273-45c9-82af-a62e50f19e69"},"vehicle_type_id":"4","last_reported":1692727681,"current_range_meters":14000,"station_id":"ce4bhch2rcd13ifvqeug","pricing_plan_id":"free"},{"bike_id":"4640f2c5-bec9-497a-9622-d8296203915f","system_id":"levelo_inurba_marseille","lat":43.2862,"lon":5.35103,"is_reserved":false,"is_disabled":false,"rental_uris":{"android":"levelo://app?vid=4640f2c5-bec9-497a-9622-d8296203915f","ios":"levelo://app?vid=4640f2c5-bec9-497a-9622-d8296203915f"},"vehicle_type_id":"4","last_reported":1692727681,"current_range_meters":28400,"station_id":"ce4bhch2rcd13ifvqeug","pricing_plan_id":"free"},{"bike_id":"1dd6365d-c3bd-4797-80c3-b93766a1fd3c","system_id":"levelo_inurba_marseille","lat":43.28619,"lon":5.35104,"is_reserved":false,"is_disabled":false,"rental_uris":{"android":"levelo://app?vid=1dd6365d-c3bd-4797-80c3-b93766a1fd3c","ios":"levelo://app?vid=1dd6365d-c3bd-4797-80c3-b93766a1fd3c"},"vehicle_type_id":"4","last_reported":1692727681,"current_range_meters":19600,"station_id":"ce4bhch2rcd13ifvqeug","pricing_plan_id":"free"},{"bike_id":"7a9baf30-33c6-46b0-b9bb-e01ae104e606","system_id":"levelo_inurba_marseille","lat":43.28617,"lon":5.35107,"is_reserved":false,"is_disabled":false,"rental_uris":{"android":"levelo://app?vid=7a9baf30-33c6-46b0-b9bb-e01ae104e606","ios":"levelo://app?vid=7a9baf30-33c6-46b0-b9bb-e01ae104e606"},"vehicle_type_id":"4","last_reported":1692727681,"current_range_meters":2400,"station_id":"ce4bhch2rcd13ifvqeug","pricing_plan_id":"free"},{"bike_id":"2e5e6410-1ec8-421e-b891-3427a6f4b54f","system_id":"levelo_inurba_marseille","lat":43.28617,"lon":5.35107,"is_reserved":false,"is_disabled":false,"rental_uris":{"android":"levelo://app?vid=2e5e6410-1ec8-421e-b891-3427a6f4b54f","ios":"levelo://app?vid=2e5e6410-1ec8-421e-b891-3427a6f4b54f"},"vehicle_type_id":"4","last_reported":1692727681,"current_range_meters":18000,"station_id":"ce4bhch2rcd13ifvqeug","pricing_plan_id":"free"},{"bike_id":"6e9823c8-0a53-45b5-918f-d823a31dcac1","system_id":"levelo_inurba_marseille","lat":43.28617,"lon":5.35106,"is_reserved":false,"is_disabled":false,"rental_uris":{"android":"levelo://app?vid=6e9823c8-0a53-45b5-918f-d823a31dcac1","ios":"levelo://app?vid=6e9823c8-0a53-45b5-918f-d823a31dcac1"},"vehicle_type_id":"4","last_reported":1692727681,"current_range_meters":6400,"station_id":"ce4bhch2rcd13ifvqeug","pricing_plan_id":"free"},{"bike_id":"0629c5b9-f673-46ff-a93d-942d4a6f321c","system_id":"levelo_inurba_marseille","lat":43.28619,"lon":5.35099,"is_reserved":false,"is_disabled":false,"rental_uris":{"android":"levelo://app?vid=0629c5b9-f673-46ff-a93d-942d4a6f321c","ios":"levelo://app?vid=0629c5b9-f673-46ff-a93d-942d4a6f321c"},"vehicle_type_id":"4","last_reported":1692727681,"current_range_meters":31200,"station_id":"ce4bhch2rcd13ifvqeug","pricing_plan_id":"free"},{"bike_id":"a6b37a98-b7a7-4985-b8d9-82506e28883b","system_id":"levelo_inurba_marseille","lat":43.28616,"lon":5.35106,"is_reserved":false,"is_disabled":false,"rental_uris":{"android":"levelo://app?vid=a6b37a98-b7a7-4985-b8d9-82506e28883b","ios":"levelo://app?vid=a6b37a98-b7a7-4985-b8d9-82506e28883b"},"vehicle_type_id":"4","last_reported":1692727681,"current_range_meters":12400,"station_id":"ce4bhch2rcd13ifvqeug","pricing_plan_id":"free"},{"bike_id":"d79a86d7-a340-4a7e-aa18-9ad75e205767","system_id":"levelo_inurba_marseille","lat":43.28618,"lon":5.35098,"is_reserved":false,"is_disabled":false,"rental_uris":{"android":"levelo://app?vid=d79a86d7-a340-4a7e-aa18-9ad75e205767","ios":"levelo://app?vid=d79a86d7-a340-4a7e-aa18-9ad75e205767"},"vehicle_type_id":"4","last_reported":1692727681,"current_range_meters":29600,"station_id":"ce4bhch2rcd13ifvqeug","pricing_plan_id":"free"},{"bike_id":"71b0a20c-e6c5-4df4-a6c3-c04772891bc8","system_id":"levelo_inurba_marseille","lat":43.28617,"lon":5.35101,"is_reserved":false,"is_disabled":false,"rental_uris":{"android":"levelo://app?vid=71b0a20c-e6c5-4df4-a6c3-c04772891bc8","ios":"levelo://app?vid=71b0a20c-e6c5-4df4-a6c3-c04772891bc8"},"vehicle_type_id":"4","last_reported":1692727681,"current_range_meters":19200,"station_id":"ce4bhch2rcd13ifvqeug","pricing_plan_id":"free"},{"bike_id":"751024b3-ef6e-4335-aad6-f882b4c00b64","system_id":"levelo_inurba_marseille","lat":43.28616,"lon":5.35102,"is_reserved":false,"is_disabled":false,"rental_uris":{"android":"levelo://app?vid=751024b3-ef6e-4335-aad6-f882b4c00b64","ios":"levelo://app?vid=751024b3-ef6e-4335-aad6-f882b4c00b64"},"vehicle_type_id":"4","last_reported":1692727681,"current_range_meters":6400,"station_id":"ce4bhch2rcd13ifvqeug","pricing_plan_id":"free"},{"bike_id":"111d18bb-72d4-440a-a602-10dbebf1f0cb","system_id":"levelo_inurba_marseille","lat":43.28616,"lon":5.35098,"is_reserved":false,"is_disabled":false,"rental_uris":{"android":"levelo://app?vid=111d18bb-72d4-440a-a602-10dbebf1f0cb","ios":"levelo://app?vid=111d18bb-72d4-440a-a602-10dbebf1f0cb"},"vehicle_type_id":"4","last_reported":1692727681,"current_range_meters":21600,"station_id":"ce4bhch2rcd13ifvqeug","pricing_plan_id":"free"},{"bike_id":"0a043e50-bbd8-45c0-9d60-6af03d03922d","system_id":"levelo_inurba_marseille","lat":43.28617,"lon":5.35094,"is_reserved":false,"is_disabled":false,"rental_uris":{"android":"levelo://app?vid=0a043e50-bbd8-45c0-9d60-6af03d03922d","ios":"levelo://app?vid=0a043e50-bbd8-45c0-9d60-6af03d03922d"},"vehicle_type_id":"4","last_reported":1692727681,"current_range_meters":29200,"station_id":"ce4bhch2rcd13ifvqeug","pricing_plan_id":"free"},{"bike_id":"e47aaee8-f7e0-4f06-a59d-b17feee65e5b","system_id":"levelo_inurba_marseille","lat":43.28615,"lon":5.351,"is_reserved":false,"is_disabled":false,"rental_uris":{"android":"levelo://app?vid=e47aaee8-f7e0-4f06-a59d-b17feee65e5b","ios":"levelo://app?vid=e47aaee8-f7e0-4f06-a59d-b17feee65e5b"},"vehicle_type_id":"4","last_reported":1692727681,"current_range_meters":16000,"station_id":"ce4bhch2rcd13ifvqeug","pricing_plan_id":"free"},{"bike_id":"96479e7c-5065-4a6b-8a55-974487a60f7a","system_id":"levelo_inurba_marseille","lat":43.286145,"lon":5.351013,"is_reserved":false,"is_disabled":false,"rental_uris":{"android":"levelo://app?vid=96479e7c-5065-4a6b-8a55-974487a60f7a","ios":"levelo://app?vid=96479e7c-5065-4a6b-8a55-974487a60f7a"},"vehicle_type_id":"4","last_reported":1692727681,"current_range_meters":5200,"station_id":"ce4bhch2rcd13ifvqeug","pricing_plan_id":"free"},{"bike_id":"35eec3a1-aa54-4990-8eb4-78e6c0dd24d0","system_id":"levelo_inurba_marseille","lat":43.285856,"lon":5.350771,"is_reserved":false,"is_disabled":false,"rental_uris":{"android":"levelo://app?vid=35eec3a1-aa54-4990-8eb4-78e6c0dd24d0","ios":"levelo://app?vid=35eec3a1-aa54-4990-8eb4-78e6c0dd24d0"},"vehicle_type_id":"4","last_reported":1692727681,"current_range_meters":18000,"station_id":"ce4bhch2rcd13ifvqeug","pricing_plan_id":"free"},{"bike_id":"19e10270-ec5e-495f-898b-452174795712","system_id":"levelo_inurba_marseille","lat":43.28614,"lon":5.35098,"is_reserved":false,"is_disabled":false,"rental_uris":{"android":"levelo://app?vid=19e10270-ec5e-495f-898b-452174795712","ios":"levelo://app?vid=19e10270-ec5e-495f-898b-452174795712"},"vehicle_type_id":"4","last_reported":1692727681,"current_range_meters":28800,"station_id":"ce4bhch2rcd13ifvqeug","pricing_plan_id":"free"},{"bike_id":"9a58a3c2-b857-4d86-97a5-0f20b4224ecd","system_id":"levelo_inurba_marseille","lat":43.28612,"lon":5.35103,"is_reserved":false,"is_disabled":false,"rental_uris":{"android":"levelo://app?vid=9a58a3c2-b857-4d86-97a5-0f20b4224ecd","ios":"levelo://app?vid=9a58a3c2-b857-4d86-97a5-0f20b4224ecd"},"vehicle_type_id":"4","last_reported":1692727681,"current_range_meters":11600,"station_id":"ce4bhch2rcd13ifvqeug","pricing_plan_id":"free"},{"bike_id":"c926bb6e-0f84-4098-8c56-edd042680942","system_id":"levelo_inurba_marseille","lat":43.28614,"lon":5.35094,"is_reserved":false,"is_disabled":false,"rental_uris":{"android":"levelo://app?vid=c926bb6e-0f84-4098-8c56-edd042680942","ios":"levelo://app?vid=c926bb6e-0f84-4098-8c56-edd042680942"},"vehicle_type_id":"4","last_reported":1692727681,"current_range_meters":30400,"station_id":"ce4bhch2rcd13ifvqeug","pricing_plan_id":"free"},{"bike_id":"2363d3b5-6c15-401a-a59c-ee80bd4af927","system_id":"levelo_inurba_marseille","lat":43.28415,"lon":5.37522,"is_reserved":false,"is_disabled":false,"rental_uris":{"android":"levelo://app?vid=2363d3b5-6c15-401a-a59c-ee80bd4af927","ios":"levelo://app?vid=2363d3b5-6c15-401a-a59c-ee80bd4af927"},"vehicle_type_id":"4","last_reported":1692727681,"current_range_meters":8400,"station_id":"ce4bh412rcd13ifvqds0","pricing_plan_id":"free"},{"bike_id":"d6010877-aca1-4b6b-b5ff-23cf85921214","system_id":"levelo_inurba_marseille","lat":43.283998,"lon":5.375062,"is_reserved":false,"is_disabled":false,"rental_uris":{"android":"levelo://app?vid=d6010877-aca1-4b6b-b5ff-23cf85921214","ios":"levelo://app?vid=d6010877-aca1-4b6b-b5ff-23cf85921214"},"vehicle_type_id":"4","last_reported":1692727681,"current_range_meters":28800,"station_id":"ce4bh412rcd13ifvqds0","pricing_plan_id":"free"},{"bike_id":"c7e875c4-dc10-4655-bc12-2c2c23163091","system_id":"levelo_inurba_marseille","lat":43.28605,"lon":5.38355,"is_reserved":false,"is_disabled":false,"rental_uris":{"android":"levelo://app?vid=c7e875c4-dc10-4655-bc12-2c2c23163091","ios":"levelo://app?vid=c7e875c4-dc10-4655-bc12-2c2c23163091"},"vehicle_type_id":"4","last_reported":1692727681,"current_range_meters":8800,"station_id":"","pricing_plan_id":"free"},{"bike_id":"bce6043a-9378-4fb7-9af5-cdf8d2ff032e","system_id":"levelo_inurba_marseille","lat":43.286595,"lon":5.386795,"is_reserved":false,"is_disabled":false,"rental_uris":{"android":"levelo://app?vid=bce6043a-9378-4fb7-9af5-cdf8d2ff032e","ios":"levelo://app?vid=bce6043a-9378-4fb7-9af5-cdf8d2ff032e"},"vehicle_type_id":"4","last_reported":1692727681,"current_range_meters":3200,"station_id":"ce4bh492rcd13ifvqdug","pricing_plan_id":"free"},{"bike_id":"abcb86b8-f726-4b15-aa51-092b507292c6","system_id":"levelo_inurba_marseille","lat":43.30361,"lon":5.40597,"is_reserved":false,"is_disabled":false,"rental_uris":{"android":"levelo://app?vid=abcb86b8-f726-4b15-aa51-092b507292c6","ios":"levelo://app?vid=abcb86b8-f726-4b15-aa51-092b507292c6"},"vehicle_type_id":"4","last_reported":1692727681,"current_range_meters":16400,"station_id":"","pricing_plan_id":"free"},{"bike_id":"e73595c3-c7a3-494c-a441-dc925776ba8f","system_id":"levelo_inurba_marseille","lat":43.32178,"lon":5.4069,"is_reserved":false,"is_disabled":false,"rental_uris":{"android":"levelo://app?vid=e73595c3-c7a3-494c-a441-dc925776ba8f","ios":"levelo://app?vid=e73595c3-c7a3-494c-a441-dc925776ba8f"},"vehicle_type_id":"4","last_reported":1692727681,"current_range_meters":29600,"station_id":"","pricing_plan_id":"free"},{"bike_id":"0429277a-07f6-4019-88d0-c504b9841cc2","system_id":"levelo_inurba_marseille","lat":43.323464,"lon":5.406297,"is_reserved":false,"is_disabled":false,"rental_uris":{"android":"levelo://app?vid=0429277a-07f6-4019-88d0-c504b9841cc2","ios":"levelo://app?vid=0429277a-07f6-4019-88d0-c504b9841cc2"},"vehicle_type_id":"4","last_reported":1692727681,"current_range_meters":31200,"station_id":"ce4bhq92rcd13ifvqhjg","pricing_plan_id":"free"},{"bike_id":"c508d91f-9ac0-45ca-b14b-479e3c6d15f6","system_id":"levelo_inurba_marseille","lat":43.2849,"lon":5.3842,"is_reserved":false,"is_disabled":false,"rental_uris":{"android":"levelo://app?vid=c508d91f-9ac0-45ca-b14b-479e3c6d15f6","ios":"levelo://app?vid=c508d91f-9ac0-45ca-b14b-479e3c6d15f6"},"vehicle_type_id":"4","last_reported":1692727681,"current_range_meters":25600,"station_id":"ce4bh512rcd13ifvqe3g","pricing_plan_id":"free"},{"bike_id":"bf99eff7-f48b-408d-b9ce-e998b753632b","system_id":"levelo_inurba_marseille","lat":43.33717,"lon":5.391857,"is_reserved":false,"is_disabled":false,"rental_uris":{"android":"levelo://app?vid=bf99eff7-f48b-408d-b9ce-e998b753632b","ios":"levelo://app?vid=bf99eff7-f48b-408d-b9ce-e998b753632b"},"vehicle_type_id":"4","last_reported":1692727681,"current_range_meters":8000,"station_id":"ce4bhr92rcd13ifvqhsg","pricing_plan_id":"free"},{"bike_id":"836d061e-49c0-4342-9ab1-4b827f005609","system_id":"levelo_inurba_marseille","lat":43.28477,"lon":5.38404,"is_reserved":false,"is_disabled":false,"rental_uris":{"android":"levelo://app?vid=836d061e-49c0-4342-9ab1-4b827f005609","ios":"levelo://app?vid=836d061e-49c0-4342-9ab1-4b827f005609"},"vehicle_type_id":"4","last_reported":1692727681,"current_range_meters":10800,"station_id":"ce4bh512rcd13ifvqe3g","pricing_plan_id":"free"},{"bike_id":"81207e02-e329-4cea-9b6c-33ba9c0267d2","system_id":"levelo_inurba_marseille","lat":43.284793,"lon":5.384119,"is_reserved":false,"is_disabled":false,"rental_uris":{"android":"levelo://app?vid=81207e02-e329-4cea-9b6c-33ba9c0267d2","ios":"levelo://app?vid=81207e02-e329-4cea-9b6c-33ba9c0267d2"},"vehicle_type_id":"4","last_reported":1692727681,"current_range_meters":31600,"station_id":"ce4bh512rcd13ifvqe3g","pricing_plan_id":"free"},{"bike_id":"7996a202-48ce-434c-b5db-b32d9fceba4e","system_id":"levelo_inurba_marseille","lat":43.28453,"lon":5.35002,"is_reserved":false,"is_disabled":false,"rental_uris":{"android":"levelo://app?vid=7996a202-48ce-434c-b5db-b32d9fceba4e","ios":"levelo://app?vid=7996a202-48ce-434c-b5db-b32d9fceba4e"},"vehicle_type_id":"4","last_reported":1692727681,"current_range_meters":11600,"station_id":"ce4bhbh2rcd13ifvqepg","pricing_plan_id":"free"},{"bike_id":"c2ce079b-a450-44df-bfcd-a7293d8db400","system_id":"levelo_inurba_marseille","lat":43.288501,"lon":5.393087,"is_reserved":false,"is_disabled":false,"rental_uris":{"android":"levelo://app?vid=c2ce079b-a450-44df-bfcd-a7293d8db400","ios":"levelo://app?vid=c2ce079b-a450-44df-bfcd-a7293d8db400"},"vehicle_type_id":"4","last_reported":1692727681,"current_range_meters":4000,"station_id":"ce4bh2p2rcd13ifvqdi0","pricing_plan_id":"free"},{"bike_id":"ebc084ee-e52f-4209-8f35-8488bbb99186","system_id":"levelo_inurba_marseille","lat":43.283498,"lon":5.380948,"is_reserved":false,"is_disabled":false,"rental_uris":{"android":"levelo://app?vid=ebc084ee-e52f-4209-8f35-8488bbb99186","ios":"levelo://app?vid=ebc084ee-e52f-4209-8f35-8488bbb99186"},"vehicle_type_id":"4","last_reported":1692727681,"current_range_meters":4800,"station_id":"ce4bh412rcd13ifvqdr0","pricing_plan_id":"free"},{"bike_id":"2ea73967-988f-4f1a-aa76-7f33a11c4098","system_id":"levelo_inurba_marseille","lat":43.30676,"lon":5.4087,"is_reserved":false,"is_disabled":false,"rental_uris":{"android":"levelo://app?vid=2ea73967-988f-4f1a-aa76-7f33a11c4098","ios":"levelo://app?vid=2ea73967-988f-4f1a-aa76-7f33a11c4098"},"vehicle_type_id":"4","last_reported":1692727681,"current_range_meters":18800,"station_id":"","pricing_plan_id":"free"},{"bike_id":"3dfe7921-ccd7-4c4b-85f3-ea4b59f7060c","system_id":"levelo_inurba_marseille","lat":43.284219,"lon":5.3497,"is_reserved":false,"is_disabled":false,"rental_uris":{"android":"levelo://app?vid=3dfe7921-ccd7-4c4b-85f3-ea4b59f7060c","ios":"levelo://app?vid=3dfe7921-ccd7-4c4b-85f3-ea4b59f7060c"},"vehicle_type_id":"4","last_reported":1692727681,"current_range_meters":20400,"station_id":"ce4bhbh2rcd13ifvqepg","pricing_plan_id":"free"},{"bike_id":"f893010c-c6e2-4f86-a0f2-e4d00a093022","system_id":"levelo_inurba_marseille","lat":43.28421,"lon":5.34985,"is_reserved":false,"is_disabled":false,"rental_uris":{"android":"levelo://app?vid=f893010c-c6e2-4f86-a0f2-e4d00a093022","ios":"levelo://app?vid=f893010c-c6e2-4f86-a0f2-e4d00a093022"},"vehicle_type_id":"4","last_reported":1692727681,"current_range_meters":8400,"station_id":"ce4bhbh2rcd13ifvqepg","pricing_plan_id":"free"},{"bike_id":"69f7af38-b6e6-49d0-a607-e66df3369a9c","system_id":"levelo_inurba_marseille","lat":43.284219,"lon":5.3497,"is_reserved":false,"is_disabled":false,"rental_uris":{"android":"levelo://app?vid=69f7af38-b6e6-49d0-a607-e66df3369a9c","ios":"levelo://app?vid=69f7af38-b6e6-49d0-a607-e66df3369a9c"},"vehicle_type_id":"4","last_reported":1692727681,"current_range_meters":29200,"station_id":"ce4bhbh2rcd13ifvqepg","pricing_plan_id":"free"},{"bike_id":"92bf6422-0f8a-42ad-aa77-9ff30a1d32ae","system_id":"levelo_inurba_marseille","lat":43.284219,"lon":5.3497,"is_reserved":false,"is_disabled":false,"rental_uris":{"android":"levelo://app?vid=92bf6422-0f8a-42ad-aa77-9ff30a1d32ae","ios":"levelo://app?vid=92bf6422-0f8a-42ad-aa77-9ff30a1d32ae"},"vehicle_type_id":"4","last_reported":1692727681,"current_range_meters":31600,"station_id":"ce4bhbh2rcd13ifvqepg","pricing_plan_id":"free"},{"bike_id":"3623e3a6-25e0-4c06-b6b0-93e5151846ae","system_id":"levelo_inurba_marseille","lat":43.284217,"lon":5.349697,"is_reserved":false,"is_disabled":false,"rental_uris":{"android":"levelo://app?vid=3623e3a6-25e0-4c06-b6b0-93e5151846ae","ios":"levelo://app?vid=3623e3a6-25e0-4c06-b6b0-93e5151846ae"},"vehicle_type_id":"4","last_reported":1692727681,"current_range_meters":16400,"station_id":"ce4bhbh2rcd13ifvqepg","pricing_plan_id":"free"},{"bike_id":"536a31fa-4dad-47a2-9dd3-f07d171b9765","system_id":"levelo_inurba_marseille","lat":43.28417,"lon":5.34983,"is_reserved":false,"is_disabled":false,"rental_uris":{"android":"levelo://app?vid=536a31fa-4dad-47a2-9dd3-f07d171b9765","ios":"levelo://app?vid=536a31fa-4dad-47a2-9dd3-f07d171b9765"},"vehicle_type_id":"4","last_reported":1692727681,"current_range_meters":26800,"station_id":"ce4bhbh2rcd13ifvqepg","pricing_plan_id":"free"},{"bike_id":"c15c4ae9-3415-4a39-b001-45478beb8f15","system_id":"levelo_inurba_marseille","lat":43.284217,"lon":5.349697,"is_reserved":false,"is_disabled":false,"rental_uris":{"android":"levelo://app?vid=c15c4ae9-3415-4a39-b001-45478beb8f15","ios":"levelo://app?vid=c15c4ae9-3415-4a39-b001-45478beb8f15"},"vehicle_type_id":"4","last_reported":1692727681,"current_range_meters":12000,"station_id":"ce4bhbh2rcd13ifvqepg","pricing_plan_id":"free"},{"bike_id":"caedbf0c-5924-49f2-87f6-20bcf512388b","system_id":"levelo_inurba_marseille","lat":43.28416,"lon":5.34981,"is_reserved":false,"is_disabled":false,"rental_uris":{"android":"levelo://app?vid=caedbf0c-5924-49f2-87f6-20bcf512388b","ios":"levelo://app?vid=caedbf0c-5924-49f2-87f6-20bcf512388b"},"vehicle_type_id":"4","last_reported":1692727681,"current_range_meters":0,"station_id":"ce4bhbh2rcd13ifvqepg","pricing_plan_id":"free"},{"bike_id":"3ac58c3a-6cdc-4901-a81c-c8142912851c","system_id":"levelo_inurba_marseille","lat":43.284219,"lon":5.3497,"is_reserved":false,"is_disabled":false,"rental_uris":{"android":"levelo://app?vid=3ac58c3a-6cdc-4901-a81c-c8142912851c","ios":"levelo://app?vid=3ac58c3a-6cdc-4901-a81c-c8142912851c"},"vehicle_type_id":"4","last_reported":1692727681,"current_range_meters":24000,"station_id":"ce4bhbh2rcd13ifvqepg","pricing_plan_id":"free"},{"bike_id":"39a8b821-81fd-4c27-bddb-47e1308837d6","system_id":"levelo_inurba_marseille","lat":43.28416,"lon":5.34978,"is_reserved":false,"is_disabled":false,"rental_uris":{"android":"levelo://app?vid=39a8b821-81fd-4c27-bddb-47e1308837d6","ios":"levelo://app?vid=39a8b821-81fd-4c27-bddb-47e1308837d6"},"vehicle_type_id":"4","last_reported":1692727681,"current_range_meters":400,"station_id":"ce4bhbh2rcd13ifvqepg","pricing_plan_id":"free"},{"bike_id":"78185df8-ac80-4cdb-8066-f895acf1fe5c","system_id":"levelo_inurba_marseille","lat":43.28417,"lon":5.34973,"is_reserved":false,"is_disabled":false,"rental_uris":{"android":"levelo://app?vid=78185df8-ac80-4cdb-8066-f895acf1fe5c","ios":"levelo://app?vid=78185df8-ac80-4cdb-8066-f895acf1fe5c"},"vehicle_type_id":"4","last_reported":1692727681,"current_range_meters":20400,"station_id":"ce4bhbh2rcd13ifvqepg","pricing_plan_id":"free"},{"bike_id":"7e598581-f8a0-4027-b919-b32ae9288629","system_id":"levelo_inurba_marseille","lat":43.284219,"lon":5.3497,"is_reserved":false,"is_disabled":false,"rental_uris":{"android":"levelo://app?vid=7e598581-f8a0-4027-b919-b32ae9288629","ios":"levelo://app?vid=7e598581-f8a0-4027-b919-b32ae9288629"},"vehicle_type_id":"4","last_reported":1692727681,"current_range_meters":30800,"station_id":"ce4bhbh2rcd13ifvqepg","pricing_plan_id":"free"},{"bike_id":"57094994-287b-4f91-bbd9-fff810ba02bd","system_id":"levelo_inurba_marseille","lat":43.284219,"lon":5.3497,"is_reserved":false,"is_disabled":false,"rental_uris":{"android":"levelo://app?vid=57094994-287b-4f91-bbd9-fff810ba02bd","ios":"levelo://app?vid=57094994-287b-4f91-bbd9-fff810ba02bd"},"vehicle_type_id":"4","last_reported":1692727681,"current_range_meters":15600,"station_id":"ce4bhbh2rcd13ifvqepg","pricing_plan_id":"free"},{"bike_id":"53387225-d0fd-4c9f-9013-d1dabf3bcb69","system_id":"levelo_inurba_marseille","lat":43.284217,"lon":5.349697,"is_reserved":false,"is_disabled":false,"rental_uris":{"android":"levelo://app?vid=53387225-d0fd-4c9f-9013-d1dabf3bcb69","ios":"levelo://app?vid=53387225-d0fd-4c9f-9013-d1dabf3bcb69"},"vehicle_type_id":"4","last_reported":1692727681,"current_range_meters":14400,"station_id":"ce4bhbh2rcd13ifvqepg","pricing_plan_id":"free"},{"bike_id":"80b3a5cd-da4a-4230-b75f-f1281e1380c5","system_id":"levelo_inurba_marseille","lat":43.284217,"lon":5.349697,"is_reserved":false,"is_disabled":false,"rental_uris":{"android":"levelo://app?vid=80b3a5cd-da4a-4230-b75f-f1281e1380c5","ios":"levelo://app?vid=80b3a5cd-da4a-4230-b75f-f1281e1380c5"},"vehicle_type_id":"4","last_reported":1692727681,"current_range_meters":19600,"station_id":"ce4bhbh2rcd13ifvqepg","pricing_plan_id":"free"},{"bike_id":"ad1b5a48-4db2-4eb2-a141-a626b2d1b1c2","system_id":"levelo_inurba_marseille","lat":43.284217,"lon":5.349697,"is_reserved":false,"is_disabled":false,"rental_uris":{"android":"levelo://app?vid=ad1b5a48-4db2-4eb2-a141-a626b2d1b1c2","ios":"levelo://app?vid=ad1b5a48-4db2-4eb2-a141-a626b2d1b1c2"},"vehicle_type_id":"4","last_reported":1692727681,"current_range_meters":2400,"station_id":"ce4bhbh2rcd13ifvqepg","pricing_plan_id":"free"},{"bike_id":"50c02a71-1210-4bc0-b260-f0f3cda82a79","system_id":"levelo_inurba_marseille","lat":43.28415,"lon":5.34973,"is_reserved":false,"is_disabled":false,"rental_uris":{"android":"levelo://app?vid=50c02a71-1210-4bc0-b260-f0f3cda82a79","ios":"levelo://app?vid=50c02a71-1210-4bc0-b260-f0f3cda82a79"},"vehicle_type_id":"4","last_reported":1692727681,"current_range_meters":20400,"station_id":"ce4bhbh2rcd13ifvqepg","pricing_plan_id":"free"},{"bike_id":"e276898c-b1a5-4dd3-88ab-17ddb1c92a25","system_id":"levelo_inurba_marseille","lat":43.284217,"lon":5.349697,"is_reserved":false,"is_disabled":false,"rental_uris":{"android":"levelo://app?vid=e276898c-b1a5-4dd3-88ab-17ddb1c92a25","ios":"levelo://app?vid=e276898c-b1a5-4dd3-88ab-17ddb1c92a25"},"vehicle_type_id":"4","last_reported":1692727681,"current_range_meters":3600,"station_id":"ce4bhbh2rcd13ifvqepg","pricing_plan_id":"free"},{"bike_id":"1dad3752-6349-46a0-9b12-57194b8b2ee2","system_id":"levelo_inurba_marseille","lat":43.284217,"lon":5.349697,"is_reserved":false,"is_disabled":false,"rental_uris":{"android":"levelo://app?vid=1dad3752-6349-46a0-9b12-57194b8b2ee2","ios":"levelo://app?vid=1dad3752-6349-46a0-9b12-57194b8b2ee2"},"vehicle_type_id":"4","last_reported":1692727681,"current_range_meters":11200,"station_id":"ce4bhbh2rcd13ifvqepg","pricing_plan_id":"free"},{"bike_id":"67427477-7a73-4378-bb50-f1edb7a3aecc","system_id":"levelo_inurba_marseille","lat":43.28414,"lon":5.34971,"is_reserved":false,"is_disabled":false,"rental_uris":{"android":"levelo://app?vid=67427477-7a73-4378-bb50-f1edb7a3aecc","ios":"levelo://app?vid=67427477-7a73-4378-bb50-f1edb7a3aecc"},"vehicle_type_id":"4","last_reported":1692727681,"current_range_meters":24800,"station_id":"ce4bhbh2rcd13ifvqepg","pricing_plan_id":"free"},{"bike_id":"ac599748-7f3f-4450-89cb-9f3aa8fe3435","system_id":"levelo_inurba_marseille","lat":43.284217,"lon":5.349697,"is_reserved":false,"is_disabled":false,"rental_uris":{"android":"levelo://app?vid=ac599748-7f3f-4450-89cb-9f3aa8fe3435","ios":"levelo://app?vid=ac599748-7f3f-4450-89cb-9f3aa8fe3435"},"vehicle_type_id":"4","last_reported":1692727681,"current_range_meters":22800,"station_id":"ce4bhbh2rcd13ifvqepg","pricing_plan_id":"free"},{"bike_id":"ec614816-2552-418a-9825-99953aa63eb6","system_id":"levelo_inurba_marseille","lat":43.284217,"lon":5.349697,"is_reserved":false,"is_disabled":false,"rental_uris":{"android":"levelo://app?vid=ec614816-2552-418a-9825-99953aa63eb6","ios":"levelo://app?vid=ec614816-2552-418a-9825-99953aa63eb6"},"vehicle_type_id":"4","last_reported":1692727681,"current_range_meters":14000,"station_id":"ce4bhbh2rcd13ifvqepg","pricing_plan_id":"free"},{"bike_id":"d43067c4-3a89-4d37-b9c2-8423160cb58b","system_id":"levelo_inurba_marseille","lat":43.284217,"lon":5.349697,"is_reserved":false,"is_disabled":false,"rental_uris":{"android":"levelo://app?vid=d43067c4-3a89-4d37-b9c2-8423160cb58b","ios":"levelo://app?vid=d43067c4-3a89-4d37-b9c2-8423160cb58b"},"vehicle_type_id":"4","last_reported":1692727681,"current_range_meters":4400,"station_id":"ce4bhbh2rcd13ifvqepg","pricing_plan_id":"free"},{"bike_id":"f50aca5f-cf5b-4020-925f-826a2e34874f","system_id":"levelo_inurba_marseille","lat":43.289363,"lon":5.396322,"is_reserved":false,"is_disabled":false,"rental_uris":{"android":"levelo://app?vid=f50aca5f-cf5b-4020-925f-826a2e34874f","ios":"levelo://app?vid=f50aca5f-cf5b-4020-925f-826a2e34874f"},"vehicle_type_id":"4","last_reported":1692727681,"current_range_meters":31600,"station_id":"ce4bh3h2rcd13ifvqdn0","pricing_plan_id":"free"},{"bike_id":"79ae07f7-3d9b-456b-927e-8e880eafedba","system_id":"levelo_inurba_marseille","lat":43.32572,"lon":5.40673,"is_reserved":false,"is_disabled":false,"rental_uris":{"android":"levelo://app?vid=79ae07f7-3d9b-456b-927e-8e880eafedba","ios":"levelo://app?vid=79ae07f7-3d9b-456b-927e-8e880eafedba"},"vehicle_type_id":"4","last_reported":1692727681,"current_range_meters":400,"station_id":"","pricing_plan_id":"free"},{"bike_id":"88940920-727e-47f8-bee6-24feedff1167","system_id":"levelo_inurba_marseille","lat":43.282754,"lon":5.350519,"is_reserved":false,"is_disabled":false,"rental_uris":{"android":"levelo://app?vid=88940920-727e-47f8-bee6-24feedff1167","ios":"levelo://app?vid=88940920-727e-47f8-bee6-24feedff1167"},"vehicle_type_id":"4","last_reported":1692727681,"current_range_meters":29600,"station_id":"ce4bhbp2rcd13ifvqerg","pricing_plan_id":"free"},{"bike_id":"adaa526f-ad2d-4256-baaf-a6e5b7a5079d","system_id":"levelo_inurba_marseille","lat":43.28275,"lon":5.35062,"is_reserved":false,"is_disabled":false,"rental_uris":{"android":"levelo://app?vid=adaa526f-ad2d-4256-baaf-a6e5b7a5079d","ios":"levelo://app?vid=adaa526f-ad2d-4256-baaf-a6e5b7a5079d"},"vehicle_type_id":"4","last_reported":1692727681,"current_range_meters":10000,"station_id":"ce4bhbp2rcd13ifvqerg","pricing_plan_id":"free"},{"bike_id":"28851f45-fcdd-4ad6-a884-7271806f58f0","system_id":"levelo_inurba_marseille","lat":43.2827,"lon":5.35063,"is_reserved":false,"is_disabled":false,"rental_uris":{"android":"levelo://app?vid=28851f45-fcdd-4ad6-a884-7271806f58f0","ios":"levelo://app?vid=28851f45-fcdd-4ad6-a884-7271806f58f0"},"vehicle_type_id":"4","last_reported":1692727681,"current_range_meters":30400,"station_id":"ce4bhbp2rcd13ifvqerg","pricing_plan_id":"free"},{"bike_id":"8ba3eac1-39b3-4dad-9912-42885ea7f59d","system_id":"levelo_inurba_marseille","lat":43.2827,"lon":5.35063,"is_reserved":false,"is_disabled":false,"rental_uris":{"android":"levelo://app?vid=8ba3eac1-39b3-4dad-9912-42885ea7f59d","ios":"levelo://app?vid=8ba3eac1-39b3-4dad-9912-42885ea7f59d"},"vehicle_type_id":"4","last_reported":1692727681,"current_range_meters":22400,"station_id":"ce4bhbp2rcd13ifvqerg","pricing_plan_id":"free"},{"bike_id":"97665d79-dc46-4992-8999-8c7f31b1a802","system_id":"levelo_inurba_marseille","lat":43.2827,"lon":5.35059,"is_reserved":false,"is_disabled":false,"rental_uris":{"android":"levelo://app?vid=97665d79-dc46-4992-8999-8c7f31b1a802","ios":"levelo://app?vid=97665d79-dc46-4992-8999-8c7f31b1a802"},"vehicle_type_id":"4","last_reported":1692727681,"current_range_meters":31200,"station_id":"ce4bhbp2rcd13ifvqerg","pricing_plan_id":"free"},{"bike_id":"a648e4b9-af93-4b28-982e-e42c178ed1d0","system_id":"levelo_inurba_marseille","lat":43.28269,"lon":5.35058,"is_reserved":false,"is_disabled":false,"rental_uris":{"android":"levelo://app?vid=a648e4b9-af93-4b28-982e-e42c178ed1d0","ios":"levelo://app?vid=a648e4b9-af93-4b28-982e-e42c178ed1d0"},"vehicle_type_id":"4","last_reported":1692727681,"current_range_meters":31200,"station_id":"ce4bhbp2rcd13ifvqerg","pricing_plan_id":"free"},{"bike_id":"52c63707-8a60-437c-972e-19192605c7e9","system_id":"levelo_inurba_marseille","lat":43.231562,"lon":5.436933,"is_reserved":false,"is_disabled":false,"rental_uris":{"android":"levelo://app?vid=52c63707-8a60-437c-972e-19192605c7e9","ios":"levelo://app?vid=52c63707-8a60-437c-972e-19192605c7e9"},"vehicle_type_id":"4","last_reported":1692727681,"current_range_meters":13600,"station_id":"ce4bhmp2rcd13ifvqgog","pricing_plan_id":"free"},{"bike_id":"4f76bb8b-534a-4667-99f2-697a723881bd","system_id":"levelo_inurba_marseille","lat":43.28267,"lon":5.35059,"is_reserved":false,"is_disabled":false,"rental_uris":{"android":"levelo://app?vid=4f76bb8b-534a-4667-99f2-697a723881bd","ios":"levelo://app?vid=4f76bb8b-534a-4667-99f2-697a723881bd"},"vehicle_type_id":"4","last_reported":1692727681,"current_range_meters":31200,"station_id":"ce4bhbp2rcd13ifvqerg","pricing_plan_id":"free"},{"bike_id":"1900cef0-c11a-4972-a5d6-af5bc3fcf6bb","system_id":"levelo_inurba_marseille","lat":43.282696,"lon":5.350481,"is_reserved":false,"is_disabled":false,"rental_uris":{"android":"levelo://app?vid=1900cef0-c11a-4972-a5d6-af5bc3fcf6bb","ios":"levelo://app?vid=1900cef0-c11a-4972-a5d6-af5bc3fcf6bb"},"vehicle_type_id":"4","last_reported":1692727681,"current_range_meters":5200,"station_id":"ce4bhbp2rcd13ifvqerg","pricing_plan_id":"free"},{"bike_id":"e9b8bbaa-b0e4-41bc-8838-f8f2c4aa0104","system_id":"levelo_inurba_marseille","lat":43.28266,"lon":5.35058,"is_reserved":false,"is_disabled":false,"rental_uris":{"android":"levelo://app?vid=e9b8bbaa-b0e4-41bc-8838-f8f2c4aa0104","ios":"levelo://app?vid=e9b8bbaa-b0e4-41bc-8838-f8f2c4aa0104"},"vehicle_type_id":"4","last_reported":1692727681,"current_range_meters":6400,"station_id":"ce4bhbp2rcd13ifvqerg","pricing_plan_id":"free"},{"bike_id":"a1ecd9b9-d75d-4beb-93c9-16b72c60f041","system_id":"levelo_inurba_marseille","lat":43.28267,"lon":5.35048,"is_reserved":false,"is_disabled":false,"rental_uris":{"android":"levelo://app?vid=a1ecd9b9-d75d-4beb-93c9-16b72c60f041","ios":"levelo://app?vid=a1ecd9b9-d75d-4beb-93c9-16b72c60f041"},"vehicle_type_id":"4","last_reported":1692727681,"current_range_meters":31200,"station_id":"ce4bhbp2rcd13ifvqerg","pricing_plan_id":"free"},{"bike_id":"bcf4f588-6ed1-44f6-8caf-e08422e00fcb","system_id":"levelo_inurba_marseille","lat":43.28259,"lon":5.35058,"is_reserved":false,"is_disabled":false,"rental_uris":{"android":"levelo://app?vid=bcf4f588-6ed1-44f6-8caf-e08422e00fcb","ios":"levelo://app?vid=bcf4f588-6ed1-44f6-8caf-e08422e00fcb"},"vehicle_type_id":"4","last_reported":1692727681,"current_range_meters":31200,"station_id":"ce4bhbp2rcd13ifvqerg","pricing_plan_id":"free"},{"bike_id":"b9b1177a-370f-4447-a87e-1aaf24c19079","system_id":"levelo_inurba_marseille","lat":43.28039,"lon":5.369297,"is_reserved":false,"is_disabled":false,"rental_uris":{"android":"levelo://app?vid=b9b1177a-370f-4447-a87e-1aaf24c19079","ios":"levelo://app?vid=b9b1177a-370f-4447-a87e-1aaf24c19079"},"vehicle_type_id":"4","last_reported":1692727681,"current_range_meters":5600,"station_id":"ce4bha12rcd13ifvqef0","pricing_plan_id":"free"},{"bike_id":"9f46cfde-4f76-4076-bade-5765c2d3d473","system_id":"levelo_inurba_marseille","lat":43.28039,"lon":5.369297,"is_reserved":false,"is_disabled":false,"rental_uris":{"android":"levelo://app?vid=9f46cfde-4f76-4076-bade-5765c2d3d473","ios":"levelo://app?vid=9f46cfde-4f76-4076-bade-5765c2d3d473"},"vehicle_type_id":"4","last_reported":1692727681,"current_range_meters":31600,"station_id":"ce4bha12rcd13ifvqef0","pricing_plan_id":"free"},{"bike_id":"a826fdb1-01b8-4a28-9176-1c8996a96f87","system_id":"levelo_inurba_marseille","lat":43.28035,"lon":5.3694,"is_reserved":false,"is_disabled":false,"rental_uris":{"android":"levelo://app?vid=a826fdb1-01b8-4a28-9176-1c8996a96f87","ios":"levelo://app?vid=a826fdb1-01b8-4a28-9176-1c8996a96f87"},"vehicle_type_id":"4","last_reported":1692727681,"current_range_meters":30000,"station_id":"","pricing_plan_id":"free"},{"bike_id":"aa35f2ef-e0f4-428f-8963-dc677afb3fce","system_id":"levelo_inurba_marseille","lat":43.28031,"lon":5.36945,"is_reserved":false,"is_disabled":false,"rental_uris":{"android":"levelo://app?vid=aa35f2ef-e0f4-428f-8963-dc677afb3fce","ios":"levelo://app?vid=aa35f2ef-e0f4-428f-8963-dc677afb3fce"},"vehicle_type_id":"4","last_reported":1692727681,"current_range_meters":1200,"station_id":"ce4bha12rcd13ifvqef0","pricing_plan_id":"free"},{"bike_id":"5367f053-46ba-4eb0-8e0a-785be97ba9ea","system_id":"levelo_inurba_marseille","lat":43.2905,"lon":5.39946,"is_reserved":false,"is_disabled":false,"rental_uris":{"android":"levelo://app?vid=5367f053-46ba-4eb0-8e0a-785be97ba9ea","ios":"levelo://app?vid=5367f053-46ba-4eb0-8e0a-785be97ba9ea"},"vehicle_type_id":"4","last_reported":1692727681,"current_range_meters":27600,"station_id":"ce4bh392rcd13ifvqdm0","pricing_plan_id":"free"},{"bike_id":"afc5cd40-5219-4ae0-8195-133c526567b4","system_id":"levelo_inurba_marseille","lat":43.281044,"lon":5.378308,"is_reserved":false,"is_disabled":false,"rental_uris":{"android":"levelo://app?vid=afc5cd40-5219-4ae0-8195-133c526567b4","ios":"levelo://app?vid=afc5cd40-5219-4ae0-8195-133c526567b4"},"vehicle_type_id":"4","last_reported":1692727681,"current_range_meters":12000,"station_id":"ce4bha12rcd13ifvqee0","pricing_plan_id":"free"},{"bike_id":"68327ddf-e5d7-4464-a2bb-2a89aa74c819","system_id":"levelo_inurba_marseille","lat":43.28442,"lon":5.39193,"is_reserved":false,"is_disabled":false,"rental_uris":{"android":"levelo://app?vid=68327ddf-e5d7-4464-a2bb-2a89aa74c819","ios":"levelo://app?vid=68327ddf-e5d7-4464-a2bb-2a89aa74c819"},"vehicle_type_id":"4","last_reported":1692727681,"current_range_meters":8800,"station_id":"ce4bhoh2rcd13ifvqh5g","pricing_plan_id":"free"},{"bike_id":"988e0a01-b67a-4ceb-a87b-41a9cdc216ce","system_id":"levelo_inurba_marseille","lat":43.28434,"lon":5.3918,"is_reserved":false,"is_disabled":false,"rental_uris":{"android":"levelo://app?vid=988e0a01-b67a-4ceb-a87b-41a9cdc216ce","ios":"levelo://app?vid=988e0a01-b67a-4ceb-a87b-41a9cdc216ce"},"vehicle_type_id":"4","last_reported":1692727681,"current_range_meters":31200,"station_id":"ce4bhoh2rcd13ifvqh5g","pricing_plan_id":"free"},{"bike_id":"6f7d185c-7f14-4fee-a999-cec04cb8e6a2","system_id":"levelo_inurba_marseille","lat":43.285742,"lon":5.395004,"is_reserved":false,"is_disabled":false,"rental_uris":{"android":"levelo://app?vid=6f7d185c-7f14-4fee-a999-cec04cb8e6a2","ios":"levelo://app?vid=6f7d185c-7f14-4fee-a999-cec04cb8e6a2"},"vehicle_type_id":"4","last_reported":1692727681,"current_range_meters":30000,"station_id":"ce4bh292rcd13ifvqdg0","pricing_plan_id":"free"},{"bike_id":"64791367-df93-48fe-b166-2b7fd07a45ed","system_id":"levelo_inurba_marseille","lat":43.28573,"lon":5.394992,"is_reserved":false,"is_disabled":false,"rental_uris":{"android":"levelo://app?vid=64791367-df93-48fe-b166-2b7fd07a45ed","ios":"levelo://app?vid=64791367-df93-48fe-b166-2b7fd07a45ed"},"vehicle_type_id":"4","last_reported":1692727681,"current_range_meters":5600,"station_id":"ce4bh292rcd13ifvqdg0","pricing_plan_id":"free"},{"bike_id":"f6316ba5-4a5a-4027-8137-d8a21e83821c","system_id":"levelo_inurba_marseille","lat":43.28564,"lon":5.39497,"is_reserved":false,"is_disabled":false,"rental_uris":{"android":"levelo://app?vid=f6316ba5-4a5a-4027-8137-d8a21e83821c","ios":"levelo://app?vid=f6316ba5-4a5a-4027-8137-d8a21e83821c"},"vehicle_type_id":"4","last_reported":1692727681,"current_range_meters":16000,"station_id":"ce4bh292rcd13ifvqdg0","pricing_plan_id":"free"},{"bike_id":"f8ef4f78-badc-40d1-a4a9-077301466e56","system_id":"levelo_inurba_marseille","lat":43.32662,"lon":5.40978,"is_reserved":false,"is_disabled":false,"rental_uris":{"android":"levelo://app?vid=f8ef4f78-badc-40d1-a4a9-077301466e56","ios":"levelo://app?vid=f8ef4f78-badc-40d1-a4a9-077301466e56"},"vehicle_type_id":"4","last_reported":1692727681,"current_range_meters":800,"station_id":"ce4bhpp2rcd13ifvqhgg","pricing_plan_id":"free"},{"bike_id":"0b9fa7de-5813-428d-94fb-7f66b470a7fb","system_id":"levelo_inurba_marseille","lat":43.287154,"lon":5.399979,"is_reserved":false,"is_disabled":false,"rental_uris":{"android":"levelo://app?vid=0b9fa7de-5813-428d-94fb-7f66b470a7fb","ios":"levelo://app?vid=0b9fa7de-5813-428d-94fb-7f66b470a7fb"},"vehicle_type_id":"4","last_reported":1692727681,"current_range_meters":5200,"station_id":"ce4bho92rcd13ifvqh3g","pricing_plan_id":"free"},{"bike_id":"54cf4a13-6fe9-40ef-804e-5873aed2ee14","system_id":"levelo_inurba_marseille","lat":43.27907,"lon":5.38008,"is_reserved":false,"is_disabled":false,"rental_uris":{"android":"levelo://app?vid=54cf4a13-6fe9-40ef-804e-5873aed2ee14","ios":"levelo://app?vid=54cf4a13-6fe9-40ef-804e-5873aed2ee14"},"vehicle_type_id":"4","last_reported":1692727681,"current_range_meters":26400,"station_id":"","pricing_plan_id":"free"},{"bike_id":"c7abe229-dab3-4aad-9632-d5c944493d4c","system_id":"levelo_inurba_marseille","lat":43.279087,"lon":5.380114,"is_reserved":false,"is_disabled":false,"rental_uris":{"android":"levelo://app?vid=c7abe229-dab3-4aad-9632-d5c944493d4c","ios":"levelo://app?vid=c7abe229-dab3-4aad-9632-d5c944493d4c"},"vehicle_type_id":"4","last_reported":1692727681,"current_range_meters":5200,"station_id":"ce4bhf92rcd13ifvqf50","pricing_plan_id":"free"},{"bike_id":"25be3361-8c5c-4417-8ed8-fa50a9b085f4","system_id":"levelo_inurba_marseille","lat":43.287106,"lon":5.399947,"is_reserved":false,"is_disabled":false,"rental_uris":{"android":"levelo://app?vid=25be3361-8c5c-4417-8ed8-fa50a9b085f4","ios":"levelo://app?vid=25be3361-8c5c-4417-8ed8-fa50a9b085f4"},"vehicle_type_id":"4","last_reported":1692727681,"current_range_meters":22800,"station_id":"","pricing_plan_id":"free"},{"bike_id":"c9c76cab-2c0e-433b-aa92-15d8748fccd9","system_id":"levelo_inurba_marseille","lat":43.287154,"lon":5.399979,"is_reserved":false,"is_disabled":false,"rental_uris":{"android":"levelo://app?vid=c9c76cab-2c0e-433b-aa92-15d8748fccd9","ios":"levelo://app?vid=c9c76cab-2c0e-433b-aa92-15d8748fccd9"},"vehicle_type_id":"4","last_reported":1692727681,"current_range_meters":3600,"station_id":"ce4bho92rcd13ifvqh3g","pricing_plan_id":"free"},{"bike_id":"7997270c-f8c7-450a-a38d-cb74bf93e47d","system_id":"levelo_inurba_marseille","lat":43.287154,"lon":5.399979,"is_reserved":false,"is_disabled":false,"rental_uris":{"android":"levelo://app?vid=7997270c-f8c7-450a-a38d-cb74bf93e47d","ios":"levelo://app?vid=7997270c-f8c7-450a-a38d-cb74bf93e47d"},"vehicle_type_id":"4","last_reported":1692727681,"current_range_meters":23600,"station_id":"ce4bho92rcd13ifvqh3g","pricing_plan_id":"free"},{"bike_id":"76a56516-1d3b-473c-9dcb-9d4724b70d10","system_id":"levelo_inurba_marseille","lat":43.286924,"lon":5.40007,"is_reserved":false,"is_disabled":false,"rental_uris":{"android":"levelo://app?vid=76a56516-1d3b-473c-9dcb-9d4724b70d10","ios":"levelo://app?vid=76a56516-1d3b-473c-9dcb-9d4724b70d10"},"vehicle_type_id":"4","last_reported":1692727681,"current_range_meters":10400,"station_id":"ce4bho92rcd13ifvqh3g","pricing_plan_id":"free"},{"bike_id":"0916dbfc-6221-40c0-ae1c-eddb3d65d248","system_id":"levelo_inurba_marseille","lat":43.299641,"lon":5.413135,"is_reserved":false,"is_disabled":false,"rental_uris":{"android":"levelo://app?vid=0916dbfc-6221-40c0-ae1c-eddb3d65d248","ios":"levelo://app?vid=0916dbfc-6221-40c0-ae1c-eddb3d65d248"},"vehicle_type_id":"4","last_reported":1692727681,"current_range_meters":29200,"station_id":"","pricing_plan_id":"free"},{"bike_id":"8cc2f430-b3fc-4995-b578-7d585495040f","system_id":"levelo_inurba_marseille","lat":43.299579,"lon":5.413255,"is_reserved":false,"is_disabled":false,"rental_uris":{"android":"levelo://app?vid=8cc2f430-b3fc-4995-b578-7d585495040f","ios":"levelo://app?vid=8cc2f430-b3fc-4995-b578-7d585495040f"},"vehicle_type_id":"4","last_reported":1692727681,"current_range_meters":28000,"station_id":"ce4bhp12rcd13ifvqh9g","pricing_plan_id":"free"},{"bike_id":"4da9e1e0-d193-4a79-9ef8-4eeb1fed0ae5","system_id":"levelo_inurba_marseille","lat":43.299579,"lon":5.413255,"is_reserved":false,"is_disabled":false,"rental_uris":{"android":"levelo://app?vid=4da9e1e0-d193-4a79-9ef8-4eeb1fed0ae5","ios":"levelo://app?vid=4da9e1e0-d193-4a79-9ef8-4eeb1fed0ae5"},"vehicle_type_id":"4","last_reported":1692727681,"current_range_meters":24800,"station_id":"ce4bhp12rcd13ifvqh9g","pricing_plan_id":"free"},{"bike_id":"36759705-e5a0-489b-85af-d58b45a1745f","system_id":"levelo_inurba_marseille","lat":43.299579,"lon":5.413255,"is_reserved":false,"is_disabled":false,"rental_uris":{"android":"levelo://app?vid=36759705-e5a0-489b-85af-d58b45a1745f","ios":"levelo://app?vid=36759705-e5a0-489b-85af-d58b45a1745f"},"vehicle_type_id":"4","last_reported":1692727681,"current_range_meters":31600,"station_id":"ce4bhp12rcd13ifvqh9g","pricing_plan_id":"free"},{"bike_id":"61d43c76-6357-4d87-8f06-7d51a264e6a0","system_id":"levelo_inurba_marseille","lat":43.299577,"lon":5.413277,"is_reserved":false,"is_disabled":false,"rental_uris":{"android":"levelo://app?vid=61d43c76-6357-4d87-8f06-7d51a264e6a0","ios":"levelo://app?vid=61d43c76-6357-4d87-8f06-7d51a264e6a0"},"vehicle_type_id":"4","last_reported":1692727681,"current_range_meters":31200,"station_id":"ce4bhp12rcd13ifvqh9g","pricing_plan_id":"free"},{"bike_id":"c327718a-8fe6-4791-a349-aba0f8f94e82","system_id":"levelo_inurba_marseille","lat":43.279742,"lon":5.38744,"is_reserved":false,"is_disabled":false,"rental_uris":{"android":"levelo://app?vid=c327718a-8fe6-4791-a349-aba0f8f94e82","ios":"levelo://app?vid=c327718a-8fe6-4791-a349-aba0f8f94e82"},"vehicle_type_id":"4","last_reported":1692727681,"current_range_meters":25200,"station_id":"ce4bhg12rcd13ifvqf80","pricing_plan_id":"free"},{"bike_id":"6c408fe7-cc15-4b75-8bf5-87403a80a90c","system_id":"levelo_inurba_marseille","lat":43.27618,"lon":5.361009,"is_reserved":false,"is_disabled":false,"rental_uris":{"android":"levelo://app?vid=6c408fe7-cc15-4b75-8bf5-87403a80a90c","ios":"levelo://app?vid=6c408fe7-cc15-4b75-8bf5-87403a80a90c"},"vehicle_type_id":"4","last_reported":1692727681,"current_range_meters":2400,"station_id":"ce4bgj92rcd13ifvqbe0","pricing_plan_id":"free"},{"bike_id":"1ab55d3e-161a-4a0b-b50f-09d52fa3127b","system_id":"levelo_inurba_marseille","lat":43.27621,"lon":5.36111,"is_reserved":false,"is_disabled":false,"rental_uris":{"android":"levelo://app?vid=1ab55d3e-161a-4a0b-b50f-09d52fa3127b","ios":"levelo://app?vid=1ab55d3e-161a-4a0b-b50f-09d52fa3127b"},"vehicle_type_id":"4","last_reported":1692727681,"current_range_meters":4800,"station_id":"ce4bgj92rcd13ifvqbe0","pricing_plan_id":"free"},{"bike_id":"bcb61182-2ddf-4fcd-b8ea-f4191192c6da","system_id":"levelo_inurba_marseille","lat":43.27618,"lon":5.361009,"is_reserved":false,"is_disabled":false,"rental_uris":{"android":"levelo://app?vid=bcb61182-2ddf-4fcd-b8ea-f4191192c6da","ios":"levelo://app?vid=bcb61182-2ddf-4fcd-b8ea-f4191192c6da"},"vehicle_type_id":"4","last_reported":1692727681,"current_range_meters":8000,"station_id":"ce4bgj92rcd13ifvqbe0","pricing_plan_id":"free"},{"bike_id":"c89fe19c-e47c-4bd2-b573-87d43be9925a","system_id":"levelo_inurba_marseille","lat":43.27618,"lon":5.361009,"is_reserved":false,"is_disabled":false,"rental_uris":{"android":"levelo://app?vid=c89fe19c-e47c-4bd2-b573-87d43be9925a","ios":"levelo://app?vid=c89fe19c-e47c-4bd2-b573-87d43be9925a"},"vehicle_type_id":"4","last_reported":1692727681,"current_range_meters":0,"station_id":"ce4bgj92rcd13ifvqbe0","pricing_plan_id":"free"},{"bike_id":"35ed6695-97f1-49e0-b862-913c254d0d37","system_id":"levelo_inurba_marseille","lat":43.280784,"lon":5.396622,"is_reserved":false,"is_disabled":false,"rental_uris":{"android":"levelo://app?vid=35ed6695-97f1-49e0-b862-913c254d0d37","ios":"levelo://app?vid=35ed6695-97f1-49e0-b862-913c254d0d37"},"vehicle_type_id":"4","last_reported":1692727681,"current_range_meters":7200,"station_id":"ce4bho12rcd13ifvqh2g","pricing_plan_id":"free"},{"bike_id":"d94bbe13-6239-4e21-98e1-942b44cec5c3","system_id":"levelo_inurba_marseille","lat":43.280784,"lon":5.396622,"is_reserved":false,"is_disabled":false,"rental_uris":{"android":"levelo://app?vid=d94bbe13-6239-4e21-98e1-942b44cec5c3","ios":"levelo://app?vid=d94bbe13-6239-4e21-98e1-942b44cec5c3"},"vehicle_type_id":"4","last_reported":1692727681,"current_range_meters":22000,"station_id":"ce4bho12rcd13ifvqh2g","pricing_plan_id":"free"},{"bike_id":"eb92e523-d5d7-4451-b8fc-6bf02d311a6d","system_id":"levelo_inurba_marseille","lat":43.278399,"lon":5.392139,"is_reserved":false,"is_disabled":false,"rental_uris":{"android":"levelo://app?vid=eb92e523-d5d7-4451-b8fc-6bf02d311a6d","ios":"levelo://app?vid=eb92e523-d5d7-4451-b8fc-6bf02d311a6d"},"vehicle_type_id":"4","last_reported":1692727681,"current_range_meters":18800,"station_id":"ce4bhjp2rcd13ifvqga0","pricing_plan_id":"free"},{"bike_id":"d0c53317-ff43-48ed-b8df-d6c6058f0aef","system_id":"levelo_inurba_marseille","lat":43.278401,"lon":5.392152,"is_reserved":false,"is_disabled":false,"rental_uris":{"android":"levelo://app?vid=d0c53317-ff43-48ed-b8df-d6c6058f0aef","ios":"levelo://app?vid=d0c53317-ff43-48ed-b8df-d6c6058f0aef"},"vehicle_type_id":"4","last_reported":1692727681,"current_range_meters":6400,"station_id":"ce4bhjp2rcd13ifvqga0","pricing_plan_id":"free"},{"bike_id":"c6ca1742-47b3-404d-9b87-abb3ddfb3dec","system_id":"levelo_inurba_marseille","lat":43.278401,"lon":5.392152,"is_reserved":false,"is_disabled":false,"rental_uris":{"android":"levelo://app?vid=c6ca1742-47b3-404d-9b87-abb3ddfb3dec","ios":"levelo://app?vid=c6ca1742-47b3-404d-9b87-abb3ddfb3dec"},"vehicle_type_id":"4","last_reported":1692727681,"current_range_meters":3600,"station_id":"ce4bhjp2rcd13ifvqga0","pricing_plan_id":"free"},{"bike_id":"e01daa41-e06b-4978-a996-c1cd5843d6c6","system_id":"levelo_inurba_marseille","lat":43.27383,"lon":5.36242,"is_reserved":false,"is_disabled":false,"rental_uris":{"android":"levelo://app?vid=e01daa41-e06b-4978-a996-c1cd5843d6c6","ios":"levelo://app?vid=e01daa41-e06b-4978-a996-c1cd5843d6c6"},"vehicle_type_id":"4","last_reported":1692727681,"current_range_meters":31600,"station_id":"ce4bhbh2rcd13ifvqeo0","pricing_plan_id":"free"},