{"last_updated":1732817550,"ttl":60,"version":"2.2","data":{"bikes":[{"bike_id":"b4a49198-4e4d-41fb-8f97-02aec61236e4","system_id":"levelo_inurba_marseille","lat":43.28333,"lon":5.38097,"is_reserved":false,"is_disabled":true,"rental_uris":{"android":"levelo://app?vid=b4a49198-4e4d-41fb-8f97-02aec61236e4","ios":"levelo://app?vid=b4a49198-4e4d-41fb-8f97-02aec61236e4"},"vehicle_type_id":"4","last_reported":1732817550,"current_range_meters":0,"station_id":"ce4bh412rcd13ifvqdr0","pricing_plan_id":"cebpf4jnsgd1na2vs0mg"},{"bike_id":"7b904d23-91a3-4bba-bc0d-a36296b34e20","system_id":"levelo_inurba_marseille","lat":43.2799,"lon":5.41656,"is_reserved":false,"is_disabled":false,"rental_uris":{"android":"levelo://app?vid=7b904d23-91a3-4bba-bc0d-a36296b34e20","ios":"levelo://app?vid=7b904d23-91a3-4bba-bc0d-a36296b34e20"},"vehicle_type_id":"4","last_reported":1732817550,"current_range_meters":37600,"station_id":"ce4bho12rcd13ifvqh1g","pricing_plan_id":"cebpf4jnsgd1na2vs0mg"},{"bike_id":"e42545d9-331a-4f6f-afc6-4a1f2bf54ab1","system_id":"levelo_inurba_marseille","lat":43.27059,"lon":5.40262,"is_reserved":false,"is_disabled":true,"rental_uris":{"android":"levelo://app?vid=e42545d9-331a-4f6f-afc6-4a1f2bf54ab1","ios":"levelo://app?vid=e42545d9-331a-4f6f-afc6-4a1f2bf54ab1"},"vehicle_type_id":"4","last_reported":1732817550,"current_range_meters":800,"station_id":"ce4bhk92rcd13ifvqgc0","pricing_plan_id":"cebpf4jnsgd1na2vs0mg"},{"bike_id":"b856c8b4-412d-4c25-bdd4-e6b29aed04cb","system_id":"levelo_inurba_marseille","lat":43.22941,"lon":5.35378,"is_reserved":false,"is_disabled":false,"rental_uris":{"android":"levelo://app?vid=b856c8b4-412d-4c25-bdd4-e6b29aed04cb","ios":"levelo://app?vid=b856c8b4-412d-4c25-bdd4-e6b29aed04cb"},"vehicle_type_id":"4","last_reported":1732817550,"current_range_meters":39200,"station_id":"cpo3532slgdg3j2ikp40","pricing_plan_id":"cebpf4jnsgd1na2vs0mg"},{"bike_id":"7227eb96-d386-412d-821f-5a72792a8416","system_id":"levelo_inurba_marseille","lat":43.28399,"lon":5.37497,"is_reserved":false,"is_disabled":false,"rental_uris":{"android":"levelo://app?vid=7227eb96-d386-412d-821f-5a72792a8416","ios":"levelo://app?vid=7227eb96-d386-412d-821f-5a72792a8416"},"vehicle_type_id":"4","last_reported":1732817550,"current_range_meters":37600,"station_id":"ce4bh412rcd13ifvqds0","pricing_plan_id":"cebpf4jnsgd1na2vs0mg"},{"bike_id":"f402aca7-88f2-4c9f-93cb-db9428718345","system_id":"levelo_inurba_marseille","lat":43.30142,"lon":5.37424,"is_reserved":false,"is_disabled":false,"rental_uris":{"android":"levelo://app?vid=f402aca7-88f2-4c9f-93cb-db9428718345","ios":"levelo://app?vid=f402aca7-88f2-4c9f-93cb-db9428718345"},"vehicle_type_id":"4","last_reported":1732817550,"current_range_meters":39200,"station_id":"ce4bgs92rcd13ifvqcc0","pricing_plan_id":"cebpf4jnsgd1na2vs0mg"},{"bike_id":"78228560-6fbf-4122-9d03-128a049c2bf9","system_id":"levelo_inurba_marseille","lat":43.23183,"lon":5.39989,"is_reserved":false,"is_disabled":false,"rental_uris":{"android":"levelo://app?vid=78228560-6fbf-4122-9d03-128a049c2bf9","ios":"levelo://app?vid=78228560-6fbf-4122-9d03-128a049c2bf9"},"vehicle_type_id":"4","last_reported":1732817550,"current_range_meters":12400,"station_id":"ce4bhn12rcd13ifvqgqg","pricing_plan_id":"cebpf4jnsgd1na2vs0mg"},{"bike_id":"8b606e12-d2c9-41bb-a2e2-b72a2fcca1e1","system_id":"levelo_inurba_marseille","lat":43.31448,"lon":5.37476,"is_reserved":false,"is_disabled":true,"rental_uris":{"android":"levelo://app?vid=8b606e12-d2c9-41bb-a2e2-b72a2fcca1e1","ios":"levelo://app?vid=8b606e12-d2c9-41bb-a2e2-b72a2fcca1e1"},"vehicle_type_id":"4","last_reported":1732817550,"current_range_meters":0,"station_id":"","pricing_plan_id":"cebpf4jnsgd1na2vs0mg"},{"bike_id":"63d5ea0e-a914-4314-9ef8-c7ac468ecf56","system_id":"levelo_inurba_marseille","lat":43.28155,"lon":5.42652,"is_reserved":false,"is_disabled":false,"rental_uris":{"android":"levelo://app?vid=63d5ea0e-a914-4314-9ef8-c7ac468ecf56","ios":"levelo://app?vid=63d5ea0e-a914-4314-9ef8-c7ac468ecf56"},"vehicle_type_id":"4","last_reported":1732817550,"current_range_meters":28400,"station_id":"ce4bhnh2rcd13ifvqgug","pricing_plan_id":"cebpf4jnsgd1na2vs0mg"},{"bike_id":"a5b909c2-953a-42bd-a3ed-b8b24cd4c0f9","system_id":"levelo_inurba_marseille","lat":43.29773,"lon":5.39329,"is_reserved":false,"is_disabled":false,"rental_uris":{"android":"levelo://app?vid=a5b909c2-953a-42bd-a3ed-b8b24cd4c0f9","ios":"levelo://app?vid=a5b909c2-953a-42bd-a3ed-b8b24cd4c0f9"},"vehicle_type_id":"4","last_reported":1732817550,"current_range_meters":17200,"station_id":"chh1huq6cuj3fo74tm60","pricing_plan_id":"cebpf4jnsgd1na2vs0mg"},{"bike_id":"0f7c066d-65fc-4b6c-8669-7d8c2564b4b0","system_id":"levelo_inurba_marseille","lat":43.28847,"lon":5.39329,"is_reserved":false,"is_disabled":false,"rental_uris":{"android":"levelo://app?vid=0f7c066d-65fc-4b6c-8669-7d8c2564b4b0","ios":"levelo://app?vid=0f7c066d-65fc-4b6c-8669-7d8c2564b4b0"},"vehicle_type_id":"4","last_reported":1732817550,"current_range_meters":20000,"station_id":"ce4bh2p2rcd13ifvqdi0","pricing_plan_id":"cebpf4jnsgd1na2vs0mg"},{"bike_id":"23640406-68ad-4f97-b3ab-24263309eb3b","system_id":"levelo_inurba_marseille","lat":43.26927,"lon":5.38907,"is_reserved":false,"is_disabled":false,"rental_uris":{"android":"levelo://app?vid=23640406-68ad-4f97-b3ab-24263309eb3b","ios":"levelo://app?vid=23640406-68ad-4f97-b3ab-24263309eb3b"},"vehicle_type_id":"4","last_reported":1732817550,"current_range_meters":28000,"station_id":"ce4bhhh2rcd13ifvqfl0","pricing_plan_id":"cebpf4jnsgd1na2vs0mg"},{"bike_id":"ce15a521-8a1d-47b7-92c8-091ca367d00e","system_id":"levelo_inurba_marseille","lat":43.33749,"lon":5.37439,"is_reserved":false,"is_disabled":false,"rental_uris":{"android":"levelo://app?vid=ce15a521-8a1d-47b7-92c8-091ca367d00e","ios":"levelo://app?vid=ce15a521-8a1d-47b7-92c8-091ca367d00e"},"vehicle_type_id":"4","last_reported":1732817550,"current_range_meters":36800,"station_id":"","pricing_plan_id":"cebpf4jnsgd1na2vs0mg"},{"bike_id":"918ff8b7-8938-4871-85bb-65545212ebac","system_id":"levelo_inurba_marseille","lat":43.29524,"lon":5.39041,"is_reserved":false,"is_disabled":false,"rental_uris":{"android":"levelo://app?vid=918ff8b7-8938-4871-85bb-65545212ebac","ios":"levelo://app?vid=918ff8b7-8938-4871-85bb-65545212ebac"},"vehicle_type_id":"4","last_reported":1732817550,"current_range_meters":36000,"station_id":"ce4bh3p2rcd13ifvqdp0","pricing_plan_id":"cebpf4jnsgd1na2vs0mg"},{"bike_id":"a8cfb7c5-59c0-4772-a793-b840317f8234","system_id":"levelo_inurba_marseille","lat":43.29249,"lon":5.409,"is_reserved":false,"is_disabled":true,"rental_uris":{"android":"levelo://app?vid=a8cfb7c5-59c0-4772-a793-b840317f8234","ios":"levelo://app?vid=a8cfb7c5-59c0-4772-a793-b840317f8234"},"vehicle_type_id":"4","last_reported":1732817550,"current_range_meters":39200,"station_id":"ce4bh192rcd13ifvqdc0","pricing_plan_id":"cebpf4jnsgd1na2vs0mg"},{"bike_id":"ba2d1a62-e632-4169-9a28-b83f6acba689","system_id":"levelo_inurba_marseille","lat":43.2633,"lon":5.40457,"is_reserved":false,"is_disabled":true,"rental_uris":{"android":"levelo://app?vid=ba2d1a62-e632-4169-9a28-b83f6acba689","ios":"levelo://app?vid=ba2d1a62-e632-4169-9a28-b83f6acba689"},"vehicle_type_id":"4","last_reported":1732817550,"current_range_meters":0,"station_id":"","pricing_plan_id":"cebpf4jnsgd1na2vs0mg"},{"bike_id":"106e461f-3874-428c-8522-21fc2ca5b5c8","system_id":"levelo_inurba_marseille","lat":43.28023,"lon":5.36943,"is_reserved":false,"is_disabled":true,"rental_uris":{"android":"levelo://app?vid=106e461f-3874-428c-8522-21fc2ca5b5c8","ios":"levelo://app?vid=106e461f-3874-428c-8522-21fc2ca5b5c8"},"vehicle_type_id":"4","last_reported":1732817550,"current_range_meters":1200,"station_id":"ce4bha12rcd13ifvqef0","pricing_plan_id":"cebpf4jnsgd1na2vs0mg"},{"bike_id":"1e6c3ebf-5fe6-4a58-a3a5-470ed290fc10","system_id":"levelo_inurba_marseille","lat":43.31513,"lon":5.37494,"is_reserved":false,"is_disabled":true,"rental_uris":{"android":"levelo://app?vid=1e6c3ebf-5fe6-4a58-a3a5-470ed290fc10","ios":"levelo://app?vid=1e6c3ebf-5fe6-4a58-a3a5-470ed290fc10"},"vehicle_type_id":"4","last_reported":1732817550,"current_range_meters":0,"station_id":"","pricing_plan_id":"cebpf4jnsgd1na2vs0mg"},{"bike_id":"3311b98b-2d07-42c3-ab30-997a77f6e0e5","system_id":"levelo_inurba_marseille","lat":43.27953,"lon":5.41043,"is_reserved":false,"is_disabled":false,"rental_uris":{"android":"levelo://app?vid=3311b98b-2d07-42c3-ab30-997a77f6e0e5","ios":"levelo://app?vid=3311b98b-2d07-42c3-ab30-997a77f6e0e5"},"vehicle_type_id":"4","last_reported":1732817550,"current_range_meters":16800,"station_id":"ce4bhnp2rcd13ifvqh0g","pricing_plan_id":"cebpf4jnsgd1na2vs0mg"},{"bike_id":"ff9a1ec5-be80-43ec-9b6e-d2bb637a4f30","system_id":"levelo_inurba_marseille","lat":43.28709,"lon":5.39979,"is_reserved":false,"is_disabled":true,"rental_uris":{"android":"levelo://app?vid=ff9a1ec5-be80-43ec-9b6e-d2bb637a4f30","ios":"levelo://app?vid=ff9a1ec5-be80-43ec-9b6e-d2bb637a4f30"},"vehicle_type_id":"4","last_reported":1732817550,"current_range_meters":34800,"station_id":"ce4bho92rcd13ifvqh3g","pricing_plan_id":"cebpf4jnsgd1na2vs0mg"},{"bike_id":"b3725c82-8d7e-4075-bd0d-f07e9f6f3c12","system_id":"levelo_inurba_marseille","lat":43.248092,"lon":5.374652,"is_reserved":false,"is_disabled":false,"rental_uris":{"android":"levelo://app?vid=b3725c82-8d7e-4075-bd0d-f07e9f6f3c12","ios":"levelo://app?vid=b3725c82-8d7e-4075-bd0d-f07e9f6f3c12"},"vehicle_type_id":"4","last_reported":1732817550,"current_range_meters":10800,"station_id":"ce4bhgh2rcd13ifvqfb0","pricing_plan_id":"cebpf4jnsgd1na2vs0mg"},{"bike_id":"6f7949e1-de87-4a49-8620-fec27e04447f","system_id":"levelo_inurba_marseille","lat":43.33747,"lon":5.39195,"is_reserved":false,"is_disabled":false,"rental_uris":{"android":"levelo://app?vid=6f7949e1-de87-4a49-8620-fec27e04447f","ios":"levelo://app?vid=6f7949e1-de87-4a49-8620-fec27e04447f"},"vehicle_type_id":"4","last_reported":1732817550,"current_range_meters":34800,"station_id":"ce4bhr92rcd13ifvqhsg","pricing_plan_id":"cebpf4jnsgd1na2vs0mg"},{"bike_id":"d6af473c-317d-44a4-ba58-092abf84584f","system_id":"levelo_inurba_marseille","lat":43.22935,"lon":5.35379,"is_reserved":false,"is_disabled":true,"rental_uris":{"android":"levelo://app?vid=d6af473c-317d-44a4-ba58-092abf84584f","ios":"levelo://app?vid=d6af473c-317d-44a4-ba58-092abf84584f"},"vehicle_type_id":"4","last_reported":1732817550,"current_range_meters":1200,"station_id":"cpo3532slgdg3j2ikp40","pricing_plan_id":"cebpf4jnsgd1na2vs0mg"},{"bike_id":"d873b31d-bfeb-45ba-95cb-ddd4b051333e","system_id":"levelo_inurba_marseille","lat":43.29814,"lon":5.38129,"is_reserved":false,"is_disabled":true,"rental_uris":{"android":"levelo://app?vid=d873b31d-bfeb-45ba-95cb-ddd4b051333e","ios":"levelo://app?vid=d873b31d-bfeb-45ba-95cb-ddd4b051333e"},"vehicle_type_id":"4","last_reported":1732817550,"current_range_meters":38800,"station_id":"ce4bgip2rcd13ifvqbb0","pricing_plan_id":"cebpf4jnsgd1na2vs0mg"},{"bike_id":"b3f8e132-d4e5-44ab-a5d5-3df85236bf16","system_id":"levelo_inurba_marseille","lat":43.30884,"lon":5.39653,"is_reserved":false,"is_disabled":false,"rental_uris":{"android":"levelo://app?vid=b3f8e132-d4e5-44ab-a5d5-3df85236bf16","ios":"levelo://app?vid=b3f8e132-d4e5-44ab-a5d5-3df85236bf16"},"vehicle_type_id":"4","last_reported":1732817550,"current_range_meters":33200,"station_id":"ce4bh012rcd13ifvqcv0","pricing_plan_id":"cebpf4jnsgd1na2vs0mg"},{"bike_id":"54d71fdb-97ba-47a6-ad86-2b412d082cde","system_id":"levelo_inurba_marseille","lat":43.29711,"lon":5.37697,"is_reserved":false,"is_disabled":true,"rental_uris":{"android":"levelo://app?vid=54d71fdb-97ba-47a6-ad86-2b412d082cde","ios":"levelo://app?vid=54d71fdb-97ba-47a6-ad86-2b412d082cde"},"vehicle_type_id":"4","last_reported":1732817550,"current_range_meters":0,"station_id":"ce4bgkh2rcd13ifvqbl0","pricing_plan_id":"cebpf4jnsgd1na2vs0mg"},{"bike_id":"95bce0c8-7aac-4804-81c7-e4d0b22cb60c","system_id":"levelo_inurba_marseille","lat":43.23952,"lon":5.36635,"is_reserved":false,"is_disabled":false,"rental_uris":{"android":"levelo://app?vid=95bce0c8-7aac-4804-81c7-e4d0b22cb60c","ios":"levelo://app?vid=95bce0c8-7aac-4804-81c7-e4d0b22cb60c"},"vehicle_type_id":"4","last_reported":1732817550,"current_range_meters":32400,"station_id":"ce4bhi12rcd13ifvqfp0","pricing_plan_id":"cebpf4jnsgd1na2vs0mg"},{"bike_id":"be789cb5-42af-43a2-94a4-8e4683df0564","system_id":"levelo_inurba_marseille","lat":43.30648,"lon":5.40096,"is_reserved":false,"is_disabled":false,"rental_uris":{"android":"levelo://app?vid=be789cb5-42af-43a2-94a4-8e4683df0564","ios":"levelo://app?vid=be789cb5-42af-43a2-94a4-8e4683df0564"},"vehicle_type_id":"4","last_reported":1732817550,"current_range_meters":4000,"station_id":"ce4bh112rcd13ifvqda0","pricing_plan_id":"cebpf4jnsgd1na2vs0mg"},{"bike_id":"93dc556a-47f1-4b7e-aac6-983ea8065a4c","system_id":"levelo_inurba_marseille","lat":43.23197,"lon":5.35557,"is_reserved":false,"is_disabled":false,"rental_uris":{"android":"levelo://app?vid=93dc556a-47f1-4b7e-aac6-983ea8065a4c","ios":"levelo://app?vid=93dc556a-47f1-4b7e-aac6-983ea8065a4c"},"vehicle_type_id":"4","last_reported":1732817550,"current_range_meters":28400,"station_id":"ce4bhu92rcd13ifvqi70","pricing_plan_id":"cebpf4jnsgd1na2vs0mg"},{"bike_id":"adf2b923-6b30-41fd-a2c3-d189bb813bd0","system_id":"levelo_inurba_marseille","lat":43.28152,"lon":5.42653,"is_reserved":false,"is_disabled":false,"rental_uris":{"android":"levelo://app?vid=adf2b923-6b30-41fd-a2c3-d189bb813bd0","ios":"levelo://app?vid=adf2b923-6b30-41fd-a2c3-d189bb813bd0"},"vehicle_type_id":"4","last_reported":1732817550,"current_range_meters":7200,"station_id":"ce4bhnh2rcd13ifvqgug","pricing_plan_id":"cebpf4jnsgd1na2vs0mg"},{"bike_id":"5cea2ee5-485b-4504-a2c5-7395420be218","system_id":"levelo_inurba_marseille","lat":43.31203,"lon":5.37736,"is_reserved":false,"is_disabled":false,"rental_uris":{"android":"levelo://app?vid=5cea2ee5-485b-4504-a2c5-7395420be218","ios":"levelo://app?vid=5cea2ee5-485b-4504-a2c5-7395420be218"},"vehicle_type_id":"4","last_reported":1732817550,"current_range_meters":8000,"station_id":"ce4bgt92rcd13ifvqcg0","pricing_plan_id":"cebpf4jnsgd1na2vs0mg"},{"bike_id":"64a07d25-b86c-4fa0-a401-18df5c5170c3","system_id":"levelo_inurba_marseille","lat":43.2926,"lon":5.40906,"is_reserved":false,"is_disabled":false,"rental_uris":{"android":"levelo://app?vid=64a07d25-b86c-4fa0-a401-18df5c5170c3","ios":"levelo://app?vid=64a07d25-b86c-4fa0-a401-18df5c5170c3"},"vehicle_type_id":"4","last_reported":1732817550,"current_range_meters":23200,"station_id":"ce4bh192rcd13ifvqdc0","pricing_plan_id":"cebpf4jnsgd1na2vs0mg"},{"bike_id":"4709c438-f4af-415a-a919-d27302b75dca","system_id":"levelo_inurba_marseille","lat":43.231961,"lon":5.355532,"is_reserved":false,"is_disabled":false,"rental_uris":{"android":"levelo://app?vid=4709c438-f4af-415a-a919-d27302b75dca","ios":"levelo://app?vid=4709c438-f4af-415a-a919-d27302b75dca"},"vehicle_type_id":"4","last_reported":1732817550,"current_range_meters":39200,"station_id":"ce4bhu92rcd13ifvqi70","pricing_plan_id":"cebpf4jnsgd1na2vs0mg"},{"bike_id":"2b921899-1359-49b6-a793-ffb9ef50e656","system_id":"levelo_inurba_marseille","lat":43.29643,"lon":5.37723,"is_reserved":false,"is_disabled":true,"rental_uris":{"android":"levelo://app?vid=2b921899-1359-49b6-a793-ffb9ef50e656","ios":"levelo://app?vid=2b921899-1359-49b6-a793-ffb9ef50e656"},"vehicle_type_id":"4","last_reported":1732817550,"current_range_meters":36400,"station_id":"ce4bgi92rcd13ifvqb90","pricing_plan_id":"cebpf4jnsgd1na2vs0mg"},{"bike_id":"7183a267-3c34-44c5-a14c-ebeb25b3cd2f","system_id":"levelo_inurba_marseille","lat":43.28719,"lon":5.36072,"is_reserved":false,"is_disabled":false,"rental_uris":{"android":"levelo://app?vid=7183a267-3c34-44c5-a14c-ebeb25b3cd2f","ios":"levelo://app?vid=7183a267-3c34-44c5-a14c-ebeb25b3cd2f"},"vehicle_type_id":"4","last_reported":1732817550,"current_range_meters":38800,"station_id":"cki0cbj6b192h4jlfktg","pricing_plan_id":"cebpf4jnsgd1na2vs0mg"},{"bike_id":"2c2dbeed-d8b9-4443-8bc1-facb2c0b2be9","system_id":"levelo_inurba_marseille","lat":43.30672,"lon":5.36853,"is_reserved":false,"is_disabled":false,"rental_uris":{"android":"levelo://app?vid=2c2dbeed-d8b9-4443-8bc1-facb2c0b2be9","ios":"levelo://app?vid=2c2dbeed-d8b9-4443-8bc1-facb2c0b2be9"},"vehicle_type_id":"4","last_reported":1732817550,"current_range_meters":25600,"station_id":"ce4bguh2rcd13ifvqckg","pricing_plan_id":"cebpf4jnsgd1na2vs0mg"},{"bike_id":"b5c09906-2419-449b-a255-06d2ae6bc1aa","system_id":"levelo_inurba_marseille","lat":43.24651,"lon":5.38894,"is_reserved":false,"is_disabled":false,"rental_uris":{"android":"levelo://app?vid=b5c09906-2419-449b-a255-06d2ae6bc1aa","ios":"levelo://app?vid=b5c09906-2419-449b-a255-06d2ae6bc1aa"},"vehicle_type_id":"4","last_reported":1732817550,"current_range_meters":6800,"station_id":"ce4bhg12rcd13ifvqf60","pricing_plan_id":"cebpf4jnsgd1na2vs0mg"},{"bike_id":"fbab3102-fe03-49af-bbaa-d57c7a8c6fa3","system_id":"levelo_inurba_marseille","lat":43.28667,"lon":5.36344,"is_reserved":false,"is_disabled":true,"rental_uris":{"android":"levelo://app?vid=fbab3102-fe03-49af-bbaa-d57c7a8c6fa3","ios":"levelo://app?vid=fbab3102-fe03-49af-bbaa-d57c7a8c6fa3"},"vehicle_type_id":"4","last_reported":1732817550,"current_range_meters":28400,"station_id":"ce4bhah2rcd13ifvqej0","pricing_plan_id":"cebpf4jnsgd1na2vs0mg"},{"bike_id":"5c9a900c-8721-4714-81e4-cac9a4b15fd0","system_id":"levelo_inurba_marseille","lat":43.33726,"lon":5.3919,"is_reserved":false,"is_disabled":false,"rental_uris":{"android":"levelo://app?vid=5c9a900c-8721-4714-81e4-cac9a4b15fd0","ios":"levelo://app?vid=5c9a900c-8721-4714-81e4-cac9a4b15fd0"},"vehicle_type_id":"4","last_reported":1732817550,"current_range_meters":6400,"station_id":"ce4bhr92rcd13ifvqhsg","pricing_plan_id":"cebpf4jnsgd1na2vs0mg"},{"bike_id":"cefd9bb2-c826-4c94-a042-276ccd84646c","system_id":"levelo_inurba_marseille","lat":43.33021,"lon":5.39035,"is_reserved":false,"is_disabled":false,"rental_uris":{"android":"levelo://app?vid=cefd9bb2-c826-4c94-a042-276ccd84646c","ios":"levelo://app?vid=cefd9bb2-c826-4c94-a042-276ccd84646c"},"vehicle_type_id":"4","last_reported":1732817550,"current_range_meters":26800,"station_id":"ce4bhr92rcd13ifvqhrg","pricing_plan_id":"cebpf4jnsgd1na2vs0mg"},{"bike_id":"3647baf0-6fc8-49b8-8ec9-ddbfdd80ce99","system_id":"levelo_inurba_marseille","lat":43.30797,"lon":5.43527,"is_reserved":false,"is_disabled":false,"rental_uris":{"android":"levelo://app?vid=3647baf0-6fc8-49b8-8ec9-ddbfdd80ce99","ios":"levelo://app?vid=3647baf0-6fc8-49b8-8ec9-ddbfdd80ce99"},"vehicle_type_id":"4","last_reported":1732817550,"current_range_meters":9200,"station_id":"ce4bhph2rcd13ifvqheg","pricing_plan_id":"cebpf4jnsgd1na2vs0mg"},{"bike_id":"1dc66f9a-39cd-4be6-8649-24e7533aca62","system_id":"levelo_inurba_marseille","lat":43.28461,"lon":5.35887,"is_reserved":false,"is_disabled":false,"rental_uris":{"android":"levelo://app?vid=1dc66f9a-39cd-4be6-8649-24e7533aca62","ios":"levelo://app?vid=1dc66f9a-39cd-4be6-8649-24e7533aca62"},"vehicle_type_id":"4","last_reported":1732817550,"current_range_meters":40000,"station_id":"ce4bhah2rcd13ifvqei0","pricing_plan_id":"cebpf4jnsgd1na2vs0mg"},{"bike_id":"8e2041ad-6bf5-4186-becc-025de1939b87","system_id":"levelo_inurba_marseille","lat":43.28464,"lon":5.35888,"is_reserved":false,"is_disabled":true,"rental_uris":{"android":"levelo://app?vid=8e2041ad-6bf5-4186-becc-025de1939b87","ios":"levelo://app?vid=8e2041ad-6bf5-4186-becc-025de1939b87"},"vehicle_type_id":"4","last_reported":1732817550,"current_range_meters":14000,"station_id":"ce4bhah2rcd13ifvqei0","pricing_plan_id":"cebpf4jnsgd1na2vs0mg"},{"bike_id":"e1c76266-7d5c-49f3-b563-00be91d3a9f3","system_id":"levelo_inurba_marseille","lat":43.27811,"lon":5.40709,"is_reserved":false,"is_disabled":false,"rental_uris":{"android":"levelo://app?vid=e1c76266-7d5c-49f3-b563-00be91d3a9f3","ios":"levelo://app?vid=e1c76266-7d5c-49f3-b563-00be91d3a9f3"},"vehicle_type_id":"4","last_reported":1732817550,"current_range_meters":17200,"station_id":"ce4bhnh2rcd13ifvqgtg","pricing_plan_id":"cebpf4jnsgd1na2vs0mg"},{"bike_id":"422d452f-17cc-4565-afd8-833a3bc96a0e","system_id":"levelo_inurba_marseille","lat":43.30135,"lon":5.39866,"is_reserved":false,"is_disabled":true,"rental_uris":{"android":"levelo://app?vid=422d452f-17cc-4565-afd8-833a3bc96a0e","ios":"levelo://app?vid=422d452f-17cc-4565-afd8-833a3bc96a0e"},"vehicle_type_id":"4","last_reported":1732817550,"current_range_meters":26800,"station_id":"ce4bh0h2rcd13ifvqd40","pricing_plan_id":"cebpf4jnsgd1na2vs0mg"},{"bike_id":"5b25a419-90bf-4ca5-bdf8-5e9c5ba94a2c","system_id":"levelo_inurba_marseille","lat":43.28853,"lon":5.39336,"is_reserved":false,"is_disabled":false,"rental_uris":{"android":"levelo://app?vid=5b25a419-90bf-4ca5-bdf8-5e9c5ba94a2c","ios":"levelo://app?vid=5b25a419-90bf-4ca5-bdf8-5e9c5ba94a2c"},"vehicle_type_id":"4","last_reported":1732817550,"current_range_meters":38800,"station_id":"ce4bh2p2rcd13ifvqdi0","pricing_plan_id":"cebpf4jnsgd1na2vs0mg"},{"bike_id":"4d4c884f-6933-49c0-8899-f9856d90f44d","system_id":"levelo_inurba_marseille","lat":43.29748,"lon":5.37971,"is_reserved":false,"is_disabled":true,"rental_uris":{"android":"levelo://app?vid=4d4c884f-6933-49c0-8899-f9856d90f44d","ios":"levelo://app?vid=4d4c884f-6933-49c0-8899-f9856d90f44d"},"vehicle_type_id":"4","last_reported":1732817550,"current_range_meters":0,"station_id":"","pricing_plan_id":"cebpf4jnsgd1na2vs0mg"},{"bike_id":"b6e48330-8212-4476-b4d2-8a1e3bec5ff6","system_id":"levelo_inurba_marseille","lat":43.28664,"lon":5.36338,"is_reserved":false,"is_disabled":true,"rental_uris":{"android":"levelo://app?vid=b6e48330-8212-4476-b4d2-8a1e3bec5ff6","ios":"levelo://app?vid=b6e48330-8212-4476-b4d2-8a1e3bec5ff6"},"vehicle_type_id":"4","last_reported":1732817550,"current_range_meters":12000,"station_id":"ce4bhah2rcd13ifvqej0","pricing_plan_id":"cebpf4jnsgd1na2vs0mg"},{"bike_id":"27914193-16b0-40ab-9150-5ebd9452b4f7","system_id":"levelo_inurba_marseille","lat":43.29889,"lon":5.3974,"is_reserved":false,"is_disabled":false,"rental_uris":{"android":"levelo://app?vid=27914193-16b0-40ab-9150-5ebd9452b4f7","ios":"levelo://app?vid=27914193-16b0-40ab-9150-5ebd9452b4f7"},"vehicle_type_id":"4","last_reported":1732817550,"current_range_meters":19200,"station_id":"ce4bh0h2rcd13ifvqd50","pricing_plan_id":"cebpf4jnsgd1na2vs0mg"},{"bike_id":"d3cfb474-d30b-43af-ad05-ee1db8595d9e","system_id":"levelo_inurba_marseille","lat":43.26563,"lon":5.39009,"is_reserved":false,"is_disabled":false,"rental_uris":{"android":"levelo://app?vid=d3cfb474-d30b-43af-ad05-ee1db8595d9e","ios":"levelo://app?vid=d3cfb474-d30b-43af-ad05-ee1db8595d9e"},"vehicle_type_id":"4","last_reported":1732817550,"current_range_meters":9600,"station_id":"ce4bhe12rcd13ifvqf30","pricing_plan_id":"cebpf4jnsgd1na2vs0mg"},{"bike_id":"9009be37-c6b1-406b-b0a8-fbab355f715e","system_id":"levelo_inurba_marseille","lat":43.33767,"lon":5.37493,"is_reserved":false,"is_disabled":false,"rental_uris":{"android":"levelo://app?vid=9009be37-c6b1-406b-b0a8-fbab355f715e","ios":"levelo://app?vid=9009be37-c6b1-406b-b0a8-fbab355f715e"},"vehicle_type_id":"4","last_reported":1732817550,"current_range_meters":38800,"station_id":"","pricing_plan_id":"cebpf4jnsgd1na2vs0mg"},{"bike_id":"81eb1671-b412-489e-9851-5892ab3f6b7d","system_id":"levelo_inurba_marseille","lat":43.27914,"lon":5.39573,"is_reserved":false,"is_disabled":false,"rental_uris":{"android":"levelo://app?vid=81eb1671-b412-489e-9851-5892ab3f6b7d","ios":"levelo://app?vid=81eb1671-b412-489e-9851-5892ab3f6b7d"},"vehicle_type_id":"4","last_reported":1732817550,"current_range_meters":20400,"station_id":"ce4bhf92rcd13ifvqf40","pricing_plan_id":"cebpf4jnsgd1na2vs0mg"},{"bike_id":"cfbb9735-0073-47e5-a7b0-871700092b34","system_id":"levelo_inurba_marseille","lat":43.27809,"lon":5.40711,"is_reserved":false,"is_disabled":false,"rental_uris":{"android":"levelo://app?vid=cfbb9735-0073-47e5-a7b0-871700092b34","ios":"levelo://app?vid=cfbb9735-0073-47e5-a7b0-871700092b34"},"vehicle_type_id":"4","last_reported":1732817550,"current_range_meters":28400,"station_id":"ce4bhnh2rcd13ifvqgtg","pricing_plan_id":"cebpf4jnsgd1na2vs0mg"},{"bike_id":"ad448571-bebb-4a8d-8d20-19092292da85","system_id":"levelo_inurba_marseille","lat":43.29176,"lon":5.37146,"is_reserved":false,"is_disabled":true,"rental_uris":{"android":"levelo://app?vid=ad448571-bebb-4a8d-8d20-19092292da85","ios":"levelo://app?vid=ad448571-bebb-4a8d-8d20-19092292da85"},"vehicle_type_id":"4","last_reported":1732817550,"current_range_meters":27200,"station_id":"ce4bha92rcd13ifvqeh0","pricing_plan_id":"cebpf4jnsgd1na2vs0mg"},{"bike_id":"52d37745-ca39-4265-97a5-f4a66980e8af","system_id":"levelo_inurba_marseille","lat":43.32046,"lon":5.41546,"is_reserved":false,"is_disabled":true,"rental_uris":{"android":"levelo://app?vid=52d37745-ca39-4265-97a5-f4a66980e8af","ios":"levelo://app?vid=52d37745-ca39-4265-97a5-f4a66980e8af"},"vehicle_type_id":"4","last_reported":1732817550,"current_range_meters":1600,"station_id":"ce4bhq92rcd13ifvqhkg","pricing_plan_id":"cebpf4jnsgd1na2vs0mg"},{"bike_id":"78e63c68-eee2-4709-b848-2a60c08dda8c","system_id":"levelo_inurba_marseille","lat":43.26497,"lon":5.3954,"is_reserved":false,"is_disabled":false,"rental_uris":{"android":"levelo://app?vid=78e63c68-eee2-4709-b848-2a60c08dda8c","ios":"levelo://app?vid=78e63c68-eee2-4709-b848-2a60c08dda8c"},"vehicle_type_id":"4","last_reported":1732817550,"current_range_meters":9200,"station_id":"ce4bhi12rcd13ifvqfq0","pricing_plan_id":"cebpf4jnsgd1na2vs0mg"},{"bike_id":"5d84ab37-b887-4cbc-90d8-c3fbc6154e0e","system_id":"levelo_inurba_marseille","lat":43.31685,"lon":5.40471,"is_reserved":false,"is_disabled":false,"rental_uris":{"android":"levelo://app?vid=5d84ab37-b887-4cbc-90d8-c3fbc6154e0e","ios":"levelo://app?vid=5d84ab37-b887-4cbc-90d8-c3fbc6154e0e"},"vehicle_type_id":"4","last_reported":1732817550,"current_range_meters":5600,"station_id":"ce4bh012rcd13ifvqd00","pricing_plan_id":"cebpf4jnsgd1na2vs0mg"},{"bike_id":"840c2084-3872-4bb0-aad2-5ab80f87c1f6","system_id":"levelo_inurba_marseille","lat":43.30654,"lon":5.40092,"is_reserved":false,"is_disabled":true,"rental_uris":{"android":"levelo://app?vid=840c2084-3872-4bb0-aad2-5ab80f87c1f6","ios":"levelo://app?vid=840c2084-3872-4bb0-aad2-5ab80f87c1f6"},"vehicle_type_id":"4","last_reported":1732817550,"current_range_meters":22800,"station_id":"ce4bh112rcd13ifvqda0","pricing_plan_id":"cebpf4jnsgd1na2vs0mg"},{"bike_id":"c49facee-4cba-4a92-97c9-a5767318ffbd","system_id":"levelo_inurba_marseille","lat":43.33024,"lon":5.39031,"is_reserved":false,"is_disabled":false,"rental_uris":{"android":"levelo://app?vid=c49facee-4cba-4a92-97c9-a5767318ffbd","ios":"levelo://app?vid=c49facee-4cba-4a92-97c9-a5767318ffbd"},"vehicle_type_id":"4","last_reported":1732817550,"current_range_meters":32400,"station_id":"ce4bhr92rcd13ifvqhrg","pricing_plan_id":"cebpf4jnsgd1na2vs0mg"},{"bike_id":"6770707a-d638-46db-ac11-17ca394f4eb5","system_id":"levelo_inurba_marseille","lat":43.23964,"lon":5.36631,"is_reserved":false,"is_disabled":false,"rental_uris":{"android":"levelo://app?vid=6770707a-d638-46db-ac11-17ca394f4eb5","ios":"levelo://app?vid=6770707a-d638-46db-ac11-17ca394f4eb5"},"vehicle_type_id":"4","last_reported":1732817550,"current_range_meters":20000,"station_id":"ce4bhi12rcd13ifvqfp0","pricing_plan_id":"cebpf4jnsgd1na2vs0mg"},{"bike_id":"994fade5-8750-4838-998a-5ff634dcac81","system_id":"levelo_inurba_marseille","lat":43.27073,"lon":5.42281,"is_reserved":false,"is_disabled":false,"rental_uris":{"android":"levelo://app?vid=994fade5-8750-4838-998a-5ff634dcac81","ios":"levelo://app?vid=994fade5-8750-4838-998a-5ff634dcac81"},"vehicle_type_id":"4","last_reported":1732817550,"current_range_meters":12000,"station_id":"ce4bhk92rcd13ifvqgb0","pricing_plan_id":"cebpf4jnsgd1na2vs0mg"},{"bike_id":"11a8253c-9812-4754-bc39-aec3d0b2377f","system_id":"levelo_inurba_marseille","lat":43.29852,"lon":5.36286,"is_reserved":false,"is_disabled":false,"rental_uris":{"android":"levelo://app?vid=11a8253c-9812-4754-bc39-aec3d0b2377f","ios":"levelo://app?vid=11a8253c-9812-4754-bc39-aec3d0b2377f"},"vehicle_type_id":"4","last_reported":1732817550,"current_range_meters":14400,"station_id":"ce4bgpp2rcd13ifvqc3g","pricing_plan_id":"cebpf4jnsgd1na2vs0mg"},{"bike_id":"e45efccf-0da7-450c-bcd2-c74dc2e74caf","system_id":"levelo_inurba_marseille","lat":43.27609,"lon":5.36092,"is_reserved":false,"is_disabled":false,"rental_uris":{"android":"levelo://app?vid=e45efccf-0da7-450c-bcd2-c74dc2e74caf","ios":"levelo://app?vid=e45efccf-0da7-450c-bcd2-c74dc2e74caf"},"vehicle_type_id":"4","last_reported":1732817550,"current_range_meters":35600,"station_id":"ce4bgj92rcd13ifvqbe0","pricing_plan_id":"cebpf4jnsgd1na2vs0mg"},{"bike_id":"1936c595-32cf-4097-a6cb-753cf309a951","system_id":"levelo_inurba_marseille","lat":43.31729,"lon":5.42399,"is_reserved":false,"is_disabled":false,"rental_uris":{"android":"levelo://app?vid=1936c595-32cf-4097-a6cb-753cf309a951","ios":"levelo://app?vid=1936c595-32cf-4097-a6cb-753cf309a951"},"vehicle_type_id":"4","last_reported":1732817550,"current_range_meters":38800,"station_id":"ce4bhp92rcd13ifvqhbg","pricing_plan_id":"cebpf4jnsgd1na2vs0mg"},{"bike_id":"f62a5fa2-9173-4ac1-b63a-4a63811fbef9","system_id":"levelo_inurba_marseille","lat":43.25927,"lon":5.40901,"is_reserved":false,"is_disabled":false,"rental_uris":{"android":"levelo://app?vid=f62a5fa2-9173-4ac1-b63a-4a63811fbef9","ios":"levelo://app?vid=f62a5fa2-9173-4ac1-b63a-4a63811fbef9"},"vehicle_type_id":"4","last_reported":1732817550,"current_range_meters":24400,"station_id":"ce4bhm92rcd13ifvqglg","pricing_plan_id":"cebpf4jnsgd1na2vs0mg"},{"bike_id":"4ef82adb-1398-4bed-bf34-1aa2370cf21d","system_id":"levelo_inurba_marseille","lat":43.32004,"lon":5.38163,"is_reserved":false,"is_disabled":false,"rental_uris":{"android":"levelo://app?vid=4ef82adb-1398-4bed-bf34-1aa2370cf21d","ios":"levelo://app?vid=4ef82adb-1398-4bed-bf34-1aa2370cf21d"},"vehicle_type_id":"4","last_reported":1732817550,"current_range_meters":8800,"station_id":"ce4bhr12rcd13ifvqhpg","pricing_plan_id":"cebpf4jnsgd1na2vs0mg"},{"bike_id":"e8fa7be1-2407-41a7-b843-e7c70f1917ef","system_id":"levelo_inurba_marseille","lat":43.27618,"lon":5.36107,"is_reserved":false,"is_disabled":true,"rental_uris":{"android":"levelo://app?vid=e8fa7be1-2407-41a7-b843-e7c70f1917ef","ios":"levelo://app?vid=e8fa7be1-2407-41a7-b843-e7c70f1917ef"},"vehicle_type_id":"4","last_reported":1732817550,"current_range_meters":0,"station_id":"ce4bgj92rcd13ifvqbe0","pricing_plan_id":"cebpf4jnsgd1na2vs0mg"},{"bike_id":"9ecc32de-994a-4dac-bf19-477b1a5bf98c","system_id":"levelo_inurba_marseille","lat":43.28073,"lon":5.39656,"is_reserved":false,"is_disabled":false,"rental_uris":{"android":"levelo://app?vid=9ecc32de-994a-4dac-bf19-477b1a5bf98c","ios":"levelo://app?vid=9ecc32de-994a-4dac-bf19-477b1a5bf98c"},"vehicle_type_id":"4","last_reported":1732817550,"current_range_meters":7200,"station_id":"ce4bho12rcd13ifvqh2g","pricing_plan_id":"cebpf4jnsgd1na2vs0mg"},{"bike_id":"95c39abd-631b-4674-8877-bb71fdbca347","system_id":"levelo_inurba_marseille","lat":43.29601,"lon":5.37708,"is_reserved":false,"is_disabled":true,"rental_uris":{"android":"levelo://app?vid=95c39abd-631b-4674-8877-bb71fdbca347","ios":"levelo://app?vid=95c39abd-631b-4674-8877-bb71fdbca347"},"vehicle_type_id":"4","last_reported":1732817550,"current_range_meters":0,"station_id":"ce4bgi92rcd13ifvqb90","pricing_plan_id":"cebpf4jnsgd1na2vs0mg"},{"bike_id":"abe4247b-9100-4e73-bb1c-c2d138dfb3ed","system_id":"levelo_inurba_marseille","lat":43.26572,"lon":5.38992,"is_reserved":false,"is_disabled":false,"rental_uris":{"android":"levelo://app?vid=abe4247b-9100-4e73-bb1c-c2d138dfb3ed","ios":"levelo://app?vid=abe4247b-9100-4e73-bb1c-c2d138dfb3ed"},"vehicle_type_id":"4","last_reported":1732817550,"current_range_meters":20800,"station_id":"ce4bhe12rcd13ifvqf30","pricing_plan_id":"cebpf4jnsgd1na2vs0mg"},{"bike_id":"e63455c5-5f55-4960-8084-8cbaf9be1b50","system_id":"levelo_inurba_marseille","lat":43.25581,"lon":5.38235,"is_reserved":false,"is_disabled":false,"rental_uris":{"android":"levelo://app?vid=e63455c5-5f55-4960-8084-8cbaf9be1b50","ios":"levelo://app?vid=e63455c5-5f55-4960-8084-8cbaf9be1b50"},"vehicle_type_id":"4","last_reported":1732817550,"current_range_meters":36400,"station_id":"ce4bhih2rcd13ifvqfs0","pricing_plan_id":"cebpf4jnsgd1na2vs0mg"},{"bike_id":"1dee5398-ece1-4217-b5b9-984f22c2ff59","system_id":"levelo_inurba_marseille","lat":43.29257,"lon":5.38427,"is_reserved":false,"is_disabled":true,"rental_uris":{"android":"levelo://app?vid=1dee5398-ece1-4217-b5b9-984f22c2ff59","ios":"levelo://app?vid=1dee5398-ece1-4217-b5b9-984f22c2ff59"},"vehicle_type_id":"4","last_reported":1732817550,"current_range_meters":0,"station_id":"ce4bh692rcd13ifvqea0","pricing_plan_id":"cebpf4jnsgd1na2vs0mg"},{"bike_id":"35cde48b-e232-4392-95d8-1d6118a2707a","system_id":"levelo_inurba_marseille","lat":43.28275,"lon":5.3506,"is_reserved":false,"is_disabled":true,"rental_uris":{"android":"levelo://app?vid=35cde48b-e232-4392-95d8-1d6118a2707a","ios":"levelo://app?vid=35cde48b-e232-4392-95d8-1d6118a2707a"},"vehicle_type_id":"4","last_reported":1732817550,"current_range_meters":15200,"station_id":"ce4bhbp2rcd13ifvqerg","pricing_plan_id":"cebpf4jnsgd1na2vs0mg"},{"bike_id":"1a1ad613-e33a-4722-b183-07da1e0aa14f","system_id":"levelo_inurba_marseille","lat":43.32283,"lon":5.38263,"is_reserved":false,"is_disabled":false,"rental_uris":{"android":"levelo://app?vid=1a1ad613-e33a-4722-b183-07da1e0aa14f","ios":"levelo://app?vid=1a1ad613-e33a-4722-b183-07da1e0aa14f"},"vehicle_type_id":"4","last_reported":1732817550,"current_range_meters":18000,"station_id":"ce4bhr12rcd13ifvqhqg","pricing_plan_id":"cebpf4jnsgd1na2vs0mg"},{"bike_id":"3ca8d527-6c31-4160-8bc9-0dbae13780f9","system_id":"levelo_inurba_marseille","lat":43.28466,"lon":5.35891,"is_reserved":false,"is_disabled":true,"rental_uris":{"android":"levelo://app?vid=3ca8d527-6c31-4160-8bc9-0dbae13780f9","ios":"levelo://app?vid=3ca8d527-6c31-4160-8bc9-0dbae13780f9"},"vehicle_type_id":"4","last_reported":1732817550,"current_range_meters":26800,"station_id":"ce4bhah2rcd13ifvqei0","pricing_plan_id":"cebpf4jnsgd1na2vs0mg"},{"bike_id":"d115bff9-029a-4271-953d-394a6eaddf62","system_id":"levelo_inurba_marseille","lat":43.29891,"lon":5.39743,"is_reserved":false,"is_disabled":false,"rental_uris":{"android":"levelo://app?vid=d115bff9-029a-4271-953d-394a6eaddf62","ios":"levelo://app?vid=d115bff9-029a-4271-953d-394a6eaddf62"},"vehicle_type_id":"4","last_reported":1732817550,"current_range_meters":39200,"station_id":"ce4bh0h2rcd13ifvqd50","pricing_plan_id":"cebpf4jnsgd1na2vs0mg"},{"bike_id":"e809a44a-c991-4275-bc86-1f5e1f95c298","system_id":"levelo_inurba_marseille","lat":43.31272,"lon":5.40155,"is_reserved":false,"is_disabled":false,"rental_uris":{"android":"levelo://app?vid=e809a44a-c991-4275-bc86-1f5e1f95c298","ios":"levelo://app?vid=e809a44a-c991-4275-bc86-1f5e1f95c298"},"vehicle_type_id":"4","last_reported":1732817550,"current_range_meters":24400,"station_id":"ce4bh092rcd13ifvqd30","pricing_plan_id":"cebpf4jnsgd1na2vs0mg"},{"bike_id":"16fb8e17-b179-4d5a-add7-fbd05efe76fb","system_id":"levelo_inurba_marseille","lat":43.25933,"lon":5.40914,"is_reserved":false,"is_disabled":true,"rental_uris":{"android":"levelo://app?vid=16fb8e17-b179-4d5a-add7-fbd05efe76fb","ios":"levelo://app?vid=16fb8e17-b179-4d5a-add7-fbd05efe76fb"},"vehicle_type_id":"4","last_reported":1732817550,"current_range_meters":0,"station_id":"ce4bhm92rcd13ifvqglg","pricing_plan_id":"cebpf4jnsgd1na2vs0mg"},{"bike_id":"39b04c21-6a6a-40a7-a489-741c2b67c9bd","system_id":"levelo_inurba_marseille","lat":43.3373,"lon":5.39191,"is_reserved":false,"is_disabled":false,"rental_uris":{"android":"levelo://app?vid=39b04c21-6a6a-40a7-a489-741c2b67c9bd","ios":"levelo://app?vid=39b04c21-6a6a-40a7-a489-741c2b67c9bd"},"vehicle_type_id":"4","last_reported":1732817550,"current_range_meters":38800,"station_id":"ce4bhr92rcd13ifvqhsg","pricing_plan_id":"cebpf4jnsgd1na2vs0mg"},{"bike_id":"2ddc87a6-ecaa-42a5-97dd-bff99509bcdf","system_id":"levelo_inurba_marseille","lat":43.31878,"lon":5.40737,"is_reserved":false,"is_disabled":false,"rental_uris":{"android":"levelo://app?vid=2ddc87a6-ecaa-42a5-97dd-bff99509bcdf","ios":"levelo://app?vid=2ddc87a6-ecaa-42a5-97dd-bff99509bcdf"},"vehicle_type_id":"4","last_reported":1732817550,"current_range_meters":24800,"station_id":"ce4bhq12rcd13ifvqhig","pricing_plan_id":"cebpf4jnsgd1na2vs0mg"},{"bike_id":"7c7cc416-eb41-4a4c-99ce-42558eaa1248","system_id":"levelo_inurba_marseille","lat":43.24659,"lon":5.38156,"is_reserved":false,"is_disabled":false,"rental_uris":{"android":"levelo://app?vid=7c7cc416-eb41-4a4c-99ce-42558eaa1248","ios":"levelo://app?vid=7c7cc416-eb41-4a4c-99ce-42558eaa1248"},"vehicle_type_id":"4","last_reported":1732817550,"current_range_meters":10800,"station_id":"","pricing_plan_id":"cebpf4jnsgd1na2vs0mg"},{"bike_id":"194c0fdb-7395-44b8-8e82-0b5ee669f4b6","system_id":"levelo_inurba_marseille","lat":43.23146,"lon":5.43708,"is_reserved":false,"is_disabled":false,"rental_uris":{"android":"levelo://app?vid=194c0fdb-7395-44b8-8e82-0b5ee669f4b6","ios":"levelo://app?vid=194c0fdb-7395-44b8-8e82-0b5ee669f4b6"},"vehicle_type_id":"4","last_reported":1732817550,"current_range_meters":11200,"station_id":"ce4bhmp2rcd13ifvqgog","pricing_plan_id":"cebpf4jnsgd1na2vs0mg"},{"bike_id":"576aaad1-96fd-4cef-85ec-da9376e57ba5","system_id":"levelo_inurba_marseille","lat":43.279863,"lon":5.416612,"is_reserved":false,"is_disabled":false,"rental_uris":{"android":"levelo://app?vid=576aaad1-96fd-4cef-85ec-da9376e57ba5","ios":"levelo://app?vid=576aaad1-96fd-4cef-85ec-da9376e57ba5"},"vehicle_type_id":"4","last_reported":1732817550,"current_range_meters":38800,"station_id":"ce4bho12rcd13ifvqh1g","pricing_plan_id":"cebpf4jnsgd1na2vs0mg"},{"bike_id":"dd8abf73-0f11-4528-81c0-f7dfced5b75d","system_id":"levelo_inurba_marseille","lat":43.28044,"lon":5.36937,"is_reserved":false,"is_disabled":false,"rental_uris":{"android":"levelo://app?vid=dd8abf73-0f11-4528-81c0-f7dfced5b75d","ios":"levelo://app?vid=dd8abf73-0f11-4528-81c0-f7dfced5b75d"},"vehicle_type_id":"4","last_reported":1732817550,"current_range_meters":27600,"station_id":"ce4bha12rcd13ifvqef0","pricing_plan_id":"cebpf4jnsgd1na2vs0mg"},{"bike_id":"a4334e68-df66-47a8-81e3-023882891004","system_id":"levelo_inurba_marseille","lat":43.27741,"lon":5.40685,"is_reserved":false,"is_disabled":false,"rental_uris":{"android":"levelo://app?vid=a4334e68-df66-47a8-81e3-023882891004","ios":"levelo://app?vid=a4334e68-df66-47a8-81e3-023882891004"},"vehicle_type_id":"4","last_reported":1732817550,"current_range_meters":26800,"station_id":"ce4bhnh2rcd13ifvqgtg","pricing_plan_id":"cebpf4jnsgd1na2vs0mg"},{"bike_id":"76df078a-7fcc-4632-971b-9e7120f87cbe","system_id":"levelo_inurba_marseille","lat":43.28465,"lon":5.38405,"is_reserved":false,"is_disabled":true,"rental_uris":{"android":"levelo://app?vid=76df078a-7fcc-4632-971b-9e7120f87cbe","ios":"levelo://app?vid=76df078a-7fcc-4632-971b-9e7120f87cbe"},"vehicle_type_id":"4","last_reported":1732817550,"current_range_meters":0,"station_id":"ce4bh512rcd13ifvqe3g","pricing_plan_id":"cebpf4jnsgd1na2vs0mg"},{"bike_id":"1b69eb72-96e3-44f7-bf31-ac86959280d2","system_id":"levelo_inurba_marseille","lat":43.28722,"lon":5.36087,"is_reserved":false,"is_disabled":false,"rental_uris":{"android":"levelo://app?vid=1b69eb72-96e3-44f7-bf31-ac86959280d2","ios":"levelo://app?vid=1b69eb72-96e3-44f7-bf31-ac86959280d2"},"vehicle_type_id":"4","last_reported":1732817550,"current_range_meters":11600,"station_id":"cki0cbj6b192h4jlfktg","pricing_plan_id":"cebpf4jnsgd1na2vs0mg"},{"bike_id":"81d9f7be-c3c6-4233-bf11-948e6f22debc","system_id":"levelo_inurba_marseille","lat":43.32364,"lon":5.38886,"is_reserved":false,"is_disabled":false,"rental_uris":{"android":"levelo://app?vid=81d9f7be-c3c6-4233-bf11-948e6f22debc","ios":"levelo://app?vid=81d9f7be-c3c6-4233-bf11-948e6f22debc"},"vehicle_type_id":"4","last_reported":1732817550,"current_range_meters":5600,"station_id":"ce4bhqp2rcd13ifvqhog","pricing_plan_id":"cebpf4jnsgd1na2vs0mg"},{"bike_id":"0dcc77eb-6ade-4660-b0fc-db42957df5e5","system_id":"levelo_inurba_marseille","lat":43.30919,"lon":5.36839,"is_reserved":false,"is_disabled":false,"rental_uris":{"android":"levelo://app?vid=0dcc77eb-6ade-4660-b0fc-db42957df5e5","ios":"levelo://app?vid=0dcc77eb-6ade-4660-b0fc-db42957df5e5"},"vehicle_type_id":"4","last_reported":1732817550,"current_range_meters":20000,"station_id":"ce4bgn92rcd13ifvqbvg","pricing_plan_id":"cebpf4jnsgd1na2vs0mg"},{"bike_id":"fa2de458-fcf1-4151-a5cd-c5ec4757dcb0","system_id":"levelo_inurba_marseille","lat":43.29072,"lon":5.38095,"is_reserved":false,"is_disabled":false,"rental_uris":{"android":"levelo://app?vid=fa2de458-fcf1-4151-a5cd-c5ec4757dcb0","ios":"levelo://app?vid=fa2de458-fcf1-4151-a5cd-c5ec4757dcb0"},"vehicle_type_id":"4","last_reported":1732817550,"current_range_meters":35600,"station_id":"","pricing_plan_id":"cebpf4jnsgd1na2vs0mg"},{"bike_id":"e48b725b-bc15-4e5d-af14-115990ebade2","system_id":"levelo_inurba_marseille","lat":43.29846,"lon":5.36283,"is_reserved":false,"is_disabled":false,"rental_uris":{"android":"levelo://app?vid=e48b725b-bc15-4e5d-af14-115990ebade2","ios":"levelo://app?vid=e48b725b-bc15-4e5d-af14-115990ebade2"},"vehicle_type_id":"4","last_reported":1732817550,"current_range_meters":12400,"station_id":"ce4bgpp2rcd13ifvqc3g","pricing_plan_id":"cebpf4jnsgd1na2vs0mg"},{"bike_id":"29a80c71-9648-4a26-b6c9-5f69092eaa01","system_id":"levelo_inurba_marseille","lat":43.280891,"lon":5.396391,"is_reserved":false,"is_disabled":true,"rental_uris":{"android":"levelo://app?vid=29a80c71-9648-4a26-b6c9-5f69092eaa01","ios":"levelo://app?vid=29a80c71-9648-4a26-b6c9-5f69092eaa01"},"vehicle_type_id":"4","last_reported":1732817550,"current_range_meters":0,"station_id":"ce4bho12rcd13ifvqh2g","pricing_plan_id":"cebpf4jnsgd1na2vs0mg"},{"bike_id":"6dc1c72c-35b8-4a60-802c-112a8485a269","system_id":"levelo_inurba_marseille","lat":43.290009,"lon":5.356192,"is_reserved":false,"is_disabled":false,"rental_uris":{"android":"levelo://app?vid=6dc1c72c-35b8-4a60-802c-112a8485a269","ios":"levelo://app?vid=6dc1c72c-35b8-4a60-802c-112a8485a269"},"vehicle_type_id":"4","last_reported":1732817550,"current_range_meters":8400,"station_id":"ce4bhb92rcd13ifvqen0","pricing_plan_id":"cebpf4jnsgd1na2vs0mg"},{"bike_id":"53ed7113-61c8-46b5-aca8-29c647166f20","system_id":"levelo_inurba_marseille","lat":43.24994,"lon":5.38919,"is_reserved":false,"is_disabled":false,"rental_uris":{"android":"levelo://app?vid=53ed7113-61c8-46b5-aca8-29c647166f20","ios":"levelo://app?vid=53ed7113-61c8-46b5-aca8-29c647166f20"},"vehicle_type_id":"4","last_reported":1732817550,"current_range_meters":28000,"station_id":"ce4bhgp2rcd13ifvqfd0","pricing_plan_id":"cebpf4jnsgd1na2vs0mg"},{"bike_id":"5b6140a7-7f65-4ca3-a3f2-419ab04c93da","system_id":"levelo_inurba_marseille","lat":43.22926,"lon":5.3537,"is_reserved":false,"is_disabled":true,"rental_uris":{"android":"levelo://app?vid=5b6140a7-7f65-4ca3-a3f2-419ab04c93da","ios":"levelo://app?vid=5b6140a7-7f65-4ca3-a3f2-419ab04c93da"},"vehicle_type_id":"4","last_reported":1732817550,"current_range_meters":31200,"station_id":"cpo3532slgdg3j2ikp40","pricing_plan_id":"cebpf4jnsgd1na2vs0mg"},{"bike_id":"13e09909-3ef3-423c-87b9-4d6316068d28","system_id":"levelo_inurba_marseille","lat":43.29276,"lon":5.40112,"is_reserved":false,"is_disabled":false,"rental_uris":{"android":"levelo://app?vid=13e09909-3ef3-423c-87b9-4d6316068d28","ios":"levelo://app?vid=13e09909-3ef3-423c-87b9-4d6316068d28"},"vehicle_type_id":"4","last_reported":1732817550,"current_range_meters":20000,"station_id":"ce4bh312rcd13ifvqdk0","pricing_plan_id":"cebpf4jnsgd1na2vs0mg"},{"bike_id":"f794b8fa-1f88-483b-a054-16f24b00c834","system_id":"levelo_inurba_marseille","lat":43.28275,"lon":5.35061,"is_reserved":false,"is_disabled":true,"rental_uris":{"android":"levelo://app?vid=f794b8fa-1f88-483b-a054-16f24b00c834","ios":"levelo://app?vid=f794b8fa-1f88-483b-a054-16f24b00c834"},"vehicle_type_id":"4","last_reported":1732817550,"current_range_meters":11600,"station_id":"ce4bhbp2rcd13ifvqerg","pricing_plan_id":"cebpf4jnsgd1na2vs0mg"},{"bike_id":"4ccca814-8171-482e-9041-68eb7a73dcee","system_id":"levelo_inurba_marseille","lat":43.26563,"lon":5.38996,"is_reserved":false,"is_disabled":false,"rental_uris":{"android":"levelo://app?vid=4ccca814-8171-482e-9041-68eb7a73dcee","ios":"levelo://app?vid=4ccca814-8171-482e-9041-68eb7a73dcee"},"vehicle_type_id":"4","last_reported":1732817550,"current_range_meters":28000,"station_id":"ce4bhe12rcd13ifvqf30","pricing_plan_id":"cebpf4jnsgd1na2vs0mg"},{"bike_id":"e5afd3b2-8a71-47d1-8d9a-ff35c09a0553","system_id":"levelo_inurba_marseille","lat":43.29557,"lon":5.4228,"is_reserved":false,"is_disabled":true,"rental_uris":{"android":"levelo://app?vid=e5afd3b2-8a71-47d1-8d9a-ff35c09a0553","ios":"levelo://app?vid=e5afd3b2-8a71-47d1-8d9a-ff35c09a0553"},"vehicle_type_id":"4","last_reported":1732817550,"current_range_meters":400,"station_id":"ce4bhph2rcd13ifvqhdg","pricing_plan_id":"cebpf4jnsgd1na2vs0mg"},{"bike_id":"960e0ce8-4af8-4a7b-a1d9-99f150008994","system_id":"levelo_inurba_marseille","lat":43.33026,"lon":5.3904,"is_reserved":false,"is_disabled":false,"rental_uris":{"android":"levelo://app?vid=960e0ce8-4af8-4a7b-a1d9-99f150008994","ios":"levelo://app?vid=960e0ce8-4af8-4a7b-a1d9-99f150008994"},"vehicle_type_id":"4","last_reported":1732817550,"current_range_meters":38800,"station_id":"ce4bhr92rcd13ifvqhrg","pricing_plan_id":"cebpf4jnsgd1na2vs0mg"},{"bike_id":"a2c2512a-2fff-410d-88c9-6e94f29621ec","system_id":"levelo_inurba_marseille","lat":43.31219,"lon":5.36849,"is_reserved":false,"is_disabled":false,"rental_uris":{"android":"levelo://app?vid=a2c2512a-2fff-410d-88c9-6e94f29621ec","ios":"levelo://app?vid=a2c2512a-2fff-410d-88c9-6e94f29621ec"},"vehicle_type_id":"4","last_reported":1732817550,"current_range_meters":27600,"station_id":"ce4bgl92rcd13ifvqbq0","pricing_plan_id":"cebpf4jnsgd1na2vs0mg"},{"bike_id":"9889b9b1-c1bd-4e56-a40a-7a710a32fe91","system_id":"levelo_inurba_marseille","lat":43.3128,"lon":5.3683,"is_reserved":false,"is_disabled":true,"rental_uris":{"android":"levelo://app?vid=9889b9b1-c1bd-4e56-a40a-7a710a32fe91","ios":"levelo://app?vid=9889b9b1-c1bd-4e56-a40a-7a710a32fe91"},"vehicle_type_id":"4","last_reported":1732817550,"current_range_meters":0,"station_id":"","pricing_plan_id":"cebpf4jnsgd1na2vs0mg"},{"bike_id":"a3003658-9cf9-4532-a80a-b4ecc661adad","system_id":"levelo_inurba_marseille","lat":43.28456,"lon":5.35892,"is_reserved":false,"is_disabled":false,"rental_uris":{"android":"levelo://app?vid=a3003658-9cf9-4532-a80a-b4ecc661adad","ios":"levelo://app?vid=a3003658-9cf9-4532-a80a-b4ecc661adad"},"vehicle_type_id":"4","last_reported":1732817550,"current_range_meters":8400,"station_id":"ce4bhah2rcd13ifvqei0","pricing_plan_id":"cebpf4jnsgd1na2vs0mg"},{"bike_id":"2e95a691-d7d8-426b-8dba-47b6b56c6a41","system_id":"levelo_inurba_marseille","lat":43.28151,"lon":5.42641,"is_reserved":false,"is_disabled":true,"rental_uris":{"android":"levelo://app?vid=2e95a691-d7d8-426b-8dba-47b6b56c6a41","ios":"levelo://app?vid=2e95a691-d7d8-426b-8dba-47b6b56c6a41"},"vehicle_type_id":"4","last_reported":1732817550,"current_range_meters":800,"station_id":"ce4bhnh2rcd13ifvqgug","pricing_plan_id":"cebpf4jnsgd1na2vs0mg"},{"bike_id":"287740c8-fc08-44ca-8ac7-346acca8b53f","system_id":"levelo_inurba_marseille","lat":43.29844,"lon":5.36265,"is_reserved":false,"is_disabled":false,"rental_uris":{"android":"levelo://app?vid=287740c8-fc08-44ca-8ac7-346acca8b53f","ios":"levelo://app?vid=287740c8-fc08-44ca-8ac7-346acca8b53f"},"vehicle_type_id":"4","last_reported":1732817550,"current_range_meters":38000,"station_id":"ce4bgpp2rcd13ifvqc3g","pricing_plan_id":"cebpf4jnsgd1na2vs0mg"},{"bike_id":"c5d62580-178a-4e2e-a47a-9f2b4b06023a","system_id":"levelo_inurba_marseille","lat":43.2985,"lon":5.36289,"is_reserved":false,"is_disabled":false,"rental_uris":{"android":"levelo://app?vid=c5d62580-178a-4e2e-a47a-9f2b4b06023a","ios":"levelo://app?vid=c5d62580-178a-4e2e-a47a-9f2b4b06023a"},"vehicle_type_id":"4","last_reported":1732817550,"current_range_meters":8400,"station_id":"ce4bgpp2rcd13ifvqc3g","pricing_plan_id":"cebpf4jnsgd1na2vs0mg"},{"bike_id":"a69979b5-4000-4dd7-9fa0-f8d5d3b3cafe","system_id":"levelo_inurba_marseille","lat":43.32774,"lon":5.40719,"is_reserved":false,"is_disabled":false,"rental_uris":{"android":"levelo://app?vid=a69979b5-4000-4dd7-9fa0-f8d5d3b3cafe","ios":"levelo://app?vid=a69979b5-4000-4dd7-9fa0-f8d5d3b3cafe"},"vehicle_type_id":"4","last_reported":1732817550,"current_range_meters":28800,"station_id":"ce4bhpp2rcd13ifvqhgg","pricing_plan_id":"cebpf4jnsgd1na2vs0mg"},{"bike_id":"c27f7d66-69af-4f3c-bd4b-4ee89ae78b19","system_id":"levelo_inurba_marseille","lat":43.29516,"lon":5.39401,"is_reserved":false,"is_disabled":true,"rental_uris":{"android":"levelo://app?vid=c27f7d66-69af-4f3c-bd4b-4ee89ae78b19","ios":"levelo://app?vid=c27f7d66-69af-4f3c-bd4b-4ee89ae78b19"},"vehicle_type_id":"4","last_reported":1732817550,"current_range_meters":0,"station_id":"ce4bh292rcd13ifvqdf0","pricing_plan_id":"cebpf4jnsgd1na2vs0mg"},{"bike_id":"52a30569-0bfc-456a-b013-ec2c0ae19891","system_id":"levelo_inurba_marseille","lat":43.27915,"lon":5.39583,"is_reserved":false,"is_disabled":true,"rental_uris":{"android":"levelo://app?vid=52a30569-0bfc-456a-b013-ec2c0ae19891","ios":"levelo://app?vid=52a30569-0bfc-456a-b013-ec2c0ae19891"},"vehicle_type_id":"4","last_reported":1732817550,"current_range_meters":0,"station_id":"ce4bhf92rcd13ifvqf40","pricing_plan_id":"cebpf4jnsgd1na2vs0mg"},{"bike_id":"e51b2acb-d883-446b-9ce9-347608453ece","system_id":"levelo_inurba_marseille","lat":43.22929,"lon":5.35376,"is_reserved":false,"is_disabled":false,"rental_uris":{"android":"levelo://app?vid=e51b2acb-d883-446b-9ce9-347608453ece","ios":"levelo://app?vid=e51b2acb-d883-446b-9ce9-347608453ece"},"vehicle_type_id":"4","last_reported":1732817550,"current_range_meters":30400,"station_id":"cpo3532slgdg3j2ikp40","pricing_plan_id":"cebpf4jnsgd1na2vs0mg"},{"bike_id":"06b96296-d806-42a3-850a-80d0d462f5a8","system_id":"levelo_inurba_marseille","lat":43.2953,"lon":5.38537,"is_reserved":false,"is_disabled":false,"rental_uris":{"android":"levelo://app?vid=06b96296-d806-42a3-850a-80d0d462f5a8","ios":"levelo://app?vid=06b96296-d806-42a3-850a-80d0d462f5a8"},"vehicle_type_id":"4","last_reported":1732817550,"current_range_meters":25200,"station_id":"ce4bgih2rcd13ifvqba0","pricing_plan_id":"cebpf4jnsgd1na2vs0mg"},{"bike_id":"93bf632f-9c2c-453f-931e-3a26e12fd5f1","system_id":"levelo_inurba_marseille","lat":43.30131,"lon":5.39873,"is_reserved":false,"is_disabled":true,"rental_uris":{"android":"levelo://app?vid=93bf632f-9c2c-453f-931e-3a26e12fd5f1","ios":"levelo://app?vid=93bf632f-9c2c-453f-931e-3a26e12fd5f1"},"vehicle_type_id":"4","last_reported":1732817550,"current_range_meters":37600,"station_id":"ce4bh0h2rcd13ifvqd40","pricing_plan_id":"cebpf4jnsgd1na2vs0mg"},{"bike_id":"a234ba6c-5d32-4244-ad3a-3cc9d1fbb0f2","system_id":"levelo_inurba_marseille","lat":43.28398,"lon":5.37503,"is_reserved":false,"is_disabled":false,"rental_uris":{"android":"levelo://app?vid=a234ba6c-5d32-4244-ad3a-3cc9d1fbb0f2","ios":"levelo://app?vid=a234ba6c-5d32-4244-ad3a-3cc9d1fbb0f2"},"vehicle_type_id":"4","last_reported":1732817550,"current_range_meters":38800,"station_id":"ce4bh412rcd13ifvqds0","pricing_plan_id":"cebpf4jnsgd1na2vs0mg"},{"bike_id":"cb3ffb84-0992-4c7d-8e1f-bf713ec3aaf4","system_id":"levelo_inurba_marseille","lat":43.30527,"lon":5.39895,"is_reserved":false,"is_disabled":false,"rental_uris":{"android":"levelo://app?vid=cb3ffb84-0992-4c7d-8e1f-bf713ec3aaf4","ios":"levelo://app?vid=cb3ffb84-0992-4c7d-8e1f-bf713ec3aaf4"},"vehicle_type_id":"4","last_reported":1732817550,"current_range_meters":18000,"station_id":"ce4bh092rcd13ifvqd20","pricing_plan_id":"cebpf4jnsgd1na2vs0mg"},{"bike_id":"8593093e-7c81-4015-a643-cdb4d4aedcac","system_id":"levelo_inurba_marseille","lat":43.31167,"lon":5.38718,"is_reserved":false,"is_disabled":false,"rental_uris":{"android":"levelo://app?vid=8593093e-7c81-4015-a643-cdb4d4aedcac","ios":"levelo://app?vid=8593093e-7c81-4015-a643-cdb4d4aedcac"},"vehicle_type_id":"4","last_reported":1732817550,"current_range_meters":28800,"station_id":"ce4bgv12rcd13ifvqcp0","pricing_plan_id":"cebpf4jnsgd1na2vs0mg"},{"bike_id":"371abac0-5dd0-42bb-a641-ca0cac7a118a","system_id":"levelo_inurba_marseille","lat":43.27673,"lon":5.38897,"is_reserved":false,"is_disabled":true,"rental_uris":{"android":"levelo://app?vid=371abac0-5dd0-42bb-a641-ca0cac7a118a","ios":"levelo://app?vid=371abac0-5dd0-42bb-a641-ca0cac7a118a"},"vehicle_type_id":"4","last_reported":1732817550,"current_range_meters":0,"station_id":"ce4bhi12rcd13ifvqfo0","pricing_plan_id":"cebpf4jnsgd1na2vs0mg"},{"bike_id":"90a040d2-8b38-4d65-9c88-f6872ba3d829","system_id":"levelo_inurba_marseille","lat":43.30324,"lon":5.3691,"is_reserved":false,"is_disabled":false,"rental_uris":{"android":"levelo://app?vid=90a040d2-8b38-4d65-9c88-f6872ba3d829","ios":"levelo://app?vid=90a040d2-8b38-4d65-9c88-f6872ba3d829"},"vehicle_type_id":"4","last_reported":1732817550,"current_range_meters":29600,"station_id":"ce4bgqh2rcd13ifvqc5g","pricing_plan_id":"cebpf4jnsgd1na2vs0mg"},{"bike_id":"44692518-f307-4d34-bde3-20456f8e1767","system_id":"levelo_inurba_marseille","lat":43.27398,"lon":5.38998,"is_reserved":false,"is_disabled":false,"rental_uris":{"android":"levelo://app?vid=44692518-f307-4d34-bde3-20456f8e1767","ios":"levelo://app?vid=44692518-f307-4d34-bde3-20456f8e1767"},"vehicle_type_id":"4","last_reported":1732817550,"current_range_meters":28400,"station_id":"","pricing_plan_id":"cebpf4jnsgd1na2vs0mg"},{"bike_id":"7e2649f0-58be-434f-8e5f-d9d42fd8a234","system_id":"levelo_inurba_marseille","lat":43.31218,"lon":5.36862,"is_reserved":false,"is_disabled":false,"rental_uris":{"android":"levelo://app?vid=7e2649f0-58be-434f-8e5f-d9d42fd8a234","ios":"levelo://app?vid=7e2649f0-58be-434f-8e5f-d9d42fd8a234"},"vehicle_type_id":"4","last_reported":1732817550,"current_range_meters":26800,"station_id":"ce4bgl92rcd13ifvqbq0","pricing_plan_id":"cebpf4jnsgd1na2vs0mg"},{"bike_id":"339ee2a4-6f2f-42bf-a1be-6440505cdf45","system_id":"levelo_inurba_marseille","lat":43.31711,"lon":5.43708,"is_reserved":false,"is_disabled":false,"rental_uris":{"android":"levelo://app?vid=339ee2a4-6f2f-42bf-a1be-6440505cdf45","ios":"levelo://app?vid=339ee2a4-6f2f-42bf-a1be-6440505cdf45"},"vehicle_type_id":"4","last_reported":1732817550,"current_range_meters":6800,"station_id":"ce4bhp92rcd13ifvqhcg","pricing_plan_id":"cebpf4jnsgd1na2vs0mg"},{"bike_id":"49becddc-8668-4773-af11-837ec27dea6b","system_id":"levelo_inurba_marseille","lat":43.31216,"lon":5.36853,"is_reserved":false,"is_disabled":false,"rental_uris":{"android":"levelo://app?vid=49becddc-8668-4773-af11-837ec27dea6b","ios":"levelo://app?vid=49becddc-8668-4773-af11-837ec27dea6b"},"vehicle_type_id":"4","last_reported":1732817550,"current_range_meters":28000,"station_id":"ce4bgl92rcd13ifvqbq0","pricing_plan_id":"cebpf4jnsgd1na2vs0mg"},{"bike_id":"e42c3730-6b48-4ecf-b483-e2c2e24c4f25","system_id":"levelo_inurba_marseille","lat":43.27815,"lon":5.40714,"is_reserved":false,"is_disabled":true,"rental_uris":{"android":"levelo://app?vid=e42c3730-6b48-4ecf-b483-e2c2e24c4f25","ios":"levelo://app?vid=e42c3730-6b48-4ecf-b483-e2c2e24c4f25"},"vehicle_type_id":"4","last_reported":1732817550,"current_range_meters":0,"station_id":"ce4bhnh2rcd13ifvqgtg","pricing_plan_id":"cebpf4jnsgd1na2vs0mg"},{"bike_id":"940ad093-9549-4bea-9877-08facf9d79fa","system_id":"levelo_inurba_marseille","lat":43.2887,"lon":5.35848,"is_reserved":false,"is_disabled":false,"rental_uris":{"android":"levelo://app?vid=940ad093-9549-4bea-9877-08facf9d79fa","ios":"levelo://app?vid=940ad093-9549-4bea-9877-08facf9d79fa"},"vehicle_type_id":"4","last_reported":1732817550,"current_range_meters":22800,"station_id":"ce4bhb12rcd13ifvqem0","pricing_plan_id":"cebpf4jnsgd1na2vs0mg"},{"bike_id":"a11c87cd-c5ed-4a29-ba8a-78abe7a5d984","system_id":"levelo_inurba_marseille","lat":43.27835,"lon":5.39199,"is_reserved":false,"is_disabled":true,"rental_uris":{"android":"levelo://app?vid=a11c87cd-c5ed-4a29-ba8a-78abe7a5d984","ios":"levelo://app?vid=a11c87cd-c5ed-4a29-ba8a-78abe7a5d984"},"vehicle_type_id":"4","last_reported":1732817550,"current_range_meters":30800,"station_id":"ce4bhjp2rcd13ifvqga0","pricing_plan_id":"cebpf4jnsgd1na2vs0mg"},{"bike_id":"f4e97b63-9d2a-4661-9b1b-500c66cd1c74","system_id":"levelo_inurba_marseille","lat":43.29086,"lon":5.38144,"is_reserved":false,"is_disabled":false,"rental_uris":{"android":"levelo://app?vid=f4e97b63-9d2a-4661-9b1b-500c66cd1c74","ios":"levelo://app?vid=f4e97b63-9d2a-4661-9b1b-500c66cd1c74"},"vehicle_type_id":"4","last_reported":1732817550,"current_range_meters":16400,"station_id":"ce4bh512rcd13ifvqe2g","pricing_plan_id":"cebpf4jnsgd1na2vs0mg"},{"bike_id":"a5909545-3e09-4859-9fda-9ffe4e6e4883","system_id":"levelo_inurba_marseille","lat":43.23067,"lon":5.35489,"is_reserved":false,"is_disabled":false,"rental_uris":{"android":"levelo://app?vid=a5909545-3e09-4859-9fda-9ffe4e6e4883","ios":"levelo://app?vid=a5909545-3e09-4859-9fda-9ffe4e6e4883"},"vehicle_type_id":"4","last_reported":1732817550,"current_range_meters":22400,"station_id":"cpo3342slgdg3j2ifvpg","pricing_plan_id":"cebpf4jnsgd1na2vs0mg"},{"bike_id":"9755fa8a-ee99-4fcd-b1b5-829776e94767","system_id":"levelo_inurba_marseille","lat":43.26785,"lon":5.39416,"is_reserved":false,"is_disabled":true,"rental_uris":{"android":"levelo://app?vid=9755fa8a-ee99-4fcd-b1b5-829776e94767","ios":"levelo://app?vid=9755fa8a-ee99-4fcd-b1b5-829776e94767"},"vehicle_type_id":"4","last_reported":1732817550,"current_range_meters":0,"station_id":"ce4bhh12rcd13ifvqfg0","pricing_plan_id":"cebpf4jnsgd1na2vs0mg"},{"bike_id":"d87a355b-5f9c-41c6-b6c4-9d8dc5049cbe","system_id":"levelo_inurba_marseille","lat":43.30539,"lon":5.36544,"is_reserved":false,"is_disabled":false,"rental_uris":{"android":"levelo://app?vid=d87a355b-5f9c-41c6-b6c4-9d8dc5049cbe","ios":"levelo://app?vid=d87a355b-5f9c-41c6-b6c4-9d8dc5049cbe"},"vehicle_type_id":"4","last_reported":1732817550,"current_range_meters":18800,"station_id":"ce4bgs12rcd13ifvqcag","pricing_plan_id":"cebpf4jnsgd1na2vs0mg"},{"bike_id":"b6b1f691-f5d4-4437-a273-f7c9759cc4c1","system_id":"levelo_inurba_marseille","lat":43.29203,"lon":5.39309,"is_reserved":false,"is_disabled":true,"rental_uris":{"android":"levelo://app?vid=b6b1f691-f5d4-4437-a273-f7c9759cc4c1","ios":"levelo://app?vid=b6b1f691-f5d4-4437-a273-f7c9759cc4c1"},"vehicle_type_id":"4","last_reported":1732817550,"current_range_meters":38800,"station_id":"ce4bh192rcd13ifvqdd0","pricing_plan_id":"cebpf4jnsgd1na2vs0mg"},{"bike_id":"636c38c7-b57f-44ef-879f-37f296bc8e0a","system_id":"levelo_inurba_marseille","lat":43.32103,"lon":5.36773,"is_reserved":false,"is_disabled":false,"rental_uris":{"android":"levelo://app?vid=636c38c7-b57f-44ef-879f-37f296bc8e0a","ios":"levelo://app?vid=636c38c7-b57f-44ef-879f-37f296bc8e0a"},"vehicle_type_id":"4","last_reported":1732817550,"current_range_meters":17200,"station_id":"ce4bhrh2rcd13ifvqhug","pricing_plan_id":"cebpf4jnsgd1na2vs0mg"},{"bike_id":"e15fd95a-8a01-4895-b972-b8ab43878920","system_id":"levelo_inurba_marseille","lat":43.27937,"lon":5.41044,"is_reserved":false,"is_disabled":false,"rental_uris":{"android":"levelo://app?vid=e15fd95a-8a01-4895-b972-b8ab43878920","ios":"levelo://app?vid=e15fd95a-8a01-4895-b972-b8ab43878920"},"vehicle_type_id":"4","last_reported":1732817550,"current_range_meters":23200,"station_id":"ce4bhnp2rcd13ifvqh0g","pricing_plan_id":"cebpf4jnsgd1na2vs0mg"},{"bike_id":"c77bdc76-2926-4512-8427-306edd05184e","system_id":"levelo_inurba_marseille","lat":43.28706,"lon":5.37382,"is_reserved":false,"is_disabled":false,"rental_uris":{"android":"levelo://app?vid=c77bdc76-2926-4512-8427-306edd05184e","ios":"levelo://app?vid=c77bdc76-2926-4512-8427-306edd05184e"},"vehicle_type_id":"4","last_reported":1732817550,"current_range_meters":38800,"station_id":"ce4bh3p2rcd13ifvqdq0","pricing_plan_id":"cebpf4jnsgd1na2vs0mg"},{"bike_id":"0784e5ed-3500-48c0-92b6-819338412b90","system_id":"levelo_inurba_marseille","lat":43.29025,"lon":5.37557,"is_reserved":false,"is_disabled":false,"rental_uris":{"android":"levelo://app?vid=0784e5ed-3500-48c0-92b6-819338412b90","ios":"levelo://app?vid=0784e5ed-3500-48c0-92b6-819338412b90"},"vehicle_type_id":"4","last_reported":1732817550,"current_range_meters":38000,"station_id":"ce4bh692rcd13ifvqe90","pricing_plan_id":"cebpf4jnsgd1na2vs0mg"},{"bike_id":"e5951ee3-4a5a-4ebb-b469-096c5188dfa3","system_id":"levelo_inurba_marseille","lat":43.23206,"lon":5.35555,"is_reserved":false,"is_disabled":false,"rental_uris":{"android":"levelo://app?vid=e5951ee3-4a5a-4ebb-b469-096c5188dfa3","ios":"levelo://app?vid=e5951ee3-4a5a-4ebb-b469-096c5188dfa3"},"vehicle_type_id":"4","last_reported":1732817550,"current_range_meters":27200,"station_id":"ce4bhu92rcd13ifvqi70","pricing_plan_id":"cebpf4jnsgd1na2vs0mg"},{"bike_id":"888f360b-20ea-47bc-9441-e3690e3d4f21","system_id":"levelo_inurba_marseille","lat":43.25587,"lon":5.38229,"is_reserved":false,"is_disabled":false,"rental_uris":{"android":"levelo://app?vid=888f360b-20ea-47bc-9441-e3690e3d4f21","ios":"levelo://app?vid=888f360b-20ea-47bc-9441-e3690e3d4f21"},"vehicle_type_id":"4","last_reported":1732817550,"current_range_meters":27200,"station_id":"ce4bhih2rcd13ifvqfs0","pricing_plan_id":"cebpf4jnsgd1na2vs0mg"},{"bike_id":"cc633f01-bdc8-430a-91b8-8b9dcc960bcd","system_id":"levelo_inurba_marseille","lat":43.32287,"lon":5.38253,"is_reserved":false,"is_disabled":false,"rental_uris":{"android":"levelo://app?vid=cc633f01-bdc8-430a-91b8-8b9dcc960bcd","ios":"levelo://app?vid=cc633f01-bdc8-430a-91b8-8b9dcc960bcd"},"vehicle_type_id":"4","last_reported":1732817550,"current_range_meters":24000,"station_id":"ce4bhr12rcd13ifvqhqg","pricing_plan_id":"cebpf4jnsgd1na2vs0mg"},{"bike_id":"dc4b1e41-dcf1-4589-ac53-b902514e7d26","system_id":"levelo_inurba_marseille","lat":43.281523,"lon":5.426416,"is_reserved":false,"is_disabled":false,"rental_uris":{"android":"levelo://app?vid=dc4b1e41-dcf1-4589-ac53-b902514e7d26","ios":"levelo://app?vid=dc4b1e41-dcf1-4589-ac53-b902514e7d26"},"vehicle_type_id":"4","last_reported":1732817550,"current_range_meters":38800,"station_id":"ce4bhnh2rcd13ifvqgug","pricing_plan_id":"cebpf4jnsgd1na2vs0mg"},{"bike_id":"c0a660c5-61cb-4528-9d0d-4f4d7f62050a","system_id":"levelo_inurba_marseille","lat":43.29535,"lon":5.38548,"is_reserved":false,"is_disabled":false,"rental_uris":{"android":"levelo://app?vid=c0a660c5-61cb-4528-9d0d-4f4d7f62050a","ios":"levelo://app?vid=c0a660c5-61cb-4528-9d0d-4f4d7f62050a"},"vehicle_type_id":"4","last_reported":1732817550,"current_range_meters":38800,"station_id":"ce4bgih2rcd13ifvqba0","pricing_plan_id":"cebpf4jnsgd1na2vs0mg"},{"bike_id":"98f38a40-0597-47f6-b8e7-e0616c5b9390","system_id":"levelo_inurba_marseille","lat":43.28739,"lon":5.37691,"is_reserved":false,"is_disabled":true,"rental_uris":{"android":"levelo://app?vid=98f38a40-0597-47f6-b8e7-e0616c5b9390","ios":"levelo://app?vid=98f38a40-0597-47f6-b8e7-e0616c5b9390"},"vehicle_type_id":"4","last_reported":1732817550,"current_range_meters":1200,"station_id":"ce4bgh92rcd13ifvqb50","pricing_plan_id":"cebpf4jnsgd1na2vs0mg"},{"bike_id":"57521451-088b-4d59-ae59-c456c4011d5a","system_id":"levelo_inurba_marseille","lat":43.29742,"lon":5.3691,"is_reserved":false,"is_disabled":false,"rental_uris":{"android":"levelo://app?vid=57521451-088b-4d59-ae59-c456c4011d5a","ios":"levelo://app?vid=57521451-088b-4d59-ae59-c456c4011d5a"},"vehicle_type_id":"4","last_reported":1732817550,"current_range_meters":26000,"station_id":"","pricing_plan_id":"cebpf4jnsgd1na2vs0mg"},{"bike_id":"de8dedfd-c65e-4ce5-b8ec-b5ab34a22a6e","system_id":"levelo_inurba_marseille","lat":43.27064,"lon":5.42276,"is_reserved":false,"is_disabled":true,"rental_uris":{"android":"levelo://app?vid=de8dedfd-c65e-4ce5-b8ec-b5ab34a22a6e","ios":"levelo://app?vid=de8dedfd-c65e-4ce5-b8ec-b5ab34a22a6e"},"vehicle_type_id":"4","last_reported":1732817550,"current_range_meters":23200,"station_id":"ce4bhk92rcd13ifvqgb0","pricing_plan_id":"cebpf4jnsgd1na2vs0mg"},{"bike_id":"a67a06b9-f01a-4785-8594-c6b127c01da4","system_id":"levelo_inurba_marseille","lat":43.25497,"lon":5.37646,"is_reserved":false,"is_disabled":false,"rental_uris":{"android":"levelo://app?vid=a67a06b9-f01a-4785-8594-c6b127c01da4","ios":"levelo://app?vid=a67a06b9-f01a-4785-8594-c6b127c01da4"},"vehicle_type_id":"4","last_reported":1732817550,"current_range_meters":14400,"station_id":"ce4bhh12rcd13ifvqff0","pricing_plan_id":"cebpf4jnsgd1na2vs0mg"},{"bike_id":"1a4e55c1-0bec-48fd-8291-779d4805f240","system_id":"levelo_inurba_marseille","lat":43.32563,"lon":5.3799,"is_reserved":false,"is_disabled":false,"rental_uris":{"android":"levelo://app?vid=1a4e55c1-0bec-48fd-8291-779d4805f240","ios":"levelo://app?vid=1a4e55c1-0bec-48fd-8291-779d4805f240"},"vehicle_type_id":"4","last_reported":1732817550,"current_range_meters":25600,"station_id":"","pricing_plan_id":"cebpf4jnsgd1na2vs0mg"},{"bike_id":"34b86e02-d173-4df5-8a5b-289fe7f0bb9d","system_id":"levelo_inurba_marseille","lat":43.28709,"lon":5.37406,"is_reserved":false,"is_disabled":false,"rental_uris":{"android":"levelo://app?vid=34b86e02-d173-4df5-8a5b-289fe7f0bb9d","ios":"levelo://app?vid=34b86e02-d173-4df5-8a5b-289fe7f0bb9d"},"vehicle_type_id":"4","last_reported":1732817550,"current_range_meters":38800,"station_id":"ce4bh3p2rcd13ifvqdq0","pricing_plan_id":"cebpf4jnsgd1na2vs0mg"},{"bike_id":"d2d01e23-35ca-407f-8292-f4fa070f2e36","system_id":"levelo_inurba_marseille","lat":43.28704,"lon":5.3738,"is_reserved":false,"is_disabled":false,"rental_uris":{"android":"levelo://app?vid=d2d01e23-35ca-407f-8292-f4fa070f2e36","ios":"levelo://app?vid=d2d01e23-35ca-407f-8292-f4fa070f2e36"},"vehicle_type_id":"4","last_reported":1732817550,"current_range_meters":38800,"station_id":"ce4bh3p2rcd13ifvqdq0","pricing_plan_id":"cebpf4jnsgd1na2vs0mg"},{"bike_id":"3dfe627d-1f15-4d11-8fa2-4260e093da62","system_id":"levelo_inurba_marseille","lat":43.29036,"lon":5.35924,"is_reserved":false,"is_disabled":true,"rental_uris":{"android":"levelo://app?vid=3dfe627d-1f15-4d11-8fa2-4260e093da62","ios":"levelo://app?vid=3dfe627d-1f15-4d11-8fa2-4260e093da62"},"vehicle_type_id":"4","last_reported":1732817550,"current_range_meters":0,"station_id":"ce4bha92rcd13ifvqeg0","pricing_plan_id":"cebpf4jnsgd1na2vs0mg"},{"bike_id":"a0916648-0f23-4fae-8f2a-59b1f546e3aa","system_id":"levelo_inurba_marseille","lat":43.2921,"lon":5.39322,"is_reserved":false,"is_disabled":true,"rental_uris":{"android":"levelo://app?vid=a0916648-0f23-4fae-8f2a-59b1f546e3aa","ios":"levelo://app?vid=a0916648-0f23-4fae-8f2a-59b1f546e3aa"},"vehicle_type_id":"4","last_reported":1732817550,"current_range_meters":0,"station_id":"ce4bh192rcd13ifvqdd0","pricing_plan_id":"cebpf4jnsgd1na2vs0mg"},{"bike_id":"7c3d0f17-c9db-4bc3-ac84-ebee7caeb7bf","system_id":"levelo_inurba_marseille","lat":43.2986,"lon":5.39726,"is_reserved":false,"is_disabled":false,"rental_uris":{"android":"levelo://app?vid=7c3d0f17-c9db-4bc3-ac84-ebee7caeb7bf","ios":"levelo://app?vid=7c3d0f17-c9db-4bc3-ac84-ebee7caeb7bf"},"vehicle_type_id":"4","last_reported":1732817550,"current_range_meters":9200,"station_id":"ce4bh0h2rcd13ifvqd50","pricing_plan_id":"cebpf4jnsgd1na2vs0mg"},{"bike_id":"2dca76e4-428f-410f-997a-37901255cb78","system_id":"levelo_inurba_marseille","lat":43.31084,"lon":5.42427,"is_reserved":false,"is_disabled":false,"rental_uris":{"android":"levelo://app?vid=2dca76e4-428f-410f-997a-37901255cb78","ios":"levelo://app?vid=2dca76e4-428f-410f-997a-37901255cb78"},"vehicle_type_id":"4","last_reported":1732817550,"current_range_meters":16800,"station_id":"ce4bhp92rcd13ifvqhag","pricing_plan_id":"cebpf4jnsgd1na2vs0mg"},{"bike_id":"8105928c-2806-4a6a-b4e4-a4e821a3e547","system_id":"levelo_inurba_marseille","lat":43.28466,"lon":5.35884,"is_reserved":false,"is_disabled":false,"rental_uris":{"android":"levelo://app?vid=8105928c-2806-4a6a-b4e4-a4e821a3e547","ios":"levelo://app?vid=8105928c-2806-4a6a-b4e4-a4e821a3e547"},"vehicle_type_id":"4","last_reported":1732817550,"current_range_meters":33600,"station_id":"ce4bhah2rcd13ifvqei0","pricing_plan_id":"cebpf4jnsgd1na2vs0mg"},{"bike_id":"daab750e-e2f0-4d6b-af01-704fb0e32a40","system_id":"levelo_inurba_marseille","lat":43.29913,"lon":5.37484,"is_reserved":false,"is_disabled":false,"rental_uris":{"android":"levelo://app?vid=daab750e-e2f0-4d6b-af01-704fb0e32a40","ios":"levelo://app?vid=daab750e-e2f0-4d6b-af01-704fb0e32a40"},"vehicle_type_id":"4","last_reported":1732817550,"current_range_meters":6400,"station_id":"ce4bgjh2rcd13ifvqbg0","pricing_plan_id":"cebpf4jnsgd1na2vs0mg"},{"bike_id":"01daa277-7f67-4c76-bfa9-7bfd957e9fb1","system_id":"levelo_inurba_marseille","lat":43.29791,"lon":5.40388,"is_reserved":false,"is_disabled":false,"rental_uris":{"android":"levelo://app?vid=01daa277-7f67-4c76-bfa9-7bfd957e9fb1","ios":"levelo://app?vid=01daa277-7f67-4c76-bfa9-7bfd957e9fb1"},"vehicle_type_id":"4","last_reported":1732817550,"current_range_meters":24000,"station_id":"ce4bh112rcd13ifvqd90","pricing_plan_id":"cebpf4jnsgd1na2vs0mg"},{"bike_id":"43746d86-8a13-4845-9faf-ae69b548d714","system_id":"levelo_inurba_marseille","lat":43.29459,"lon":5.37917,"is_reserved":false,"is_disabled":true,"rental_uris":{"android":"levelo://app?vid=43746d86-8a13-4845-9faf-ae69b548d714","ios":"levelo://app?vid=43746d86-8a13-4845-9faf-ae69b548d714"},"vehicle_type_id":"4","last_reported":1732817550,"current_range_meters":0,"station_id":"","pricing_plan_id":"cebpf4jnsgd1na2vs0mg"},{"bike_id":"5a91fb7c-4d62-4501-ba2f-42bd33d0ee6f","system_id":"levelo_inurba_marseille","lat":43.32029,"lon":5.41567,"is_reserved":false,"is_disabled":false,"rental_uris":{"android":"levelo://app?vid=5a91fb7c-4d62-4501-ba2f-42bd33d0ee6f","ios":"levelo://app?vid=5a91fb7c-4d62-4501-ba2f-42bd33d0ee6f"},"vehicle_type_id":"4","last_reported":1732817550,"current_range_meters":14000,"station_id":"ce4bhq92rcd13ifvqhkg","pricing_plan_id":"cebpf4jnsgd1na2vs0mg"},{"bike_id":"24475bbe-d591-422d-886b-4e03bfa37464","system_id":"levelo_inurba_marseille","lat":43.23179,"lon":5.39978,"is_reserved":false,"is_disabled":false,"rental_uris":{"android":"levelo://app?vid=24475bbe-d591-422d-886b-4e03bfa37464","ios":"levelo://app?vid=24475bbe-d591-422d-886b-4e03bfa37464"},"vehicle_type_id":"4","last_reported":1732817550,"current_range_meters":38800,"station_id":"ce4bhn12rcd13ifvqgqg","pricing_plan_id":"cebpf4jnsgd1na2vs0mg"},{"bike_id":"bb2d75fd-eb1e-47e2-8da6-ca4e05134df5","system_id":"levelo_inurba_marseille","lat":43.24664,"lon":5.38163,"is_reserved":false,"is_disabled":false,"rental_uris":{"android":"levelo://app?vid=bb2d75fd-eb1e-47e2-8da6-ca4e05134df5","ios":"levelo://app?vid=bb2d75fd-eb1e-47e2-8da6-ca4e05134df5"},"vehicle_type_id":"4","last_reported":1732817550,"current_range_meters":28400,"station_id":"ce4bhih2rcd13ifvqfr0","pricing_plan_id":"cebpf4jnsgd1na2vs0mg"},{"bike_id":"413f9854-fc39-4cfb-947b-29b2363e6ded","system_id":"levelo_inurba_marseille","lat":43.28848,"lon":5.39342,"is_reserved":false,"is_disabled":false,"rental_uris":{"android":"levelo://app?vid=413f9854-fc39-4cfb-947b-29b2363e6ded","ios":"levelo://app?vid=413f9854-fc39-4cfb-947b-29b2363e6ded"},"vehicle_type_id":"4","last_reported":1732817550,"current_range_meters":27200,"station_id":"ce4bh2p2rcd13ifvqdi0","pricing_plan_id":"cebpf4jnsgd1na2vs0mg"},{"bike_id":"9eb563d1-3c8e-485e-95e2-6fe8aff9c737","system_id":"levelo_inurba_marseille","lat":43.29028,"lon":5.38638,"is_reserved":false,"is_disabled":false,"rental_uris":{"android":"levelo://app?vid=9eb563d1-3c8e-485e-95e2-6fe8aff9c737","ios":"levelo://app?vid=9eb563d1-3c8e-485e-95e2-6fe8aff9c737"},"vehicle_type_id":"4","last_reported":1732817550,"current_range_meters":33600,"station_id":"ce4bh4p2rcd13ifvqe0g","pricing_plan_id":"cebpf4jnsgd1na2vs0mg"},{"bike_id":"2068bea6-b554-4e30-8255-13770c871bb8","system_id":"levelo_inurba_marseille","lat":43.25584,"lon":5.38238,"is_reserved":false,"is_disabled":true,"rental_uris":{"android":"levelo://app?vid=2068bea6-b554-4e30-8255-13770c871bb8","ios":"levelo://app?vid=2068bea6-b554-4e30-8255-13770c871bb8"},"vehicle_type_id":"4","last_reported":1732817550,"current_range_meters":0,"station_id":"ce4bhih2rcd13ifvqfs0","pricing_plan_id":"cebpf4jnsgd1na2vs0mg"},{"bike_id":"0fc6b0f1-53ba-44c7-8e43-e967c984302c","system_id":"levelo_inurba_marseille","lat":43.29422,"lon":5.38617,"is_reserved":false,"is_disabled":false,"rental_uris":{"android":"levelo://app?vid=0fc6b0f1-53ba-44c7-8e43-e967c984302c","ios":"levelo://app?vid=0fc6b0f1-53ba-44c7-8e43-e967c984302c"},"vehicle_type_id":"4","last_reported":1732817550,"current_range_meters":20800,"station_id":"ce4bh2h2rcd13ifvqdh0","pricing_plan_id":"cebpf4jnsgd1na2vs0mg"},{"bike_id":"73237246-d3c1-43bc-bad7-8e44028b6f2d","system_id":"levelo_inurba_marseille","lat":43.23187,"lon":5.39981,"is_reserved":false,"is_disabled":false,"rental_uris":{"android":"levelo://app?vid=73237246-d3c1-43bc-bad7-8e44028b6f2d","ios":"levelo://app?vid=73237246-d3c1-43bc-bad7-8e44028b6f2d"},"vehicle_type_id":"4","last_reported":1732817550,"current_range_meters":30400,"station_id":"ce4bhn12rcd13ifvqgqg","pricing_plan_id":"cebpf4jnsgd1na2vs0mg"},{"bike_id":"b61d80d7-b353-4771-8382-6558a9c16f91","system_id":"levelo_inurba_marseille","lat":43.31756,"lon":5.39004,"is_reserved":false,"is_disabled":false,"rental_uris":{"android":"levelo://app?vid=b61d80d7-b353-4771-8382-6558a9c16f91","ios":"levelo://app?vid=b61d80d7-b353-4771-8382-6558a9c16f91"},"vehicle_type_id":"4","last_reported":1732817550,"current_range_meters":19600,"station_id":"ce4bhqp2rcd13ifvqhng","pricing_plan_id":"cebpf4jnsgd1na2vs0mg"},{"bike_id":"fc4d15f5-6256-45a3-90d6-77bb4c676955","system_id":"levelo_inurba_marseille","lat":43.296284,"lon":5.377877,"is_reserved":false,"is_disabled":true,"rental_uris":{"android":"levelo://app?vid=fc4d15f5-6256-45a3-90d6-77bb4c676955","ios":"levelo://app?vid=fc4d15f5-6256-45a3-90d6-77bb4c676955"},"vehicle_type_id":"4","last_reported":1732817550,"current_range_meters":32800,"station_id":"","pricing_plan_id":"cebpf4jnsgd1na2vs0mg"},{"bike_id":"c88f8730-1176-4717-97e2-17c27b15274f","system_id":"levelo_inurba_marseille","lat":43.23204,"lon":5.35551,"is_reserved":false,"is_disabled":true,"rental_uris":{"android":"levelo://app?vid=c88f8730-1176-4717-97e2-17c27b15274f","ios":"levelo://app?vid=c88f8730-1176-4717-97e2-17c27b15274f"},"vehicle_type_id":"4","last_reported":1732817550,"current_range_meters":0,"station_id":"ce4bhu92rcd13ifvqi70","pricing_plan_id":"cebpf4jnsgd1na2vs0mg"},{"bike_id":"35cb50bf-ac62-401d-89f7-19c2fdbc2d94","system_id":"levelo_inurba_marseille","lat":43.27061,"lon":5.40268,"is_reserved":false,"is_disabled":true,"rental_uris":{"android":"levelo://app?vid=35cb50bf-ac62-401d-89f7-19c2fdbc2d94","ios":"levelo://app?vid=35cb50bf-ac62-401d-89f7-19c2fdbc2d94"},"vehicle_type_id":"4","last_reported":1732817550,"current_range_meters":800,"station_id":"ce4bhk92rcd13ifvqgc0","pricing_plan_id":"cebpf4jnsgd1na2vs0mg"},{"bike_id":"4b8c1c56-73dc-4943-823a-1435d3698384","system_id":"levelo_inurba_marseille","lat":43.30127,"lon":5.39857,"is_reserved":false,"is_disabled":false,"rental_uris":{"android":"levelo://app?vid=4b8c1c56-73dc-4943-823a-1435d3698384","ios":"levelo://app?vid=4b8c1c56-73dc-4943-823a-1435d3698384"},"vehicle_type_id":"4","last_reported":1732817550,"current_range_meters":6400,"station_id":"ce4bh0h2rcd13ifvqd40","pricing_plan_id":"cebpf4jnsgd1na2vs0mg"},{"bike_id":"e5c70063-2d89-420d-a625-a0a103282496","system_id":"levelo_inurba_marseille","lat":43.29072,"lon":5.37164,"is_reserved":false,"is_disabled":true,"rental_uris":{"android":"levelo://app?vid=e5c70063-2d89-420d-a625-a0a103282496","ios":"levelo://app?vid=e5c70063-2d89-420d-a625-a0a103282496"},"vehicle_type_id":"4","last_reported":1732817550,"current_range_meters":22800,"station_id":"ce4bh5p2rcd13ifvqe4g","pricing_plan_id":"cebpf4jnsgd1na2vs0mg"},{"bike_id":"b6ed1910-de57-401d-8b1d-af35755f9004","system_id":"levelo_inurba_marseille","lat":43.27954,"lon":5.41046,"is_reserved":false,"is_disabled":true,"rental_uris":{"android":"levelo://app?vid=b6ed1910-de57-401d-8b1d-af35755f9004","ios":"levelo://app?vid=b6ed1910-de57-401d-8b1d-af35755f9004"},"vehicle_type_id":"4","last_reported":1732817550,"current_range_meters":28800,"station_id":"ce4bhnp2rcd13ifvqh0g","pricing_plan_id":"cebpf4jnsgd1na2vs0mg"},{"bike_id":"b944efa8-8bfd-4cf3-9742-93239c780cac","system_id":"levelo_inurba_marseille","lat":43.29001,"lon":5.35609,"is_reserved":false,"is_disabled":true,"rental_uris":{"android":"levelo://app?vid=b944efa8-8bfd-4cf3-9742-93239c780cac","ios":"levelo://app?vid=b944efa8-8bfd-4cf3-9742-93239c780cac"},"vehicle_type_id":"4","last_reported":1732817550,"current_range_meters":30800,"station_id":"ce4bhb92rcd13ifvqen0","pricing_plan_id":"cebpf4jnsgd1na2vs0mg"},{"bike_id":"c0c814f8-5da5-485f-b863-3458dcd8a348","system_id":"levelo_inurba_marseille","lat":43.24551,"lon":5.39519,"is_reserved":false,"is_disabled":false,"rental_uris":{"android":"levelo://app?vid=c0c814f8-5da5-485f-b863-3458dcd8a348","ios":"levelo://app?vid=c0c814f8-5da5-485f-b863-3458dcd8a348"},"vehicle_type_id":"4","last_reported":1732817550,"current_range_meters":28000,"station_id":"ce4bhlp2rcd13ifvqgjg","pricing_plan_id":"cebpf4jnsgd1na2vs0mg"},{"bike_id":"be304305-3c5d-4939-ae19-92b165d41a8e","system_id":"levelo_inurba_marseille","lat":43.27418,"lon":5.39418,"is_reserved":false,"is_disabled":false,"rental_uris":{"android":"levelo://app?vid=be304305-3c5d-4939-ae19-92b165d41a8e","ios":"levelo://app?vid=be304305-3c5d-4939-ae19-92b165d41a8e"},"vehicle_type_id":"4","last_reported":1732817550,"current_range_meters":4000,"station_id":"ce4bhdp2rcd13ifvqf20","pricing_plan_id":"cebpf4jnsgd1na2vs0mg"},{"bike_id":"1145eab5-d310-4c5e-aab1-b3ee1b474f26","system_id":"levelo_inurba_marseille","lat":43.29537,"lon":5.38531,"is_reserved":false,"is_disabled":false,"rental_uris":{"android":"levelo://app?vid=1145eab5-d310-4c5e-aab1-b3ee1b474f26","ios":"levelo://app?vid=1145eab5-d310-4c5e-aab1-b3ee1b474f26"},"vehicle_type_id":"4","last_reported":1732817550,"current_range_meters":38800,"station_id":"ce4bgih2rcd13ifvqba0","pricing_plan_id":"cebpf4jnsgd1na2vs0mg"},{"bike_id":"53832248-7ea6-4cc6-856c-2b60c3f17998","system_id":"levelo_inurba_marseille","lat":43.2956,"lon":5.42285,"is_reserved":false,"is_disabled":true,"rental_uris":{"android":"levelo://app?vid=53832248-7ea6-4cc6-856c-2b60c3f17998","ios":"levelo://app?vid=53832248-7ea6-4cc6-856c-2b60c3f17998"},"vehicle_type_id":"4","last_reported":1732817550,"current_range_meters":38800,"station_id":"ce4bhph2rcd13ifvqhdg","pricing_plan_id":"cebpf4jnsgd1na2vs0mg"},{"bike_id":"25e9dab9-62a6-42e0-8bf0-bccea14b5589","system_id":"levelo_inurba_marseille","lat":43.25869,"lon":5.39894,"is_reserved":false,"is_disabled":false,"rental_uris":{"android":"levelo://app?vid=25e9dab9-62a6-42e0-8bf0-bccea14b5589","ios":"levelo://app?vid=25e9dab9-62a6-42e0-8bf0-bccea14b5589"},"vehicle_type_id":"4","last_reported":1732817550,"current_range_meters":6400,"station_id":"ce4bhl92rcd13ifvqghg","pricing_plan_id":"cebpf4jnsgd1na2vs0mg"},{"bike_id":"0cf94d6d-1021-4586-a74f-7409d46dd5b5","system_id":"levelo_inurba_marseille","lat":43.28718,"lon":5.37933,"is_reserved":false,"is_disabled":false,"rental_uris":{"android":"levelo://app?vid=0cf94d6d-1021-4586-a74f-7409d46dd5b5","ios":"levelo://app?vid=0cf94d6d-1021-4586-a74f-7409d46dd5b5"},"vehicle_type_id":"4","last_reported":1732817550,"current_range_meters":24800,"station_id":"ce4bh9p2rcd13ifvqec0","pricing_plan_id":"cebpf4jnsgd1na2vs0mg"},{"bike_id":"cd4bed89-0563-4bbd-8060-4aba81b358a6","system_id":"levelo_inurba_marseille","lat":43.28005,"lon":5.40011,"is_reserved":false,"is_disabled":false,"rental_uris":{"android":"levelo://app?vid=cd4bed89-0563-4bbd-8060-4aba81b358a6","ios":"levelo://app?vid=cd4bed89-0563-4bbd-8060-4aba81b358a6"},"vehicle_type_id":"4","last_reported":1732817550,"current_range_meters":3600,"station_id":"ce4bho92rcd13ifvqh4g","pricing_plan_id":"cebpf4jnsgd1na2vs0mg"},{"bike_id":"8d7cf84c-62c9-447f-8abb-2f11918579f4","system_id":"levelo_inurba_marseille","lat":43.31696,"lon":5.40473,"is_reserved":false,"is_disabled":false,"rental_uris":{"android":"levelo://app?vid=8d7cf84c-62c9-447f-8abb-2f11918579f4","ios":"levelo://app?vid=8d7cf84c-62c9-447f-8abb-2f11918579f4"},"vehicle_type_id":"4","last_reported":1732817550,"current_range_meters":22400,"station_id":"ce4bh012rcd13ifvqd00","pricing_plan_id":"cebpf4jnsgd1na2vs0mg"},{"bike_id":"9c02b610-1aa7-40cb-a73c-bfe679532f7b","system_id":"levelo_inurba_marseille","lat":43.28651,"lon":5.36348,"is_reserved":false,"is_disabled":false,"rental_uris":{"android":"levelo://app?vid=9c02b610-1aa7-40cb-a73c-bfe679532f7b","ios":"levelo://app?vid=9c02b610-1aa7-40cb-a73c-bfe679532f7b"},"vehicle_type_id":"4","last_reported":1732817550,"current_range_meters":38800,"station_id":"ce4bhah2rcd13ifvqej0","pricing_plan_id":"cebpf4jnsgd1na2vs0mg"},{"bike_id":"8e899be6-924a-4c65-ad57-16e9c7070197","system_id":"levelo_inurba_marseille","lat":43.29512,"lon":5.39404,"is_reserved":false,"is_disabled":false,"rental_uris":{"android":"levelo://app?vid=8e899be6-924a-4c65-ad57-16e9c7070197","ios":"levelo://app?vid=8e899be6-924a-4c65-ad57-16e9c7070197"},"vehicle_type_id":"4","last_reported":1732817550,"current_range_meters":32400,"station_id":"ce4bh292rcd13ifvqdf0","pricing_plan_id":"cebpf4jnsgd1na2vs0mg"},{"bike_id":"465839f2-6722-4ef8-8c92-f2263eb8bc82","system_id":"levelo_inurba_marseille","lat":43.32662,"lon":5.40989,"is_reserved":false,"is_disabled":true,"rental_uris":{"android":"levelo://app?vid=465839f2-6722-4ef8-8c92-f2263eb8bc82","ios":"levelo://app?vid=465839f2-6722-4ef8-8c92-f2263eb8bc82"},"vehicle_type_id":"4","last_reported":1732817550,"current_range_meters":0,"station_id":"ce4bhpp2rcd13ifvqhgg","pricing_plan_id":"cebpf4jnsgd1na2vs0mg"},{"bike_id":"9f427999-01f2-4803-b139-927d5d2371d3","system_id":"levelo_inurba_marseille","lat":43.2978,"lon":5.38108,"is_reserved":false,"is_disabled":true,"rental_uris":{"android":"levelo://app?vid=9f427999-01f2-4803-b139-927d5d2371d3","ios":"levelo://app?vid=9f427999-01f2-4803-b139-927d5d2371d3"},"vehicle_type_id":"4","last_reported":1732817550,"current_range_meters":22400,"station_id":"ce4bgip2rcd13ifvqbb0","pricing_plan_id":"cebpf4jnsgd1na2vs0mg"},{"bike_id":"373b0ef2-2c12-4172-adc7-218fad8a345e","system_id":"levelo_inurba_marseille","lat":43.30324,"lon":5.40429,"is_reserved":false,"is_disabled":true,"rental_uris":{"android":"levelo://app?vid=373b0ef2-2c12-4172-adc7-218fad8a345e","ios":"levelo://app?vid=373b0ef2-2c12-4172-adc7-218fad8a345e"},"vehicle_type_id":"4","last_reported":1732817550,"current_range_meters":0,"station_id":"ce4bh012rcd13ifvqd10","pricing_plan_id":"cebpf4jnsgd1na2vs0mg"},{"bike_id":"f6436adc-24e5-42aa-aeec-b759d333e74c","system_id":"levelo_inurba_marseille","lat":43.30428,"lon":5.38881,"is_reserved":false,"is_disabled":false,"rental_uris":{"android":"levelo://app?vid=f6436adc-24e5-42aa-aeec-b759d333e74c","ios":"levelo://app?vid=f6436adc-24e5-42aa-aeec-b759d333e74c"},"vehicle_type_id":"4","last_reported":1732817550,"current_range_meters":6400,"station_id":"ce4bgk12rcd13ifvqbi0","pricing_plan_id":"cebpf4jnsgd1na2vs0mg"},{"bike_id":"1c1010ea-0f6e-4e51-8f5a-cc18897b0a91","system_id":"levelo_inurba_marseille","lat":43.30892,"lon":5.39636,"is_reserved":false,"is_disabled":false,"rental_uris":{"android":"levelo://app?vid=1c1010ea-0f6e-4e51-8f5a-cc18897b0a91","ios":"levelo://app?vid=1c1010ea-0f6e-4e51-8f5a-cc18897b0a91"},"vehicle_type_id":"4","last_reported":1732817550,"current_range_meters":32000,"station_id":"ce4bh012rcd13ifvqcv0","pricing_plan_id":"cebpf4jnsgd1na2vs0mg"},{"bike_id":"ac0fae8c-69ce-4e75-b356-3eda14dac9f8","system_id":"levelo_inurba_marseille","lat":43.28978,"lon":5.378185,"is_reserved":false,"is_disabled":false,"rental_uris":{"android":"levelo://app?vid=ac0fae8c-69ce-4e75-b356-3eda14dac9f8","ios":"levelo://app?vid=ac0fae8c-69ce-4e75-b356-3eda14dac9f8"},"vehicle_type_id":"4","last_reported":1732817550,"current_range_meters":16400,"station_id":"ce4bh9p2rcd13ifvqed0","pricing_plan_id":"cebpf4jnsgd1na2vs0mg"},{"bike_id":"fbb69a76-9f06-4ea3-954f-7f4b2f1d4bea","system_id":"levelo_inurba_marseille","lat":43.22927,"lon":5.35376,"is_reserved":false,"is_disabled":true,"rental_uris":{"android":"levelo://app?vid=fbb69a76-9f06-4ea3-954f-7f4b2f1d4bea","ios":"levelo://app?vid=fbb69a76-9f06-4ea3-954f-7f4b2f1d4bea"},"vehicle_type_id":"4","last_reported":1732817550,"current_range_meters":0,"station_id":"cpo3532slgdg3j2ikp40","pricing_plan_id":"cebpf4jnsgd1na2vs0mg"},{"bike_id":"9e944db9-d48e-4848-b5fa-4af701aee80b","system_id":"levelo_inurba_marseille","lat":48.80797,"lon":2.40127,"is_reserved":false,"is_disabled":true,"rental_uris":{"android":"levelo://app?vid=9e944db9-d48e-4848-b5fa-4af701aee80b","ios":"levelo://app?vid=9e944db9-d48e-4848-b5fa-4af701aee80b"},"vehicle_type_id":"4","last_reported":1732817550,"current_range_meters":22800,"station_id":"","pricing_plan_id":"cebpf4jnsgd1na2vs0mg"},{"bike_id":"4e78c9b2-1457-4c65-a8e4-379aa844db66","system_id":"levelo_inurba_marseille","lat":43.27202,"lon":5.39187,"is_reserved":false,"is_disabled":false,"rental_uris":{"android":"levelo://app?vid=4e78c9b2-1457-4c65-a8e4-379aa844db66","ios":"levelo://app?vid=4e78c9b2-1457-4c65-a8e4-379aa844db66"},"vehicle_type_id":"4","last_reported":1732817550,"current_range_meters":38400,"station_id":"ce4bhhp2rcd13ifvqfm0","pricing_plan_id":"cebpf4jnsgd1na2vs0mg"},{"bike_id":"0ca434cc-e8fd-46e8-a749-c134f215cbc4","system_id":"levelo_inurba_marseille","lat":43.29334,"lon":5.37678,"is_reserved":false,"is_disabled":false,"rental_uris":{"android":"levelo://app?vid=0ca434cc-e8fd-46e8-a749-c134f215cbc4","ios":"levelo://app?vid=0ca434cc-e8fd-46e8-a749-c134f215cbc4"},"vehicle_type_id":"4","last_reported":1732817550,"current_range_meters":6800,"station_id":"","pricing_plan_id":"cebpf4jnsgd1na2vs0mg"},{"bike_id":"09619834-34db-4ec1-ae74-3b799b087c9a","system_id":"levelo_inurba_marseille","lat":43.33019,"lon":5.39034,"is_reserved":false,"is_disabled":false,"rental_uris":{"android":"levelo://app?vid=09619834-34db-4ec1-ae74-3b799b087c9a","ios":"levelo://app?vid=09619834-34db-4ec1-ae74-3b799b087c9a"},"vehicle_type_id":"4","last_reported":1732817550,"current_range_meters":38400,"station_id":"ce4bhr92rcd13ifvqhrg","pricing_plan_id":"cebpf4jnsgd1na2vs0mg"},{"bike_id":"2d657d3c-42ae-4630-b69c-2ccaa73a7f5d","system_id":"levelo_inurba_marseille","lat":43.28564,"lon":5.395,"is_reserved":false,"is_disabled":false,"rental_uris":{"android":"levelo://app?vid=2d657d3c-42ae-4630-b69c-2ccaa73a7f5d","ios":"levelo://app?vid=2d657d3c-42ae-4630-b69c-2ccaa73a7f5d"},"vehicle_type_id":"4","last_reported":1732817550,"current_range_meters":24800,"station_id":"ce4bh292rcd13ifvqdg0","pricing_plan_id":"cebpf4jnsgd1na2vs0mg"},{"bike_id":"172577b3-14ca-4daf-8640-469292d801b2","system_id":"levelo_inurba_marseille","lat":43.29863,"lon":5.39721,"is_reserved":false,"is_disabled":false,"rental_uris":{"android":"levelo://app?vid=172577b3-14ca-4daf-8640-469292d801b2","ios":"levelo://app?vid=172577b3-14ca-4daf-8640-469292d801b2"},"vehicle_type_id":"4","last_reported":1732817550,"current_range_meters":24000,"station_id":"ce4bh0h2rcd13ifvqd50","pricing_plan_id":"cebpf4jnsgd1na2vs0mg"},{"bike_id":"75b7dfd2-ff9f-4881-b061-575f296dd58c","system_id":"levelo_inurba_marseille","lat":43.28861,"lon":5.35849,"is_reserved":false,"is_disabled":false,"rental_uris":{"android":"levelo://app?vid=75b7dfd2-ff9f-4881-b061-575f296dd58c","ios":"levelo://app?vid=75b7dfd2-ff9f-4881-b061-575f296dd58c"},"vehicle_type_id":"4","last_reported":1732817550,"current_range_meters":20000,"station_id":"ce4bhb12rcd13ifvqem0","pricing_plan_id":"cebpf4jnsgd1na2vs0mg"},{"bike_id":"3d2fa90f-f7e0-46cf-b98e-3c04df6e1ec5","system_id":"levelo_inurba_marseille","lat":43.3148,"lon":5.37307,"is_reserved":false,"is_disabled":true,"rental_uris":{"android":"levelo://app?vid=3d2fa90f-f7e0-46cf-b98e-3c04df6e1ec5","ios":"levelo://app?vid=3d2fa90f-f7e0-46cf-b98e-3c04df6e1ec5"},"vehicle_type_id":"4","last_reported":1732817550,"current_range_meters":400,"station_id":"ce4bgt12rcd13ifvqcd0","pricing_plan_id":"cebpf4jnsgd1na2vs0mg"},{"bike_id":"e4f1650e-dbc2-4475-adfa-60b279e404ed","system_id":"levelo_inurba_marseille","lat":43.26059,"lon":5.39401,"is_reserved":false,"is_disabled":false,"rental_uris":{"android":"levelo://app?vid=e4f1650e-dbc2-4475-adfa-60b279e404ed","ios":"levelo://app?vid=e4f1650e-dbc2-4475-adfa-60b279e404ed"},"vehicle_type_id":"4","last_reported":1732817550,"current_range_meters":34800,"station_id":"ce4bhh92rcd13ifvqfj0","pricing_plan_id":"cebpf4jnsgd1na2vs0mg"},{"bike_id":"f54d4109-824c-4e9b-ad25-18f17ea5eba5","system_id":"levelo_inurba_marseille","lat":43.28271,"lon":5.35062,"is_reserved":false,"is_disabled":false,"rental_uris":{"android":"levelo://app?vid=f54d4109-824c-4e9b-ad25-18f17ea5eba5","ios":"levelo://app?vid=f54d4109-824c-4e9b-ad25-18f17ea5eba5"},"vehicle_type_id":"4","last_reported":1732817550,"current_range_meters":38800,"station_id":"ce4bhbp2rcd13ifvqerg","pricing_plan_id":"cebpf4jnsgd1na2vs0mg"},{"bike_id":"4ed4f533-a0dc-428f-b910-0929adfac58c","system_id":"levelo_inurba_marseille","lat":43.33024,"lon":5.3905,"is_reserved":false,"is_disabled":false,"rental_uris":{"android":"levelo://app?vid=4ed4f533-a0dc-428f-b910-0929adfac58c","ios":"levelo://app?vid=4ed4f533-a0dc-428f-b910-0929adfac58c"},"vehicle_type_id":"4","last_reported":1732817550,"current_range_meters":19600,"station_id":"ce4bhr92rcd13ifvqhrg","pricing_plan_id":"cebpf4jnsgd1na2vs0mg"},{"bike_id":"981f1cf6-e698-4e05-95e4-0b69d34bc9b4","system_id":"levelo_inurba_marseille","lat":43.27959,"lon":5.38765,"is_reserved":false,"is_disabled":true,"rental_uris":{"android":"levelo://app?vid=981f1cf6-e698-4e05-95e4-0b69d34bc9b4","ios":"levelo://app?vid=981f1cf6-e698-4e05-95e4-0b69d34bc9b4"},"vehicle_type_id":"4","last_reported":1732817550,"current_range_meters":2000,"station_id":"ce4bhg12rcd13ifvqf80","pricing_plan_id":"cebpf4jnsgd1na2vs0mg"},{"bike_id":"57c385df-d51f-4c80-92b5-fc97c76c2ab4","system_id":"levelo_inurba_marseille","lat":43.28465,"lon":5.3588,"is_reserved":false,"is_disabled":false,"rental_uris":{"android":"levelo://app?vid=57c385df-d51f-4c80-92b5-fc97c76c2ab4","ios":"levelo://app?vid=57c385df-d51f-4c80-92b5-fc97c76c2ab4"},"vehicle_type_id":"4","last_reported":1732817550,"current_range_meters":15200,"station_id":"ce4bhah2rcd13ifvqei0","pricing_plan_id":"cebpf4jnsgd1na2vs0mg"},{"bike_id":"a1dcb3c8-1eef-4083-be7b-b69a119a7250","system_id":"levelo_inurba_marseille","lat":43.23963,"lon":5.3664,"is_reserved":false,"is_disabled":false,"rental_uris":{"android":"levelo://app?vid=a1dcb3c8-1eef-4083-be7b-b69a119a7250","ios":"levelo://app?vid=a1dcb3c8-1eef-4083-be7b-b69a119a7250"},"vehicle_type_id":"4","last_reported":1732817550,"current_range_meters":11600,"station_id":"ce4bhi12rcd13ifvqfp0","pricing_plan_id":"cebpf4jnsgd1na2vs0mg"},{"bike_id":"a3114daf-4732-4c62-9b94-be68f3d6f60c","system_id":"levelo_inurba_marseille","lat":43.28609,"lon":5.37072,"is_reserved":false,"is_disabled":false,"rental_uris":{"android":"levelo://app?vid=a3114daf-4732-4c62-9b94-be68f3d6f60c","ios":"levelo://app?vid=a3114daf-4732-4c62-9b94-be68f3d6f60c"},"vehicle_type_id":"4","last_reported":1732817550,"current_range_meters":8400,"station_id":"ce4bht12rcd13ifvqi60","pricing_plan_id":"cebpf4jnsgd1na2vs0mg"},{"bike_id":"07af08ff-d17f-4053-925a-949f1fa90083","system_id":"levelo_inurba_marseille","lat":43.3234,"lon":5.38865,"is_reserved":false,"is_disabled":false,"rental_uris":{"android":"levelo://app?vid=07af08ff-d17f-4053-925a-949f1fa90083","ios":"levelo://app?vid=07af08ff-d17f-4053-925a-949f1fa90083"},"vehicle_type_id":"4","last_reported":1732817550,"current_range_meters":24000,"station_id":"ce4bhqp2rcd13ifvqhog","pricing_plan_id":"cebpf4jnsgd1na2vs0mg"},{"bike_id":"ae3817ed-117b-4ae4-bc47-be03692973ed","system_id":"levelo_inurba_marseille","lat":43.232037,"lon":5.35547,"is_reserved":false,"is_disabled":false,"rental_uris":{"android":"levelo://app?vid=ae3817ed-117b-4ae4-bc47-be03692973ed","ios":"levelo://app?vid=ae3817ed-117b-4ae4-bc47-be03692973ed"},"vehicle_type_id":"4","last_reported":1732817550,"current_range_meters":24800,"station_id":"ce4bhu92rcd13ifvqi70","pricing_plan_id":"cebpf4jnsgd1na2vs0mg"},{"bike_id":"d58e97e2-d463-4e4f-b060-aa20ccef7dfb","system_id":"levelo_inurba_marseille","lat":43.28946,"lon":5.36632,"is_reserved":false,"is_disabled":false,"rental_uris":{"android":"levelo://app?vid=d58e97e2-d463-4e4f-b060-aa20ccef7dfb","ios":"levelo://app?vid=d58e97e2-d463-4e4f-b060-aa20ccef7dfb"},"vehicle_type_id":"4","last_reported":1732817550,"current_range_meters":32000,"station_id":"ce4bh0h2rcd13ifvqd40","pricing_plan_id":"cebpf4jnsgd1na2vs0mg"},{"bike_id":"e23986f3-07c3-4dfc-80da-c97b8170aa6e","system_id":"levelo_inurba_marseille","lat":43.30138,"lon":5.39867,"is_reserved":false,"is_disabled":false,"rental_uris":{"android":"levelo://app?vid=e23986f3-07c3-4dfc-80da-c97b8170aa6e","ios":"levelo://app?vid=e23986f3-07c3-4dfc-80da-c97b8170aa6e"},"vehicle_type_id":"4","last_reported":1732817550,"current_range_meters":2000,"station_id":"ce4bh0h2rcd13ifvqd40","pricing_plan_id":"cebpf4jnsgd1na2vs0mg"},{"bike_id":"8f94fbdd-469c-48f6-aa3c-76763b2abef6","system_id":"levelo_inurba_marseille","lat":43.32336,"lon":5.40622,"is_reserved":false,"is_disabled":false,"rental_uris":{"android":"levelo://app?vid=8f94fbdd-469c-48f6-aa3c-76763b2abef6","ios":"levelo://app?vid=8f94fbdd-469c-48f6-aa3c-76763b2abef6"},"vehicle_type_id":"4","last_reported":1732817550,"current_range_meters":22000,"station_id":"ce4bhq92rcd13ifvqhjg","pricing_plan_id":"cebpf4jnsgd1na2vs0mg"},{"bike_id":"b4d58e23-01ae-4c65-b568-c25ecb787930","system_id":"levelo_inurba_marseille","lat":43.26489,"lon":5.39382,"is_reserved":false,"is_disabled":true,"rental_uris":{"android":"levelo://app?vid=b4d58e23-01ae-4c65-b568-c25ecb787930","ios":"levelo://app?vid=b4d58e23-01ae-4c65-b568-c25ecb787930"},"vehicle_type_id":"4","last_reported":1732817550,"current_range_meters":0,"station_id":"","pricing_plan_id":"cebpf4jnsgd1na2vs0mg"},{"bike_id":"cc2ccdca-a13d-404e-a41f-cd48b695db1b","system_id":"levelo_inurba_marseille","lat":43.301,"lon":5.3907,"is_reserved":false,"is_disabled":false,"rental_uris":{"android":"levelo://app?vid=cc2ccdca-a13d-404e-a41f-cd48b695db1b","ios":"levelo://app?vid=cc2ccdca-a13d-404e-a41f-cd48b695db1b"},"vehicle_type_id":"4","last_reported":1732817550,"current_range_meters":38800,"station_id":"ce4bh192rcd13ifvqdb0","pricing_plan_id":"cebpf4jnsgd1na2vs0mg"},{"bike_id":"1d34e018-da4b-4e97-9d9a-c67a8c875c15","system_id":"levelo_inurba_marseille","lat":43.32032,"lon":5.41563,"is_reserved":false,"is_disabled":false,"rental_uris":{"android":"levelo://app?vid=1d34e018-da4b-4e97-9d9a-c67a8c875c15","ios":"levelo://app?vid=1d34e018-da4b-4e97-9d9a-c67a8c875c15"},"vehicle_type_id":"4","last_reported":1732817550,"current_range_meters":26800,"station_id":"ce4bhq92rcd13ifvqhkg","pricing_plan_id":"cebpf4jnsgd1na2vs0mg"},{"bike_id":"78449bb0-4a49-4495-9486-62b9d16db4b1","system_id":"levelo_inurba_marseille","lat":43.33028,"lon":5.39035,"is_reserved":false,"is_disabled":false,"rental_uris":{"android":"levelo://app?vid=78449bb0-4a49-4495-9486-62b9d16db4b1","ios":"levelo://app?vid=78449bb0-4a49-4495-9486-62b9d16db4b1"},"vehicle_type_id":"4","last_reported":1732817550,"current_range_meters":20000,"station_id":"ce4bhr92rcd13ifvqhrg","pricing_plan_id":"cebpf4jnsgd1na2vs0mg"},{"bike_id":"447c7286-7fd2-40d7-a11c-845c88099efe","system_id":"levelo_inurba_marseille","lat":43.22925,"lon":5.35376,"is_reserved":false,"is_disabled":true,"rental_uris":{"android":"levelo://app?vid=447c7286-7fd2-40d7-a11c-845c88099efe","ios":"levelo://app?vid=447c7286-7fd2-40d7-a11c-845c88099efe"},"vehicle_type_id":"4","last_reported":1732817550,"current_range_meters":10000,"station_id":"cpo3532slgdg3j2ikp40","pricing_plan_id":"cebpf4jnsgd1na2vs0mg"},{"bike_id":"84a94506-b134-4ef9-8c9e-e937776540cc","system_id":"levelo_inurba_marseille","lat":43.25725,"lon":5.41107,"is_reserved":false,"is_disabled":false,"rental_uris":{"android":"levelo://app?vid=84a94506-b134-4ef9-8c9e-e937776540cc","ios":"levelo://app?vid=84a94506-b134-4ef9-8c9e-e937776540cc"},"vehicle_type_id":"4","last_reported":1732817550,"current_range_meters":8800,"station_id":"ce4bhkp2rcd13ifvqgd0","pricing_plan_id":"cebpf4jnsgd1na2vs0mg"},{"bike_id":"e71fca0d-9976-4e47-b7ee-d3fb417d5291","system_id":"levelo_inurba_marseille","lat":43.29576,"lon":5.37498,"is_reserved":false,"is_disabled":false,"rental_uris":{"android":"levelo://app?vid=e71fca0d-9976-4e47-b7ee-d3fb417d5291","ios":"levelo://app?vid=e71fca0d-9976-4e47-b7ee-d3fb417d5291"},"vehicle_type_id":"4","last_reported":1732817550,"current_range_meters":21600,"station_id":"ce4bgh92rcd13ifvqb50","pricing_plan_id":"cebpf4jnsgd1na2vs0mg"},{"bike_id":"2aca177e-03af-4dc4-9803-395ceb1a6f6f","system_id":"levelo_inurba_marseille","lat":43.33024,"lon":5.39043,"is_reserved":false,"is_disabled":false,"rental_uris":{"android":"levelo://app?vid=2aca177e-03af-4dc4-9803-395ceb1a6f6f","ios":"levelo://app?vid=2aca177e-03af-4dc4-9803-395ceb1a6f6f"},"vehicle_type_id":"4","last_reported":1732817550,"current_range_meters":35200,"station_id":"ce4bhr92rcd13ifvqhrg","pricing_plan_id":"cebpf4jnsgd1na2vs0mg"},{"bike_id":"a737957c-e237-4424-9736-baab550a2a8e","system_id":"levelo_inurba_marseille","lat":43.30528,"lon":5.3654,"is_reserved":false,"is_disabled":true,"rental_uris":{"android":"levelo://app?vid=a737957c-e237-4424-9736-baab550a2a8e","ios":"levelo://app?vid=a737957c-e237-4424-9736-baab550a2a8e"},"vehicle_type_id":"4","last_reported":1732817550,"current_range_meters":400,"station_id":"ce4bgs12rcd13ifvqcag","pricing_plan_id":"cebpf4jnsgd1na2vs0mg"},{"bike_id":"6a239580-a00b-4138-9c0a-994b0719e2ad","system_id":"levelo_inurba_marseille","lat":43.29826,"lon":5.36241,"is_reserved":false,"is_disabled":false,"rental_uris":{"android":"levelo://app?vid=6a239580-a00b-4138-9c0a-994b0719e2ad","ios":"levelo://app?vid=6a239580-a00b-4138-9c0a-994b0719e2ad"},"vehicle_type_id":"4","last_reported":1732817550,"current_range_meters":12800,"station_id":"ce4bgpp2rcd13ifvqc3g","pricing_plan_id":"cebpf4jnsgd1na2vs0mg"},{"bike_id":"a86649d3-acfd-4504-b91b-36e252899194","system_id":"levelo_inurba_marseille","lat":43.26566,"lon":5.39003,"is_reserved":false,"is_disabled":true,"rental_uris":{"android":"levelo://app?vid=a86649d3-acfd-4504-b91b-36e252899194","ios":"levelo://app?vid=a86649d3-acfd-4504-b91b-36e252899194"},"vehicle_type_id":"4","last_reported":1732817550,"current_range_meters":0,"station_id":"ce4bhe12rcd13ifvqf30","pricing_plan_id":"cebpf4jnsgd1na2vs0mg"},{"bike_id":"b7918d7b-69f2-4a53-b50e-c1ecca7945b9","system_id":"levelo_inurba_marseille","lat":43.26937,"lon":5.40254,"is_reserved":false,"is_disabled":true,"rental_uris":{"android":"levelo://app?vid=b7918d7b-69f2-4a53-b50e-c1ecca7945b9","ios":"levelo://app?vid=b7918d7b-69f2-4a53-b50e-c1ecca7945b9"},"vehicle_type_id":"4","last_reported":1732817550,"current_range_meters":0,"station_id":"cjm6bp8fraef2m0cb0m0","pricing_plan_id":"cebpf4jnsgd1na2vs0mg"},{"bike_id":"94809084-f018-4c9d-89ab-d882f6a7d502","system_id":"levelo_inurba_marseille","lat":43.30535,"lon":5.38423,"is_reserved":false,"is_disabled":false,"rental_uris":{"android":"levelo://app?vid=94809084-f018-4c9d-89ab-d882f6a7d502","ios":"levelo://app?vid=94809084-f018-4c9d-89ab-d882f6a7d502"},"vehicle_type_id":"4","last_reported":1732817550,"current_range_meters":39200,"station_id":"ce4bgg92rcd13ifvqb30","pricing_plan_id":"cebpf4jnsgd1na2vs0mg"},{"bike_id":"4cd489f2-c439-431a-9770-59ddfe3a3b50","system_id":"levelo_inurba_marseille","lat":43.25864,"lon":5.39901,"is_reserved":false,"is_disabled":false,"rental_uris":{"android":"levelo://app?vid=4cd489f2-c439-431a-9770-59ddfe3a3b50","ios":"levelo://app?vid=4cd489f2-c439-431a-9770-59ddfe3a3b50"},