{"last_updated":1706292537,"ttl":30,"version":"2.2","data":{"bikes":[{"bike_id":"e81be8c8-a75b-429f-9780-cfac65cc4493","system_id":"levelo_inurba_marseille","lat":43.31315,"lon":5.36976,"is_reserved":false,"is_disabled":false,"rental_uris":{"android":"levelo://app?vid=e81be8c8-a75b-429f-9780-cfac65cc4493","ios":"levelo://app?vid=e81be8c8-a75b-429f-9780-cfac65cc4493"},"vehicle_type_id":"4","last_reported":1706292537,"current_range_meters":0,"station_id":"","pricing_plan_id":"free"},{"bike_id":"43f2e9a3-4e4c-4d41-8a34-9514a3e6c5d3","system_id":"levelo_inurba_marseille","lat":43.316083,"lon":5.373023,"is_reserved":false,"is_disabled":false,"rental_uris":{"android":"levelo://app?vid=43f2e9a3-4e4c-4d41-8a34-9514a3e6c5d3","ios":"levelo://app?vid=43f2e9a3-4e4c-4d41-8a34-9514a3e6c5d3"},"vehicle_type_id":"4","last_reported":1706292537,"current_range_meters":8800,"station_id":"","pricing_plan_id":"free"},{"bike_id":"9443e511-2e2d-41e7-a2cd-4c95bf03992f","system_id":"levelo_inurba_marseille","lat":43.31356,"lon":5.37622,"is_reserved":false,"is_disabled":false,"rental_uris":{"android":"levelo://app?vid=9443e511-2e2d-41e7-a2cd-4c95bf03992f","ios":"levelo://app?vid=9443e511-2e2d-41e7-a2cd-4c95bf03992f"},"vehicle_type_id":"4","last_reported":1706292537,"current_range_meters":10400,"station_id":"","pricing_plan_id":"free"},{"bike_id":"29e1158f-8fb4-45db-a98a-ee8122bd1290","system_id":"levelo_inurba_marseille","lat":43.305714,"lon":5.365633,"is_reserved":false,"is_disabled":false,"rental_uris":{"android":"levelo://app?vid=29e1158f-8fb4-45db-a98a-ee8122bd1290","ios":"levelo://app?vid=29e1158f-8fb4-45db-a98a-ee8122bd1290"},"vehicle_type_id":"4","last_reported":1706292537,"current_range_meters":0,"station_id":"ce4bgs12rcd13ifvqcag","pricing_plan_id":"free"},{"bike_id":"4596bfcd-e003-4284-ace0-77ec30e2e024","system_id":"levelo_inurba_marseille","lat":43.317075,"lon":5.377367,"is_reserved":false,"is_disabled":false,"rental_uris":{"android":"levelo://app?vid=4596bfcd-e003-4284-ace0-77ec30e2e024","ios":"levelo://app?vid=4596bfcd-e003-4284-ace0-77ec30e2e024"},"vehicle_type_id":"4","last_reported":1706292537,"current_range_meters":22800,"station_id":"ce4bgth2rcd13ifvqch0","pricing_plan_id":"free"},{"bike_id":"c7ce385f-76b2-41f6-ae05-cae5605b7d76","system_id":"levelo_inurba_marseille","lat":43.305714,"lon":5.365633,"is_reserved":false,"is_disabled":false,"rental_uris":{"android":"levelo://app?vid=c7ce385f-76b2-41f6-ae05-cae5605b7d76","ios":"levelo://app?vid=c7ce385f-76b2-41f6-ae05-cae5605b7d76"},"vehicle_type_id":"4","last_reported":1706292537,"current_range_meters":0,"station_id":"ce4bgs12rcd13ifvqcag","pricing_plan_id":"free"},{"bike_id":"b9f6ac85-c92a-431c-bc36-81aa9b4e5293","system_id":"levelo_inurba_marseille","lat":43.30496,"lon":5.36696,"is_reserved":false,"is_disabled":false,"rental_uris":{"android":"levelo://app?vid=b9f6ac85-c92a-431c-bc36-81aa9b4e5293","ios":"levelo://app?vid=b9f6ac85-c92a-431c-bc36-81aa9b4e5293"},"vehicle_type_id":"4","last_reported":1706292537,"current_range_meters":0,"station_id":"","pricing_plan_id":"free"},{"bike_id":"08aeb24f-6fd6-400d-a34e-dab7421d9fe8","system_id":"levelo_inurba_marseille","lat":43.311172,"lon":5.377592,"is_reserved":false,"is_disabled":false,"rental_uris":{"android":"levelo://app?vid=08aeb24f-6fd6-400d-a34e-dab7421d9fe8","ios":"levelo://app?vid=08aeb24f-6fd6-400d-a34e-dab7421d9fe8"},"vehicle_type_id":"4","last_reported":1706292537,"current_range_meters":16000,"station_id":"ce4bgt92rcd13ifvqcg0","pricing_plan_id":"free"},{"bike_id":"7c81727c-5265-4d7c-9735-708db1b3fe50","system_id":"levelo_inurba_marseille","lat":43.31124,"lon":5.37768,"is_reserved":false,"is_disabled":false,"rental_uris":{"android":"levelo://app?vid=7c81727c-5265-4d7c-9735-708db1b3fe50","ios":"levelo://app?vid=7c81727c-5265-4d7c-9735-708db1b3fe50"},"vehicle_type_id":"4","last_reported":1706292537,"current_range_meters":0,"station_id":"ce4bgt92rcd13ifvqcg0","pricing_plan_id":"free"},{"bike_id":"10521cd1-1156-4cb3-a5b1-f382f8e7cdf2","system_id":"levelo_inurba_marseille","lat":43.307945,"lon":5.376487,"is_reserved":false,"is_disabled":false,"rental_uris":{"android":"levelo://app?vid=10521cd1-1156-4cb3-a5b1-f382f8e7cdf2","ios":"levelo://app?vid=10521cd1-1156-4cb3-a5b1-f382f8e7cdf2"},"vehicle_type_id":"4","last_reported":1706292537,"current_range_meters":4400,"station_id":"ce4bgv92rcd13ifvqcq0","pricing_plan_id":"free"},{"bike_id":"0e11932e-17b7-4146-8e63-2f6f24b1e8ce","system_id":"levelo_inurba_marseille","lat":43.307873,"lon":5.37641,"is_reserved":false,"is_disabled":false,"rental_uris":{"android":"levelo://app?vid=0e11932e-17b7-4146-8e63-2f6f24b1e8ce","ios":"levelo://app?vid=0e11932e-17b7-4146-8e63-2f6f24b1e8ce"},"vehicle_type_id":"4","last_reported":1706292537,"current_range_meters":0,"station_id":"ce4bgv92rcd13ifvqcq0","pricing_plan_id":"free"},{"bike_id":"52a9a8b6-e56d-4bcd-a558-12044da36464","system_id":"levelo_inurba_marseille","lat":43.317073,"lon":5.37738,"is_reserved":false,"is_disabled":false,"rental_uris":{"android":"levelo://app?vid=52a9a8b6-e56d-4bcd-a558-12044da36464","ios":"levelo://app?vid=52a9a8b6-e56d-4bcd-a558-12044da36464"},"vehicle_type_id":"4","last_reported":1706292537,"current_range_meters":6800,"station_id":"ce4bgth2rcd13ifvqch0","pricing_plan_id":"free"},{"bike_id":"183bb1c1-398f-466c-b05d-327ac4efc436","system_id":"levelo_inurba_marseille","lat":43.31719,"lon":5.37754,"is_reserved":false,"is_disabled":false,"rental_uris":{"android":"levelo://app?vid=183bb1c1-398f-466c-b05d-327ac4efc436","ios":"levelo://app?vid=183bb1c1-398f-466c-b05d-327ac4efc436"},"vehicle_type_id":"4","last_reported":1706292537,"current_range_meters":18000,"station_id":"ce4bgth2rcd13ifvqch0","pricing_plan_id":"free"},{"bike_id":"8efdb943-2d3b-4b7f-8cb1-b663096d07b6","system_id":"levelo_inurba_marseille","lat":43.317024,"lon":5.37771,"is_reserved":false,"is_disabled":false,"rental_uris":{"android":"levelo://app?vid=8efdb943-2d3b-4b7f-8cb1-b663096d07b6","ios":"levelo://app?vid=8efdb943-2d3b-4b7f-8cb1-b663096d07b6"},"vehicle_type_id":"4","last_reported":1706292537,"current_range_meters":26800,"station_id":"ce4bgth2rcd13ifvqch0","pricing_plan_id":"free"},{"bike_id":"5b0a56ae-3d70-40f6-ad3f-78c604f89c73","system_id":"levelo_inurba_marseille","lat":43.312517,"lon":5.379897,"is_reserved":false,"is_disabled":false,"rental_uris":{"android":"levelo://app?vid=5b0a56ae-3d70-40f6-ad3f-78c604f89c73","ios":"levelo://app?vid=5b0a56ae-3d70-40f6-ad3f-78c604f89c73"},"vehicle_type_id":"4","last_reported":1706292537,"current_range_meters":16000,"station_id":"","pricing_plan_id":"free"},{"bike_id":"b10b8257-da82-4103-a35a-149a4b51fd60","system_id":"levelo_inurba_marseille","lat":43.308012,"lon":5.381511,"is_reserved":false,"is_disabled":false,"rental_uris":{"android":"levelo://app?vid=b10b8257-da82-4103-a35a-149a4b51fd60","ios":"levelo://app?vid=b10b8257-da82-4103-a35a-149a4b51fd60"},"vehicle_type_id":"4","last_reported":1706292537,"current_range_meters":0,"station_id":"ce4bgt12rcd13ifvqce0","pricing_plan_id":"free"},{"bike_id":"5700371f-3138-4035-970a-f8af1a4b9230","system_id":"levelo_inurba_marseille","lat":43.30466,"lon":5.37912,"is_reserved":false,"is_disabled":false,"rental_uris":{"android":"levelo://app?vid=5700371f-3138-4035-970a-f8af1a4b9230","ios":"levelo://app?vid=5700371f-3138-4035-970a-f8af1a4b9230"},"vehicle_type_id":"4","last_reported":1706292537,"current_range_meters":14800,"station_id":"ce4bgup2rcd13ifvqcn0","pricing_plan_id":"free"},{"bike_id":"31640d2a-649e-46d5-bec8-90da7f0336c7","system_id":"levelo_inurba_marseille","lat":43.304606,"lon":5.379026,"is_reserved":false,"is_disabled":false,"rental_uris":{"android":"levelo://app?vid=31640d2a-649e-46d5-bec8-90da7f0336c7","ios":"levelo://app?vid=31640d2a-649e-46d5-bec8-90da7f0336c7"},"vehicle_type_id":"4","last_reported":1706292537,"current_range_meters":4800,"station_id":"ce4bgup2rcd13ifvqcn0","pricing_plan_id":"free"},{"bike_id":"e3cfa974-2663-4965-a96a-f55f3013619c","system_id":"levelo_inurba_marseille","lat":43.324771,"lon":5.36557,"is_reserved":false,"is_disabled":false,"rental_uris":{"android":"levelo://app?vid=e3cfa974-2663-4965-a96a-f55f3013619c","ios":"levelo://app?vid=e3cfa974-2663-4965-a96a-f55f3013619c"},"vehicle_type_id":"4","last_reported":1706292537,"current_range_meters":7600,"station_id":"ce4bhs12rcd13ifvqhvg","pricing_plan_id":"free"},{"bike_id":"ec40115e-0430-4944-8ece-51306c67ea7e","system_id":"levelo_inurba_marseille","lat":43.324771,"lon":5.36557,"is_reserved":false,"is_disabled":false,"rental_uris":{"android":"levelo://app?vid=ec40115e-0430-4944-8ece-51306c67ea7e","ios":"levelo://app?vid=ec40115e-0430-4944-8ece-51306c67ea7e"},"vehicle_type_id":"4","last_reported":1706292537,"current_range_meters":18800,"station_id":"ce4bhs12rcd13ifvqhvg","pricing_plan_id":"free"},{"bike_id":"d1abd051-bba3-4404-bb47-176547a08e8f","system_id":"levelo_inurba_marseille","lat":43.302784,"lon":5.377158,"is_reserved":false,"is_disabled":false,"rental_uris":{"android":"levelo://app?vid=d1abd051-bba3-4404-bb47-176547a08e8f","ios":"levelo://app?vid=d1abd051-bba3-4404-bb47-176547a08e8f"},"vehicle_type_id":"4","last_reported":1706292537,"current_range_meters":18400,"station_id":"ce4bguh2rcd13ifvqcj0","pricing_plan_id":"free"},{"bike_id":"4451d5bf-2c2e-4e8e-931e-3176115af84f","system_id":"levelo_inurba_marseille","lat":43.30143,"lon":5.37413,"is_reserved":false,"is_disabled":false,"rental_uris":{"android":"levelo://app?vid=4451d5bf-2c2e-4e8e-931e-3176115af84f","ios":"levelo://app?vid=4451d5bf-2c2e-4e8e-931e-3176115af84f"},"vehicle_type_id":"4","last_reported":1706292537,"current_range_meters":4800,"station_id":"ce4bgs92rcd13ifvqcc0","pricing_plan_id":"free"},{"bike_id":"fc51b747-b33f-40c9-9c2c-bd6f886bc3e2","system_id":"levelo_inurba_marseille","lat":43.319883,"lon":5.381426,"is_reserved":false,"is_disabled":false,"rental_uris":{"android":"levelo://app?vid=fc51b747-b33f-40c9-9c2c-bd6f886bc3e2","ios":"levelo://app?vid=fc51b747-b33f-40c9-9c2c-bd6f886bc3e2"},"vehicle_type_id":"4","last_reported":1706292537,"current_range_meters":14000,"station_id":"ce4bhr12rcd13ifvqhpg","pricing_plan_id":"free"},{"bike_id":"fd388e30-6c90-4fbf-abdf-dd15ef425659","system_id":"levelo_inurba_marseille","lat":43.319967,"lon":5.381565,"is_reserved":false,"is_disabled":false,"rental_uris":{"android":"levelo://app?vid=fd388e30-6c90-4fbf-abdf-dd15ef425659","ios":"levelo://app?vid=fd388e30-6c90-4fbf-abdf-dd15ef425659"},"vehicle_type_id":"4","last_reported":1706292537,"current_range_meters":9600,"station_id":"ce4bhr12rcd13ifvqhpg","pricing_plan_id":"free"},{"bike_id":"01533f59-2c23-4279-b5fa-c0608335cf09","system_id":"levelo_inurba_marseille","lat":43.320018,"lon":5.381531,"is_reserved":false,"is_disabled":false,"rental_uris":{"android":"levelo://app?vid=01533f59-2c23-4279-b5fa-c0608335cf09","ios":"levelo://app?vid=01533f59-2c23-4279-b5fa-c0608335cf09"},"vehicle_type_id":"4","last_reported":1706292537,"current_range_meters":1200,"station_id":"ce4bhr12rcd13ifvqhpg","pricing_plan_id":"free"},{"bike_id":"fbd1c7c8-59f4-40f3-bd13-92a41198f404","system_id":"levelo_inurba_marseille","lat":43.319935,"lon":5.381699,"is_reserved":false,"is_disabled":false,"rental_uris":{"android":"levelo://app?vid=fbd1c7c8-59f4-40f3-bd13-92a41198f404","ios":"levelo://app?vid=fbd1c7c8-59f4-40f3-bd13-92a41198f404"},"vehicle_type_id":"4","last_reported":1706292537,"current_range_meters":20000,"station_id":"ce4bhr12rcd13ifvqhpg","pricing_plan_id":"free"},{"bike_id":"ae7ab608-8fac-4c0d-9f43-8ffacb07a49d","system_id":"levelo_inurba_marseille","lat":43.319935,"lon":5.381699,"is_reserved":false,"is_disabled":false,"rental_uris":{"android":"levelo://app?vid=ae7ab608-8fac-4c0d-9f43-8ffacb07a49d","ios":"levelo://app?vid=ae7ab608-8fac-4c0d-9f43-8ffacb07a49d"},"vehicle_type_id":"4","last_reported":1706292537,"current_range_meters":11200,"station_id":"ce4bhr12rcd13ifvqhpg","pricing_plan_id":"free"},{"bike_id":"d2de90dd-c60a-443b-a311-032b2b584f9f","system_id":"levelo_inurba_marseille","lat":43.313571,"lon":5.384829,"is_reserved":false,"is_disabled":false,"rental_uris":{"android":"levelo://app?vid=d2de90dd-c60a-443b-a311-032b2b584f9f","ios":"levelo://app?vid=d2de90dd-c60a-443b-a311-032b2b584f9f"},"vehicle_type_id":"4","last_reported":1706292537,"current_range_meters":3600,"station_id":"ce4bgt92rcd13ifvqcf0","pricing_plan_id":"free"},{"bike_id":"9e686724-9ba0-4a87-aa6c-b6828d2919bb","system_id":"levelo_inurba_marseille","lat":43.313571,"lon":5.384829,"is_reserved":false,"is_disabled":false,"rental_uris":{"android":"levelo://app?vid=9e686724-9ba0-4a87-aa6c-b6828d2919bb","ios":"levelo://app?vid=9e686724-9ba0-4a87-aa6c-b6828d2919bb"},"vehicle_type_id":"4","last_reported":1706292537,"current_range_meters":4800,"station_id":"ce4bgt92rcd13ifvqcf0","pricing_plan_id":"free"},{"bike_id":"8dec942d-da9f-4f76-91fd-6e3684d9f680","system_id":"levelo_inurba_marseille","lat":43.313571,"lon":5.384829,"is_reserved":false,"is_disabled":false,"rental_uris":{"android":"levelo://app?vid=8dec942d-da9f-4f76-91fd-6e3684d9f680","ios":"levelo://app?vid=8dec942d-da9f-4f76-91fd-6e3684d9f680"},"vehicle_type_id":"4","last_reported":1706292537,"current_range_meters":13600,"station_id":"ce4bgt92rcd13ifvqcf0","pricing_plan_id":"free"},{"bike_id":"6338ab46-8488-4c30-b844-01a6792259db","system_id":"levelo_inurba_marseille","lat":43.29974,"lon":5.37187,"is_reserved":false,"is_disabled":false,"rental_uris":{"android":"levelo://app?vid=6338ab46-8488-4c30-b844-01a6792259db","ios":"levelo://app?vid=6338ab46-8488-4c30-b844-01a6792259db"},"vehicle_type_id":"4","last_reported":1706292537,"current_range_meters":16000,"station_id":"ce4bgr92rcd13ifvqc7g","pricing_plan_id":"free"},{"bike_id":"86ca605a-48b3-433c-9666-07c3c5ac4379","system_id":"levelo_inurba_marseille","lat":43.318427,"lon":5.384276,"is_reserved":false,"is_disabled":false,"rental_uris":{"android":"levelo://app?vid=86ca605a-48b3-433c-9666-07c3c5ac4379","ios":"levelo://app?vid=86ca605a-48b3-433c-9666-07c3c5ac4379"},"vehicle_type_id":"4","last_reported":1706292537,"current_range_meters":1200,"station_id":"","pricing_plan_id":"free"},{"bike_id":"d81c591a-30ff-45a8-b849-e6eeaa5a55e6","system_id":"levelo_inurba_marseille","lat":43.305364,"lon":5.384119,"is_reserved":false,"is_disabled":false,"rental_uris":{"android":"levelo://app?vid=d81c591a-30ff-45a8-b849-e6eeaa5a55e6","ios":"levelo://app?vid=d81c591a-30ff-45a8-b849-e6eeaa5a55e6"},"vehicle_type_id":"4","last_reported":1706292537,"current_range_meters":26000,"station_id":"ce4bgg92rcd13ifvqb30","pricing_plan_id":"free"},{"bike_id":"7e5d31d0-081f-440e-a17b-b4d1def590d7","system_id":"levelo_inurba_marseille","lat":43.305364,"lon":5.384119,"is_reserved":false,"is_disabled":false,"rental_uris":{"android":"levelo://app?vid=7e5d31d0-081f-440e-a17b-b4d1def590d7","ios":"levelo://app?vid=7e5d31d0-081f-440e-a17b-b4d1def590d7"},"vehicle_type_id":"4","last_reported":1706292537,"current_range_meters":800,"station_id":"ce4bgg92rcd13ifvqb30","pricing_plan_id":"free"},{"bike_id":"217631af-a7ec-4577-ae5f-1746aebf53db","system_id":"levelo_inurba_marseille","lat":43.299243,"lon":5.37481,"is_reserved":false,"is_disabled":false,"rental_uris":{"android":"levelo://app?vid=217631af-a7ec-4577-ae5f-1746aebf53db","ios":"levelo://app?vid=217631af-a7ec-4577-ae5f-1746aebf53db"},"vehicle_type_id":"4","last_reported":1706292537,"current_range_meters":13600,"station_id":"ce4bgjh2rcd13ifvqbg0","pricing_plan_id":"free"},{"bike_id":"51bdbfa3-0a9b-423a-b191-a2fa7fdaf046","system_id":"levelo_inurba_marseille","lat":43.30533,"lon":5.38437,"is_reserved":false,"is_disabled":false,"rental_uris":{"android":"levelo://app?vid=51bdbfa3-0a9b-423a-b191-a2fa7fdaf046","ios":"levelo://app?vid=51bdbfa3-0a9b-423a-b191-a2fa7fdaf046"},"vehicle_type_id":"4","last_reported":1706292537,"current_range_meters":24800,"station_id":"ce4bgg92rcd13ifvqb30","pricing_plan_id":"free"},{"bike_id":"3498b31d-75de-494c-b0d2-5f29ff48c88e","system_id":"levelo_inurba_marseille","lat":43.311722,"lon":5.387247,"is_reserved":false,"is_disabled":false,"rental_uris":{"android":"levelo://app?vid=3498b31d-75de-494c-b0d2-5f29ff48c88e","ios":"levelo://app?vid=3498b31d-75de-494c-b0d2-5f29ff48c88e"},"vehicle_type_id":"4","last_reported":1706292537,"current_range_meters":16000,"station_id":"ce4bgv12rcd13ifvqcp0","pricing_plan_id":"free"},{"bike_id":"f214340b-fc6d-45b4-9d29-cd6d0825c5a2","system_id":"levelo_inurba_marseille","lat":43.322872,"lon":5.382756,"is_reserved":false,"is_disabled":false,"rental_uris":{"android":"levelo://app?vid=f214340b-fc6d-45b4-9d29-cd6d0825c5a2","ios":"levelo://app?vid=f214340b-fc6d-45b4-9d29-cd6d0825c5a2"},"vehicle_type_id":"4","last_reported":1706292537,"current_range_meters":22000,"station_id":"ce4bhr12rcd13ifvqhqg","pricing_plan_id":"free"},{"bike_id":"8889a62b-f08d-43d6-bbc3-74d3cb3d445f","system_id":"levelo_inurba_marseille","lat":43.322872,"lon":5.382756,"is_reserved":false,"is_disabled":false,"rental_uris":{"android":"levelo://app?vid=8889a62b-f08d-43d6-bbc3-74d3cb3d445f","ios":"levelo://app?vid=8889a62b-f08d-43d6-bbc3-74d3cb3d445f"},"vehicle_type_id":"4","last_reported":1706292537,"current_range_meters":26800,"station_id":"ce4bhr12rcd13ifvqhqg","pricing_plan_id":"free"},{"bike_id":"bb5cc78f-0a25-43e2-927a-9d5a0eeb06b6","system_id":"levelo_inurba_marseille","lat":43.32292,"lon":5.38268,"is_reserved":false,"is_disabled":false,"rental_uris":{"android":"levelo://app?vid=bb5cc78f-0a25-43e2-927a-9d5a0eeb06b6","ios":"levelo://app?vid=bb5cc78f-0a25-43e2-927a-9d5a0eeb06b6"},"vehicle_type_id":"4","last_reported":1706292537,"current_range_meters":20000,"station_id":"ce4bhr12rcd13ifvqhqg","pricing_plan_id":"free"},{"bike_id":"ef5c6378-e000-405f-ab30-38f17e98c38f","system_id":"levelo_inurba_marseille","lat":43.322872,"lon":5.382756,"is_reserved":false,"is_disabled":false,"rental_uris":{"android":"levelo://app?vid=ef5c6378-e000-405f-ab30-38f17e98c38f","ios":"levelo://app?vid=ef5c6378-e000-405f-ab30-38f17e98c38f"},"vehicle_type_id":"4","last_reported":1706292537,"current_range_meters":5200,"station_id":"ce4bhr12rcd13ifvqhqg","pricing_plan_id":"free"},{"bike_id":"ff4d5a51-c43c-4c73-94d2-3b3f3130ea36","system_id":"levelo_inurba_marseille","lat":43.297163,"lon":5.365866,"is_reserved":false,"is_disabled":false,"rental_uris":{"android":"levelo://app?vid=ff4d5a51-c43c-4c73-94d2-3b3f3130ea36","ios":"levelo://app?vid=ff4d5a51-c43c-4c73-94d2-3b3f3130ea36"},"vehicle_type_id":"4","last_reported":1706292537,"current_range_meters":0,"station_id":"ce4bgn12rcd13ifvqbt0","pricing_plan_id":"free"},{"bike_id":"4ba57c8c-c56b-461b-af36-c5f307a307f4","system_id":"levelo_inurba_marseille","lat":43.309589,"lon":5.390258,"is_reserved":false,"is_disabled":false,"rental_uris":{"android":"levelo://app?vid=4ba57c8c-c56b-461b-af36-c5f307a307f4","ios":"levelo://app?vid=4ba57c8c-c56b-461b-af36-c5f307a307f4"},"vehicle_type_id":"4","last_reported":1706292537,"current_range_meters":7200,"station_id":"ce4bgup2rcd13ifvqco0","pricing_plan_id":"free"},{"bike_id":"3f59118f-467a-4bed-ac9c-570fd0a89c94","system_id":"levelo_inurba_marseille","lat":43.296921,"lon":5.376579,"is_reserved":false,"is_disabled":false,"rental_uris":{"android":"levelo://app?vid=3f59118f-467a-4bed-ac9c-570fd0a89c94","ios":"levelo://app?vid=3f59118f-467a-4bed-ac9c-570fd0a89c94"},"vehicle_type_id":"4","last_reported":1706292537,"current_range_meters":20800,"station_id":"ce4bgkh2rcd13ifvqbl0","pricing_plan_id":"free"},{"bike_id":"30cc74d4-c9c0-4879-bc5b-4ed675ea12fc","system_id":"levelo_inurba_marseille","lat":43.317557,"lon":5.390173,"is_reserved":false,"is_disabled":false,"rental_uris":{"android":"levelo://app?vid=30cc74d4-c9c0-4879-bc5b-4ed675ea12fc","ios":"levelo://app?vid=30cc74d4-c9c0-4879-bc5b-4ed675ea12fc"},"vehicle_type_id":"4","last_reported":1706292537,"current_range_meters":16800,"station_id":"ce4bhqp2rcd13ifvqhng","pricing_plan_id":"free"},{"bike_id":"9eee8bba-9f6c-4442-90f7-b9b7f8a147bb","system_id":"levelo_inurba_marseille","lat":43.317557,"lon":5.390173,"is_reserved":false,"is_disabled":false,"rental_uris":{"android":"levelo://app?vid=9eee8bba-9f6c-4442-90f7-b9b7f8a147bb","ios":"levelo://app?vid=9eee8bba-9f6c-4442-90f7-b9b7f8a147bb"},"vehicle_type_id":"4","last_reported":1706292537,"current_range_meters":22400,"station_id":"ce4bhqp2rcd13ifvqhng","pricing_plan_id":"free"},{"bike_id":"110504c4-9181-4917-abad-9a87ed972aeb","system_id":"levelo_inurba_marseille","lat":43.317557,"lon":5.390173,"is_reserved":false,"is_disabled":false,"rental_uris":{"android":"levelo://app?vid=110504c4-9181-4917-abad-9a87ed972aeb","ios":"levelo://app?vid=110504c4-9181-4917-abad-9a87ed972aeb"},"vehicle_type_id":"4","last_reported":1706292537,"current_range_meters":6000,"station_id":"ce4bhqp2rcd13ifvqhng","pricing_plan_id":"free"},{"bike_id":"af9f98fc-1b38-483c-9bb8-cf5dbd0ec1e8","system_id":"levelo_inurba_marseille","lat":43.317557,"lon":5.390173,"is_reserved":false,"is_disabled":false,"rental_uris":{"android":"levelo://app?vid=af9f98fc-1b38-483c-9bb8-cf5dbd0ec1e8","ios":"levelo://app?vid=af9f98fc-1b38-483c-9bb8-cf5dbd0ec1e8"},"vehicle_type_id":"4","last_reported":1706292537,"current_range_meters":19200,"station_id":"ce4bhqp2rcd13ifvqhng","pricing_plan_id":"free"},{"bike_id":"2ceb589a-5d1f-4b41-8731-91dde3244961","system_id":"levelo_inurba_marseille","lat":43.317557,"lon":5.390173,"is_reserved":false,"is_disabled":false,"rental_uris":{"android":"levelo://app?vid=2ceb589a-5d1f-4b41-8731-91dde3244961","ios":"levelo://app?vid=2ceb589a-5d1f-4b41-8731-91dde3244961"},"vehicle_type_id":"4","last_reported":1706292537,"current_range_meters":18000,"station_id":"ce4bhqp2rcd13ifvqhng","pricing_plan_id":"free"},{"bike_id":"12afab9c-6db9-418c-9ad7-f11726e63cab","system_id":"levelo_inurba_marseille","lat":43.298037,"lon":5.381066,"is_reserved":false,"is_disabled":false,"rental_uris":{"android":"levelo://app?vid=12afab9c-6db9-418c-9ad7-f11726e63cab","ios":"levelo://app?vid=12afab9c-6db9-418c-9ad7-f11726e63cab"},"vehicle_type_id":"4","last_reported":1706292537,"current_range_meters":10800,"station_id":"ce4bgip2rcd13ifvqbb0","pricing_plan_id":"free"},{"bike_id":"9c1080b5-8f9a-4616-a752-ac9553729bb9","system_id":"levelo_inurba_marseille","lat":43.304278,"lon":5.388868,"is_reserved":false,"is_disabled":false,"rental_uris":{"android":"levelo://app?vid=9c1080b5-8f9a-4616-a752-ac9553729bb9","ios":"levelo://app?vid=9c1080b5-8f9a-4616-a752-ac9553729bb9"},"vehicle_type_id":"4","last_reported":1706292537,"current_range_meters":6000,"station_id":"ce4bgk12rcd13ifvqbi0","pricing_plan_id":"free"},{"bike_id":"2eaba406-37c7-4f27-b4c9-cf5359601760","system_id":"levelo_inurba_marseille","lat":43.298037,"lon":5.381066,"is_reserved":false,"is_disabled":false,"rental_uris":{"android":"levelo://app?vid=2eaba406-37c7-4f27-b4c9-cf5359601760","ios":"levelo://app?vid=2eaba406-37c7-4f27-b4c9-cf5359601760"},"vehicle_type_id":"4","last_reported":1706292537,"current_range_meters":6800,"station_id":"ce4bgip2rcd13ifvqbb0","pricing_plan_id":"free"},{"bike_id":"85984a41-0fcd-47d4-a389-f8608e88f87e","system_id":"levelo_inurba_marseille","lat":43.304274,"lon":5.388873,"is_reserved":false,"is_disabled":false,"rental_uris":{"android":"levelo://app?vid=85984a41-0fcd-47d4-a389-f8608e88f87e","ios":"levelo://app?vid=85984a41-0fcd-47d4-a389-f8608e88f87e"},"vehicle_type_id":"4","last_reported":1706292537,"current_range_meters":8400,"station_id":"ce4bgk12rcd13ifvqbi0","pricing_plan_id":"free"},{"bike_id":"e13cd95a-6dfb-45d2-957e-bb1c1982891b","system_id":"levelo_inurba_marseille","lat":43.295748,"lon":5.37522,"is_reserved":false,"is_disabled":false,"rental_uris":{"android":"levelo://app?vid=e13cd95a-6dfb-45d2-957e-bb1c1982891b","ios":"levelo://app?vid=e13cd95a-6dfb-45d2-957e-bb1c1982891b"},"vehicle_type_id":"4","last_reported":1706292537,"current_range_meters":15600,"station_id":"ce4bgh92rcd13ifvqb50","pricing_plan_id":"free"},{"bike_id":"0d919e04-ba1c-45ba-b865-20701c54c989","system_id":"levelo_inurba_marseille","lat":43.304274,"lon":5.388873,"is_reserved":false,"is_disabled":false,"rental_uris":{"android":"levelo://app?vid=0d919e04-ba1c-45ba-b865-20701c54c989","ios":"levelo://app?vid=0d919e04-ba1c-45ba-b865-20701c54c989"},"vehicle_type_id":"4","last_reported":1706292537,"current_range_meters":5600,"station_id":"ce4bgk12rcd13ifvqbi0","pricing_plan_id":"free"},{"bike_id":"2588d128-2da4-47cc-9c6a-801f556a4e67","system_id":"levelo_inurba_marseille","lat":43.298037,"lon":5.381066,"is_reserved":false,"is_disabled":false,"rental_uris":{"android":"levelo://app?vid=2588d128-2da4-47cc-9c6a-801f556a4e67","ios":"levelo://app?vid=2588d128-2da4-47cc-9c6a-801f556a4e67"},"vehicle_type_id":"4","last_reported":1706292537,"current_range_meters":20800,"station_id":"ce4bgip2rcd13ifvqbb0","pricing_plan_id":"free"},{"bike_id":"959aa1f8-7916-4d4c-95db-c7cc4709f36f","system_id":"levelo_inurba_marseille","lat":43.295748,"lon":5.37522,"is_reserved":false,"is_disabled":false,"rental_uris":{"android":"levelo://app?vid=959aa1f8-7916-4d4c-95db-c7cc4709f36f","ios":"levelo://app?vid=959aa1f8-7916-4d4c-95db-c7cc4709f36f"},"vehicle_type_id":"4","last_reported":1706292537,"current_range_meters":28000,"station_id":"ce4bgh92rcd13ifvqb50","pricing_plan_id":"free"},{"bike_id":"67dae9a3-257f-4199-a020-70ce3052d966","system_id":"levelo_inurba_marseille","lat":43.304274,"lon":5.388873,"is_reserved":false,"is_disabled":false,"rental_uris":{"android":"levelo://app?vid=67dae9a3-257f-4199-a020-70ce3052d966","ios":"levelo://app?vid=67dae9a3-257f-4199-a020-70ce3052d966"},"vehicle_type_id":"4","last_reported":1706292537,"current_range_meters":16000,"station_id":"ce4bgk12rcd13ifvqbi0","pricing_plan_id":"free"},{"bike_id":"10c699ec-ac76-4fb9-8887-0a6e3088a542","system_id":"levelo_inurba_marseille","lat":43.299707,"lon":5.384859,"is_reserved":false,"is_disabled":false,"rental_uris":{"android":"levelo://app?vid=10c699ec-ac76-4fb9-8887-0a6e3088a542","ios":"levelo://app?vid=10c699ec-ac76-4fb9-8887-0a6e3088a542"},"vehicle_type_id":"4","last_reported":1706292537,"current_range_meters":0,"station_id":"ce4bgj92rcd13ifvqbd0","pricing_plan_id":"free"},{"bike_id":"1d510384-e4bb-4d63-a012-d11297edb639","system_id":"levelo_inurba_marseille","lat":43.29976,"lon":5.38483,"is_reserved":false,"is_disabled":false,"rental_uris":{"android":"levelo://app?vid=1d510384-e4bb-4d63-a012-d11297edb639","ios":"levelo://app?vid=1d510384-e4bb-4d63-a012-d11297edb639"},"vehicle_type_id":"4","last_reported":1706292537,"current_range_meters":18000,"station_id":"ce4bgj92rcd13ifvqbd0","pricing_plan_id":"free"},{"bike_id":"0f595ef8-b51a-4472-959d-bab2e4ed27f5","system_id":"levelo_inurba_marseille","lat":43.317557,"lon":5.390173,"is_reserved":false,"is_disabled":false,"rental_uris":{"android":"levelo://app?vid=0f595ef8-b51a-4472-959d-bab2e4ed27f5","ios":"levelo://app?vid=0f595ef8-b51a-4472-959d-bab2e4ed27f5"},"vehicle_type_id":"4","last_reported":1706292537,"current_range_meters":7200,"station_id":"ce4bhqp2rcd13ifvqhng","pricing_plan_id":"free"},{"bike_id":"e381c7e8-d010-45cc-9024-eb5220f2e071","system_id":"levelo_inurba_marseille","lat":43.29644,"lon":5.37955,"is_reserved":false,"is_disabled":false,"rental_uris":{"android":"levelo://app?vid=e381c7e8-d010-45cc-9024-eb5220f2e071","ios":"levelo://app?vid=e381c7e8-d010-45cc-9024-eb5220f2e071"},"vehicle_type_id":"4","last_reported":1706292537,"current_range_meters":0,"station_id":"","pricing_plan_id":"free"},{"bike_id":"40996b4a-fac6-4cc2-a8e8-9a9ba72f10c9","system_id":"levelo_inurba_marseille","lat":43.298614,"lon":5.383962,"is_reserved":false,"is_disabled":false,"rental_uris":{"android":"levelo://app?vid=40996b4a-fac6-4cc2-a8e8-9a9ba72f10c9","ios":"levelo://app?vid=40996b4a-fac6-4cc2-a8e8-9a9ba72f10c9"},"vehicle_type_id":"4","last_reported":1706292537,"current_range_meters":12000,"station_id":"","pricing_plan_id":"free"},{"bike_id":"0ea3fd81-3f73-43eb-a24e-cc7fa2617f9d","system_id":"levelo_inurba_marseille","lat":43.32367,"lon":5.388836,"is_reserved":false,"is_disabled":false,"rental_uris":{"android":"levelo://app?vid=0ea3fd81-3f73-43eb-a24e-cc7fa2617f9d","ios":"levelo://app?vid=0ea3fd81-3f73-43eb-a24e-cc7fa2617f9d"},"vehicle_type_id":"4","last_reported":1706292537,"current_range_meters":8000,"station_id":"ce4bhqp2rcd13ifvqhog","pricing_plan_id":"free"},{"bike_id":"d7803bed-fb47-4ba6-b32d-728fc496b369","system_id":"levelo_inurba_marseille","lat":43.32367,"lon":5.388836,"is_reserved":false,"is_disabled":false,"rental_uris":{"android":"levelo://app?vid=d7803bed-fb47-4ba6-b32d-728fc496b369","ios":"levelo://app?vid=d7803bed-fb47-4ba6-b32d-728fc496b369"},"vehicle_type_id":"4","last_reported":1706292537,"current_range_meters":16400,"station_id":"ce4bhqp2rcd13ifvqhog","pricing_plan_id":"free"},{"bike_id":"cec4ad59-07b9-4fac-98fd-7e0e4d5c0fc2","system_id":"levelo_inurba_marseille","lat":43.32367,"lon":5.388836,"is_reserved":false,"is_disabled":false,"rental_uris":{"android":"levelo://app?vid=cec4ad59-07b9-4fac-98fd-7e0e4d5c0fc2","ios":"levelo://app?vid=cec4ad59-07b9-4fac-98fd-7e0e4d5c0fc2"},"vehicle_type_id":"4","last_reported":1706292537,"current_range_meters":13600,"station_id":"ce4bhqp2rcd13ifvqhog","pricing_plan_id":"free"},{"bike_id":"439458f2-c468-43ac-8531-4372a5b8883a","system_id":"levelo_inurba_marseille","lat":43.32367,"lon":5.388836,"is_reserved":false,"is_disabled":false,"rental_uris":{"android":"levelo://app?vid=439458f2-c468-43ac-8531-4372a5b8883a","ios":"levelo://app?vid=439458f2-c468-43ac-8531-4372a5b8883a"},"vehicle_type_id":"4","last_reported":1706292537,"current_range_meters":21600,"station_id":"ce4bhqp2rcd13ifvqhog","pricing_plan_id":"free"},{"bike_id":"def703ed-e78e-4412-a809-c10b7fb945a5","system_id":"levelo_inurba_marseille","lat":43.32367,"lon":5.388836,"is_reserved":false,"is_disabled":false,"rental_uris":{"android":"levelo://app?vid=def703ed-e78e-4412-a809-c10b7fb945a5","ios":"levelo://app?vid=def703ed-e78e-4412-a809-c10b7fb945a5"},"vehicle_type_id":"4","last_reported":1706292537,"current_range_meters":27600,"station_id":"ce4bhqp2rcd13ifvqhog","pricing_plan_id":"free"},{"bike_id":"6d4e98a9-3b8c-4251-9bc4-f50fadfe25a7","system_id":"levelo_inurba_marseille","lat":43.32367,"lon":5.388836,"is_reserved":false,"is_disabled":false,"rental_uris":{"android":"levelo://app?vid=6d4e98a9-3b8c-4251-9bc4-f50fadfe25a7","ios":"levelo://app?vid=6d4e98a9-3b8c-4251-9bc4-f50fadfe25a7"},"vehicle_type_id":"4","last_reported":1706292537,"current_range_meters":24000,"station_id":"ce4bhqp2rcd13ifvqhog","pricing_plan_id":"free"},{"bike_id":"a6849c13-1ff9-4af8-9235-8d9e369d3632","system_id":"levelo_inurba_marseille","lat":43.29601,"lon":5.381084,"is_reserved":false,"is_disabled":false,"rental_uris":{"android":"levelo://app?vid=a6849c13-1ff9-4af8-9235-8d9e369d3632","ios":"levelo://app?vid=a6849c13-1ff9-4af8-9235-8d9e369d3632"},"vehicle_type_id":"4","last_reported":1706292537,"current_range_meters":800,"station_id":"ce4bgl12rcd13ifvqbo0","pricing_plan_id":"free"},{"bike_id":"ed15c937-4e26-4d16-9a74-bbd47077ce3a","system_id":"levelo_inurba_marseille","lat":43.292749,"lon":5.368402,"is_reserved":false,"is_disabled":false,"rental_uris":{"android":"levelo://app?vid=ed15c937-4e26-4d16-9a74-bbd47077ce3a","ios":"levelo://app?vid=ed15c937-4e26-4d16-9a74-bbd47077ce3a"},"vehicle_type_id":"4","last_reported":1706292537,"current_range_meters":800,"station_id":"ce4bhbp2rcd13ifvqesg","pricing_plan_id":"free"},{"bike_id":"cf291432-0d58-4322-97ca-a5cb5a49509c","system_id":"levelo_inurba_marseille","lat":43.292749,"lon":5.368402,"is_reserved":false,"is_disabled":false,"rental_uris":{"android":"levelo://app?vid=cf291432-0d58-4322-97ca-a5cb5a49509c","ios":"levelo://app?vid=cf291432-0d58-4322-97ca-a5cb5a49509c"},"vehicle_type_id":"4","last_reported":1706292537,"current_range_meters":20000,"station_id":"ce4bhbp2rcd13ifvqesg","pricing_plan_id":"free"},{"bike_id":"0316f98f-f5f6-436f-9435-886832a2879d","system_id":"levelo_inurba_marseille","lat":43.29305,"lon":5.37478,"is_reserved":false,"is_disabled":false,"rental_uris":{"android":"levelo://app?vid=0316f98f-f5f6-436f-9435-886832a2879d","ios":"levelo://app?vid=0316f98f-f5f6-436f-9435-886832a2879d"},"vehicle_type_id":"4","last_reported":1706292537,"current_range_meters":0,"station_id":"ce4bgi12rcd13ifvqb70","pricing_plan_id":"free"},{"bike_id":"74662186-9e1c-4330-8133-c6b7012e034c","system_id":"levelo_inurba_marseille","lat":43.30598,"lon":5.39358,"is_reserved":false,"is_disabled":false,"rental_uris":{"android":"levelo://app?vid=74662186-9e1c-4330-8133-c6b7012e034c","ios":"levelo://app?vid=74662186-9e1c-4330-8133-c6b7012e034c"},"vehicle_type_id":"4","last_reported":1706292537,"current_range_meters":0,"station_id":"ce4bh0p2rcd13ifvqd80","pricing_plan_id":"free"},{"bike_id":"622b6592-28ee-42c8-99bb-08f225dc03c2","system_id":"levelo_inurba_marseille","lat":43.309047,"lon":5.396551,"is_reserved":false,"is_disabled":false,"rental_uris":{"android":"levelo://app?vid=622b6592-28ee-42c8-99bb-08f225dc03c2","ios":"levelo://app?vid=622b6592-28ee-42c8-99bb-08f225dc03c2"},"vehicle_type_id":"4","last_reported":1706292537,"current_range_meters":800,"station_id":"ce4bh012rcd13ifvqcv0","pricing_plan_id":"free"},{"bike_id":"1962390e-56b3-4b91-912b-b3a2976095ba","system_id":"levelo_inurba_marseille","lat":43.302992,"lon":5.392136,"is_reserved":false,"is_disabled":false,"rental_uris":{"android":"levelo://app?vid=1962390e-56b3-4b91-912b-b3a2976095ba","ios":"levelo://app?vid=1962390e-56b3-4b91-912b-b3a2976095ba"},"vehicle_type_id":"4","last_reported":1706292537,"current_range_meters":4800,"station_id":"ce4bgkh2rcd13ifvqbk0","pricing_plan_id":"free"},{"bike_id":"45941525-e91d-4ef3-a9d6-a7254bb6c208","system_id":"levelo_inurba_marseille","lat":43.30302,"lon":5.39215,"is_reserved":false,"is_disabled":false,"rental_uris":{"android":"levelo://app?vid=45941525-e91d-4ef3-a9d6-a7254bb6c208","ios":"levelo://app?vid=45941525-e91d-4ef3-a9d6-a7254bb6c208"},"vehicle_type_id":"4","last_reported":1706292537,"current_range_meters":0,"station_id":"ce4bgkh2rcd13ifvqbk0","pricing_plan_id":"free"},{"bike_id":"33eb5899-2263-4601-8070-0871b2140d8c","system_id":"levelo_inurba_marseille","lat":43.292311,"lon":5.360731,"is_reserved":false,"is_disabled":false,"rental_uris":{"android":"levelo://app?vid=33eb5899-2263-4601-8070-0871b2140d8c","ios":"levelo://app?vid=33eb5899-2263-4601-8070-0871b2140d8c"},"vehicle_type_id":"4","last_reported":1706292537,"current_range_meters":0,"station_id":"ce4bhbh2rcd13ifvqeqg","pricing_plan_id":"free"},{"bike_id":"0b61dc40-37a3-49a8-8e0d-1ebaa5873097","system_id":"levelo_inurba_marseille","lat":43.292311,"lon":5.360731,"is_reserved":false,"is_disabled":false,"rental_uris":{"android":"levelo://app?vid=0b61dc40-37a3-49a8-8e0d-1ebaa5873097","ios":"levelo://app?vid=0b61dc40-37a3-49a8-8e0d-1ebaa5873097"},"vehicle_type_id":"4","last_reported":1706292537,"current_range_meters":0,"station_id":"ce4bhbh2rcd13ifvqeqg","pricing_plan_id":"free"},{"bike_id":"f43bc4b9-69b4-4c2e-a7f1-390317b11d36","system_id":"levelo_inurba_marseille","lat":43.292723,"lon":5.376249,"is_reserved":false,"is_disabled":false,"rental_uris":{"android":"levelo://app?vid=f43bc4b9-69b4-4c2e-a7f1-390317b11d36","ios":"levelo://app?vid=f43bc4b9-69b4-4c2e-a7f1-390317b11d36"},"vehicle_type_id":"4","last_reported":1706292537,"current_range_meters":20400,"station_id":"ce4bgi12rcd13ifvqb70","pricing_plan_id":"free"},{"bike_id":"9c554be6-d2a7-4c56-9d54-821010c9dc8b","system_id":"levelo_inurba_marseille","lat":43.291675,"lon":5.371583,"is_reserved":false,"is_disabled":false,"rental_uris":{"android":"levelo://app?vid=9c554be6-d2a7-4c56-9d54-821010c9dc8b","ios":"levelo://app?vid=9c554be6-d2a7-4c56-9d54-821010c9dc8b"},"vehicle_type_id":"4","last_reported":1706292537,"current_range_meters":8400,"station_id":"ce4bha92rcd13ifvqeh0","pricing_plan_id":"free"},{"bike_id":"13cf27f8-28f9-4b4a-b5e8-82b20cc64a86","system_id":"levelo_inurba_marseille","lat":43.29169,"lon":5.37163,"is_reserved":false,"is_disabled":false,"rental_uris":{"android":"levelo://app?vid=13cf27f8-28f9-4b4a-b5e8-82b20cc64a86","ios":"levelo://app?vid=13cf27f8-28f9-4b4a-b5e8-82b20cc64a86"},"vehicle_type_id":"4","last_reported":1706292537,"current_range_meters":0,"station_id":"ce4bha92rcd13ifvqeh0","pricing_plan_id":"free"},{"bike_id":"2cdd5039-e8ec-441b-9bd5-4c34b690b828","system_id":"levelo_inurba_marseille","lat":43.30492,"lon":5.394226,"is_reserved":false,"is_disabled":false,"rental_uris":{"android":"levelo://app?vid=2cdd5039-e8ec-441b-9bd5-4c34b690b828","ios":"levelo://app?vid=2cdd5039-e8ec-441b-9bd5-4c34b690b828"},"vehicle_type_id":"4","last_reported":1706292537,"current_range_meters":23600,"station_id":"","pricing_plan_id":"free"},{"bike_id":"aba69b60-54f2-4070-a271-2bdd62b9c676","system_id":"levelo_inurba_marseille","lat":43.313291,"lon":5.396838,"is_reserved":false,"is_disabled":false,"rental_uris":{"android":"levelo://app?vid=aba69b60-54f2-4070-a271-2bdd62b9c676","ios":"levelo://app?vid=aba69b60-54f2-4070-a271-2bdd62b9c676"},"vehicle_type_id":"4","last_reported":1706292537,"current_range_meters":6800,"station_id":"ce4bgvp2rcd13ifvqcu0","pricing_plan_id":"free"},{"bike_id":"985d9eeb-7ece-4940-b1a0-2e7dbf6e4e1d","system_id":"levelo_inurba_marseille","lat":43.313291,"lon":5.396838,"is_reserved":false,"is_disabled":false,"rental_uris":{"android":"levelo://app?vid=985d9eeb-7ece-4940-b1a0-2e7dbf6e4e1d","ios":"levelo://app?vid=985d9eeb-7ece-4940-b1a0-2e7dbf6e4e1d"},"vehicle_type_id":"4","last_reported":1706292537,"current_range_meters":22000,"station_id":"ce4bgvp2rcd13ifvqcu0","pricing_plan_id":"free"},{"bike_id":"ba36a8e2-ab8f-47f3-8a9d-3537f5baa233","system_id":"levelo_inurba_marseille","lat":43.313291,"lon":5.396838,"is_reserved":false,"is_disabled":false,"rental_uris":{"android":"levelo://app?vid=ba36a8e2-ab8f-47f3-8a9d-3537f5baa233","ios":"levelo://app?vid=ba36a8e2-ab8f-47f3-8a9d-3537f5baa233"},"vehicle_type_id":"4","last_reported":1706292537,"current_range_meters":10800,"station_id":"ce4bgvp2rcd13ifvqcu0","pricing_plan_id":"free"},{"bike_id":"1fda1892-1386-49bb-9a10-a498fc8041d0","system_id":"levelo_inurba_marseille","lat":43.313291,"lon":5.396838,"is_reserved":false,"is_disabled":false,"rental_uris":{"android":"levelo://app?vid=1fda1892-1386-49bb-9a10-a498fc8041d0","ios":"levelo://app?vid=1fda1892-1386-49bb-9a10-a498fc8041d0"},"vehicle_type_id":"4","last_reported":1706292537,"current_range_meters":400,"station_id":"ce4bgvp2rcd13ifvqcu0","pricing_plan_id":"free"},{"bike_id":"09034d29-bd11-43d9-a640-3dee314c0041","system_id":"levelo_inurba_marseille","lat":43.313291,"lon":5.396838,"is_reserved":false,"is_disabled":false,"rental_uris":{"android":"levelo://app?vid=09034d29-bd11-43d9-a640-3dee314c0041","ios":"levelo://app?vid=09034d29-bd11-43d9-a640-3dee314c0041"},"vehicle_type_id":"4","last_reported":1706292537,"current_range_meters":0,"station_id":"ce4bgvp2rcd13ifvqcu0","pricing_plan_id":"free"},{"bike_id":"bb02dbdc-16fd-4735-9375-045ac16ed2d2","system_id":"levelo_inurba_marseille","lat":43.309038,"lon":5.396546,"is_reserved":false,"is_disabled":false,"rental_uris":{"android":"levelo://app?vid=bb02dbdc-16fd-4735-9375-045ac16ed2d2","ios":"levelo://app?vid=bb02dbdc-16fd-4735-9375-045ac16ed2d2"},"vehicle_type_id":"4","last_reported":1706292537,"current_range_meters":4000,"station_id":"ce4bh012rcd13ifvqcv0","pricing_plan_id":"free"},{"bike_id":"a2ad11db-5050-4410-b2fc-bb25eaae3284","system_id":"levelo_inurba_marseille","lat":43.313291,"lon":5.396838,"is_reserved":false,"is_disabled":false,"rental_uris":{"android":"levelo://app?vid=a2ad11db-5050-4410-b2fc-bb25eaae3284","ios":"levelo://app?vid=a2ad11db-5050-4410-b2fc-bb25eaae3284"},"vehicle_type_id":"4","last_reported":1706292537,"current_range_meters":27200,"station_id":"ce4bgvp2rcd13ifvqcu0","pricing_plan_id":"free"},{"bike_id":"d4e349aa-a7e4-43c4-85e0-975d698941b0","system_id":"levelo_inurba_marseille","lat":43.309038,"lon":5.396546,"is_reserved":false,"is_disabled":false,"rental_uris":{"android":"levelo://app?vid=d4e349aa-a7e4-43c4-85e0-975d698941b0","ios":"levelo://app?vid=d4e349aa-a7e4-43c4-85e0-975d698941b0"},"vehicle_type_id":"4","last_reported":1706292537,"current_range_meters":9200,"station_id":"ce4bh012rcd13ifvqcv0","pricing_plan_id":"free"},{"bike_id":"d6de9955-3cc8-4801-a71c-44f1927df763","system_id":"levelo_inurba_marseille","lat":43.29529,"lon":5.385581,"is_reserved":false,"is_disabled":false,"rental_uris":{"android":"levelo://app?vid=d6de9955-3cc8-4801-a71c-44f1927df763","ios":"levelo://app?vid=d6de9955-3cc8-4801-a71c-44f1927df763"},"vehicle_type_id":"4","last_reported":1706292537,"current_range_meters":19600,"station_id":"ce4bgih2rcd13ifvqba0","pricing_plan_id":"free"},{"bike_id":"1b07d151-5894-4588-99b3-3d923da130de","system_id":"levelo_inurba_marseille","lat":43.29529,"lon":5.385581,"is_reserved":false,"is_disabled":false,"rental_uris":{"android":"levelo://app?vid=1b07d151-5894-4588-99b3-3d923da130de","ios":"levelo://app?vid=1b07d151-5894-4588-99b3-3d923da130de"},"vehicle_type_id":"4","last_reported":1706292537,"current_range_meters":4800,"station_id":"ce4bgih2rcd13ifvqba0","pricing_plan_id":"free"},{"bike_id":"d319e82e-213d-44d5-8385-eef8a8a6c194","system_id":"levelo_inurba_marseille","lat":43.29529,"lon":5.385581,"is_reserved":false,"is_disabled":false,"rental_uris":{"android":"levelo://app?vid=d319e82e-213d-44d5-8385-eef8a8a6c194","ios":"levelo://app?vid=d319e82e-213d-44d5-8385-eef8a8a6c194"},"vehicle_type_id":"4","last_reported":1706292537,"current_range_meters":0,"station_id":"ce4bgih2rcd13ifvqba0","pricing_plan_id":"free"},{"bike_id":"70f9e9fd-d098-43cb-9496-32a305ff1abf","system_id":"levelo_inurba_marseille","lat":43.29529,"lon":5.385581,"is_reserved":false,"is_disabled":false,"rental_uris":{"android":"levelo://app?vid=70f9e9fd-d098-43cb-9496-32a305ff1abf","ios":"levelo://app?vid=70f9e9fd-d098-43cb-9496-32a305ff1abf"},"vehicle_type_id":"4","last_reported":1706292537,"current_range_meters":3200,"station_id":"ce4bgih2rcd13ifvqba0","pricing_plan_id":"free"},{"bike_id":"4b418d40-66aa-4bd9-9e03-4888dc78e01f","system_id":"levelo_inurba_marseille","lat":43.29529,"lon":5.385581,"is_reserved":false,"is_disabled":false,"rental_uris":{"android":"levelo://app?vid=4b418d40-66aa-4bd9-9e03-4888dc78e01f","ios":"levelo://app?vid=4b418d40-66aa-4bd9-9e03-4888dc78e01f"},"vehicle_type_id":"4","last_reported":1706292537,"current_range_meters":27200,"station_id":"ce4bgih2rcd13ifvqba0","pricing_plan_id":"free"},{"bike_id":"738edc1a-3d6c-49f1-b690-9c8164558384","system_id":"levelo_inurba_marseille","lat":43.290779,"lon":5.371482,"is_reserved":false,"is_disabled":false,"rental_uris":{"android":"levelo://app?vid=738edc1a-3d6c-49f1-b690-9c8164558384","ios":"levelo://app?vid=738edc1a-3d6c-49f1-b690-9c8164558384"},"vehicle_type_id":"4","last_reported":1706292537,"current_range_meters":800,"station_id":"ce4bh5p2rcd13ifvqe4g","pricing_plan_id":"free"},{"bike_id":"7dddc568-81af-4629-96ad-4392e7eb0b16","system_id":"levelo_inurba_marseille","lat":43.290779,"lon":5.371482,"is_reserved":false,"is_disabled":false,"rental_uris":{"android":"levelo://app?vid=7dddc568-81af-4629-96ad-4392e7eb0b16","ios":"levelo://app?vid=7dddc568-81af-4629-96ad-4392e7eb0b16"},"vehicle_type_id":"4","last_reported":1706292537,"current_range_meters":4800,"station_id":"ce4bh5p2rcd13ifvqe4g","pricing_plan_id":"free"},{"bike_id":"6023da7d-a1b1-425c-90c0-29afd97973f5","system_id":"levelo_inurba_marseille","lat":43.290624,"lon":5.359245,"is_reserved":false,"is_disabled":false,"rental_uris":{"android":"levelo://app?vid=6023da7d-a1b1-425c-90c0-29afd97973f5","ios":"levelo://app?vid=6023da7d-a1b1-425c-90c0-29afd97973f5"},"vehicle_type_id":"4","last_reported":1706292537,"current_range_meters":13600,"station_id":"ce4bha92rcd13ifvqeg0","pricing_plan_id":"free"},{"bike_id":"0fc899fc-3dcb-465a-befc-2fcd8144f965","system_id":"levelo_inurba_marseille","lat":43.290624,"lon":5.359245,"is_reserved":false,"is_disabled":false,"rental_uris":{"android":"levelo://app?vid=0fc899fc-3dcb-465a-befc-2fcd8144f965","ios":"levelo://app?vid=0fc899fc-3dcb-465a-befc-2fcd8144f965"},"vehicle_type_id":"4","last_reported":1706292537,"current_range_meters":8800,"station_id":"ce4bha92rcd13ifvqeg0","pricing_plan_id":"free"},{"bike_id":"6e561ec3-e8cc-4339-ae28-1536e3225efb","system_id":"levelo_inurba_marseille","lat":43.290631,"lon":5.359244,"is_reserved":false,"is_disabled":false,"rental_uris":{"android":"levelo://app?vid=6e561ec3-e8cc-4339-ae28-1536e3225efb","ios":"levelo://app?vid=6e561ec3-e8cc-4339-ae28-1536e3225efb"},"vehicle_type_id":"4","last_reported":1706292537,"current_range_meters":0,"station_id":"ce4bha92rcd13ifvqeg0","pricing_plan_id":"free"},{"bike_id":"76e90c21-bd7b-4a4a-bc7c-cdadb213ddb7","system_id":"levelo_inurba_marseille","lat":43.290631,"lon":5.359244,"is_reserved":false,"is_disabled":false,"rental_uris":{"android":"levelo://app?vid=76e90c21-bd7b-4a4a-bc7c-cdadb213ddb7","ios":"levelo://app?vid=76e90c21-bd7b-4a4a-bc7c-cdadb213ddb7"},"vehicle_type_id":"4","last_reported":1706292537,"current_range_meters":14000,"station_id":"ce4bha92rcd13ifvqeg0","pricing_plan_id":"free"},{"bike_id":"6e835958-dcab-4edd-82e4-d1e20ab895e9","system_id":"levelo_inurba_marseille","lat":43.294153,"lon":5.386305,"is_reserved":false,"is_disabled":false,"rental_uris":{"android":"levelo://app?vid=6e835958-dcab-4edd-82e4-d1e20ab895e9","ios":"levelo://app?vid=6e835958-dcab-4edd-82e4-d1e20ab895e9"},"vehicle_type_id":"4","last_reported":1706292537,"current_range_meters":18400,"station_id":"ce4bh2h2rcd13ifvqdh0","pricing_plan_id":"free"},{"bike_id":"e6238204-310d-41a1-ad70-9c6556a507c4","system_id":"levelo_inurba_marseille","lat":43.290319,"lon":5.375732,"is_reserved":false,"is_disabled":false,"rental_uris":{"android":"levelo://app?vid=e6238204-310d-41a1-ad70-9c6556a507c4","ios":"levelo://app?vid=e6238204-310d-41a1-ad70-9c6556a507c4"},"vehicle_type_id":"4","last_reported":1706292537,"current_range_meters":0,"station_id":"ce4bh692rcd13ifvqe90","pricing_plan_id":"free"},{"bike_id":"f63ef7ba-35e1-414c-b98c-cbbed88e567d","system_id":"levelo_inurba_marseille","lat":43.29427,"lon":5.3863,"is_reserved":false,"is_disabled":false,"rental_uris":{"android":"levelo://app?vid=f63ef7ba-35e1-414c-b98c-cbbed88e567d","ios":"levelo://app?vid=f63ef7ba-35e1-414c-b98c-cbbed88e567d"},"vehicle_type_id":"4","last_reported":1706292537,"current_range_meters":21600,"station_id":"ce4bh2h2rcd13ifvqdh0","pricing_plan_id":"free"},{"bike_id":"6284ed12-8138-4921-a60c-80627cdec6df","system_id":"levelo_inurba_marseille","lat":43.294153,"lon":5.386305,"is_reserved":false,"is_disabled":false,"rental_uris":{"android":"levelo://app?vid=6284ed12-8138-4921-a60c-80627cdec6df","ios":"levelo://app?vid=6284ed12-8138-4921-a60c-80627cdec6df"},"vehicle_type_id":"4","last_reported":1706292537,"current_range_meters":0,"station_id":"ce4bh2h2rcd13ifvqdh0","pricing_plan_id":"free"},{"bike_id":"b2ae7889-923d-4424-9d59-99afe6d2bc9f","system_id":"levelo_inurba_marseille","lat":43.29421,"lon":5.38626,"is_reserved":false,"is_disabled":false,"rental_uris":{"android":"levelo://app?vid=b2ae7889-923d-4424-9d59-99afe6d2bc9f","ios":"levelo://app?vid=b2ae7889-923d-4424-9d59-99afe6d2bc9f"},"vehicle_type_id":"4","last_reported":1706292537,"current_range_meters":3200,"station_id":"ce4bh2h2rcd13ifvqdh0","pricing_plan_id":"free"},{"bike_id":"724857a1-1cfe-424f-87a5-c341a543568e","system_id":"levelo_inurba_marseille","lat":43.2942,"lon":5.386255,"is_reserved":false,"is_disabled":false,"rental_uris":{"android":"levelo://app?vid=724857a1-1cfe-424f-87a5-c341a543568e","ios":"levelo://app?vid=724857a1-1cfe-424f-87a5-c341a543568e"},"vehicle_type_id":"4","last_reported":1706292537,"current_range_meters":1600,"station_id":"ce4bh2h2rcd13ifvqdh0","pricing_plan_id":"free"},{"bike_id":"e83e7ab8-64aa-45e4-89ce-f01b4f31202f","system_id":"levelo_inurba_marseille","lat":43.29419,"lon":5.38624,"is_reserved":false,"is_disabled":false,"rental_uris":{"android":"levelo://app?vid=e83e7ab8-64aa-45e4-89ce-f01b4f31202f","ios":"levelo://app?vid=e83e7ab8-64aa-45e4-89ce-f01b4f31202f"},"vehicle_type_id":"4","last_reported":1706292537,"current_range_meters":0,"station_id":"ce4bh2h2rcd13ifvqdh0","pricing_plan_id":"free"},{"bike_id":"33a30f4c-d79d-43af-8be4-c009bf80cb11","system_id":"levelo_inurba_marseille","lat":43.294153,"lon":5.386305,"is_reserved":false,"is_disabled":false,"rental_uris":{"android":"levelo://app?vid=33a30f4c-d79d-43af-8be4-c009bf80cb11","ios":"levelo://app?vid=33a30f4c-d79d-43af-8be4-c009bf80cb11"},"vehicle_type_id":"4","last_reported":1706292537,"current_range_meters":2800,"station_id":"ce4bh2h2rcd13ifvqdh0","pricing_plan_id":"free"},{"bike_id":"2d8c2b3a-1f2e-47db-af87-a568b534a1f5","system_id":"levelo_inurba_marseille","lat":43.294181,"lon":5.38625,"is_reserved":false,"is_disabled":false,"rental_uris":{"android":"levelo://app?vid=2d8c2b3a-1f2e-47db-af87-a568b534a1f5","ios":"levelo://app?vid=2d8c2b3a-1f2e-47db-af87-a568b534a1f5"},"vehicle_type_id":"4","last_reported":1706292537,"current_range_meters":0,"station_id":"ce4bh2h2rcd13ifvqdh0","pricing_plan_id":"free"},{"bike_id":"570595b4-893f-4664-9d67-6709033c8fe2","system_id":"levelo_inurba_marseille","lat":43.29418,"lon":5.38626,"is_reserved":false,"is_disabled":false,"rental_uris":{"android":"levelo://app?vid=570595b4-893f-4664-9d67-6709033c8fe2","ios":"levelo://app?vid=570595b4-893f-4664-9d67-6709033c8fe2"},"vehicle_type_id":"4","last_reported":1706292537,"current_range_meters":13200,"station_id":"ce4bh2h2rcd13ifvqdh0","pricing_plan_id":"free"},{"bike_id":"6f4c0f2c-b830-42ea-b3f9-a88133cb9715","system_id":"levelo_inurba_marseille","lat":43.29418,"lon":5.38632,"is_reserved":false,"is_disabled":false,"rental_uris":{"android":"levelo://app?vid=6f4c0f2c-b830-42ea-b3f9-a88133cb9715","ios":"levelo://app?vid=6f4c0f2c-b830-42ea-b3f9-a88133cb9715"},"vehicle_type_id":"4","last_reported":1706292537,"current_range_meters":14400,"station_id":"ce4bh2h2rcd13ifvqdh0","pricing_plan_id":"free"},{"bike_id":"f119a929-5a36-4323-baff-733ce13f66ea","system_id":"levelo_inurba_marseille","lat":43.289184,"lon":5.366408,"is_reserved":false,"is_disabled":false,"rental_uris":{"android":"levelo://app?vid=f119a929-5a36-4323-baff-733ce13f66ea","ios":"levelo://app?vid=f119a929-5a36-4323-baff-733ce13f66ea"},"vehicle_type_id":"4","last_reported":1706292537,"current_range_meters":9200,"station_id":"ce4bhap2rcd13ifvqek0","pricing_plan_id":"free"},{"bike_id":"c995d994-d095-4d62-a2ff-44ac56cdb171","system_id":"levelo_inurba_marseille","lat":43.28933,"lon":5.3665,"is_reserved":false,"is_disabled":false,"rental_uris":{"android":"levelo://app?vid=c995d994-d095-4d62-a2ff-44ac56cdb171","ios":"levelo://app?vid=c995d994-d095-4d62-a2ff-44ac56cdb171"},"vehicle_type_id":"4","last_reported":1706292537,"current_range_meters":6000,"station_id":"ce4bhap2rcd13ifvqek0","pricing_plan_id":"free"},{"bike_id":"c307ddfd-3837-4730-bff0-a5f187ae1424","system_id":"levelo_inurba_marseille","lat":43.292644,"lon":5.384257,"is_reserved":false,"is_disabled":false,"rental_uris":{"android":"levelo://app?vid=c307ddfd-3837-4730-bff0-a5f187ae1424","ios":"levelo://app?vid=c307ddfd-3837-4730-bff0-a5f187ae1424"},"vehicle_type_id":"4","last_reported":1706292537,"current_range_meters":24400,"station_id":"ce4bh692rcd13ifvqea0","pricing_plan_id":"free"},{"bike_id":"ab35c830-2b61-4e52-a137-555687aa5a93","system_id":"levelo_inurba_marseille","lat":43.292644,"lon":5.384257,"is_reserved":false,"is_disabled":false,"rental_uris":{"android":"levelo://app?vid=ab35c830-2b61-4e52-a137-555687aa5a93","ios":"levelo://app?vid=ab35c830-2b61-4e52-a137-555687aa5a93"},"vehicle_type_id":"4","last_reported":1706292537,"current_range_meters":18400,"station_id":"ce4bh692rcd13ifvqea0","pricing_plan_id":"free"},{"bike_id":"2b785604-68d3-4590-88db-a2c1c9c43cb2","system_id":"levelo_inurba_marseille","lat":43.292644,"lon":5.384257,"is_reserved":false,"is_disabled":false,"rental_uris":{"android":"levelo://app?vid=2b785604-68d3-4590-88db-a2c1c9c43cb2","ios":"levelo://app?vid=2b785604-68d3-4590-88db-a2c1c9c43cb2"},"vehicle_type_id":"4","last_reported":1706292537,"current_range_meters":28000,"station_id":"ce4bh692rcd13ifvqea0","pricing_plan_id":"free"},{"bike_id":"5d0631dc-d1f9-4876-9df7-b2b20351a1cc","system_id":"levelo_inurba_marseille","lat":43.292644,"lon":5.384257,"is_reserved":false,"is_disabled":false,"rental_uris":{"android":"levelo://app?vid=5d0631dc-d1f9-4876-9df7-b2b20351a1cc","ios":"levelo://app?vid=5d0631dc-d1f9-4876-9df7-b2b20351a1cc"},"vehicle_type_id":"4","last_reported":1706292537,"current_range_meters":19600,"station_id":"ce4bh692rcd13ifvqea0","pricing_plan_id":"free"},{"bike_id":"e5124d7a-8776-41d2-aeb8-a83def1aaec8","system_id":"levelo_inurba_marseille","lat":43.292642,"lon":5.384254,"is_reserved":false,"is_disabled":false,"rental_uris":{"android":"levelo://app?vid=e5124d7a-8776-41d2-aeb8-a83def1aaec8","ios":"levelo://app?vid=e5124d7a-8776-41d2-aeb8-a83def1aaec8"},"vehicle_type_id":"4","last_reported":1706292537,"current_range_meters":21600,"station_id":"ce4bh692rcd13ifvqea0","pricing_plan_id":"free"},{"bike_id":"96f22199-e468-42e2-966b-13d791b2efce","system_id":"levelo_inurba_marseille","lat":43.292644,"lon":5.384257,"is_reserved":false,"is_disabled":false,"rental_uris":{"android":"levelo://app?vid=96f22199-e468-42e2-966b-13d791b2efce","ios":"levelo://app?vid=96f22199-e468-42e2-966b-13d791b2efce"},"vehicle_type_id":"4","last_reported":1706292537,"current_range_meters":22400,"station_id":"ce4bh692rcd13ifvqea0","pricing_plan_id":"free"},{"bike_id":"5c8972fa-fef5-4c04-a9e0-de8345325ec0","system_id":"levelo_inurba_marseille","lat":43.292642,"lon":5.384254,"is_reserved":false,"is_disabled":false,"rental_uris":{"android":"levelo://app?vid=5c8972fa-fef5-4c04-a9e0-de8345325ec0","ios":"levelo://app?vid=5c8972fa-fef5-4c04-a9e0-de8345325ec0"},"vehicle_type_id":"4","last_reported":1706292537,"current_range_meters":15600,"station_id":"ce4bh692rcd13ifvqea0","pricing_plan_id":"free"},{"bike_id":"e7fd9064-3948-431c-a51a-0aa9bb8aa8b5","system_id":"levelo_inurba_marseille","lat":43.292644,"lon":5.384257,"is_reserved":false,"is_disabled":false,"rental_uris":{"android":"levelo://app?vid=e7fd9064-3948-431c-a51a-0aa9bb8aa8b5","ios":"levelo://app?vid=e7fd9064-3948-431c-a51a-0aa9bb8aa8b5"},"vehicle_type_id":"4","last_reported":1706292537,"current_range_meters":18000,"station_id":"ce4bh692rcd13ifvqea0","pricing_plan_id":"free"},{"bike_id":"cae040c5-9506-4d75-ab08-828f9de8f6ce","system_id":"levelo_inurba_marseille","lat":43.2927,"lon":5.38455,"is_reserved":false,"is_disabled":false,"rental_uris":{"android":"levelo://app?vid=cae040c5-9506-4d75-ab08-828f9de8f6ce","ios":"levelo://app?vid=cae040c5-9506-4d75-ab08-828f9de8f6ce"},"vehicle_type_id":"4","last_reported":1706292537,"current_range_meters":800,"station_id":"ce4bh692rcd13ifvqea0","pricing_plan_id":"free"},{"bike_id":"3e9e9e5b-18a8-4bfb-abb7-3bdedb07dac7","system_id":"levelo_inurba_marseille","lat":43.29269,"lon":5.38456,"is_reserved":false,"is_disabled":false,"rental_uris":{"android":"levelo://app?vid=3e9e9e5b-18a8-4bfb-abb7-3bdedb07dac7","ios":"levelo://app?vid=3e9e9e5b-18a8-4bfb-abb7-3bdedb07dac7"},"vehicle_type_id":"4","last_reported":1706292537,"current_range_meters":0,"station_id":"ce4bh692rcd13ifvqea0","pricing_plan_id":"free"},{"bike_id":"5b00d265-65f6-4493-be58-edfbb0878a42","system_id":"levelo_inurba_marseille","lat":43.290104,"lon":5.356111,"is_reserved":false,"is_disabled":false,"rental_uris":{"android":"levelo://app?vid=5b00d265-65f6-4493-be58-edfbb0878a42","ios":"levelo://app?vid=5b00d265-65f6-4493-be58-edfbb0878a42"},"vehicle_type_id":"4","last_reported":1706292537,"current_range_meters":5200,"station_id":"ce4bhb92rcd13ifvqen0","pricing_plan_id":"free"},{"bike_id":"f241e1fe-27bd-4868-84c7-15538565b0b7","system_id":"levelo_inurba_marseille","lat":43.290995,"lon":5.381361,"is_reserved":false,"is_disabled":false,"rental_uris":{"android":"levelo://app?vid=f241e1fe-27bd-4868-84c7-15538565b0b7","ios":"levelo://app?vid=f241e1fe-27bd-4868-84c7-15538565b0b7"},"vehicle_type_id":"4","last_reported":1706292537,"current_range_meters":1200,"station_id":"ce4bh512rcd13ifvqe2g","pricing_plan_id":"free"},{"bike_id":"f0e56acb-6151-448c-a2cf-747f4ced63ff","system_id":"levelo_inurba_marseille","lat":43.29796,"lon":5.39331,"is_reserved":false,"is_disabled":false,"rental_uris":{"android":"levelo://app?vid=f0e56acb-6151-448c-a2cf-747f4ced63ff","ios":"levelo://app?vid=f0e56acb-6151-448c-a2cf-747f4ced63ff"},"vehicle_type_id":"4","last_reported":1706292537,"current_range_meters":0,"station_id":"chh1huq6cuj3fo74tm60","pricing_plan_id":"free"},{"bike_id":"ef0e193f-929b-4e83-bf80-4785652f9b3b","system_id":"levelo_inurba_marseille","lat":43.29799,"lon":5.393367,"is_reserved":false,"is_disabled":false,"rental_uris":{"android":"levelo://app?vid=ef0e193f-929b-4e83-bf80-4785652f9b3b","ios":"levelo://app?vid=ef0e193f-929b-4e83-bf80-4785652f9b3b"},"vehicle_type_id":"4","last_reported":1706292537,"current_range_meters":0,"station_id":"chh1huq6cuj3fo74tm60","pricing_plan_id":"free"},{"bike_id":"00f0ce73-62e0-4481-9116-1dfe0ba11879","system_id":"levelo_inurba_marseille","lat":43.29794,"lon":5.39358,"is_reserved":false,"is_disabled":false,"rental_uris":{"android":"levelo://app?vid=00f0ce73-62e0-4481-9116-1dfe0ba11879","ios":"levelo://app?vid=00f0ce73-62e0-4481-9116-1dfe0ba11879"},"vehicle_type_id":"4","last_reported":1706292537,"current_range_meters":0,"station_id":"chh1huq6cuj3fo74tm60","pricing_plan_id":"free"},{"bike_id":"5cac4158-935d-4fb7-9950-b41309d3eaf8","system_id":"levelo_inurba_marseille","lat":43.3302,"lon":5.390433,"is_reserved":false,"is_disabled":false,"rental_uris":{"android":"levelo://app?vid=5cac4158-935d-4fb7-9950-b41309d3eaf8","ios":"levelo://app?vid=5cac4158-935d-4fb7-9950-b41309d3eaf8"},"vehicle_type_id":"4","last_reported":1706292537,"current_range_meters":12000,"station_id":"ce4bhr92rcd13ifvqhrg","pricing_plan_id":"free"},{"bike_id":"3f03f5fa-03bf-4b30-9042-2390357179a1","system_id":"levelo_inurba_marseille","lat":43.330442,"lon":5.389148,"is_reserved":false,"is_disabled":false,"rental_uris":{"android":"levelo://app?vid=3f03f5fa-03bf-4b30-9042-2390357179a1","ios":"levelo://app?vid=3f03f5fa-03bf-4b30-9042-2390357179a1"},"vehicle_type_id":"4","last_reported":1706292537,"current_range_meters":14400,"station_id":"ce4bhr92rcd13ifvqhrg","pricing_plan_id":"free"},{"bike_id":"813759b2-cfe4-4ccc-b473-6a2d1fc887a7","system_id":"levelo_inurba_marseille","lat":43.295169,"lon":5.390426,"is_reserved":false,"is_disabled":false,"rental_uris":{"android":"levelo://app?vid=813759b2-cfe4-4ccc-b473-6a2d1fc887a7","ios":"levelo://app?vid=813759b2-cfe4-4ccc-b473-6a2d1fc887a7"},"vehicle_type_id":"4","last_reported":1706292537,"current_range_meters":10000,"station_id":"ce4bh3p2rcd13ifvqdp0","pricing_plan_id":"free"},{"bike_id":"70b35374-82e9-499e-8ca9-c5fcf7e330c1","system_id":"levelo_inurba_marseille","lat":43.295169,"lon":5.390426,"is_reserved":false,"is_disabled":false,"rental_uris":{"android":"levelo://app?vid=70b35374-82e9-499e-8ca9-c5fcf7e330c1","ios":"levelo://app?vid=70b35374-82e9-499e-8ca9-c5fcf7e330c1"},"vehicle_type_id":"4","last_reported":1706292537,"current_range_meters":20800,"station_id":"ce4bh3p2rcd13ifvqdp0","pricing_plan_id":"free"},{"bike_id":"cb024f31-d738-42d6-832b-8e0b233984f8","system_id":"levelo_inurba_marseille","lat":43.330442,"lon":5.389148,"is_reserved":false,"is_disabled":false,"rental_uris":{"android":"levelo://app?vid=cb024f31-d738-42d6-832b-8e0b233984f8","ios":"levelo://app?vid=cb024f31-d738-42d6-832b-8e0b233984f8"},"vehicle_type_id":"4","last_reported":1706292537,"current_range_meters":10800,"station_id":"ce4bhr92rcd13ifvqhrg","pricing_plan_id":"free"},{"bike_id":"cce3db5c-0eba-4690-acf7-f63a0a241ebc","system_id":"levelo_inurba_marseille","lat":43.295169,"lon":5.390426,"is_reserved":false,"is_disabled":false,"rental_uris":{"android":"levelo://app?vid=cce3db5c-0eba-4690-acf7-f63a0a241ebc","ios":"levelo://app?vid=cce3db5c-0eba-4690-acf7-f63a0a241ebc"},"vehicle_type_id":"4","last_reported":1706292537,"current_range_meters":12400,"station_id":"ce4bh3p2rcd13ifvqdp0","pricing_plan_id":"free"},{"bike_id":"9c58fe0e-4f26-4d2d-958f-fab63382eaeb","system_id":"levelo_inurba_marseille","lat":43.2901,"lon":5.381269,"is_reserved":false,"is_disabled":false,"rental_uris":{"android":"levelo://app?vid=9c58fe0e-4f26-4d2d-958f-fab63382eaeb","ios":"levelo://app?vid=9c58fe0e-4f26-4d2d-958f-fab63382eaeb"},"vehicle_type_id":"4","last_reported":1706292537,"current_range_meters":2400,"station_id":"ce4bh4p2rcd13ifvqe1g","pricing_plan_id":"free"},{"bike_id":"a95db8d2-cb18-4ea4-b9c7-fb0be228e7d4","system_id":"levelo_inurba_marseille","lat":43.2901,"lon":5.381269,"is_reserved":false,"is_disabled":false,"rental_uris":{"android":"levelo://app?vid=a95db8d2-cb18-4ea4-b9c7-fb0be228e7d4","ios":"levelo://app?vid=a95db8d2-cb18-4ea4-b9c7-fb0be228e7d4"},"vehicle_type_id":"4","last_reported":1706292537,"current_range_meters":0,"station_id":"ce4bh4p2rcd13ifvqe1g","pricing_plan_id":"free"},{"bike_id":"5016502f-0262-4020-9ac8-81098b98a6b0","system_id":"levelo_inurba_marseille","lat":43.28856,"lon":5.358371,"is_reserved":false,"is_disabled":false,"rental_uris":{"android":"levelo://app?vid=5016502f-0262-4020-9ac8-81098b98a6b0","ios":"levelo://app?vid=5016502f-0262-4020-9ac8-81098b98a6b0"},"vehicle_type_id":"4","last_reported":1706292537,"current_range_meters":15600,"station_id":"ce4bhb12rcd13ifvqem0","pricing_plan_id":"free"},{"bike_id":"1dd1f664-3370-498b-a499-8ef9a357e134","system_id":"levelo_inurba_marseille","lat":43.28856,"lon":5.358371,"is_reserved":false,"is_disabled":false,"rental_uris":{"android":"levelo://app?vid=1dd1f664-3370-498b-a499-8ef9a357e134","ios":"levelo://app?vid=1dd1f664-3370-498b-a499-8ef9a357e134"},"vehicle_type_id":"4","last_reported":1706292537,"current_range_meters":26000,"station_id":"ce4bhb12rcd13ifvqem0","pricing_plan_id":"free"},{"bike_id":"4725dec2-30cb-403f-80ff-97cbd070429a","system_id":"levelo_inurba_marseille","lat":43.2901,"lon":5.381269,"is_reserved":false,"is_disabled":false,"rental_uris":{"android":"levelo://app?vid=4725dec2-30cb-403f-80ff-97cbd070429a","ios":"levelo://app?vid=4725dec2-30cb-403f-80ff-97cbd070429a"},"vehicle_type_id":"4","last_reported":1706292537,"current_range_meters":20800,"station_id":"ce4bh4p2rcd13ifvqe1g","pricing_plan_id":"free"},{"bike_id":"0b55ef80-616d-47c3-bf50-4f5d107ee9d0","system_id":"levelo_inurba_marseille","lat":43.28856,"lon":5.358371,"is_reserved":false,"is_disabled":false,"rental_uris":{"android":"levelo://app?vid=0b55ef80-616d-47c3-bf50-4f5d107ee9d0","ios":"levelo://app?vid=0b55ef80-616d-47c3-bf50-4f5d107ee9d0"},"vehicle_type_id":"4","last_reported":1706292537,"current_range_meters":10400,"station_id":"ce4bhb12rcd13ifvqem0","pricing_plan_id":"free"},{"bike_id":"8e293de0-4f93-4e56-b1ad-8888b0badffa","system_id":"levelo_inurba_marseille","lat":43.28856,"lon":5.358371,"is_reserved":false,"is_disabled":false,"rental_uris":{"android":"levelo://app?vid=8e293de0-4f93-4e56-b1ad-8888b0badffa","ios":"levelo://app?vid=8e293de0-4f93-4e56-b1ad-8888b0badffa"},"vehicle_type_id":"4","last_reported":1706292537,"current_range_meters":19600,"station_id":"ce4bhb12rcd13ifvqem0","pricing_plan_id":"free"},{"bike_id":"3405e203-a74f-4e2f-afe7-05da97f61a62","system_id":"levelo_inurba_marseille","lat":43.28938,"lon":5.35492,"is_reserved":false,"is_disabled":false,"rental_uris":{"android":"levelo://app?vid=3405e203-a74f-4e2f-afe7-05da97f61a62","ios":"levelo://app?vid=3405e203-a74f-4e2f-afe7-05da97f61a62"},"vehicle_type_id":"4","last_reported":1706292537,"current_range_meters":0,"station_id":"","pricing_plan_id":"free"},{"bike_id":"1e5ccea4-a85e-4b29-a39e-73e633f762ae","system_id":"levelo_inurba_marseille","lat":43.28856,"lon":5.358371,"is_reserved":false,"is_disabled":false,"rental_uris":{"android":"levelo://app?vid=1e5ccea4-a85e-4b29-a39e-73e633f762ae","ios":"levelo://app?vid=1e5ccea4-a85e-4b29-a39e-73e633f762ae"},"vehicle_type_id":"4","last_reported":1706292537,"current_range_meters":15200,"station_id":"ce4bhb12rcd13ifvqem0","pricing_plan_id":"free"},{"bike_id":"a797ffc5-c458-40ba-9bc9-6560dd2a2969","system_id":"levelo_inurba_marseille","lat":43.31272,"lon":5.4018,"is_reserved":false,"is_disabled":false,"rental_uris":{"android":"levelo://app?vid=a797ffc5-c458-40ba-9bc9-6560dd2a2969","ios":"levelo://app?vid=a797ffc5-c458-40ba-9bc9-6560dd2a2969"},"vehicle_type_id":"4","last_reported":1706292537,"current_range_meters":0,"station_id":"ce4bh092rcd13ifvqd30","pricing_plan_id":"free"},{"bike_id":"ba1ed5f2-15c5-4c0e-bd2e-2339c1a2205f","system_id":"levelo_inurba_marseille","lat":43.3094,"lon":5.4015,"is_reserved":false,"is_disabled":false,"rental_uris":{"android":"levelo://app?vid=ba1ed5f2-15c5-4c0e-bd2e-2339c1a2205f","ios":"levelo://app?vid=ba1ed5f2-15c5-4c0e-bd2e-2339c1a2205f"},"vehicle_type_id":"4","last_reported":1706292537,"current_range_meters":1200,"station_id":"ce4bgvp2rcd13ifvqct0","pricing_plan_id":"free"},{"bike_id":"b7f12eab-e0a6-499e-87ec-2b4381c4602a","system_id":"levelo_inurba_marseille","lat":43.337532,"lon":5.374772,"is_reserved":false,"is_disabled":false,"rental_uris":{"android":"levelo://app?vid=b7f12eab-e0a6-499e-87ec-2b4381c4602a","ios":"levelo://app?vid=b7f12eab-e0a6-499e-87ec-2b4381c4602a"},"vehicle_type_id":"4","last_reported":1706292537,"current_range_meters":27600,"station_id":"","pricing_plan_id":"free"},{"bike_id":"6fef1c02-6433-4ca2-9735-a2aa1e68ae24","system_id":"levelo_inurba_marseille","lat":43.306412,"lon":5.401035,"is_reserved":false,"is_disabled":false,"rental_uris":{"android":"levelo://app?vid=6fef1c02-6433-4ca2-9735-a2aa1e68ae24","ios":"levelo://app?vid=6fef1c02-6433-4ca2-9735-a2aa1e68ae24"},"vehicle_type_id":"4","last_reported":1706292537,"current_range_meters":800,"station_id":"ce4bh112rcd13ifvqda0","pricing_plan_id":"free"},{"bike_id":"b9f855ee-9b53-4f55-b7da-bfa225cb3990","system_id":"levelo_inurba_marseille","lat":43.306412,"lon":5.401035,"is_reserved":false,"is_disabled":false,"rental_uris":{"android":"levelo://app?vid=b9f855ee-9b53-4f55-b7da-bfa225cb3990","ios":"levelo://app?vid=b9f855ee-9b53-4f55-b7da-bfa225cb3990"},"vehicle_type_id":"4","last_reported":1706292537,"current_range_meters":8800,"station_id":"ce4bh112rcd13ifvqda0","pricing_plan_id":"free"},{"bike_id":"5b216a91-6d46-41fe-82f2-f1be5fab3351","system_id":"levelo_inurba_marseille","lat":43.28727,"lon":5.36078,"is_reserved":false,"is_disabled":false,"rental_uris":{"android":"levelo://app?vid=5b216a91-6d46-41fe-82f2-f1be5fab3351","ios":"levelo://app?vid=5b216a91-6d46-41fe-82f2-f1be5fab3351"},"vehicle_type_id":"4","last_reported":1706292537,"current_range_meters":10000,"station_id":"cki0cbj6b192h4jlfktg","pricing_plan_id":"free"},{"bike_id":"c61a3ff4-8535-40f7-a7d8-ced6dd9b6b6c","system_id":"levelo_inurba_marseille","lat":43.286713,"lon":5.36336,"is_reserved":false,"is_disabled":false,"rental_uris":{"android":"levelo://app?vid=c61a3ff4-8535-40f7-a7d8-ced6dd9b6b6c","ios":"levelo://app?vid=c61a3ff4-8535-40f7-a7d8-ced6dd9b6b6c"},"vehicle_type_id":"4","last_reported":1706292537,"current_range_meters":24400,"station_id":"ce4bhah2rcd13ifvqej0","pricing_plan_id":"free"},{"bike_id":"ce5af096-4c38-4852-9c4f-6a18c45a9bb1","system_id":"levelo_inurba_marseille","lat":43.298681,"lon":5.397225,"is_reserved":false,"is_disabled":false,"rental_uris":{"android":"levelo://app?vid=ce5af096-4c38-4852-9c4f-6a18c45a9bb1","ios":"levelo://app?vid=ce5af096-4c38-4852-9c4f-6a18c45a9bb1"},"vehicle_type_id":"4","last_reported":1706292537,"current_range_meters":400,"station_id":"ce4bh0h2rcd13ifvqd50","pricing_plan_id":"free"},{"bike_id":"43863d2a-dca8-4fa2-8e61-deeb00f0b7bf","system_id":"levelo_inurba_marseille","lat":43.298681,"lon":5.397225,"is_reserved":false,"is_disabled":false,"rental_uris":{"android":"levelo://app?vid=43863d2a-dca8-4fa2-8e61-deeb00f0b7bf","ios":"levelo://app?vid=43863d2a-dca8-4fa2-8e61-deeb00f0b7bf"},"vehicle_type_id":"4","last_reported":1706292537,"current_range_meters":0,"station_id":"ce4bh0h2rcd13ifvqd50","pricing_plan_id":"free"},{"bike_id":"f3860d6e-fe6a-472a-8887-4053c1162f54","system_id":"levelo_inurba_marseille","lat":43.28654,"lon":5.36361,"is_reserved":false,"is_disabled":false,"rental_uris":{"android":"levelo://app?vid=f3860d6e-fe6a-472a-8887-4053c1162f54","ios":"levelo://app?vid=f3860d6e-fe6a-472a-8887-4053c1162f54"},"vehicle_type_id":"4","last_reported":1706292537,"current_range_meters":0,"station_id":"ce4bhah2rcd13ifvqej0","pricing_plan_id":"free"},{"bike_id":"cbdd54ad-b109-48b4-8f51-45467b72727e","system_id":"levelo_inurba_marseille","lat":43.290345,"lon":5.38646,"is_reserved":false,"is_disabled":false,"rental_uris":{"android":"levelo://app?vid=cbdd54ad-b109-48b4-8f51-45467b72727e","ios":"levelo://app?vid=cbdd54ad-b109-48b4-8f51-45467b72727e"},"vehicle_type_id":"4","last_reported":1706292537,"current_range_meters":18000,"station_id":"ce4bh4p2rcd13ifvqe0g","pricing_plan_id":"free"},{"bike_id":"3c8209ab-08b5-4300-86c3-11650bf39c39","system_id":"levelo_inurba_marseille","lat":43.28924,"lon":5.384,"is_reserved":false,"is_disabled":false,"rental_uris":{"android":"levelo://app?vid=3c8209ab-08b5-4300-86c3-11650bf39c39","ios":"levelo://app?vid=3c8209ab-08b5-4300-86c3-11650bf39c39"},"vehicle_type_id":"4","last_reported":1706292537,"current_range_meters":26400,"station_id":"ce4bh612rcd13ifvqe6g","pricing_plan_id":"free"},{"bike_id":"a7a14f66-bb70-47de-8390-1135926c5007","system_id":"levelo_inurba_marseille","lat":43.290345,"lon":5.38646,"is_reserved":false,"is_disabled":false,"rental_uris":{"android":"levelo://app?vid=a7a14f66-bb70-47de-8390-1135926c5007","ios":"levelo://app?vid=a7a14f66-bb70-47de-8390-1135926c5007"},"vehicle_type_id":"4","last_reported":1706292537,"current_range_meters":0,"station_id":"ce4bh4p2rcd13ifvqe0g","pricing_plan_id":"free"},{"bike_id":"18ae3fe7-30f0-42a3-b139-9197b8eb86a1","system_id":"levelo_inurba_marseille","lat":43.302759,"lon":5.400793,"is_reserved":false,"is_disabled":false,"rental_uris":{"android":"levelo://app?vid=18ae3fe7-30f0-42a3-b139-9197b8eb86a1","ios":"levelo://app?vid=18ae3fe7-30f0-42a3-b139-9197b8eb86a1"},"vehicle_type_id":"4","last_reported":1706292537,"current_range_meters":11600,"station_id":"ce4bgvh2rcd13ifvqcs0","pricing_plan_id":"free"},{"bike_id":"99d4eadc-0fc6-44b3-b59c-db82a8470d4e","system_id":"levelo_inurba_marseille","lat":43.287184,"lon":5.37937,"is_reserved":false,"is_disabled":false,"rental_uris":{"android":"levelo://app?vid=99d4eadc-0fc6-44b3-b59c-db82a8470d4e","ios":"levelo://app?vid=99d4eadc-0fc6-44b3-b59c-db82a8470d4e"},"vehicle_type_id":"4","last_reported":1706292537,"current_range_meters":11200,"station_id":"ce4bh9p2rcd13ifvqec0","pricing_plan_id":"free"},{"bike_id":"a7c0a6dc-1328-4b04-9722-b7d2ce2eb3b1","system_id":"levelo_inurba_marseille","lat":43.287185,"lon":5.379373,"is_reserved":false,"is_disabled":false,"rental_uris":{"android":"levelo://app?vid=a7c0a6dc-1328-4b04-9722-b7d2ce2eb3b1","ios":"levelo://app?vid=a7c0a6dc-1328-4b04-9722-b7d2ce2eb3b1"},"vehicle_type_id":"4","last_reported":1706292537,"current_range_meters":1600,"station_id":"ce4bh9p2rcd13ifvqec0","pricing_plan_id":"free"},{"bike_id":"94a3b4b0-a015-4f9e-bfbd-0a4ae3ad45e5","system_id":"levelo_inurba_marseille","lat":43.287185,"lon":5.379373,"is_reserved":false,"is_disabled":false,"rental_uris":{"android":"levelo://app?vid=94a3b4b0-a015-4f9e-bfbd-0a4ae3ad45e5","ios":"levelo://app?vid=94a3b4b0-a015-4f9e-bfbd-0a4ae3ad45e5"},"vehicle_type_id":"4","last_reported":1706292537,"current_range_meters":6000,"station_id":"ce4bh9p2rcd13ifvqec0","pricing_plan_id":"free"},{"bike_id":"eb84552b-f3d9-4da5-8f82-3a8f8f3a6db6","system_id":"levelo_inurba_marseille","lat":43.316821,"lon":5.404737,"is_reserved":false,"is_disabled":false,"rental_uris":{"android":"levelo://app?vid=eb84552b-f3d9-4da5-8f82-3a8f8f3a6db6","ios":"levelo://app?vid=eb84552b-f3d9-4da5-8f82-3a8f8f3a6db6"},"vehicle_type_id":"4","last_reported":1706292537,"current_range_meters":18000,"station_id":"ce4bh012rcd13ifvqd00","pricing_plan_id":"free"},{"bike_id":"2936708a-680d-4e1e-aef7-37188de88c4c","system_id":"levelo_inurba_marseille","lat":43.28464,"lon":5.3588,"is_reserved":false,"is_disabled":false,"rental_uris":{"android":"levelo://app?vid=2936708a-680d-4e1e-aef7-37188de88c4c","ios":"levelo://app?vid=2936708a-680d-4e1e-aef7-37188de88c4c"},"vehicle_type_id":"4","last_reported":1706292537,"current_range_meters":0,"station_id":"ce4bhah2rcd13ifvqei0","pricing_plan_id":"free"},{"bike_id":"e41d00ba-c096-48ea-811a-0690ae2133b3","system_id":"levelo_inurba_marseille","lat":43.28459,"lon":5.35875,"is_reserved":false,"is_disabled":false,"rental_uris":{"android":"levelo://app?vid=e41d00ba-c096-48ea-811a-0690ae2133b3","ios":"levelo://app?vid=e41d00ba-c096-48ea-811a-0690ae2133b3"},"vehicle_type_id":"4","last_reported":1706292537,"current_range_meters":400,"station_id":"ce4bhah2rcd13ifvqei0","pricing_plan_id":"free"},{"bike_id":"8eeede94-02c4-49eb-b418-db1de6a0ad89","system_id":"levelo_inurba_marseille","lat":43.285848,"lon":5.350787,"is_reserved":false,"is_disabled":false,"rental_uris":{"android":"levelo://app?vid=8eeede94-02c4-49eb-b418-db1de6a0ad89","ios":"levelo://app?vid=8eeede94-02c4-49eb-b418-db1de6a0ad89"},"vehicle_type_id":"4","last_reported":1706292537,"current_range_meters":0,"station_id":"ce4bhch2rcd13ifvqeug","pricing_plan_id":"free"},{"bike_id":"b21b77fb-b8a6-46e8-bcbc-5297880eba72","system_id":"levelo_inurba_marseille","lat":43.28613,"lon":5.35111,"is_reserved":false,"is_disabled":false,"rental_uris":{"android":"levelo://app?vid=b21b77fb-b8a6-46e8-bcbc-5297880eba72","ios":"levelo://app?vid=b21b77fb-b8a6-46e8-bcbc-5297880eba72"},"vehicle_type_id":"4","last_reported":1706292537,"current_range_meters":0,"station_id":"ce4bhch2rcd13ifvqeug","pricing_plan_id":"free"},{"bike_id":"aa52849a-0e37-4363-88c8-fb54e8e8cc59","system_id":"levelo_inurba_marseille","lat":43.285856,"lon":5.350771,"is_reserved":false,"is_disabled":false,"rental_uris":{"android":"levelo://app?vid=aa52849a-0e37-4363-88c8-fb54e8e8cc59","ios":"levelo://app?vid=aa52849a-0e37-4363-88c8-fb54e8e8cc59"},"vehicle_type_id":"4","last_reported":1706292537,"current_range_meters":0,"station_id":"ce4bhch2rcd13ifvqeug","pricing_plan_id":"free"},{"bike_id":"b6ede0b5-da9e-4c42-b771-ebda8bb0f2a5","system_id":"levelo_inurba_marseille","lat":43.28615,"lon":5.350987,"is_reserved":false,"is_disabled":false,"rental_uris":{"android":"levelo://app?vid=b6ede0b5-da9e-4c42-b771-ebda8bb0f2a5","ios":"levelo://app?vid=b6ede0b5-da9e-4c42-b771-ebda8bb0f2a5"},"vehicle_type_id":"4","last_reported":1706292537,"current_range_meters":22000,"station_id":"ce4bhch2rcd13ifvqeug","pricing_plan_id":"free"},{"bike_id":"2e4bda3e-5887-45ea-96a6-8afddf6d2660","system_id":"levelo_inurba_marseille","lat":43.283998,"lon":5.375062,"is_reserved":false,"is_disabled":false,"rental_uris":{"android":"levelo://app?vid=2e4bda3e-5887-45ea-96a6-8afddf6d2660","ios":"levelo://app?vid=2e4bda3e-5887-45ea-96a6-8afddf6d2660"},"vehicle_type_id":"4","last_reported":1706292537,"current_range_meters":30400,"station_id":"ce4bh412rcd13ifvqds0","pricing_plan_id":"free"},{"bike_id":"b2f73af2-26bb-4ecb-9c55-851def00daf8","system_id":"levelo_inurba_marseille","lat":43.295713,"lon":5.399639,"is_reserved":false,"is_disabled":false,"rental_uris":{"android":"levelo://app?vid=b2f73af2-26bb-4ecb-9c55-851def00daf8","ios":"levelo://app?vid=b2f73af2-26bb-4ecb-9c55-851def00daf8"},"vehicle_type_id":"4","last_reported":1706292537,"current_range_meters":400,"station_id":"ce4bh312rcd13ifvqdj0","pricing_plan_id":"free"},{"bike_id":"c0e41574-ed2c-4232-81e9-795b6431d43d","system_id":"levelo_inurba_marseille","lat":43.319179,"lon":5.407725,"is_reserved":false,"is_disabled":false,"rental_uris":{"android":"levelo://app?vid=c0e41574-ed2c-4232-81e9-795b6431d43d","ios":"levelo://app?vid=c0e41574-ed2c-4232-81e9-795b6431d43d"},"vehicle_type_id":"4","last_reported":1706292537,"current_range_meters":800,"station_id":"ce4bhq12rcd13ifvqhig","pricing_plan_id":"free"},{"bike_id":"39d5b51b-a3f0-48bd-b347-a780de53c69b","system_id":"levelo_inurba_marseille","lat":43.323464,"lon":5.406297,"is_reserved":false,"is_disabled":false,"rental_uris":{"android":"levelo://app?vid=39d5b51b-a3f0-48bd-b347-a780de53c69b","ios":"levelo://app?vid=39d5b51b-a3f0-48bd-b347-a780de53c69b"},"vehicle_type_id":"4","last_reported":1706292537,"current_range_meters":28400,"station_id":"ce4bhq92rcd13ifvqhjg","pricing_plan_id":"free"},{"bike_id":"f33e04e9-0d4b-4bfa-99ba-5b946ee64814","system_id":"levelo_inurba_marseille","lat":43.284793,"lon":5.384113,"is_reserved":false,"is_disabled":false,"rental_uris":{"android":"levelo://app?vid=f33e04e9-0d4b-4bfa-99ba-5b946ee64814","ios":"levelo://app?vid=f33e04e9-0d4b-4bfa-99ba-5b946ee64814"},"vehicle_type_id":"4","last_reported":1706292537,"current_range_meters":10400,"station_id":"ce4bh512rcd13ifvqe3g","pricing_plan_id":"free"},{"bike_id":"29c971f3-912e-4f79-8c22-d20e1f4b5d74","system_id":"levelo_inurba_marseille","lat":43.337168,"lon":5.391825,"is_reserved":false,"is_disabled":false,"rental_uris":{"android":"levelo://app?vid=29c971f3-912e-4f79-8c22-d20e1f4b5d74","ios":"levelo://app?vid=29c971f3-912e-4f79-8c22-d20e1f4b5d74"},"vehicle_type_id":"4","last_reported":1706292537,"current_range_meters":24000,"station_id":"ce4bhr92rcd13ifvqhsg","pricing_plan_id":"free"},{"bike_id":"987bf158-6e12-4034-86b3-2c0606f7b41f","system_id":"levelo_inurba_marseille","lat":43.284793,"lon":5.384113,"is_reserved":false,"is_disabled":false,"rental_uris":{"android":"levelo://app?vid=987bf158-6e12-4034-86b3-2c0606f7b41f","ios":"levelo://app?vid=987bf158-6e12-4034-86b3-2c0606f7b41f"},"vehicle_type_id":"4","last_reported":1706292537,"current_range_meters":0,"station_id":"ce4bh512rcd13ifvqe3g","pricing_plan_id":"free"},{"bike_id":"b4bd1ce7-26ad-41db-a915-a3b476b9e02e","system_id":"levelo_inurba_marseille","lat":43.323464,"lon":5.406297,"is_reserved":false,"is_disabled":false,"rental_uris":{"android":"levelo://app?vid=b4bd1ce7-26ad-41db-a915-a3b476b9e02e","ios":"levelo://app?vid=b4bd1ce7-26ad-41db-a915-a3b476b9e02e"},"vehicle_type_id":"4","last_reported":1706292537,"current_range_meters":31200,"station_id":"ce4bhq92rcd13ifvqhjg","pricing_plan_id":"free"},{"bike_id":"1bb8c121-5f92-44ed-aa91-b85a3ab7e556","system_id":"levelo_inurba_marseille","lat":43.28476,"lon":5.3842,"is_reserved":false,"is_disabled":false,"rental_uris":{"android":"levelo://app?vid=1bb8c121-5f92-44ed-aa91-b85a3ab7e556","ios":"levelo://app?vid=1bb8c121-5f92-44ed-aa91-b85a3ab7e556"},"vehicle_type_id":"4","last_reported":1706292537,"current_range_meters":0,"station_id":"ce4bh512rcd13ifvqe3g","pricing_plan_id":"free"},{"bike_id":"a1671920-8403-408c-b503-73db4a0fc404","system_id":"levelo_inurba_marseille","lat":43.28472,"lon":5.38419,"is_reserved":false,"is_disabled":false,"rental_uris":{"android":"levelo://app?vid=a1671920-8403-408c-b503-73db4a0fc404","ios":"levelo://app?vid=a1671920-8403-408c-b503-73db4a0fc404"},"vehicle_type_id":"4","last_reported":1706292537,"current_range_meters":0,"station_id":"ce4bh512rcd13ifvqe3g","pricing_plan_id":"free"},{"bike_id":"b4ec15f3-423d-4f11-af06-56f85ba21c70","system_id":"levelo_inurba_marseille","lat":43.28852,"lon":5.39307,"is_reserved":false,"is_disabled":false,"rental_uris":{"android":"levelo://app?vid=b4ec15f3-423d-4f11-af06-56f85ba21c70","ios":"levelo://app?vid=b4ec15f3-423d-4f11-af06-56f85ba21c70"},"vehicle_type_id":"4","last_reported":1706292537,"current_range_meters":15600,"station_id":"ce4bh2p2rcd13ifvqdi0","pricing_plan_id":"free"},{"bike_id":"266738d5-456f-4b5e-a8d1-e6c319a2e809","system_id":"levelo_inurba_marseille","lat":43.29795,"lon":5.404086,"is_reserved":false,"is_disabled":false,"rental_uris":{"android":"levelo://app?vid=266738d5-456f-4b5e-a8d1-e6c319a2e809","ios":"levelo://app?vid=266738d5-456f-4b5e-a8d1-e6c319a2e809"},"vehicle_type_id":"4","last_reported":1706292537,"current_range_meters":11600,"station_id":"ce4bh112rcd13ifvqd90","pricing_plan_id":"free"},{"bike_id":"16870f8a-74e4-4cf8-817e-82b6f042207a","system_id":"levelo_inurba_marseille","lat":43.28429,"lon":5.34991,"is_reserved":false,"is_disabled":false,"rental_uris":{"android":"levelo://app?vid=16870f8a-74e4-4cf8-817e-82b6f042207a","ios":"levelo://app?vid=16870f8a-74e4-4cf8-817e-82b6f042207a"},"vehicle_type_id":"4","last_reported":1706292537,"current_range_meters":0,"station_id":"ce4bhbh2rcd13ifvqepg","pricing_plan_id":"free"},{"bike_id":"6da6588b-3606-4cd3-a31b-2647f2d0573a","system_id":"levelo_inurba_marseille","lat":43.283498,"lon":5.380948,"is_reserved":false,"is_disabled":false,"rental_uris":{"android":"levelo://app?vid=6da6588b-3606-4cd3-a31b-2647f2d0573a","ios":"levelo://app?vid=6da6588b-3606-4cd3-a31b-2647f2d0573a"},"vehicle_type_id":"4","last_reported":1706292537,"current_range_meters":4000,"station_id":"ce4bh412rcd13ifvqdr0","pricing_plan_id":"free"},{"bike_id":"d0114db0-d38e-4e30-8ef0-61b4aaaee3c4","system_id":"levelo_inurba_marseille","lat":43.284217,"lon":5.349697,"is_reserved":false,"is_disabled":false,"rental_uris":{"android":"levelo://app?vid=d0114db0-d38e-4e30-8ef0-61b4aaaee3c4","ios":"levelo://app?vid=d0114db0-d38e-4e30-8ef0-61b4aaaee3c4"},"vehicle_type_id":"4","last_reported":1706292537,"current_range_meters":24000,"station_id":"ce4bhbh2rcd13ifvqepg","pricing_plan_id":"free"},{"bike_id":"49e80728-e90e-4ecb-a111-752dfce6cd5f","system_id":"levelo_inurba_marseille","lat":43.289363,"lon":5.396322,"is_reserved":false,"is_disabled":false,"rental_uris":{"android":"levelo://app?vid=49e80728-e90e-4ecb-a111-752dfce6cd5f","ios":"levelo://app?vid=49e80728-e90e-4ecb-a111-752dfce6cd5f"},"vehicle_type_id":"4","last_reported":1706292537,"current_range_meters":6400,"station_id":"ce4bh3h2rcd13ifvqdn0","pricing_plan_id":"free"},{"bike_id":"b41bcd76-cb12-4b33-95cd-9444d1e23578","system_id":"levelo_inurba_marseille","lat":43.293556,"lon":5.401561,"is_reserved":false,"is_disabled":false,"rental_uris":{"android":"levelo://app?vid=b41bcd76-cb12-4b33-95cd-9444d1e23578","ios":"levelo://app?vid=b41bcd76-cb12-4b33-95cd-9444d1e23578"},"vehicle_type_id":"4","last_reported":1706292537,"current_range_meters":13200,"station_id":"","pricing_plan_id":"free"},{"bike_id":"1279b895-9275-437d-a62e-04298c2f37bc","system_id":"levelo_inurba_marseille","lat":43.289363,"lon":5.396322,"is_reserved":false,"is_disabled":false,"rental_uris":{"android":"levelo://app?vid=1279b895-9275-437d-a62e-04298c2f37bc","ios":"levelo://app?vid=1279b895-9275-437d-a62e-04298c2f37bc"},"vehicle_type_id":"4","last_reported":1706292537,"current_range_meters":18000,"station_id":"ce4bh3h2rcd13ifvqdn0","pricing_plan_id":"free"},{"bike_id":"b75e4ac0-da7f-439e-b0bc-c4c84564df8b","system_id":"levelo_inurba_marseille","lat":43.292724,"lon":5.401131,"is_reserved":false,"is_disabled":false,"rental_uris":{"android":"levelo://app?vid=b75e4ac0-da7f-439e-b0bc-c4c84564df8b","ios":"levelo://app?vid=b75e4ac0-da7f-439e-b0bc-c4c84564df8b"},"vehicle_type_id":"4","last_reported":1706292537,"current_range_meters":10800,"station_id":"ce4bh312rcd13ifvqdk0","pricing_plan_id":"free"},{"bike_id":"b2aea474-7f67-42c2-b527-31345ac0431a","system_id":"levelo_inurba_marseille","lat":43.292724,"lon":5.401131,"is_reserved":false,"is_disabled":false,"rental_uris":{"android":"levelo://app?vid=b2aea474-7f67-42c2-b527-31345ac0431a","ios":"levelo://app?vid=b2aea474-7f67-42c2-b527-31345ac0431a"},"vehicle_type_id":"4","last_reported":1706292537,"current_range_meters":21600,"station_id":"ce4bh312rcd13ifvqdk0","pricing_plan_id":"free"},{"bike_id":"663d1852-ce05-4ceb-ad62-bba36f2e32d4","system_id":"levelo_inurba_marseille","lat":43.282757,"lon":5.350683,"is_reserved":false,"is_disabled":false,"rental_uris":{"android":"levelo://app?vid=663d1852-ce05-4ceb-ad62-bba36f2e32d4","ios":"levelo://app?vid=663d1852-ce05-4ceb-ad62-bba36f2e32d4"},"vehicle_type_id":"4","last_reported":1706292537,"current_range_meters":0,"station_id":"ce4bhbp2rcd13ifvqerg","pricing_plan_id":"free"},{"bike_id":"99566a63-469d-4955-92f1-a4fd15963112","system_id":"levelo_inurba_marseille","lat":43.28799,"lon":5.39551,"is_reserved":false,"is_disabled":false,"rental_uris":{"android":"levelo://app?vid=99566a63-469d-4955-92f1-a4fd15963112","ios":"levelo://app?vid=99566a63-469d-4955-92f1-a4fd15963112"},"vehicle_type_id":"4","last_reported":1706292537,"current_range_meters":0,"station_id":"","pricing_plan_id":"free"},{"bike_id":"02d231c4-08d6-4127-b03e-7360bbe901aa","system_id":"levelo_inurba_marseille","lat":43.280382,"lon":5.369291,"is_reserved":false,"is_disabled":false,"rental_uris":{"android":"levelo://app?vid=02d231c4-08d6-4127-b03e-7360bbe901aa","ios":"levelo://app?vid=02d231c4-08d6-4127-b03e-7360bbe901aa"},"vehicle_type_id":"4","last_reported":1706292537,"current_range_meters":13600,"station_id":"ce4bha12rcd13ifvqef0","pricing_plan_id":"free"},{"bike_id":"8b8b77bb-14c8-4448-840e-970e0caaec6e","system_id":"levelo_inurba_marseille","lat":43.280382,"lon":5.369291,"is_reserved":false,"is_disabled":false,"rental_uris":{"android":"levelo://app?vid=8b8b77bb-14c8-4448-840e-970e0caaec6e","ios":"levelo://app?vid=8b8b77bb-14c8-4448-840e-970e0caaec6e"},"vehicle_type_id":"4","last_reported":1706292537,"current_range_meters":18800,"station_id":"ce4bha12rcd13ifvqef0","pricing_plan_id":"free"},{"bike_id":"7741aff0-9b9f-483e-bf36-cac901011ebd","system_id":"levelo_inurba_marseille","lat":43.290412,"lon":5.399633,"is_reserved":false,"is_disabled":false,"rental_uris":{"android":"levelo://app?vid=7741aff0-9b9f-483e-bf36-cac901011ebd","ios":"levelo://app?vid=7741aff0-9b9f-483e-bf36-cac901011ebd"},"vehicle_type_id":"4","last_reported":1706292537,"current_range_meters":0,"station_id":"ce4bh392rcd13ifvqdm0","pricing_plan_id":"free"},{"bike_id":"f3637062-072d-43a1-b535-6d0bd386fdc5","system_id":"levelo_inurba_marseille","lat":43.281044,"lon":5.378308,"is_reserved":false,"is_disabled":false,"rental_uris":{"android":"levelo://app?vid=f3637062-072d-43a1-b535-6d0bd386fdc5","ios":"levelo://app?vid=f3637062-072d-43a1-b535-6d0bd386fdc5"},"vehicle_type_id":"4","last_reported":1706292537,"current_range_meters":20400,"station_id":"ce4bha12rcd13ifvqee0","pricing_plan_id":"free"},{"bike_id":"c2f97782-d557-49a1-a5b6-c6a8e1e1acfb","system_id":"levelo_inurba_marseille","lat":43.281044,"lon":5.378308,"is_reserved":false,"is_disabled":false,"rental_uris":{"android":"levelo://app?vid=c2f97782-d557-49a1-a5b6-c6a8e1e1acfb","ios":"levelo://app?vid=c2f97782-d557-49a1-a5b6-c6a8e1e1acfb"},"vehicle_type_id":"4","last_reported":1706292537,"current_range_meters":18400,"station_id":"ce4bha12rcd13ifvqee0","pricing_plan_id":"free"},{"bike_id":"43700acd-1d6a-4cf8-94de-975358207592","system_id":"levelo_inurba_marseille","lat":43.281044,"lon":5.378308,"is_reserved":false,"is_disabled":false,"rental_uris":{"android":"levelo://app?vid=43700acd-1d6a-4cf8-94de-975358207592","ios":"levelo://app?vid=43700acd-1d6a-4cf8-94de-975358207592"},"vehicle_type_id":"4","last_reported":1706292537,"current_range_meters":4000,"station_id":"ce4bha12rcd13ifvqee0","pricing_plan_id":"free"},{"bike_id":"36d749e3-0dd0-4ec1-b4a1-9ca336af2a6d","system_id":"levelo_inurba_marseille","lat":43.281044,"lon":5.378308,"is_reserved":false,"is_disabled":false,"rental_uris":{"android":"levelo://app?vid=36d749e3-0dd0-4ec1-b4a1-9ca336af2a6d","ios":"levelo://app?vid=36d749e3-0dd0-4ec1-b4a1-9ca336af2a6d"},"vehicle_type_id":"4","last_reported":1706292537,"current_range_meters":13200,"station_id":"ce4bha12rcd13ifvqee0","pricing_plan_id":"free"},{"bike_id":"f6bf3462-7354-46ee-bd73-0a857c430928","system_id":"levelo_inurba_marseille","lat":43.281044,"lon":5.378308,"is_reserved":false,"is_disabled":false,"rental_uris":{"android":"levelo://app?vid=f6bf3462-7354-46ee-bd73-0a857c430928","ios":"levelo://app?vid=f6bf3462-7354-46ee-bd73-0a857c430928"},"vehicle_type_id":"4","last_reported":1706292537,"current_range_meters":9200,"station_id":"ce4bha12rcd13ifvqee0","pricing_plan_id":"free"},{"bike_id":"811563a4-7a69-4dc3-9841-cb203c162af4","system_id":"levelo_inurba_marseille","lat":43.281044,"lon":5.378308,"is_reserved":false,"is_disabled":false,"rental_uris":{"android":"levelo://app?vid=811563a4-7a69-4dc3-9841-cb203c162af4","ios":"levelo://app?vid=811563a4-7a69-4dc3-9841-cb203c162af4"},"vehicle_type_id":"4","last_reported":1706292537,"current_range_meters":6400,"station_id":"ce4bha12rcd13ifvqee0","pricing_plan_id":"free"},{"bike_id":"122dcf86-50b0-40d3-b9a0-05461f27a14e","system_id":"levelo_inurba_marseille","lat":43.281044,"lon":5.378308,"is_reserved":false,"is_disabled":false,"rental_uris":{"android":"levelo://app?vid=122dcf86-50b0-40d3-b9a0-05461f27a14e","ios":"levelo://app?vid=122dcf86-50b0-40d3-b9a0-05461f27a14e"},"vehicle_type_id":"4","last_reported":1706292537,"current_range_meters":26000,"station_id":"ce4bha12rcd13ifvqee0","pricing_plan_id":"free"},{"bike_id":"973dd87e-a449-4e15-80ab-e60e7cab12e3","system_id":"levelo_inurba_marseille","lat":43.284462,"lon":5.392121,"is_reserved":false,"is_disabled":false,"rental_uris":{"android":"levelo://app?vid=973dd87e-a449-4e15-80ab-e60e7cab12e3","ios":"levelo://app?vid=973dd87e-a449-4e15-80ab-e60e7cab12e3"},"vehicle_type_id":"4","last_reported":1706292537,"current_range_meters":7600,"station_id":"ce4bhoh2rcd13ifvqh5g","pricing_plan_id":"free"},{"bike_id":"f3fd1b8d-41a8-427b-9f60-c3b8aa64f40a","system_id":"levelo_inurba_marseille","lat":43.28573,"lon":5.394992,"is_reserved":false,"is_disabled":false,"rental_uris":{"android":"levelo://app?vid=f3fd1b8d-41a8-427b-9f60-c3b8aa64f40a","ios":"levelo://app?vid=f3fd1b8d-41a8-427b-9f60-c3b8aa64f40a"},"vehicle_type_id":"4","last_reported":1706292537,"current_range_meters":2000,"station_id":"ce4bh292rcd13ifvqdg0","pricing_plan_id":"free"},{"bike_id":"b5b74d41-ece7-496c-b261-4bd470dd3438","system_id":"levelo_inurba_marseille","lat":43.28573,"lon":5.394992,"is_reserved":false,"is_disabled":false,"rental_uris":{"android":"levelo://app?vid=b5b74d41-ece7-496c-b261-4bd470dd3438","ios":"levelo://app?vid=b5b74d41-ece7-496c-b261-4bd470dd3438"},"vehicle_type_id":"4","last_reported":1706292537,"current_range_meters":12400,"station_id":"ce4bh292rcd13ifvqdg0","pricing_plan_id":"free"},{"bike_id":"966ee779-41a2-4e9b-a1e2-9f4bf69b43db","system_id":"levelo_inurba_marseille","lat":43.304188,"lon":5.412904,"is_reserved":false,"is_disabled":false,"rental_uris":{"android":"levelo://app?vid=966ee779-41a2-4e9b-a1e2-9f4bf69b43db","ios":"levelo://app?vid=966ee779-41a2-4e9b-a1e2-9f4bf69b43db"},"vehicle_type_id":"4","last_reported":1706292537,"current_range_meters":26000,"station_id":"ce4bhop2rcd13ifvqh8g","pricing_plan_id":"free"},{"bike_id":"259b22f4-f9ea-4474-8864-d20059830d64","system_id":"levelo_inurba_marseille","lat":43.304188,"lon":5.412904,"is_reserved":false,"is_disabled":false,"rental_uris":{"android":"levelo://app?vid=259b22f4-f9ea-4474-8864-d20059830d64","ios":"levelo://app?vid=259b22f4-f9ea-4474-8864-d20059830d64"},"vehicle_type_id":"4","last_reported":1706292537,"current_range_meters":30800,"station_id":"ce4bhop2rcd13ifvqh8g","pricing_plan_id":"free"},{"bike_id":"804ab116-3ac5-494e-9383-6fee5ea0c955","system_id":"levelo_inurba_marseille","lat":43.304188,"lon":5.412904,"is_reserved":false,"is_disabled":false,"rental_uris":{"android":"levelo://app?vid=804ab116-3ac5-494e-9383-6fee5ea0c955","ios":"levelo://app?vid=804ab116-3ac5-494e-9383-6fee5ea0c955"},"vehicle_type_id":"4","last_reported":1706292537,"current_range_meters":0,"station_id":"ce4bhop2rcd13ifvqh8g","pricing_plan_id":"free"},{"bike_id":"f0a6ae7e-9df2-4719-94f8-075a05f457b4","system_id":"levelo_inurba_marseille","lat":43.279087,"lon":5.380114,"is_reserved":false,"is_disabled":false,"rental_uris":{"android":"levelo://app?vid=f0a6ae7e-9df2-4719-94f8-075a05f457b4","ios":"levelo://app?vid=f0a6ae7e-9df2-4719-94f8-075a05f457b4"},"vehicle_type_id":"4","last_reported":1706292537,"current_range_meters":26400,"station_id":"ce4bhf92rcd13ifvqf50","pricing_plan_id":"free"},{"bike_id":"3e183fab-7940-4419-860f-0c3ec9edd107","system_id":"levelo_inurba_marseille","lat":43.29675,"lon":5.41093,"is_reserved":false,"is_disabled":false,"rental_uris":{"android":"levelo://app?vid=3e183fab-7940-4419-860f-0c3ec9edd107","ios":"levelo://app?vid=3e183fab-7940-4419-860f-0c3ec9edd107"},"vehicle_type_id":"4","last_reported":1706292537,"current_range_meters":2000,"station_id":"ce4bhoh2rcd13ifvqh6g","pricing_plan_id":"free"},{"bike_id":"a167dec7-4584-4334-a2e5-4d670902cb74","system_id":"levelo_inurba_marseille","lat":43.279742,"lon":5.38744,"is_reserved":false,"is_disabled":false,"rental_uris":{"android":"levelo://app?vid=a167dec7-4584-4334-a2e5-4d670902cb74","ios":"levelo://app?vid=a167dec7-4584-4334-a2e5-4d670902cb74"},"vehicle_type_id":"4","last_reported":1706292537,"current_range_meters":13200,"station_id":"ce4bhg12rcd13ifvqf80","pricing_plan_id":"free"},{"bike_id":"f42a7b2c-19c1-4e28-b8ef-92be10901cc2","system_id":"levelo_inurba_marseille","lat":43.292569,"lon":5.409107,"is_reserved":false,"is_disabled":false,"rental_uris":{"android":"levelo://app?vid=f42a7b2c-19c1-4e28-b8ef-92be10901cc2","ios":"levelo://app?vid=f42a7b2c-19c1-4e28-b8ef-92be10901cc2"},"vehicle_type_id":"4","last_reported":1706292537,"current_range_meters":6400,"station_id":"ce4bh192rcd13ifvqdc0","pricing_plan_id":"free"},{"bike_id":"2fadd221-a19b-4514-b07b-ca9988afa93b","system_id":"levelo_inurba_marseille","lat":43.29261,"lon":5.40902,"is_reserved":false,"is_disabled":false,"rental_uris":{"android":"levelo://app?vid=2fadd221-a19b-4514-b07b-ca9988afa93b","ios":"levelo://app?vid=2fadd221-a19b-4514-b07b-ca9988afa93b"},"vehicle_type_id":"4","last_reported":1706292537,"current_range_meters":0,"station_id":"ce4bh192rcd13ifvqdc0","pricing_plan_id":"free"},{"bike_id":"fd7761bb-2d52-4c05-96fa-6b80598057ae","system_id":"levelo_inurba_marseille","lat":43.292571,"lon":5.409107,"is_reserved":false,"is_disabled":false,"rental_uris":{"android":"levelo://app?vid=fd7761bb-2d52-4c05-96fa-6b80598057ae","ios":"levelo://app?vid=fd7761bb-2d52-4c05-96fa-6b80598057ae"},"vehicle_type_id":"4","last_reported":1706292537,"current_range_meters":0,"station_id":"ce4bh192rcd13ifvqdc0","pricing_plan_id":"free"},{"bike_id":"4a400af1-4fdc-4363-8807-f1cd41f2688a","system_id":"levelo_inurba_marseille","lat":43.292571,"lon":5.409107,"is_reserved":false,"is_disabled":false,"rental_uris":{"android":"levelo://app?vid=4a400af1-4fdc-4363-8807-f1cd41f2688a","ios":"levelo://app?vid=4a400af1-4fdc-4363-8807-f1cd41f2688a"},"vehicle_type_id":"4","last_reported":1706292537,"current_range_meters":6400,"station_id":"ce4bh192rcd13ifvqdc0","pricing_plan_id":"free"},{"bike_id":"eee9e160-6bf9-4601-aee1-cc4dc017f053","system_id":"levelo_inurba_marseille","lat":43.27618,"lon":5.361009,"is_reserved":false,"is_disabled":false,"rental_uris":{"android":"levelo://app?vid=eee9e160-6bf9-4601-aee1-cc4dc017f053","ios":"levelo://app?vid=eee9e160-6bf9-4601-aee1-cc4dc017f053"},"vehicle_type_id":"4","last_reported":1706292537,"current_range_meters":27600,"station_id":"ce4bgj92rcd13ifvqbe0","pricing_plan_id":"free"},{"bike_id":"c48a1c75-47d6-415a-b335-d07a5f367593","system_id":"levelo_inurba_marseille","lat":43.27623,"lon":5.36109,"is_reserved":false,"is_disabled":false,"rental_uris":{"android":"levelo://app?vid=c48a1c75-47d6-415a-b335-d07a5f367593","ios":"levelo://app?vid=c48a1c75-47d6-415a-b335-d07a5f367593"},"vehicle_type_id":"4","last_reported":1706292537,"current_range_meters":12800,"station_id":"ce4bgj92rcd13ifvqbe0","pricing_plan_id":"free"},{"bike_id":"338041fe-dce8-4c25-9c14-04aba8afa7bb","system_id":"levelo_inurba_marseille","lat":43.276179,"lon":5.361009,"is_reserved":false,"is_disabled":false,"rental_uris":{"android":"levelo://app?vid=338041fe-dce8-4c25-9c14-04aba8afa7bb","ios":"levelo://app?vid=338041fe-dce8-4c25-9c14-04aba8afa7bb"},"vehicle_type_id":"4","last_reported":1706292537,"current_range_meters":23200,"station_id":"ce4bgj92rcd13ifvqbe0","pricing_plan_id":"free"},{"bike_id":"652b7ae3-fda2-43e8-866b-471abf010202","system_id":"levelo_inurba_marseille","lat":43.280784,"lon":5.396622,"is_reserved":false,"is_disabled":false,"rental_uris":{"android":"levelo://app?vid=652b7ae3-fda2-43e8-866b-471abf010202","ios":"levelo://app?vid=652b7ae3-fda2-43e8-866b-471abf010202"},"vehicle_type_id":"4","last_reported":1706292537,"current_range_meters":27200,"station_id":"ce4bho12rcd13ifvqh2g","pricing_plan_id":"free"},{"bike_id":"5ebf2ae7-54f3-4862-bd0b-56fee985c5a4","system_id":"levelo_inurba_marseille","lat":43.2808,"lon":5.39662,"is_reserved":false,"is_disabled":false,"rental_uris":{"android":"levelo://app?vid=5ebf2ae7-54f3-4862-bd0b-56fee985c5a4","ios":"levelo://app?vid=5ebf2ae7-54f3-4862-bd0b-56fee985c5a4"},"vehicle_type_id":"4","last_reported":1706292537,"current_range_meters":12800,"station_id":"ce4bho12rcd13ifvqh2g","pricing_plan_id":"free"},{"bike_id":"74602fb5-5efe-4aca-a93c-7ab4807668a0","system_id":"levelo_inurba_marseille","lat":43.280784,"lon":5.396622,"is_reserved":false,"is_disabled":false,"rental_uris":{"android":"levelo://app?vid=74602fb5-5efe-4aca-a93c-7ab4807668a0","ios":"levelo://app?vid=74602fb5-5efe-4aca-a93c-7ab4807668a0"},"vehicle_type_id":"4","last_reported":1706292537,"current_range_meters":0,"station_id":"ce4bho12rcd13ifvqh2g","pricing_plan_id":"free"},{"bike_id":"abba452c-1c76-443c-b897-fae9d60f9dfc","system_id":"levelo_inurba_marseille","lat":43.280784,"lon":5.396622,"is_reserved":false,"is_disabled":false,"rental_uris":{"android":"levelo://app?vid=abba452c-1c76-443c-b897-fae9d60f9dfc","ios":"levelo://app?vid=abba452c-1c76-443c-b897-fae9d60f9dfc"},"vehicle_type_id":"4","last_reported":1706292537,"current_range_meters":20000,"station_id":"ce4bho12rcd13ifvqh2g","pricing_plan_id":"free"},{"bike_id":"e6657332-b483-496e-9a16-01e65f0d7d6e","system_id":"levelo_inurba_marseille","lat":43.280784,"lon":5.396622,"is_reserved":false,"is_disabled":false,"rental_uris":{"android":"levelo://app?vid=e6657332-b483-496e-9a16-01e65f0d7d6e","ios":"levelo://app?vid=e6657332-b483-496e-9a16-01e65f0d7d6e"},"vehicle_type_id":"4","last_reported":1706292537,"current_range_meters":30000,"station_id":"ce4bho12rcd13ifvqh2g","pricing_plan_id":"free"},{"bike_id":"be3bba80-f39d-44dd-9a4d-36ee6752f4fc","system_id":"levelo_inurba_marseille","lat":43.276771,"lon":5.388799,"is_reserved":false,"is_disabled":false,"rental_uris":{"android":"levelo://app?vid=be3bba80-f39d-44dd-9a4d-36ee6752f4fc","ios":"levelo://app?vid=be3bba80-f39d-44dd-9a4d-36ee6752f4fc"},"vehicle_type_id":"4","last_reported":1706292537,"current_range_meters":13600,"station_id":"ce4bhi12rcd13ifvqfo0","pricing_plan_id":"free"},{"bike_id":"e6861266-f227-4126-a6db-053dfae918bc","system_id":"levelo_inurba_marseille","lat":43.276771,"lon":5.388799,"is_reserved":false,"is_disabled":false,"rental_uris":{"android":"levelo://app?vid=e6861266-f227-4126-a6db-053dfae918bc","ios":"levelo://app?vid=e6861266-f227-4126-a6db-053dfae918bc"},"vehicle_type_id":"4","last_reported":1706292537,"current_range_meters":0,"station_id":"ce4bhi12rcd13ifvqfo0","pricing_plan_id":"free"},{"bike_id":"bf9e602f-cc80-4c70-b96b-2b0ba9f6a734","system_id":"levelo_inurba_marseille","lat":43.276256,"lon":5.391567,"is_reserved":false,"is_disabled":false,"rental_uris":{"android":"levelo://app?vid=bf9e602f-cc80-4c70-b96b-2b0ba9f6a734","ios":"levelo://app?vid=bf9e602f-cc80-4c70-b96b-2b0ba9f6a734"},"vehicle_type_id":"4","last_reported":1706292537,"current_range_meters":4000,"station_id":"","pricing_plan_id":"free"},{"bike_id":"6f46a34b-d5d1-4592-8607-98eec5146735","system_id":"levelo_inurba_marseille","lat":43.283748,"lon":5.407104,"is_reserved":false,"is_disabled":false,"rental_uris":{"android":"levelo://app?vid=6f46a34b-d5d1-4592-8607-98eec5146735","ios":"levelo://app?vid=6f46a34b-d5d1-4592-8607-98eec5146735"},"vehicle_type_id":"4","last_reported":1706292537,"current_range_meters":10800,"station_id":"","pricing_plan_id":"free"},{"bike_id":"d38e4d99-a1b5-49f8-a405-58a2449658bc","system_id":"levelo_inurba_marseille","lat":43.317121,"lon":5.423936,"is_reserved":false,"is_disabled":false,"rental_uris":{"android":"levelo://app?vid=d38e4d99-a1b5-49f8-a405-58a2449658bc","ios":"levelo://app?vid=d38e4d99-a1b5-49f8-a405-58a2449658bc"},"vehicle_type_id":"4","last_reported":1706292537,"current_range_meters":27200,"station_id":"ce4bhp92rcd13ifvqhbg","pricing_plan_id":"free"},