{"last_updated":1730660804,"ttl":60,"version":"2.2","data":{"bikes":[{"bike_id":"daa5500f-6039-4d77-bf02-00710b3acec6","system_id":"levelo_inurba_marseille","lat":43.2593,"lon":5.40909,"is_reserved":false,"is_disabled":false,"rental_uris":{"android":"levelo://app?vid=daa5500f-6039-4d77-bf02-00710b3acec6","ios":"levelo://app?vid=daa5500f-6039-4d77-bf02-00710b3acec6"},"vehicle_type_id":"4","last_reported":1730660805,"current_range_meters":3200,"station_id":"ce4bhm92rcd13ifvqglg","pricing_plan_id":"cebpf4jnsgd1na2vs0mg"},{"bike_id":"18db7a38-fb1c-4f2b-a7d3-41ca5532cc0b","system_id":"levelo_inurba_marseille","lat":43.32333,"lon":5.40622,"is_reserved":false,"is_disabled":false,"rental_uris":{"android":"levelo://app?vid=18db7a38-fb1c-4f2b-a7d3-41ca5532cc0b","ios":"levelo://app?vid=18db7a38-fb1c-4f2b-a7d3-41ca5532cc0b"},"vehicle_type_id":"4","last_reported":1730660805,"current_range_meters":17200,"station_id":"ce4bhq92rcd13ifvqhjg","pricing_plan_id":"cebpf4jnsgd1na2vs0mg"},{"bike_id":"9a615e3b-e7c3-4a82-9ab2-1b5377f93530","system_id":"levelo_inurba_marseille","lat":43.30244,"lon":5.40063,"is_reserved":false,"is_disabled":false,"rental_uris":{"android":"levelo://app?vid=9a615e3b-e7c3-4a82-9ab2-1b5377f93530","ios":"levelo://app?vid=9a615e3b-e7c3-4a82-9ab2-1b5377f93530"},"vehicle_type_id":"4","last_reported":1730660805,"current_range_meters":6000,"station_id":"ce4bgvh2rcd13ifvqcs0","pricing_plan_id":"cebpf4jnsgd1na2vs0mg"},{"bike_id":"d00abb61-0e57-498d-9b2a-8beda63b6fef","system_id":"levelo_inurba_marseille","lat":43.30887,"lon":5.39636,"is_reserved":false,"is_disabled":false,"rental_uris":{"android":"levelo://app?vid=d00abb61-0e57-498d-9b2a-8beda63b6fef","ios":"levelo://app?vid=d00abb61-0e57-498d-9b2a-8beda63b6fef"},"vehicle_type_id":"4","last_reported":1730660805,"current_range_meters":6800,"station_id":"ce4bh012rcd13ifvqcv0","pricing_plan_id":"cebpf4jnsgd1na2vs0mg"},{"bike_id":"d4f7932b-d761-4326-9cff-9c82279d5a46","system_id":"levelo_inurba_marseille","lat":43.27428,"lon":5.39413,"is_reserved":false,"is_disabled":false,"rental_uris":{"android":"levelo://app?vid=d4f7932b-d761-4326-9cff-9c82279d5a46","ios":"levelo://app?vid=d4f7932b-d761-4326-9cff-9c82279d5a46"},"vehicle_type_id":"4","last_reported":1730660805,"current_range_meters":3600,"station_id":"ce4bhdp2rcd13ifvqf20","pricing_plan_id":"cebpf4jnsgd1na2vs0mg"},{"bike_id":"05f17640-6436-445c-b92c-2c9098755b3c","system_id":"levelo_inurba_marseille","lat":43.29527,"lon":5.39399,"is_reserved":false,"is_disabled":false,"rental_uris":{"android":"levelo://app?vid=05f17640-6436-445c-b92c-2c9098755b3c","ios":"levelo://app?vid=05f17640-6436-445c-b92c-2c9098755b3c"},"vehicle_type_id":"4","last_reported":1730660805,"current_range_meters":39200,"station_id":"ce4bh292rcd13ifvqdf0","pricing_plan_id":"cebpf4jnsgd1na2vs0mg"},{"bike_id":"1400481a-d64a-45f2-94ac-6b422dab62e4","system_id":"levelo_inurba_marseille","lat":43.31327,"lon":5.39691,"is_reserved":false,"is_disabled":false,"rental_uris":{"android":"levelo://app?vid=1400481a-d64a-45f2-94ac-6b422dab62e4","ios":"levelo://app?vid=1400481a-d64a-45f2-94ac-6b422dab62e4"},"vehicle_type_id":"4","last_reported":1730660805,"current_range_meters":25600,"station_id":"ce4bgvp2rcd13ifvqcu0","pricing_plan_id":"cebpf4jnsgd1na2vs0mg"},{"bike_id":"9d5fc77e-59e2-4127-846a-378ae977d1e0","system_id":"levelo_inurba_marseille","lat":43.26203,"lon":5.37933,"is_reserved":false,"is_disabled":false,"rental_uris":{"android":"levelo://app?vid=9d5fc77e-59e2-4127-846a-378ae977d1e0","ios":"levelo://app?vid=9d5fc77e-59e2-4127-846a-378ae977d1e0"},"vehicle_type_id":"4","last_reported":1730660805,"current_range_meters":10000,"station_id":"ce4bhjp2rcd13ifvqg90","pricing_plan_id":"cebpf4jnsgd1na2vs0mg"},{"bike_id":"335ac84a-5a41-4290-a1e1-938f958a16d7","system_id":"levelo_inurba_marseille","lat":43.29907,"lon":5.38159,"is_reserved":false,"is_disabled":false,"rental_uris":{"android":"levelo://app?vid=335ac84a-5a41-4290-a1e1-938f958a16d7","ios":"levelo://app?vid=335ac84a-5a41-4290-a1e1-938f958a16d7"},"vehicle_type_id":"4","last_reported":1730660805,"current_range_meters":38800,"station_id":"ce4bgj12rcd13ifvqbc0","pricing_plan_id":"cebpf4jnsgd1na2vs0mg"},{"bike_id":"fcd81767-2dc7-4408-b5a4-0eadcf4a175a","system_id":"levelo_inurba_marseille","lat":43.31752,"lon":5.39019,"is_reserved":false,"is_disabled":false,"rental_uris":{"android":"levelo://app?vid=fcd81767-2dc7-4408-b5a4-0eadcf4a175a","ios":"levelo://app?vid=fcd81767-2dc7-4408-b5a4-0eadcf4a175a"},"vehicle_type_id":"4","last_reported":1730660805,"current_range_meters":37600,"station_id":"ce4bhqp2rcd13ifvqhng","pricing_plan_id":"cebpf4jnsgd1na2vs0mg"},{"bike_id":"81d1c194-0516-406b-b677-dd793bc00738","system_id":"levelo_inurba_marseille","lat":43.279981,"lon":5.387038,"is_reserved":false,"is_disabled":false,"rental_uris":{"android":"levelo://app?vid=81d1c194-0516-406b-b677-dd793bc00738","ios":"levelo://app?vid=81d1c194-0516-406b-b677-dd793bc00738"},"vehicle_type_id":"4","last_reported":1730660805,"current_range_meters":36000,"station_id":"ce4bhg12rcd13ifvqf80","pricing_plan_id":"cebpf4jnsgd1na2vs0mg"},{"bike_id":"73564a58-50d3-4fe7-bbd0-7a67bc1c49bc","system_id":"levelo_inurba_marseille","lat":43.30588,"lon":5.39352,"is_reserved":false,"is_disabled":false,"rental_uris":{"android":"levelo://app?vid=73564a58-50d3-4fe7-bbd0-7a67bc1c49bc","ios":"levelo://app?vid=73564a58-50d3-4fe7-bbd0-7a67bc1c49bc"},"vehicle_type_id":"4","last_reported":1730660805,"current_range_meters":30400,"station_id":"ce4bh0p2rcd13ifvqd80","pricing_plan_id":"cebpf4jnsgd1na2vs0mg"},{"bike_id":"f000d6ee-3311-4e0f-8f93-4332274a3604","system_id":"levelo_inurba_marseille","lat":43.25829,"lon":5.39435,"is_reserved":false,"is_disabled":false,"rental_uris":{"android":"levelo://app?vid=f000d6ee-3311-4e0f-8f93-4332274a3604","ios":"levelo://app?vid=f000d6ee-3311-4e0f-8f93-4332274a3604"},"vehicle_type_id":"4","last_reported":1730660805,"current_range_meters":38800,"station_id":"ce4bhip2rcd13ifvqft0","pricing_plan_id":"cebpf4jnsgd1na2vs0mg"},{"bike_id":"4768815f-047c-4d84-91a7-0181960d96a5","system_id":"levelo_inurba_marseille","lat":43.26504,"lon":5.3952,"is_reserved":false,"is_disabled":false,"rental_uris":{"android":"levelo://app?vid=4768815f-047c-4d84-91a7-0181960d96a5","ios":"levelo://app?vid=4768815f-047c-4d84-91a7-0181960d96a5"},"vehicle_type_id":"4","last_reported":1730660805,"current_range_meters":25200,"station_id":"ce4bhi12rcd13ifvqfq0","pricing_plan_id":"cebpf4jnsgd1na2vs0mg"},{"bike_id":"38e520d4-7fa0-4038-8595-0c1445c11904","system_id":"levelo_inurba_marseille","lat":43.28044,"lon":5.36947,"is_reserved":false,"is_disabled":false,"rental_uris":{"android":"levelo://app?vid=38e520d4-7fa0-4038-8595-0c1445c11904","ios":"levelo://app?vid=38e520d4-7fa0-4038-8595-0c1445c11904"},"vehicle_type_id":"4","last_reported":1730660805,"current_range_meters":38800,"station_id":"ce4bha12rcd13ifvqef0","pricing_plan_id":"cebpf4jnsgd1na2vs0mg"},{"bike_id":"e4935a4c-15a1-4229-8d0d-7012e6200225","system_id":"levelo_inurba_marseille","lat":43.2919,"lon":5.39308,"is_reserved":false,"is_disabled":false,"rental_uris":{"android":"levelo://app?vid=e4935a4c-15a1-4229-8d0d-7012e6200225","ios":"levelo://app?vid=e4935a4c-15a1-4229-8d0d-7012e6200225"},"vehicle_type_id":"4","last_reported":1730660805,"current_range_meters":38800,"station_id":"ce4bh192rcd13ifvqdd0","pricing_plan_id":"cebpf4jnsgd1na2vs0mg"},{"bike_id":"98976bc5-0c3c-4b6a-a85c-7ad74b2e8072","system_id":"levelo_inurba_marseille","lat":43.30806,"lon":5.43522,"is_reserved":false,"is_disabled":false,"rental_uris":{"android":"levelo://app?vid=98976bc5-0c3c-4b6a-a85c-7ad74b2e8072","ios":"levelo://app?vid=98976bc5-0c3c-4b6a-a85c-7ad74b2e8072"},"vehicle_type_id":"4","last_reported":1730660805,"current_range_meters":19200,"station_id":"ce4bhph2rcd13ifvqheg","pricing_plan_id":"cebpf4jnsgd1na2vs0mg"},{"bike_id":"4147bbfb-4b14-4aca-b782-8ec6c0473609","system_id":"levelo_inurba_marseille","lat":43.23595,"lon":5.40342,"is_reserved":false,"is_disabled":false,"rental_uris":{"android":"levelo://app?vid=4147bbfb-4b14-4aca-b782-8ec6c0473609","ios":"levelo://app?vid=4147bbfb-4b14-4aca-b782-8ec6c0473609"},"vehicle_type_id":"4","last_reported":1730660805,"current_range_meters":19600,"station_id":"","pricing_plan_id":"cebpf4jnsgd1na2vs0mg"},{"bike_id":"2a78e404-128a-4fff-84d1-89d532224248","system_id":"levelo_inurba_marseille","lat":43.29966,"lon":5.38492,"is_reserved":false,"is_disabled":false,"rental_uris":{"android":"levelo://app?vid=2a78e404-128a-4fff-84d1-89d532224248","ios":"levelo://app?vid=2a78e404-128a-4fff-84d1-89d532224248"},"vehicle_type_id":"4","last_reported":1730660805,"current_range_meters":23200,"station_id":"ce4bgj92rcd13ifvqbd0","pricing_plan_id":"cebpf4jnsgd1na2vs0mg"},{"bike_id":"a9f0882a-f4d3-4f85-bb0f-d1965916bd82","system_id":"levelo_inurba_marseille","lat":43.26785,"lon":5.39415,"is_reserved":false,"is_disabled":false,"rental_uris":{"android":"levelo://app?vid=a9f0882a-f4d3-4f85-bb0f-d1965916bd82","ios":"levelo://app?vid=a9f0882a-f4d3-4f85-bb0f-d1965916bd82"},"vehicle_type_id":"4","last_reported":1730660805,"current_range_meters":24800,"station_id":"ce4bhh12rcd13ifvqfg0","pricing_plan_id":"cebpf4jnsgd1na2vs0mg"},{"bike_id":"9dd3d6c1-367f-4e32-b633-8de533a5174e","system_id":"levelo_inurba_marseille","lat":43.286683,"lon":5.386598,"is_reserved":false,"is_disabled":false,"rental_uris":{"android":"levelo://app?vid=9dd3d6c1-367f-4e32-b633-8de533a5174e","ios":"levelo://app?vid=9dd3d6c1-367f-4e32-b633-8de533a5174e"},"vehicle_type_id":"4","last_reported":1730660805,"current_range_meters":8800,"station_id":"ce4bh492rcd13ifvqdug","pricing_plan_id":"cebpf4jnsgd1na2vs0mg"},{"bike_id":"5f993f24-ad6f-4936-8a14-5afdc8240df5","system_id":"levelo_inurba_marseille","lat":43.30884,"lon":5.39651,"is_reserved":false,"is_disabled":false,"rental_uris":{"android":"levelo://app?vid=5f993f24-ad6f-4936-8a14-5afdc8240df5","ios":"levelo://app?vid=5f993f24-ad6f-4936-8a14-5afdc8240df5"},"vehicle_type_id":"4","last_reported":1730660805,"current_range_meters":4000,"station_id":"ce4bh012rcd13ifvqcv0","pricing_plan_id":"cebpf4jnsgd1na2vs0mg"},{"bike_id":"76940c13-6521-40d1-bc73-f187fb7d05c6","system_id":"levelo_inurba_marseille","lat":43.2953,"lon":5.39402,"is_reserved":false,"is_disabled":false,"rental_uris":{"android":"levelo://app?vid=76940c13-6521-40d1-bc73-f187fb7d05c6","ios":"levelo://app?vid=76940c13-6521-40d1-bc73-f187fb7d05c6"},"vehicle_type_id":"4","last_reported":1730660805,"current_range_meters":27600,"station_id":"ce4bh292rcd13ifvqdf0","pricing_plan_id":"cebpf4jnsgd1na2vs0mg"},{"bike_id":"dd071318-c8fe-415f-b4d0-4ce09a7bc0f1","system_id":"levelo_inurba_marseille","lat":43.284821,"lon":5.38429,"is_reserved":false,"is_disabled":false,"rental_uris":{"android":"levelo://app?vid=dd071318-c8fe-415f-b4d0-4ce09a7bc0f1","ios":"levelo://app?vid=dd071318-c8fe-415f-b4d0-4ce09a7bc0f1"},"vehicle_type_id":"4","last_reported":1730660805,"current_range_meters":3200,"station_id":"ce4bh512rcd13ifvqe3g","pricing_plan_id":"cebpf4jnsgd1na2vs0mg"},{"bike_id":"ec729776-16d4-4859-addc-2ac294c942b4","system_id":"levelo_inurba_marseille","lat":43.28937,"lon":5.36425,"is_reserved":false,"is_disabled":false,"rental_uris":{"android":"levelo://app?vid=ec729776-16d4-4859-addc-2ac294c942b4","ios":"levelo://app?vid=ec729776-16d4-4859-addc-2ac294c942b4"},"vehicle_type_id":"4","last_reported":1730660805,"current_range_meters":27600,"station_id":"ce4bhc92rcd13ifvqetg","pricing_plan_id":"cebpf4jnsgd1na2vs0mg"},{"bike_id":"7a58bdc6-5db2-4543-b33d-6202d289b688","system_id":"levelo_inurba_marseille","lat":43.33731,"lon":5.39186,"is_reserved":false,"is_disabled":false,"rental_uris":{"android":"levelo://app?vid=7a58bdc6-5db2-4543-b33d-6202d289b688","ios":"levelo://app?vid=7a58bdc6-5db2-4543-b33d-6202d289b688"},"vehicle_type_id":"4","last_reported":1730660805,"current_range_meters":27600,"station_id":"ce4bhr92rcd13ifvqhsg","pricing_plan_id":"cebpf4jnsgd1na2vs0mg"},{"bike_id":"199d375f-a68b-4b66-abb5-ba773fd75a7c","system_id":"levelo_inurba_marseille","lat":43.31689,"lon":5.40476,"is_reserved":false,"is_disabled":false,"rental_uris":{"android":"levelo://app?vid=199d375f-a68b-4b66-abb5-ba773fd75a7c","ios":"levelo://app?vid=199d375f-a68b-4b66-abb5-ba773fd75a7c"},"vehicle_type_id":"4","last_reported":1730660805,"current_range_meters":38000,"station_id":"ce4bh012rcd13ifvqd00","pricing_plan_id":"cebpf4jnsgd1na2vs0mg"},{"bike_id":"a97cfedd-c043-4ea5-abc7-375457ef1b7e","system_id":"levelo_inurba_marseille","lat":43.30551,"lon":5.36525,"is_reserved":false,"is_disabled":false,"rental_uris":{"android":"levelo://app?vid=a97cfedd-c043-4ea5-abc7-375457ef1b7e","ios":"levelo://app?vid=a97cfedd-c043-4ea5-abc7-375457ef1b7e"},"vehicle_type_id":"4","last_reported":1730660805,"current_range_meters":28000,"station_id":"ce4bgs12rcd13ifvqcag","pricing_plan_id":"cebpf4jnsgd1na2vs0mg"},{"bike_id":"2cd56a2d-f653-4ab2-89dd-fbeeed72ff62","system_id":"levelo_inurba_marseille","lat":43.29563,"lon":5.37431,"is_reserved":false,"is_disabled":false,"rental_uris":{"android":"levelo://app?vid=2cd56a2d-f653-4ab2-89dd-fbeeed72ff62","ios":"levelo://app?vid=2cd56a2d-f653-4ab2-89dd-fbeeed72ff62"},"vehicle_type_id":"4","last_reported":1730660805,"current_range_meters":11200,"station_id":"ce4bgkp2rcd13ifvqbmg","pricing_plan_id":"cebpf4jnsgd1na2vs0mg"},{"bike_id":"baea6945-ac3f-4195-a6a4-4b887db0844f","system_id":"levelo_inurba_marseille","lat":43.27074,"lon":5.42288,"is_reserved":false,"is_disabled":false,"rental_uris":{"android":"levelo://app?vid=baea6945-ac3f-4195-a6a4-4b887db0844f","ios":"levelo://app?vid=baea6945-ac3f-4195-a6a4-4b887db0844f"},"vehicle_type_id":"4","last_reported":1730660805,"current_range_meters":35600,"station_id":"ce4bhk92rcd13ifvqgb0","pricing_plan_id":"cebpf4jnsgd1na2vs0mg"},{"bike_id":"598535da-1e32-42e0-bd65-4ba25549dd70","system_id":"levelo_inurba_marseille","lat":43.31446,"lon":5.37368,"is_reserved":false,"is_disabled":false,"rental_uris":{"android":"levelo://app?vid=598535da-1e32-42e0-bd65-4ba25549dd70","ios":"levelo://app?vid=598535da-1e32-42e0-bd65-4ba25549dd70"},"vehicle_type_id":"4","last_reported":1730660805,"current_range_meters":28800,"station_id":"","pricing_plan_id":"cebpf4jnsgd1na2vs0mg"},{"bike_id":"2378f453-72a7-4eb2-ab3b-946285d406fd","system_id":"levelo_inurba_marseille","lat":43.29228,"lon":5.37729,"is_reserved":false,"is_disabled":false,"rental_uris":{"android":"levelo://app?vid=2378f453-72a7-4eb2-ab3b-946285d406fd","ios":"levelo://app?vid=2378f453-72a7-4eb2-ab3b-946285d406fd"},"vehicle_type_id":"4","last_reported":1730660805,"current_range_meters":11600,"station_id":"ce4bgi12rcd13ifvqb70","pricing_plan_id":"cebpf4jnsgd1na2vs0mg"},{"bike_id":"69c5828b-16b5-4e21-9a89-eb78828b437f","system_id":"levelo_inurba_marseille","lat":43.27074,"lon":5.42281,"is_reserved":false,"is_disabled":false,"rental_uris":{"android":"levelo://app?vid=69c5828b-16b5-4e21-9a89-eb78828b437f","ios":"levelo://app?vid=69c5828b-16b5-4e21-9a89-eb78828b437f"},"vehicle_type_id":"4","last_reported":1730660805,"current_range_meters":3600,"station_id":"ce4bhk92rcd13ifvqgb0","pricing_plan_id":"cebpf4jnsgd1na2vs0mg"},{"bike_id":"45e37847-060c-4fbe-958a-f63e7f57fa30","system_id":"levelo_inurba_marseille","lat":43.27069,"lon":5.42277,"is_reserved":false,"is_disabled":false,"rental_uris":{"android":"levelo://app?vid=45e37847-060c-4fbe-958a-f63e7f57fa30","ios":"levelo://app?vid=45e37847-060c-4fbe-958a-f63e7f57fa30"},"vehicle_type_id":"4","last_reported":1730660805,"current_range_meters":23200,"station_id":"ce4bhk92rcd13ifvqgb0","pricing_plan_id":"cebpf4jnsgd1na2vs0mg"},{"bike_id":"9f223478-460e-4c61-b4f2-20e23bd73f46","system_id":"levelo_inurba_marseille","lat":43.29516,"lon":5.39408,"is_reserved":false,"is_disabled":false,"rental_uris":{"android":"levelo://app?vid=9f223478-460e-4c61-b4f2-20e23bd73f46","ios":"levelo://app?vid=9f223478-460e-4c61-b4f2-20e23bd73f46"},"vehicle_type_id":"4","last_reported":1730660805,"current_range_meters":38800,"station_id":"ce4bh292rcd13ifvqdf0","pricing_plan_id":"cebpf4jnsgd1na2vs0mg"},{"bike_id":"dfb6bdc8-3b76-4d15-b523-dcb00b192aa7","system_id":"levelo_inurba_marseille","lat":43.306088,"lon":5.372248,"is_reserved":false,"is_disabled":false,"rental_uris":{"android":"levelo://app?vid=dfb6bdc8-3b76-4d15-b523-dcb00b192aa7","ios":"levelo://app?vid=dfb6bdc8-3b76-4d15-b523-dcb00b192aa7"},"vehicle_type_id":"4","last_reported":1730660805,"current_range_meters":39200,"station_id":"ce4bgqh2rcd13ifvqc4g","pricing_plan_id":"cebpf4jnsgd1na2vs0mg"},{"bike_id":"c89ab191-b07a-439c-a401-b85e67263211","system_id":"levelo_inurba_marseille","lat":43.28934,"lon":5.38395,"is_reserved":false,"is_disabled":false,"rental_uris":{"android":"levelo://app?vid=c89ab191-b07a-439c-a401-b85e67263211","ios":"levelo://app?vid=c89ab191-b07a-439c-a401-b85e67263211"},"vehicle_type_id":"4","last_reported":1730660805,"current_range_meters":17200,"station_id":"ce4bh612rcd13ifvqe6g","pricing_plan_id":"cebpf4jnsgd1na2vs0mg"},{"bike_id":"55603d25-8b6a-4771-af0b-e6841991a4e8","system_id":"levelo_inurba_marseille","lat":43.2952,"lon":5.39406,"is_reserved":false,"is_disabled":false,"rental_uris":{"android":"levelo://app?vid=55603d25-8b6a-4771-af0b-e6841991a4e8","ios":"levelo://app?vid=55603d25-8b6a-4771-af0b-e6841991a4e8"},"vehicle_type_id":"4","last_reported":1730660805,"current_range_meters":38800,"station_id":"ce4bh292rcd13ifvqdf0","pricing_plan_id":"cebpf4jnsgd1na2vs0mg"},{"bike_id":"91ad071b-a3c1-48d6-baa7-bca5cff88e98","system_id":"levelo_inurba_marseille","lat":43.29513,"lon":5.39401,"is_reserved":false,"is_disabled":false,"rental_uris":{"android":"levelo://app?vid=91ad071b-a3c1-48d6-baa7-bca5cff88e98","ios":"levelo://app?vid=91ad071b-a3c1-48d6-baa7-bca5cff88e98"},"vehicle_type_id":"4","last_reported":1730660805,"current_range_meters":8000,"station_id":"ce4bh292rcd13ifvqdf0","pricing_plan_id":"cebpf4jnsgd1na2vs0mg"},{"bike_id":"3ec0f5df-fffc-4b05-b5a2-1220713e4a41","system_id":"levelo_inurba_marseille","lat":43.28459,"lon":5.35891,"is_reserved":false,"is_disabled":false,"rental_uris":{"android":"levelo://app?vid=3ec0f5df-fffc-4b05-b5a2-1220713e4a41","ios":"levelo://app?vid=3ec0f5df-fffc-4b05-b5a2-1220713e4a41"},"vehicle_type_id":"4","last_reported":1730660805,"current_range_meters":20000,"station_id":"ce4bhah2rcd13ifvqei0","pricing_plan_id":"cebpf4jnsgd1na2vs0mg"},{"bike_id":"a90da372-14a2-4c12-9544-f51bf7459731","system_id":"levelo_inurba_marseille","lat":43.30261,"lon":5.40076,"is_reserved":false,"is_disabled":false,"rental_uris":{"android":"levelo://app?vid=a90da372-14a2-4c12-9544-f51bf7459731","ios":"levelo://app?vid=a90da372-14a2-4c12-9544-f51bf7459731"},"vehicle_type_id":"4","last_reported":1730660805,"current_range_meters":6400,"station_id":"ce4bgvh2rcd13ifvqcs0","pricing_plan_id":"cebpf4jnsgd1na2vs0mg"},{"bike_id":"6ed71df9-9717-4ae2-92c9-2a4bddd7b946","system_id":"levelo_inurba_marseille","lat":43.33605,"lon":5.41026,"is_reserved":false,"is_disabled":false,"rental_uris":{"android":"levelo://app?vid=6ed71df9-9717-4ae2-92c9-2a4bddd7b946","ios":"levelo://app?vid=6ed71df9-9717-4ae2-92c9-2a4bddd7b946"},"vehicle_type_id":"4","last_reported":1730660805,"current_range_meters":23200,"station_id":"ce4bhqh2rcd13ifvqhmg","pricing_plan_id":"cebpf4jnsgd1na2vs0mg"},{"bike_id":"31e8f71b-a670-474a-a1c8-071c59dd8a5b","system_id":"levelo_inurba_marseille","lat":43.29528,"lon":5.38545,"is_reserved":false,"is_disabled":false,"rental_uris":{"android":"levelo://app?vid=31e8f71b-a670-474a-a1c8-071c59dd8a5b","ios":"levelo://app?vid=31e8f71b-a670-474a-a1c8-071c59dd8a5b"},"vehicle_type_id":"4","last_reported":1730660805,"current_range_meters":40000,"station_id":"ce4bgih2rcd13ifvqba0","pricing_plan_id":"cebpf4jnsgd1na2vs0mg"},{"bike_id":"d1af7a2a-0762-4343-aa8f-fd770f24ddcc","system_id":"levelo_inurba_marseille","lat":43.293,"lon":5.37458,"is_reserved":false,"is_disabled":false,"rental_uris":{"android":"levelo://app?vid=d1af7a2a-0762-4343-aa8f-fd770f24ddcc","ios":"levelo://app?vid=d1af7a2a-0762-4343-aa8f-fd770f24ddcc"},"vehicle_type_id":"4","last_reported":1730660805,"current_range_meters":30000,"station_id":"ce4bgi12rcd13ifvqb70","pricing_plan_id":"cebpf4jnsgd1na2vs0mg"},{"bike_id":"8229af62-ad26-44e9-9aed-4dd0393c2f83","system_id":"levelo_inurba_marseille","lat":43.27989,"lon":5.40017,"is_reserved":false,"is_disabled":false,"rental_uris":{"android":"levelo://app?vid=8229af62-ad26-44e9-9aed-4dd0393c2f83","ios":"levelo://app?vid=8229af62-ad26-44e9-9aed-4dd0393c2f83"},"vehicle_type_id":"4","last_reported":1730660805,"current_range_meters":36000,"station_id":"ce4bho92rcd13ifvqh4g","pricing_plan_id":"cebpf4jnsgd1na2vs0mg"},{"bike_id":"0faac5af-20ff-4795-8d2d-ad760a828a47","system_id":"levelo_inurba_marseille","lat":43.28099,"lon":5.37855,"is_reserved":false,"is_disabled":false,"rental_uris":{"android":"levelo://app?vid=0faac5af-20ff-4795-8d2d-ad760a828a47","ios":"levelo://app?vid=0faac5af-20ff-4795-8d2d-ad760a828a47"},"vehicle_type_id":"4","last_reported":1730660805,"current_range_meters":17200,"station_id":"ce4bha12rcd13ifvqee0","pricing_plan_id":"cebpf4jnsgd1na2vs0mg"},{"bike_id":"75576e24-6890-4288-9aa5-db2804891d6f","system_id":"levelo_inurba_marseille","lat":43.26954,"lon":5.40249,"is_reserved":false,"is_disabled":false,"rental_uris":{"android":"levelo://app?vid=75576e24-6890-4288-9aa5-db2804891d6f","ios":"levelo://app?vid=75576e24-6890-4288-9aa5-db2804891d6f"},"vehicle_type_id":"4","last_reported":1730660805,"current_range_meters":37600,"station_id":"cjm6bp8fraef2m0cb0m0","pricing_plan_id":"cebpf4jnsgd1na2vs0mg"},{"bike_id":"54337fac-085e-4782-bad6-db9a84abd2e2","system_id":"levelo_inurba_marseille","lat":43.31696,"lon":5.37751,"is_reserved":false,"is_disabled":false,"rental_uris":{"android":"levelo://app?vid=54337fac-085e-4782-bad6-db9a84abd2e2","ios":"levelo://app?vid=54337fac-085e-4782-bad6-db9a84abd2e2"},"vehicle_type_id":"4","last_reported":1730660805,"current_range_meters":38800,"station_id":"ce4bgth2rcd13ifvqch0","pricing_plan_id":"cebpf4jnsgd1na2vs0mg"},{"bike_id":"2c0bdc3a-0f76-4dc6-98d1-9338f395246d","system_id":"levelo_inurba_marseille","lat":43.31073,"lon":5.38353,"is_reserved":false,"is_disabled":false,"rental_uris":{"android":"levelo://app?vid=2c0bdc3a-0f76-4dc6-98d1-9338f395246d","ios":"levelo://app?vid=2c0bdc3a-0f76-4dc6-98d1-9338f395246d"},"vehicle_type_id":"4","last_reported":1730660805,"current_range_meters":38800,"station_id":"ce4bgv92rcd13ifvqcr0","pricing_plan_id":"cebpf4jnsgd1na2vs0mg"},{"bike_id":"8f8f070d-0722-488f-9748-c83a5ac6431c","system_id":"levelo_inurba_marseille","lat":43.29164,"lon":5.37152,"is_reserved":false,"is_disabled":false,"rental_uris":{"android":"levelo://app?vid=8f8f070d-0722-488f-9748-c83a5ac6431c","ios":"levelo://app?vid=8f8f070d-0722-488f-9748-c83a5ac6431c"},"vehicle_type_id":"4","last_reported":1730660805,"current_range_meters":24800,"station_id":"ce4bha92rcd13ifvqeh0","pricing_plan_id":"cebpf4jnsgd1na2vs0mg"},{"bike_id":"272c9abf-a133-4324-9208-08b126787068","system_id":"levelo_inurba_marseille","lat":43.27903,"lon":5.38007,"is_reserved":false,"is_disabled":false,"rental_uris":{"android":"levelo://app?vid=272c9abf-a133-4324-9208-08b126787068","ios":"levelo://app?vid=272c9abf-a133-4324-9208-08b126787068"},"vehicle_type_id":"4","last_reported":1730660805,"current_range_meters":37600,"station_id":"ce4bhf92rcd13ifvqf50","pricing_plan_id":"cebpf4jnsgd1na2vs0mg"},{"bike_id":"257b6573-a72d-4c8c-880c-f3726e913c2a","system_id":"levelo_inurba_marseille","lat":43.28614,"lon":5.35101,"is_reserved":false,"is_disabled":false,"rental_uris":{"android":"levelo://app?vid=257b6573-a72d-4c8c-880c-f3726e913c2a","ios":"levelo://app?vid=257b6573-a72d-4c8c-880c-f3726e913c2a"},"vehicle_type_id":"4","last_reported":1730660805,"current_range_meters":35600,"station_id":"ce4bhch2rcd13ifvqeug","pricing_plan_id":"cebpf4jnsgd1na2vs0mg"},{"bike_id":"a9e32352-0ca8-4535-87fc-d3cfff86084b","system_id":"levelo_inurba_marseille","lat":43.32478,"lon":5.36568,"is_reserved":false,"is_disabled":false,"rental_uris":{"android":"levelo://app?vid=a9e32352-0ca8-4535-87fc-d3cfff86084b","ios":"levelo://app?vid=a9e32352-0ca8-4535-87fc-d3cfff86084b"},"vehicle_type_id":"4","last_reported":1730660805,"current_range_meters":32000,"station_id":"ce4bhs12rcd13ifvqhvg","pricing_plan_id":"cebpf4jnsgd1na2vs0mg"},{"bike_id":"b8b8e78b-55ed-4a91-b7d6-8216533cb204","system_id":"levelo_inurba_marseille","lat":43.29674,"lon":5.37301,"is_reserved":false,"is_disabled":false,"rental_uris":{"android":"levelo://app?vid=b8b8e78b-55ed-4a91-b7d6-8216533cb204","ios":"levelo://app?vid=b8b8e78b-55ed-4a91-b7d6-8216533cb204"},"vehicle_type_id":"4","last_reported":1730660805,"current_range_meters":24000,"station_id":"ce4bgk12rcd13ifvqbj0","pricing_plan_id":"cebpf4jnsgd1na2vs0mg"},{"bike_id":"c1750154-e2c6-4ea5-935e-89f0ad37346b","system_id":"levelo_inurba_marseille","lat":43.30131,"lon":5.39864,"is_reserved":false,"is_disabled":false,"rental_uris":{"android":"levelo://app?vid=c1750154-e2c6-4ea5-935e-89f0ad37346b","ios":"levelo://app?vid=c1750154-e2c6-4ea5-935e-89f0ad37346b"},"vehicle_type_id":"4","last_reported":1730660805,"current_range_meters":38400,"station_id":"ce4bh0h2rcd13ifvqd40","pricing_plan_id":"cebpf4jnsgd1na2vs0mg"},{"bike_id":"7fa9e0db-d5db-4e00-9bab-71088473e9a3","system_id":"levelo_inurba_marseille","lat":43.28347,"lon":5.38103,"is_reserved":false,"is_disabled":false,"rental_uris":{"android":"levelo://app?vid=7fa9e0db-d5db-4e00-9bab-71088473e9a3","ios":"levelo://app?vid=7fa9e0db-d5db-4e00-9bab-71088473e9a3"},"vehicle_type_id":"4","last_reported":1730660805,"current_range_meters":33600,"station_id":"ce4bh412rcd13ifvqdr0","pricing_plan_id":"cebpf4jnsgd1na2vs0mg"},{"bike_id":"120af6d8-573e-4789-9f80-c72201eddb92","system_id":"levelo_inurba_marseille","lat":43.27423,"lon":5.39413,"is_reserved":false,"is_disabled":false,"rental_uris":{"android":"levelo://app?vid=120af6d8-573e-4789-9f80-c72201eddb92","ios":"levelo://app?vid=120af6d8-573e-4789-9f80-c72201eddb92"},"vehicle_type_id":"4","last_reported":1730660805,"current_range_meters":38800,"station_id":"ce4bhdp2rcd13ifvqf20","pricing_plan_id":"cebpf4jnsgd1na2vs0mg"},{"bike_id":"5af32b3b-d3c5-4761-95bd-a51ac5c29c07","system_id":"levelo_inurba_marseille","lat":43.30898,"lon":5.37199,"is_reserved":false,"is_disabled":false,"rental_uris":{"android":"levelo://app?vid=5af32b3b-d3c5-4761-95bd-a51ac5c29c07","ios":"levelo://app?vid=5af32b3b-d3c5-4761-95bd-a51ac5c29c07"},"vehicle_type_id":"4","last_reported":1730660805,"current_range_meters":38800,"station_id":"ce4bguh2rcd13ifvqckg","pricing_plan_id":"cebpf4jnsgd1na2vs0mg"},{"bike_id":"616b9aee-021c-4bb7-b5b5-16444fc838e4","system_id":"levelo_inurba_marseille","lat":43.29417,"lon":5.38614,"is_reserved":false,"is_disabled":false,"rental_uris":{"android":"levelo://app?vid=616b9aee-021c-4bb7-b5b5-16444fc838e4","ios":"levelo://app?vid=616b9aee-021c-4bb7-b5b5-16444fc838e4"},"vehicle_type_id":"4","last_reported":1730660805,"current_range_meters":38800,"station_id":"ce4bh2h2rcd13ifvqdh0","pricing_plan_id":"cebpf4jnsgd1na2vs0mg"},{"bike_id":"e3368b33-0af2-4840-ba71-a14df39e04a9","system_id":"levelo_inurba_marseille","lat":43.29533,"lon":5.38537,"is_reserved":false,"is_disabled":false,"rental_uris":{"android":"levelo://app?vid=e3368b33-0af2-4840-ba71-a14df39e04a9","ios":"levelo://app?vid=e3368b33-0af2-4840-ba71-a14df39e04a9"},"vehicle_type_id":"4","last_reported":1730660805,"current_range_meters":19200,"station_id":"ce4bgih2rcd13ifvqba0","pricing_plan_id":"cebpf4jnsgd1na2vs0mg"},{"bike_id":"bbf8af88-9d41-480a-8ff0-a9419e65757a","system_id":"levelo_inurba_marseille","lat":43.28573,"lon":5.39497,"is_reserved":false,"is_disabled":false,"rental_uris":{"android":"levelo://app?vid=bbf8af88-9d41-480a-8ff0-a9419e65757a","ios":"levelo://app?vid=bbf8af88-9d41-480a-8ff0-a9419e65757a"},"vehicle_type_id":"4","last_reported":1730660805,"current_range_meters":22000,"station_id":"ce4bh292rcd13ifvqdg0","pricing_plan_id":"cebpf4jnsgd1na2vs0mg"},{"bike_id":"f453d8a2-14e2-497a-a14a-49c40244a6ee","system_id":"levelo_inurba_marseille","lat":43.25865,"lon":5.39901,"is_reserved":false,"is_disabled":false,"rental_uris":{"android":"levelo://app?vid=f453d8a2-14e2-497a-a14a-49c40244a6ee","ios":"levelo://app?vid=f453d8a2-14e2-497a-a14a-49c40244a6ee"},"vehicle_type_id":"4","last_reported":1730660805,"current_range_meters":19600,"station_id":"ce4bhl92rcd13ifvqghg","pricing_plan_id":"cebpf4jnsgd1na2vs0mg"},{"bike_id":"1eeb5c5c-a3a6-4ef6-a852-f083a9363eab","system_id":"levelo_inurba_marseille","lat":43.27071,"lon":5.42284,"is_reserved":false,"is_disabled":false,"rental_uris":{"android":"levelo://app?vid=1eeb5c5c-a3a6-4ef6-a852-f083a9363eab","ios":"levelo://app?vid=1eeb5c5c-a3a6-4ef6-a852-f083a9363eab"},"vehicle_type_id":"4","last_reported":1730660805,"current_range_meters":9200,"station_id":"ce4bhk92rcd13ifvqgb0","pricing_plan_id":"cebpf4jnsgd1na2vs0mg"},{"bike_id":"c88b1e66-275d-4afa-8ece-bdd189f613f5","system_id":"levelo_inurba_marseille","lat":43.29092,"lon":5.38144,"is_reserved":false,"is_disabled":false,"rental_uris":{"android":"levelo://app?vid=c88b1e66-275d-4afa-8ece-bdd189f613f5","ios":"levelo://app?vid=c88b1e66-275d-4afa-8ece-bdd189f613f5"},"vehicle_type_id":"4","last_reported":1730660805,"current_range_meters":29600,"station_id":"ce4bh512rcd13ifvqe2g","pricing_plan_id":"cebpf4jnsgd1na2vs0mg"},{"bike_id":"4e317739-b20f-4f8d-987b-ba9b04b0c4a9","system_id":"levelo_inurba_marseille","lat":43.28615,"lon":5.37067,"is_reserved":false,"is_disabled":false,"rental_uris":{"android":"levelo://app?vid=4e317739-b20f-4f8d-987b-ba9b04b0c4a9","ios":"levelo://app?vid=4e317739-b20f-4f8d-987b-ba9b04b0c4a9"},"vehicle_type_id":"4","last_reported":1730660805,"current_range_meters":38800,"station_id":"ce4bht12rcd13ifvqi60","pricing_plan_id":"cebpf4jnsgd1na2vs0mg"},{"bike_id":"7ce77be2-28e6-467f-9494-16f057502bba","system_id":"levelo_inurba_marseille","lat":43.28156,"lon":5.42642,"is_reserved":false,"is_disabled":false,"rental_uris":{"android":"levelo://app?vid=7ce77be2-28e6-467f-9494-16f057502bba","ios":"levelo://app?vid=7ce77be2-28e6-467f-9494-16f057502bba"},"vehicle_type_id":"4","last_reported":1730660805,"current_range_meters":3600,"station_id":"ce4bhnh2rcd13ifvqgug","pricing_plan_id":"cebpf4jnsgd1na2vs0mg"},{"bike_id":"e50fd69d-8268-4029-bf65-400af74520b3","system_id":"levelo_inurba_marseille","lat":43.27998,"lon":5.41664,"is_reserved":false,"is_disabled":false,"rental_uris":{"android":"levelo://app?vid=e50fd69d-8268-4029-bf65-400af74520b3","ios":"levelo://app?vid=e50fd69d-8268-4029-bf65-400af74520b3"},"vehicle_type_id":"4","last_reported":1730660805,"current_range_meters":13600,"station_id":"ce4bho12rcd13ifvqh1g","pricing_plan_id":"cebpf4jnsgd1na2vs0mg"},{"bike_id":"b535d7d2-7630-4884-8b57-c1d7e21ce967","system_id":"levelo_inurba_marseille","lat":43.2952,"lon":5.38536,"is_reserved":false,"is_disabled":false,"rental_uris":{"android":"levelo://app?vid=b535d7d2-7630-4884-8b57-c1d7e21ce967","ios":"levelo://app?vid=b535d7d2-7630-4884-8b57-c1d7e21ce967"},"vehicle_type_id":"4","last_reported":1730660805,"current_range_meters":38800,"station_id":"ce4bgih2rcd13ifvqba0","pricing_plan_id":"cebpf4jnsgd1na2vs0mg"},{"bike_id":"f83ab34c-ea4d-45d3-9fd2-0abf4d5137ce","system_id":"levelo_inurba_marseille","lat":43.28454,"lon":5.35883,"is_reserved":false,"is_disabled":false,"rental_uris":{"android":"levelo://app?vid=f83ab34c-ea4d-45d3-9fd2-0abf4d5137ce","ios":"levelo://app?vid=f83ab34c-ea4d-45d3-9fd2-0abf4d5137ce"},"vehicle_type_id":"4","last_reported":1730660805,"current_range_meters":8400,"station_id":"ce4bhah2rcd13ifvqei0","pricing_plan_id":"cebpf4jnsgd1na2vs0mg"},{"bike_id":"be2cb2c8-4aee-4621-a92d-309dfdc0f964","system_id":"levelo_inurba_marseille","lat":43.28155,"lon":5.42642,"is_reserved":false,"is_disabled":false,"rental_uris":{"android":"levelo://app?vid=be2cb2c8-4aee-4621-a92d-309dfdc0f964","ios":"levelo://app?vid=be2cb2c8-4aee-4621-a92d-309dfdc0f964"},"vehicle_type_id":"4","last_reported":1730660805,"current_range_meters":16800,"station_id":"ce4bhnh2rcd13ifvqgug","pricing_plan_id":"cebpf4jnsgd1na2vs0mg"},{"bike_id":"a59fb685-876f-4856-9c62-ca6ceeec2669","system_id":"levelo_inurba_marseille","lat":43.29028,"lon":5.3864,"is_reserved":false,"is_disabled":false,"rental_uris":{"android":"levelo://app?vid=a59fb685-876f-4856-9c62-ca6ceeec2669","ios":"levelo://app?vid=a59fb685-876f-4856-9c62-ca6ceeec2669"},"vehicle_type_id":"4","last_reported":1730660805,"current_range_meters":38800,"station_id":"ce4bh4p2rcd13ifvqe0g","pricing_plan_id":"cebpf4jnsgd1na2vs0mg"},{"bike_id":"4542e1a3-5515-414c-b4e7-f7fbeeb03c5e","system_id":"levelo_inurba_marseille","lat":43.240753,"lon":5.377588,"is_reserved":false,"is_disabled":false,"rental_uris":{"android":"levelo://app?vid=4542e1a3-5515-414c-b4e7-f7fbeeb03c5e","ios":"levelo://app?vid=4542e1a3-5515-414c-b4e7-f7fbeeb03c5e"},"vehicle_type_id":"4","last_reported":1730660805,"current_range_meters":16000,"station_id":"ce4bhnp2rcd13ifvqgvg","pricing_plan_id":"cebpf4jnsgd1na2vs0mg"},{"bike_id":"33f6555c-2637-4d7c-9ff9-8a6e91a19910","system_id":"levelo_inurba_marseille","lat":43.27172,"lon":5.40997,"is_reserved":false,"is_disabled":false,"rental_uris":{"android":"levelo://app?vid=33f6555c-2637-4d7c-9ff9-8a6e91a19910","ios":"levelo://app?vid=33f6555c-2637-4d7c-9ff9-8a6e91a19910"},"vehicle_type_id":"4","last_reported":1730660805,"current_range_meters":15200,"station_id":"ce4bhl12rcd13ifvqgf0","pricing_plan_id":"cebpf4jnsgd1na2vs0mg"},{"bike_id":"b3ec251f-24f4-482a-b204-71972a8c9fa0","system_id":"levelo_inurba_marseille","lat":43.30956,"lon":5.3904,"is_reserved":false,"is_disabled":false,"rental_uris":{"android":"levelo://app?vid=b3ec251f-24f4-482a-b204-71972a8c9fa0","ios":"levelo://app?vid=b3ec251f-24f4-482a-b204-71972a8c9fa0"},"vehicle_type_id":"4","last_reported":1730660805,"current_range_meters":3200,"station_id":"ce4bgup2rcd13ifvqco0","pricing_plan_id":"cebpf4jnsgd1na2vs0mg"},{"bike_id":"c12e0219-8c08-4c19-9352-47c944755df3","system_id":"levelo_inurba_marseille","lat":43.315369,"lon":5.380234,"is_reserved":false,"is_disabled":false,"rental_uris":{"android":"levelo://app?vid=c12e0219-8c08-4c19-9352-47c944755df3","ios":"levelo://app?vid=c12e0219-8c08-4c19-9352-47c944755df3"},"vehicle_type_id":"4","last_reported":1730660805,"current_range_meters":25200,"station_id":"ce4bhsp2rcd13ifvqi50","pricing_plan_id":"cebpf4jnsgd1na2vs0mg"},{"bike_id":"4919f6ef-ca70-4f80-acf9-35db65fc6e9e","system_id":"levelo_inurba_marseille","lat":43.30308,"lon":5.36886,"is_reserved":false,"is_disabled":false,"rental_uris":{"android":"levelo://app?vid=4919f6ef-ca70-4f80-acf9-35db65fc6e9e","ios":"levelo://app?vid=4919f6ef-ca70-4f80-acf9-35db65fc6e9e"},"vehicle_type_id":"4","last_reported":1730660805,"current_range_meters":38000,"station_id":"ce4bgqh2rcd13ifvqc5g","pricing_plan_id":"cebpf4jnsgd1na2vs0mg"},{"bike_id":"4d916b62-8bbd-40bf-8461-f3dd3e4562e6","system_id":"levelo_inurba_marseille","lat":43.31168,"lon":5.3871,"is_reserved":false,"is_disabled":false,"rental_uris":{"android":"levelo://app?vid=4d916b62-8bbd-40bf-8461-f3dd3e4562e6","ios":"levelo://app?vid=4d916b62-8bbd-40bf-8461-f3dd3e4562e6"},"vehicle_type_id":"4","last_reported":1730660805,"current_range_meters":38800,"station_id":"ce4bgv12rcd13ifvqcp0","pricing_plan_id":"cebpf4jnsgd1na2vs0mg"},{"bike_id":"585d3eca-94f9-4a31-b7ef-9ae96486c3e8","system_id":"levelo_inurba_marseille","lat":43.26205,"lon":5.37454,"is_reserved":false,"is_disabled":false,"rental_uris":{"android":"levelo://app?vid=585d3eca-94f9-4a31-b7ef-9ae96486c3e8","ios":"levelo://app?vid=585d3eca-94f9-4a31-b7ef-9ae96486c3e8"},"vehicle_type_id":"4","last_reported":1730660805,"current_range_meters":38800,"station_id":"ce4bhgp2rcd13ifvqfc0","pricing_plan_id":"cebpf4jnsgd1na2vs0mg"},{"bike_id":"12e2a17d-b267-46ea-b046-7d399d7c3544","system_id":"levelo_inurba_marseille","lat":43.33734,"lon":5.39181,"is_reserved":false,"is_disabled":false,"rental_uris":{"android":"levelo://app?vid=12e2a17d-b267-46ea-b046-7d399d7c3544","ios":"levelo://app?vid=12e2a17d-b267-46ea-b046-7d399d7c3544"},"vehicle_type_id":"4","last_reported":1730660805,"current_range_meters":36800,"station_id":"ce4bhr92rcd13ifvqhsg","pricing_plan_id":"cebpf4jnsgd1na2vs0mg"},{"bike_id":"0bffcfb5-ffd4-4213-a282-83f8add00e34","system_id":"levelo_inurba_marseille","lat":43.29264,"lon":5.3844,"is_reserved":false,"is_disabled":false,"rental_uris":{"android":"levelo://app?vid=0bffcfb5-ffd4-4213-a282-83f8add00e34","ios":"levelo://app?vid=0bffcfb5-ffd4-4213-a282-83f8add00e34"},"vehicle_type_id":"4","last_reported":1730660805,"current_range_meters":34000,"station_id":"ce4bh692rcd13ifvqea0","pricing_plan_id":"cebpf4jnsgd1na2vs0mg"},{"bike_id":"18935dc1-bfab-4268-aca8-ef385f72ac7e","system_id":"levelo_inurba_marseille","lat":43.29166,"lon":5.37162,"is_reserved":false,"is_disabled":false,"rental_uris":{"android":"levelo://app?vid=18935dc1-bfab-4268-aca8-ef385f72ac7e","ios":"levelo://app?vid=18935dc1-bfab-4268-aca8-ef385f72ac7e"},"vehicle_type_id":"4","last_reported":1730660805,"current_range_meters":17600,"station_id":"ce4bha92rcd13ifvqeh0","pricing_plan_id":"cebpf4jnsgd1na2vs0mg"},{"bike_id":"98a54168-3963-470d-b49f-12aa7485d560","system_id":"levelo_inurba_marseille","lat":43.29413,"lon":5.38638,"is_reserved":false,"is_disabled":false,"rental_uris":{"android":"levelo://app?vid=98a54168-3963-470d-b49f-12aa7485d560","ios":"levelo://app?vid=98a54168-3963-470d-b49f-12aa7485d560"},"vehicle_type_id":"4","last_reported":1730660805,"current_range_meters":9200,"station_id":"ce4bh2h2rcd13ifvqdh0","pricing_plan_id":"cebpf4jnsgd1na2vs0mg"},{"bike_id":"b8a27d33-0523-4800-a895-12050a0aebb0","system_id":"levelo_inurba_marseille","lat":43.28924,"lon":5.3839,"is_reserved":false,"is_disabled":false,"rental_uris":{"android":"levelo://app?vid=b8a27d33-0523-4800-a895-12050a0aebb0","ios":"levelo://app?vid=b8a27d33-0523-4800-a895-12050a0aebb0"},"vehicle_type_id":"4","last_reported":1730660805,"current_range_meters":36800,"station_id":"ce4bh612rcd13ifvqe6g","pricing_plan_id":"cebpf4jnsgd1na2vs0mg"},{"bike_id":"38c888c2-7327-4f91-bfff-ef5af8616e2a","system_id":"levelo_inurba_marseille","lat":43.29259,"lon":5.38445,"is_reserved":false,"is_disabled":false,"rental_uris":{"android":"levelo://app?vid=38c888c2-7327-4f91-bfff-ef5af8616e2a","ios":"levelo://app?vid=38c888c2-7327-4f91-bfff-ef5af8616e2a"},"vehicle_type_id":"4","last_reported":1730660805,"current_range_meters":24400,"station_id":"ce4bh692rcd13ifvqea0","pricing_plan_id":"cebpf4jnsgd1na2vs0mg"},{"bike_id":"d4472d20-9c4b-4c70-ad00-3a005519a429","system_id":"levelo_inurba_marseille","lat":43.3539,"lon":5.35726,"is_reserved":false,"is_disabled":false,"rental_uris":{"android":"levelo://app?vid=d4472d20-9c4b-4c70-ad00-3a005519a429","ios":"levelo://app?vid=d4472d20-9c4b-4c70-ad00-3a005519a429"},"vehicle_type_id":"4","last_reported":1730660805,"current_range_meters":13600,"station_id":"","pricing_plan_id":"cebpf4jnsgd1na2vs0mg"},{"bike_id":"6338020e-474a-4c99-b365-eea26fe54739","system_id":"levelo_inurba_marseille","lat":43.32288,"lon":5.38285,"is_reserved":false,"is_disabled":false,"rental_uris":{"android":"levelo://app?vid=6338020e-474a-4c99-b365-eea26fe54739","ios":"levelo://app?vid=6338020e-474a-4c99-b365-eea26fe54739"},"vehicle_type_id":"4","last_reported":1730660805,"current_range_meters":38800,"station_id":"ce4bhr12rcd13ifvqhqg","pricing_plan_id":"cebpf4jnsgd1na2vs0mg"},{"bike_id":"403ce356-4f1a-4952-91f9-a10bc29f73c0","system_id":"levelo_inurba_marseille","lat":43.306458,"lon":5.400948,"is_reserved":false,"is_disabled":false,"rental_uris":{"android":"levelo://app?vid=403ce356-4f1a-4952-91f9-a10bc29f73c0","ios":"levelo://app?vid=403ce356-4f1a-4952-91f9-a10bc29f73c0"},"vehicle_type_id":"4","last_reported":1730660805,"current_range_meters":23200,"station_id":"ce4bh112rcd13ifvqda0","pricing_plan_id":"cebpf4jnsgd1na2vs0mg"},{"bike_id":"d654e893-cc06-4152-b5e1-480855c6d7d0","system_id":"levelo_inurba_marseille","lat":43.29556,"lon":5.42298,"is_reserved":false,"is_disabled":false,"rental_uris":{"android":"levelo://app?vid=d654e893-cc06-4152-b5e1-480855c6d7d0","ios":"levelo://app?vid=d654e893-cc06-4152-b5e1-480855c6d7d0"},"vehicle_type_id":"4","last_reported":1730660805,"current_range_meters":2800,"station_id":"ce4bhph2rcd13ifvqhdg","pricing_plan_id":"cebpf4jnsgd1na2vs0mg"},{"bike_id":"bfeb4a20-6440-4d07-8fb0-93bcaf1d8dce","system_id":"levelo_inurba_marseille","lat":43.29545,"lon":5.3855,"is_reserved":false,"is_disabled":false,"rental_uris":{"android":"levelo://app?vid=bfeb4a20-6440-4d07-8fb0-93bcaf1d8dce","ios":"levelo://app?vid=bfeb4a20-6440-4d07-8fb0-93bcaf1d8dce"},"vehicle_type_id":"4","last_reported":1730660805,"current_range_meters":8400,"station_id":"ce4bgih2rcd13ifvqba0","pricing_plan_id":"cebpf4jnsgd1na2vs0mg"},{"bike_id":"262b75cb-4cc5-4ff2-869a-f6570dba6a1f","system_id":"levelo_inurba_marseille","lat":43.30898,"lon":5.37191,"is_reserved":false,"is_disabled":false,"rental_uris":{"android":"levelo://app?vid=262b75cb-4cc5-4ff2-869a-f6570dba6a1f","ios":"levelo://app?vid=262b75cb-4cc5-4ff2-869a-f6570dba6a1f"},"vehicle_type_id":"4","last_reported":1730660805,"current_range_meters":35200,"station_id":"ce4bguh2rcd13ifvqckg","pricing_plan_id":"cebpf4jnsgd1na2vs0mg"},{"bike_id":"1bd2d4c1-fc91-4892-bad9-585752906031","system_id":"levelo_inurba_marseille","lat":43.29911,"lon":5.38151,"is_reserved":false,"is_disabled":false,"rental_uris":{"android":"levelo://app?vid=1bd2d4c1-fc91-4892-bad9-585752906031","ios":"levelo://app?vid=1bd2d4c1-fc91-4892-bad9-585752906031"},"vehicle_type_id":"4","last_reported":1730660805,"current_range_meters":38400,"station_id":"ce4bgj12rcd13ifvqbc0","pricing_plan_id":"cebpf4jnsgd1na2vs0mg"},{"bike_id":"f8833f7b-49c8-440c-b671-beb72799bdec","system_id":"levelo_inurba_marseille","lat":43.24983,"lon":5.37509,"is_reserved":false,"is_disabled":false,"rental_uris":{"android":"levelo://app?vid=f8833f7b-49c8-440c-b671-beb72799bdec","ios":"levelo://app?vid=f8833f7b-49c8-440c-b671-beb72799bdec"},"vehicle_type_id":"4","last_reported":1730660805,"current_range_meters":29600,"station_id":"","pricing_plan_id":"cebpf4jnsgd1na2vs0mg"},{"bike_id":"b4c26404-be14-4de0-97fe-975ad815c2aa","system_id":"levelo_inurba_marseille","lat":43.25499,"lon":5.37654,"is_reserved":false,"is_disabled":false,"rental_uris":{"android":"levelo://app?vid=b4c26404-be14-4de0-97fe-975ad815c2aa","ios":"levelo://app?vid=b4c26404-be14-4de0-97fe-975ad815c2aa"},"vehicle_type_id":"4","last_reported":1730660805,"current_range_meters":38800,"station_id":"ce4bhh12rcd13ifvqff0","pricing_plan_id":"cebpf4jnsgd1na2vs0mg"},{"bike_id":"067bd5a7-319e-4e93-adfb-2108a5fa7fd2","system_id":"levelo_inurba_marseille","lat":43.291779,"lon":5.358072,"is_reserved":false,"is_disabled":false,"rental_uris":{"android":"levelo://app?vid=067bd5a7-319e-4e93-adfb-2108a5fa7fd2","ios":"levelo://app?vid=067bd5a7-319e-4e93-adfb-2108a5fa7fd2"},"vehicle_type_id":"4","last_reported":1730660805,"current_range_meters":16800,"station_id":"ce4bhb12rcd13ifvqel0","pricing_plan_id":"cebpf4jnsgd1na2vs0mg"},{"bike_id":"e7453847-165d-4e50-a796-bedc702cb92c","system_id":"levelo_inurba_marseille","lat":43.2944,"lon":5.39769,"is_reserved":false,"is_disabled":false,"rental_uris":{"android":"levelo://app?vid=e7453847-165d-4e50-a796-bedc702cb92c","ios":"levelo://app?vid=e7453847-165d-4e50-a796-bedc702cb92c"},"vehicle_type_id":"4","last_reported":1730660805,"current_range_meters":10000,"station_id":"ce4bh3h2rcd13ifvqdo0","pricing_plan_id":"cebpf4jnsgd1na2vs0mg"},{"bike_id":"b8283f10-b885-4d37-9975-fe68b37ace38","system_id":"levelo_inurba_marseille","lat":43.30592,"lon":5.39354,"is_reserved":false,"is_disabled":false,"rental_uris":{"android":"levelo://app?vid=b8283f10-b885-4d37-9975-fe68b37ace38","ios":"levelo://app?vid=b8283f10-b885-4d37-9975-fe68b37ace38"},"vehicle_type_id":"4","last_reported":1730660805,"current_range_meters":38000,"station_id":"ce4bh0p2rcd13ifvqd80","pricing_plan_id":"cebpf4jnsgd1na2vs0mg"},{"bike_id":"56583d53-9c1e-40e4-bfef-e40b293ff842","system_id":"levelo_inurba_marseille","lat":43.295502,"lon":5.385728,"is_reserved":false,"is_disabled":false,"rental_uris":{"android":"levelo://app?vid=56583d53-9c1e-40e4-bfef-e40b293ff842","ios":"levelo://app?vid=56583d53-9c1e-40e4-bfef-e40b293ff842"},"vehicle_type_id":"4","last_reported":1730660805,"current_range_meters":10000,"station_id":"ce4bgih2rcd13ifvqba0","pricing_plan_id":"cebpf4jnsgd1na2vs0mg"},{"bike_id":"6343cda6-6330-478c-8080-96c31f72a038","system_id":"levelo_inurba_marseille","lat":43.29555,"lon":5.42295,"is_reserved":false,"is_disabled":false,"rental_uris":{"android":"levelo://app?vid=6343cda6-6330-478c-8080-96c31f72a038","ios":"levelo://app?vid=6343cda6-6330-478c-8080-96c31f72a038"},"vehicle_type_id":"4","last_reported":1730660805,"current_range_meters":29600,"station_id":"ce4bhph2rcd13ifvqhdg","pricing_plan_id":"cebpf4jnsgd1na2vs0mg"},{"bike_id":"2b4bbfed-255f-4cd0-bf8b-80e072c9cbe9","system_id":"levelo_inurba_marseille","lat":43.32105,"lon":5.3678,"is_reserved":false,"is_disabled":false,"rental_uris":{"android":"levelo://app?vid=2b4bbfed-255f-4cd0-bf8b-80e072c9cbe9","ios":"levelo://app?vid=2b4bbfed-255f-4cd0-bf8b-80e072c9cbe9"},"vehicle_type_id":"4","last_reported":1730660805,"current_range_meters":9200,"station_id":"ce4bhrh2rcd13ifvqhug","pricing_plan_id":"cebpf4jnsgd1na2vs0mg"},{"bike_id":"e8931e55-5ffd-469d-9305-4336fdb15e1d","system_id":"levelo_inurba_marseille","lat":43.29299,"lon":5.37445,"is_reserved":false,"is_disabled":false,"rental_uris":{"android":"levelo://app?vid=e8931e55-5ffd-469d-9305-4336fdb15e1d","ios":"levelo://app?vid=e8931e55-5ffd-469d-9305-4336fdb15e1d"},"vehicle_type_id":"4","last_reported":1730660805,"current_range_meters":38800,"station_id":"ce4bgi12rcd13ifvqb70","pricing_plan_id":"cebpf4jnsgd1na2vs0mg"},{"bike_id":"f2a499b9-7e11-47f2-9654-4bee66fdf52b","system_id":"levelo_inurba_marseille","lat":43.28,"lon":5.40023,"is_reserved":false,"is_disabled":false,"rental_uris":{"android":"levelo://app?vid=f2a499b9-7e11-47f2-9654-4bee66fdf52b","ios":"levelo://app?vid=f2a499b9-7e11-47f2-9654-4bee66fdf52b"},"vehicle_type_id":"4","last_reported":1730660805,"current_range_meters":13600,"station_id":"ce4bho92rcd13ifvqh4g","pricing_plan_id":"cebpf4jnsgd1na2vs0mg"},{"bike_id":"1d44b98d-56a8-4719-987b-3b57dd4efafb","system_id":"levelo_inurba_marseille","lat":43.30299,"lon":5.392,"is_reserved":false,"is_disabled":false,"rental_uris":{"android":"levelo://app?vid=1d44b98d-56a8-4719-987b-3b57dd4efafb","ios":"levelo://app?vid=1d44b98d-56a8-4719-987b-3b57dd4efafb"},"vehicle_type_id":"4","last_reported":1730660805,"current_range_meters":39200,"station_id":"ce4bgkh2rcd13ifvqbk0","pricing_plan_id":"cebpf4jnsgd1na2vs0mg"},{"bike_id":"c142c7d9-aebe-4dd2-8d9a-15e1bf89b071","system_id":"levelo_inurba_marseille","lat":43.28081,"lon":5.39649,"is_reserved":false,"is_disabled":false,"rental_uris":{"android":"levelo://app?vid=c142c7d9-aebe-4dd2-8d9a-15e1bf89b071","ios":"levelo://app?vid=c142c7d9-aebe-4dd2-8d9a-15e1bf89b071"},"vehicle_type_id":"4","last_reported":1730660805,"current_range_meters":38800,"station_id":"ce4bho12rcd13ifvqh2g","pricing_plan_id":"cebpf4jnsgd1na2vs0mg"},{"bike_id":"76ff54f2-c45e-4738-b7d4-1174999f1ef9","system_id":"levelo_inurba_marseille","lat":43.29265,"lon":5.38435,"is_reserved":false,"is_disabled":false,"rental_uris":{"android":"levelo://app?vid=76ff54f2-c45e-4738-b7d4-1174999f1ef9","ios":"levelo://app?vid=76ff54f2-c45e-4738-b7d4-1174999f1ef9"},"vehicle_type_id":"4","last_reported":1730660805,"current_range_meters":30400,"station_id":"ce4bh692rcd13ifvqea0","pricing_plan_id":"cebpf4jnsgd1na2vs0mg"},{"bike_id":"581c0865-91b6-4760-8ac6-c97ba4051385","system_id":"levelo_inurba_marseille","lat":43.24798,"lon":5.37459,"is_reserved":false,"is_disabled":false,"rental_uris":{"android":"levelo://app?vid=581c0865-91b6-4760-8ac6-c97ba4051385","ios":"levelo://app?vid=581c0865-91b6-4760-8ac6-c97ba4051385"},"vehicle_type_id":"4","last_reported":1730660805,"current_range_meters":17200,"station_id":"ce4bhgh2rcd13ifvqfb0","pricing_plan_id":"cebpf4jnsgd1na2vs0mg"},{"bike_id":"60b44956-9029-465b-bff1-e2638a9b3ec0","system_id":"levelo_inurba_marseille","lat":43.28099,"lon":5.37841,"is_reserved":false,"is_disabled":false,"rental_uris":{"android":"levelo://app?vid=60b44956-9029-465b-bff1-e2638a9b3ec0","ios":"levelo://app?vid=60b44956-9029-465b-bff1-e2638a9b3ec0"},"vehicle_type_id":"4","last_reported":1730660805,"current_range_meters":37600,"station_id":"ce4bha12rcd13ifvqee0","pricing_plan_id":"cebpf4jnsgd1na2vs0mg"},{"bike_id":"c556f04d-a5be-4d49-ad15-6cb970cca7df","system_id":"levelo_inurba_marseille","lat":43.31722,"lon":5.42399,"is_reserved":false,"is_disabled":false,"rental_uris":{"android":"levelo://app?vid=c556f04d-a5be-4d49-ad15-6cb970cca7df","ios":"levelo://app?vid=c556f04d-a5be-4d49-ad15-6cb970cca7df"},"vehicle_type_id":"4","last_reported":1730660805,"current_range_meters":38000,"station_id":"ce4bhp92rcd13ifvqhbg","pricing_plan_id":"cebpf4jnsgd1na2vs0mg"},{"bike_id":"8f1d8e6d-af9c-4734-8e7c-ab87b5a9b8e5","system_id":"levelo_inurba_marseille","lat":43.26212,"lon":5.37443,"is_reserved":false,"is_disabled":false,"rental_uris":{"android":"levelo://app?vid=8f1d8e6d-af9c-4734-8e7c-ab87b5a9b8e5","ios":"levelo://app?vid=8f1d8e6d-af9c-4734-8e7c-ab87b5a9b8e5"},"vehicle_type_id":"4","last_reported":1730660805,"current_range_meters":14400,"station_id":"ce4bhgp2rcd13ifvqfc0","pricing_plan_id":"cebpf4jnsgd1na2vs0mg"},{"bike_id":"dd65d5f4-0ea0-4676-8be9-c1ff6a745075","system_id":"levelo_inurba_marseille","lat":43.27671,"lon":5.38895,"is_reserved":false,"is_disabled":false,"rental_uris":{"android":"levelo://app?vid=dd65d5f4-0ea0-4676-8be9-c1ff6a745075","ios":"levelo://app?vid=dd65d5f4-0ea0-4676-8be9-c1ff6a745075"},"vehicle_type_id":"4","last_reported":1730660805,"current_range_meters":19600,"station_id":"ce4bhi12rcd13ifvqfo0","pricing_plan_id":"cebpf4jnsgd1na2vs0mg"},{"bike_id":"89b5db9e-d734-4d56-8435-3c882b9b96c6","system_id":"levelo_inurba_marseille","lat":43.28924,"lon":5.38389,"is_reserved":false,"is_disabled":false,"rental_uris":{"android":"levelo://app?vid=89b5db9e-d734-4d56-8435-3c882b9b96c6","ios":"levelo://app?vid=89b5db9e-d734-4d56-8435-3c882b9b96c6"},"vehicle_type_id":"4","last_reported":1730660805,"current_range_meters":34800,"station_id":"ce4bh612rcd13ifvqe6g","pricing_plan_id":"cebpf4jnsgd1na2vs0mg"},{"bike_id":"96841145-a99c-4589-96b8-beaaab134d22","system_id":"levelo_inurba_marseille","lat":43.27994,"lon":5.40025,"is_reserved":false,"is_disabled":false,"rental_uris":{"android":"levelo://app?vid=96841145-a99c-4589-96b8-beaaab134d22","ios":"levelo://app?vid=96841145-a99c-4589-96b8-beaaab134d22"},"vehicle_type_id":"4","last_reported":1730660805,"current_range_meters":39200,"station_id":"ce4bho92rcd13ifvqh4g","pricing_plan_id":"cebpf4jnsgd1na2vs0mg"},{"bike_id":"8bacf964-f53c-4502-88a3-1bf7f2a82f34","system_id":"levelo_inurba_marseille","lat":43.2706,"lon":5.40264,"is_reserved":false,"is_disabled":false,"rental_uris":{"android":"levelo://app?vid=8bacf964-f53c-4502-88a3-1bf7f2a82f34","ios":"levelo://app?vid=8bacf964-f53c-4502-88a3-1bf7f2a82f34"},"vehicle_type_id":"4","last_reported":1730660805,"current_range_meters":7200,"station_id":"ce4bhk92rcd13ifvqgc0","pricing_plan_id":"cebpf4jnsgd1na2vs0mg"},{"bike_id":"52c87382-fa2b-4b96-89a5-f73605f11272","system_id":"levelo_inurba_marseille","lat":43.23311,"lon":5.36951,"is_reserved":false,"is_disabled":false,"rental_uris":{"android":"levelo://app?vid=52c87382-fa2b-4b96-89a5-f73605f11272","ios":"levelo://app?vid=52c87382-fa2b-4b96-89a5-f73605f11272"},"vehicle_type_id":"4","last_reported":1730660805,"current_range_meters":37600,"station_id":"","pricing_plan_id":"cebpf4jnsgd1na2vs0mg"},{"bike_id":"8fe45056-7cf4-4bf7-b161-643c77574f21","system_id":"levelo_inurba_marseille","lat":43.29638,"lon":5.40594,"is_reserved":false,"is_disabled":false,"rental_uris":{"android":"levelo://app?vid=8fe45056-7cf4-4bf7-b161-643c77574f21","ios":"levelo://app?vid=8fe45056-7cf4-4bf7-b161-643c77574f21"},"vehicle_type_id":"4","last_reported":1730660805,"current_range_meters":36800,"station_id":"ce4bh0h2rcd13ifvqd60","pricing_plan_id":"cebpf4jnsgd1na2vs0mg"},{"bike_id":"cebda017-238c-4285-81eb-efa0d682b625","system_id":"levelo_inurba_marseille","lat":43.31051,"lon":5.38346,"is_reserved":false,"is_disabled":false,"rental_uris":{"android":"levelo://app?vid=cebda017-238c-4285-81eb-efa0d682b625","ios":"levelo://app?vid=cebda017-238c-4285-81eb-efa0d682b625"},"vehicle_type_id":"4","last_reported":1730660805,"current_range_meters":28000,"station_id":"ce4bgv92rcd13ifvqcr0","pricing_plan_id":"cebpf4jnsgd1na2vs0mg"},{"bike_id":"65b8cd1a-e70d-47e3-b20c-e805078513ec","system_id":"levelo_inurba_marseille","lat":43.23964,"lon":5.36637,"is_reserved":false,"is_disabled":false,"rental_uris":{"android":"levelo://app?vid=65b8cd1a-e70d-47e3-b20c-e805078513ec","ios":"levelo://app?vid=65b8cd1a-e70d-47e3-b20c-e805078513ec"},"vehicle_type_id":"4","last_reported":1730660805,"current_range_meters":30400,"station_id":"ce4bhi12rcd13ifvqfp0","pricing_plan_id":"cebpf4jnsgd1na2vs0mg"},{"bike_id":"e7b06d08-724a-46cb-a03f-bd6113540814","system_id":"levelo_inurba_marseille","lat":43.296996,"lon":5.36605,"is_reserved":false,"is_disabled":false,"rental_uris":{"android":"levelo://app?vid=e7b06d08-724a-46cb-a03f-bd6113540814","ios":"levelo://app?vid=e7b06d08-724a-46cb-a03f-bd6113540814"},"vehicle_type_id":"4","last_reported":1730660805,"current_range_meters":32400,"station_id":"","pricing_plan_id":"cebpf4jnsgd1na2vs0mg"},{"bike_id":"739c9dca-9415-4b03-859b-1606e5caa095","system_id":"levelo_inurba_marseille","lat":43.34142,"lon":5.40909,"is_reserved":false,"is_disabled":false,"rental_uris":{"android":"levelo://app?vid=739c9dca-9415-4b03-859b-1606e5caa095","ios":"levelo://app?vid=739c9dca-9415-4b03-859b-1606e5caa095"},"vehicle_type_id":"4","last_reported":1730660805,"current_range_meters":37600,"station_id":"ce4bhqh2rcd13ifvqhlg","pricing_plan_id":"cebpf4jnsgd1na2vs0mg"},{"bike_id":"3a60b9fd-e436-4406-9d79-0669e4e382de","system_id":"levelo_inurba_marseille","lat":43.29164,"lon":5.3715,"is_reserved":false,"is_disabled":false,"rental_uris":{"android":"levelo://app?vid=3a60b9fd-e436-4406-9d79-0669e4e382de","ios":"levelo://app?vid=3a60b9fd-e436-4406-9d79-0669e4e382de"},"vehicle_type_id":"4","last_reported":1730660805,"current_range_meters":12400,"station_id":"ce4bha92rcd13ifvqeh0","pricing_plan_id":"cebpf4jnsgd1na2vs0mg"},{"bike_id":"184dd91b-9ef4-4efd-b7ac-9875eb1a29d7","system_id":"levelo_inurba_marseille","lat":43.26216,"lon":5.37443,"is_reserved":false,"is_disabled":false,"rental_uris":{"android":"levelo://app?vid=184dd91b-9ef4-4efd-b7ac-9875eb1a29d7","ios":"levelo://app?vid=184dd91b-9ef4-4efd-b7ac-9875eb1a29d7"},"vehicle_type_id":"4","last_reported":1730660805,"current_range_meters":33200,"station_id":"ce4bhgp2rcd13ifvqfc0","pricing_plan_id":"cebpf4jnsgd1na2vs0mg"},{"bike_id":"1b80601b-8be3-4b0b-bcc4-eebb89de1629","system_id":"levelo_inurba_marseille","lat":43.25831,"lon":5.39427,"is_reserved":false,"is_disabled":false,"rental_uris":{"android":"levelo://app?vid=1b80601b-8be3-4b0b-bcc4-eebb89de1629","ios":"levelo://app?vid=1b80601b-8be3-4b0b-bcc4-eebb89de1629"},"vehicle_type_id":"4","last_reported":1730660805,"current_range_meters":33600,"station_id":"ce4bhip2rcd13ifvqft0","pricing_plan_id":"cebpf4jnsgd1na2vs0mg"},{"bike_id":"c0b64f1b-b238-4185-ae29-705fa5350801","system_id":"levelo_inurba_marseille","lat":43.28931,"lon":5.38385,"is_reserved":false,"is_disabled":false,"rental_uris":{"android":"levelo://app?vid=c0b64f1b-b238-4185-ae29-705fa5350801","ios":"levelo://app?vid=c0b64f1b-b238-4185-ae29-705fa5350801"},"vehicle_type_id":"4","last_reported":1730660805,"current_range_meters":35600,"station_id":"ce4bh612rcd13ifvqe6g","pricing_plan_id":"cebpf4jnsgd1na2vs0mg"},{"bike_id":"fc01ac91-958f-424a-99ad-0c74a70e91dc","system_id":"levelo_inurba_marseille","lat":43.28405,"lon":5.3752,"is_reserved":false,"is_disabled":false,"rental_uris":{"android":"levelo://app?vid=fc01ac91-958f-424a-99ad-0c74a70e91dc","ios":"levelo://app?vid=fc01ac91-958f-424a-99ad-0c74a70e91dc"},"vehicle_type_id":"4","last_reported":1730660805,"current_range_meters":39200,"station_id":"ce4bh412rcd13ifvqds0","pricing_plan_id":"cebpf4jnsgd1na2vs0mg"},{"bike_id":"2df6f291-096d-459d-b928-e87b0c0efefb","system_id":"levelo_inurba_marseille","lat":43.26681,"lon":5.38272,"is_reserved":false,"is_disabled":false,"rental_uris":{"android":"levelo://app?vid=2df6f291-096d-459d-b928-e87b0c0efefb","ios":"levelo://app?vid=2df6f291-096d-459d-b928-e87b0c0efefb"},"vehicle_type_id":"4","last_reported":1730660805,"current_range_meters":7200,"station_id":"ce4bhg92rcd13ifvqf90","pricing_plan_id":"cebpf4jnsgd1na2vs0mg"},{"bike_id":"8c67d340-801d-46e5-b910-2f8aff3ff078","system_id":"levelo_inurba_marseille","lat":43.33318,"lon":5.37073,"is_reserved":false,"is_disabled":false,"rental_uris":{"android":"levelo://app?vid=8c67d340-801d-46e5-b910-2f8aff3ff078","ios":"levelo://app?vid=8c67d340-801d-46e5-b910-2f8aff3ff078"},"vehicle_type_id":"4","last_reported":1730660805,"current_range_meters":4800,"station_id":"","pricing_plan_id":"cebpf4jnsgd1na2vs0mg"},{"bike_id":"52200d72-cc85-4fd8-9837-1358f5b6253e","system_id":"levelo_inurba_marseille","lat":43.28373,"lon":5.4004,"is_reserved":false,"is_disabled":false,"rental_uris":{"android":"levelo://app?vid=52200d72-cc85-4fd8-9837-1358f5b6253e","ios":"levelo://app?vid=52200d72-cc85-4fd8-9837-1358f5b6253e"},"vehicle_type_id":"4","last_reported":1730660805,"current_range_meters":8800,"station_id":"","pricing_plan_id":"cebpf4jnsgd1na2vs0mg"},{"bike_id":"79f5032c-4427-40bb-bbad-7f35acb21ebc","system_id":"levelo_inurba_marseille","lat":43.32296,"lon":5.3828,"is_reserved":false,"is_disabled":false,"rental_uris":{"android":"levelo://app?vid=79f5032c-4427-40bb-bbad-7f35acb21ebc","ios":"levelo://app?vid=79f5032c-4427-40bb-bbad-7f35acb21ebc"},"vehicle_type_id":"4","last_reported":1730660805,"current_range_meters":16400,"station_id":"ce4bhr12rcd13ifvqhqg","pricing_plan_id":"cebpf4jnsgd1na2vs0mg"},{"bike_id":"488a49df-c9c8-4124-a350-5f746b788f43","system_id":"levelo_inurba_marseille","lat":43.27943,"lon":5.4105,"is_reserved":false,"is_disabled":false,"rental_uris":{"android":"levelo://app?vid=488a49df-c9c8-4124-a350-5f746b788f43","ios":"levelo://app?vid=488a49df-c9c8-4124-a350-5f746b788f43"},"vehicle_type_id":"4","last_reported":1730660805,"current_range_meters":24800,"station_id":"ce4bhnp2rcd13ifvqh0g","pricing_plan_id":"cebpf4jnsgd1na2vs0mg"},{"bike_id":"90a37b83-1162-487e-bb74-0c7724111c5f","system_id":"levelo_inurba_marseille","lat":43.28446,"lon":5.39182,"is_reserved":false,"is_disabled":false,"rental_uris":{"android":"levelo://app?vid=90a37b83-1162-487e-bb74-0c7724111c5f","ios":"levelo://app?vid=90a37b83-1162-487e-bb74-0c7724111c5f"},"vehicle_type_id":"4","last_reported":1730660805,"current_range_meters":38800,"station_id":"ce4bhoh2rcd13ifvqh5g","pricing_plan_id":"cebpf4jnsgd1na2vs0mg"},{"bike_id":"a22693e4-0adf-4f9e-bba6-8cb69985560f","system_id":"levelo_inurba_marseille","lat":43.28459,"lon":5.35884,"is_reserved":false,"is_disabled":false,"rental_uris":{"android":"levelo://app?vid=a22693e4-0adf-4f9e-bba6-8cb69985560f","ios":"levelo://app?vid=a22693e4-0adf-4f9e-bba6-8cb69985560f"},"vehicle_type_id":"4","last_reported":1730660805,"current_range_meters":37600,"station_id":"ce4bhah2rcd13ifvqei0","pricing_plan_id":"cebpf4jnsgd1na2vs0mg"},{"bike_id":"55a5ca7c-6af1-429c-9c94-9fa3bccda2bb","system_id":"levelo_inurba_marseille","lat":43.28347,"lon":5.381,"is_reserved":false,"is_disabled":false,"rental_uris":{"android":"levelo://app?vid=55a5ca7c-6af1-429c-9c94-9fa3bccda2bb","ios":"levelo://app?vid=55a5ca7c-6af1-429c-9c94-9fa3bccda2bb"},"vehicle_type_id":"4","last_reported":1730660805,"current_range_meters":30400,"station_id":"ce4bh412rcd13ifvqdr0","pricing_plan_id":"cebpf4jnsgd1na2vs0mg"},{"bike_id":"7a8975a1-c523-47ba-83a1-459b86ea01d9","system_id":"levelo_inurba_marseille","lat":43.29191,"lon":5.39329,"is_reserved":false,"is_disabled":false,"rental_uris":{"android":"levelo://app?vid=7a8975a1-c523-47ba-83a1-459b86ea01d9","ios":"levelo://app?vid=7a8975a1-c523-47ba-83a1-459b86ea01d9"},"vehicle_type_id":"4","last_reported":1730660805,"current_range_meters":16800,"station_id":"ce4bh192rcd13ifvqdd0","pricing_plan_id":"cebpf4jnsgd1na2vs0mg"},{"bike_id":"2afc035b-dd2d-4a62-80f3-4b9804ccf17e","system_id":"levelo_inurba_marseille","lat":43.2943,"lon":5.39761,"is_reserved":false,"is_disabled":false,"rental_uris":{"android":"levelo://app?vid=2afc035b-dd2d-4a62-80f3-4b9804ccf17e","ios":"levelo://app?vid=2afc035b-dd2d-4a62-80f3-4b9804ccf17e"},"vehicle_type_id":"4","last_reported":1730660805,"current_range_meters":39200,"station_id":"ce4bh3h2rcd13ifvqdo0","pricing_plan_id":"cebpf4jnsgd1na2vs0mg"},{"bike_id":"737e9747-c831-402d-a747-149225195082","system_id":"levelo_inurba_marseille","lat":43.31327,"lon":5.39696,"is_reserved":false,"is_disabled":false,"rental_uris":{"android":"levelo://app?vid=737e9747-c831-402d-a747-149225195082","ios":"levelo://app?vid=737e9747-c831-402d-a747-149225195082"},"vehicle_type_id":"4","last_reported":1730660805,"current_range_meters":30400,"station_id":"ce4bgvp2rcd13ifvqcu0","pricing_plan_id":"cebpf4jnsgd1na2vs0mg"},{"bike_id":"1de70012-c83e-4b8a-89a2-6f131a1bcd22","system_id":"levelo_inurba_marseille","lat":43.30892,"lon":5.37187,"is_reserved":false,"is_disabled":false,"rental_uris":{"android":"levelo://app?vid=1de70012-c83e-4b8a-89a2-6f131a1bcd22","ios":"levelo://app?vid=1de70012-c83e-4b8a-89a2-6f131a1bcd22"},"vehicle_type_id":"4","last_reported":1730660805,"current_range_meters":14800,"station_id":"ce4bguh2rcd13ifvqckg","pricing_plan_id":"cebpf4jnsgd1na2vs0mg"},{"bike_id":"51e33fc0-83bd-44be-a080-61bc9446f595","system_id":"levelo_inurba_marseille","lat":43.24998,"lon":5.38929,"is_reserved":false,"is_disabled":false,"rental_uris":{"android":"levelo://app?vid=51e33fc0-83bd-44be-a080-61bc9446f595","ios":"levelo://app?vid=51e33fc0-83bd-44be-a080-61bc9446f595"},"vehicle_type_id":"4","last_reported":1730660805,"current_range_meters":3600,"station_id":"ce4bhgp2rcd13ifvqfd0","pricing_plan_id":"cebpf4jnsgd1na2vs0mg"},{"bike_id":"d5324ca5-5a3a-4892-bb8c-7dbf331e6ea6","system_id":"levelo_inurba_marseille","lat":43.32489,"lon":5.36573,"is_reserved":false,"is_disabled":false,"rental_uris":{"android":"levelo://app?vid=d5324ca5-5a3a-4892-bb8c-7dbf331e6ea6","ios":"levelo://app?vid=d5324ca5-5a3a-4892-bb8c-7dbf331e6ea6"},"vehicle_type_id":"4","last_reported":1730660805,"current_range_meters":38800,"station_id":"ce4bhs12rcd13ifvqhvg","pricing_plan_id":"cebpf4jnsgd1na2vs0mg"},{"bike_id":"2f2ea378-4ead-470b-9874-5283887e2ee2","system_id":"levelo_inurba_marseille","lat":43.26574,"lon":5.3902,"is_reserved":false,"is_disabled":false,"rental_uris":{"android":"levelo://app?vid=2f2ea378-4ead-470b-9874-5283887e2ee2","ios":"levelo://app?vid=2f2ea378-4ead-470b-9874-5283887e2ee2"},"vehicle_type_id":"4","last_reported":1730660805,"current_range_meters":7200,"station_id":"ce4bhe12rcd13ifvqf30","pricing_plan_id":"cebpf4jnsgd1na2vs0mg"},{"bike_id":"8da67f8b-53e8-4934-9735-38d09238fa66","system_id":"levelo_inurba_marseille","lat":43.24074,"lon":5.37752,"is_reserved":false,"is_disabled":false,"rental_uris":{"android":"levelo://app?vid=8da67f8b-53e8-4934-9735-38d09238fa66","ios":"levelo://app?vid=8da67f8b-53e8-4934-9735-38d09238fa66"},"vehicle_type_id":"4","last_reported":1730660805,"current_range_meters":31200,"station_id":"ce4bhnp2rcd13ifvqgvg","pricing_plan_id":"cebpf4jnsgd1na2vs0mg"},{"bike_id":"6da0af9c-4c11-48a2-bdfb-c104737c2785","system_id":"levelo_inurba_marseille","lat":43.30139,"lon":5.387769,"is_reserved":false,"is_disabled":false,"rental_uris":{"android":"levelo://app?vid=6da0af9c-4c11-48a2-bdfb-c104737c2785","ios":"levelo://app?vid=6da0af9c-4c11-48a2-bdfb-c104737c2785"},"vehicle_type_id":"4","last_reported":1730660805,"current_range_meters":38800,"station_id":"ce4bghh2rcd13ifvqb60","pricing_plan_id":"cebpf4jnsgd1na2vs0mg"},{"bike_id":"7b8934ab-1a6b-4c2d-b5fa-40771c000556","system_id":"levelo_inurba_marseille","lat":43.27073,"lon":5.42285,"is_reserved":false,"is_disabled":false,"rental_uris":{"android":"levelo://app?vid=7b8934ab-1a6b-4c2d-b5fa-40771c000556","ios":"levelo://app?vid=7b8934ab-1a6b-4c2d-b5fa-40771c000556"},"vehicle_type_id":"4","last_reported":1730660805,"current_range_meters":21600,"station_id":"ce4bhk92rcd13ifvqgb0","pricing_plan_id":"cebpf4jnsgd1na2vs0mg"},{"bike_id":"cb8cbe74-bf02-4189-810a-cbe7a5df91d3","system_id":"levelo_inurba_marseille","lat":43.28367,"lon":5.38629,"is_reserved":false,"is_disabled":false,"rental_uris":{"android":"levelo://app?vid=cb8cbe74-bf02-4189-810a-cbe7a5df91d3","ios":"levelo://app?vid=cb8cbe74-bf02-4189-810a-cbe7a5df91d3"},"vehicle_type_id":"4","last_reported":1730660805,"current_range_meters":4400,"station_id":"ce4bh492rcd13ifvqdvg","pricing_plan_id":"cebpf4jnsgd1na2vs0mg"},{"bike_id":"832b60bc-0d06-41a3-b29c-3ff7d0f476e1","system_id":"levelo_inurba_marseille","lat":43.23188,"lon":5.35562,"is_reserved":false,"is_disabled":false,"rental_uris":{"android":"levelo://app?vid=832b60bc-0d06-41a3-b29c-3ff7d0f476e1","ios":"levelo://app?vid=832b60bc-0d06-41a3-b29c-3ff7d0f476e1"},"vehicle_type_id":"4","last_reported":1730660805,"current_range_meters":38800,"station_id":"ce4bhu92rcd13ifvqi70","pricing_plan_id":"cebpf4jnsgd1na2vs0mg"},{"bike_id":"0d2b8e40-95d6-4882-8ede-76759efd16fa","system_id":"levelo_inurba_marseille","lat":43.29255,"lon":5.38432,"is_reserved":false,"is_disabled":false,"rental_uris":{"android":"levelo://app?vid=0d2b8e40-95d6-4882-8ede-76759efd16fa","ios":"levelo://app?vid=0d2b8e40-95d6-4882-8ede-76759efd16fa"},"vehicle_type_id":"4","last_reported":1730660805,"current_range_meters":38000,"station_id":"ce4bh692rcd13ifvqea0","pricing_plan_id":"cebpf4jnsgd1na2vs0mg"},{"bike_id":"7580d83e-3d7c-46be-82b1-25f013a114af","system_id":"levelo_inurba_marseille","lat":43.31051,"lon":5.40091,"is_reserved":false,"is_disabled":false,"rental_uris":{"android":"levelo://app?vid=7580d83e-3d7c-46be-82b1-25f013a114af","ios":"levelo://app?vid=7580d83e-3d7c-46be-82b1-25f013a114af"},"vehicle_type_id":"4","last_reported":1730660805,"current_range_meters":24000,"station_id":"","pricing_plan_id":"cebpf4jnsgd1na2vs0mg"},{"bike_id":"ec3da517-820f-4df2-a88f-4d4350c394cf","system_id":"levelo_inurba_marseille","lat":43.29421,"lon":5.38619,"is_reserved":false,"is_disabled":false,"rental_uris":{"android":"levelo://app?vid=ec3da517-820f-4df2-a88f-4d4350c394cf","ios":"levelo://app?vid=ec3da517-820f-4df2-a88f-4d4350c394cf"},"vehicle_type_id":"4","last_reported":1730660805,"current_range_meters":3200,"station_id":"ce4bh2h2rcd13ifvqdh0","pricing_plan_id":"cebpf4jnsgd1na2vs0mg"},{"bike_id":"95176e65-2057-4dd1-bdba-201dc08b6b3e","system_id":"levelo_inurba_marseille","lat":43.26804,"lon":5.40265,"is_reserved":false,"is_disabled":false,"rental_uris":{"android":"levelo://app?vid=95176e65-2057-4dd1-bdba-201dc08b6b3e","ios":"levelo://app?vid=95176e65-2057-4dd1-bdba-201dc08b6b3e"},"vehicle_type_id":"4","last_reported":1730660805,"current_range_meters":24800,"station_id":"ce501612rcd8frsf0b60","pricing_plan_id":"cebpf4jnsgd1na2vs0mg"},{"bike_id":"c36500d8-3c1b-40b4-b412-de69c457b9cb","system_id":"levelo_inurba_marseille","lat":43.28099,"lon":5.41028,"is_reserved":false,"is_disabled":false,"rental_uris":{"android":"levelo://app?vid=c36500d8-3c1b-40b4-b412-de69c457b9cb","ios":"levelo://app?vid=c36500d8-3c1b-40b4-b412-de69c457b9cb"},"vehicle_type_id":"4","last_reported":1730660805,"current_range_meters":9200,"station_id":"","pricing_plan_id":"cebpf4jnsgd1na2vs0mg"},{"bike_id":"95296791-a591-4ff0-afa8-95caf4a09725","system_id":"levelo_inurba_marseille","lat":43.30954,"lon":5.3904,"is_reserved":false,"is_disabled":false,"rental_uris":{"android":"levelo://app?vid=95296791-a591-4ff0-afa8-95caf4a09725","ios":"levelo://app?vid=95296791-a591-4ff0-afa8-95caf4a09725"},"vehicle_type_id":"4","last_reported":1730660805,"current_range_meters":2800,"station_id":"ce4bgup2rcd13ifvqco0","pricing_plan_id":"cebpf4jnsgd1na2vs0mg"},{"bike_id":"cd16674d-1d1c-46c6-8cfd-f6cdf0953b45","system_id":"levelo_inurba_marseille","lat":43.28003,"lon":5.40017,"is_reserved":false,"is_disabled":false,"rental_uris":{"android":"levelo://app?vid=cd16674d-1d1c-46c6-8cfd-f6cdf0953b45","ios":"levelo://app?vid=cd16674d-1d1c-46c6-8cfd-f6cdf0953b45"},"vehicle_type_id":"4","last_reported":1730660805,"current_range_meters":34000,"station_id":"ce4bho92rcd13ifvqh4g","pricing_plan_id":"cebpf4jnsgd1na2vs0mg"},{"bike_id":"cd97257c-3650-4035-a556-cdb83fb09c54","system_id":"levelo_inurba_marseille","lat":43.27995,"lon":5.40015,"is_reserved":false,"is_disabled":false,"rental_uris":{"android":"levelo://app?vid=cd97257c-3650-4035-a556-cdb83fb09c54","ios":"levelo://app?vid=cd97257c-3650-4035-a556-cdb83fb09c54"},"vehicle_type_id":"4","last_reported":1730660805,"current_range_meters":16800,"station_id":"ce4bho92rcd13ifvqh4g","pricing_plan_id":"cebpf4jnsgd1na2vs0mg"},{"bike_id":"3a735f4a-9486-422a-b719-6ba035a5a00f","system_id":"levelo_inurba_marseille","lat":43.27175,"lon":5.4099,"is_reserved":false,"is_disabled":false,"rental_uris":{"android":"levelo://app?vid=3a735f4a-9486-422a-b719-6ba035a5a00f","ios":"levelo://app?vid=3a735f4a-9486-422a-b719-6ba035a5a00f"},"vehicle_type_id":"4","last_reported":1730660805,"current_range_meters":9600,"station_id":"ce4bhl12rcd13ifvqgf0","pricing_plan_id":"cebpf4jnsgd1na2vs0mg"},{"bike_id":"51a4b2b5-2b28-44ea-9163-246e13158de2","system_id":"levelo_inurba_marseille","lat":43.30216,"lon":5.39464,"is_reserved":false,"is_disabled":false,"rental_uris":{"android":"levelo://app?vid=51a4b2b5-2b28-44ea-9163-246e13158de2","ios":"levelo://app?vid=51a4b2b5-2b28-44ea-9163-246e13158de2"},"vehicle_type_id":"4","last_reported":1730660805,"current_range_meters":38800,"station_id":"ce4bh0p2rcd13ifvqd70","pricing_plan_id":"cebpf4jnsgd1na2vs0mg"},{"bike_id":"aef60b92-5a3b-4627-99d4-efba6d06815d","system_id":"levelo_inurba_marseille","lat":43.30331,"lon":5.40433,"is_reserved":false,"is_disabled":false,"rental_uris":{"android":"levelo://app?vid=aef60b92-5a3b-4627-99d4-efba6d06815d","ios":"levelo://app?vid=aef60b92-5a3b-4627-99d4-efba6d06815d"},"vehicle_type_id":"4","last_reported":1730660805,"current_range_meters":35600,"station_id":"ce4bh012rcd13ifvqd10","pricing_plan_id":"cebpf4jnsgd1na2vs0mg"},{"bike_id":"4ec9dab5-73a1-43e8-8158-945aee934760","system_id":"levelo_inurba_marseille","lat":43.29253,"lon":5.38446,"is_reserved":false,"is_disabled":false,"rental_uris":{"android":"levelo://app?vid=4ec9dab5-73a1-43e8-8158-945aee934760","ios":"levelo://app?vid=4ec9dab5-73a1-43e8-8158-945aee934760"},"vehicle_type_id":"4","last_reported":1730660805,"current_range_meters":36400,"station_id":"ce4bh692rcd13ifvqea0","pricing_plan_id":"cebpf4jnsgd1na2vs0mg"},{"bike_id":"d74200e6-8722-4834-ae0b-188969c02116","system_id":"levelo_inurba_marseille","lat":43.30424,"lon":5.389,"is_reserved":false,"is_disabled":false,"rental_uris":{"android":"levelo://app?vid=d74200e6-8722-4834-ae0b-188969c02116","ios":"levelo://app?vid=d74200e6-8722-4834-ae0b-188969c02116"},"vehicle_type_id":"4","last_reported":1730660805,"current_range_meters":38800,"station_id":"ce4bgk12rcd13ifvqbi0","pricing_plan_id":"cebpf4jnsgd1na2vs0mg"},{"bike_id":"a9fbbb7d-1f56-44aa-b117-d72e2cab64d1","system_id":"levelo_inurba_marseille","lat":43.29253,"lon":5.38445,"is_reserved":false,"is_disabled":false,"rental_uris":{"android":"levelo://app?vid=a9fbbb7d-1f56-44aa-b117-d72e2cab64d1","ios":"levelo://app?vid=a9fbbb7d-1f56-44aa-b117-d72e2cab64d1"},"vehicle_type_id":"4","last_reported":1730660805,"current_range_meters":32000,"station_id":"ce4bh692rcd13ifvqea0","pricing_plan_id":"cebpf4jnsgd1na2vs0mg"},{"bike_id":"d49eab38-7ea8-46ec-9331-cc74e18ed3bd","system_id":"levelo_inurba_marseille","lat":43.24659,"lon":5.38161,"is_reserved":false,"is_disabled":false,"rental_uris":{"android":"levelo://app?vid=d49eab38-7ea8-46ec-9331-cc74e18ed3bd","ios":"levelo://app?vid=d49eab38-7ea8-46ec-9331-cc74e18ed3bd"},"vehicle_type_id":"4","last_reported":1730660805,"current_range_meters":4000,"station_id":"ce4bhih2rcd13ifvqfr0","pricing_plan_id":"cebpf4jnsgd1na2vs0mg"},{"bike_id":"ef64e8c7-c704-47ce-8063-6301447c1b38","system_id":"levelo_inurba_marseille","lat":43.29523,"lon":5.37513,"is_reserved":false,"is_disabled":false,"rental_uris":{"android":"levelo://app?vid=ef64e8c7-c704-47ce-8063-6301447c1b38","ios":"levelo://app?vid=ef64e8c7-c704-47ce-8063-6301447c1b38"},"vehicle_type_id":"4","last_reported":1730660805,"current_range_meters":38000,"station_id":"ce4bgkp2rcd13ifvqbmg","pricing_plan_id":"cebpf4jnsgd1na2vs0mg"},{"bike_id":"08b50212-a0b5-4e30-a0f8-b1838d6fba4f","system_id":"levelo_inurba_marseille","lat":43.28932,"lon":5.38395,"is_reserved":false,"is_disabled":false,"rental_uris":{"android":"levelo://app?vid=08b50212-a0b5-4e30-a0f8-b1838d6fba4f","ios":"levelo://app?vid=08b50212-a0b5-4e30-a0f8-b1838d6fba4f"},"vehicle_type_id":"4","last_reported":1730660805,"current_range_meters":38800,"station_id":"ce4bh612rcd13ifvqe6g","pricing_plan_id":"cebpf4jnsgd1na2vs0mg"},{"bike_id":"a56fea18-a696-4007-a12a-ed30bd374916","system_id":"levelo_inurba_marseille","lat":43.2926,"lon":5.3845,"is_reserved":false,"is_disabled":false,"rental_uris":{"android":"levelo://app?vid=a56fea18-a696-4007-a12a-ed30bd374916","ios":"levelo://app?vid=a56fea18-a696-4007-a12a-ed30bd374916"},"vehicle_type_id":"4","last_reported":1730660805,"current_range_meters":12000,"station_id":"ce4bh692rcd13ifvqea0","pricing_plan_id":"cebpf4jnsgd1na2vs0mg"},{"bike_id":"d6923d24-f342-4f50-bf25-54e30df2904a","system_id":"levelo_inurba_marseille","lat":43.29002,"lon":5.35602,"is_reserved":false,"is_disabled":false,"rental_uris":{"android":"levelo://app?vid=d6923d24-f342-4f50-bf25-54e30df2904a","ios":"levelo://app?vid=d6923d24-f342-4f50-bf25-54e30df2904a"},"vehicle_type_id":"4","last_reported":1730660805,"current_range_meters":23200,"station_id":"ce4bhb92rcd13ifvqen0","pricing_plan_id":"cebpf4jnsgd1na2vs0mg"},{"bike_id":"643f0b74-3410-4b14-8f20-b5835e9acabc","system_id":"levelo_inurba_marseille","lat":43.28037,"lon":5.36957,"is_reserved":false,"is_disabled":false,"rental_uris":{"android":"levelo://app?vid=643f0b74-3410-4b14-8f20-b5835e9acabc","ios":"levelo://app?vid=643f0b74-3410-4b14-8f20-b5835e9acabc"},"vehicle_type_id":"4","last_reported":1730660805,"current_range_meters":16000,"station_id":"ce4bha12rcd13ifvqef0","pricing_plan_id":"cebpf4jnsgd1na2vs0mg"},{"bike_id":"92076b3b-01fa-412f-b9fe-8f2ce833c281","system_id":"levelo_inurba_marseille","lat":43.29188,"lon":5.39329,"is_reserved":false,"is_disabled":false,"rental_uris":{"android":"levelo://app?vid=92076b3b-01fa-412f-b9fe-8f2ce833c281","ios":"levelo://app?vid=92076b3b-01fa-412f-b9fe-8f2ce833c281"},"vehicle_type_id":"4","last_reported":1730660805,"current_range_meters":16000,"station_id":"ce4bh192rcd13ifvqdd0","pricing_plan_id":"cebpf4jnsgd1na2vs0mg"},{"bike_id":"6adfb5b5-21cb-4671-8270-5d83206b0e42","system_id":"levelo_inurba_marseille","lat":43.2884,"lon":5.35776,"is_reserved":false,"is_disabled":false,"rental_uris":{"android":"levelo://app?vid=6adfb5b5-21cb-4671-8270-5d83206b0e42","ios":"levelo://app?vid=6adfb5b5-21cb-4671-8270-5d83206b0e42"},"vehicle_type_id":"4","last_reported":1730660805,"current_range_meters":18800,"station_id":"","pricing_plan_id":"cebpf4jnsgd1na2vs0mg"},{"bike_id":"b6fedd1a-250c-46bc-8898-b78ca73c2072","system_id":"levelo_inurba_marseille","lat":43.29266,"lon":5.38444,"is_reserved":false,"is_disabled":false,"rental_uris":{"android":"levelo://app?vid=b6fedd1a-250c-46bc-8898-b78ca73c2072","ios":"levelo://app?vid=b6fedd1a-250c-46bc-8898-b78ca73c2072"},"vehicle_type_id":"4","last_reported":1730660805,"current_range_meters":27200,"station_id":"ce4bh692rcd13ifvqea0","pricing_plan_id":"cebpf4jnsgd1na2vs0mg"},{"bike_id":"3060e12c-0318-48df-8b3d-466aa19dbff5","system_id":"levelo_inurba_marseille","lat":43.30328,"lon":5.40439,"is_reserved":false,"is_disabled":false,"rental_uris":{"android":"levelo://app?vid=3060e12c-0318-48df-8b3d-466aa19dbff5","ios":"levelo://app?vid=3060e12c-0318-48df-8b3d-466aa19dbff5"},"vehicle_type_id":"4","last_reported":1730660805,"current_range_meters":29600,"station_id":"ce4bh012rcd13ifvqd10","pricing_plan_id":"cebpf4jnsgd1na2vs0mg"},{"bike_id":"571da7e4-b5d4-4b07-b67c-7f557ad7bb12","system_id":"levelo_inurba_marseille","lat":43.28033,"lon":5.36948,"is_reserved":false,"is_disabled":false,"rental_uris":{"android":"levelo://app?vid=571da7e4-b5d4-4b07-b67c-7f557ad7bb12","ios":"levelo://app?vid=571da7e4-b5d4-4b07-b67c-7f557ad7bb12"},"vehicle_type_id":"4","last_reported":1730660805,"current_range_meters":38800,"station_id":"ce4bha12rcd13ifvqef0","pricing_plan_id":"cebpf4jnsgd1na2vs0mg"},{"bike_id":"e54a9e25-ac9f-47a2-b6ce-8e7088772790","system_id":"levelo_inurba_marseille","lat":43.33024,"lon":5.39027,"is_reserved":false,"is_disabled":false,"rental_uris":{"android":"levelo://app?vid=e54a9e25-ac9f-47a2-b6ce-8e7088772790","ios":"levelo://app?vid=e54a9e25-ac9f-47a2-b6ce-8e7088772790"},"vehicle_type_id":"4","last_reported":1730660805,"current_range_meters":14800,"station_id":"ce4bhr92rcd13ifvqhrg","pricing_plan_id":"cebpf4jnsgd1na2vs0mg"},{"bike_id":"329d0a9a-38c3-4530-98be-d74ad035c8be","system_id":"levelo_inurba_marseille","lat":43.24076,"lon":5.37758,"is_reserved":false,"is_disabled":false,"rental_uris":{"android":"levelo://app?vid=329d0a9a-38c3-4530-98be-d74ad035c8be","ios":"levelo://app?vid=329d0a9a-38c3-4530-98be-d74ad035c8be"},"vehicle_type_id":"4","last_reported":1730660805,"current_range_meters":16000,"station_id":"ce4bhnp2rcd13ifvqgvg","pricing_plan_id":"cebpf4jnsgd1na2vs0mg"},{"bike_id":"707a6131-9699-4f8b-996b-8a71ac2ffc92","system_id":"levelo_inurba_marseille","lat":43.295898,"lon":5.385454,"is_reserved":false,"is_disabled":false,"rental_uris":{"android":"levelo://app?vid=707a6131-9699-4f8b-996b-8a71ac2ffc92","ios":"levelo://app?vid=707a6131-9699-4f8b-996b-8a71ac2ffc92"},"vehicle_type_id":"4","last_reported":1730660805,"current_range_meters":25600,"station_id":"","pricing_plan_id":"cebpf4jnsgd1na2vs0mg"},{"bike_id":"baaca522-7328-4b04-b58c-0e91d5caf45e","system_id":"levelo_inurba_marseille","lat":43.25089,"lon":5.39521,"is_reserved":false,"is_disabled":false,"rental_uris":{"android":"levelo://app?vid=baaca522-7328-4b04-b58c-0e91d5caf45e","ios":"levelo://app?vid=baaca522-7328-4b04-b58c-0e91d5caf45e"},"vehicle_type_id":"4","last_reported":1730660805,"current_range_meters":25200,"station_id":"","pricing_plan_id":"cebpf4jnsgd1na2vs0mg"},{"bike_id":"3f021583-0e65-40bc-8201-d19e27615a6e","system_id":"levelo_inurba_marseille","lat":43.30257,"lon":5.40082,"is_reserved":false,"is_disabled":false,"rental_uris":{"android":"levelo://app?vid=3f021583-0e65-40bc-8201-d19e27615a6e","ios":"levelo://app?vid=3f021583-0e65-40bc-8201-d19e27615a6e"},"vehicle_type_id":"4","last_reported":1730660805,"current_range_meters":18000,"station_id":"ce4bgvh2rcd13ifvqcs0","pricing_plan_id":"cebpf4jnsgd1na2vs0mg"},{"bike_id":"6891eba4-2adf-4b89-b1dc-a9e4eec0f64b","system_id":"levelo_inurba_marseille","lat":43.28681,"lon":5.38666,"is_reserved":false,"is_disabled":false,"rental_uris":{"android":"levelo://app?vid=6891eba4-2adf-4b89-b1dc-a9e4eec0f64b","ios":"levelo://app?vid=6891eba4-2adf-4b89-b1dc-a9e4eec0f64b"},"vehicle_type_id":"4","last_reported":1730660805,"current_range_meters":19200,"station_id":"ce4bh492rcd13ifvqdug","pricing_plan_id":"cebpf4jnsgd1na2vs0mg"},{"bike_id":"1bb76bc6-1278-46d4-9761-05848b3361b6","system_id":"levelo_inurba_marseille","lat":43.29273,"lon":5.4012,"is_reserved":false,"is_disabled":false,"rental_uris":{"android":"levelo://app?vid=1bb76bc6-1278-46d4-9761-05848b3361b6","ios":"levelo://app?vid=1bb76bc6-1278-46d4-9761-05848b3361b6"},"vehicle_type_id":"4","last_reported":1730660805,"current_range_meters":17200,"station_id":"ce4bh312rcd13ifvqdk0","pricing_plan_id":"cebpf4jnsgd1na2vs0mg"},{"bike_id":"b7025435-eb3f-456a-8fb2-f639e2f34d1f","system_id":"levelo_inurba_marseille","lat":43.23179,"lon":5.39988,"is_reserved":false,"is_disabled":false,"rental_uris":{"android":"levelo://app?vid=b7025435-eb3f-456a-8fb2-f639e2f34d1f","ios":"levelo://app?vid=b7025435-eb3f-456a-8fb2-f639e2f34d1f"},"vehicle_type_id":"4","last_reported":1730660805,"current_range_meters":22400,"station_id":"ce4bhn12rcd13ifvqgqg","pricing_plan_id":"cebpf4jnsgd1na2vs0mg"},{"bike_id":"c45bdead-0b4b-4bc3-ae8d-a3a1eeb7c5ba","system_id":"levelo_inurba_marseille","lat":43.28454,"lon":5.35895,"is_reserved":false,"is_disabled":false,"rental_uris":{"android":"levelo://app?vid=c45bdead-0b4b-4bc3-ae8d-a3a1eeb7c5ba","ios":"levelo://app?vid=c45bdead-0b4b-4bc3-ae8d-a3a1eeb7c5ba"},"vehicle_type_id":"4","last_reported":1730660805,"current_range_meters":26800,"station_id":"ce4bhah2rcd13ifvqei0","pricing_plan_id":"cebpf4jnsgd1na2vs0mg"},{"bike_id":"bbc2b0c4-47e8-4a7a-9012-f278c215e98a","system_id":"levelo_inurba_marseille","lat":43.27994,"lon":5.40021,"is_reserved":false,"is_disabled":false,"rental_uris":{"android":"levelo://app?vid=bbc2b0c4-47e8-4a7a-9012-f278c215e98a","ios":"levelo://app?vid=bbc2b0c4-47e8-4a7a-9012-f278c215e98a"},"vehicle_type_id":"4","last_reported":1730660805,"current_range_meters":20400,"station_id":"ce4bho92rcd13ifvqh4g","pricing_plan_id":"cebpf4jnsgd1na2vs0mg"},{"bike_id":"16f23604-5f33-453a-98af-17af1c288b45","system_id":"levelo_inurba_marseille","lat":43.27993,"lon":5.40017,"is_reserved":false,"is_disabled":false,"rental_uris":{"android":"levelo://app?vid=16f23604-5f33-453a-98af-17af1c288b45","ios":"levelo://app?vid=16f23604-5f33-453a-98af-17af1c288b45"},"vehicle_type_id":"4","last_reported":1730660805,"current_range_meters":8000,"station_id":"ce4bho92rcd13ifvqh4g","pricing_plan_id":"cebpf4jnsgd1na2vs0mg"},{"bike_id":"ab9173ec-0645-441d-90af-326a5e948990","system_id":"levelo_inurba_marseille","lat":43.28351,"lon":5.38106,"is_reserved":false,"is_disabled":false,"rental_uris":{"android":"levelo://app?vid=ab9173ec-0645-441d-90af-326a5e948990","ios":"levelo://app?vid=ab9173ec-0645-441d-90af-326a5e948990"},"vehicle_type_id":"4","last_reported":1730660805,"current_range_meters":31200,"station_id":"ce4bh412rcd13ifvqdr0","pricing_plan_id":"cebpf4jnsgd1na2vs0mg"},{"bike_id":"5cbcd90c-57ed-4a82-bfd7-13dabab3836b","system_id":"levelo_inurba_marseille","lat":43.29268,"lon":5.36848,"is_reserved":false,"is_disabled":false,"rental_uris":{"android":"levelo://app?vid=5cbcd90c-57ed-4a82-bfd7-13dabab3836b","ios":"levelo://app?vid=5cbcd90c-57ed-4a82-bfd7-13dabab3836b"},"vehicle_type_id":"4","last_reported":1730660805,"current_range_meters":31200,"station_id":"ce4bhbp2rcd13ifvqesg","pricing_plan_id":"cebpf4jnsgd1na2vs0mg"},{"bike_id":"db26f5ad-b2ef-45e2-bcad-4925a1d4e797","system_id":"levelo_inurba_marseille","lat":43.30138,"lon":5.39855,"is_reserved":false,"is_disabled":false,"rental_uris":{"android":"levelo://app?vid=db26f5ad-b2ef-45e2-bcad-4925a1d4e797","ios":"levelo://app?vid=db26f5ad-b2ef-45e2-bcad-4925a1d4e797"},"vehicle_type_id":"4","last_reported":1730660805,"current_range_meters":13600,"station_id":"ce4bh0h2rcd13ifvqd40","pricing_plan_id":"cebpf4jnsgd1na2vs0mg"},{"bike_id":"93d5cd8e-0053-41bb-9d73-ed09d6aab400","system_id":"levelo_inurba_marseille","lat":43.29262,"lon":5.38438,"is_reserved":false,"is_disabled":false,"rental_uris":{"android":"levelo://app?vid=93d5cd8e-0053-41bb-9d73-ed09d6aab400","ios":"levelo://app?vid=93d5cd8e-0053-41bb-9d73-ed09d6aab400"},"vehicle_type_id":"4","last_reported":1730660805,"current_range_meters":4800,"station_id":"ce4bh692rcd13ifvqea0","pricing_plan_id":"cebpf4jnsgd1na2vs0mg"},{"bike_id":"718d9ab7-5921-49b7-8148-169d6d564cef","system_id":"levelo_inurba_marseille","lat":43.28703,"lon":5.37388,"is_reserved":false,"is_disabled":false,"rental_uris":{"android":"levelo://app?vid=718d9ab7-5921-49b7-8148-169d6d564cef","ios":"levelo://app?vid=718d9ab7-5921-49b7-8148-169d6d564cef"},"vehicle_type_id":"4","last_reported":1730660805,"current_range_meters":6000,"station_id":"ce4bh3p2rcd13ifvqdq0","pricing_plan_id":"cebpf4jnsgd1na2vs0mg"},{"bike_id":"4987ec17-f407-4a16-8943-04b6ff68cf12","system_id":"levelo_inurba_marseille","lat":43.27994,"lon":5.40011,"is_reserved":false,"is_disabled":false,"rental_uris":{"android":"levelo://app?vid=4987ec17-f407-4a16-8943-04b6ff68cf12","ios":"levelo://app?vid=4987ec17-f407-4a16-8943-04b6ff68cf12"},"vehicle_type_id":"4","last_reported":1730660805,"current_range_meters":8400,"station_id":"ce4bho92rcd13ifvqh4g","pricing_plan_id":"cebpf4jnsgd1na2vs0mg"},{"bike_id":"d5154aa7-9f6d-4f09-8dd7-076b92df9944","system_id":"levelo_inurba_marseille","lat":43.30957,"lon":5.39038,"is_reserved":false,"is_disabled":false,"rental_uris":{"android":"levelo://app?vid=d5154aa7-9f6d-4f09-8dd7-076b92df9944","ios":"levelo://app?vid=d5154aa7-9f6d-4f09-8dd7-076b92df9944"},"vehicle_type_id":"4","last_reported":1730660805,"current_range_meters":38000,"station_id":"ce4bgup2rcd13ifvqco0","pricing_plan_id":"cebpf4jnsgd1na2vs0mg"},{"bike_id":"ad6b9979-2833-497c-ae59-5afeb88a87ce","system_id":"levelo_inurba_marseille","lat":43.32363,"lon":5.36754,"is_reserved":false,"is_disabled":false,"rental_uris":{"android":"levelo://app?vid=ad6b9979-2833-497c-ae59-5afeb88a87ce","ios":"levelo://app?vid=ad6b9979-2833-497c-ae59-5afeb88a87ce"},"vehicle_type_id":"4","last_reported":1730660805,"current_range_meters":4400,"station_id":"ce4bhsh2rcd13ifvqi2g","pricing_plan_id":"cebpf4jnsgd1na2vs0mg"},{"bike_id":"4c37402e-d84e-439b-8190-b6fa7aba4890","system_id":"levelo_inurba_marseille","lat":43.30591,"lon":5.3935,"is_reserved":false,"is_disabled":false,"rental_uris":{"android":"levelo://app?vid=4c37402e-d84e-439b-8190-b6fa7aba4890","ios":"levelo://app?vid=4c37402e-d84e-439b-8190-b6fa7aba4890"},"vehicle_type_id":"4","last_reported":1730660805,"current_range_meters":24000,"station_id":"ce4bh0p2rcd13ifvqd80","pricing_plan_id":"cebpf4jnsgd1na2vs0mg"},{"bike_id":"31008d72-eb96-4748-9480-4e3706ccf5b2","system_id":"levelo_inurba_marseille","lat":43.29417,"lon":5.3862,"is_reserved":false,"is_disabled":false,"rental_uris":{"android":"levelo://app?vid=31008d72-eb96-4748-9480-4e3706ccf5b2","ios":"levelo://app?vid=31008d72-eb96-4748-9480-4e3706ccf5b2"},"vehicle_type_id":"4","last_reported":1730660805,"current_range_meters":6400,"station_id":"ce4bh2h2rcd13ifvqdh0","pricing_plan_id":"cebpf4jnsgd1na2vs0mg"},{"bike_id":"b44939f3-d8c5-4fe0-b15a-afc4e39e9275","system_id":"levelo_inurba_marseille","lat":43.27568,"lon":5.38424,"is_reserved":false,"is_disabled":false,"rental_uris":{"android":"levelo://app?vid=b44939f3-d8c5-4fe0-b15a-afc4e39e9275","ios":"levelo://app?vid=b44939f3-d8c5-4fe0-b15a-afc4e39e9275"},"vehicle_type_id":"4","last_reported":1730660805,"current_range_meters":36800,"station_id":"ce4bhh92rcd13ifvqfi0","pricing_plan_id":"cebpf4jnsgd1na2vs0mg"},{"bike_id":"e2cb4f32-8156-4ec8-a134-f852bf26a127","system_id":"levelo_inurba_marseille","lat":43.26495,"lon":5.39544,"is_reserved":false,"is_disabled":false,"rental_uris":{"android":"levelo://app?vid=e2cb4f32-8156-4ec8-a134-f852bf26a127","ios":"levelo://app?vid=e2cb4f32-8156-4ec8-a134-f852bf26a127"},"vehicle_type_id":"4","last_reported":1730660805,"current_range_meters":31200,"station_id":"ce4bhi12rcd13ifvqfq0","pricing_plan_id":"cebpf4jnsgd1na2vs0mg"},{"bike_id":"ad346b1e-c247-4c08-a95b-123f574102cc","system_id":"levelo_inurba_marseille","lat":43.29008,"lon":5.35609,"is_reserved":false,"is_disabled":false,"rental_uris":{"android":"levelo://app?vid=ad346b1e-c247-4c08-a95b-123f574102cc","ios":"levelo://app?vid=ad346b1e-c247-4c08-a95b-123f574102cc"},"vehicle_type_id":"4","last_reported":1730660805,"current_range_meters":32400,"station_id":"ce4bhb92rcd13ifvqen0","pricing_plan_id":"cebpf4jnsgd1na2vs0mg"},{"bike_id":"b558b9b5-e9f7-43cf-a5ff-3817526488d3","system_id":"levelo_inurba_marseille","lat":43.27999,"lon":5.40011,"is_reserved":false,"is_disabled":false,"rental_uris":{"android":"levelo://app?vid=b558b9b5-e9f7-43cf-a5ff-3817526488d3","ios":"levelo://app?vid=b558b9b5-e9f7-43cf-a5ff-3817526488d3"},"vehicle_type_id":"4","last_reported":1730660805,"current_range_meters":2000,"station_id":"ce4bho92rcd13ifvqh4g","pricing_plan_id":"cebpf4jnsgd1na2vs0mg"},{"bike_id":"d82a0734-6a50-4380-b728-e06844fe66f8","system_id":"levelo_inurba_marseille","lat":43.28369,"lon":5.38632,"is_reserved":false,"is_disabled":false,"rental_uris":{"android":"levelo://app?vid=d82a0734-6a50-4380-b728-e06844fe66f8","ios":"levelo://app?vid=d82a0734-6a50-4380-b728-e06844fe66f8"},"vehicle_type_id":"4","last_reported":1730660805,"current_range_meters":18800,"station_id":"ce4bh492rcd13ifvqdvg","pricing_plan_id":"cebpf4jnsgd1na2vs0mg"},{"bike_id":"5229ac13-cebc-41be-a25c-1aa4b6823fd9","system_id":"levelo_inurba_marseille","lat":43.31083,"lon":5.4243,"is_reserved":false,"is_disabled":false,"rental_uris":{"android":"levelo://app?vid=5229ac13-cebc-41be-a25c-1aa4b6823fd9","ios":"levelo://app?vid=5229ac13-cebc-41be-a25c-1aa4b6823fd9"},"vehicle_type_id":"4","last_reported":1730660805,"current_range_meters":16800,"station_id":"ce4bhp92rcd13ifvqhag","pricing_plan_id":"cebpf4jnsgd1na2vs0mg"},{"bike_id":"22277462-ea58-4946-ba2c-ef08f6cd7659","system_id":"levelo_inurba_marseille","lat":43.2797,"lon":5.4105,"is_reserved":false,"is_disabled":false,"rental_uris":{"android":"levelo://app?vid=22277462-ea58-4946-ba2c-ef08f6cd7659","ios":"levelo://app?vid=22277462-ea58-4946-ba2c-ef08f6cd7659"},"vehicle_type_id":"4","last_reported":1730660805,"current_range_meters":16000,"station_id":"","pricing_plan_id":"cebpf4jnsgd1na2vs0mg"},{"bike_id":"c07332d5-f871-4d7c-9894-5a99fdbe9ec1","system_id":"levelo_inurba_marseille","lat":43.25092,"lon":5.39532,"is_reserved":false,"is_disabled":false,"rental_uris":{"android":"levelo://app?vid=c07332d5-f871-4d7c-9894-5a99fdbe9ec1","ios":"levelo://app?vid=c07332d5-f871-4d7c-9894-5a99fdbe9ec1"},"vehicle_type_id":"4","last_reported":1730660805,"current_range_meters":28000,"station_id":"ce4bhm12rcd13ifvqgkg","pricing_plan_id":"cebpf4jnsgd1na2vs0mg"},{"bike_id":"e2cff782-0c3b-4bb8-99d5-0f2217531ae7","system_id":"levelo_inurba_marseille","lat":43.24546,"lon":5.39525,"is_reserved":false,"is_disabled":false,"rental_uris":{"android":"levelo://app?vid=e2cff782-0c3b-4bb8-99d5-0f2217531ae7","ios":"levelo://app?vid=e2cff782-0c3b-4bb8-99d5-0f2217531ae7"},"vehicle_type_id":"4","last_reported":1730660805,"current_range_meters":17200,"station_id":"ce4bhlp2rcd13ifvqgjg","pricing_plan_id":"cebpf4jnsgd1na2vs0mg"},{"bike_id":"c3fb2970-4dbf-495c-8cdf-abd1d91b1c53","system_id":"levelo_inurba_marseille","lat":43.27576,"lon":5.38427,"is_reserved":false,"is_disabled":false,"rental_uris":{"android":"levelo://app?vid=c3fb2970-4dbf-495c-8cdf-abd1d91b1c53","ios":"levelo://app?vid=c3fb2970-4dbf-495c-8cdf-abd1d91b1c53"},"vehicle_type_id":"4","last_reported":1730660805,"current_range_meters":17200,"station_id":"ce4bhh92rcd13ifvqfi0","pricing_plan_id":"cebpf4jnsgd1na2vs0mg"},{"bike_id":"307f8e5c-51c3-4161-8dbe-9cd41667dbdb","system_id":"levelo_inurba_marseille","lat":43.28696,"lon":5.37384,"is_reserved":false,"is_disabled":false,"rental_uris":{"android":"levelo://app?vid=307f8e5c-51c3-4161-8dbe-9cd41667dbdb","ios":"levelo://app?vid=307f8e5c-51c3-4161-8dbe-9cd41667dbdb"},"vehicle_type_id":"4","last_reported":1730660805,"current_range_meters":32000,"station_id":"ce4bh3p2rcd13ifvqdq0","pricing_plan_id":"cebpf4jnsgd1na2vs0mg"},{"bike_id":"8e8379ae-955e-4504-bab9-cedaa0e45385","system_id":"levelo_inurba_marseille","lat":43.301375,"lon":5.387676,"is_reserved":false,"is_disabled":false,"rental_uris":{"android":"levelo://app?vid=8e8379ae-955e-4504-bab9-cedaa0e45385","ios":"levelo://app?vid=8e8379ae-955e-4504-bab9-cedaa0e45385"},"vehicle_type_id":"4","last_reported":1730660805,"current_range_meters":8800,"station_id":"ce4bghh2rcd13ifvqb60","pricing_plan_id":"cebpf4jnsgd1na2vs0mg"},{"bike_id":"9e4688bc-6af7-4a47-aabc-446c8153cf1e","system_id":"levelo_inurba_marseille","lat":43.28482,"lon":5.38406,"is_reserved":false,"is_disabled":false,"rental_uris":{"android":"levelo://app?vid=9e4688bc-6af7-4a47-aabc-446c8153cf1e","ios":"levelo://app?vid=9e4688bc-6af7-4a47-aabc-446c8153cf1e"},"vehicle_type_id":"4","last_reported":1730660805,"current_range_meters":2800,"station_id":"ce4bh512rcd13ifvqe3g","pricing_plan_id":"cebpf4jnsgd1na2vs0mg"},{"bike_id":"57bc2d37-8d42-4255-94e0-6c205e39083b","system_id":"levelo_inurba_marseille","lat":43.27426,"lon":5.39418,"is_reserved":false,"is_disabled":false,"rental_uris":{"android":"levelo://app?vid=57bc2d37-8d42-4255-94e0-6c205e39083b","ios":"levelo://app?vid=57bc2d37-8d42-4255-94e0-6c205e39083b"},"vehicle_type_id":"4","last_reported":1730660805,"current_range_meters":36800,"station_id":"ce4bhdp2rcd13ifvqf20","pricing_plan_id":"cebpf4jnsgd1na2vs0mg"},{"bike_id":"1bb25281-04e7-463d-95ba-d67adb79f1dd","system_id":"levelo_inurba_marseille","lat":43.30247,"lon":5.40074,"is_reserved":false,"is_disabled":false,"rental_uris":{"android":"levelo://app?vid=1bb25281-04e7-463d-95ba-d67adb79f1dd","ios":"levelo://app?vid=1bb25281-04e7-463d-95ba-d67adb79f1dd"},"vehicle_type_id":"4","last_reported":1730660805,"current_range_meters":38800,"station_id":"ce4bgvh2rcd13ifvqcs0","pricing_plan_id":"cebpf4jnsgd1na2vs0mg"},{"bike_id":"995a4442-5a09-4f02-a57d-a0828530726a","system_id":"levelo_inurba_marseille","lat":43.31988,"lon":5.38121,"is_reserved":false,"is_disabled":false,"rental_uris":{"android":"levelo://app?vid=995a4442-5a09-4f02-a57d-a0828530726a","ios":"levelo://app?vid=995a4442-5a09-4f02-a57d-a0828530726a"},"vehicle_type_id":"4","last_reported":1730660805,"current_range_meters":31200,"station_id":"ce4bhr12rcd13ifvqhpg","pricing_plan_id":"cebpf4jnsgd1na2vs0mg"},{"bike_id":"dffdad75-b3e2-44b8-9d1f-68270a7f43d6","system_id":"levelo_inurba_marseille","lat":43.29494,"lon":5.38678,"is_reserved":false,"is_disabled":false,"rental_uris":{"android":"levelo://app?vid=dffdad75-b3e2-44b8-9d1f-68270a7f43d6","ios":"levelo://app?vid=dffdad75-b3e2-44b8-9d1f-68270a7f43d6"},"vehicle_type_id":"4","last_reported":1730660805,"current_range_meters":8800,"station_id":"","pricing_plan_id":"cebpf4jnsgd1na2vs0mg"},{"bike_id":"763040b2-13a0-4c2d-b378-2f7279661b26","system_id":"levelo_inurba_marseille","lat":43.29292,"lon":5.37454,"is_reserved":false,"is_disabled":false,"rental_uris":{"android":"levelo://app?vid=763040b2-13a0-4c2d-b378-2f7279661b26","ios":"levelo://app?vid=763040b2-13a0-4c2d-b378-2f7279661b26"},"vehicle_type_id":"4","last_reported":1730660805,"current_range_meters":38800,"station_id":"ce4bgi12rcd13ifvqb70","pricing_plan_id":"cebpf4jnsgd1na2vs0mg"},{"bike_id":"47f5b940-7a16-426a-8751-2a4583315fd0","system_id":"levelo_inurba_marseille","lat":43.29256,"lon":5.38452,"is_reserved":false,"is_disabled":false,"rental_uris":{"android":"levelo://app?vid=47f5b940-7a16-426a-8751-2a4583315fd0","ios":"levelo://app?vid=47f5b940-7a16-426a-8751-2a4583315fd0"},"vehicle_type_id":"4","last_reported":1730660805,"current_range_meters":37600,"station_id":"ce4bh692rcd13ifvqea0","pricing_plan_id":"cebpf4jnsgd1na2vs0mg"},{"bike_id":"b58b3579-fc8a-4ebe-8975-a7afb4a8971d","system_id":"levelo_inurba_marseille","lat":43.28922,"lon":5.38389,"is_reserved":false,"is_disabled":false,"rental_uris":{"android":"levelo://app?vid=b58b3579-fc8a-4ebe-8975-a7afb4a8971d","ios":"levelo://app?vid=b58b3579-fc8a-4ebe-8975-a7afb4a8971d"},"vehicle_type_id":"4","last_reported":1730660805,"current_range_meters":38800,"station_id":"ce4bh612rcd13ifvqe6g","pricing_plan_id":"cebpf4jnsgd1na2vs0mg"},{"bike_id":"689473a3-29fe-4cbf-a038-950c16925015","system_id":"levelo_inurba_marseille","lat":43.2981,"lon":5.40406,"is_reserved":false,"is_disabled":false,"rental_uris":{"android":"levelo://app?vid=689473a3-29fe-4cbf-a038-950c16925015","ios":"levelo://app?vid=689473a3-29fe-4cbf-a038-950c16925015"},"vehicle_type_id":"4","last_reported":1730660805,"current_range_meters":38800,"station_id":"ce4bh112rcd13ifvqd90","pricing_plan_id":"cebpf4jnsgd1na2vs0mg"},{"bike_id":"3a772e35-14c4-4b99-b307-36514407ba6f","system_id":"levelo_inurba_marseille","lat":43.31995,"lon":5.38161,"is_reserved":false,"is_disabled":false,"rental_uris":{"android":"levelo://app?vid=3a772e35-14c4-4b99-b307-36514407ba6f","ios":"levelo://app?vid=3a772e35-14c4-4b99-b307-36514407ba6f"},"vehicle_type_id":"4","last_reported":1730660805,"current_range_meters":38800,"station_id":"ce4bhr12rcd13ifvqhpg","pricing_plan_id":"cebpf4jnsgd1na2vs0mg"},{"bike_id":"ab1699e7-fd59-45c1-bb74-22f9eae7c326","system_id":"levelo_inurba_marseille","lat":43.25,"lon":5.38929,"is_reserved":false,"is_disabled":false,"rental_uris":{"android":"levelo://app?vid=ab1699e7-fd59-45c1-bb74-22f9eae7c326","ios":"levelo://app?vid=ab1699e7-fd59-45c1-bb74-22f9eae7c326"},"vehicle_type_id":"4","last_reported":1730660805,"current_range_meters":20800,"station_id":"ce4bhgp2rcd13ifvqfd0","pricing_plan_id":"cebpf4jnsgd1na2vs0mg"},{"bike_id":"eaae64dc-0274-45b2-8a6d-6936f1f36c54","system_id":"levelo_inurba_marseille","lat":43.31751,"lon":5.39021,"is_reserved":false,"is_disabled":false,"rental_uris":{"android":"levelo://app?vid=eaae64dc-0274-45b2-8a6d-6936f1f36c54","ios":"levelo://app?vid=eaae64dc-0274-45b2-8a6d-6936f1f36c54"},"vehicle_type_id":"4","last_reported":1730660805,"current_range_meters":5600,"station_id":"ce4bhqp2rcd13ifvqhng","pricing_plan_id":"cebpf4jnsgd1na2vs0mg"},{"bike_id":"be0c211c-0613-4667-97e4-89d9bd3b8034","system_id":"levelo_inurba_marseille","lat":43.29104,"lon":5.38148,"is_reserved":false,"is_disabled":false,"rental_uris":{"android":"levelo://app?vid=be0c211c-0613-4667-97e4-89d9bd3b8034","ios":"levelo://app?vid=be0c211c-0613-4667-97e4-89d9bd3b8034"},"vehicle_type_id":"4","last_reported":1730660805,"current_range_meters":37600,"station_id":"ce4bh512rcd13ifvqe2g","pricing_plan_id":"cebpf4jnsgd1na2vs0mg"},{"bike_id":"16aab5b7-5c8a-423a-879b-fcb68b2e654e","system_id":"levelo_inurba_marseille","lat":43.30132,"lon":5.39865,"is_reserved":false,"is_disabled":false,"rental_uris":{"android":"levelo://app?vid=16aab5b7-5c8a-423a-879b-fcb68b2e654e","ios":"levelo://app?vid=16aab5b7-5c8a-423a-879b-fcb68b2e654e"},"vehicle_type_id":"4","last_reported":1730660805,"current_range_meters":30000,"station_id":"ce4bh0h2rcd13ifvqd40","pricing_plan_id":"cebpf4jnsgd1na2vs0mg"},{"bike_id":"1ac0ecfd-20d7-4057-8e45-b9b27dc24b56","system_id":"levelo_inurba_marseille","lat":43.30264,"lon":5.40075,"is_reserved":false,"is_disabled":false,"rental_uris":{"android":"levelo://app?vid=1ac0ecfd-20d7-4057-8e45-b9b27dc24b56","ios":"levelo://app?vid=1ac0ecfd-20d7-4057-8e45-b9b27dc24b56"},"vehicle_type_id":"4","last_reported":1730660805,"current_range_meters":35600,"station_id":"ce4bgvh2rcd13ifvqcs0","pricing_plan_id":"cebpf4jnsgd1na2vs0mg"},{"bike_id":"fdcaf571-a524-40f9-900a-9dcd3c78f2c0","system_id":"levelo_inurba_marseille","lat":43.28697,"lon":5.37389,"is_reserved":false,"is_disabled":false,"rental_uris":{"android":"levelo://app?vid=fdcaf571-a524-40f9-900a-9dcd3c78f2c0","ios":"levelo://app?vid=fdcaf571-a524-40f9-900a-9dcd3c78f2c0"},"vehicle_type_id":"4","last_reported":1730660805,"current_range_meters":6800,"station_id":"ce4bh3p2rcd13ifvqdq0","pricing_plan_id":"cebpf4jnsgd1na2vs0mg"},{"bike_id":"a37f1ad1-7ed5-4049-909d-7d43d3b53fb5","system_id":"levelo_inurba_marseille","lat":43.3059,"lon":5.39354,"is_reserved":false,"is_disabled":false,"rental_uris":{"android":"levelo://app?vid=a37f1ad1-7ed5-4049-909d-7d43d3b53fb5","ios":"levelo://app?vid=a37f1ad1-7ed5-4049-909d-7d43d3b53fb5"},"vehicle_type_id":"4","last_reported":1730660805,"current_range_meters":36800,"station_id":"ce4bh0p2rcd13ifvqd80","pricing_plan_id":"cebpf4jnsgd1na2vs0mg"},{"bike_id":"24a24910-6987-4ad8-ae1f-25f5202c9fd5","system_id":"levelo_inurba_marseille","lat":43.27563,"lon":5.38418,"is_reserved":false,"is_disabled":false,"rental_uris":{"android":"levelo://app?vid=24a24910-6987-4ad8-ae1f-25f5202c9fd5","ios":"levelo://app?vid=24a24910-6987-4ad8-ae1f-25f5202c9fd5"},"vehicle_type_id":"4","last_reported":1730660805,"current_range_meters":39200,"station_id":"ce4bhh92rcd13ifvqfi0","pricing_plan_id":"cebpf4jnsgd1na2vs0mg"},