{"last_updated":1773409936,"ttl":60,"version":"2.2","data":{"bikes":[{"bike_id":"19691a7e-d227-4f2f-9137-873d9a39eff4","system_id":"levelo_inurba_marseille","lat":43.23154,"lon":5.43698,"is_reserved":false,"is_disabled":false,"rental_uris":{"android":"levelo://app?vid=19691a7e-d227-4f2f-9137-873d9a39eff4","ios":"levelo://app?vid=19691a7e-d227-4f2f-9137-873d9a39eff4"},"vehicle_type_id":"4","last_reported":1773409936,"current_range_meters":37600,"station_id":"ce4bhmp2rcd13ifvqgog","pricing_plan_id":"cebpf4jnsgd1na2vs0mg"},{"bike_id":"ebf75af1-c1e1-4ab4-be7a-03ecdd2c2597","system_id":"levelo_inurba_marseille","lat":43.31016,"lon":5.37136,"is_reserved":false,"is_disabled":false,"rental_uris":{"android":"levelo://app?vid=ebf75af1-c1e1-4ab4-be7a-03ecdd2c2597","ios":"levelo://app?vid=ebf75af1-c1e1-4ab4-be7a-03ecdd2c2597"},"vehicle_type_id":"4","last_reported":1773409936,"current_range_meters":34000,"station_id":"st_d4kl2rp97mjs73e7tdfg","pricing_plan_id":"cebpf4jnsgd1na2vs0mg"},{"bike_id":"dbcd0d5d-c925-42ce-8639-98c254a6f766","system_id":"levelo_inurba_marseille","lat":43.31049,"lon":5.37144,"is_reserved":false,"is_disabled":false,"rental_uris":{"android":"levelo://app?vid=dbcd0d5d-c925-42ce-8639-98c254a6f766","ios":"levelo://app?vid=dbcd0d5d-c925-42ce-8639-98c254a6f766"},"vehicle_type_id":"4","last_reported":1773409936,"current_range_meters":35200,"station_id":"st_d4kl2rp97mjs73e7tdfg","pricing_plan_id":"cebpf4jnsgd1na2vs0mg"},{"bike_id":"895e7cf9-4cb2-4dc3-aec9-fd7326baacbe","system_id":"levelo_inurba_marseille","lat":43.31071,"lon":5.37147,"is_reserved":false,"is_disabled":false,"rental_uris":{"android":"levelo://app?vid=895e7cf9-4cb2-4dc3-aec9-fd7326baacbe","ios":"levelo://app?vid=895e7cf9-4cb2-4dc3-aec9-fd7326baacbe"},"vehicle_type_id":"4","last_reported":1773409936,"current_range_meters":35200,"station_id":"st_d4kl2rp97mjs73e7tdfg","pricing_plan_id":"cebpf4jnsgd1na2vs0mg"},{"bike_id":"f8859008-76ae-4d29-a566-36c686b68670","system_id":"levelo_inurba_marseille","lat":43.31077,"lon":5.37162,"is_reserved":false,"is_disabled":false,"rental_uris":{"android":"levelo://app?vid=f8859008-76ae-4d29-a566-36c686b68670","ios":"levelo://app?vid=f8859008-76ae-4d29-a566-36c686b68670"},"vehicle_type_id":"4","last_reported":1773409936,"current_range_meters":34000,"station_id":"st_d4kl2rp97mjs73e7tdfg","pricing_plan_id":"cebpf4jnsgd1na2vs0mg"},{"bike_id":"84258842-b27c-44d2-a3e3-a8ab065af084","system_id":"levelo_inurba_marseille","lat":43.26058,"lon":5.39396,"is_reserved":false,"is_disabled":false,"rental_uris":{"android":"levelo://app?vid=84258842-b27c-44d2-a3e3-a8ab065af084","ios":"levelo://app?vid=84258842-b27c-44d2-a3e3-a8ab065af084"},"vehicle_type_id":"4","last_reported":1773409936,"current_range_meters":36800,"station_id":"ce4bhh92rcd13ifvqfj0","pricing_plan_id":"cebpf4jnsgd1na2vs0mg"},{"bike_id":"0c0089e7-1a1e-46a0-9bbc-b3db79f60db5","system_id":"levelo_inurba_marseille","lat":43.27391,"lon":5.36257,"is_reserved":false,"is_disabled":false,"rental_uris":{"android":"levelo://app?vid=0c0089e7-1a1e-46a0-9bbc-b3db79f60db5","ios":"levelo://app?vid=0c0089e7-1a1e-46a0-9bbc-b3db79f60db5"},"vehicle_type_id":"4","last_reported":1773409936,"current_range_meters":39200,"station_id":"ce4bhbh2rcd13ifvqeo0","pricing_plan_id":"cebpf4jnsgd1na2vs0mg"},{"bike_id":"c0ca0016-4706-4e84-9dd3-8c1ffe3136b4","system_id":"levelo_inurba_marseille","lat":43.27366,"lon":5.36257,"is_reserved":false,"is_disabled":false,"rental_uris":{"android":"levelo://app?vid=c0ca0016-4706-4e84-9dd3-8c1ffe3136b4","ios":"levelo://app?vid=c0ca0016-4706-4e84-9dd3-8c1ffe3136b4"},"vehicle_type_id":"4","last_reported":1773409936,"current_range_meters":26800,"station_id":"ce4bhbh2rcd13ifvqeo0","pricing_plan_id":"cebpf4jnsgd1na2vs0mg"},{"bike_id":"7ffa041c-bc7f-4159-90b7-8ee18db551ca","system_id":"levelo_inurba_marseille","lat":43.2996,"lon":5.37333,"is_reserved":false,"is_disabled":false,"rental_uris":{"android":"levelo://app?vid=7ffa041c-bc7f-4159-90b7-8ee18db551ca","ios":"levelo://app?vid=7ffa041c-bc7f-4159-90b7-8ee18db551ca"},"vehicle_type_id":"4","last_reported":1773409936,"current_range_meters":10800,"station_id":"","pricing_plan_id":"cebpf4jnsgd1na2vs0mg"},{"bike_id":"0abdfccd-273e-4848-938e-3cedbfeb6a37","system_id":"levelo_inurba_marseille","lat":43.2827,"lon":5.35067,"is_reserved":false,"is_disabled":false,"rental_uris":{"android":"levelo://app?vid=0abdfccd-273e-4848-938e-3cedbfeb6a37","ios":"levelo://app?vid=0abdfccd-273e-4848-938e-3cedbfeb6a37"},"vehicle_type_id":"4","last_reported":1773409936,"current_range_meters":17200,"station_id":"ce4bhbp2rcd13ifvqerg","pricing_plan_id":"cebpf4jnsgd1na2vs0mg"},{"bike_id":"f8752ee3-a186-49f5-9eb6-2d352a6260f7","system_id":"levelo_inurba_marseille","lat":43.32658,"lon":5.41,"is_reserved":false,"is_disabled":true,"rental_uris":{"android":"levelo://app?vid=f8752ee3-a186-49f5-9eb6-2d352a6260f7","ios":"levelo://app?vid=f8752ee3-a186-49f5-9eb6-2d352a6260f7"},"vehicle_type_id":"4","last_reported":1773409936,"current_range_meters":40000,"station_id":"ce4bhpp2rcd13ifvqhgg","pricing_plan_id":"cebpf4jnsgd1na2vs0mg"},{"bike_id":"c3333fda-9b1a-440e-b613-adbe14b1ec90","system_id":"levelo_inurba_marseille","lat":43.29573,"lon":5.39979,"is_reserved":false,"is_disabled":false,"rental_uris":{"android":"levelo://app?vid=c3333fda-9b1a-440e-b613-adbe14b1ec90","ios":"levelo://app?vid=c3333fda-9b1a-440e-b613-adbe14b1ec90"},"vehicle_type_id":"4","last_reported":1773409936,"current_range_meters":6800,"station_id":"ce4bh312rcd13ifvqdj0","pricing_plan_id":"cebpf4jnsgd1na2vs0mg"},{"bike_id":"ae540bed-ed3b-4247-abad-fe29acd1fb3e","system_id":"levelo_inurba_marseille","lat":43.33014,"lon":5.39014,"is_reserved":false,"is_disabled":false,"rental_uris":{"android":"levelo://app?vid=ae540bed-ed3b-4247-abad-fe29acd1fb3e","ios":"levelo://app?vid=ae540bed-ed3b-4247-abad-fe29acd1fb3e"},"vehicle_type_id":"4","last_reported":1773409936,"current_range_meters":38000,"station_id":"ce4bhr92rcd13ifvqhrg","pricing_plan_id":"cebpf4jnsgd1na2vs0mg"},{"bike_id":"18f35d94-7133-4b4b-a629-0bec9d48af36","system_id":"levelo_inurba_marseille","lat":43.28479,"lon":5.48392,"is_reserved":false,"is_disabled":false,"rental_uris":{"android":"levelo://app?vid=18f35d94-7133-4b4b-a629-0bec9d48af36","ios":"levelo://app?vid=18f35d94-7133-4b4b-a629-0bec9d48af36"},"vehicle_type_id":"4","last_reported":1773409936,"current_range_meters":28400,"station_id":"","pricing_plan_id":"cebpf4jnsgd1na2vs0mg"},{"bike_id":"b2399a9f-a598-463b-80a6-f3cff6f3600d","system_id":"levelo_inurba_marseille","lat":43.29778,"lon":5.36503,"is_reserved":false,"is_disabled":false,"rental_uris":{"android":"levelo://app?vid=b2399a9f-a598-463b-80a6-f3cff6f3600d","ios":"levelo://app?vid=b2399a9f-a598-463b-80a6-f3cff6f3600d"},"vehicle_type_id":"4","last_reported":1773409936,"current_range_meters":27200,"station_id":"","pricing_plan_id":"cebpf4jnsgd1na2vs0mg"},{"bike_id":"058a40ef-aca0-46a1-b31e-3c5dc3514929","system_id":"levelo_inurba_marseille","lat":43.28414,"lon":5.3498,"is_reserved":false,"is_disabled":false,"rental_uris":{"android":"levelo://app?vid=058a40ef-aca0-46a1-b31e-3c5dc3514929","ios":"levelo://app?vid=058a40ef-aca0-46a1-b31e-3c5dc3514929"},"vehicle_type_id":"4","last_reported":1773409936,"current_range_meters":38800,"station_id":"ce4bhbh2rcd13ifvqepg","pricing_plan_id":"cebpf4jnsgd1na2vs0mg"},{"bike_id":"ead8a8d2-17cb-4cc8-b49b-913bb0907648","system_id":"levelo_inurba_marseille","lat":43.28407,"lon":5.3499,"is_reserved":false,"is_disabled":false,"rental_uris":{"android":"levelo://app?vid=ead8a8d2-17cb-4cc8-b49b-913bb0907648","ios":"levelo://app?vid=ead8a8d2-17cb-4cc8-b49b-913bb0907648"},"vehicle_type_id":"4","last_reported":1773409936,"current_range_meters":14400,"station_id":"ce4bhbh2rcd13ifvqepg","pricing_plan_id":"cebpf4jnsgd1na2vs0mg"},{"bike_id":"7db92065-fd6e-4014-982f-daf9b3e1e88d","system_id":"levelo_inurba_marseille","lat":43.25811,"lon":5.39415,"is_reserved":false,"is_disabled":false,"rental_uris":{"android":"levelo://app?vid=7db92065-fd6e-4014-982f-daf9b3e1e88d","ios":"levelo://app?vid=7db92065-fd6e-4014-982f-daf9b3e1e88d"},"vehicle_type_id":"4","last_reported":1773409936,"current_range_meters":19200,"station_id":"ce4bhip2rcd13ifvqft0","pricing_plan_id":"cebpf4jnsgd1na2vs0mg"},{"bike_id":"4de50d08-94af-4257-903b-f1195f551046","system_id":"levelo_inurba_marseille","lat":43.23144,"lon":5.43729,"is_reserved":false,"is_disabled":false,"rental_uris":{"android":"levelo://app?vid=4de50d08-94af-4257-903b-f1195f551046","ios":"levelo://app?vid=4de50d08-94af-4257-903b-f1195f551046"},"vehicle_type_id":"4","last_reported":1773409936,"current_range_meters":8000,"station_id":"ce4bhmp2rcd13ifvqgog","pricing_plan_id":"cebpf4jnsgd1na2vs0mg"},{"bike_id":"2160cf90-c2ed-4bac-8d60-36bbdf94fd16","system_id":"levelo_inurba_marseille","lat":43.31503,"lon":5.37302,"is_reserved":false,"is_disabled":false,"rental_uris":{"android":"levelo://app?vid=2160cf90-c2ed-4bac-8d60-36bbdf94fd16","ios":"levelo://app?vid=2160cf90-c2ed-4bac-8d60-36bbdf94fd16"},"vehicle_type_id":"4","last_reported":1773409936,"current_range_meters":38400,"station_id":"ce4bgt12rcd13ifvqcd0","pricing_plan_id":"cebpf4jnsgd1na2vs0mg"},{"bike_id":"bb59f437-04ce-472a-8259-f42eb5a79dcb","system_id":"levelo_inurba_marseille","lat":43.29922,"lon":5.37544,"is_reserved":false,"is_disabled":false,"rental_uris":{"android":"levelo://app?vid=bb59f437-04ce-472a-8259-f42eb5a79dcb","ios":"levelo://app?vid=bb59f437-04ce-472a-8259-f42eb5a79dcb"},"vehicle_type_id":"4","last_reported":1773409936,"current_range_meters":38000,"station_id":"","pricing_plan_id":"cebpf4jnsgd1na2vs0mg"},{"bike_id":"c82573cf-91b3-4cb2-8309-40c37cff107a","system_id":"levelo_inurba_marseille","lat":43.30881,"lon":5.39626,"is_reserved":false,"is_disabled":false,"rental_uris":{"android":"levelo://app?vid=c82573cf-91b3-4cb2-8309-40c37cff107a","ios":"levelo://app?vid=c82573cf-91b3-4cb2-8309-40c37cff107a"},"vehicle_type_id":"4","last_reported":1773409936,"current_range_meters":38000,"station_id":"","pricing_plan_id":"cebpf4jnsgd1na2vs0mg"},{"bike_id":"9c5ef180-d693-435e-a2e5-e2fa459934ff","system_id":"levelo_inurba_marseille","lat":43.29954,"lon":5.37435,"is_reserved":false,"is_disabled":false,"rental_uris":{"android":"levelo://app?vid=9c5ef180-d693-435e-a2e5-e2fa459934ff","ios":"levelo://app?vid=9c5ef180-d693-435e-a2e5-e2fa459934ff"},"vehicle_type_id":"4","last_reported":1773409936,"current_range_meters":28800,"station_id":"ce4bgjh2rcd13ifvqbg0","pricing_plan_id":"cebpf4jnsgd1na2vs0mg"},{"bike_id":"6857a8f7-cd07-415a-91c1-a0266e63ea1a","system_id":"levelo_inurba_marseille","lat":43.31547,"lon":5.38001,"is_reserved":false,"is_disabled":false,"rental_uris":{"android":"levelo://app?vid=6857a8f7-cd07-415a-91c1-a0266e63ea1a","ios":"levelo://app?vid=6857a8f7-cd07-415a-91c1-a0266e63ea1a"},"vehicle_type_id":"4","last_reported":1773409936,"current_range_meters":39200,"station_id":"ce4bhsp2rcd13ifvqi50","pricing_plan_id":"cebpf4jnsgd1na2vs0mg"},{"bike_id":"a4fa99c6-9544-41e7-a29d-0cec1b2a1917","system_id":"levelo_inurba_marseille","lat":43.24799,"lon":5.37449,"is_reserved":false,"is_disabled":false,"rental_uris":{"android":"levelo://app?vid=a4fa99c6-9544-41e7-a29d-0cec1b2a1917","ios":"levelo://app?vid=a4fa99c6-9544-41e7-a29d-0cec1b2a1917"},"vehicle_type_id":"4","last_reported":1773409936,"current_range_meters":39200,"station_id":"ce4bhgh2rcd13ifvqfb0","pricing_plan_id":"cebpf4jnsgd1na2vs0mg"},{"bike_id":"6ce6bc7e-4959-45b9-bda0-88b32a35e3f9","system_id":"levelo_inurba_marseille","lat":43.25869,"lon":5.39896,"is_reserved":false,"is_disabled":false,"rental_uris":{"android":"levelo://app?vid=6ce6bc7e-4959-45b9-bda0-88b32a35e3f9","ios":"levelo://app?vid=6ce6bc7e-4959-45b9-bda0-88b32a35e3f9"},"vehicle_type_id":"4","last_reported":1773409936,"current_range_meters":21600,"station_id":"ce4bhl92rcd13ifvqghg","pricing_plan_id":"cebpf4jnsgd1na2vs0mg"},{"bike_id":"0e81feb6-9532-4ed6-99e4-9e1b06422676","system_id":"levelo_inurba_marseille","lat":43.30536,"lon":5.3668,"is_reserved":false,"is_disabled":false,"rental_uris":{"android":"levelo://app?vid=0e81feb6-9532-4ed6-99e4-9e1b06422676","ios":"levelo://app?vid=0e81feb6-9532-4ed6-99e4-9e1b06422676"},"vehicle_type_id":"4","last_reported":1773409936,"current_range_meters":34000,"station_id":"ce4bgrp2rcd13ifvqc9g","pricing_plan_id":"cebpf4jnsgd1na2vs0mg"},{"bike_id":"3a4ac662-ce3c-41aa-9a77-27b82ac360d5","system_id":"levelo_inurba_marseille","lat":43.31246,"lon":5.3687,"is_reserved":false,"is_disabled":false,"rental_uris":{"android":"levelo://app?vid=3a4ac662-ce3c-41aa-9a77-27b82ac360d5","ios":"levelo://app?vid=3a4ac662-ce3c-41aa-9a77-27b82ac360d5"},"vehicle_type_id":"4","last_reported":1773409936,"current_range_meters":28800,"station_id":"ce4bgl92rcd13ifvqbq0","pricing_plan_id":"cebpf4jnsgd1na2vs0mg"},{"bike_id":"edba2805-93b3-4349-8087-e8db6903d3e1","system_id":"levelo_inurba_marseille","lat":43.24803,"lon":5.37465,"is_reserved":false,"is_disabled":false,"rental_uris":{"android":"levelo://app?vid=edba2805-93b3-4349-8087-e8db6903d3e1","ios":"levelo://app?vid=edba2805-93b3-4349-8087-e8db6903d3e1"},"vehicle_type_id":"4","last_reported":1773409936,"current_range_meters":39200,"station_id":"ce4bhgh2rcd13ifvqfb0","pricing_plan_id":"cebpf4jnsgd1na2vs0mg"},{"bike_id":"0c4b6990-a003-4132-b5d5-aaf752537c75","system_id":"levelo_inurba_marseille","lat":43.29849,"lon":5.36281,"is_reserved":false,"is_disabled":false,"rental_uris":{"android":"levelo://app?vid=0c4b6990-a003-4132-b5d5-aaf752537c75","ios":"levelo://app?vid=0c4b6990-a003-4132-b5d5-aaf752537c75"},"vehicle_type_id":"4","last_reported":1773409936,"current_range_meters":38400,"station_id":"ce4bgpp2rcd13ifvqc3g","pricing_plan_id":"cebpf4jnsgd1na2vs0mg"},{"bike_id":"9d5a3ed3-f5d7-4b4c-90f0-2bd547187128","system_id":"levelo_inurba_marseille","lat":43.28209,"lon":5.39037,"is_reserved":false,"is_disabled":false,"rental_uris":{"android":"levelo://app?vid=9d5a3ed3-f5d7-4b4c-90f0-2bd547187128","ios":"levelo://app?vid=9d5a3ed3-f5d7-4b4c-90f0-2bd547187128"},"vehicle_type_id":"4","last_reported":1773409936,"current_range_meters":28400,"station_id":"ce4bhn92rcd13ifvqgsg","pricing_plan_id":"cebpf4jnsgd1na2vs0mg"},{"bike_id":"480a954f-db3c-4cd5-acb5-179ba9006c67","system_id":"levelo_inurba_marseille","lat":43.28535,"lon":5.44092,"is_reserved":false,"is_disabled":false,"rental_uris":{"android":"levelo://app?vid=480a954f-db3c-4cd5-acb5-179ba9006c67","ios":"levelo://app?vid=480a954f-db3c-4cd5-acb5-179ba9006c67"},"vehicle_type_id":"4","last_reported":1773409936,"current_range_meters":32000,"station_id":"st_d3j3df2ikq2c7380ej80","pricing_plan_id":"cebpf4jnsgd1na2vs0mg"},{"bike_id":"7cc39d1a-460a-4fed-b840-07e500d43309","system_id":"levelo_inurba_marseille","lat":43.23166,"lon":5.43678,"is_reserved":false,"is_disabled":false,"rental_uris":{"android":"levelo://app?vid=7cc39d1a-460a-4fed-b840-07e500d43309","ios":"levelo://app?vid=7cc39d1a-460a-4fed-b840-07e500d43309"},"vehicle_type_id":"4","last_reported":1773409936,"current_range_meters":10800,"station_id":"ce4bhmp2rcd13ifvqgog","pricing_plan_id":"cebpf4jnsgd1na2vs0mg"},{"bike_id":"0cbdb5ee-d4cf-44f0-a4dc-90ee57682edf","system_id":"levelo_inurba_marseille","lat":43.30584,"lon":5.36521,"is_reserved":false,"is_disabled":false,"rental_uris":{"android":"levelo://app?vid=0cbdb5ee-d4cf-44f0-a4dc-90ee57682edf","ios":"levelo://app?vid=0cbdb5ee-d4cf-44f0-a4dc-90ee57682edf"},"vehicle_type_id":"4","last_reported":1773409936,"current_range_meters":26800,"station_id":"ce4bgs12rcd13ifvqcag","pricing_plan_id":"cebpf4jnsgd1na2vs0mg"},{"bike_id":"0250d5d1-3619-42b3-955a-0a937e09165f","system_id":"levelo_inurba_marseille","lat":43.23057,"lon":5.35492,"is_reserved":false,"is_disabled":false,"rental_uris":{"android":"levelo://app?vid=0250d5d1-3619-42b3-955a-0a937e09165f","ios":"levelo://app?vid=0250d5d1-3619-42b3-955a-0a937e09165f"},"vehicle_type_id":"4","last_reported":1773409936,"current_range_meters":39200,"station_id":"cpo3342slgdg3j2ifvpg","pricing_plan_id":"cebpf4jnsgd1na2vs0mg"},{"bike_id":"baac86e5-e19c-47b4-b832-73d34b52a393","system_id":"levelo_inurba_marseille","lat":43.27344,"lon":5.3621,"is_reserved":false,"is_disabled":false,"rental_uris":{"android":"levelo://app?vid=baac86e5-e19c-47b4-b832-73d34b52a393","ios":"levelo://app?vid=baac86e5-e19c-47b4-b832-73d34b52a393"},"vehicle_type_id":"4","last_reported":1773409936,"current_range_meters":18000,"station_id":"ce4bhbh2rcd13ifvqeo0","pricing_plan_id":"cebpf4jnsgd1na2vs0mg"},{"bike_id":"1b8416df-3f6d-4c68-ac11-112b698b39c2","system_id":"levelo_inurba_marseille","lat":43.25884,"lon":5.3989,"is_reserved":false,"is_disabled":false,"rental_uris":{"android":"levelo://app?vid=1b8416df-3f6d-4c68-ac11-112b698b39c2","ios":"levelo://app?vid=1b8416df-3f6d-4c68-ac11-112b698b39c2"},"vehicle_type_id":"4","last_reported":1773409936,"current_range_meters":39200,"station_id":"ce4bhl92rcd13ifvqghg","pricing_plan_id":"cebpf4jnsgd1na2vs0mg"},{"bike_id":"baf11242-a0fb-4b50-b2f4-e360221e9394","system_id":"levelo_inurba_marseille","lat":43.27824,"lon":5.39196,"is_reserved":false,"is_disabled":false,"rental_uris":{"android":"levelo://app?vid=baf11242-a0fb-4b50-b2f4-e360221e9394","ios":"levelo://app?vid=baf11242-a0fb-4b50-b2f4-e360221e9394"},"vehicle_type_id":"4","last_reported":1773409936,"current_range_meters":38000,"station_id":"ce4bhjp2rcd13ifvqga0","pricing_plan_id":"cebpf4jnsgd1na2vs0mg"},{"bike_id":"11d13032-0683-4cd1-a312-d307a4f363e7","system_id":"levelo_inurba_marseille","lat":43.29608,"lon":5.37158,"is_reserved":false,"is_disabled":false,"rental_uris":{"android":"levelo://app?vid=11d13032-0683-4cd1-a312-d307a4f363e7","ios":"levelo://app?vid=11d13032-0683-4cd1-a312-d307a4f363e7"},"vehicle_type_id":"4","last_reported":1773409936,"current_range_meters":39200,"station_id":"ce4bgnh2rcd13ifvqc0g","pricing_plan_id":"cebpf4jnsgd1na2vs0mg"},{"bike_id":"2d90a59f-b703-41f6-ab9e-396374884dbc","system_id":"levelo_inurba_marseille","lat":43.31301,"lon":5.36733,"is_reserved":false,"is_disabled":false,"rental_uris":{"android":"levelo://app?vid=2d90a59f-b703-41f6-ab9e-396374884dbc","ios":"levelo://app?vid=2d90a59f-b703-41f6-ab9e-396374884dbc"},"vehicle_type_id":"4","last_reported":1773409936,"current_range_meters":28000,"station_id":"ce4bgr92rcd13ifvqc6g","pricing_plan_id":"cebpf4jnsgd1na2vs0mg"},{"bike_id":"a744e708-090a-46b2-9e31-e3dfc12e9363","system_id":"levelo_inurba_marseille","lat":43.28948,"lon":5.39642,"is_reserved":false,"is_disabled":false,"rental_uris":{"android":"levelo://app?vid=a744e708-090a-46b2-9e31-e3dfc12e9363","ios":"levelo://app?vid=a744e708-090a-46b2-9e31-e3dfc12e9363"},"vehicle_type_id":"4","last_reported":1773409936,"current_range_meters":38800,"station_id":"","pricing_plan_id":"cebpf4jnsgd1na2vs0mg"},{"bike_id":"886bcfc7-63ee-4067-a44e-c7f27783757e","system_id":"levelo_inurba_marseille","lat":43.30886,"lon":5.3829,"is_reserved":false,"is_disabled":false,"rental_uris":{"android":"levelo://app?vid=886bcfc7-63ee-4067-a44e-c7f27783757e","ios":"levelo://app?vid=886bcfc7-63ee-4067-a44e-c7f27783757e"},"vehicle_type_id":"4","last_reported":1773409936,"current_range_meters":10000,"station_id":"","pricing_plan_id":"cebpf4jnsgd1na2vs0mg"},{"bike_id":"ba8d9ef5-6fd3-48fa-8d92-09e9ea63831d","system_id":"levelo_inurba_marseille","lat":43.29981,"lon":5.41323,"is_reserved":false,"is_disabled":false,"rental_uris":{"android":"levelo://app?vid=ba8d9ef5-6fd3-48fa-8d92-09e9ea63831d","ios":"levelo://app?vid=ba8d9ef5-6fd3-48fa-8d92-09e9ea63831d"},"vehicle_type_id":"4","last_reported":1773409936,"current_range_meters":39200,"station_id":"ce4bhp12rcd13ifvqh9g","pricing_plan_id":"cebpf4jnsgd1na2vs0mg"},{"bike_id":"e8edc316-663a-4e2f-9f88-3ea09bba06a0","system_id":"levelo_inurba_marseille","lat":43.31526,"lon":5.37211,"is_reserved":false,"is_disabled":false,"rental_uris":{"android":"levelo://app?vid=e8edc316-663a-4e2f-9f88-3ea09bba06a0","ios":"levelo://app?vid=e8edc316-663a-4e2f-9f88-3ea09bba06a0"},"vehicle_type_id":"4","last_reported":1773409936,"current_range_meters":36800,"station_id":"","pricing_plan_id":"cebpf4jnsgd1na2vs0mg"},{"bike_id":"5c8b00a4-5fa9-40c2-8a77-4e3272f85452","system_id":"levelo_inurba_marseille","lat":43.30112,"lon":5.37374,"is_reserved":false,"is_disabled":false,"rental_uris":{"android":"levelo://app?vid=5c8b00a4-5fa9-40c2-8a77-4e3272f85452","ios":"levelo://app?vid=5c8b00a4-5fa9-40c2-8a77-4e3272f85452"},"vehicle_type_id":"4","last_reported":1773409936,"current_range_meters":18800,"station_id":"ce4bgs92rcd13ifvqcc0","pricing_plan_id":"cebpf4jnsgd1na2vs0mg"},{"bike_id":"2dd51874-11a3-43a9-8809-5310bb1e8ead","system_id":"levelo_inurba_marseille","lat":43.24382,"lon":5.37054,"is_reserved":false,"is_disabled":false,"rental_uris":{"android":"levelo://app?vid=2dd51874-11a3-43a9-8809-5310bb1e8ead","ios":"levelo://app?vid=2dd51874-11a3-43a9-8809-5310bb1e8ead"},"vehicle_type_id":"4","last_reported":1773409936,"current_range_meters":39200,"station_id":"ce4bhhh2rcd13ifvqfk0","pricing_plan_id":"cebpf4jnsgd1na2vs0mg"},{"bike_id":"81e5902f-80b0-433f-a20c-6a0bc135c3d9","system_id":"levelo_inurba_marseille","lat":43.2294,"lon":5.35368,"is_reserved":false,"is_disabled":false,"rental_uris":{"android":"levelo://app?vid=81e5902f-80b0-433f-a20c-6a0bc135c3d9","ios":"levelo://app?vid=81e5902f-80b0-433f-a20c-6a0bc135c3d9"},"vehicle_type_id":"4","last_reported":1773409936,"current_range_meters":30400,"station_id":"cpo3532slgdg3j2ikp40","pricing_plan_id":"cebpf4jnsgd1na2vs0mg"},{"bike_id":"107eaf49-0b8c-4b97-b025-129dee039626","system_id":"levelo_inurba_marseille","lat":43.29261,"lon":5.37621,"is_reserved":false,"is_disabled":false,"rental_uris":{"android":"levelo://app?vid=107eaf49-0b8c-4b97-b025-129dee039626","ios":"levelo://app?vid=107eaf49-0b8c-4b97-b025-129dee039626"},"vehicle_type_id":"4","last_reported":1773409936,"current_range_meters":39200,"station_id":"ce4bgi12rcd13ifvqb80","pricing_plan_id":"cebpf4jnsgd1na2vs0mg"},{"bike_id":"97ecf467-9bc2-4716-8380-618c7c7ef61e","system_id":"levelo_inurba_marseille","lat":43.31591,"lon":5.37365,"is_reserved":false,"is_disabled":false,"rental_uris":{"android":"levelo://app?vid=97ecf467-9bc2-4716-8380-618c7c7ef61e","ios":"levelo://app?vid=97ecf467-9bc2-4716-8380-618c7c7ef61e"},"vehicle_type_id":"4","last_reported":1773409936,"current_range_meters":4800,"station_id":"","pricing_plan_id":"cebpf4jnsgd1na2vs0mg"},{"bike_id":"aed41f63-b638-409e-b99f-5db7af0576eb","system_id":"levelo_inurba_marseille","lat":43.30494,"lon":5.37896,"is_reserved":false,"is_disabled":false,"rental_uris":{"android":"levelo://app?vid=aed41f63-b638-409e-b99f-5db7af0576eb","ios":"levelo://app?vid=aed41f63-b638-409e-b99f-5db7af0576eb"},"vehicle_type_id":"4","last_reported":1773409936,"current_range_meters":33600,"station_id":"ce4bgup2rcd13ifvqcn0","pricing_plan_id":"cebpf4jnsgd1na2vs0mg"},{"bike_id":"095848ed-bce8-4e1c-af43-69cf262bf9bb","system_id":"levelo_inurba_marseille","lat":43.29079,"lon":5.37154,"is_reserved":false,"is_disabled":false,"rental_uris":{"android":"levelo://app?vid=095848ed-bce8-4e1c-af43-69cf262bf9bb","ios":"levelo://app?vid=095848ed-bce8-4e1c-af43-69cf262bf9bb"},"vehicle_type_id":"4","last_reported":1773409936,"current_range_meters":17200,"station_id":"ce4bh5p2rcd13ifvqe4g","pricing_plan_id":"cebpf4jnsgd1na2vs0mg"},{"bike_id":"79483cf5-647d-48ac-aac7-04b4eee60681","system_id":"levelo_inurba_marseille","lat":43.337444,"lon":5.374475,"is_reserved":false,"is_disabled":true,"rental_uris":{"android":"levelo://app?vid=79483cf5-647d-48ac-aac7-04b4eee60681","ios":"levelo://app?vid=79483cf5-647d-48ac-aac7-04b4eee60681"},"vehicle_type_id":"4","last_reported":1773409936,"current_range_meters":34000,"station_id":"","pricing_plan_id":"cebpf4jnsgd1na2vs0mg"},{"bike_id":"be29579c-8a16-4369-bbc7-a08054725148","system_id":"levelo_inurba_marseille","lat":43.2959,"lon":5.36737,"is_reserved":false,"is_disabled":false,"rental_uris":{"android":"levelo://app?vid=be29579c-8a16-4369-bbc7-a08054725148","ios":"levelo://app?vid=be29579c-8a16-4369-bbc7-a08054725148"},"vehicle_type_id":"4","last_reported":1773409936,"current_range_meters":28800,"station_id":"ce4bgph2rcd13ifvqc2g","pricing_plan_id":"cebpf4jnsgd1na2vs0mg"},{"bike_id":"f2223d48-976e-4a05-b385-8f32a53fe8f3","system_id":"levelo_inurba_marseille","lat":43.30471,"lon":5.37907,"is_reserved":false,"is_disabled":false,"rental_uris":{"android":"levelo://app?vid=f2223d48-976e-4a05-b385-8f32a53fe8f3","ios":"levelo://app?vid=f2223d48-976e-4a05-b385-8f32a53fe8f3"},"vehicle_type_id":"4","last_reported":1773409936,"current_range_meters":12400,"station_id":"ce4bgup2rcd13ifvqcn0","pricing_plan_id":"cebpf4jnsgd1na2vs0mg"},{"bike_id":"1456d7b8-e2f9-4205-9584-20f6abe58a4d","system_id":"levelo_inurba_marseille","lat":43.30071,"lon":5.43727,"is_reserved":false,"is_disabled":false,"rental_uris":{"android":"levelo://app?vid=1456d7b8-e2f9-4205-9584-20f6abe58a4d","ios":"levelo://app?vid=1456d7b8-e2f9-4205-9584-20f6abe58a4d"},"vehicle_type_id":"4","last_reported":1773409936,"current_range_meters":37600,"station_id":"","pricing_plan_id":"cebpf4jnsgd1na2vs0mg"},{"bike_id":"114e304d-e20d-4f8a-9525-1a164e809dee","system_id":"levelo_inurba_marseille","lat":43.23966,"lon":5.36624,"is_reserved":false,"is_disabled":false,"rental_uris":{"android":"levelo://app?vid=114e304d-e20d-4f8a-9525-1a164e809dee","ios":"levelo://app?vid=114e304d-e20d-4f8a-9525-1a164e809dee"},"vehicle_type_id":"4","last_reported":1773409936,"current_range_meters":30000,"station_id":"ce4bhi12rcd13ifvqfp0","pricing_plan_id":"cebpf4jnsgd1na2vs0mg"},{"bike_id":"f1371b32-07b4-4e9b-a729-77d24c7277a8","system_id":"levelo_inurba_marseille","lat":43.30511,"lon":5.36648,"is_reserved":false,"is_disabled":false,"rental_uris":{"android":"levelo://app?vid=f1371b32-07b4-4e9b-a729-77d24c7277a8","ios":"levelo://app?vid=f1371b32-07b4-4e9b-a729-77d24c7277a8"},"vehicle_type_id":"4","last_reported":1773409936,"current_range_meters":28000,"station_id":"","pricing_plan_id":"cebpf4jnsgd1na2vs0mg"},{"bike_id":"a29ef319-c201-4a0d-88b8-75666b991d70","system_id":"levelo_inurba_marseille","lat":43.30207,"lon":5.39438,"is_reserved":false,"is_disabled":false,"rental_uris":{"android":"levelo://app?vid=a29ef319-c201-4a0d-88b8-75666b991d70","ios":"levelo://app?vid=a29ef319-c201-4a0d-88b8-75666b991d70"},"vehicle_type_id":"4","last_reported":1773409936,"current_range_meters":14800,"station_id":"ce4bh0p2rcd13ifvqd70","pricing_plan_id":"cebpf4jnsgd1na2vs0mg"},{"bike_id":"b3eb5008-db77-4fa1-ad7e-4f507dde5179","system_id":"levelo_inurba_marseille","lat":43.30254,"lon":5.37033,"is_reserved":false,"is_disabled":false,"rental_uris":{"android":"levelo://app?vid=b3eb5008-db77-4fa1-ad7e-4f507dde5179","ios":"levelo://app?vid=b3eb5008-db77-4fa1-ad7e-4f507dde5179"},"vehicle_type_id":"4","last_reported":1773409936,"current_range_meters":29600,"station_id":"","pricing_plan_id":"cebpf4jnsgd1na2vs0mg"},{"bike_id":"fdf4017f-03a3-4c98-a294-37a38e7811f4","system_id":"levelo_inurba_marseille","lat":43.30879,"lon":5.39668,"is_reserved":false,"is_disabled":false,"rental_uris":{"android":"levelo://app?vid=fdf4017f-03a3-4c98-a294-37a38e7811f4","ios":"levelo://app?vid=fdf4017f-03a3-4c98-a294-37a38e7811f4"},"vehicle_type_id":"4","last_reported":1773409936,"current_range_meters":32800,"station_id":"ce4bh012rcd13ifvqcv0","pricing_plan_id":"cebpf4jnsgd1na2vs0mg"},{"bike_id":"a6b0480c-aedd-4d6a-aa8a-c8bd9bbee5b5","system_id":"levelo_inurba_marseille","lat":43.33776,"lon":5.37462,"is_reserved":false,"is_disabled":false,"rental_uris":{"android":"levelo://app?vid=a6b0480c-aedd-4d6a-aa8a-c8bd9bbee5b5","ios":"levelo://app?vid=a6b0480c-aedd-4d6a-aa8a-c8bd9bbee5b5"},"vehicle_type_id":"4","last_reported":1773409936,"current_range_meters":32800,"station_id":"","pricing_plan_id":"cebpf4jnsgd1na2vs0mg"},{"bike_id":"a7b1e58f-cfa5-427f-878b-1c9d4a16cd1c","system_id":"levelo_inurba_marseille","lat":43.292601,"lon":5.409095,"is_reserved":false,"is_disabled":false,"rental_uris":{"android":"levelo://app?vid=a7b1e58f-cfa5-427f-878b-1c9d4a16cd1c","ios":"levelo://app?vid=a7b1e58f-cfa5-427f-878b-1c9d4a16cd1c"},"vehicle_type_id":"4","last_reported":1773409936,"current_range_meters":15200,"station_id":"ce4bh192rcd13ifvqdc0","pricing_plan_id":"cebpf4jnsgd1na2vs0mg"},{"bike_id":"84f4a2bf-2617-4f6d-b5b2-52999d43fb4f","system_id":"levelo_inurba_marseille","lat":43.27375,"lon":5.36265,"is_reserved":false,"is_disabled":true,"rental_uris":{"android":"levelo://app?vid=84f4a2bf-2617-4f6d-b5b2-52999d43fb4f","ios":"levelo://app?vid=84f4a2bf-2617-4f6d-b5b2-52999d43fb4f"},"vehicle_type_id":"4","last_reported":1773409936,"current_range_meters":0,"station_id":"ce4bhbh2rcd13ifvqeo0","pricing_plan_id":"cebpf4jnsgd1na2vs0mg"},{"bike_id":"8c4b960d-5954-4172-b115-4532186a219f","system_id":"levelo_inurba_marseille","lat":43.32113,"lon":5.36769,"is_reserved":false,"is_disabled":false,"rental_uris":{"android":"levelo://app?vid=8c4b960d-5954-4172-b115-4532186a219f","ios":"levelo://app?vid=8c4b960d-5954-4172-b115-4532186a219f"},"vehicle_type_id":"4","last_reported":1773409936,"current_range_meters":11200,"station_id":"ce4bhrh2rcd13ifvqhug","pricing_plan_id":"cebpf4jnsgd1na2vs0mg"},{"bike_id":"012bb7fa-e4d0-4138-9c92-350c5c6b2640","system_id":"levelo_inurba_marseille","lat":43.2853,"lon":5.44117,"is_reserved":false,"is_disabled":false,"rental_uris":{"android":"levelo://app?vid=012bb7fa-e4d0-4138-9c92-350c5c6b2640","ios":"levelo://app?vid=012bb7fa-e4d0-4138-9c92-350c5c6b2640"},"vehicle_type_id":"4","last_reported":1773409936,"current_range_meters":30000,"station_id":"st_d3j3df2ikq2c7380ej80","pricing_plan_id":"cebpf4jnsgd1na2vs0mg"},{"bike_id":"9c477e1d-7bd4-46f7-a747-1711c2fd52ed","system_id":"levelo_inurba_marseille","lat":43.30304,"lon":5.36887,"is_reserved":false,"is_disabled":false,"rental_uris":{"android":"levelo://app?vid=9c477e1d-7bd4-46f7-a747-1711c2fd52ed","ios":"levelo://app?vid=9c477e1d-7bd4-46f7-a747-1711c2fd52ed"},"vehicle_type_id":"4","last_reported":1773409936,"current_range_meters":17200,"station_id":"ce4bgqh2rcd13ifvqc5g","pricing_plan_id":"cebpf4jnsgd1na2vs0mg"},{"bike_id":"959cb468-adf5-492c-a8a7-a3170c99be64","system_id":"levelo_inurba_marseille","lat":43.27065,"lon":5.3832,"is_reserved":false,"is_disabled":false,"rental_uris":{"android":"levelo://app?vid=959cb468-adf5-492c-a8a7-a3170c99be64","ios":"levelo://app?vid=959cb468-adf5-492c-a8a7-a3170c99be64"},"vehicle_type_id":"4","last_reported":1773409936,"current_range_meters":14400,"station_id":"st_d3n2fo6cfp8s73cte1j0","pricing_plan_id":"cebpf4jnsgd1na2vs0mg"},{"bike_id":"2d08386f-3a99-4ca5-be84-43d6767459c4","system_id":"levelo_inurba_marseille","lat":43.29185,"lon":5.35824,"is_reserved":false,"is_disabled":false,"rental_uris":{"android":"levelo://app?vid=2d08386f-3a99-4ca5-be84-43d6767459c4","ios":"levelo://app?vid=2d08386f-3a99-4ca5-be84-43d6767459c4"},"vehicle_type_id":"4","last_reported":1773409936,"current_range_meters":20800,"station_id":"ce4bhb12rcd13ifvqel0","pricing_plan_id":"cebpf4jnsgd1na2vs0mg"},{"bike_id":"f32212cf-6d01-43e1-9d28-c332d31396c9","system_id":"levelo_inurba_marseille","lat":43.24686,"lon":5.43356,"is_reserved":false,"is_disabled":false,"rental_uris":{"android":"levelo://app?vid=f32212cf-6d01-43e1-9d28-c332d31396c9","ios":"levelo://app?vid=f32212cf-6d01-43e1-9d28-c332d31396c9"},"vehicle_type_id":"4","last_reported":1773409936,"current_range_meters":22400,"station_id":"","pricing_plan_id":"cebpf4jnsgd1na2vs0mg"},{"bike_id":"cb7d2b92-dad7-4f1e-9d76-144bae66f1eb","system_id":"levelo_inurba_marseille","lat":43.21185,"lon":5.35068,"is_reserved":false,"is_disabled":false,"rental_uris":{"android":"levelo://app?vid=cb7d2b92-dad7-4f1e-9d76-144bae66f1eb","ios":"levelo://app?vid=cb7d2b92-dad7-4f1e-9d76-144bae66f1eb"},"vehicle_type_id":"4","last_reported":1773409936,"current_range_meters":2800,"station_id":"st_cvj6sg6p6f1abm77japg","pricing_plan_id":"cebpf4jnsgd1na2vs0mg"},{"bike_id":"6acc6294-778e-4389-ae09-ea37b9c06714","system_id":"levelo_inurba_marseille","lat":43.29727,"lon":5.41059,"is_reserved":false,"is_disabled":false,"rental_uris":{"android":"levelo://app?vid=6acc6294-778e-4389-ae09-ea37b9c06714","ios":"levelo://app?vid=6acc6294-778e-4389-ae09-ea37b9c06714"},"vehicle_type_id":"4","last_reported":1773409936,"current_range_meters":19600,"station_id":"","pricing_plan_id":"cebpf4jnsgd1na2vs0mg"},{"bike_id":"0173ffb3-3809-4855-94c8-24cc040b4a1a","system_id":"levelo_inurba_marseille","lat":43.27502,"lon":5.42466,"is_reserved":false,"is_disabled":false,"rental_uris":{"android":"levelo://app?vid=0173ffb3-3809-4855-94c8-24cc040b4a1a","ios":"levelo://app?vid=0173ffb3-3809-4855-94c8-24cc040b4a1a"},"vehicle_type_id":"4","last_reported":1773409936,"current_range_meters":28400,"station_id":"ce4bhn92rcd13ifvqgrg","pricing_plan_id":"cebpf4jnsgd1na2vs0mg"},{"bike_id":"968e0752-94e3-4427-8693-dccfb2dc93c6","system_id":"levelo_inurba_marseille","lat":43.32339,"lon":5.38841,"is_reserved":false,"is_disabled":false,"rental_uris":{"android":"levelo://app?vid=968e0752-94e3-4427-8693-dccfb2dc93c6","ios":"levelo://app?vid=968e0752-94e3-4427-8693-dccfb2dc93c6"},"vehicle_type_id":"4","last_reported":1773409936,"current_range_meters":38800,"station_id":"ce4bhqp2rcd13ifvqhog","pricing_plan_id":"cebpf4jnsgd1na2vs0mg"},{"bike_id":"51f828e2-11c4-49f0-bea7-708c81d716b5","system_id":"levelo_inurba_marseille","lat":43.27381,"lon":5.42483,"is_reserved":false,"is_disabled":false,"rental_uris":{"android":"levelo://app?vid=51f828e2-11c4-49f0-bea7-708c81d716b5","ios":"levelo://app?vid=51f828e2-11c4-49f0-bea7-708c81d716b5"},"vehicle_type_id":"4","last_reported":1773409936,"current_range_meters":14400,"station_id":"","pricing_plan_id":"cebpf4jnsgd1na2vs0mg"},{"bike_id":"66f2959f-0176-48d5-b43b-0f59eaacba12","system_id":"levelo_inurba_marseille","lat":43.28672,"lon":5.38674,"is_reserved":false,"is_disabled":false,"rental_uris":{"android":"levelo://app?vid=66f2959f-0176-48d5-b43b-0f59eaacba12","ios":"levelo://app?vid=66f2959f-0176-48d5-b43b-0f59eaacba12"},"vehicle_type_id":"4","last_reported":1773409936,"current_range_meters":17600,"station_id":"ce4bh492rcd13ifvqdug","pricing_plan_id":"cebpf4jnsgd1na2vs0mg"},{"bike_id":"40cdf2e8-76b5-43fa-bd2e-1a8eb6026b51","system_id":"levelo_inurba_marseille","lat":43.28979,"lon":5.42582,"is_reserved":false,"is_disabled":false,"rental_uris":{"android":"levelo://app?vid=40cdf2e8-76b5-43fa-bd2e-1a8eb6026b51","ios":"levelo://app?vid=40cdf2e8-76b5-43fa-bd2e-1a8eb6026b51"},"vehicle_type_id":"4","last_reported":1773409936,"current_range_meters":26000,"station_id":"","pricing_plan_id":"cebpf4jnsgd1na2vs0mg"},{"bike_id":"9544e79f-dfc8-48bd-9b27-e80a7dc614b1","system_id":"levelo_inurba_marseille","lat":43.2314,"lon":5.43738,"is_reserved":false,"is_disabled":false,"rental_uris":{"android":"levelo://app?vid=9544e79f-dfc8-48bd-9b27-e80a7dc614b1","ios":"levelo://app?vid=9544e79f-dfc8-48bd-9b27-e80a7dc614b1"},"vehicle_type_id":"4","last_reported":1773409936,"current_range_meters":12800,"station_id":"ce4bhmp2rcd13ifvqgog","pricing_plan_id":"cebpf4jnsgd1na2vs0mg"},{"bike_id":"5dbc8de5-1746-40c6-890f-29dadb98e0ce","system_id":"levelo_inurba_marseille","lat":43.28415,"lon":5.34972,"is_reserved":false,"is_disabled":false,"rental_uris":{"android":"levelo://app?vid=5dbc8de5-1746-40c6-890f-29dadb98e0ce","ios":"levelo://app?vid=5dbc8de5-1746-40c6-890f-29dadb98e0ce"},"vehicle_type_id":"4","last_reported":1773409936,"current_range_meters":36800,"station_id":"ce4bhbh2rcd13ifvqepg","pricing_plan_id":"cebpf4jnsgd1na2vs0mg"},{"bike_id":"c334c42b-6558-40ea-9aa2-a6d0ce2e63e9","system_id":"levelo_inurba_marseille","lat":43.3249,"lon":5.36556,"is_reserved":false,"is_disabled":false,"rental_uris":{"android":"levelo://app?vid=c334c42b-6558-40ea-9aa2-a6d0ce2e63e9","ios":"levelo://app?vid=c334c42b-6558-40ea-9aa2-a6d0ce2e63e9"},"vehicle_type_id":"4","last_reported":1773409936,"current_range_meters":30000,"station_id":"ce4bhs12rcd13ifvqhvg","pricing_plan_id":"cebpf4jnsgd1na2vs0mg"},{"bike_id":"c5cd6bee-ff6a-4f9b-9fb4-3be2cd8497cf","system_id":"levelo_inurba_marseille","lat":43.24381,"lon":5.37068,"is_reserved":false,"is_disabled":false,"rental_uris":{"android":"levelo://app?vid=c5cd6bee-ff6a-4f9b-9fb4-3be2cd8497cf","ios":"levelo://app?vid=c5cd6bee-ff6a-4f9b-9fb4-3be2cd8497cf"},"vehicle_type_id":"4","last_reported":1773409936,"current_range_meters":8400,"station_id":"ce4bhhh2rcd13ifvqfk0","pricing_plan_id":"cebpf4jnsgd1na2vs0mg"},{"bike_id":"fed9d576-7874-44ea-b223-35fe3391614d","system_id":"levelo_inurba_marseille","lat":43.29628,"lon":5.40594,"is_reserved":false,"is_disabled":false,"rental_uris":{"android":"levelo://app?vid=fed9d576-7874-44ea-b223-35fe3391614d","ios":"levelo://app?vid=fed9d576-7874-44ea-b223-35fe3391614d"},"vehicle_type_id":"4","last_reported":1773409936,"current_range_meters":40000,"station_id":"ce4bh0h2rcd13ifvqd60","pricing_plan_id":"cebpf4jnsgd1na2vs0mg"},{"bike_id":"72e16886-e6be-40d7-9db6-717ac812c857","system_id":"levelo_inurba_marseille","lat":43.30182,"lon":5.40074,"is_reserved":false,"is_disabled":true,"rental_uris":{"android":"levelo://app?vid=72e16886-e6be-40d7-9db6-717ac812c857","ios":"levelo://app?vid=72e16886-e6be-40d7-9db6-717ac812c857"},"vehicle_type_id":"4","last_reported":1773409936,"current_range_meters":18000,"station_id":"","pricing_plan_id":"cebpf4jnsgd1na2vs0mg"},{"bike_id":"4b952bbd-a1f3-4c57-81c3-b21d02fb7d95","system_id":"levelo_inurba_marseille","lat":43.27932,"lon":5.41039,"is_reserved":false,"is_disabled":false,"rental_uris":{"android":"levelo://app?vid=4b952bbd-a1f3-4c57-81c3-b21d02fb7d95","ios":"levelo://app?vid=4b952bbd-a1f3-4c57-81c3-b21d02fb7d95"},"vehicle_type_id":"4","last_reported":1773409936,"current_range_meters":9600,"station_id":"ce4bhnp2rcd13ifvqh0g","pricing_plan_id":"cebpf4jnsgd1na2vs0mg"},{"bike_id":"5790f98c-81c0-4944-864b-465c75a66c91","system_id":"levelo_inurba_marseille","lat":43.29696,"lon":5.37298,"is_reserved":false,"is_disabled":false,"rental_uris":{"android":"levelo://app?vid=5790f98c-81c0-4944-864b-465c75a66c91","ios":"levelo://app?vid=5790f98c-81c0-4944-864b-465c75a66c91"},"vehicle_type_id":"4","last_reported":1773409936,"current_range_meters":34800,"station_id":"ce4bgk12rcd13ifvqbj0","pricing_plan_id":"cebpf4jnsgd1na2vs0mg"},{"bike_id":"049d0339-5799-4ade-8ff8-59295e8c39c6","system_id":"levelo_inurba_marseille","lat":43.32486,"lon":5.36572,"is_reserved":false,"is_disabled":false,"rental_uris":{"android":"levelo://app?vid=049d0339-5799-4ade-8ff8-59295e8c39c6","ios":"levelo://app?vid=049d0339-5799-4ade-8ff8-59295e8c39c6"},"vehicle_type_id":"4","last_reported":1773409936,"current_range_meters":38400,"station_id":"ce4bhs12rcd13ifvqhvg","pricing_plan_id":"cebpf4jnsgd1na2vs0mg"},{"bike_id":"805b0ebf-08cd-473c-b55f-cfbda4b4fea7","system_id":"levelo_inurba_marseille","lat":43.28723,"lon":5.37941,"is_reserved":false,"is_disabled":false,"rental_uris":{"android":"levelo://app?vid=805b0ebf-08cd-473c-b55f-cfbda4b4fea7","ios":"levelo://app?vid=805b0ebf-08cd-473c-b55f-cfbda4b4fea7"},"vehicle_type_id":"4","last_reported":1773409936,"current_range_meters":30400,"station_id":"ce4bh9p2rcd13ifvqec0","pricing_plan_id":"cebpf4jnsgd1na2vs0mg"},{"bike_id":"1b76ca95-f18f-46ad-b5e2-115c03b09dc0","system_id":"levelo_inurba_marseille","lat":43.29768,"lon":5.42777,"is_reserved":false,"is_disabled":false,"rental_uris":{"android":"levelo://app?vid=1b76ca95-f18f-46ad-b5e2-115c03b09dc0","ios":"levelo://app?vid=1b76ca95-f18f-46ad-b5e2-115c03b09dc0"},"vehicle_type_id":"4","last_reported":1773409936,"current_range_meters":25600,"station_id":"st_d3md5207bmas73dh9klg","pricing_plan_id":"cebpf4jnsgd1na2vs0mg"},{"bike_id":"aa1ea814-effc-4a82-a7ce-fc6b0be25510","system_id":"levelo_inurba_marseille","lat":43.33529,"lon":5.36077,"is_reserved":false,"is_disabled":false,"rental_uris":{"android":"levelo://app?vid=aa1ea814-effc-4a82-a7ce-fc6b0be25510","ios":"levelo://app?vid=aa1ea814-effc-4a82-a7ce-fc6b0be25510"},"vehicle_type_id":"4","last_reported":1773409936,"current_range_meters":38400,"station_id":"","pricing_plan_id":"cebpf4jnsgd1na2vs0mg"},{"bike_id":"12f1fe7e-cbb0-41bd-9d1a-37589d57d213","system_id":"levelo_inurba_marseille","lat":43.24667,"lon":5.38154,"is_reserved":false,"is_disabled":false,"rental_uris":{"android":"levelo://app?vid=12f1fe7e-cbb0-41bd-9d1a-37589d57d213","ios":"levelo://app?vid=12f1fe7e-cbb0-41bd-9d1a-37589d57d213"},"vehicle_type_id":"4","last_reported":1773409936,"current_range_meters":40000,"station_id":"ce4bhih2rcd13ifvqfr0","pricing_plan_id":"cebpf4jnsgd1na2vs0mg"},{"bike_id":"6b15c594-8ec2-4784-a06b-27dbc1e6b04f","system_id":"levelo_inurba_marseille","lat":43.30561,"lon":5.36524,"is_reserved":false,"is_disabled":false,"rental_uris":{"android":"levelo://app?vid=6b15c594-8ec2-4784-a06b-27dbc1e6b04f","ios":"levelo://app?vid=6b15c594-8ec2-4784-a06b-27dbc1e6b04f"},"vehicle_type_id":"4","last_reported":1773409936,"current_range_meters":32800,"station_id":"ce4bgs12rcd13ifvqcag","pricing_plan_id":"cebpf4jnsgd1na2vs0mg"},{"bike_id":"f4d3d369-a283-494e-9dc2-bf0ce22e51f4","system_id":"levelo_inurba_marseille","lat":43.28221,"lon":5.39066,"is_reserved":false,"is_disabled":false,"rental_uris":{"android":"levelo://app?vid=f4d3d369-a283-494e-9dc2-bf0ce22e51f4","ios":"levelo://app?vid=f4d3d369-a283-494e-9dc2-bf0ce22e51f4"},"vehicle_type_id":"4","last_reported":1773409936,"current_range_meters":3200,"station_id":"ce4bhn92rcd13ifvqgsg","pricing_plan_id":"cebpf4jnsgd1na2vs0mg"},{"bike_id":"624bc16d-0923-49f3-9f00-f1ee73e6174a","system_id":"levelo_inurba_marseille","lat":43.28373,"lon":5.3861,"is_reserved":false,"is_disabled":false,"rental_uris":{"android":"levelo://app?vid=624bc16d-0923-49f3-9f00-f1ee73e6174a","ios":"levelo://app?vid=624bc16d-0923-49f3-9f00-f1ee73e6174a"},"vehicle_type_id":"4","last_reported":1773409936,"current_range_meters":39200,"station_id":"ce4bh492rcd13ifvqdvg","pricing_plan_id":"cebpf4jnsgd1na2vs0mg"},{"bike_id":"9bb58202-02ff-4e31-a3eb-9587f79034ad","system_id":"levelo_inurba_marseille","lat":43.26969,"lon":5.3863,"is_reserved":false,"is_disabled":true,"rental_uris":{"android":"levelo://app?vid=9bb58202-02ff-4e31-a3eb-9587f79034ad","ios":"levelo://app?vid=9bb58202-02ff-4e31-a3eb-9587f79034ad"},"vehicle_type_id":"4","last_reported":1773409936,"current_range_meters":0,"station_id":"ce4bhh92rcd13ifvqfh0","pricing_plan_id":"cebpf4jnsgd1na2vs0mg"},{"bike_id":"f75301e2-3e33-484d-ba72-8de128d9af03","system_id":"levelo_inurba_marseille","lat":43.26544,"lon":5.37303,"is_reserved":false,"is_disabled":false,"rental_uris":{"android":"levelo://app?vid=f75301e2-3e33-484d-ba72-8de128d9af03","ios":"levelo://app?vid=f75301e2-3e33-484d-ba72-8de128d9af03"},"vehicle_type_id":"4","last_reported":1773409936,"current_range_meters":26800,"station_id":"ce4bhg12rcd13ifvqf70","pricing_plan_id":"cebpf4jnsgd1na2vs0mg"},{"bike_id":"ba270377-a953-438b-b313-928ff155a63d","system_id":"levelo_inurba_marseille","lat":43.30143,"lon":5.37413,"is_reserved":false,"is_disabled":false,"rental_uris":{"android":"levelo://app?vid=ba270377-a953-438b-b313-928ff155a63d","ios":"levelo://app?vid=ba270377-a953-438b-b313-928ff155a63d"},"vehicle_type_id":"4","last_reported":1773409936,"current_range_meters":22400,"station_id":"ce4bgs92rcd13ifvqcc0","pricing_plan_id":"cebpf4jnsgd1na2vs0mg"},{"bike_id":"eb2f308c-8a12-4604-91b5-c6e7beca1962","system_id":"levelo_inurba_marseille","lat":43.25568,"lon":5.38231,"is_reserved":false,"is_disabled":false,"rental_uris":{"android":"levelo://app?vid=eb2f308c-8a12-4604-91b5-c6e7beca1962","ios":"levelo://app?vid=eb2f308c-8a12-4604-91b5-c6e7beca1962"},"vehicle_type_id":"4","last_reported":1773409936,"current_range_meters":28000,"station_id":"ce4bhih2rcd13ifvqfs0","pricing_plan_id":"cebpf4jnsgd1na2vs0mg"},{"bike_id":"9275d7e0-6f92-4728-99cc-26ef8f5159ad","system_id":"levelo_inurba_marseille","lat":43.29116,"lon":5.43276,"is_reserved":false,"is_disabled":false,"rental_uris":{"android":"levelo://app?vid=9275d7e0-6f92-4728-99cc-26ef8f5159ad","ios":"levelo://app?vid=9275d7e0-6f92-4728-99cc-26ef8f5159ad"},"vehicle_type_id":"4","last_reported":1773409936,"current_range_meters":35600,"station_id":"","pricing_plan_id":"cebpf4jnsgd1na2vs0mg"},{"bike_id":"e707f82c-b33f-4b4d-9c99-d536f08f1c5e","system_id":"levelo_inurba_marseille","lat":43.251053,"lon":5.403112,"is_reserved":false,"is_disabled":false,"rental_uris":{"android":"levelo://app?vid=e707f82c-b33f-4b4d-9c99-d536f08f1c5e","ios":"levelo://app?vid=e707f82c-b33f-4b4d-9c99-d536f08f1c5e"},"vehicle_type_id":"4","last_reported":1773409936,"current_range_meters":19200,"station_id":"ce4bhlh2rcd13ifvqgig","pricing_plan_id":"cebpf4jnsgd1na2vs0mg"},{"bike_id":"ca6172bb-1bde-4c29-82ad-418bf4e991bb","system_id":"levelo_inurba_marseille","lat":43.28146,"lon":5.42645,"is_reserved":false,"is_disabled":false,"rental_uris":{"android":"levelo://app?vid=ca6172bb-1bde-4c29-82ad-418bf4e991bb","ios":"levelo://app?vid=ca6172bb-1bde-4c29-82ad-418bf4e991bb"},"vehicle_type_id":"4","last_reported":1773409936,"current_range_meters":20000,"station_id":"ce4bhnh2rcd13ifvqgug","pricing_plan_id":"cebpf4jnsgd1na2vs0mg"},{"bike_id":"be4b33f3-f666-4b28-9e53-550c3c6e8b23","system_id":"levelo_inurba_marseille","lat":43.28485,"lon":5.48403,"is_reserved":false,"is_disabled":false,"rental_uris":{"android":"levelo://app?vid=be4b33f3-f666-4b28-9e53-550c3c6e8b23","ios":"levelo://app?vid=be4b33f3-f666-4b28-9e53-550c3c6e8b23"},"vehicle_type_id":"4","last_reported":1773409936,"current_range_meters":22400,"station_id":"","pricing_plan_id":"cebpf4jnsgd1na2vs0mg"},{"bike_id":"3bcfa95b-c38c-427c-a80a-051658b47189","system_id":"levelo_inurba_marseille","lat":43.28285,"lon":5.35059,"is_reserved":false,"is_disabled":false,"rental_uris":{"android":"levelo://app?vid=3bcfa95b-c38c-427c-a80a-051658b47189","ios":"levelo://app?vid=3bcfa95b-c38c-427c-a80a-051658b47189"},"vehicle_type_id":"4","last_reported":1773409936,"current_range_meters":27600,"station_id":"ce4bhbp2rcd13ifvqerg","pricing_plan_id":"cebpf4jnsgd1na2vs0mg"},{"bike_id":"7e93006e-36a2-465d-83ba-4c6c7efd21e7","system_id":"levelo_inurba_marseille","lat":43.28482,"lon":5.48398,"is_reserved":false,"is_disabled":false,"rental_uris":{"android":"levelo://app?vid=7e93006e-36a2-465d-83ba-4c6c7efd21e7","ios":"levelo://app?vid=7e93006e-36a2-465d-83ba-4c6c7efd21e7"},"vehicle_type_id":"4","last_reported":1773409936,"current_range_meters":8000,"station_id":"","pricing_plan_id":"cebpf4jnsgd1na2vs0mg"},{"bike_id":"193cbe9d-b7d2-421e-9f76-9c8c86aebb4a","system_id":"levelo_inurba_marseille","lat":43.33536,"lon":5.3746,"is_reserved":false,"is_disabled":false,"rental_uris":{"android":"levelo://app?vid=193cbe9d-b7d2-421e-9f76-9c8c86aebb4a","ios":"levelo://app?vid=193cbe9d-b7d2-421e-9f76-9c8c86aebb4a"},"vehicle_type_id":"4","last_reported":1773409936,"current_range_meters":12800,"station_id":"st_d46tts09ee8s73dlu43g","pricing_plan_id":"cebpf4jnsgd1na2vs0mg"},{"bike_id":"9f555977-ed84-4e25-9c81-1c0c6fccc8b6","system_id":"levelo_inurba_marseille","lat":43.24391,"lon":5.44126,"is_reserved":false,"is_disabled":true,"rental_uris":{"android":"levelo://app?vid=9f555977-ed84-4e25-9c81-1c0c6fccc8b6","ios":"levelo://app?vid=9f555977-ed84-4e25-9c81-1c0c6fccc8b6"},"vehicle_type_id":"4","last_reported":1773409936,"current_range_meters":6000,"station_id":"","pricing_plan_id":"cebpf4jnsgd1na2vs0mg"},{"bike_id":"35767eb5-578d-4b29-9c32-ce565407fc05","system_id":"levelo_inurba_marseille","lat":43.29882,"lon":5.38913,"is_reserved":false,"is_disabled":true,"rental_uris":{"android":"levelo://app?vid=35767eb5-578d-4b29-9c32-ce565407fc05","ios":"levelo://app?vid=35767eb5-578d-4b29-9c32-ce565407fc05"},"vehicle_type_id":"4","last_reported":1773409936,"current_range_meters":1600,"station_id":"ce4bh392rcd13ifvqdl0","pricing_plan_id":"cebpf4jnsgd1na2vs0mg"},{"bike_id":"1b90c84d-178c-43e0-9b7c-7336a3092667","system_id":"levelo_inurba_marseille","lat":43.30327,"lon":5.36891,"is_reserved":false,"is_disabled":false,"rental_uris":{"android":"levelo://app?vid=1b90c84d-178c-43e0-9b7c-7336a3092667","ios":"levelo://app?vid=1b90c84d-178c-43e0-9b7c-7336a3092667"},"vehicle_type_id":"4","last_reported":1773409936,"current_range_meters":39200,"station_id":"ce4bgqh2rcd13ifvqc5g","pricing_plan_id":"cebpf4jnsgd1na2vs0mg"},{"bike_id":"1f596c7a-7754-4133-bf66-477a7fab80f6","system_id":"levelo_inurba_marseille","lat":43.29925,"lon":5.37464,"is_reserved":false,"is_disabled":false,"rental_uris":{"android":"levelo://app?vid=1f596c7a-7754-4133-bf66-477a7fab80f6","ios":"levelo://app?vid=1f596c7a-7754-4133-bf66-477a7fab80f6"},"vehicle_type_id":"4","last_reported":1773409936,"current_range_meters":24400,"station_id":"ce4bgjh2rcd13ifvqbg0","pricing_plan_id":"cebpf4jnsgd1na2vs0mg"},{"bike_id":"87c11c98-05aa-4792-a1d2-174f4e9e916a","system_id":"levelo_inurba_marseille","lat":43.295257,"lon":5.389927,"is_reserved":false,"is_disabled":false,"rental_uris":{"android":"levelo://app?vid=87c11c98-05aa-4792-a1d2-174f4e9e916a","ios":"levelo://app?vid=87c11c98-05aa-4792-a1d2-174f4e9e916a"},"vehicle_type_id":"4","last_reported":1773409936,"current_range_meters":34800,"station_id":"ce4bh3p2rcd13ifvqdp0","pricing_plan_id":"cebpf4jnsgd1na2vs0mg"},{"bike_id":"1f16dcef-0cca-480d-ba8f-27d7837c6710","system_id":"levelo_inurba_marseille","lat":43.30135,"lon":5.39863,"is_reserved":false,"is_disabled":false,"rental_uris":{"android":"levelo://app?vid=1f16dcef-0cca-480d-ba8f-27d7837c6710","ios":"levelo://app?vid=1f16dcef-0cca-480d-ba8f-27d7837c6710"},"vehicle_type_id":"4","last_reported":1773409936,"current_range_meters":7200,"station_id":"ce4bh0h2rcd13ifvqd40","pricing_plan_id":"cebpf4jnsgd1na2vs0mg"},{"bike_id":"35633058-1c8d-41f2-a2e3-e1101467a98c","system_id":"levelo_inurba_marseille","lat":43.2341,"lon":5.41222,"is_reserved":false,"is_disabled":false,"rental_uris":{"android":"levelo://app?vid=35633058-1c8d-41f2-a2e3-e1101467a98c","ios":"levelo://app?vid=35633058-1c8d-41f2-a2e3-e1101467a98c"},"vehicle_type_id":"4","last_reported":1773409936,"current_range_meters":11600,"station_id":"","pricing_plan_id":"cebpf4jnsgd1na2vs0mg"},{"bike_id":"e44ce07f-b4ba-4e55-8858-6faa78a5bb09","system_id":"levelo_inurba_marseille","lat":43.30159,"lon":5.38116,"is_reserved":false,"is_disabled":false,"rental_uris":{"android":"levelo://app?vid=e44ce07f-b4ba-4e55-8858-6faa78a5bb09","ios":"levelo://app?vid=e44ce07f-b4ba-4e55-8858-6faa78a5bb09"},"vehicle_type_id":"4","last_reported":1773409936,"current_range_meters":36800,"station_id":"ce4bgjp2rcd13ifvqbh0","pricing_plan_id":"cebpf4jnsgd1na2vs0mg"},{"bike_id":"fe7300c6-3844-436e-a075-e7fe4466cf11","system_id":"levelo_inurba_marseille","lat":43.23773,"lon":5.36634,"is_reserved":false,"is_disabled":false,"rental_uris":{"android":"levelo://app?vid=fe7300c6-3844-436e-a075-e7fe4466cf11","ios":"levelo://app?vid=fe7300c6-3844-436e-a075-e7fe4466cf11"},"vehicle_type_id":"4","last_reported":1773409936,"current_range_meters":39200,"station_id":"st_d3nk18o9ro0c73en2l3g","pricing_plan_id":"cebpf4jnsgd1na2vs0mg"},{"bike_id":"3115ec2c-0e1c-40e3-beba-8ab26217ce9f","system_id":"levelo_inurba_marseille","lat":43.28205,"lon":5.39043,"is_reserved":false,"is_disabled":true,"rental_uris":{"android":"levelo://app?vid=3115ec2c-0e1c-40e3-beba-8ab26217ce9f","ios":"levelo://app?vid=3115ec2c-0e1c-40e3-beba-8ab26217ce9f"},"vehicle_type_id":"4","last_reported":1773409936,"current_range_meters":36000,"station_id":"ce4bhn92rcd13ifvqgsg","pricing_plan_id":"cebpf4jnsgd1na2vs0mg"},{"bike_id":"dec7e136-8e46-49db-9f8c-f6ff1cf5ddff","system_id":"levelo_inurba_marseille","lat":43.2175,"lon":5.34603,"is_reserved":false,"is_disabled":false,"rental_uris":{"android":"levelo://app?vid=dec7e136-8e46-49db-9f8c-f6ff1cf5ddff","ios":"levelo://app?vid=dec7e136-8e46-49db-9f8c-f6ff1cf5ddff"},"vehicle_type_id":"4","last_reported":1773409936,"current_range_meters":9600,"station_id":"st_cvj6r9ubvosntc0bgbag","pricing_plan_id":"cebpf4jnsgd1na2vs0mg"},{"bike_id":"9c3f11b1-6c96-472d-acf9-a5ac4e6e8a32","system_id":"levelo_inurba_marseille","lat":43.24651,"lon":5.38895,"is_reserved":false,"is_disabled":false,"rental_uris":{"android":"levelo://app?vid=9c3f11b1-6c96-472d-acf9-a5ac4e6e8a32","ios":"levelo://app?vid=9c3f11b1-6c96-472d-acf9-a5ac4e6e8a32"},"vehicle_type_id":"4","last_reported":1773409936,"current_range_meters":36400,"station_id":"ce4bhg12rcd13ifvqf60","pricing_plan_id":"cebpf4jnsgd1na2vs0mg"},{"bike_id":"ddffd595-e4d6-4840-a075-89e0d98ad68d","system_id":"levelo_inurba_marseille","lat":43.2707,"lon":5.42277,"is_reserved":false,"is_disabled":false,"rental_uris":{"android":"levelo://app?vid=ddffd595-e4d6-4840-a075-89e0d98ad68d","ios":"levelo://app?vid=ddffd595-e4d6-4840-a075-89e0d98ad68d"},"vehicle_type_id":"4","last_reported":1773409936,"current_range_meters":10800,"station_id":"ce4bhk92rcd13ifvqgb0","pricing_plan_id":"cebpf4jnsgd1na2vs0mg"},{"bike_id":"483b51bc-13b6-4f8e-bf1c-b113cd698669","system_id":"levelo_inurba_marseille","lat":43.28337,"lon":5.35049,"is_reserved":false,"is_disabled":false,"rental_uris":{"android":"levelo://app?vid=483b51bc-13b6-4f8e-bf1c-b113cd698669","ios":"levelo://app?vid=483b51bc-13b6-4f8e-bf1c-b113cd698669"},"vehicle_type_id":"4","last_reported":1773409936,"current_range_meters":36800,"station_id":"","pricing_plan_id":"cebpf4jnsgd1na2vs0mg"},{"bike_id":"2b110975-45e3-40d4-9a50-c2e1af1e7476","system_id":"levelo_inurba_marseille","lat":43.34137,"lon":5.4089,"is_reserved":false,"is_disabled":false,"rental_uris":{"android":"levelo://app?vid=2b110975-45e3-40d4-9a50-c2e1af1e7476","ios":"levelo://app?vid=2b110975-45e3-40d4-9a50-c2e1af1e7476"},"vehicle_type_id":"4","last_reported":1773409936,"current_range_meters":38400,"station_id":"ce4bhqh2rcd13ifvqhlg","pricing_plan_id":"cebpf4jnsgd1na2vs0mg"},{"bike_id":"080e1638-1f0e-4e41-92c1-1c0e469e96c3","system_id":"levelo_inurba_marseille","lat":43.31342,"lon":5.36728,"is_reserved":false,"is_disabled":false,"rental_uris":{"android":"levelo://app?vid=080e1638-1f0e-4e41-92c1-1c0e469e96c3","ios":"levelo://app?vid=080e1638-1f0e-4e41-92c1-1c0e469e96c3"},"vehicle_type_id":"4","last_reported":1773409936,"current_range_meters":29600,"station_id":"ce4bgr92rcd13ifvqc6g","pricing_plan_id":"cebpf4jnsgd1na2vs0mg"},{"bike_id":"cf9c0b25-4f13-4731-8ba2-bbedab509dfb","system_id":"levelo_inurba_marseille","lat":43.30274,"lon":5.37698,"is_reserved":false,"is_disabled":false,"rental_uris":{"android":"levelo://app?vid=cf9c0b25-4f13-4731-8ba2-bbedab509dfb","ios":"levelo://app?vid=cf9c0b25-4f13-4731-8ba2-bbedab509dfb"},"vehicle_type_id":"4","last_reported":1773409936,"current_range_meters":27600,"station_id":"ce4bguh2rcd13ifvqcj0","pricing_plan_id":"cebpf4jnsgd1na2vs0mg"},{"bike_id":"48f7318f-42c7-4aa4-b62f-fc9ed340836e","system_id":"levelo_inurba_marseille","lat":43.28149,"lon":5.4266,"is_reserved":false,"is_disabled":false,"rental_uris":{"android":"levelo://app?vid=48f7318f-42c7-4aa4-b62f-fc9ed340836e","ios":"levelo://app?vid=48f7318f-42c7-4aa4-b62f-fc9ed340836e"},"vehicle_type_id":"4","last_reported":1773409936,"current_range_meters":9600,"station_id":"ce4bhnh2rcd13ifvqgug","pricing_plan_id":"cebpf4jnsgd1na2vs0mg"},{"bike_id":"2ddab465-249a-493c-a75f-64a391d22fe1","system_id":"levelo_inurba_marseille","lat":43.30517,"lon":5.36694,"is_reserved":false,"is_disabled":false,"rental_uris":{"android":"levelo://app?vid=2ddab465-249a-493c-a75f-64a391d22fe1","ios":"levelo://app?vid=2ddab465-249a-493c-a75f-64a391d22fe1"},"vehicle_type_id":"4","last_reported":1773409936,"current_range_meters":23200,"station_id":"ce4bgrp2rcd13ifvqc9g","pricing_plan_id":"cebpf4jnsgd1na2vs0mg"},{"bike_id":"085d9f80-e450-4ad6-81b9-46074072f150","system_id":"levelo_inurba_marseille","lat":43.31509,"lon":5.37302,"is_reserved":false,"is_disabled":false,"rental_uris":{"android":"levelo://app?vid=085d9f80-e450-4ad6-81b9-46074072f150","ios":"levelo://app?vid=085d9f80-e450-4ad6-81b9-46074072f150"},"vehicle_type_id":"4","last_reported":1773409936,"current_range_meters":38800,"station_id":"ce4bgt12rcd13ifvqcd0","pricing_plan_id":"cebpf4jnsgd1na2vs0mg"},{"bike_id":"3a46d46a-3434-4c09-9481-ae1049d546b0","system_id":"levelo_inurba_marseille","lat":43.31481,"lon":5.373,"is_reserved":false,"is_disabled":false,"rental_uris":{"android":"levelo://app?vid=3a46d46a-3434-4c09-9481-ae1049d546b0","ios":"levelo://app?vid=3a46d46a-3434-4c09-9481-ae1049d546b0"},"vehicle_type_id":"4","last_reported":1773409936,"current_range_meters":3200,"station_id":"ce4bgt12rcd13ifvqcd0","pricing_plan_id":"cebpf4jnsgd1na2vs0mg"},{"bike_id":"64069c02-c977-4af0-a752-efe4502ec874","system_id":"levelo_inurba_marseille","lat":43.28477,"lon":5.4839,"is_reserved":false,"is_disabled":false,"rental_uris":{"android":"levelo://app?vid=64069c02-c977-4af0-a752-efe4502ec874","ios":"levelo://app?vid=64069c02-c977-4af0-a752-efe4502ec874"},"vehicle_type_id":"4","last_reported":1773409936,"current_range_meters":10800,"station_id":"","pricing_plan_id":"cebpf4jnsgd1na2vs0mg"},{"bike_id":"d626003d-e6cf-4e92-a00c-f55cb5debf98","system_id":"levelo_inurba_marseille","lat":43.26953,"lon":5.38638,"is_reserved":false,"is_disabled":false,"rental_uris":{"android":"levelo://app?vid=d626003d-e6cf-4e92-a00c-f55cb5debf98","ios":"levelo://app?vid=d626003d-e6cf-4e92-a00c-f55cb5debf98"},"vehicle_type_id":"4","last_reported":1773409936,"current_range_meters":22400,"station_id":"ce4bhh92rcd13ifvqfh0","pricing_plan_id":"cebpf4jnsgd1na2vs0mg"},{"bike_id":"5ce0c82b-cf23-4be8-80b2-299792a47b1b","system_id":"levelo_inurba_marseille","lat":43.30378,"lon":5.42509,"is_reserved":false,"is_disabled":false,"rental_uris":{"android":"levelo://app?vid=5ce0c82b-cf23-4be8-80b2-299792a47b1b","ios":"levelo://app?vid=5ce0c82b-cf23-4be8-80b2-299792a47b1b"},"vehicle_type_id":"4","last_reported":1773409936,"current_range_meters":30000,"station_id":"ce4bhoh2rcd13ifvqh6g","pricing_plan_id":"cebpf4jnsgd1na2vs0mg"},{"bike_id":"5db6e19a-4369-4327-b7e4-06c2f961c22d","system_id":"levelo_inurba_marseille","lat":43.30948,"lon":5.36856,"is_reserved":false,"is_disabled":false,"rental_uris":{"android":"levelo://app?vid=5db6e19a-4369-4327-b7e4-06c2f961c22d","ios":"levelo://app?vid=5db6e19a-4369-4327-b7e4-06c2f961c22d"},"vehicle_type_id":"4","last_reported":1773409936,"current_range_meters":40000,"station_id":"ce4bgn92rcd13ifvqbvg","pricing_plan_id":"cebpf4jnsgd1na2vs0mg"},{"bike_id":"7bf0a830-d498-457c-a030-91c3bd84fed4","system_id":"levelo_inurba_marseille","lat":43.23198,"lon":5.35546,"is_reserved":false,"is_disabled":false,"rental_uris":{"android":"levelo://app?vid=7bf0a830-d498-457c-a030-91c3bd84fed4","ios":"levelo://app?vid=7bf0a830-d498-457c-a030-91c3bd84fed4"},"vehicle_type_id":"4","last_reported":1773409936,"current_range_meters":18000,"station_id":"ce4bhu92rcd13ifvqi70","pricing_plan_id":"cebpf4jnsgd1na2vs0mg"},{"bike_id":"db5fc025-f609-443b-b481-2f6cefb137d4","system_id":"levelo_inurba_marseille","lat":43.28465,"lon":5.48403,"is_reserved":false,"is_disabled":false,"rental_uris":{"android":"levelo://app?vid=db5fc025-f609-443b-b481-2f6cefb137d4","ios":"levelo://app?vid=db5fc025-f609-443b-b481-2f6cefb137d4"},"vehicle_type_id":"4","last_reported":1773409936,"current_range_meters":33600,"station_id":"","pricing_plan_id":"cebpf4jnsgd1na2vs0mg"},{"bike_id":"3b85e9e8-4938-4ae7-a83e-c8e2526a550f","system_id":"levelo_inurba_marseille","lat":43.24173,"lon":5.36376,"is_reserved":false,"is_disabled":false,"rental_uris":{"android":"levelo://app?vid=3b85e9e8-4938-4ae7-a83e-c8e2526a550f","ios":"levelo://app?vid=3b85e9e8-4938-4ae7-a83e-c8e2526a550f"},"vehicle_type_id":"4","last_reported":1773409936,"current_range_meters":30000,"station_id":"cpo36qri1sfpv3e86is0","pricing_plan_id":"cebpf4jnsgd1na2vs0mg"},{"bike_id":"d5b94fb7-6ed2-4115-8925-47fdf09de149","system_id":"levelo_inurba_marseille","lat":43.30543,"lon":5.36721,"is_reserved":false,"is_disabled":false,"rental_uris":{"android":"levelo://app?vid=d5b94fb7-6ed2-4115-8925-47fdf09de149","ios":"levelo://app?vid=d5b94fb7-6ed2-4115-8925-47fdf09de149"},"vehicle_type_id":"4","last_reported":1773409936,"current_range_meters":39200,"station_id":"ce4bgrp2rcd13ifvqc9g","pricing_plan_id":"cebpf4jnsgd1na2vs0mg"},{"bike_id":"e161126b-4011-47fc-b02a-310f76c9826d","system_id":"levelo_inurba_marseille","lat":43.30532,"lon":5.36699,"is_reserved":false,"is_disabled":false,"rental_uris":{"android":"levelo://app?vid=e161126b-4011-47fc-b02a-310f76c9826d","ios":"levelo://app?vid=e161126b-4011-47fc-b02a-310f76c9826d"},"vehicle_type_id":"4","last_reported":1773409936,"current_range_meters":39200,"station_id":"ce4bgrp2rcd13ifvqc9g","pricing_plan_id":"cebpf4jnsgd1na2vs0mg"},{"bike_id":"552db961-6ff4-4a02-9e5d-7a6056b861cd","system_id":"levelo_inurba_marseille","lat":43.30899,"lon":5.36874,"is_reserved":false,"is_disabled":false,"rental_uris":{"android":"levelo://app?vid=552db961-6ff4-4a02-9e5d-7a6056b861cd","ios":"levelo://app?vid=552db961-6ff4-4a02-9e5d-7a6056b861cd"},"vehicle_type_id":"4","last_reported":1773409936,"current_range_meters":40000,"station_id":"ce4bgn92rcd13ifvqbvg","pricing_plan_id":"cebpf4jnsgd1na2vs0mg"},{"bike_id":"9c2b5d2a-9cac-40e8-8612-2d62a5457827","system_id":"levelo_inurba_marseille","lat":43.2769,"lon":5.38919,"is_reserved":false,"is_disabled":false,"rental_uris":{"android":"levelo://app?vid=9c2b5d2a-9cac-40e8-8612-2d62a5457827","ios":"levelo://app?vid=9c2b5d2a-9cac-40e8-8612-2d62a5457827"},"vehicle_type_id":"4","last_reported":1773409936,"current_range_meters":39200,"station_id":"ce4bhi12rcd13ifvqfo0","pricing_plan_id":"cebpf4jnsgd1na2vs0mg"},{"bike_id":"ab7d9189-2568-4974-829e-49dee9a447d5","system_id":"levelo_inurba_marseille","lat":43.23192,"lon":5.35537,"is_reserved":false,"is_disabled":false,"rental_uris":{"android":"levelo://app?vid=ab7d9189-2568-4974-829e-49dee9a447d5","ios":"levelo://app?vid=ab7d9189-2568-4974-829e-49dee9a447d5"},"vehicle_type_id":"4","last_reported":1773409936,"current_range_meters":39200,"station_id":"ce4bhu92rcd13ifvqi70","pricing_plan_id":"cebpf4jnsgd1na2vs0mg"},{"bike_id":"35fe9455-ae33-48b3-b4d1-a5c996ca5b26","system_id":"levelo_inurba_marseille","lat":43.24469,"lon":5.4253,"is_reserved":false,"is_disabled":false,"rental_uris":{"android":"levelo://app?vid=35fe9455-ae33-48b3-b4d1-a5c996ca5b26","ios":"levelo://app?vid=35fe9455-ae33-48b3-b4d1-a5c996ca5b26"},"vehicle_type_id":"4","last_reported":1773409936,"current_range_meters":11600,"station_id":"","pricing_plan_id":"cebpf4jnsgd1na2vs0mg"},{"bike_id":"c0c5d9dc-928d-48b1-bc04-fe5d71707694","system_id":"levelo_inurba_marseille","lat":43.32374,"lon":5.36716,"is_reserved":false,"is_disabled":false,"rental_uris":{"android":"levelo://app?vid=c0c5d9dc-928d-48b1-bc04-fe5d71707694","ios":"levelo://app?vid=c0c5d9dc-928d-48b1-bc04-fe5d71707694"},"vehicle_type_id":"4","last_reported":1773409936,"current_range_meters":39200,"station_id":"ce4bhsh2rcd13ifvqi2g","pricing_plan_id":"cebpf4jnsgd1na2vs0mg"},{"bike_id":"34067b23-0c56-4b26-b659-525005b5345f","system_id":"levelo_inurba_marseille","lat":43.21763,"lon":5.34595,"is_reserved":false,"is_disabled":false,"rental_uris":{"android":"levelo://app?vid=34067b23-0c56-4b26-b659-525005b5345f","ios":"levelo://app?vid=34067b23-0c56-4b26-b659-525005b5345f"},"vehicle_type_id":"4","last_reported":1773409936,"current_range_meters":26000,"station_id":"st_cvj6r9ubvosntc0bgbag","pricing_plan_id":"cebpf4jnsgd1na2vs0mg"},{"bike_id":"d73f3000-65a0-4f9e-9038-080602d6c3b3","system_id":"levelo_inurba_marseille","lat":43.27919,"lon":5.39591,"is_reserved":false,"is_disabled":false,"rental_uris":{"android":"levelo://app?vid=d73f3000-65a0-4f9e-9038-080602d6c3b3","ios":"levelo://app?vid=d73f3000-65a0-4f9e-9038-080602d6c3b3"},"vehicle_type_id":"4","last_reported":1773409936,"current_range_meters":38000,"station_id":"ce4bhf92rcd13ifvqf40","pricing_plan_id":"cebpf4jnsgd1na2vs0mg"},{"bike_id":"91ad5159-ee4f-4775-9e76-ea40758cdb2d","system_id":"levelo_inurba_marseille","lat":43.2416,"lon":5.3641,"is_reserved":false,"is_disabled":false,"rental_uris":{"android":"levelo://app?vid=91ad5159-ee4f-4775-9e76-ea40758cdb2d","ios":"levelo://app?vid=91ad5159-ee4f-4775-9e76-ea40758cdb2d"},"vehicle_type_id":"4","last_reported":1773409936,"current_range_meters":39200,"station_id":"cpo36qri1sfpv3e86is0","pricing_plan_id":"cebpf4jnsgd1na2vs0mg"},{"bike_id":"aaf56433-ee77-470c-b7b6-221e680ae993","system_id":"levelo_inurba_marseille","lat":43.22563,"lon":5.41628,"is_reserved":false,"is_disabled":false,"rental_uris":{"android":"levelo://app?vid=aaf56433-ee77-470c-b7b6-221e680ae993","ios":"levelo://app?vid=aaf56433-ee77-470c-b7b6-221e680ae993"},"vehicle_type_id":"4","last_reported":1773409936,"current_range_meters":11600,"station_id":"st_d2o4gvlbi1j2169b742g","pricing_plan_id":"cebpf4jnsgd1na2vs0mg"},{"bike_id":"437d14d3-641a-4ae3-a542-be41387a53b8","system_id":"levelo_inurba_marseille","lat":43.26477,"lon":5.39547,"is_reserved":false,"is_disabled":false,"rental_uris":{"android":"levelo://app?vid=437d14d3-641a-4ae3-a542-be41387a53b8","ios":"levelo://app?vid=437d14d3-641a-4ae3-a542-be41387a53b8"},"vehicle_type_id":"4","last_reported":1773409936,"current_range_meters":38800,"station_id":"ce4bhi12rcd13ifvqfq0","pricing_plan_id":"cebpf4jnsgd1na2vs0mg"},{"bike_id":"848a5752-4194-46b6-9674-a32acdb9f6c9","system_id":"levelo_inurba_marseille","lat":43.29005,"lon":5.35608,"is_reserved":false,"is_disabled":false,"rental_uris":{"android":"levelo://app?vid=848a5752-4194-46b6-9674-a32acdb9f6c9","ios":"levelo://app?vid=848a5752-4194-46b6-9674-a32acdb9f6c9"},"vehicle_type_id":"4","last_reported":1773409936,"current_range_meters":3200,"station_id":"ce4bhb92rcd13ifvqen0","pricing_plan_id":"cebpf4jnsgd1na2vs0mg"},{"bike_id":"6737ca02-2d43-49c4-a10a-3e68cea6b2e2","system_id":"levelo_inurba_marseille","lat":43.2978,"lon":5.42786,"is_reserved":false,"is_disabled":false,"rental_uris":{"android":"levelo://app?vid=6737ca02-2d43-49c4-a10a-3e68cea6b2e2","ios":"levelo://app?vid=6737ca02-2d43-49c4-a10a-3e68cea6b2e2"},"vehicle_type_id":"4","last_reported":1773409936,"current_range_meters":30800,"station_id":"st_d3md5207bmas73dh9klg","pricing_plan_id":"cebpf4jnsgd1na2vs0mg"},{"bike_id":"130bfb14-641e-4243-aedb-1640189e2b97","system_id":"levelo_inurba_marseille","lat":43.28406,"lon":5.34975,"is_reserved":false,"is_disabled":false,"rental_uris":{"android":"levelo://app?vid=130bfb14-641e-4243-aedb-1640189e2b97","ios":"levelo://app?vid=130bfb14-641e-4243-aedb-1640189e2b97"},"vehicle_type_id":"4","last_reported":1773409936,"current_range_meters":35200,"station_id":"ce4bhbh2rcd13ifvqepg","pricing_plan_id":"cebpf4jnsgd1na2vs0mg"},{"bike_id":"61d17a9a-a13c-45e9-a277-495a8d0f82a3","system_id":"levelo_inurba_marseille","lat":43.2439,"lon":5.3708,"is_reserved":false,"is_disabled":false,"rental_uris":{"android":"levelo://app?vid=61d17a9a-a13c-45e9-a277-495a8d0f82a3","ios":"levelo://app?vid=61d17a9a-a13c-45e9-a277-495a8d0f82a3"},"vehicle_type_id":"4","last_reported":1773409936,"current_range_meters":39200,"station_id":"ce4bhhh2rcd13ifvqfk0","pricing_plan_id":"cebpf4jnsgd1na2vs0mg"},{"bike_id":"24550012-5b41-4060-b915-19a22341e427","system_id":"levelo_inurba_marseille","lat":43.29786,"lon":5.40386,"is_reserved":false,"is_disabled":false,"rental_uris":{"android":"levelo://app?vid=24550012-5b41-4060-b915-19a22341e427","ios":"levelo://app?vid=24550012-5b41-4060-b915-19a22341e427"},"vehicle_type_id":"4","last_reported":1773409936,"current_range_meters":34000,"station_id":"ce4bh112rcd13ifvqd90","pricing_plan_id":"cebpf4jnsgd1na2vs0mg"},{"bike_id":"c45242bd-33e0-428f-91ac-36531ef68659","system_id":"levelo_inurba_marseille","lat":43.232031,"lon":5.400047,"is_reserved":false,"is_disabled":false,"rental_uris":{"android":"levelo://app?vid=c45242bd-33e0-428f-91ac-36531ef68659","ios":"levelo://app?vid=c45242bd-33e0-428f-91ac-36531ef68659"},"vehicle_type_id":"4","last_reported":1773409936,"current_range_meters":30400,"station_id":"ce4bhn12rcd13ifvqgqg","pricing_plan_id":"cebpf4jnsgd1na2vs0mg"},{"bike_id":"4ee3bb37-ef25-4f62-968c-7108f5fd143d","system_id":"levelo_inurba_marseille","lat":43.27212,"lon":5.39194,"is_reserved":false,"is_disabled":false,"rental_uris":{"android":"levelo://app?vid=4ee3bb37-ef25-4f62-968c-7108f5fd143d","ios":"levelo://app?vid=4ee3bb37-ef25-4f62-968c-7108f5fd143d"},"vehicle_type_id":"4","last_reported":1773409936,"current_range_meters":22000,"station_id":"ce4bhhp2rcd13ifvqfm0","pricing_plan_id":"cebpf4jnsgd1na2vs0mg"},{"bike_id":"08932114-bd06-47af-9697-d23e67457989","system_id":"levelo_inurba_marseille","lat":43.3121,"lon":5.36868,"is_reserved":false,"is_disabled":false,"rental_uris":{"android":"levelo://app?vid=08932114-bd06-47af-9697-d23e67457989","ios":"levelo://app?vid=08932114-bd06-47af-9697-d23e67457989"},"vehicle_type_id":"4","last_reported":1773409936,"current_range_meters":26800,"station_id":"ce4bgl92rcd13ifvqbq0","pricing_plan_id":"cebpf4jnsgd1na2vs0mg"},{"bike_id":"3682c19e-e351-458f-a5f7-c0fe3b0b3b23","system_id":"levelo_inurba_marseille","lat":43.2843,"lon":5.34982,"is_reserved":false,"is_disabled":false,"rental_uris":{"android":"levelo://app?vid=3682c19e-e351-458f-a5f7-c0fe3b0b3b23","ios":"levelo://app?vid=3682c19e-e351-458f-a5f7-c0fe3b0b3b23"},"vehicle_type_id":"4","last_reported":1773409936,"current_range_meters":35200,"station_id":"ce4bhbh2rcd13ifvqepg","pricing_plan_id":"cebpf4jnsgd1na2vs0mg"},{"bike_id":"8a5cee19-dd01-48a8-a96a-7efe859f4e90","system_id":"levelo_inurba_marseille","lat":43.2418,"lon":5.39721,"is_reserved":false,"is_disabled":false,"rental_uris":{"android":"levelo://app?vid=8a5cee19-dd01-48a8-a96a-7efe859f4e90","ios":"levelo://app?vid=8a5cee19-dd01-48a8-a96a-7efe859f4e90"},"vehicle_type_id":"4","last_reported":1773409936,"current_range_meters":14400,"station_id":"ce4bhn12rcd13ifvqgpg","pricing_plan_id":"cebpf4jnsgd1na2vs0mg"},{"bike_id":"3f3a904a-ec0f-4564-bdfe-464ab4a47fe1","system_id":"levelo_inurba_marseille","lat":43.28547,"lon":5.44098,"is_reserved":false,"is_disabled":false,"rental_uris":{"android":"levelo://app?vid=3f3a904a-ec0f-4564-bdfe-464ab4a47fe1","ios":"levelo://app?vid=3f3a904a-ec0f-4564-bdfe-464ab4a47fe1"},"vehicle_type_id":"4","last_reported":1773409936,"current_range_meters":34800,"station_id":"st_d3j3df2ikq2c7380ej80","pricing_plan_id":"cebpf4jnsgd1na2vs0mg"},{"bike_id":"407d14ed-b67a-41c0-aa1a-f9b6d2614cd2","system_id":"levelo_inurba_marseille","lat":43.28403,"lon":5.34983,"is_reserved":false,"is_disabled":false,"rental_uris":{"android":"levelo://app?vid=407d14ed-b67a-41c0-aa1a-f9b6d2614cd2","ios":"levelo://app?vid=407d14ed-b67a-41c0-aa1a-f9b6d2614cd2"},"vehicle_type_id":"4","last_reported":1773409936,"current_range_meters":39200,"station_id":"ce4bhbh2rcd13ifvqepg","pricing_plan_id":"cebpf4jnsgd1na2vs0mg"},{"bike_id":"34f7d74c-1be3-48bf-a81c-10dcbf13fd42","system_id":"levelo_inurba_marseille","lat":43.24462,"lon":5.42546,"is_reserved":false,"is_disabled":false,"rental_uris":{"android":"levelo://app?vid=34f7d74c-1be3-48bf-a81c-10dcbf13fd42","ios":"levelo://app?vid=34f7d74c-1be3-48bf-a81c-10dcbf13fd42"},"vehicle_type_id":"4","last_reported":1773409936,"current_range_meters":38000,"station_id":"st_d4a3vfp97mjs738cd8kg","pricing_plan_id":"cebpf4jnsgd1na2vs0mg"},{"bike_id":"32358ead-44ff-491d-882b-0c4122b7d796","system_id":"levelo_inurba_marseille","lat":43.21178,"lon":5.35075,"is_reserved":false,"is_disabled":false,"rental_uris":{"android":"levelo://app?vid=32358ead-44ff-491d-882b-0c4122b7d796","ios":"levelo://app?vid=32358ead-44ff-491d-882b-0c4122b7d796"},"vehicle_type_id":"4","last_reported":1773409936,"current_range_meters":8800,"station_id":"st_cvj6sg6p6f1abm77japg","pricing_plan_id":"cebpf4jnsgd1na2vs0mg"},{"bike_id":"88baf1fe-4b9b-4c52-81f7-dd067c921a9f","system_id":"levelo_inurba_marseille","lat":43.29824,"lon":5.44031,"is_reserved":false,"is_disabled":false,"rental_uris":{"android":"levelo://app?vid=88baf1fe-4b9b-4c52-81f7-dd067c921a9f","ios":"levelo://app?vid=88baf1fe-4b9b-4c52-81f7-dd067c921a9f"},"vehicle_type_id":"4","last_reported":1773409936,"current_range_meters":17200,"station_id":"st_d3jp68qikq2c7381ktn0","pricing_plan_id":"cebpf4jnsgd1na2vs0mg"},{"bike_id":"2f414416-cb10-40e4-8635-ad7f4bf7120a","system_id":"levelo_inurba_marseille","lat":43.26555,"lon":5.37298,"is_reserved":false,"is_disabled":false,"rental_uris":{"android":"levelo://app?vid=2f414416-cb10-40e4-8635-ad7f4bf7120a","ios":"levelo://app?vid=2f414416-cb10-40e4-8635-ad7f4bf7120a"},"vehicle_type_id":"4","last_reported":1773409936,"current_range_meters":23200,"station_id":"ce4bhg12rcd13ifvqf70","pricing_plan_id":"cebpf4jnsgd1na2vs0mg"},{"bike_id":"f01895a6-9391-4a2a-aa37-b40667902cbe","system_id":"levelo_inurba_marseille","lat":43.25508,"lon":5.37644,"is_reserved":false,"is_disabled":false,"rental_uris":{"android":"levelo://app?vid=f01895a6-9391-4a2a-aa37-b40667902cbe","ios":"levelo://app?vid=f01895a6-9391-4a2a-aa37-b40667902cbe"},"vehicle_type_id":"4","last_reported":1773409936,"current_range_meters":38000,"station_id":"ce4bhh12rcd13ifvqff0","pricing_plan_id":"cebpf4jnsgd1na2vs0mg"},{"bike_id":"5ac94716-44b8-4ae4-8f63-01aed3be190f","system_id":"levelo_inurba_marseille","lat":43.23969,"lon":5.36626,"is_reserved":false,"is_disabled":false,"rental_uris":{"android":"levelo://app?vid=5ac94716-44b8-4ae4-8f63-01aed3be190f","ios":"levelo://app?vid=5ac94716-44b8-4ae4-8f63-01aed3be190f"},"vehicle_type_id":"4","last_reported":1773409936,"current_range_meters":14000,"station_id":"ce4bhi12rcd13ifvqfp0","pricing_plan_id":"cebpf4jnsgd1na2vs0mg"},{"bike_id":"cbf3c1c8-949f-47c5-8ffa-840c4c8920af","system_id":"levelo_inurba_marseille","lat":43.31375,"lon":5.36736,"is_reserved":false,"is_disabled":false,"rental_uris":{"android":"levelo://app?vid=cbf3c1c8-949f-47c5-8ffa-840c4c8920af","ios":"levelo://app?vid=cbf3c1c8-949f-47c5-8ffa-840c4c8920af"},"vehicle_type_id":"4","last_reported":1773409936,"current_range_meters":36800,"station_id":"ce4bgr92rcd13ifvqc6g","pricing_plan_id":"cebpf4jnsgd1na2vs0mg"},{"bike_id":"b9f80436-b025-4780-b392-7d89975f7b62","system_id":"levelo_inurba_marseille","lat":43.274,"lon":5.42486,"is_reserved":false,"is_disabled":false,"rental_uris":{"android":"levelo://app?vid=b9f80436-b025-4780-b392-7d89975f7b62","ios":"levelo://app?vid=b9f80436-b025-4780-b392-7d89975f7b62"},"vehicle_type_id":"4","last_reported":1773409936,"current_range_meters":26800,"station_id":"","pricing_plan_id":"cebpf4jnsgd1na2vs0mg"},{"bike_id":"d008a3ca-bdab-43f7-957e-465391a2d48d","system_id":"levelo_inurba_marseille","lat":43.31731,"lon":5.42412,"is_reserved":false,"is_disabled":false,"rental_uris":{"android":"levelo://app?vid=d008a3ca-bdab-43f7-957e-465391a2d48d","ios":"levelo://app?vid=d008a3ca-bdab-43f7-957e-465391a2d48d"},"vehicle_type_id":"4","last_reported":1773409936,"current_range_meters":34800,"station_id":"ce4bhp92rcd13ifvqhbg","pricing_plan_id":"cebpf4jnsgd1na2vs0mg"},{"bike_id":"061e265a-0602-40cd-8c80-4693d8e8b09f","system_id":"levelo_inurba_marseille","lat":43.2737,"lon":5.36236,"is_reserved":false,"is_disabled":false,"rental_uris":{"android":"levelo://app?vid=061e265a-0602-40cd-8c80-4693d8e8b09f","ios":"levelo://app?vid=061e265a-0602-40cd-8c80-4693d8e8b09f"},"vehicle_type_id":"4","last_reported":1773409936,"current_range_meters":26000,"station_id":"ce4bhbh2rcd13ifvqeo0","pricing_plan_id":"cebpf4jnsgd1na2vs0mg"},{"bike_id":"d5269923-962d-4916-8c24-381b23861a7a","system_id":"levelo_inurba_marseille","lat":43.23789,"lon":5.36637,"is_reserved":false,"is_disabled":false,"rental_uris":{"android":"levelo://app?vid=d5269923-962d-4916-8c24-381b23861a7a","ios":"levelo://app?vid=d5269923-962d-4916-8c24-381b23861a7a"},"vehicle_type_id":"4","last_reported":1773409936,"current_range_meters":34000,"station_id":"st_d3nk18o9ro0c73en2l3g","pricing_plan_id":"cebpf4jnsgd1na2vs0mg"},{"bike_id":"281ddfef-efb6-422e-ac23-4e0aeaa6ad7d","system_id":"levelo_inurba_marseille","lat":43.24181,"lon":5.39684,"is_reserved":false,"is_disabled":false,"rental_uris":{"android":"levelo://app?vid=281ddfef-efb6-422e-ac23-4e0aeaa6ad7d","ios":"levelo://app?vid=281ddfef-efb6-422e-ac23-4e0aeaa6ad7d"},"vehicle_type_id":"4","last_reported":1773409936,"current_range_meters":39200,"station_id":"ce4bhn12rcd13ifvqgpg","pricing_plan_id":"cebpf4jnsgd1na2vs0mg"},{"bike_id":"1682d056-fdab-4527-af67-8d06aa137368","system_id":"levelo_inurba_marseille","lat":43.23387,"lon":5.41244,"is_reserved":false,"is_disabled":false,"rental_uris":{"android":"levelo://app?vid=1682d056-fdab-4527-af67-8d06aa137368","ios":"levelo://app?vid=1682d056-fdab-4527-af67-8d06aa137368"},"vehicle_type_id":"4","last_reported":1773409936,"current_range_meters":25600,"station_id":"","pricing_plan_id":"cebpf4jnsgd1na2vs0mg"},{"bike_id":"d6020f80-4f12-4b16-9868-71a9b4fcf4bf","system_id":"levelo_inurba_marseille","lat":43.30482,"lon":5.37917,"is_reserved":false,"is_disabled":false,"rental_uris":{"android":"levelo://app?vid=d6020f80-4f12-4b16-9868-71a9b4fcf4bf","ios":"levelo://app?vid=d6020f80-4f12-4b16-9868-71a9b4fcf4bf"},"vehicle_type_id":"4","last_reported":1773409936,"current_range_meters":38000,"station_id":"ce4bgup2rcd13ifvqcn0","pricing_plan_id":"cebpf4jnsgd1na2vs0mg"},{"bike_id":"20f20e86-46fb-42cc-b1e5-d22dce10e777","system_id":"levelo_inurba_marseille","lat":43.28266,"lon":5.3506,"is_reserved":false,"is_disabled":false,"rental_uris":{"android":"levelo://app?vid=20f20e86-46fb-42cc-b1e5-d22dce10e777","ios":"levelo://app?vid=20f20e86-46fb-42cc-b1e5-d22dce10e777"},"vehicle_type_id":"4","last_reported":1773409936,"current_range_meters":6400,"station_id":"ce4bhbp2rcd13ifvqerg","pricing_plan_id":"cebpf4jnsgd1na2vs0mg"},{"bike_id":"77104936-f36f-4a1c-b5f6-9be1e7ca6ed3","system_id":"levelo_inurba_marseille","lat":43.33544,"lon":5.37457,"is_reserved":false,"is_disabled":false,"rental_uris":{"android":"levelo://app?vid=77104936-f36f-4a1c-b5f6-9be1e7ca6ed3","ios":"levelo://app?vid=77104936-f36f-4a1c-b5f6-9be1e7ca6ed3"},"vehicle_type_id":"4","last_reported":1773409936,"current_range_meters":29600,"station_id":"st_d46tts09ee8s73dlu43g","pricing_plan_id":"cebpf4jnsgd1na2vs0mg"},{"bike_id":"18a0fb9e-e224-426e-8d68-1c285ec71ac8","system_id":"levelo_inurba_marseille","lat":43.29263,"lon":5.38425,"is_reserved":false,"is_disabled":true,"rental_uris":{"android":"levelo://app?vid=18a0fb9e-e224-426e-8d68-1c285ec71ac8","ios":"levelo://app?vid=18a0fb9e-e224-426e-8d68-1c285ec71ac8"},"vehicle_type_id":"4","last_reported":1773409936,"current_range_meters":27200,"station_id":"ce4bh692rcd13ifvqea0","pricing_plan_id":"cebpf4jnsgd1na2vs0mg"},{"bike_id":"75de7728-0b5a-459e-b1a9-ff12a2b31cdd","system_id":"levelo_inurba_marseille","lat":43.28935,"lon":5.36643,"is_reserved":false,"is_disabled":false,"rental_uris":{"android":"levelo://app?vid=75de7728-0b5a-459e-b1a9-ff12a2b31cdd","ios":"levelo://app?vid=75de7728-0b5a-459e-b1a9-ff12a2b31cdd"},"vehicle_type_id":"4","last_reported":1773409936,"current_range_meters":20000,"station_id":"ce4bhap2rcd13ifvqek0","pricing_plan_id":"cebpf4jnsgd1na2vs0mg"},{"bike_id":"dd9d0c71-7df6-4dbc-b282-7a633630fe60","system_id":"levelo_inurba_marseille","lat":43.24811,"lon":5.37485,"is_reserved":false,"is_disabled":false,"rental_uris":{"android":"levelo://app?vid=dd9d0c71-7df6-4dbc-b282-7a633630fe60","ios":"levelo://app?vid=dd9d0c71-7df6-4dbc-b282-7a633630fe60"},"vehicle_type_id":"4","last_reported":1773409936,"current_range_meters":40000,"station_id":"ce4bhgh2rcd13ifvqfb0","pricing_plan_id":"cebpf4jnsgd1na2vs0mg"},{"bike_id":"ea304849-fd51-4961-bfc0-efabcbe3b6ad","system_id":"levelo_inurba_marseille","lat":43.23381,"lon":5.41253,"is_reserved":false,"is_disabled":false,"rental_uris":{"android":"levelo://app?vid=ea304849-fd51-4961-bfc0-efabcbe3b6ad","ios":"levelo://app?vid=ea304849-fd51-4961-bfc0-efabcbe3b6ad"},"vehicle_type_id":"4","last_reported":1773409936,"current_range_meters":19600,"station_id":"","pricing_plan_id":"cebpf4jnsgd1na2vs0mg"},{"bike_id":"c514af3d-99f3-462a-a5ff-b0c3a231404d","system_id":"levelo_inurba_marseille","lat":43.31491,"lon":5.36731,"is_reserved":false,"is_disabled":false,"rental_uris":{"android":"levelo://app?vid=c514af3d-99f3-462a-a5ff-b0c3a231404d","ios":"levelo://app?vid=c514af3d-99f3-462a-a5ff-b0c3a231404d"},"vehicle_type_id":"4","last_reported":1773409936,"current_range_meters":36400,"station_id":"","pricing_plan_id":"cebpf4jnsgd1na2vs0mg"},{"bike_id":"52c0e189-e831-4c3c-a72a-ee2208e9bced","system_id":"levelo_inurba_marseille","lat":43.33152,"lon":5.37694,"is_reserved":false,"is_disabled":false,"rental_uris":{"android":"levelo://app?vid=52c0e189-e831-4c3c-a72a-ee2208e9bced","ios":"levelo://app?vid=52c0e189-e831-4c3c-a72a-ee2208e9bced"},"vehicle_type_id":"4","last_reported":1773409936,"current_range_meters":32800,"station_id":"st_d46cu089ee8s73dldbu0","pricing_plan_id":"cebpf4jnsgd1na2vs0mg"},{"bike_id":"8617b24d-bdd2-49e3-beda-5d74fc474252","system_id":"levelo_inurba_marseille","lat":43.28485,"lon":5.48407,"is_reserved":false,"is_disabled":false,"rental_uris":{"android":"levelo://app?vid=8617b24d-bdd2-49e3-beda-5d74fc474252","ios":"levelo://app?vid=8617b24d-bdd2-49e3-beda-5d74fc474252"},"vehicle_type_id":"4","last_reported":1773409936,"current_range_meters":30000,"station_id":"","pricing_plan_id":"cebpf4jnsgd1na2vs0mg"},{"bike_id":"fa2bba8a-18e3-4b70-aead-eb8340ccd9cb","system_id":"levelo_inurba_marseille","lat":43.2341,"lon":5.41266,"is_reserved":false,"is_disabled":false,"rental_uris":{"android":"levelo://app?vid=fa2bba8a-18e3-4b70-aead-eb8340ccd9cb","ios":"levelo://app?vid=fa2bba8a-18e3-4b70-aead-eb8340ccd9cb"},"vehicle_type_id":"4","last_reported":1773409936,"current_range_meters":28000,"station_id":"","pricing_plan_id":"cebpf4jnsgd1na2vs0mg"},{"bike_id":"db02817d-9ce4-46d0-bb23-eb1fb2fd8181","system_id":"levelo_inurba_marseille","lat":43.26216,"lon":5.37443,"is_reserved":false,"is_disabled":false,"rental_uris":{"android":"levelo://app?vid=db02817d-9ce4-46d0-bb23-eb1fb2fd8181","ios":"levelo://app?vid=db02817d-9ce4-46d0-bb23-eb1fb2fd8181"},"vehicle_type_id":"4","last_reported":1773409936,"current_range_meters":25600,"station_id":"ce4bhgp2rcd13ifvqfc0","pricing_plan_id":"cebpf4jnsgd1na2vs0mg"},{"bike_id":"2c4b9baa-150c-43c0-9983-79477495e674","system_id":"levelo_inurba_marseille","lat":43.33074,"lon":5.39254,"is_reserved":false,"is_disabled":false,"rental_uris":{"android":"levelo://app?vid=2c4b9baa-150c-43c0-9983-79477495e674","ios":"levelo://app?vid=2c4b9baa-150c-43c0-9983-79477495e674"},"vehicle_type_id":"4","last_reported":1773409936,"current_range_meters":6800,"station_id":"","pricing_plan_id":"cebpf4jnsgd1na2vs0mg"},{"bike_id":"09539f8e-6768-469b-976e-6f474e67ef9e","system_id":"levelo_inurba_marseille","lat":43.27995,"lon":5.41668,"is_reserved":false,"is_disabled":false,"rental_uris":{"android":"levelo://app?vid=09539f8e-6768-469b-976e-6f474e67ef9e","ios":"levelo://app?vid=09539f8e-6768-469b-976e-6f474e67ef9e"},"vehicle_type_id":"4","last_reported":1773409936,"current_range_meters":34800,"station_id":"","pricing_plan_id":"cebpf4jnsgd1na2vs0mg"},{"bike_id":"e0f4c726-c891-4b59-a727-5f7bf2fb4325","system_id":"levelo_inurba_marseille","lat":43.28526,"lon":5.44092,"is_reserved":false,"is_disabled":false,"rental_uris":{"android":"levelo://app?vid=e0f4c726-c891-4b59-a727-5f7bf2fb4325","ios":"levelo://app?vid=e0f4c726-c891-4b59-a727-5f7bf2fb4325"},"vehicle_type_id":"4","last_reported":1773409936,"current_range_meters":4000,"station_id":"st_d3j3df2ikq2c7380ej80","pricing_plan_id":"cebpf4jnsgd1na2vs0mg"},{"bike_id":"fea054e9-9687-462f-a721-42a34c23bbef","system_id":"levelo_inurba_marseille","lat":43.24672,"lon":5.3818,"is_reserved":false,"is_disabled":false,"rental_uris":{"android":"levelo://app?vid=fea054e9-9687-462f-a721-42a34c23bbef","ios":"levelo://app?vid=fea054e9-9687-462f-a721-42a34c23bbef"},"vehicle_type_id":"4","last_reported":1773409936,"current_range_meters":12400,"station_id":"ce4bhih2rcd13ifvqfr0","pricing_plan_id":"cebpf4jnsgd1na2vs0mg"},{"bike_id":"3d4208c2-815f-40bf-8bb0-f78b87ee07d6","system_id":"levelo_inurba_marseille","lat":43.28423,"lon":5.34978,"is_reserved":false,"is_disabled":false,"rental_uris":{"android":"levelo://app?vid=3d4208c2-815f-40bf-8bb0-f78b87ee07d6","ios":"levelo://app?vid=3d4208c2-815f-40bf-8bb0-f78b87ee07d6"},"vehicle_type_id":"4","last_reported":1773409936,"current_range_meters":38800,"station_id":"ce4bhbh2rcd13ifvqepg","pricing_plan_id":"cebpf4jnsgd1na2vs0mg"},{"bike_id":"f516d8f7-b497-4c5a-a65d-b7f43298643e","system_id":"levelo_inurba_marseille","lat":43.27624,"lon":5.36087,"is_reserved":false,"is_disabled":false,"rental_uris":{"android":"levelo://app?vid=f516d8f7-b497-4c5a-a65d-b7f43298643e","ios":"levelo://app?vid=f516d8f7-b497-4c5a-a65d-b7f43298643e"},"vehicle_type_id":"4","last_reported":1773409936,"current_range_meters":37600,"station_id":"ce4bgj92rcd13ifvqbe0","pricing_plan_id":"cebpf4jnsgd1na2vs0mg"},{"bike_id":"a27eba1d-7cf9-44e9-8203-2d9ebd4abfe2","system_id":"levelo_inurba_marseille","lat":43.28989,"lon":5.35584,"is_reserved":false,"is_disabled":false,"rental_uris":{"android":"levelo://app?vid=a27eba1d-7cf9-44e9-8203-2d9ebd4abfe2","ios":"levelo://app?vid=a27eba1d-7cf9-44e9-8203-2d9ebd4abfe2"},"vehicle_type_id":"4","last_reported":1773409936,"current_range_meters":34000,"station_id":"ce4bhb92rcd13ifvqen0","pricing_plan_id":"cebpf4jnsgd1na2vs0mg"},{"bike_id":"71376751-50c0-4786-9b20-61b1a18a75fc","system_id":"levelo_inurba_marseille","lat":43.27219,"lon":5.39212,"is_reserved":false,"is_disabled":false,"rental_uris":{"android":"levelo://app?vid=71376751-50c0-4786-9b20-61b1a18a75fc","ios":"levelo://app?vid=71376751-50c0-4786-9b20-61b1a18a75fc"},"vehicle_type_id":"4","last_reported":1773409936,"current_range_meters":12400,"station_id":"ce4bhhp2rcd13ifvqfm0","pricing_plan_id":"cebpf4jnsgd1na2vs0mg"},{"bike_id":"7c562c0f-e462-4dbb-aac8-440fd40d84a6","system_id":"levelo_inurba_marseille","lat":43.28401,"lon":5.34989,"is_reserved":false,"is_disabled":false,"rental_uris":{"android":"levelo://app?vid=7c562c0f-e462-4dbb-aac8-440fd40d84a6","ios":"levelo://app?vid=7c562c0f-e462-4dbb-aac8-440fd40d84a6"},"vehicle_type_id":"4","last_reported":1773409936,"current_range_meters":21600,"station_id":"ce4bhbh2rcd13ifvqepg","pricing_plan_id":"cebpf4jnsgd1na2vs0mg"},{"bike_id":"04d16ef4-39d1-4e51-b75d-bfa218adb8ad","system_id":"levelo_inurba_marseille","lat":43.3049,"lon":5.36737,"is_reserved":false,"is_disabled":false,"rental_uris":{"android":"levelo://app?vid=04d16ef4-39d1-4e51-b75d-bfa218adb8ad","ios":"levelo://app?vid=04d16ef4-39d1-4e51-b75d-bfa218adb8ad"},"vehicle_type_id":"4","last_reported":1773409936,"current_range_meters":28000,"station_id":"","pricing_plan_id":"cebpf4jnsgd1na2vs0mg"},{"bike_id":"741986d4-2398-4756-bb9e-6c3b19841e56","system_id":"levelo_inurba_marseille","lat":43.27835,"lon":5.3922,"is_reserved":false,"is_disabled":false,"rental_uris":{"android":"levelo://app?vid=741986d4-2398-4756-bb9e-6c3b19841e56","ios":"levelo://app?vid=741986d4-2398-4756-bb9e-6c3b19841e56"},"vehicle_type_id":"4","last_reported":1773409936,"current_range_meters":6800,"station_id":"ce4bhjp2rcd13ifvqga0","pricing_plan_id":"cebpf4jnsgd1na2vs0mg"},{"bike_id":"08ec0bd7-db6c-4004-87ba-401b19a3211e","system_id":"levelo_inurba_marseille","lat":43.26552,"lon":5.39006,"is_reserved":false,"is_disabled":false,"rental_uris":{"android":"levelo://app?vid=08ec0bd7-db6c-4004-87ba-401b19a3211e","ios":"levelo://app?vid=08ec0bd7-db6c-4004-87ba-401b19a3211e"},"vehicle_type_id":"4","last_reported":1773409936,"current_range_meters":17200,"station_id":"ce4bhe12rcd13ifvqf30","pricing_plan_id":"cebpf4jnsgd1na2vs0mg"},{"bike_id":"2b12671b-74ed-4321-8ad2-3c915ff9f41a","system_id":"levelo_inurba_marseille","lat":43.30455,"lon":5.37889,"is_reserved":false,"is_disabled":false,"rental_uris":{"android":"levelo://app?vid=2b12671b-74ed-4321-8ad2-3c915ff9f41a","ios":"levelo://app?vid=2b12671b-74ed-4321-8ad2-3c915ff9f41a"},"vehicle_type_id":"4","last_reported":1773409936,"current_range_meters":23200,"station_id":"ce4bgup2rcd13ifvqcn0","pricing_plan_id":"cebpf4jnsgd1na2vs0mg"},{"bike_id":"5a390fd0-1a67-4363-9778-5fe8c3144f22","system_id":"levelo_inurba_marseille","lat":43.30374,"lon":5.42492,"is_reserved":false,"is_disabled":false,"rental_uris":{"android":"levelo://app?vid=5a390fd0-1a67-4363-9778-5fe8c3144f22","ios":"levelo://app?vid=5a390fd0-1a67-4363-9778-5fe8c3144f22"},"vehicle_type_id":"4","last_reported":1773409936,"current_range_meters":28400,"station_id":"ce4bhoh2rcd13ifvqh6g","pricing_plan_id":"cebpf4jnsgd1na2vs0mg"},{"bike_id":"0bce9846-b2f8-4d6c-abbc-9b440dc9b591","system_id":"levelo_inurba_marseille","lat":43.28978,"lon":5.3562,"is_reserved":false,"is_disabled":false,"rental_uris":{"android":"levelo://app?vid=0bce9846-b2f8-4d6c-abbc-9b440dc9b591","ios":"levelo://app?vid=0bce9846-b2f8-4d6c-abbc-9b440dc9b591"},"vehicle_type_id":"4","last_reported":1773409936,"current_range_meters":40000,"station_id":"ce4bhb92rcd13ifvqen0","pricing_plan_id":"cebpf4jnsgd1na2vs0mg"},{"bike_id":"ef20f139-5308-449a-a8f1-979163f50765","system_id":"levelo_inurba_marseille","lat":43.2315,"lon":5.43719,"is_reserved":false,"is_disabled":false,"rental_uris":{"android":"levelo://app?vid=ef20f139-5308-449a-a8f1-979163f50765","ios":"levelo://app?vid=ef20f139-5308-449a-a8f1-979163f50765"},"vehicle_type_id":"4","last_reported":1773409936,"current_range_meters":11600,"station_id":"ce4bhmp2rcd13ifvqgog","pricing_plan_id":"cebpf4jnsgd1na2vs0mg"},{"bike_id":"2012b6f8-1772-4917-8809-87ccf08757c2","system_id":"levelo_inurba_marseille","lat":43.27438,"lon":5.39398,"is_reserved":false,"is_disabled":false,"rental_uris":{"android":"levelo://app?vid=2012b6f8-1772-4917-8809-87ccf08757c2","ios":"levelo://app?vid=2012b6f8-1772-4917-8809-87ccf08757c2"},"vehicle_type_id":"4","last_reported":1773409936,"current_range_meters":28800,"station_id":"ce4bhdp2rcd13ifvqf20","pricing_plan_id":"cebpf4jnsgd1na2vs0mg"},{"bike_id":"a09a8937-97f1-4b98-af70-eb6c6e25b3a1","system_id":"levelo_inurba_marseille","lat":43.29225,"lon":5.36066,"is_reserved":false,"is_disabled":false,"rental_uris":{"android":"levelo://app?vid=a09a8937-97f1-4b98-af70-eb6c6e25b3a1","ios":"levelo://app?vid=a09a8937-97f1-4b98-af70-eb6c6e25b3a1"},"vehicle_type_id":"4","last_reported":1773409936,"current_range_meters":10000,"station_id":"ce4bhbh2rcd13ifvqeqg","pricing_plan_id":"cebpf4jnsgd1na2vs0mg"},{"bike_id":"26cd541b-8bb9-44ab-a573-fc5d08927001","system_id":"levelo_inurba_marseille","lat":43.3046,"lon":5.37921,"is_reserved":false,"is_disabled":false,"rental_uris":{"android":"levelo://app?vid=26cd541b-8bb9-44ab-a573-fc5d08927001","ios":"levelo://app?vid=26cd541b-8bb9-44ab-a573-fc5d08927001"},"vehicle_type_id":"4","last_reported":1773409936,"current_range_meters":28000,"station_id":"ce4bgup2rcd13ifvqcn0","pricing_plan_id":"cebpf4jnsgd1na2vs0mg"},{"bike_id":"1072a2a8-0c4d-4e1d-a618-9cb5fde068bb","system_id":"levelo_inurba_marseille","lat":43.24397,"lon":5.37073,"is_reserved":false,"is_disabled":true,"rental_uris":{"android":"levelo://app?vid=1072a2a8-0c4d-4e1d-a618-9cb5fde068bb","ios":"levelo://app?vid=1072a2a8-0c4d-4e1d-a618-9cb5fde068bb"},"vehicle_type_id":"4","last_reported":1773409936,"current_range_meters":400,"station_id":"ce4bhhh2rcd13ifvqfk0","pricing_plan_id":"cebpf4jnsgd1na2vs0mg"},{"bike_id":"2f9faa93-3e56-45df-8d6f-fa01bcc5242d","system_id":"levelo_inurba_marseille","lat":43.28263,"lon":5.35082,"is_reserved":false,"is_disabled":false,"rental_uris":{"android":"levelo://app?vid=2f9faa93-3e56-45df-8d6f-fa01bcc5242d","ios":"levelo://app?vid=2f9faa93-3e56-45df-8d6f-fa01bcc5242d"},"vehicle_type_id":"4","last_reported":1773409936,"current_range_meters":16400,"station_id":"ce4bhbp2rcd13ifvqerg","pricing_plan_id":"cebpf4jnsgd1na2vs0mg"},{"bike_id":"37c368cf-eff3-4518-ab3e-c75f5ff1553c","system_id":"levelo_inurba_marseille","lat":43.28606,"lon":5.37034,"is_reserved":false,"is_disabled":false,"rental_uris":{"android":"levelo://app?vid=37c368cf-eff3-4518-ab3e-c75f5ff1553c","ios":"levelo://app?vid=37c368cf-eff3-4518-ab3e-c75f5ff1553c"},"vehicle_type_id":"4","last_reported":1773409936,"current_range_meters":27200,"station_id":"ce4bht12rcd13ifvqi60","pricing_plan_id":"cebpf4jnsgd1na2vs0mg"},{"bike_id":"d8fc3bc2-055e-4373-a327-9f6c6391bd96","system_id":"levelo_inurba_marseille","lat":43.290716,"lon":5.381461,"is_reserved":false,"is_disabled":false,"rental_uris":{"android":"levelo://app?vid=d8fc3bc2-055e-4373-a327-9f6c6391bd96","ios":"levelo://app?vid=d8fc3bc2-055e-4373-a327-9f6c6391bd96"},"vehicle_type_id":"4","last_reported":1773409936,"current_range_meters":33200,"station_id":"","pricing_plan_id":"cebpf4jnsgd1na2vs0mg"},{"bike_id":"44dfed98-27bd-4ce6-929e-1df9238c73b6","system_id":"levelo_inurba_marseille","lat":43.265487,"lon":5.372984,"is_reserved":false,"is_disabled":false,"rental_uris":{"android":"levelo://app?vid=44dfed98-27bd-4ce6-929e-1df9238c73b6","ios":"levelo://app?vid=44dfed98-27bd-4ce6-929e-1df9238c73b6"},"vehicle_type_id":"4","last_reported":1773409936,"current_range_meters":16800,"station_id":"ce4bhg12rcd13ifvqf70","pricing_plan_id":"cebpf4jnsgd1na2vs0mg"},{"bike_id":"6840f6df-3461-42c8-98d7-357f6584e26f","system_id":"levelo_inurba_marseille","lat":43.27374,"lon":5.36256,"is_reserved":false,"is_disabled":false,"rental_uris":{"android":"levelo://app?vid=6840f6df-3461-42c8-98d7-357f6584e26f","ios":"levelo://app?vid=6840f6df-3461-42c8-98d7-357f6584e26f"},"vehicle_type_id":"4","last_reported":1773409936,"current_range_meters":38400,"station_id":"ce4bhbh2rcd13ifvqeo0","pricing_plan_id":"cebpf4jnsgd1na2vs0mg"},{"bike_id":"824fb975-1c56-48f8-a19c-aeedaf1c3bdb","system_id":"levelo_inurba_marseille","lat":43.23128,"lon":5.43696,"is_reserved":false,"is_disabled":false,"rental_uris":{"android":"levelo://app?vid=824fb975-1c56-48f8-a19c-aeedaf1c3bdb","ios":"levelo://app?vid=824fb975-1c56-48f8-a19c-aeedaf1c3bdb"},"vehicle_type_id":"4","last_reported":1773409936,"current_range_meters":19200,"station_id":"ce4bhmp2rcd13ifvqgog","pricing_plan_id":"cebpf4jnsgd1na2vs0mg"},{"bike_id":"af241712-e5ef-48f5-be18-98c58df5aaed","system_id":"levelo_inurba_marseille","lat":43.21196,"lon":5.35065,"is_reserved":false,"is_disabled":false,"rental_uris":{"android":"levelo://app?vid=af241712-e5ef-48f5-be18-98c58df5aaed","ios":"levelo://app?vid=af241712-e5ef-48f5-be18-98c58df5aaed"},"vehicle_type_id":"4","last_reported":1773409936,"current_range_meters":12000,"station_id":"st_cvj6sg6p6f1abm77japg","pricing_plan_id":"cebpf4jnsgd1na2vs0mg"},{"bike_id":"91091709-b20e-474a-8a0e-8321ed268cd1","system_id":"levelo_inurba_marseille","lat":43.28661,"lon":5.36348,"is_reserved":false,"is_disabled":false,"rental_uris":{"android":"levelo://app?vid=91091709-b20e-474a-8a0e-8321ed268cd1","ios":"levelo://app?vid=91091709-b20e-474a-8a0e-8321ed268cd1"},"vehicle_type_id":"4","last_reported":1773409936,"current_range_meters":36400,"station_id":"ce4bhah2rcd13ifvqej0","pricing_plan_id":"cebpf4jnsgd1na2vs0mg"},{"bike_id":"d9fb65fe-fe24-4336-bfc8-6de56befaff1","system_id":"levelo_inurba_marseille","lat":43.28267,"lon":5.35027,"is_reserved":false,"is_disabled":false,"rental_uris":{"android":"levelo://app?vid=d9fb65fe-fe24-4336-bfc8-6de56befaff1","ios":"levelo://app?vid=d9fb65fe-fe24-4336-bfc8-6de56befaff1"},"vehicle_type_id":"4","last_reported":1773409936,"current_range_meters":30000,"station_id":"ce4bhbp2rcd13ifvqerg","pricing_plan_id":"cebpf4jnsgd1na2vs0mg"},{"bike_id":"1a7223d6-0a50-4d7f-a396-9bdf4bd0079e","system_id":"levelo_inurba_marseille","lat":43.30244,"lon":5.4007,"is_reserved":false,"is_disabled":false,"rental_uris":{"android":"levelo://app?vid=1a7223d6-0a50-4d7f-a396-9bdf4bd0079e","ios":"levelo://app?vid=1a7223d6-0a50-4d7f-a396-9bdf4bd0079e"},"vehicle_type_id":"4","last_reported":1773409936,"current_range_meters":31200,"station_id":"ce4bgvh2rcd13ifvqcs0","pricing_plan_id":"cebpf4jnsgd1na2vs0mg"},{"bike_id":"93c8107a-44d9-4b92-a485-08cbd24bb80c","system_id":"levelo_inurba_marseille","lat":43.28617,"lon":5.35101,"is_reserved":false,"is_disabled":false,"rental_uris":{"android":"levelo://app?vid=93c8107a-44d9-4b92-a485-08cbd24bb80c","ios":"levelo://app?vid=93c8107a-44d9-4b92-a485-08cbd24bb80c"},"vehicle_type_id":"4","last_reported":1773409936,"current_range_meters":19200,"station_id":"ce4bhch2rcd13ifvqeug","pricing_plan_id":"cebpf4jnsgd1na2vs0mg"},{"bike_id":"4605d0eb-aef4-494c-b103-fe3cbd9a939f","system_id":"levelo_inurba_marseille","lat":43.26059,"lon":5.39405,"is_reserved":false,"is_disabled":false,"rental_uris":{"android":"levelo://app?vid=4605d0eb-aef4-494c-b103-fe3cbd9a939f","ios":"levelo://app?vid=4605d0eb-aef4-494c-b103-fe3cbd9a939f"},"vehicle_type_id":"4","last_reported":1773409936,"current_range_meters":24400,"station_id":"ce4bhh92rcd13ifvqfj0","pricing_plan_id":"cebpf4jnsgd1na2vs0mg"},{"bike_id":"b26a5b6f-c7d4-4ecb-a965-5f0df6878da3","system_id":"levelo_inurba_marseille","lat":43.30136,"lon":5.37407,"is_reserved":false,"is_disabled":false,"rental_uris":{"android":"levelo://app?vid=b26a5b6f-c7d4-4ecb-a965-5f0df6878da3","ios":"levelo://app?vid=b26a5b6f-c7d4-4ecb-a965-5f0df6878da3"},"vehicle_type_id":"4","last_reported":1773409936,"current_range_meters":16400,"station_id":"ce4bgs92rcd13ifvqcc0","pricing_plan_id":"cebpf4jnsgd1na2vs0mg"},{"bike_id":"c4bc4c4b-1b65-4f1c-9292-7dbc626f973c","system_id":"levelo_inurba_marseille","lat":43.33779,"lon":5.37461,"is_reserved":false,"is_disabled":false,"rental_uris":{"android":"levelo://app?vid=c4bc4c4b-1b65-4f1c-9292-7dbc626f973c","ios":"levelo://app?vid=c4bc4c4b-1b65-4f1c-9292-7dbc626f973c"},"vehicle_type_id":"4","last_reported":1773409936,"current_range_meters":38400,"station_id":"","pricing_plan_id":"cebpf4jnsgd1na2vs0mg"},{"bike_id":"a4e1eda7-e339-4e89-aeab-5ba3de0c460b","system_id":"levelo_inurba_marseille","lat":43.28338,"lon":5.38107,"is_reserved":false,"is_disabled":true,"rental_uris":{"android":"levelo://app?vid=a4e1eda7-e339-4e89-aeab-5ba3de0c460b","ios":"levelo://app?vid=a4e1eda7-e339-4e89-aeab-5ba3de0c460b"},"vehicle_type_id":"4","last_reported":1773409936,"current_range_meters":38000,"station_id":"ce4bh412rcd13ifvqdr0","pricing_plan_id":"cebpf4jnsgd1na2vs0mg"},{"bike_id":"8d34ab14-b5e2-4610-adb0-b50ca2a508ab","system_id":"levelo_inurba_marseille","lat":43.29269,"lon":5.36861,"is_reserved":false,"is_disabled":false,"rental_uris":{"android":"levelo://app?vid=8d34ab14-b5e2-4610-adb0-b50ca2a508ab","ios":"levelo://app?vid=8d34ab14-b5e2-4610-adb0-b50ca2a508ab"},"vehicle_type_id":"4","last_reported":1773409936,"current_range_meters":34800,"station_id":"ce4bhbp2rcd13ifvqesg","pricing_plan_id":"cebpf4jnsgd1na2vs0mg"},{"bike_id":"df3b8325-25b1-4cf7-81d6-79f2cfacae31","system_id":"levelo_inurba_marseille","lat":43.30279,"lon":5.37704,"is_reserved":false,"is_disabled":true,"rental_uris":{"android":"levelo://app?vid=df3b8325-25b1-4cf7-81d6-79f2cfacae31","ios":"levelo://app?vid=df3b8325-25b1-4cf7-81d6-79f2cfacae31"},"vehicle_type_id":"4","last_reported":1773409936,"current_range_meters":34000,"station_id":"ce4bguh2rcd13ifvqcj0","pricing_plan_id":"cebpf4jnsgd1na2vs0mg"},{"bike_id":"48358f2d-f55c-46c5-9640-4bd45a2b2905","system_id":"levelo_inurba_marseille","lat":43.24445,"lon":5.37056,"is_reserved":false,"is_disabled":true,"rental_uris":{"android":"levelo://app?vid=48358f2d-f55c-46c5-9640-4bd45a2b2905","ios":"levelo://app?vid=48358f2d-f55c-46c5-9640-4bd45a2b2905"},"vehicle_type_id":"4","last_reported":1773409936,"current_range_meters":34800,"station_id":"","pricing_plan_id":"cebpf4jnsgd1na2vs0mg"},{"bike_id":"61094b85-ed10-4b6a-8a53-0403299825c4","system_id":"levelo_inurba_marseille","lat":43.2695,"lon":5.40217,"is_reserved":false,"is_disabled":false,"rental_uris":{"android":"levelo://app?vid=61094b85-ed10-4b6a-8a53-0403299825c4","ios":"levelo://app?vid=61094b85-ed10-4b6a-8a53-0403299825c4"},"vehicle_type_id":"4","last_reported":1773409936,"current_range_meters":38800,"station_id":"cjm6bp8fraef2m0cb0m0","pricing_plan_id":"cebpf4jnsgd1na2vs0mg"},{"bike_id":"2550b3c2-c377-4415-989a-60f56e4c37b4","system_id":"levelo_inurba_marseille","lat":43.33607,"lon":5.41038,"is_reserved":false,"is_disabled":false,"rental_uris":{"android":"levelo://app?vid=2550b3c2-c377-4415-989a-60f56e4c37b4","ios":"levelo://app?vid=2550b3c2-c377-4415-989a-60f56e4c37b4"},"vehicle_type_id":"4","last_reported":1773409936,"current_range_meters":26800,"station_id":"ce4bhqh2rcd13ifvqhmg","pricing_plan_id":"cebpf4jnsgd1na2vs0mg"},