{"last_updated":1740748677,"ttl":60,"version":"2.2","data":{"bikes":[{"bike_id":"f7d1843b-b3ba-4e87-b9c5-4cd406518228","system_id":"levelo_inurba_marseille","lat":43.30941,"lon":5.40141,"is_reserved":false,"is_disabled":false,"rental_uris":{"android":"levelo://app?vid=f7d1843b-b3ba-4e87-b9c5-4cd406518228","ios":"levelo://app?vid=f7d1843b-b3ba-4e87-b9c5-4cd406518228"},"vehicle_type_id":"4","last_reported":1740748677,"current_range_meters":3200,"station_id":"ce4bgvp2rcd13ifvqct0","pricing_plan_id":"cebpf4jnsgd1na2vs0mg"},{"bike_id":"19355494-3247-4f2b-8335-71e38b01d2d1","system_id":"levelo_inurba_marseille","lat":43.2695,"lon":5.38638,"is_reserved":false,"is_disabled":false,"rental_uris":{"android":"levelo://app?vid=19355494-3247-4f2b-8335-71e38b01d2d1","ios":"levelo://app?vid=19355494-3247-4f2b-8335-71e38b01d2d1"},"vehicle_type_id":"4","last_reported":1740748677,"current_range_meters":2000,"station_id":"ce4bhh92rcd13ifvqfh0","pricing_plan_id":"cebpf4jnsgd1na2vs0mg"},{"bike_id":"062cf1df-89f8-4721-a6f2-7dad610bb9cd","system_id":"levelo_inurba_marseille","lat":43.27985,"lon":5.41667,"is_reserved":false,"is_disabled":false,"rental_uris":{"android":"levelo://app?vid=062cf1df-89f8-4721-a6f2-7dad610bb9cd","ios":"levelo://app?vid=062cf1df-89f8-4721-a6f2-7dad610bb9cd"},"vehicle_type_id":"4","last_reported":1740748677,"current_range_meters":3200,"station_id":"ce4bho12rcd13ifvqh1g","pricing_plan_id":"cebpf4jnsgd1na2vs0mg"},{"bike_id":"685a0357-c8db-4a02-9a25-a9947b7c7c10","system_id":"levelo_inurba_marseille","lat":43.30589,"lon":5.37227,"is_reserved":false,"is_disabled":false,"rental_uris":{"android":"levelo://app?vid=685a0357-c8db-4a02-9a25-a9947b7c7c10","ios":"levelo://app?vid=685a0357-c8db-4a02-9a25-a9947b7c7c10"},"vehicle_type_id":"4","last_reported":1740748677,"current_range_meters":2800,"station_id":"ce4bgjp2rcd13ifvqbh0","pricing_plan_id":"cebpf4jnsgd1na2vs0mg"},{"bike_id":"f5199d14-d35a-4e6b-8747-13add0e50f88","system_id":"levelo_inurba_marseille","lat":43.27618,"lon":5.36115,"is_reserved":false,"is_disabled":false,"rental_uris":{"android":"levelo://app?vid=f5199d14-d35a-4e6b-8747-13add0e50f88","ios":"levelo://app?vid=f5199d14-d35a-4e6b-8747-13add0e50f88"},"vehicle_type_id":"4","last_reported":1740748677,"current_range_meters":3200,"station_id":"ce4bgj92rcd13ifvqbe0","pricing_plan_id":"cebpf4jnsgd1na2vs0mg"},{"bike_id":"a9cb6497-8b40-428b-996a-3cdb9759355c","system_id":"levelo_inurba_marseille","lat":43.30146,"lon":5.380662,"is_reserved":false,"is_disabled":false,"rental_uris":{"android":"levelo://app?vid=a9cb6497-8b40-428b-996a-3cdb9759355c","ios":"levelo://app?vid=a9cb6497-8b40-428b-996a-3cdb9759355c"},"vehicle_type_id":"4","last_reported":1740748677,"current_range_meters":3600,"station_id":"","pricing_plan_id":"cebpf4jnsgd1na2vs0mg"},{"bike_id":"c5636853-eda6-48c1-b833-64f972b02b9d","system_id":"levelo_inurba_marseille","lat":43.27377,"lon":5.36255,"is_reserved":false,"is_disabled":false,"rental_uris":{"android":"levelo://app?vid=c5636853-eda6-48c1-b833-64f972b02b9d","ios":"levelo://app?vid=c5636853-eda6-48c1-b833-64f972b02b9d"},"vehicle_type_id":"4","last_reported":1740748677,"current_range_meters":3200,"station_id":"ce4bhbh2rcd13ifvqeo0","pricing_plan_id":"cebpf4jnsgd1na2vs0mg"},{"bike_id":"8494ace2-ddba-473c-bdd7-780b5d800baf","system_id":"levelo_inurba_marseille","lat":43.30207,"lon":5.39461,"is_reserved":false,"is_disabled":false,"rental_uris":{"android":"levelo://app?vid=8494ace2-ddba-473c-bdd7-780b5d800baf","ios":"levelo://app?vid=8494ace2-ddba-473c-bdd7-780b5d800baf"},"vehicle_type_id":"4","last_reported":1740748677,"current_range_meters":4800,"station_id":"ce4bh0p2rcd13ifvqd70","pricing_plan_id":"cebpf4jnsgd1na2vs0mg"},{"bike_id":"0affff71-58ac-462e-aac2-b01cc4e536cd","system_id":"levelo_inurba_marseille","lat":43.25119,"lon":5.40312,"is_reserved":false,"is_disabled":false,"rental_uris":{"android":"levelo://app?vid=0affff71-58ac-462e-aac2-b01cc4e536cd","ios":"levelo://app?vid=0affff71-58ac-462e-aac2-b01cc4e536cd"},"vehicle_type_id":"4","last_reported":1740748677,"current_range_meters":3600,"station_id":"ce4bhlh2rcd13ifvqgig","pricing_plan_id":"cebpf4jnsgd1na2vs0mg"},{"bike_id":"abbf9b54-0a0a-4e54-9c57-2b307ae26367","system_id":"levelo_inurba_marseille","lat":43.289713,"lon":5.366399,"is_reserved":false,"is_disabled":false,"rental_uris":{"android":"levelo://app?vid=abbf9b54-0a0a-4e54-9c57-2b307ae26367","ios":"levelo://app?vid=abbf9b54-0a0a-4e54-9c57-2b307ae26367"},"vehicle_type_id":"4","last_reported":1740748677,"current_range_meters":3600,"station_id":"ce4bh9p2rcd13ifvqec0","pricing_plan_id":"cebpf4jnsgd1na2vs0mg"},{"bike_id":"679a895c-61da-4cb8-8cfe-67ebe407705d","system_id":"levelo_inurba_marseille","lat":43.30888,"lon":5.39955,"is_reserved":false,"is_disabled":false,"rental_uris":{"android":"levelo://app?vid=679a895c-61da-4cb8-8cfe-67ebe407705d","ios":"levelo://app?vid=679a895c-61da-4cb8-8cfe-67ebe407705d"},"vehicle_type_id":"4","last_reported":1740748677,"current_range_meters":3600,"station_id":"","pricing_plan_id":"cebpf4jnsgd1na2vs0mg"},{"bike_id":"d51882a1-5295-4771-9c7b-1cad4123fc3d","system_id":"levelo_inurba_marseille","lat":43.29183,"lon":5.39278,"is_reserved":false,"is_disabled":false,"rental_uris":{"android":"levelo://app?vid=d51882a1-5295-4771-9c7b-1cad4123fc3d","ios":"levelo://app?vid=d51882a1-5295-4771-9c7b-1cad4123fc3d"},"vehicle_type_id":"4","last_reported":1740748677,"current_range_meters":4000,"station_id":"ce4bh192rcd13ifvqdd0","pricing_plan_id":"cebpf4jnsgd1na2vs0mg"},{"bike_id":"29e080e0-6f39-4354-9cb7-4902f5ae2b11","system_id":"levelo_inurba_marseille","lat":43.26211,"lon":5.37446,"is_reserved":false,"is_disabled":false,"rental_uris":{"android":"levelo://app?vid=29e080e0-6f39-4354-9cb7-4902f5ae2b11","ios":"levelo://app?vid=29e080e0-6f39-4354-9cb7-4902f5ae2b11"},"vehicle_type_id":"4","last_reported":1740748677,"current_range_meters":4000,"station_id":"ce4bhgp2rcd13ifvqfc0","pricing_plan_id":"cebpf4jnsgd1na2vs0mg"},{"bike_id":"a118ec33-d16a-4516-9b47-2e21cae2f36b","system_id":"levelo_inurba_marseille","lat":43.28423,"lon":5.37519,"is_reserved":false,"is_disabled":false,"rental_uris":{"android":"levelo://app?vid=a118ec33-d16a-4516-9b47-2e21cae2f36b","ios":"levelo://app?vid=a118ec33-d16a-4516-9b47-2e21cae2f36b"},"vehicle_type_id":"4","last_reported":1740748677,"current_range_meters":4000,"station_id":"ce4bh412rcd13ifvqds0","pricing_plan_id":"cebpf4jnsgd1na2vs0mg"},{"bike_id":"17635321-397b-4f8b-9d46-58a5891c7b21","system_id":"levelo_inurba_marseille","lat":43.280895,"lon":5.396615,"is_reserved":false,"is_disabled":false,"rental_uris":{"android":"levelo://app?vid=17635321-397b-4f8b-9d46-58a5891c7b21","ios":"levelo://app?vid=17635321-397b-4f8b-9d46-58a5891c7b21"},"vehicle_type_id":"4","last_reported":1740748677,"current_range_meters":4400,"station_id":"ce4bho12rcd13ifvqh2g","pricing_plan_id":"cebpf4jnsgd1na2vs0mg"},{"bike_id":"86a2a7ce-a5cc-4296-81da-100426de8e86","system_id":"levelo_inurba_marseille","lat":43.27672,"lon":5.389,"is_reserved":false,"is_disabled":false,"rental_uris":{"android":"levelo://app?vid=86a2a7ce-a5cc-4296-81da-100426de8e86","ios":"levelo://app?vid=86a2a7ce-a5cc-4296-81da-100426de8e86"},"vehicle_type_id":"4","last_reported":1740748677,"current_range_meters":4000,"station_id":"ce4bhi12rcd13ifvqfo0","pricing_plan_id":"cebpf4jnsgd1na2vs0mg"},{"bike_id":"b089fc4b-3616-4a37-8714-4429afb035eb","system_id":"levelo_inurba_marseille","lat":43.32048,"lon":5.41582,"is_reserved":false,"is_disabled":false,"rental_uris":{"android":"levelo://app?vid=b089fc4b-3616-4a37-8714-4429afb035eb","ios":"levelo://app?vid=b089fc4b-3616-4a37-8714-4429afb035eb"},"vehicle_type_id":"4","last_reported":1740748677,"current_range_meters":4400,"station_id":"ce4bhq92rcd13ifvqhkg","pricing_plan_id":"cebpf4jnsgd1na2vs0mg"},{"bike_id":"7926011b-4c81-4897-be31-2dc7e47d4b2b","system_id":"levelo_inurba_marseille","lat":43.25578,"lon":5.38231,"is_reserved":false,"is_disabled":false,"rental_uris":{"android":"levelo://app?vid=7926011b-4c81-4897-be31-2dc7e47d4b2b","ios":"levelo://app?vid=7926011b-4c81-4897-be31-2dc7e47d4b2b"},"vehicle_type_id":"4","last_reported":1740748677,"current_range_meters":1200,"station_id":"ce4bhih2rcd13ifvqfs0","pricing_plan_id":"cebpf4jnsgd1na2vs0mg"},{"bike_id":"dee04613-fbaa-4eb6-911c-d41130b55850","system_id":"levelo_inurba_marseille","lat":43.26795,"lon":5.40264,"is_reserved":false,"is_disabled":true,"rental_uris":{"android":"levelo://app?vid=dee04613-fbaa-4eb6-911c-d41130b55850","ios":"levelo://app?vid=dee04613-fbaa-4eb6-911c-d41130b55850"},"vehicle_type_id":"4","last_reported":1740748677,"current_range_meters":5600,"station_id":"","pricing_plan_id":"cebpf4jnsgd1na2vs0mg"},{"bike_id":"399958bf-dba1-4663-ab41-c4939f3723cd","system_id":"levelo_inurba_marseille","lat":43.29289,"lon":5.37453,"is_reserved":false,"is_disabled":false,"rental_uris":{"android":"levelo://app?vid=399958bf-dba1-4663-ab41-c4939f3723cd","ios":"levelo://app?vid=399958bf-dba1-4663-ab41-c4939f3723cd"},"vehicle_type_id":"4","last_reported":1740748677,"current_range_meters":4400,"station_id":"ce4bgi12rcd13ifvqb70","pricing_plan_id":"cebpf4jnsgd1na2vs0mg"},{"bike_id":"13f500d0-2a57-4c84-b168-0f2b20a1d438","system_id":"levelo_inurba_marseille","lat":43.3054,"lon":5.36568,"is_reserved":false,"is_disabled":false,"rental_uris":{"android":"levelo://app?vid=13f500d0-2a57-4c84-b168-0f2b20a1d438","ios":"levelo://app?vid=13f500d0-2a57-4c84-b168-0f2b20a1d438"},"vehicle_type_id":"4","last_reported":1740748677,"current_range_meters":4800,"station_id":"ce4bgs12rcd13ifvqcag","pricing_plan_id":"cebpf4jnsgd1na2vs0mg"},{"bike_id":"80c7b970-6455-470a-89d9-c60746c3905f","system_id":"levelo_inurba_marseille","lat":43.25586,"lon":5.382168,"is_reserved":false,"is_disabled":false,"rental_uris":{"android":"levelo://app?vid=80c7b970-6455-470a-89d9-c60746c3905f","ios":"levelo://app?vid=80c7b970-6455-470a-89d9-c60746c3905f"},"vehicle_type_id":"4","last_reported":1740748677,"current_range_meters":5600,"station_id":"ce4bhih2rcd13ifvqfs0","pricing_plan_id":"cebpf4jnsgd1na2vs0mg"},{"bike_id":"615b5806-adc8-4255-a3c5-c44e80531c9a","system_id":"levelo_inurba_marseille","lat":43.29599,"lon":5.381,"is_reserved":false,"is_disabled":false,"rental_uris":{"android":"levelo://app?vid=615b5806-adc8-4255-a3c5-c44e80531c9a","ios":"levelo://app?vid=615b5806-adc8-4255-a3c5-c44e80531c9a"},"vehicle_type_id":"4","last_reported":1740748677,"current_range_meters":5600,"station_id":"ce4bgl12rcd13ifvqbo0","pricing_plan_id":"cebpf4jnsgd1na2vs0mg"},{"bike_id":"8a376742-1b98-4235-a76e-610dc1cf80af","system_id":"levelo_inurba_marseille","lat":43.25924,"lon":5.4089,"is_reserved":false,"is_disabled":false,"rental_uris":{"android":"levelo://app?vid=8a376742-1b98-4235-a76e-610dc1cf80af","ios":"levelo://app?vid=8a376742-1b98-4235-a76e-610dc1cf80af"},"vehicle_type_id":"4","last_reported":1740748677,"current_range_meters":4800,"station_id":"ce4bhm92rcd13ifvqglg","pricing_plan_id":"cebpf4jnsgd1na2vs0mg"},{"bike_id":"cb151145-1667-44f5-888c-ed10a82848b4","system_id":"levelo_inurba_marseille","lat":43.26571,"lon":5.38993,"is_reserved":false,"is_disabled":false,"rental_uris":{"android":"levelo://app?vid=cb151145-1667-44f5-888c-ed10a82848b4","ios":"levelo://app?vid=cb151145-1667-44f5-888c-ed10a82848b4"},"vehicle_type_id":"4","last_reported":1740748677,"current_range_meters":5600,"station_id":"ce4bhe12rcd13ifvqf30","pricing_plan_id":"cebpf4jnsgd1na2vs0mg"},{"bike_id":"fb2fe849-b486-43bf-97b4-93a1a4ef3cde","system_id":"levelo_inurba_marseille","lat":43.29273,"lon":5.36842,"is_reserved":false,"is_disabled":false,"rental_uris":{"android":"levelo://app?vid=fb2fe849-b486-43bf-97b4-93a1a4ef3cde","ios":"levelo://app?vid=fb2fe849-b486-43bf-97b4-93a1a4ef3cde"},"vehicle_type_id":"4","last_reported":1740748677,"current_range_meters":5600,"station_id":"ce4bhbp2rcd13ifvqesg","pricing_plan_id":"cebpf4jnsgd1na2vs0mg"},{"bike_id":"789337b8-0f05-440f-b866-6442627770c5","system_id":"levelo_inurba_marseille","lat":43.2985,"lon":5.36273,"is_reserved":false,"is_disabled":false,"rental_uris":{"android":"levelo://app?vid=789337b8-0f05-440f-b866-6442627770c5","ios":"levelo://app?vid=789337b8-0f05-440f-b866-6442627770c5"},"vehicle_type_id":"4","last_reported":1740748677,"current_range_meters":6000,"station_id":"ce4bgpp2rcd13ifvqc3g","pricing_plan_id":"cebpf4jnsgd1na2vs0mg"},{"bike_id":"16945dea-390d-48f1-b14a-0f9334284811","system_id":"levelo_inurba_marseille","lat":43.26797,"lon":5.39411,"is_reserved":false,"is_disabled":false,"rental_uris":{"android":"levelo://app?vid=16945dea-390d-48f1-b14a-0f9334284811","ios":"levelo://app?vid=16945dea-390d-48f1-b14a-0f9334284811"},"vehicle_type_id":"4","last_reported":1740748677,"current_range_meters":5600,"station_id":"ce4bhh12rcd13ifvqfg0","pricing_plan_id":"cebpf4jnsgd1na2vs0mg"},{"bike_id":"14b2f183-f9a7-44ac-88ad-fba34ab39750","system_id":"levelo_inurba_marseille","lat":43.29878,"lon":5.3973,"is_reserved":false,"is_disabled":false,"rental_uris":{"android":"levelo://app?vid=14b2f183-f9a7-44ac-88ad-fba34ab39750","ios":"levelo://app?vid=14b2f183-f9a7-44ac-88ad-fba34ab39750"},"vehicle_type_id":"4","last_reported":1740748677,"current_range_meters":4400,"station_id":"ce4bh0h2rcd13ifvqd50","pricing_plan_id":"cebpf4jnsgd1na2vs0mg"},{"bike_id":"b8b5a57c-8dde-4019-bb6a-ae49adc55d76","system_id":"levelo_inurba_marseille","lat":43.26945,"lon":5.38625,"is_reserved":false,"is_disabled":false,"rental_uris":{"android":"levelo://app?vid=b8b5a57c-8dde-4019-bb6a-ae49adc55d76","ios":"levelo://app?vid=b8b5a57c-8dde-4019-bb6a-ae49adc55d76"},"vehicle_type_id":"4","last_reported":1740748677,"current_range_meters":6400,"station_id":"ce4bhh92rcd13ifvqfh0","pricing_plan_id":"cebpf4jnsgd1na2vs0mg"},{"bike_id":"3ad98fdd-46da-44a0-8de2-2239a521d257","system_id":"levelo_inurba_marseille","lat":43.29628,"lon":5.40602,"is_reserved":false,"is_disabled":false,"rental_uris":{"android":"levelo://app?vid=3ad98fdd-46da-44a0-8de2-2239a521d257","ios":"levelo://app?vid=3ad98fdd-46da-44a0-8de2-2239a521d257"},"vehicle_type_id":"4","last_reported":1740748677,"current_range_meters":4800,"station_id":"ce4bh0h2rcd13ifvqd60","pricing_plan_id":"cebpf4jnsgd1na2vs0mg"},{"bike_id":"b3073896-8043-4e66-9c28-eb02d204bd45","system_id":"levelo_inurba_marseille","lat":43.29996,"lon":5.37166,"is_reserved":false,"is_disabled":false,"rental_uris":{"android":"levelo://app?vid=b3073896-8043-4e66-9c28-eb02d204bd45","ios":"levelo://app?vid=b3073896-8043-4e66-9c28-eb02d204bd45"},"vehicle_type_id":"4","last_reported":1740748677,"current_range_meters":6400,"station_id":"ce4bgr92rcd13ifvqc7g","pricing_plan_id":"cebpf4jnsgd1na2vs0mg"},{"bike_id":"f2dc9efe-e543-4769-b657-59f20983c90e","system_id":"levelo_inurba_marseille","lat":43.276859,"lon":5.389127,"is_reserved":false,"is_disabled":false,"rental_uris":{"android":"levelo://app?vid=f2dc9efe-e543-4769-b657-59f20983c90e","ios":"levelo://app?vid=f2dc9efe-e543-4769-b657-59f20983c90e"},"vehicle_type_id":"4","last_reported":1740748677,"current_range_meters":6400,"station_id":"ce4bhi12rcd13ifvqfo0","pricing_plan_id":"cebpf4jnsgd1na2vs0mg"},{"bike_id":"b1fd7ee9-30e5-4fab-aa78-d50ff4137b52","system_id":"levelo_inurba_marseille","lat":43.25587,"lon":5.38231,"is_reserved":false,"is_disabled":false,"rental_uris":{"android":"levelo://app?vid=b1fd7ee9-30e5-4fab-aa78-d50ff4137b52","ios":"levelo://app?vid=b1fd7ee9-30e5-4fab-aa78-d50ff4137b52"},"vehicle_type_id":"4","last_reported":1740748677,"current_range_meters":6400,"station_id":"ce4bhih2rcd13ifvqfs0","pricing_plan_id":"cebpf4jnsgd1na2vs0mg"},{"bike_id":"c0169b3a-a525-4147-abc7-59733a3a77d9","system_id":"levelo_inurba_marseille","lat":43.30157,"lon":5.38084,"is_reserved":false,"is_disabled":false,"rental_uris":{"android":"levelo://app?vid=c0169b3a-a525-4147-abc7-59733a3a77d9","ios":"levelo://app?vid=c0169b3a-a525-4147-abc7-59733a3a77d9"},"vehicle_type_id":"4","last_reported":1740748677,"current_range_meters":3600,"station_id":"ce4bgjp2rcd13ifvqbh0","pricing_plan_id":"cebpf4jnsgd1na2vs0mg"},{"bike_id":"a402dcb0-63b6-4569-b9e8-ad825500c3f8","system_id":"levelo_inurba_marseille","lat":43.28996,"lon":5.35909,"is_reserved":false,"is_disabled":false,"rental_uris":{"android":"levelo://app?vid=a402dcb0-63b6-4569-b9e8-ad825500c3f8","ios":"levelo://app?vid=a402dcb0-63b6-4569-b9e8-ad825500c3f8"},"vehicle_type_id":"4","last_reported":1740748677,"current_range_meters":6800,"station_id":"","pricing_plan_id":"cebpf4jnsgd1na2vs0mg"},{"bike_id":"8ef90c46-b687-4d5f-9bc1-82729d818502","system_id":"levelo_inurba_marseille","lat":43.25821,"lon":5.39422,"is_reserved":false,"is_disabled":false,"rental_uris":{"android":"levelo://app?vid=8ef90c46-b687-4d5f-9bc1-82729d818502","ios":"levelo://app?vid=8ef90c46-b687-4d5f-9bc1-82729d818502"},"vehicle_type_id":"4","last_reported":1740748677,"current_range_meters":6800,"station_id":"ce4bhip2rcd13ifvqft0","pricing_plan_id":"cebpf4jnsgd1na2vs0mg"},{"bike_id":"18e48685-4d00-454f-ba0b-e57f16ff3db0","system_id":"levelo_inurba_marseille","lat":43.31278,"lon":5.40172,"is_reserved":false,"is_disabled":false,"rental_uris":{"android":"levelo://app?vid=18e48685-4d00-454f-ba0b-e57f16ff3db0","ios":"levelo://app?vid=18e48685-4d00-454f-ba0b-e57f16ff3db0"},"vehicle_type_id":"4","last_reported":1740748677,"current_range_meters":8400,"station_id":"ce4bh092rcd13ifvqd30","pricing_plan_id":"cebpf4jnsgd1na2vs0mg"},{"bike_id":"5e0e22b0-e973-48d0-8bed-a771273f721a","system_id":"levelo_inurba_marseille","lat":43.27377,"lon":5.36254,"is_reserved":false,"is_disabled":false,"rental_uris":{"android":"levelo://app?vid=5e0e22b0-e973-48d0-8bed-a771273f721a","ios":"levelo://app?vid=5e0e22b0-e973-48d0-8bed-a771273f721a"},"vehicle_type_id":"4","last_reported":1740748677,"current_range_meters":7200,"station_id":"ce4bhbh2rcd13ifvqeo0","pricing_plan_id":"cebpf4jnsgd1na2vs0mg"},{"bike_id":"d76770fe-1fd9-4cca-ab92-d7b1f32b3dd4","system_id":"levelo_inurba_marseille","lat":43.23184,"lon":5.39995,"is_reserved":false,"is_disabled":false,"rental_uris":{"android":"levelo://app?vid=d76770fe-1fd9-4cca-ab92-d7b1f32b3dd4","ios":"levelo://app?vid=d76770fe-1fd9-4cca-ab92-d7b1f32b3dd4"},"vehicle_type_id":"4","last_reported":1740748677,"current_range_meters":12800,"station_id":"ce4bhn12rcd13ifvqgqg","pricing_plan_id":"cebpf4jnsgd1na2vs0mg"},{"bike_id":"87b97a31-0b23-4a28-b8e7-550e84c654e9","system_id":"levelo_inurba_marseille","lat":43.24815,"lon":5.37461,"is_reserved":false,"is_disabled":false,"rental_uris":{"android":"levelo://app?vid=87b97a31-0b23-4a28-b8e7-550e84c654e9","ios":"levelo://app?vid=87b97a31-0b23-4a28-b8e7-550e84c654e9"},"vehicle_type_id":"4","last_reported":1740748677,"current_range_meters":7200,"station_id":"ce4bhgh2rcd13ifvqfb0","pricing_plan_id":"cebpf4jnsgd1na2vs0mg"},{"bike_id":"98fb097c-4653-48ac-bc97-01aec87d810f","system_id":"levelo_inurba_marseille","lat":43.290035,"lon":5.356205,"is_reserved":false,"is_disabled":false,"rental_uris":{"android":"levelo://app?vid=98fb097c-4653-48ac-bc97-01aec87d810f","ios":"levelo://app?vid=98fb097c-4653-48ac-bc97-01aec87d810f"},"vehicle_type_id":"4","last_reported":1740748677,"current_range_meters":7200,"station_id":"ce4bhb92rcd13ifvqen0","pricing_plan_id":"cebpf4jnsgd1na2vs0mg"},{"bike_id":"a857a849-1414-4d4d-9dae-cc5261b581b9","system_id":"levelo_inurba_marseille","lat":43.23202,"lon":5.35557,"is_reserved":false,"is_disabled":false,"rental_uris":{"android":"levelo://app?vid=a857a849-1414-4d4d-9dae-cc5261b581b9","ios":"levelo://app?vid=a857a849-1414-4d4d-9dae-cc5261b581b9"},"vehicle_type_id":"4","last_reported":1740748677,"current_range_meters":7200,"station_id":"ce4bhu92rcd13ifvqi70","pricing_plan_id":"cebpf4jnsgd1na2vs0mg"},{"bike_id":"2d713e86-84c1-414d-8586-0104afd3a051","system_id":"levelo_inurba_marseille","lat":43.26783,"lon":5.4026,"is_reserved":false,"is_disabled":true,"rental_uris":{"android":"levelo://app?vid=2d713e86-84c1-414d-8586-0104afd3a051","ios":"levelo://app?vid=2d713e86-84c1-414d-8586-0104afd3a051"},"vehicle_type_id":"4","last_reported":1740748677,"current_range_meters":7200,"station_id":"","pricing_plan_id":"cebpf4jnsgd1na2vs0mg"},{"bike_id":"346220dd-9c7d-4d77-be12-828e664c8a40","system_id":"levelo_inurba_marseille","lat":43.29858,"lon":5.36283,"is_reserved":false,"is_disabled":false,"rental_uris":{"android":"levelo://app?vid=346220dd-9c7d-4d77-be12-828e664c8a40","ios":"levelo://app?vid=346220dd-9c7d-4d77-be12-828e664c8a40"},"vehicle_type_id":"4","last_reported":1740748677,"current_range_meters":8000,"station_id":"ce4bgpp2rcd13ifvqc3g","pricing_plan_id":"cebpf4jnsgd1na2vs0mg"},{"bike_id":"1b3a3aaa-36f5-45ac-a0d6-c109ada0a5ce","system_id":"levelo_inurba_marseille","lat":43.28428,"lon":5.34986,"is_reserved":false,"is_disabled":false,"rental_uris":{"android":"levelo://app?vid=1b3a3aaa-36f5-45ac-a0d6-c109ada0a5ce","ios":"levelo://app?vid=1b3a3aaa-36f5-45ac-a0d6-c109ada0a5ce"},"vehicle_type_id":"4","last_reported":1740748677,"current_range_meters":8000,"station_id":"ce4bhbh2rcd13ifvqepg","pricing_plan_id":"cebpf4jnsgd1na2vs0mg"},{"bike_id":"ec0c3b7d-e59a-44ca-a91a-f860d2fd7a88","system_id":"levelo_inurba_marseille","lat":43.30824,"lon":5.37405,"is_reserved":false,"is_disabled":false,"rental_uris":{"android":"levelo://app?vid=ec0c3b7d-e59a-44ca-a91a-f860d2fd7a88","ios":"levelo://app?vid=ec0c3b7d-e59a-44ca-a91a-f860d2fd7a88"},"vehicle_type_id":"4","last_reported":1740748677,"current_range_meters":8400,"station_id":"","pricing_plan_id":"cebpf4jnsgd1na2vs0mg"},{"bike_id":"89f85577-0bf1-4bc1-ab86-ec0a1d78adc9","system_id":"levelo_inurba_marseille","lat":43.33716,"lon":5.39188,"is_reserved":false,"is_disabled":false,"rental_uris":{"android":"levelo://app?vid=89f85577-0bf1-4bc1-ab86-ec0a1d78adc9","ios":"levelo://app?vid=89f85577-0bf1-4bc1-ab86-ec0a1d78adc9"},"vehicle_type_id":"4","last_reported":1740748677,"current_range_meters":8000,"station_id":"ce4bhr92rcd13ifvqhsg","pricing_plan_id":"cebpf4jnsgd1na2vs0mg"},{"bike_id":"16d6a25c-f214-4967-a24a-2fa204fc54a9","system_id":"levelo_inurba_marseille","lat":43.29793,"lon":5.38095,"is_reserved":false,"is_disabled":false,"rental_uris":{"android":"levelo://app?vid=16d6a25c-f214-4967-a24a-2fa204fc54a9","ios":"levelo://app?vid=16d6a25c-f214-4967-a24a-2fa204fc54a9"},"vehicle_type_id":"4","last_reported":1740748677,"current_range_meters":8000,"station_id":"ce4bgip2rcd13ifvqbb0","pricing_plan_id":"cebpf4jnsgd1na2vs0mg"},{"bike_id":"44386c04-7730-47e7-a805-2ee2ea3e8cf8","system_id":"levelo_inurba_marseille","lat":43.28723,"lon":5.37937,"is_reserved":false,"is_disabled":false,"rental_uris":{"android":"levelo://app?vid=44386c04-7730-47e7-a805-2ee2ea3e8cf8","ios":"levelo://app?vid=44386c04-7730-47e7-a805-2ee2ea3e8cf8"},"vehicle_type_id":"4","last_reported":1740748677,"current_range_meters":8000,"station_id":"ce4bh9p2rcd13ifvqec0","pricing_plan_id":"cebpf4jnsgd1na2vs0mg"},{"bike_id":"6208017f-24c9-4f36-a465-a818621e4412","system_id":"levelo_inurba_marseille","lat":43.2621,"lon":5.37922,"is_reserved":false,"is_disabled":false,"rental_uris":{"android":"levelo://app?vid=6208017f-24c9-4f36-a465-a818621e4412","ios":"levelo://app?vid=6208017f-24c9-4f36-a465-a818621e4412"},"vehicle_type_id":"4","last_reported":1740748677,"current_range_meters":8000,"station_id":"ce4bhjp2rcd13ifvqg90","pricing_plan_id":"cebpf4jnsgd1na2vs0mg"},{"bike_id":"15bd37fc-b60c-4592-9cad-82192ba8fde3","system_id":"levelo_inurba_marseille","lat":43.30187,"lon":5.36629,"is_reserved":false,"is_disabled":false,"rental_uris":{"android":"levelo://app?vid=15bd37fc-b60c-4592-9cad-82192ba8fde3","ios":"levelo://app?vid=15bd37fc-b60c-4592-9cad-82192ba8fde3"},"vehicle_type_id":"4","last_reported":1740748677,"current_range_meters":8400,"station_id":"ce4bgrh2rcd13ifvqc8g","pricing_plan_id":"cebpf4jnsgd1na2vs0mg"},{"bike_id":"fb0f7335-6395-4b2a-97e2-ef12bbed7bf6","system_id":"levelo_inurba_marseille","lat":43.26693,"lon":5.38276,"is_reserved":false,"is_disabled":false,"rental_uris":{"android":"levelo://app?vid=fb0f7335-6395-4b2a-97e2-ef12bbed7bf6","ios":"levelo://app?vid=fb0f7335-6395-4b2a-97e2-ef12bbed7bf6"},"vehicle_type_id":"4","last_reported":1740748677,"current_range_meters":8400,"station_id":"ce4bhg92rcd13ifvqf90","pricing_plan_id":"cebpf4jnsgd1na2vs0mg"},{"bike_id":"aee61c5d-f3c3-49eb-bbc9-9394e54541d0","system_id":"levelo_inurba_marseille","lat":43.24804,"lon":5.37453,"is_reserved":false,"is_disabled":false,"rental_uris":{"android":"levelo://app?vid=aee61c5d-f3c3-49eb-bbc9-9394e54541d0","ios":"levelo://app?vid=aee61c5d-f3c3-49eb-bbc9-9394e54541d0"},"vehicle_type_id":"4","last_reported":1740748677,"current_range_meters":8400,"station_id":"ce4bhgh2rcd13ifvqfb0","pricing_plan_id":"cebpf4jnsgd1na2vs0mg"},{"bike_id":"58734ddf-a6a1-4aa4-933a-9e18fdd8a769","system_id":"levelo_inurba_marseille","lat":43.30535,"lon":5.36526,"is_reserved":false,"is_disabled":false,"rental_uris":{"android":"levelo://app?vid=58734ddf-a6a1-4aa4-933a-9e18fdd8a769","ios":"levelo://app?vid=58734ddf-a6a1-4aa4-933a-9e18fdd8a769"},"vehicle_type_id":"4","last_reported":1740748677,"current_range_meters":8400,"station_id":"ce4bgs12rcd13ifvqcag","pricing_plan_id":"cebpf4jnsgd1na2vs0mg"},{"bike_id":"65088479-67a3-40cf-a81e-01c7566ba65e","system_id":"levelo_inurba_marseille","lat":43.27549,"lon":5.38442,"is_reserved":false,"is_disabled":false,"rental_uris":{"android":"levelo://app?vid=65088479-67a3-40cf-a81e-01c7566ba65e","ios":"levelo://app?vid=65088479-67a3-40cf-a81e-01c7566ba65e"},"vehicle_type_id":"4","last_reported":1740748677,"current_range_meters":8400,"station_id":"ce4bhh92rcd13ifvqfi0","pricing_plan_id":"cebpf4jnsgd1na2vs0mg"},{"bike_id":"1ab7b098-f66b-40af-b0cc-bd927e3e0ad1","system_id":"levelo_inurba_marseille","lat":43.23194,"lon":5.35538,"is_reserved":false,"is_disabled":false,"rental_uris":{"android":"levelo://app?vid=1ab7b098-f66b-40af-b0cc-bd927e3e0ad1","ios":"levelo://app?vid=1ab7b098-f66b-40af-b0cc-bd927e3e0ad1"},"vehicle_type_id":"4","last_reported":1740748677,"current_range_meters":8400,"station_id":"ce4bhu92rcd13ifvqi70","pricing_plan_id":"cebpf4jnsgd1na2vs0mg"},{"bike_id":"91162707-5565-46fe-a278-24d9a621dea6","system_id":"levelo_inurba_marseille","lat":43.30905,"lon":5.36857,"is_reserved":false,"is_disabled":false,"rental_uris":{"android":"levelo://app?vid=91162707-5565-46fe-a278-24d9a621dea6","ios":"levelo://app?vid=91162707-5565-46fe-a278-24d9a621dea6"},"vehicle_type_id":"4","last_reported":1740748677,"current_range_meters":8400,"station_id":"ce4bgn92rcd13ifvqbvg","pricing_plan_id":"cebpf4jnsgd1na2vs0mg"},{"bike_id":"0b87d054-c623-4c6e-98fa-4edce9813bf3","system_id":"levelo_inurba_marseille","lat":43.25886,"lon":5.40867,"is_reserved":false,"is_disabled":false,"rental_uris":{"android":"levelo://app?vid=0b87d054-c623-4c6e-98fa-4edce9813bf3","ios":"levelo://app?vid=0b87d054-c623-4c6e-98fa-4edce9813bf3"},"vehicle_type_id":"4","last_reported":1740748677,"current_range_meters":8400,"station_id":"","pricing_plan_id":"cebpf4jnsgd1na2vs0mg"},{"bike_id":"b8bd50c8-af3a-4daf-86af-9931bafca09a","system_id":"levelo_inurba_marseille","lat":43.30807,"lon":5.43528,"is_reserved":false,"is_disabled":false,"rental_uris":{"android":"levelo://app?vid=b8bd50c8-af3a-4daf-86af-9931bafca09a","ios":"levelo://app?vid=b8bd50c8-af3a-4daf-86af-9931bafca09a"},"vehicle_type_id":"4","last_reported":1740748677,"current_range_meters":8000,"station_id":"ce4bhph2rcd13ifvqheg","pricing_plan_id":"cebpf4jnsgd1na2vs0mg"},{"bike_id":"2fb9e660-6f85-4edb-bad4-3b87d32a93f5","system_id":"levelo_inurba_marseille","lat":43.29537,"lon":5.37497,"is_reserved":false,"is_disabled":true,"rental_uris":{"android":"levelo://app?vid=2fb9e660-6f85-4edb-bad4-3b87d32a93f5","ios":"levelo://app?vid=2fb9e660-6f85-4edb-bad4-3b87d32a93f5"},"vehicle_type_id":"4","last_reported":1740748677,"current_range_meters":8400,"station_id":"ce4bgkp2rcd13ifvqbmg","pricing_plan_id":"cebpf4jnsgd1na2vs0mg"},{"bike_id":"2bf200ae-7ef1-4cf7-a904-b065742ec6c9","system_id":"levelo_inurba_marseille","lat":43.30953,"lon":5.39034,"is_reserved":false,"is_disabled":false,"rental_uris":{"android":"levelo://app?vid=2bf200ae-7ef1-4cf7-a904-b065742ec6c9","ios":"levelo://app?vid=2bf200ae-7ef1-4cf7-a904-b065742ec6c9"},"vehicle_type_id":"4","last_reported":1740748677,"current_range_meters":8400,"station_id":"ce4bgup2rcd13ifvqco0","pricing_plan_id":"cebpf4jnsgd1na2vs0mg"},{"bike_id":"d4ffb101-314e-4834-9fe6-d05f389a1ee7","system_id":"levelo_inurba_marseille","lat":43.27995,"lon":5.4002,"is_reserved":false,"is_disabled":false,"rental_uris":{"android":"levelo://app?vid=d4ffb101-314e-4834-9fe6-d05f389a1ee7","ios":"levelo://app?vid=d4ffb101-314e-4834-9fe6-d05f389a1ee7"},"vehicle_type_id":"4","last_reported":1740748677,"current_range_meters":8800,"station_id":"ce4bho92rcd13ifvqh4g","pricing_plan_id":"cebpf4jnsgd1na2vs0mg"},{"bike_id":"026e178e-412a-49e0-9772-e5f6d0abaab4","system_id":"levelo_inurba_marseille","lat":43.30853,"lon":5.37091,"is_reserved":false,"is_disabled":false,"rental_uris":{"android":"levelo://app?vid=026e178e-412a-49e0-9772-e5f6d0abaab4","ios":"levelo://app?vid=026e178e-412a-49e0-9772-e5f6d0abaab4"},"vehicle_type_id":"4","last_reported":1740748677,"current_range_meters":8800,"station_id":"","pricing_plan_id":"cebpf4jnsgd1na2vs0mg"},{"bike_id":"dfd040e3-2a1f-4880-997d-77d67a15a769","system_id":"levelo_inurba_marseille","lat":43.29752,"lon":5.3805,"is_reserved":false,"is_disabled":false,"rental_uris":{"android":"levelo://app?vid=dfd040e3-2a1f-4880-997d-77d67a15a769","ios":"levelo://app?vid=dfd040e3-2a1f-4880-997d-77d67a15a769"},"vehicle_type_id":"4","last_reported":1740748677,"current_range_meters":8400,"station_id":"ce4bgip2rcd13ifvqbb0","pricing_plan_id":"cebpf4jnsgd1na2vs0mg"},{"bike_id":"7b021c8d-c79c-47e1-b266-2aa119e9556a","system_id":"levelo_inurba_marseille","lat":43.28922,"lon":5.38405,"is_reserved":false,"is_disabled":false,"rental_uris":{"android":"levelo://app?vid=7b021c8d-c79c-47e1-b266-2aa119e9556a","ios":"levelo://app?vid=7b021c8d-c79c-47e1-b266-2aa119e9556a"},"vehicle_type_id":"4","last_reported":1740748677,"current_range_meters":8800,"station_id":"ce4bh612rcd13ifvqe6g","pricing_plan_id":"cebpf4jnsgd1na2vs0mg"},{"bike_id":"5dd9a6ed-f216-47ad-98d7-7cec519f3ecc","system_id":"levelo_inurba_marseille","lat":43.27984,"lon":5.38739,"is_reserved":false,"is_disabled":false,"rental_uris":{"android":"levelo://app?vid=5dd9a6ed-f216-47ad-98d7-7cec519f3ecc","ios":"levelo://app?vid=5dd9a6ed-f216-47ad-98d7-7cec519f3ecc"},"vehicle_type_id":"4","last_reported":1740748677,"current_range_meters":8800,"station_id":"ce4bhg12rcd13ifvqf80","pricing_plan_id":"cebpf4jnsgd1na2vs0mg"},{"bike_id":"3eb112c1-79af-4647-acc6-9665d97fd175","system_id":"levelo_inurba_marseille","lat":43.30471,"lon":5.37907,"is_reserved":false,"is_disabled":false,"rental_uris":{"android":"levelo://app?vid=3eb112c1-79af-4647-acc6-9665d97fd175","ios":"levelo://app?vid=3eb112c1-79af-4647-acc6-9665d97fd175"},"vehicle_type_id":"4","last_reported":1740748677,"current_range_meters":9200,"station_id":"ce4bgup2rcd13ifvqcn0","pricing_plan_id":"cebpf4jnsgd1na2vs0mg"},{"bike_id":"b73bc810-b600-46ea-8898-7b9456349cb9","system_id":"levelo_inurba_marseille","lat":43.29551,"lon":5.37498,"is_reserved":false,"is_disabled":false,"rental_uris":{"android":"levelo://app?vid=b73bc810-b600-46ea-8898-7b9456349cb9","ios":"levelo://app?vid=b73bc810-b600-46ea-8898-7b9456349cb9"},"vehicle_type_id":"4","last_reported":1740748677,"current_range_meters":8800,"station_id":"ce4bgh92rcd13ifvqb50","pricing_plan_id":"cebpf4jnsgd1na2vs0mg"},{"bike_id":"f098c277-3792-412d-a343-e775edd52771","system_id":"levelo_inurba_marseille","lat":43.27321,"lon":5.39075,"is_reserved":false,"is_disabled":true,"rental_uris":{"android":"levelo://app?vid=f098c277-3792-412d-a343-e775edd52771","ios":"levelo://app?vid=f098c277-3792-412d-a343-e775edd52771"},"vehicle_type_id":"4","last_reported":1740748677,"current_range_meters":8800,"station_id":"ce4bhgp2rcd13ifvqfe0","pricing_plan_id":"cebpf4jnsgd1na2vs0mg"},{"bike_id":"26ea3936-ca1a-4833-89ff-6ab4e1a1c8e3","system_id":"levelo_inurba_marseille","lat":43.23969,"lon":5.36626,"is_reserved":false,"is_disabled":false,"rental_uris":{"android":"levelo://app?vid=26ea3936-ca1a-4833-89ff-6ab4e1a1c8e3","ios":"levelo://app?vid=26ea3936-ca1a-4833-89ff-6ab4e1a1c8e3"},"vehicle_type_id":"4","last_reported":1740748677,"current_range_meters":9200,"station_id":"ce4bhi12rcd13ifvqfp0","pricing_plan_id":"cebpf4jnsgd1na2vs0mg"},{"bike_id":"9eb94f9b-7add-470b-9c8a-420b053cc851","system_id":"levelo_inurba_marseille","lat":43.2396,"lon":5.36627,"is_reserved":false,"is_disabled":false,"rental_uris":{"android":"levelo://app?vid=9eb94f9b-7add-470b-9c8a-420b053cc851","ios":"levelo://app?vid=9eb94f9b-7add-470b-9c8a-420b053cc851"},"vehicle_type_id":"4","last_reported":1740748677,"current_range_meters":8800,"station_id":"ce4bhi12rcd13ifvqfp0","pricing_plan_id":"cebpf4jnsgd1na2vs0mg"},{"bike_id":"a9f1f1e3-d3f5-491e-b067-729e0dc90246","system_id":"levelo_inurba_marseille","lat":43.30158,"lon":5.38096,"is_reserved":false,"is_disabled":false,"rental_uris":{"android":"levelo://app?vid=a9f1f1e3-d3f5-491e-b067-729e0dc90246","ios":"levelo://app?vid=a9f1f1e3-d3f5-491e-b067-729e0dc90246"},"vehicle_type_id":"4","last_reported":1740748677,"current_range_meters":9200,"station_id":"ce4bgjp2rcd13ifvqbh0","pricing_plan_id":"cebpf4jnsgd1na2vs0mg"},{"bike_id":"39428d9e-b2aa-4b9d-8299-12f8bf050224","system_id":"levelo_inurba_marseille","lat":43.2847,"lon":5.38425,"is_reserved":false,"is_disabled":false,"rental_uris":{"android":"levelo://app?vid=39428d9e-b2aa-4b9d-8299-12f8bf050224","ios":"levelo://app?vid=39428d9e-b2aa-4b9d-8299-12f8bf050224"},"vehicle_type_id":"4","last_reported":1740748677,"current_range_meters":9200,"station_id":"ce4bh512rcd13ifvqe3g","pricing_plan_id":"cebpf4jnsgd1na2vs0mg"},{"bike_id":"d0c23703-5f3a-483f-b584-f0cea5bd619b","system_id":"levelo_inurba_marseille","lat":43.298047,"lon":5.38085,"is_reserved":false,"is_disabled":false,"rental_uris":{"android":"levelo://app?vid=d0c23703-5f3a-483f-b584-f0cea5bd619b","ios":"levelo://app?vid=d0c23703-5f3a-483f-b584-f0cea5bd619b"},"vehicle_type_id":"4","last_reported":1740748677,"current_range_meters":9200,"station_id":"ce4bgip2rcd13ifvqbb0","pricing_plan_id":"cebpf4jnsgd1na2vs0mg"},{"bike_id":"14e8a242-340c-4ab6-821b-b6815c988474","system_id":"levelo_inurba_marseille","lat":43.30178,"lon":5.36603,"is_reserved":false,"is_disabled":false,"rental_uris":{"android":"levelo://app?vid=14e8a242-340c-4ab6-821b-b6815c988474","ios":"levelo://app?vid=14e8a242-340c-4ab6-821b-b6815c988474"},"vehicle_type_id":"4","last_reported":1740748677,"current_range_meters":8800,"station_id":"ce4bgrh2rcd13ifvqc8g","pricing_plan_id":"cebpf4jnsgd1na2vs0mg"},{"bike_id":"af48260f-7450-44d2-af77-60ea47d09858","system_id":"levelo_inurba_marseille","lat":43.29975,"lon":5.37179,"is_reserved":false,"is_disabled":false,"rental_uris":{"android":"levelo://app?vid=af48260f-7450-44d2-af77-60ea47d09858","ios":"levelo://app?vid=af48260f-7450-44d2-af77-60ea47d09858"},"vehicle_type_id":"4","last_reported":1740748677,"current_range_meters":9200,"station_id":"ce4bgr92rcd13ifvqc7g","pricing_plan_id":"cebpf4jnsgd1na2vs0mg"},{"bike_id":"379f4009-2fed-4f96-9809-f0eeee54aaf5","system_id":"levelo_inurba_marseille","lat":43.29858,"lon":5.3628,"is_reserved":false,"is_disabled":false,"rental_uris":{"android":"levelo://app?vid=379f4009-2fed-4f96-9809-f0eeee54aaf5","ios":"levelo://app?vid=379f4009-2fed-4f96-9809-f0eeee54aaf5"},"vehicle_type_id":"4","last_reported":1740748677,"current_range_meters":9200,"station_id":"ce4bgpp2rcd13ifvqc3g","pricing_plan_id":"cebpf4jnsgd1na2vs0mg"},{"bike_id":"11de2f33-46dc-4b42-bb77-b4ff3a4e96a1","system_id":"levelo_inurba_marseille","lat":43.29682,"lon":5.373,"is_reserved":false,"is_disabled":false,"rental_uris":{"android":"levelo://app?vid=11de2f33-46dc-4b42-bb77-b4ff3a4e96a1","ios":"levelo://app?vid=11de2f33-46dc-4b42-bb77-b4ff3a4e96a1"},"vehicle_type_id":"4","last_reported":1740748677,"current_range_meters":9200,"station_id":"ce4bgk12rcd13ifvqbj0","pricing_plan_id":"cebpf4jnsgd1na2vs0mg"},{"bike_id":"a97ef810-7225-4bf9-ae16-85c852e9dbad","system_id":"levelo_inurba_marseille","lat":43.30544,"lon":5.36536,"is_reserved":false,"is_disabled":false,"rental_uris":{"android":"levelo://app?vid=a97ef810-7225-4bf9-ae16-85c852e9dbad","ios":"levelo://app?vid=a97ef810-7225-4bf9-ae16-85c852e9dbad"},"vehicle_type_id":"4","last_reported":1740748677,"current_range_meters":9200,"station_id":"ce4bgs12rcd13ifvqcag","pricing_plan_id":"cebpf4jnsgd1na2vs0mg"},{"bike_id":"3de9aeda-1f9a-4bbc-8b90-e02a49e56ca9","system_id":"levelo_inurba_marseille","lat":43.231921,"lon":5.355644,"is_reserved":false,"is_disabled":false,"rental_uris":{"android":"levelo://app?vid=3de9aeda-1f9a-4bbc-8b90-e02a49e56ca9","ios":"levelo://app?vid=3de9aeda-1f9a-4bbc-8b90-e02a49e56ca9"},"vehicle_type_id":"4","last_reported":1740748677,"current_range_meters":9600,"station_id":"ce4bhu92rcd13ifvqi70","pricing_plan_id":"cebpf4jnsgd1na2vs0mg"},{"bike_id":"c8b6128a-21cb-46fe-951a-80194f280a8c","system_id":"levelo_inurba_marseille","lat":43.29057,"lon":5.35921,"is_reserved":false,"is_disabled":false,"rental_uris":{"android":"levelo://app?vid=c8b6128a-21cb-46fe-951a-80194f280a8c","ios":"levelo://app?vid=c8b6128a-21cb-46fe-951a-80194f280a8c"},"vehicle_type_id":"4","last_reported":1740748677,"current_range_meters":9600,"station_id":"ce4bha92rcd13ifvqeg0","pricing_plan_id":"cebpf4jnsgd1na2vs0mg"},{"bike_id":"3974eb43-338d-45d8-99e7-f28f01b99460","system_id":"levelo_inurba_marseille","lat":43.297453,"lon":5.401213,"is_reserved":false,"is_disabled":false,"rental_uris":{"android":"levelo://app?vid=3974eb43-338d-45d8-99e7-f28f01b99460","ios":"levelo://app?vid=3974eb43-338d-45d8-99e7-f28f01b99460"},"vehicle_type_id":"4","last_reported":1740748677,"current_range_meters":5600,"station_id":"ce4bh3h2rcd13ifvqdn0","pricing_plan_id":"cebpf4jnsgd1na2vs0mg"},{"bike_id":"71f68bea-1636-449e-a230-6d983096a86d","system_id":"levelo_inurba_marseille","lat":43.24078,"lon":5.37763,"is_reserved":false,"is_disabled":false,"rental_uris":{"android":"levelo://app?vid=71f68bea-1636-449e-a230-6d983096a86d","ios":"levelo://app?vid=71f68bea-1636-449e-a230-6d983096a86d"},"vehicle_type_id":"4","last_reported":1740748677,"current_range_meters":9600,"station_id":"ce4bhnp2rcd13ifvqgvg","pricing_plan_id":"cebpf4jnsgd1na2vs0mg"},{"bike_id":"d4918d6a-5525-4be8-b0c4-7af64b54343d","system_id":"levelo_inurba_marseille","lat":43.24162,"lon":5.36417,"is_reserved":false,"is_disabled":false,"rental_uris":{"android":"levelo://app?vid=d4918d6a-5525-4be8-b0c4-7af64b54343d","ios":"levelo://app?vid=d4918d6a-5525-4be8-b0c4-7af64b54343d"},"vehicle_type_id":"4","last_reported":1740748677,"current_range_meters":10000,"station_id":"cpo36qri1sfpv3e86is0","pricing_plan_id":"cebpf4jnsgd1na2vs0mg"},{"bike_id":"9c3c211e-e325-4dd4-bc83-cca0ba26e936","system_id":"levelo_inurba_marseille","lat":43.32044,"lon":5.41574,"is_reserved":false,"is_disabled":false,"rental_uris":{"android":"levelo://app?vid=9c3c211e-e325-4dd4-bc83-cca0ba26e936","ios":"levelo://app?vid=9c3c211e-e325-4dd4-bc83-cca0ba26e936"},"vehicle_type_id":"4","last_reported":1740748677,"current_range_meters":9200,"station_id":"ce4bhq92rcd13ifvqhkg","pricing_plan_id":"cebpf4jnsgd1na2vs0mg"},{"bike_id":"25ce1959-4b44-4725-b909-cd4426628b37","system_id":"levelo_inurba_marseille","lat":43.29799,"lon":5.38089,"is_reserved":false,"is_disabled":false,"rental_uris":{"android":"levelo://app?vid=25ce1959-4b44-4725-b909-cd4426628b37","ios":"levelo://app?vid=25ce1959-4b44-4725-b909-cd4426628b37"},"vehicle_type_id":"4","last_reported":1740748677,"current_range_meters":10000,"station_id":"ce4bgip2rcd13ifvqbb0","pricing_plan_id":"cebpf4jnsgd1na2vs0mg"},{"bike_id":"e1581309-b474-4460-8834-a3902bcb8d7b","system_id":"levelo_inurba_marseille","lat":43.295702,"lon":5.375265,"is_reserved":false,"is_disabled":false,"rental_uris":{"android":"levelo://app?vid=e1581309-b474-4460-8834-a3902bcb8d7b","ios":"levelo://app?vid=e1581309-b474-4460-8834-a3902bcb8d7b"},"vehicle_type_id":"4","last_reported":1740748677,"current_range_meters":9600,"station_id":"ce4bhjp2rcd13ifvqga0","pricing_plan_id":"cebpf4jnsgd1na2vs0mg"},{"bike_id":"59632fe5-d0bb-471f-aa75-7e6459a01427","system_id":"levelo_inurba_marseille","lat":43.30203,"lon":5.39459,"is_reserved":false,"is_disabled":false,"rental_uris":{"android":"levelo://app?vid=59632fe5-d0bb-471f-aa75-7e6459a01427","ios":"levelo://app?vid=59632fe5-d0bb-471f-aa75-7e6459a01427"},"vehicle_type_id":"4","last_reported":1740748677,"current_range_meters":14000,"station_id":"ce4bh0p2rcd13ifvqd70","pricing_plan_id":"cebpf4jnsgd1na2vs0mg"},{"bike_id":"d0508dd9-7822-47c3-ab9e-993249542600","system_id":"levelo_inurba_marseille","lat":43.29363,"lon":5.37856,"is_reserved":false,"is_disabled":false,"rental_uris":{"android":"levelo://app?vid=d0508dd9-7822-47c3-ab9e-993249542600","ios":"levelo://app?vid=d0508dd9-7822-47c3-ab9e-993249542600"},"vehicle_type_id":"4","last_reported":1740748677,"current_range_meters":10000,"station_id":"ce4bgjh2rcd13ifvqbf0","pricing_plan_id":"cebpf4jnsgd1na2vs0mg"},{"bike_id":"7af26340-fe79-4e15-a78b-117d72fd051a","system_id":"levelo_inurba_marseille","lat":43.3003,"lon":5.38842,"is_reserved":false,"is_disabled":false,"rental_uris":{"android":"levelo://app?vid=7af26340-fe79-4e15-a78b-117d72fd051a","ios":"levelo://app?vid=7af26340-fe79-4e15-a78b-117d72fd051a"},"vehicle_type_id":"4","last_reported":1740748677,"current_range_meters":8400,"station_id":"ce4bghh2rcd13ifvqb60","pricing_plan_id":"cebpf4jnsgd1na2vs0mg"},{"bike_id":"9cefaa5f-2047-4a29-ba27-fbad559e4baa","system_id":"levelo_inurba_marseille","lat":43.29579,"lon":5.37507,"is_reserved":false,"is_disabled":true,"rental_uris":{"android":"levelo://app?vid=9cefaa5f-2047-4a29-ba27-fbad559e4baa","ios":"levelo://app?vid=9cefaa5f-2047-4a29-ba27-fbad559e4baa"},"vehicle_type_id":"4","last_reported":1740748677,"current_range_meters":10000,"station_id":"ce4bgh92rcd13ifvqb50","pricing_plan_id":"cebpf4jnsgd1na2vs0mg"},{"bike_id":"457171d3-861a-4d08-bc26-01118d1d9c91","system_id":"levelo_inurba_marseille","lat":43.28423,"lon":5.34989,"is_reserved":false,"is_disabled":false,"rental_uris":{"android":"levelo://app?vid=457171d3-861a-4d08-bc26-01118d1d9c91","ios":"levelo://app?vid=457171d3-861a-4d08-bc26-01118d1d9c91"},"vehicle_type_id":"4","last_reported":1740748677,"current_range_meters":10000,"station_id":"ce4bhbh2rcd13ifvqepg","pricing_plan_id":"cebpf4jnsgd1na2vs0mg"},{"bike_id":"10be055f-dd9f-4dc6-8d3f-7aba3762d29b","system_id":"levelo_inurba_marseille","lat":43.32115,"lon":5.36776,"is_reserved":false,"is_disabled":false,"rental_uris":{"android":"levelo://app?vid=10be055f-dd9f-4dc6-8d3f-7aba3762d29b","ios":"levelo://app?vid=10be055f-dd9f-4dc6-8d3f-7aba3762d29b"},"vehicle_type_id":"4","last_reported":1740748677,"current_range_meters":10000,"station_id":"ce4bhrh2rcd13ifvqhug","pricing_plan_id":"cebpf4jnsgd1na2vs0mg"},{"bike_id":"c4aaec2d-c2fd-442e-ab39-1c1382bfa4a2","system_id":"levelo_inurba_marseille","lat":43.28592,"lon":5.37056,"is_reserved":false,"is_disabled":false,"rental_uris":{"android":"levelo://app?vid=c4aaec2d-c2fd-442e-ab39-1c1382bfa4a2","ios":"levelo://app?vid=c4aaec2d-c2fd-442e-ab39-1c1382bfa4a2"},"vehicle_type_id":"4","last_reported":1740748677,"current_range_meters":10000,"station_id":"ce4bht12rcd13ifvqi60","pricing_plan_id":"cebpf4jnsgd1na2vs0mg"},{"bike_id":"c9aa3345-f205-4eda-a735-d06951ebe8f8","system_id":"levelo_inurba_marseille","lat":43.29247,"lon":5.37618,"is_reserved":false,"is_disabled":false,"rental_uris":{"android":"levelo://app?vid=c9aa3345-f205-4eda-a735-d06951ebe8f8","ios":"levelo://app?vid=c9aa3345-f205-4eda-a735-d06951ebe8f8"},"vehicle_type_id":"4","last_reported":1740748677,"current_range_meters":10000,"station_id":"ce4bgi12rcd13ifvqb80","pricing_plan_id":"cebpf4jnsgd1na2vs0mg"},{"bike_id":"552dd732-b1fa-41e5-a15d-63558029a574","system_id":"levelo_inurba_marseille","lat":43.26959,"lon":5.38629,"is_reserved":false,"is_disabled":false,"rental_uris":{"android":"levelo://app?vid=552dd732-b1fa-41e5-a15d-63558029a574","ios":"levelo://app?vid=552dd732-b1fa-41e5-a15d-63558029a574"},"vehicle_type_id":"4","last_reported":1740748677,"current_range_meters":9600,"station_id":"ce4bhh92rcd13ifvqfh0","pricing_plan_id":"cebpf4jnsgd1na2vs0mg"},{"bike_id":"b12302b4-d886-400e-aec8-597abc147b0b","system_id":"levelo_inurba_marseille","lat":43.31334,"lon":5.36742,"is_reserved":false,"is_disabled":false,"rental_uris":{"android":"levelo://app?vid=b12302b4-d886-400e-aec8-597abc147b0b","ios":"levelo://app?vid=b12302b4-d886-400e-aec8-597abc147b0b"},"vehicle_type_id":"4","last_reported":1740748677,"current_range_meters":9600,"station_id":"ce4bgr92rcd13ifvqc6g","pricing_plan_id":"cebpf4jnsgd1na2vs0mg"},{"bike_id":"eddf86b9-17ab-47ee-ad88-7c79e4bb8152","system_id":"levelo_inurba_marseille","lat":43.289849,"lon":5.38678,"is_reserved":false,"is_disabled":false,"rental_uris":{"android":"levelo://app?vid=eddf86b9-17ab-47ee-ad88-7c79e4bb8152","ios":"levelo://app?vid=eddf86b9-17ab-47ee-ad88-7c79e4bb8152"},"vehicle_type_id":"4","last_reported":1740748677,"current_range_meters":10800,"station_id":"","pricing_plan_id":"cebpf4jnsgd1na2vs0mg"},{"bike_id":"f80ab5bc-1c8d-436e-8fed-add05e02cdc3","system_id":"levelo_inurba_marseille","lat":43.27997,"lon":5.4166,"is_reserved":false,"is_disabled":false,"rental_uris":{"android":"levelo://app?vid=f80ab5bc-1c8d-436e-8fed-add05e02cdc3","ios":"levelo://app?vid=f80ab5bc-1c8d-436e-8fed-add05e02cdc3"},"vehicle_type_id":"4","last_reported":1740748677,"current_range_meters":10800,"station_id":"ce4bho12rcd13ifvqh1g","pricing_plan_id":"cebpf4jnsgd1na2vs0mg"},{"bike_id":"14c95ba4-db71-4e3e-81e4-b9bf480b6559","system_id":"levelo_inurba_marseille","lat":43.31161,"lon":5.38726,"is_reserved":false,"is_disabled":false,"rental_uris":{"android":"levelo://app?vid=14c95ba4-db71-4e3e-81e4-b9bf480b6559","ios":"levelo://app?vid=14c95ba4-db71-4e3e-81e4-b9bf480b6559"},"vehicle_type_id":"4","last_reported":1740748677,"current_range_meters":10800,"station_id":"ce4bgv12rcd13ifvqcp0","pricing_plan_id":"cebpf4jnsgd1na2vs0mg"},{"bike_id":"60462ea0-ce0d-4cb2-bc69-6c0931779413","system_id":"levelo_inurba_marseille","lat":43.25933,"lon":5.40893,"is_reserved":false,"is_disabled":false,"rental_uris":{"android":"levelo://app?vid=60462ea0-ce0d-4cb2-bc69-6c0931779413","ios":"levelo://app?vid=60462ea0-ce0d-4cb2-bc69-6c0931779413"},"vehicle_type_id":"4","last_reported":1740748677,"current_range_meters":13600,"station_id":"ce4bhm92rcd13ifvqglg","pricing_plan_id":"cebpf4jnsgd1na2vs0mg"},{"bike_id":"5b28cd77-a409-482f-8702-f764eef9151e","system_id":"levelo_inurba_marseille","lat":43.2595,"lon":5.40917,"is_reserved":false,"is_disabled":false,"rental_uris":{"android":"levelo://app?vid=5b28cd77-a409-482f-8702-f764eef9151e","ios":"levelo://app?vid=5b28cd77-a409-482f-8702-f764eef9151e"},"vehicle_type_id":"4","last_reported":1740748677,"current_range_meters":10800,"station_id":"ce4bhm92rcd13ifvqglg","pricing_plan_id":"cebpf4jnsgd1na2vs0mg"},{"bike_id":"9fe1686b-87f4-4090-857d-b2cad3d05448","system_id":"levelo_inurba_marseille","lat":43.2593,"lon":5.40896,"is_reserved":false,"is_disabled":false,"rental_uris":{"android":"levelo://app?vid=9fe1686b-87f4-4090-857d-b2cad3d05448","ios":"levelo://app?vid=9fe1686b-87f4-4090-857d-b2cad3d05448"},"vehicle_type_id":"4","last_reported":1740748677,"current_range_meters":10800,"station_id":"ce4bhm92rcd13ifvqglg","pricing_plan_id":"cebpf4jnsgd1na2vs0mg"},{"bike_id":"f273f3f3-5746-4ae7-8c62-4aa445cc2ae9","system_id":"levelo_inurba_marseille","lat":43.29788,"lon":5.39341,"is_reserved":false,"is_disabled":false,"rental_uris":{"android":"levelo://app?vid=f273f3f3-5746-4ae7-8c62-4aa445cc2ae9","ios":"levelo://app?vid=f273f3f3-5746-4ae7-8c62-4aa445cc2ae9"},"vehicle_type_id":"4","last_reported":1740748677,"current_range_meters":11200,"station_id":"chh1huq6cuj3fo74tm60","pricing_plan_id":"cebpf4jnsgd1na2vs0mg"},{"bike_id":"36aaff39-aaa8-465d-bd0a-3f671adb5484","system_id":"levelo_inurba_marseille","lat":43.29861,"lon":5.36272,"is_reserved":false,"is_disabled":false,"rental_uris":{"android":"levelo://app?vid=36aaff39-aaa8-465d-bd0a-3f671adb5484","ios":"levelo://app?vid=36aaff39-aaa8-465d-bd0a-3f671adb5484"},"vehicle_type_id":"4","last_reported":1740748677,"current_range_meters":11200,"station_id":"ce4bgpp2rcd13ifvqc3g","pricing_plan_id":"cebpf4jnsgd1na2vs0mg"},{"bike_id":"5479fbcd-1bb7-43ca-831a-9142f1ef1397","system_id":"levelo_inurba_marseille","lat":43.24672,"lon":5.38161,"is_reserved":false,"is_disabled":false,"rental_uris":{"android":"levelo://app?vid=5479fbcd-1bb7-43ca-831a-9142f1ef1397","ios":"levelo://app?vid=5479fbcd-1bb7-43ca-831a-9142f1ef1397"},"vehicle_type_id":"4","last_reported":1740748677,"current_range_meters":10800,"station_id":"ce4bhih2rcd13ifvqfr0","pricing_plan_id":"cebpf4jnsgd1na2vs0mg"},{"bike_id":"92151e43-236e-4006-978e-1626eb4f41f0","system_id":"levelo_inurba_marseille","lat":43.2558,"lon":5.38229,"is_reserved":false,"is_disabled":false,"rental_uris":{"android":"levelo://app?vid=92151e43-236e-4006-978e-1626eb4f41f0","ios":"levelo://app?vid=92151e43-236e-4006-978e-1626eb4f41f0"},"vehicle_type_id":"4","last_reported":1740748677,"current_range_meters":11200,"station_id":"ce4bhih2rcd13ifvqfs0","pricing_plan_id":"cebpf4jnsgd1na2vs0mg"},{"bike_id":"8179209c-2eff-4a10-9984-c90abf695f5d","system_id":"levelo_inurba_marseille","lat":43.32539,"lon":5.41424,"is_reserved":false,"is_disabled":false,"rental_uris":{"android":"levelo://app?vid=8179209c-2eff-4a10-9984-c90abf695f5d","ios":"levelo://app?vid=8179209c-2eff-4a10-9984-c90abf695f5d"},"vehicle_type_id":"4","last_reported":1740748677,"current_range_meters":11200,"station_id":"ce4bhq12rcd13ifvqhhg","pricing_plan_id":"cebpf4jnsgd1na2vs0mg"},{"bike_id":"3db7a956-8660-4e5f-b160-9fa61e415cd3","system_id":"levelo_inurba_marseille","lat":43.22931,"lon":5.35372,"is_reserved":false,"is_disabled":false,"rental_uris":{"android":"levelo://app?vid=3db7a956-8660-4e5f-b160-9fa61e415cd3","ios":"levelo://app?vid=3db7a956-8660-4e5f-b160-9fa61e415cd3"},"vehicle_type_id":"4","last_reported":1740748677,"current_range_meters":10800,"station_id":"cpo3532slgdg3j2ikp40","pricing_plan_id":"cebpf4jnsgd1na2vs0mg"},{"bike_id":"9ffe6c9d-0407-4859-ba96-0cf757661786","system_id":"levelo_inurba_marseille","lat":43.30154,"lon":5.37423,"is_reserved":false,"is_disabled":false,"rental_uris":{"android":"levelo://app?vid=9ffe6c9d-0407-4859-ba96-0cf757661786","ios":"levelo://app?vid=9ffe6c9d-0407-4859-ba96-0cf757661786"},"vehicle_type_id":"4","last_reported":1740748677,"current_range_meters":10800,"station_id":"ce4bgs92rcd13ifvqcc0","pricing_plan_id":"cebpf4jnsgd1na2vs0mg"},{"bike_id":"ae69beb0-57bc-4a3e-af45-ef8780aa1720","system_id":"levelo_inurba_marseille","lat":43.31169,"lon":5.38732,"is_reserved":false,"is_disabled":false,"rental_uris":{"android":"levelo://app?vid=ae69beb0-57bc-4a3e-af45-ef8780aa1720","ios":"levelo://app?vid=ae69beb0-57bc-4a3e-af45-ef8780aa1720"},"vehicle_type_id":"4","last_reported":1740748677,"current_range_meters":11200,"station_id":"ce4bgv12rcd13ifvqcp0","pricing_plan_id":"cebpf4jnsgd1na2vs0mg"},{"bike_id":"54c4ecf0-8750-416c-be34-eab664ed1ede","system_id":"levelo_inurba_marseille","lat":43.23965,"lon":5.36628,"is_reserved":false,"is_disabled":false,"rental_uris":{"android":"levelo://app?vid=54c4ecf0-8750-416c-be34-eab664ed1ede","ios":"levelo://app?vid=54c4ecf0-8750-416c-be34-eab664ed1ede"},"vehicle_type_id":"4","last_reported":1740748677,"current_range_meters":10800,"station_id":"ce4bhi12rcd13ifvqfp0","pricing_plan_id":"cebpf4jnsgd1na2vs0mg"},{"bike_id":"9403cc02-41bc-423e-bfe2-a45cc6320838","system_id":"levelo_inurba_marseille","lat":43.23203,"lon":5.39891,"is_reserved":false,"is_disabled":false,"rental_uris":{"android":"levelo://app?vid=9403cc02-41bc-423e-bfe2-a45cc6320838","ios":"levelo://app?vid=9403cc02-41bc-423e-bfe2-a45cc6320838"},"vehicle_type_id":"4","last_reported":1740748677,"current_range_meters":11600,"station_id":"ce4bhn12rcd13ifvqgqg","pricing_plan_id":"cebpf4jnsgd1na2vs0mg"},{"bike_id":"07c95ed8-ef75-441b-82b8-4bc0502030ca","system_id":"levelo_inurba_marseille","lat":43.23199,"lon":5.3555,"is_reserved":false,"is_disabled":false,"rental_uris":{"android":"levelo://app?vid=07c95ed8-ef75-441b-82b8-4bc0502030ca","ios":"levelo://app?vid=07c95ed8-ef75-441b-82b8-4bc0502030ca"},"vehicle_type_id":"4","last_reported":1740748677,"current_range_meters":11600,"station_id":"ce4bhu92rcd13ifvqi70","pricing_plan_id":"cebpf4jnsgd1na2vs0mg"},{"bike_id":"99e337d3-61d0-4f9f-94d0-668ba5307909","system_id":"levelo_inurba_marseille","lat":43.28721,"lon":5.37927,"is_reserved":false,"is_disabled":false,"rental_uris":{"android":"levelo://app?vid=99e337d3-61d0-4f9f-94d0-668ba5307909","ios":"levelo://app?vid=99e337d3-61d0-4f9f-94d0-668ba5307909"},"vehicle_type_id":"4","last_reported":1740748677,"current_range_meters":10800,"station_id":"ce4bh9p2rcd13ifvqec0","pricing_plan_id":"cebpf4jnsgd1na2vs0mg"},{"bike_id":"e074b4ff-030c-4495-9907-135bef915871","system_id":"levelo_inurba_marseille","lat":43.28673,"lon":5.35166,"is_reserved":false,"is_disabled":false,"rental_uris":{"android":"levelo://app?vid=e074b4ff-030c-4495-9907-135bef915871","ios":"levelo://app?vid=e074b4ff-030c-4495-9907-135bef915871"},"vehicle_type_id":"4","last_reported":1740748677,"current_range_meters":12000,"station_id":"","pricing_plan_id":"cebpf4jnsgd1na2vs0mg"},{"bike_id":"43d6aa6f-20c7-4a1b-bcb8-31b660876567","system_id":"levelo_inurba_marseille","lat":43.26553,"lon":5.37285,"is_reserved":false,"is_disabled":false,"rental_uris":{"android":"levelo://app?vid=43d6aa6f-20c7-4a1b-bcb8-31b660876567","ios":"levelo://app?vid=43d6aa6f-20c7-4a1b-bcb8-31b660876567"},"vehicle_type_id":"4","last_reported":1740748677,"current_range_meters":12000,"station_id":"ce4bhg12rcd13ifvqf70","pricing_plan_id":"cebpf4jnsgd1na2vs0mg"},{"bike_id":"61fc8cb4-50b7-407b-875f-ecb5ad7c68d5","system_id":"levelo_inurba_marseille","lat":43.2978,"lon":5.39349,"is_reserved":false,"is_disabled":false,"rental_uris":{"android":"levelo://app?vid=61fc8cb4-50b7-407b-875f-ecb5ad7c68d5","ios":"levelo://app?vid=61fc8cb4-50b7-407b-875f-ecb5ad7c68d5"},"vehicle_type_id":"4","last_reported":1740748677,"current_range_meters":11600,"station_id":"chh1huq6cuj3fo74tm60","pricing_plan_id":"cebpf4jnsgd1na2vs0mg"},{"bike_id":"3f5e4c77-943b-4a46-b257-614bf13afec4","system_id":"levelo_inurba_marseille","lat":43.24169,"lon":5.36403,"is_reserved":false,"is_disabled":false,"rental_uris":{"android":"levelo://app?vid=3f5e4c77-943b-4a46-b257-614bf13afec4","ios":"levelo://app?vid=3f5e4c77-943b-4a46-b257-614bf13afec4"},"vehicle_type_id":"4","last_reported":1740748677,"current_range_meters":12000,"station_id":"cpo36qri1sfpv3e86is0","pricing_plan_id":"cebpf4jnsgd1na2vs0mg"},{"bike_id":"04cc12a1-339d-4cfd-8541-987866583604","system_id":"levelo_inurba_marseille","lat":43.25865,"lon":5.39908,"is_reserved":false,"is_disabled":false,"rental_uris":{"android":"levelo://app?vid=04cc12a1-339d-4cfd-8541-987866583604","ios":"levelo://app?vid=04cc12a1-339d-4cfd-8541-987866583604"},"vehicle_type_id":"4","last_reported":1740748677,"current_range_meters":12000,"station_id":"ce4bhl92rcd13ifvqghg","pricing_plan_id":"cebpf4jnsgd1na2vs0mg"},{"bike_id":"7923e11c-6aa0-455c-b291-531713d27c89","system_id":"levelo_inurba_marseille","lat":43.26573,"lon":5.39003,"is_reserved":false,"is_disabled":false,"rental_uris":{"android":"levelo://app?vid=7923e11c-6aa0-455c-b291-531713d27c89","ios":"levelo://app?vid=7923e11c-6aa0-455c-b291-531713d27c89"},"vehicle_type_id":"4","last_reported":1740748677,"current_range_meters":11600,"station_id":"ce4bhe12rcd13ifvqf30","pricing_plan_id":"cebpf4jnsgd1na2vs0mg"},{"bike_id":"2e3d44bb-aba5-465d-9c12-a3d61c109003","system_id":"levelo_inurba_marseille","lat":43.28996,"lon":5.35588,"is_reserved":false,"is_disabled":false,"rental_uris":{"android":"levelo://app?vid=2e3d44bb-aba5-465d-9c12-a3d61c109003","ios":"levelo://app?vid=2e3d44bb-aba5-465d-9c12-a3d61c109003"},"vehicle_type_id":"4","last_reported":1740748677,"current_range_meters":14800,"station_id":"ce4bhb92rcd13ifvqen0","pricing_plan_id":"cebpf4jnsgd1na2vs0mg"},{"bike_id":"1373b6cc-15ff-473a-8da5-713c8ea0e033","system_id":"levelo_inurba_marseille","lat":43.29605,"lon":5.38098,"is_reserved":false,"is_disabled":false,"rental_uris":{"android":"levelo://app?vid=1373b6cc-15ff-473a-8da5-713c8ea0e033","ios":"levelo://app?vid=1373b6cc-15ff-473a-8da5-713c8ea0e033"},"vehicle_type_id":"4","last_reported":1740748677,"current_range_meters":12400,"station_id":"ce4bgl12rcd13ifvqbo0","pricing_plan_id":"cebpf4jnsgd1na2vs0mg"},{"bike_id":"1291ca44-3760-44bb-83ca-5445461812cb","system_id":"levelo_inurba_marseille","lat":43.31207,"lon":5.3683,"is_reserved":false,"is_disabled":false,"rental_uris":{"android":"levelo://app?vid=1291ca44-3760-44bb-83ca-5445461812cb","ios":"levelo://app?vid=1291ca44-3760-44bb-83ca-5445461812cb"},"vehicle_type_id":"4","last_reported":1740748677,"current_range_meters":12400,"station_id":"ce4bgl92rcd13ifvqbq0","pricing_plan_id":"cebpf4jnsgd1na2vs0mg"},{"bike_id":"486bca0a-495f-4ed7-92d3-4c9d667d1676","system_id":"levelo_inurba_marseille","lat":43.31168,"lon":5.38722,"is_reserved":false,"is_disabled":false,"rental_uris":{"android":"levelo://app?vid=486bca0a-495f-4ed7-92d3-4c9d667d1676","ios":"levelo://app?vid=486bca0a-495f-4ed7-92d3-4c9d667d1676"},"vehicle_type_id":"4","last_reported":1740748677,"current_range_meters":12000,"station_id":"ce4bgv12rcd13ifvqcp0","pricing_plan_id":"cebpf4jnsgd1na2vs0mg"},{"bike_id":"732a97d5-0729-4819-ba8b-6971e35284ba","system_id":"levelo_inurba_marseille","lat":43.28368,"lon":5.38643,"is_reserved":false,"is_disabled":false,"rental_uris":{"android":"levelo://app?vid=732a97d5-0729-4819-ba8b-6971e35284ba","ios":"levelo://app?vid=732a97d5-0729-4819-ba8b-6971e35284ba"},"vehicle_type_id":"4","last_reported":1740748677,"current_range_meters":12800,"station_id":"ce4bh492rcd13ifvqdvg","pricing_plan_id":"cebpf4jnsgd1na2vs0mg"},{"bike_id":"caf3d38b-a87d-4608-8cba-c51565c317c8","system_id":"levelo_inurba_marseille","lat":43.28845,"lon":5.35852,"is_reserved":false,"is_disabled":false,"rental_uris":{"android":"levelo://app?vid=caf3d38b-a87d-4608-8cba-c51565c317c8","ios":"levelo://app?vid=caf3d38b-a87d-4608-8cba-c51565c317c8"},"vehicle_type_id":"4","last_reported":1740748677,"current_range_meters":12800,"station_id":"ce4bhb12rcd13ifvqem0","pricing_plan_id":"cebpf4jnsgd1na2vs0mg"},{"bike_id":"808e7af5-7280-4dcf-9c4a-50c17ad3c304","system_id":"levelo_inurba_marseille","lat":43.23964,"lon":5.36635,"is_reserved":false,"is_disabled":false,"rental_uris":{"android":"levelo://app?vid=808e7af5-7280-4dcf-9c4a-50c17ad3c304","ios":"levelo://app?vid=808e7af5-7280-4dcf-9c4a-50c17ad3c304"},"vehicle_type_id":"4","last_reported":1740748677,"current_range_meters":13600,"station_id":"ce4bhi12rcd13ifvqfp0","pricing_plan_id":"cebpf4jnsgd1na2vs0mg"},{"bike_id":"50ed1e7a-f4d6-4a92-abe5-fc238ab6bb28","system_id":"levelo_inurba_marseille","lat":43.29991,"lon":5.3718,"is_reserved":false,"is_disabled":false,"rental_uris":{"android":"levelo://app?vid=50ed1e7a-f4d6-4a92-abe5-fc238ab6bb28","ios":"levelo://app?vid=50ed1e7a-f4d6-4a92-abe5-fc238ab6bb28"},"vehicle_type_id":"4","last_reported":1740748677,"current_range_meters":12400,"station_id":"ce4bgr92rcd13ifvqc7g","pricing_plan_id":"cebpf4jnsgd1na2vs0mg"},{"bike_id":"b41a910e-e61d-47c4-bcf8-0d1aa55c4324","system_id":"levelo_inurba_marseille","lat":43.27631,"lon":5.3611,"is_reserved":false,"is_disabled":false,"rental_uris":{"android":"levelo://app?vid=b41a910e-e61d-47c4-bcf8-0d1aa55c4324","ios":"levelo://app?vid=b41a910e-e61d-47c4-bcf8-0d1aa55c4324"},"vehicle_type_id":"4","last_reported":1740748677,"current_range_meters":12800,"station_id":"ce4bgj92rcd13ifvqbe0","pricing_plan_id":"cebpf4jnsgd1na2vs0mg"},{"bike_id":"511934ef-c328-4333-ae4b-ec2fe93665ed","system_id":"levelo_inurba_marseille","lat":43.29798,"lon":5.38106,"is_reserved":false,"is_disabled":false,"rental_uris":{"android":"levelo://app?vid=511934ef-c328-4333-ae4b-ec2fe93665ed","ios":"levelo://app?vid=511934ef-c328-4333-ae4b-ec2fe93665ed"},"vehicle_type_id":"4","last_reported":1740748677,"current_range_meters":12800,"station_id":"ce4bgip2rcd13ifvqbb0","pricing_plan_id":"cebpf4jnsgd1na2vs0mg"},{"bike_id":"fbb578c6-bc58-4f39-a675-f75212c7ad17","system_id":"levelo_inurba_marseille","lat":43.25579,"lon":5.3823,"is_reserved":false,"is_disabled":false,"rental_uris":{"android":"levelo://app?vid=fbb578c6-bc58-4f39-a675-f75212c7ad17","ios":"levelo://app?vid=fbb578c6-bc58-4f39-a675-f75212c7ad17"},"vehicle_type_id":"4","last_reported":1740748677,"current_range_meters":12800,"station_id":"ce4bhih2rcd13ifvqfs0","pricing_plan_id":"cebpf4jnsgd1na2vs0mg"},{"bike_id":"c32773e6-fdd1-4c85-898d-22ee801eb4f7","system_id":"levelo_inurba_marseille","lat":43.29555,"lon":5.42284,"is_reserved":false,"is_disabled":false,"rental_uris":{"android":"levelo://app?vid=c32773e6-fdd1-4c85-898d-22ee801eb4f7","ios":"levelo://app?vid=c32773e6-fdd1-4c85-898d-22ee801eb4f7"},"vehicle_type_id":"4","last_reported":1740748677,"current_range_meters":14000,"station_id":"ce4bhph2rcd13ifvqhdg","pricing_plan_id":"cebpf4jnsgd1na2vs0mg"},{"bike_id":"ad5b58ef-35aa-402d-94e0-da855fa183c3","system_id":"levelo_inurba_marseille","lat":43.3133,"lon":5.39703,"is_reserved":false,"is_disabled":false,"rental_uris":{"android":"levelo://app?vid=ad5b58ef-35aa-402d-94e0-da855fa183c3","ios":"levelo://app?vid=ad5b58ef-35aa-402d-94e0-da855fa183c3"},"vehicle_type_id":"4","last_reported":1740748677,"current_range_meters":13600,"station_id":"ce4bgvp2rcd13ifvqcu0","pricing_plan_id":"cebpf4jnsgd1na2vs0mg"},{"bike_id":"c3b54afa-1961-47df-a621-445373bc7b4f","system_id":"levelo_inurba_marseille","lat":43.29516,"lon":5.3751,"is_reserved":false,"is_disabled":false,"rental_uris":{"android":"levelo://app?vid=c3b54afa-1961-47df-a621-445373bc7b4f","ios":"levelo://app?vid=c3b54afa-1961-47df-a621-445373bc7b4f"},"vehicle_type_id":"4","last_reported":1740748677,"current_range_meters":14800,"station_id":"ce4bgkp2rcd13ifvqbmg","pricing_plan_id":"cebpf4jnsgd1na2vs0mg"},{"bike_id":"d86bb512-ecd1-4c05-b2f7-6c5cd497fe90","system_id":"levelo_inurba_marseille","lat":43.23187,"lon":5.39999,"is_reserved":false,"is_disabled":false,"rental_uris":{"android":"levelo://app?vid=d86bb512-ecd1-4c05-b2f7-6c5cd497fe90","ios":"levelo://app?vid=d86bb512-ecd1-4c05-b2f7-6c5cd497fe90"},"vehicle_type_id":"4","last_reported":1740748677,"current_range_meters":13600,"station_id":"ce4bhn12rcd13ifvqgqg","pricing_plan_id":"cebpf4jnsgd1na2vs0mg"},{"bike_id":"f5fe4361-1d3d-4314-a7e8-95ca49fcf6f9","system_id":"levelo_inurba_marseille","lat":43.3331,"lon":5.35801,"is_reserved":false,"is_disabled":false,"rental_uris":{"android":"levelo://app?vid=f5fe4361-1d3d-4314-a7e8-95ca49fcf6f9","ios":"levelo://app?vid=f5fe4361-1d3d-4314-a7e8-95ca49fcf6f9"},"vehicle_type_id":"4","last_reported":1740748677,"current_range_meters":13600,"station_id":"","pricing_plan_id":"cebpf4jnsgd1na2vs0mg"},{"bike_id":"adad2728-e190-4582-8d0f-2458f1d5af81","system_id":"levelo_inurba_marseille","lat":43.25116,"lon":5.40323,"is_reserved":false,"is_disabled":false,"rental_uris":{"android":"levelo://app?vid=adad2728-e190-4582-8d0f-2458f1d5af81","ios":"levelo://app?vid=adad2728-e190-4582-8d0f-2458f1d5af81"},"vehicle_type_id":"4","last_reported":1740748677,"current_range_meters":13600,"station_id":"ce4bhlh2rcd13ifvqgig","pricing_plan_id":"cebpf4jnsgd1na2vs0mg"},{"bike_id":"296fed84-561f-4c5b-8e4b-23175a408b8d","system_id":"levelo_inurba_marseille","lat":43.33717,"lon":5.39189,"is_reserved":false,"is_disabled":false,"rental_uris":{"android":"levelo://app?vid=296fed84-561f-4c5b-8e4b-23175a408b8d","ios":"levelo://app?vid=296fed84-561f-4c5b-8e4b-23175a408b8d"},"vehicle_type_id":"4","last_reported":1740748677,"current_range_meters":13600,"station_id":"ce4bhr92rcd13ifvqhsg","pricing_plan_id":"cebpf4jnsgd1na2vs0mg"},{"bike_id":"9b69e1a3-e087-4b03-bb57-30fc857dd381","system_id":"levelo_inurba_marseille","lat":43.30427,"lon":5.39748,"is_reserved":false,"is_disabled":false,"rental_uris":{"android":"levelo://app?vid=9b69e1a3-e087-4b03-bb57-30fc857dd381","ios":"levelo://app?vid=9b69e1a3-e087-4b03-bb57-30fc857dd381"},"vehicle_type_id":"4","last_reported":1740748677,"current_range_meters":13600,"station_id":"ce4bh092rcd13ifvqd20","pricing_plan_id":"cebpf4jnsgd1na2vs0mg"},{"bike_id":"86f76fa1-a16e-4bfe-b047-8289609b715c","system_id":"levelo_inurba_marseille","lat":43.26742,"lon":5.38207,"is_reserved":false,"is_disabled":false,"rental_uris":{"android":"levelo://app?vid=86f76fa1-a16e-4bfe-b047-8289609b715c","ios":"levelo://app?vid=86f76fa1-a16e-4bfe-b047-8289609b715c"},"vehicle_type_id":"4","last_reported":1740748677,"current_range_meters":14000,"station_id":"ce4bhg92rcd13ifvqf90","pricing_plan_id":"cebpf4jnsgd1na2vs0mg"},{"bike_id":"e73557ec-12fc-4b31-84a8-85363ae9bfde","system_id":"levelo_inurba_marseille","lat":43.2656,"lon":5.37287,"is_reserved":false,"is_disabled":false,"rental_uris":{"android":"levelo://app?vid=e73557ec-12fc-4b31-84a8-85363ae9bfde","ios":"levelo://app?vid=e73557ec-12fc-4b31-84a8-85363ae9bfde"},"vehicle_type_id":"4","last_reported":1740748677,"current_range_meters":14000,"station_id":"ce4bhg12rcd13ifvqf70","pricing_plan_id":"cebpf4jnsgd1na2vs0mg"},{"bike_id":"73a99210-3715-4540-95d5-9fc921be5bf2","system_id":"levelo_inurba_marseille","lat":43.291008,"lon":5.381179,"is_reserved":false,"is_disabled":false,"rental_uris":{"android":"levelo://app?vid=73a99210-3715-4540-95d5-9fc921be5bf2","ios":"levelo://app?vid=73a99210-3715-4540-95d5-9fc921be5bf2"},"vehicle_type_id":"4","last_reported":1740748677,"current_range_meters":14000,"station_id":"ce4bh512rcd13ifvqe2g","pricing_plan_id":"cebpf4jnsgd1na2vs0mg"},{"bike_id":"559339ca-a14c-4dd9-9415-d5fda2aa56f2","system_id":"levelo_inurba_marseille","lat":43.29838,"lon":5.36285,"is_reserved":false,"is_disabled":false,"rental_uris":{"android":"levelo://app?vid=559339ca-a14c-4dd9-9415-d5fda2aa56f2","ios":"levelo://app?vid=559339ca-a14c-4dd9-9415-d5fda2aa56f2"},"vehicle_type_id":"4","last_reported":1740748677,"current_range_meters":14400,"station_id":"ce4bgpp2rcd13ifvqc3g","pricing_plan_id":"cebpf4jnsgd1na2vs0mg"},{"bike_id":"4b48f531-4c13-4b8b-86d6-01eea62085ab","system_id":"levelo_inurba_marseille","lat":43.23186,"lon":5.35551,"is_reserved":false,"is_disabled":false,"rental_uris":{"android":"levelo://app?vid=4b48f531-4c13-4b8b-86d6-01eea62085ab","ios":"levelo://app?vid=4b48f531-4c13-4b8b-86d6-01eea62085ab"},"vehicle_type_id":"4","last_reported":1740748677,"current_range_meters":14000,"station_id":"ce4bhu92rcd13ifvqi70","pricing_plan_id":"cebpf4jnsgd1na2vs0mg"},{"bike_id":"746b1fa6-f128-4f9b-a023-aa25ae910864","system_id":"levelo_inurba_marseille","lat":43.26557,"lon":5.37283,"is_reserved":false,"is_disabled":false,"rental_uris":{"android":"levelo://app?vid=746b1fa6-f128-4f9b-a023-aa25ae910864","ios":"levelo://app?vid=746b1fa6-f128-4f9b-a023-aa25ae910864"},"vehicle_type_id":"4","last_reported":1740748677,"current_range_meters":14000,"station_id":"ce4bhg12rcd13ifvqf70","pricing_plan_id":"cebpf4jnsgd1na2vs0mg"},{"bike_id":"99e0c407-0186-4be4-b964-6b90140a57f2","system_id":"levelo_inurba_marseille","lat":43.306,"lon":5.36653,"is_reserved":false,"is_disabled":true,"rental_uris":{"android":"levelo://app?vid=99e0c407-0186-4be4-b964-6b90140a57f2","ios":"levelo://app?vid=99e0c407-0186-4be4-b964-6b90140a57f2"},"vehicle_type_id":"4","last_reported":1740748677,"current_range_meters":14400,"station_id":"","pricing_plan_id":"cebpf4jnsgd1na2vs0mg"},{"bike_id":"382d557d-8024-4f45-8140-482a40d06b19","system_id":"levelo_inurba_marseille","lat":43.27813,"lon":5.40712,"is_reserved":false,"is_disabled":false,"rental_uris":{"android":"levelo://app?vid=382d557d-8024-4f45-8140-482a40d06b19","ios":"levelo://app?vid=382d557d-8024-4f45-8140-482a40d06b19"},"vehicle_type_id":"4","last_reported":1740748677,"current_range_meters":14000,"station_id":"ce4bhnh2rcd13ifvqgtg","pricing_plan_id":"cebpf4jnsgd1na2vs0mg"},{"bike_id":"f094a661-8611-4c91-ae81-80a41e792afb","system_id":"levelo_inurba_marseille","lat":43.24078,"lon":5.37754,"is_reserved":false,"is_disabled":false,"rental_uris":{"android":"levelo://app?vid=f094a661-8611-4c91-ae81-80a41e792afb","ios":"levelo://app?vid=f094a661-8611-4c91-ae81-80a41e792afb"},"vehicle_type_id":"4","last_reported":1740748677,"current_range_meters":13600,"station_id":"ce4bhnp2rcd13ifvqgvg","pricing_plan_id":"cebpf4jnsgd1na2vs0mg"},{"bike_id":"9088348a-4570-462c-9e76-8e4a6bf3aa5b","system_id":"levelo_inurba_marseille","lat":43.30536,"lon":5.3654,"is_reserved":false,"is_disabled":false,"rental_uris":{"android":"levelo://app?vid=9088348a-4570-462c-9e76-8e4a6bf3aa5b","ios":"levelo://app?vid=9088348a-4570-462c-9e76-8e4a6bf3aa5b"},"vehicle_type_id":"4","last_reported":1740748677,"current_range_meters":14400,"station_id":"ce4bgs12rcd13ifvqcag","pricing_plan_id":"cebpf4jnsgd1na2vs0mg"},{"bike_id":"593edb3c-7add-4a3d-9dbe-95cef549de0d","system_id":"levelo_inurba_marseille","lat":43.23066,"lon":5.35492,"is_reserved":false,"is_disabled":false,"rental_uris":{"android":"levelo://app?vid=593edb3c-7add-4a3d-9dbe-95cef549de0d","ios":"levelo://app?vid=593edb3c-7add-4a3d-9dbe-95cef549de0d"},"vehicle_type_id":"4","last_reported":1740748677,"current_range_meters":14000,"station_id":"cpo3342slgdg3j2ifvpg","pricing_plan_id":"cebpf4jnsgd1na2vs0mg"},{"bike_id":"435de083-a59d-4d02-bb25-ac546a68f18f","system_id":"levelo_inurba_marseille","lat":43.23972,"lon":5.36626,"is_reserved":false,"is_disabled":false,"rental_uris":{"android":"levelo://app?vid=435de083-a59d-4d02-bb25-ac546a68f18f","ios":"levelo://app?vid=435de083-a59d-4d02-bb25-ac546a68f18f"},"vehicle_type_id":"4","last_reported":1740748677,"current_range_meters":14400,"station_id":"ce4bhi12rcd13ifvqfp0","pricing_plan_id":"cebpf4jnsgd1na2vs0mg"},{"bike_id":"a2d1254e-7615-4685-9808-11fb1391d415","system_id":"levelo_inurba_marseille","lat":43.275558,"lon":5.384172,"is_reserved":false,"is_disabled":false,"rental_uris":{"android":"levelo://app?vid=a2d1254e-7615-4685-9808-11fb1391d415","ios":"levelo://app?vid=a2d1254e-7615-4685-9808-11fb1391d415"},"vehicle_type_id":"4","last_reported":1740748677,"current_range_meters":14800,"station_id":"ce4bhh92rcd13ifvqfi0","pricing_plan_id":"cebpf4jnsgd1na2vs0mg"},{"bike_id":"40934b71-845e-4f3a-bef6-a23530397ee7","system_id":"levelo_inurba_marseille","lat":43.28273,"lon":5.35052,"is_reserved":false,"is_disabled":false,"rental_uris":{"android":"levelo://app?vid=40934b71-845e-4f3a-bef6-a23530397ee7","ios":"levelo://app?vid=40934b71-845e-4f3a-bef6-a23530397ee7"},"vehicle_type_id":"4","last_reported":1740748677,"current_range_meters":14400,"station_id":"ce4bhbp2rcd13ifvqerg","pricing_plan_id":"cebpf4jnsgd1na2vs0mg"},{"bike_id":"364b209e-752e-45ea-b26c-06b2552c1833","system_id":"levelo_inurba_marseille","lat":43.231899,"lon":5.355609,"is_reserved":false,"is_disabled":false,"rental_uris":{"android":"levelo://app?vid=364b209e-752e-45ea-b26c-06b2552c1833","ios":"levelo://app?vid=364b209e-752e-45ea-b26c-06b2552c1833"},"vehicle_type_id":"4","last_reported":1740748677,"current_range_meters":14800,"station_id":"ce4bhu92rcd13ifvqi70","pricing_plan_id":"cebpf4jnsgd1na2vs0mg"},{"bike_id":"f5e9db34-a9e6-433a-9db6-bb60bac322eb","system_id":"levelo_inurba_marseille","lat":43.29093,"lon":5.38127,"is_reserved":false,"is_disabled":false,"rental_uris":{"android":"levelo://app?vid=f5e9db34-a9e6-433a-9db6-bb60bac322eb","ios":"levelo://app?vid=f5e9db34-a9e6-433a-9db6-bb60bac322eb"},"vehicle_type_id":"4","last_reported":1740748677,"current_range_meters":14800,"station_id":"ce4bh512rcd13ifvqe2g","pricing_plan_id":"cebpf4jnsgd1na2vs0mg"},{"bike_id":"babb3f0a-4053-42bb-99dc-14c2457e0063","system_id":"levelo_inurba_marseille","lat":43.25934,"lon":5.40904,"is_reserved":false,"is_disabled":false,"rental_uris":{"android":"levelo://app?vid=babb3f0a-4053-42bb-99dc-14c2457e0063","ios":"levelo://app?vid=babb3f0a-4053-42bb-99dc-14c2457e0063"},"vehicle_type_id":"4","last_reported":1740748677,"current_range_meters":14400,"station_id":"ce4bhm92rcd13ifvqglg","pricing_plan_id":"cebpf4jnsgd1na2vs0mg"},{"bike_id":"3a80cc7d-bb3a-491a-82a4-2c00272ecdf1","system_id":"levelo_inurba_marseille","lat":43.30529,"lon":5.37867,"is_reserved":false,"is_disabled":false,"rental_uris":{"android":"levelo://app?vid=3a80cc7d-bb3a-491a-82a4-2c00272ecdf1","ios":"levelo://app?vid=3a80cc7d-bb3a-491a-82a4-2c00272ecdf1"},"vehicle_type_id":"4","last_reported":1740748677,"current_range_meters":14800,"station_id":"","pricing_plan_id":"cebpf4jnsgd1na2vs0mg"},{"bike_id":"f00788a2-0a2f-43a1-8323-5b5bb0f3d51d","system_id":"levelo_inurba_marseille","lat":43.27947,"lon":5.4102,"is_reserved":false,"is_disabled":false,"rental_uris":{"android":"levelo://app?vid=f00788a2-0a2f-43a1-8323-5b5bb0f3d51d","ios":"levelo://app?vid=f00788a2-0a2f-43a1-8323-5b5bb0f3d51d"},"vehicle_type_id":"4","last_reported":1740748677,"current_range_meters":14800,"station_id":"ce4bhnp2rcd13ifvqh0g","pricing_plan_id":"cebpf4jnsgd1na2vs0mg"},{"bike_id":"c3879c4a-1f8e-4ca7-8a3b-195d6726be8b","system_id":"levelo_inurba_marseille","lat":43.30153,"lon":5.38083,"is_reserved":false,"is_disabled":false,"rental_uris":{"android":"levelo://app?vid=c3879c4a-1f8e-4ca7-8a3b-195d6726be8b","ios":"levelo://app?vid=c3879c4a-1f8e-4ca7-8a3b-195d6726be8b"},"vehicle_type_id":"4","last_reported":1740748677,"current_range_meters":14800,"station_id":"ce4bgjp2rcd13ifvqbh0","pricing_plan_id":"cebpf4jnsgd1na2vs0mg"},{"bike_id":"f7a20cba-2399-49fd-8468-072e901dffab","system_id":"levelo_inurba_marseille","lat":43.3248,"lon":5.37836,"is_reserved":false,"is_disabled":false,"rental_uris":{"android":"levelo://app?vid=f7a20cba-2399-49fd-8468-072e901dffab","ios":"levelo://app?vid=f7a20cba-2399-49fd-8468-072e901dffab"},"vehicle_type_id":"4","last_reported":1740748677,"current_range_meters":14800,"station_id":"","pricing_plan_id":"cebpf4jnsgd1na2vs0mg"},{"bike_id":"49e9cdc7-76a5-4b66-ae2d-61c73beb73a8","system_id":"levelo_inurba_marseille","lat":43.2418,"lon":5.36406,"is_reserved":false,"is_disabled":false,"rental_uris":{"android":"levelo://app?vid=49e9cdc7-76a5-4b66-ae2d-61c73beb73a8","ios":"levelo://app?vid=49e9cdc7-76a5-4b66-ae2d-61c73beb73a8"},"vehicle_type_id":"4","last_reported":1740748677,"current_range_meters":14800,"station_id":"cpo36qri1sfpv3e86is0","pricing_plan_id":"cebpf4jnsgd1na2vs0mg"},{"bike_id":"67d57d60-f4d2-4a73-9196-6d581f723bad","system_id":"levelo_inurba_marseille","lat":43.29554,"lon":5.42288,"is_reserved":false,"is_disabled":false,"rental_uris":{"android":"levelo://app?vid=67d57d60-f4d2-4a73-9196-6d581f723bad","ios":"levelo://app?vid=67d57d60-f4d2-4a73-9196-6d581f723bad"},"vehicle_type_id":"4","last_reported":1740748677,"current_range_meters":15200,"station_id":"ce4bhph2rcd13ifvqhdg","pricing_plan_id":"cebpf4jnsgd1na2vs0mg"},{"bike_id":"5e83dd7b-d50e-4278-b622-eebb9ef1270a","system_id":"levelo_inurba_marseille","lat":43.28259,"lon":5.35058,"is_reserved":false,"is_disabled":false,"rental_uris":{"android":"levelo://app?vid=5e83dd7b-d50e-4278-b622-eebb9ef1270a","ios":"levelo://app?vid=5e83dd7b-d50e-4278-b622-eebb9ef1270a"},"vehicle_type_id":"4","last_reported":1740748677,"current_range_meters":14800,"station_id":"ce4bhbp2rcd13ifvqerg","pricing_plan_id":"cebpf4jnsgd1na2vs0mg"},{"bike_id":"695095d5-5fc6-4988-a3dd-b821d1019994","system_id":"levelo_inurba_marseille","lat":43.313744,"lon":5.384728,"is_reserved":false,"is_disabled":false,"rental_uris":{"android":"levelo://app?vid=695095d5-5fc6-4988-a3dd-b821d1019994","ios":"levelo://app?vid=695095d5-5fc6-4988-a3dd-b821d1019994"},"vehicle_type_id":"4","last_reported":1740748677,"current_range_meters":14800,"station_id":"ce4bgt92rcd13ifvqcf0","pricing_plan_id":"cebpf4jnsgd1na2vs0mg"},{"bike_id":"26dd1692-b0db-4ea9-adef-4d2c72fda3c9","system_id":"levelo_inurba_marseille","lat":43.2407,"lon":5.37765,"is_reserved":false,"is_disabled":false,"rental_uris":{"android":"levelo://app?vid=26dd1692-b0db-4ea9-adef-4d2c72fda3c9","ios":"levelo://app?vid=26dd1692-b0db-4ea9-adef-4d2c72fda3c9"},"vehicle_type_id":"4","last_reported":1740748677,"current_range_meters":12400,"station_id":"ce4bhnp2rcd13ifvqgvg","pricing_plan_id":"cebpf4jnsgd1na2vs0mg"},{"bike_id":"a3e5bc3f-1b70-42f6-b531-8e4e3c6c7a21","system_id":"levelo_inurba_marseille","lat":43.30532,"lon":5.3843,"is_reserved":false,"is_disabled":false,"rental_uris":{"android":"levelo://app?vid=a3e5bc3f-1b70-42f6-b531-8e4e3c6c7a21","ios":"levelo://app?vid=a3e5bc3f-1b70-42f6-b531-8e4e3c6c7a21"},"vehicle_type_id":"4","last_reported":1740748677,"current_range_meters":15200,"station_id":"ce4bgg92rcd13ifvqb30","pricing_plan_id":"cebpf4jnsgd1na2vs0mg"},{"bike_id":"5030a670-2140-4464-942c-f431c57567a6","system_id":"levelo_inurba_marseille","lat":43.33609,"lon":5.41023,"is_reserved":false,"is_disabled":false,"rental_uris":{"android":"levelo://app?vid=5030a670-2140-4464-942c-f431c57567a6","ios":"levelo://app?vid=5030a670-2140-4464-942c-f431c57567a6"},"vehicle_type_id":"4","last_reported":1740748677,"current_range_meters":13600,"station_id":"ce4bhqh2rcd13ifvqhmg","pricing_plan_id":"cebpf4jnsgd1na2vs0mg"},{"bike_id":"740d45fa-222b-4b5f-ae64-54c8bef64da1","system_id":"levelo_inurba_marseille","lat":43.28273,"lon":5.35075,"is_reserved":false,"is_disabled":false,"rental_uris":{"android":"levelo://app?vid=740d45fa-222b-4b5f-ae64-54c8bef64da1","ios":"levelo://app?vid=740d45fa-222b-4b5f-ae64-54c8bef64da1"},"vehicle_type_id":"4","last_reported":1740748677,"current_range_meters":14400,"station_id":"ce4bhbp2rcd13ifvqerg","pricing_plan_id":"cebpf4jnsgd1na2vs0mg"},{"bike_id":"72460d82-7fe4-4f55-be12-a445b7ea0a81","system_id":"levelo_inurba_marseille","lat":43.29038,"lon":5.37574,"is_reserved":false,"is_disabled":false,"rental_uris":{"android":"levelo://app?vid=72460d82-7fe4-4f55-be12-a445b7ea0a81","ios":"levelo://app?vid=72460d82-7fe4-4f55-be12-a445b7ea0a81"},"vehicle_type_id":"4","last_reported":1740748677,"current_range_meters":15200,"station_id":"ce4bh692rcd13ifvqe90","pricing_plan_id":"cebpf4jnsgd1na2vs0mg"},{"bike_id":"9b1fa74d-3047-4714-a2f4-39ccdce86ed8","system_id":"levelo_inurba_marseille","lat":43.303143,"lon":5.36917,"is_reserved":false,"is_disabled":false,"rental_uris":{"android":"levelo://app?vid=9b1fa74d-3047-4714-a2f4-39ccdce86ed8","ios":"levelo://app?vid=9b1fa74d-3047-4714-a2f4-39ccdce86ed8"},"vehicle_type_id":"4","last_reported":1740748677,"current_range_meters":15200,"station_id":"ce4bgqh2rcd13ifvqc5g","pricing_plan_id":"cebpf4jnsgd1na2vs0mg"},{"bike_id":"8b383fad-f10f-4d6c-aa72-edd1d8053e2b","system_id":"levelo_inurba_marseille","lat":43.29995,"lon":5.37341,"is_reserved":false,"is_disabled":false,"rental_uris":{"android":"levelo://app?vid=8b383fad-f10f-4d6c-aa72-edd1d8053e2b","ios":"levelo://app?vid=8b383fad-f10f-4d6c-aa72-edd1d8053e2b"},"vehicle_type_id":"4","last_reported":1740748677,"current_range_meters":16000,"station_id":"","pricing_plan_id":"cebpf4jnsgd1na2vs0mg"},{"bike_id":"ade1bf8d-0128-4546-af25-039e035e7009","system_id":"levelo_inurba_marseille","lat":43.26028,"lon":5.37555,"is_reserved":false,"is_disabled":false,"rental_uris":{"android":"levelo://app?vid=ade1bf8d-0128-4546-af25-039e035e7009","ios":"levelo://app?vid=ade1bf8d-0128-4546-af25-039e035e7009"},"vehicle_type_id":"4","last_reported":1740748677,"current_range_meters":16000,"station_id":"ce4bhgh2rcd13ifvqfa0","pricing_plan_id":"cebpf4jnsgd1na2vs0mg"},{"bike_id":"c84f47e5-27b1-47a9-a2d2-ba104cc1f39a","system_id":"levelo_inurba_marseille","lat":43.32363,"lon":5.36782,"is_reserved":false,"is_disabled":false,"rental_uris":{"android":"levelo://app?vid=c84f47e5-27b1-47a9-a2d2-ba104cc1f39a","ios":"levelo://app?vid=c84f47e5-27b1-47a9-a2d2-ba104cc1f39a"},"vehicle_type_id":"4","last_reported":1740748677,"current_range_meters":16000,"station_id":"ce4bhsh2rcd13ifvqi2g","pricing_plan_id":"cebpf4jnsgd1na2vs0mg"},{"bike_id":"e280b146-7258-4063-a351-8701d2c8e01b","system_id":"levelo_inurba_marseille","lat":43.30599,"lon":5.37218,"is_reserved":false,"is_disabled":false,"rental_uris":{"android":"levelo://app?vid=e280b146-7258-4063-a351-8701d2c8e01b","ios":"levelo://app?vid=e280b146-7258-4063-a351-8701d2c8e01b"},"vehicle_type_id":"4","last_reported":1740748677,"current_range_meters":16000,"station_id":"ce4bgqh2rcd13ifvqc4g","pricing_plan_id":"cebpf4jnsgd1na2vs0mg"},{"bike_id":"9d0546b9-abb6-4ae3-9ed7-8d418444c7ba","system_id":"levelo_inurba_marseille","lat":43.23197,"lon":5.35549,"is_reserved":false,"is_disabled":false,"rental_uris":{"android":"levelo://app?vid=9d0546b9-abb6-4ae3-9ed7-8d418444c7ba","ios":"levelo://app?vid=9d0546b9-abb6-4ae3-9ed7-8d418444c7ba"},"vehicle_type_id":"4","last_reported":1740748677,"current_range_meters":16000,"station_id":"ce4bhu92rcd13ifvqi70","pricing_plan_id":"cebpf4jnsgd1na2vs0mg"},{"bike_id":"c8649755-e93f-4cda-a4ed-aa72cd8d18a8","system_id":"levelo_inurba_marseille","lat":43.28006,"lon":5.4002,"is_reserved":false,"is_disabled":false,"rental_uris":{"android":"levelo://app?vid=c8649755-e93f-4cda-a4ed-aa72cd8d18a8","ios":"levelo://app?vid=c8649755-e93f-4cda-a4ed-aa72cd8d18a8"},"vehicle_type_id":"4","last_reported":1740748677,"current_range_meters":16000,"station_id":"ce4bho92rcd13ifvqh4g","pricing_plan_id":"cebpf4jnsgd1na2vs0mg"},{"bike_id":"f4d0cf1e-47b8-44e6-ad83-725a91000b3f","system_id":"levelo_inurba_marseille","lat":43.29274,"lon":5.36846,"is_reserved":false,"is_disabled":false,"rental_uris":{"android":"levelo://app?vid=f4d0cf1e-47b8-44e6-ad83-725a91000b3f","ios":"levelo://app?vid=f4d0cf1e-47b8-44e6-ad83-725a91000b3f"},"vehicle_type_id":"4","last_reported":1740748677,"current_range_meters":16000,"station_id":"ce4bhbp2rcd13ifvqesg","pricing_plan_id":"cebpf4jnsgd1na2vs0mg"},{"bike_id":"597c78d8-1097-48db-b3be-fafc8754eab9","system_id":"levelo_inurba_marseille","lat":43.2417,"lon":5.36399,"is_reserved":false,"is_disabled":false,"rental_uris":{"android":"levelo://app?vid=597c78d8-1097-48db-b3be-fafc8754eab9","ios":"levelo://app?vid=597c78d8-1097-48db-b3be-fafc8754eab9"},"vehicle_type_id":"4","last_reported":1740748677,"current_range_meters":16000,"station_id":"cpo36qri1sfpv3e86is0","pricing_plan_id":"cebpf4jnsgd1na2vs0mg"},{"bike_id":"f0a44aba-4331-4e5d-b9b4-7323e6090780","system_id":"levelo_inurba_marseille","lat":43.31755,"lon":5.39017,"is_reserved":false,"is_disabled":false,"rental_uris":{"android":"levelo://app?vid=f0a44aba-4331-4e5d-b9b4-7323e6090780","ios":"levelo://app?vid=f0a44aba-4331-4e5d-b9b4-7323e6090780"},"vehicle_type_id":"4","last_reported":1740748677,"current_range_meters":15200,"station_id":"ce4bhqp2rcd13ifvqhng","pricing_plan_id":"cebpf4jnsgd1na2vs0mg"},{"bike_id":"00be5e14-a31d-406b-a5dd-acc7bb68b1a0","system_id":"levelo_inurba_marseille","lat":43.29252,"lon":5.3761,"is_reserved":false,"is_disabled":false,"rental_uris":{"android":"levelo://app?vid=00be5e14-a31d-406b-a5dd-acc7bb68b1a0","ios":"levelo://app?vid=00be5e14-a31d-406b-a5dd-acc7bb68b1a0"},"vehicle_type_id":"4","last_reported":1740748677,"current_range_meters":16000,"station_id":"ce4bgi12rcd13ifvqb80","pricing_plan_id":"cebpf4jnsgd1na2vs0mg"},{"bike_id":"f1ee1f3c-a29e-412d-891f-b8df83c4f4ac","system_id":"levelo_inurba_marseille","lat":43.30596,"lon":5.37209,"is_reserved":false,"is_disabled":false,"rental_uris":{"android":"levelo://app?vid=f1ee1f3c-a29e-412d-891f-b8df83c4f4ac","ios":"levelo://app?vid=f1ee1f3c-a29e-412d-891f-b8df83c4f4ac"},"vehicle_type_id":"4","last_reported":1740748677,"current_range_meters":16000,"station_id":"ce4bgqh2rcd13ifvqc4g","pricing_plan_id":"cebpf4jnsgd1na2vs0mg"},{"bike_id":"7f664b6f-782d-4c22-9ef7-d7d25fe464e8","system_id":"levelo_inurba_marseille","lat":43.32546,"lon":5.41434,"is_reserved":false,"is_disabled":false,"rental_uris":{"android":"levelo://app?vid=7f664b6f-782d-4c22-9ef7-d7d25fe464e8","ios":"levelo://app?vid=7f664b6f-782d-4c22-9ef7-d7d25fe464e8"},"vehicle_type_id":"4","last_reported":1740748677,"current_range_meters":16400,"station_id":"ce4bhq12rcd13ifvqhhg","pricing_plan_id":"cebpf4jnsgd1na2vs0mg"},{"bike_id":"0cf146ff-de41-4ca4-bca9-2b3f1de2d70d","system_id":"levelo_inurba_marseille","lat":43.28569,"lon":5.39493,"is_reserved":false,"is_disabled":false,"rental_uris":{"android":"levelo://app?vid=0cf146ff-de41-4ca4-bca9-2b3f1de2d70d","ios":"levelo://app?vid=0cf146ff-de41-4ca4-bca9-2b3f1de2d70d"},"vehicle_type_id":"4","last_reported":1740748677,"current_range_meters":15200,"station_id":"ce4bh292rcd13ifvqdg0","pricing_plan_id":"cebpf4jnsgd1na2vs0mg"},{"bike_id":"df5e2f43-22c4-456f-9bb7-ad548083c724","system_id":"levelo_inurba_marseille","lat":43.28727,"lon":5.36093,"is_reserved":false,"is_disabled":false,"rental_uris":{"android":"levelo://app?vid=df5e2f43-22c4-456f-9bb7-ad548083c724","ios":"levelo://app?vid=df5e2f43-22c4-456f-9bb7-ad548083c724"},"vehicle_type_id":"4","last_reported":1740748677,"current_range_meters":16400,"station_id":"cki0cbj6b192h4jlfktg","pricing_plan_id":"cebpf4jnsgd1na2vs0mg"},{"bike_id":"2193ae5d-0953-4459-a4f7-d70be091ec85","system_id":"levelo_inurba_marseille","lat":43.28472,"lon":5.38539,"is_reserved":false,"is_disabled":false,"rental_uris":{"android":"levelo://app?vid=2193ae5d-0953-4459-a4f7-d70be091ec85","ios":"levelo://app?vid=2193ae5d-0953-4459-a4f7-d70be091ec85"},"vehicle_type_id":"4","last_reported":1740748677,"current_range_meters":16400,"station_id":"ce4bh8p2rcd13ifvqeb0","pricing_plan_id":"cebpf4jnsgd1na2vs0mg"},{"bike_id":"11f69701-40cb-42fa-b999-191d2ddec72d","system_id":"levelo_inurba_marseille","lat":43.29306,"lon":5.37169,"is_reserved":false,"is_disabled":false,"rental_uris":{"android":"levelo://app?vid=11f69701-40cb-42fa-b999-191d2ddec72d","ios":"levelo://app?vid=11f69701-40cb-42fa-b999-191d2ddec72d"},"vehicle_type_id":"4","last_reported":1740748677,"current_range_meters":16000,"station_id":"ce4bgh92rcd13ifvqb40","pricing_plan_id":"cebpf4jnsgd1na2vs0mg"},{"bike_id":"0dc32ec3-4fe6-4aff-9074-665fa0019546","system_id":"levelo_inurba_marseille","lat":43.28557,"lon":5.39493,"is_reserved":false,"is_disabled":false,"rental_uris":{"android":"levelo://app?vid=0dc32ec3-4fe6-4aff-9074-665fa0019546","ios":"levelo://app?vid=0dc32ec3-4fe6-4aff-9074-665fa0019546"},"vehicle_type_id":"4","last_reported":1740748677,"current_range_meters":16000,"station_id":"ce4bh292rcd13ifvqdg0","pricing_plan_id":"cebpf4jnsgd1na2vs0mg"},{"bike_id":"695e9a27-d903-4bbc-b050-bcc463be80aa","system_id":"levelo_inurba_marseille","lat":43.24178,"lon":5.36403,"is_reserved":false,"is_disabled":false,"rental_uris":{"android":"levelo://app?vid=695e9a27-d903-4bbc-b050-bcc463be80aa","ios":"levelo://app?vid=695e9a27-d903-4bbc-b050-bcc463be80aa"},"vehicle_type_id":"4","last_reported":1740748677,"current_range_meters":16400,"station_id":"cpo36qri1sfpv3e86is0","pricing_plan_id":"cebpf4jnsgd1na2vs0mg"},{"bike_id":"3ebd0a03-7b8f-425c-9088-3b37fc0c0799","system_id":"levelo_inurba_marseille","lat":43.29577,"lon":5.36737,"is_reserved":false,"is_disabled":false,"rental_uris":{"android":"levelo://app?vid=3ebd0a03-7b8f-425c-9088-3b37fc0c0799","ios":"levelo://app?vid=3ebd0a03-7b8f-425c-9088-3b37fc0c0799"},"vehicle_type_id":"4","last_reported":1740748677,"current_range_meters":16400,"station_id":"ce4bgph2rcd13ifvqc2g","pricing_plan_id":"cebpf4jnsgd1na2vs0mg"},{"bike_id":"2693da2c-4969-43ef-b7aa-53da9d4dfdf9","system_id":"levelo_inurba_marseille","lat":43.30274,"lon":5.37705,"is_reserved":false,"is_disabled":false,"rental_uris":{"android":"levelo://app?vid=2693da2c-4969-43ef-b7aa-53da9d4dfdf9","ios":"levelo://app?vid=2693da2c-4969-43ef-b7aa-53da9d4dfdf9"},"vehicle_type_id":"4","last_reported":1740748677,"current_range_meters":16400,"station_id":"ce4bguh2rcd13ifvqcj0","pricing_plan_id":"cebpf4jnsgd1na2vs0mg"},{"bike_id":"f9f6bb57-d9a4-471d-95a7-50892c4dbabd","system_id":"levelo_inurba_marseille","lat":43.29851,"lon":5.36289,"is_reserved":false,"is_disabled":false,"rental_uris":{"android":"levelo://app?vid=f9f6bb57-d9a4-471d-95a7-50892c4dbabd","ios":"levelo://app?vid=f9f6bb57-d9a4-471d-95a7-50892c4dbabd"},"vehicle_type_id":"4","last_reported":1740748677,"current_range_meters":16400,"station_id":"ce4bgpp2rcd13ifvqc3g","pricing_plan_id":"cebpf4jnsgd1na2vs0mg"},{"bike_id":"facaf047-3da5-4378-b7a4-1e20ad0b4398","system_id":"levelo_inurba_marseille","lat":43.29795,"lon":5.38086,"is_reserved":false,"is_disabled":false,"rental_uris":{"android":"levelo://app?vid=facaf047-3da5-4378-b7a4-1e20ad0b4398","ios":"levelo://app?vid=facaf047-3da5-4378-b7a4-1e20ad0b4398"},"vehicle_type_id":"4","last_reported":1740748677,"current_range_meters":16000,"station_id":"ce4bgip2rcd13ifvqbb0","pricing_plan_id":"cebpf4jnsgd1na2vs0mg"},{"bike_id":"5afe3ca4-4293-472f-af4b-7206f75b5a44","system_id":"levelo_inurba_marseille","lat":43.29845,"lon":5.36266,"is_reserved":false,"is_disabled":false,"rental_uris":{"android":"levelo://app?vid=5afe3ca4-4293-472f-af4b-7206f75b5a44","ios":"levelo://app?vid=5afe3ca4-4293-472f-af4b-7206f75b5a44"},"vehicle_type_id":"4","last_reported":1740748677,"current_range_meters":16400,"station_id":"ce4bgpp2rcd13ifvqc3g","pricing_plan_id":"cebpf4jnsgd1na2vs0mg"},{"bike_id":"7dedb0b8-a7d7-446b-83f1-b302fc3670fc","system_id":"levelo_inurba_marseille","lat":43.30212,"lon":5.39476,"is_reserved":false,"is_disabled":false,"rental_uris":{"android":"levelo://app?vid=7dedb0b8-a7d7-446b-83f1-b302fc3670fc","ios":"levelo://app?vid=7dedb0b8-a7d7-446b-83f1-b302fc3670fc"},"vehicle_type_id":"4","last_reported":1740748677,"current_range_meters":16000,"station_id":"ce4bh0p2rcd13ifvqd70","pricing_plan_id":"cebpf4jnsgd1na2vs0mg"},{"bike_id":"27f8d61f-de01-4772-8b8c-ceceaf4de61e","system_id":"levelo_inurba_marseille","lat":43.29061,"lon":5.37145,"is_reserved":false,"is_disabled":true,"rental_uris":{"android":"levelo://app?vid=27f8d61f-de01-4772-8b8c-ceceaf4de61e","ios":"levelo://app?vid=27f8d61f-de01-4772-8b8c-ceceaf4de61e"},"vehicle_type_id":"4","last_reported":1740748677,"current_range_meters":16400,"station_id":"ce4bh5p2rcd13ifvqe4g","pricing_plan_id":"cebpf4jnsgd1na2vs0mg"},{"bike_id":"8c86cb21-5e53-44c8-a766-70640a93721c","system_id":"levelo_inurba_marseille","lat":43.291677,"lon":5.375601,"is_reserved":false,"is_disabled":false,"rental_uris":{"android":"levelo://app?vid=8c86cb21-5e53-44c8-a766-70640a93721c","ios":"levelo://app?vid=8c86cb21-5e53-44c8-a766-70640a93721c"},"vehicle_type_id":"4","last_reported":1740748677,"current_range_meters":16800,"station_id":"","pricing_plan_id":"cebpf4jnsgd1na2vs0mg"},{"bike_id":"64fc1650-f3a1-4993-be35-bbc0c55c0232","system_id":"levelo_inurba_marseille","lat":43.27808,"lon":5.3625,"is_reserved":false,"is_disabled":false,"rental_uris":{"android":"levelo://app?vid=64fc1650-f3a1-4993-be35-bbc0c55c0232","ios":"levelo://app?vid=64fc1650-f3a1-4993-be35-bbc0c55c0232"},"vehicle_type_id":"4","last_reported":1740748677,"current_range_meters":16800,"station_id":"","pricing_plan_id":"cebpf4jnsgd1na2vs0mg"},{"bike_id":"322a5157-dba3-4f1c-a227-8f0c73bec3b1","system_id":"levelo_inurba_marseille","lat":43.27055,"lon":5.40263,"is_reserved":false,"is_disabled":false,"rental_uris":{"android":"levelo://app?vid=322a5157-dba3-4f1c-a227-8f0c73bec3b1","ios":"levelo://app?vid=322a5157-dba3-4f1c-a227-8f0c73bec3b1"},"vehicle_type_id":"4","last_reported":1740748677,"current_range_meters":16800,"station_id":"ce4bhk92rcd13ifvqgc0","pricing_plan_id":"cebpf4jnsgd1na2vs0mg"},{"bike_id":"a43d23d2-0d6e-4cf7-8691-8ab079a8ff69","system_id":"levelo_inurba_marseille","lat":43.2989,"lon":5.43646,"is_reserved":false,"is_disabled":false,"rental_uris":{"android":"levelo://app?vid=a43d23d2-0d6e-4cf7-8691-8ab079a8ff69","ios":"levelo://app?vid=a43d23d2-0d6e-4cf7-8691-8ab079a8ff69"},"vehicle_type_id":"4","last_reported":1740748677,"current_range_meters":16800,"station_id":"ce4bhpp2rcd13ifvqhfg","pricing_plan_id":"cebpf4jnsgd1na2vs0mg"},{"bike_id":"4015c440-7267-44b4-8be2-f4b87cb51aa9","system_id":"levelo_inurba_marseille","lat":43.25579,"lon":5.38232,"is_reserved":false,"is_disabled":false,"rental_uris":{"android":"levelo://app?vid=4015c440-7267-44b4-8be2-f4b87cb51aa9","ios":"levelo://app?vid=4015c440-7267-44b4-8be2-f4b87cb51aa9"},"vehicle_type_id":"4","last_reported":1740748677,"current_range_meters":16800,"station_id":"ce4bhih2rcd13ifvqfs0","pricing_plan_id":"cebpf4jnsgd1na2vs0mg"},{"bike_id":"766f9252-76ba-4151-9194-6d162e66f1d3","system_id":"levelo_inurba_marseille","lat":43.24811,"lon":5.37463,"is_reserved":false,"is_disabled":false,"rental_uris":{"android":"levelo://app?vid=766f9252-76ba-4151-9194-6d162e66f1d3","ios":"levelo://app?vid=766f9252-76ba-4151-9194-6d162e66f1d3"},"vehicle_type_id":"4","last_reported":1740748677,"current_range_meters":16800,"station_id":"ce4bhgh2rcd13ifvqfb0","pricing_plan_id":"cebpf4jnsgd1na2vs0mg"},{"bike_id":"6a68f2e7-2ecc-40b9-a7c1-86d274611a06","system_id":"levelo_inurba_marseille","lat":43.30533,"lon":5.36704,"is_reserved":false,"is_disabled":false,"rental_uris":{"android":"levelo://app?vid=6a68f2e7-2ecc-40b9-a7c1-86d274611a06","ios":"levelo://app?vid=6a68f2e7-2ecc-40b9-a7c1-86d274611a06"},"vehicle_type_id":"4","last_reported":1740748677,"current_range_meters":16800,"station_id":"ce4bgrp2rcd13ifvqc9g","pricing_plan_id":"cebpf4jnsgd1na2vs0mg"},{"bike_id":"f18c2d38-27b4-4fc8-8ead-33215890d3a1","system_id":"levelo_inurba_marseille","lat":43.29681,"lon":5.37285,"is_reserved":false,"is_disabled":false,"rental_uris":{"android":"levelo://app?vid=f18c2d38-27b4-4fc8-8ead-33215890d3a1","ios":"levelo://app?vid=f18c2d38-27b4-4fc8-8ead-33215890d3a1"},"vehicle_type_id":"4","last_reported":1740748677,"current_range_meters":16800,"station_id":"ce4bgk12rcd13ifvqbj0","pricing_plan_id":"cebpf4jnsgd1na2vs0mg"},{"bike_id":"e63b8cf2-cef6-4a6a-8953-918dfab45f44","system_id":"levelo_inurba_marseille","lat":43.29713,"lon":5.37698,"is_reserved":false,"is_disabled":false,"rental_uris":{"android":"levelo://app?vid=e63b8cf2-cef6-4a6a-8953-918dfab45f44","ios":"levelo://app?vid=e63b8cf2-cef6-4a6a-8953-918dfab45f44"},"vehicle_type_id":"4","last_reported":1740748677,"current_range_meters":16400,"station_id":"ce4bgkh2rcd13ifvqbl0","pricing_plan_id":"cebpf4jnsgd1na2vs0mg"},{"bike_id":"1d0bb0c5-e27f-439d-8032-c52132661a56","system_id":"levelo_inurba_marseille","lat":43.29525,"lon":5.39054,"is_reserved":false,"is_disabled":false,"rental_uris":{"android":"levelo://app?vid=1d0bb0c5-e27f-439d-8032-c52132661a56","ios":"levelo://app?vid=1d0bb0c5-e27f-439d-8032-c52132661a56"},"vehicle_type_id":"4","last_reported":1740748677,"current_range_meters":16400,"station_id":"ce4bh3p2rcd13ifvqdp0","pricing_plan_id":"cebpf4jnsgd1na2vs0mg"},{"bike_id":"87828594-4a81-4fb6-9367-d468b3e65fb6","system_id":"levelo_inurba_marseille","lat":43.28274,"lon":5.35068,"is_reserved":false,"is_disabled":false,"rental_uris":{"android":"levelo://app?vid=87828594-4a81-4fb6-9367-d468b3e65fb6","ios":"levelo://app?vid=87828594-4a81-4fb6-9367-d468b3e65fb6"},"vehicle_type_id":"4","last_reported":1740748677,"current_range_meters":16400,"station_id":"ce4bhbp2rcd13ifvqerg","pricing_plan_id":"cebpf4jnsgd1na2vs0mg"},{"bike_id":"6c00e2bd-c1a0-4878-ab7d-bb856a589cae","system_id":"levelo_inurba_marseille","lat":43.2558,"lon":5.38224,"is_reserved":false,"is_disabled":false,"rental_uris":{"android":"levelo://app?vid=6c00e2bd-c1a0-4878-ab7d-bb856a589cae","ios":"levelo://app?vid=6c00e2bd-c1a0-4878-ab7d-bb856a589cae"},"vehicle_type_id":"4","last_reported":1740748677,"current_range_meters":16800,"station_id":"ce4bhih2rcd13ifvqfs0","pricing_plan_id":"cebpf4jnsgd1na2vs0mg"},{"bike_id":"57ec8465-c3c9-4132-bf64-41992c2bd7c6","system_id":"levelo_inurba_marseille","lat":43.31225,"lon":5.36851,"is_reserved":false,"is_disabled":false,"rental_uris":{"android":"levelo://app?vid=57ec8465-c3c9-4132-bf64-41992c2bd7c6","ios":"levelo://app?vid=57ec8465-c3c9-4132-bf64-41992c2bd7c6"},"vehicle_type_id":"4","last_reported":1740748677,"current_range_meters":16800,"station_id":"ce4bgl92rcd13ifvqbq0","pricing_plan_id":"cebpf4jnsgd1na2vs0mg"},{"bike_id":"8d91c655-19ff-47c9-a3e3-8857cd75c678","system_id":"levelo_inurba_marseille","lat":43.24825,"lon":5.3745,"is_reserved":false,"is_disabled":false,"rental_uris":{"android":"levelo://app?vid=8d91c655-19ff-47c9-a3e3-8857cd75c678","ios":"levelo://app?vid=8d91c655-19ff-47c9-a3e3-8857cd75c678"},"vehicle_type_id":"4","last_reported":1740748677,"current_range_meters":17200,"station_id":"ce4bhgh2rcd13ifvqfb0","pricing_plan_id":"cebpf4jnsgd1na2vs0mg"},{"bike_id":"0693b9d6-4a9d-4e38-bfa2-80f934bcc2e3","system_id":"levelo_inurba_marseille","lat":43.24169,"lon":5.364111,"is_reserved":false,"is_disabled":false,"rental_uris":{"android":"levelo://app?vid=0693b9d6-4a9d-4e38-bfa2-80f934bcc2e3","ios":"levelo://app?vid=0693b9d6-4a9d-4e38-bfa2-80f934bcc2e3"},"vehicle_type_id":"4","last_reported":1740748677,"current_range_meters":17200,"station_id":"cpo36qri1sfpv3e86is0","pricing_plan_id":"cebpf4jnsgd1na2vs0mg"},{"bike_id":"3f28bfe9-a36a-4899-844b-181d93d6c2be","system_id":"levelo_inurba_marseille","lat":43.27377,"lon":5.36255,"is_reserved":false,"is_disabled":false,"rental_uris":{"android":"levelo://app?vid=3f28bfe9-a36a-4899-844b-181d93d6c2be","ios":"levelo://app?vid=3f28bfe9-a36a-4899-844b-181d93d6c2be"},"vehicle_type_id":"4","last_reported":1740748677,"current_range_meters":17200,"station_id":"ce4bhbh2rcd13ifvqeo0","pricing_plan_id":"cebpf4jnsgd1na2vs0mg"},{"bike_id":"085d28c3-d678-460a-a2b0-03561e14272e","system_id":"levelo_inurba_marseille","lat":43.32113,"lon":5.36757,"is_reserved":false,"is_disabled":false,"rental_uris":{"android":"levelo://app?vid=085d28c3-d678-460a-a2b0-03561e14272e","ios":"levelo://app?vid=085d28c3-d678-460a-a2b0-03561e14272e"},"vehicle_type_id":"4","last_reported":1740748677,"current_range_meters":17200,"station_id":"ce4bhrh2rcd13ifvqhug","pricing_plan_id":"cebpf4jnsgd1na2vs0mg"},{"bike_id":"25e89ac1-d6d0-41be-86e5-48f8b7f864e8","system_id":"levelo_inurba_marseille","lat":43.31368,"lon":5.36711,"is_reserved":false,"is_disabled":false,"rental_uris":{"android":"levelo://app?vid=25e89ac1-d6d0-41be-86e5-48f8b7f864e8","ios":"levelo://app?vid=25e89ac1-d6d0-41be-86e5-48f8b7f864e8"},"vehicle_type_id":"4","last_reported":1740748677,"current_range_meters":17200,"station_id":"ce4bgr92rcd13ifvqc6g","pricing_plan_id":"cebpf4jnsgd1na2vs0mg"},{"bike_id":"a8d12792-a1b1-4944-8d9a-22f1d639a2b6","system_id":"levelo_inurba_marseille","lat":43.30356,"lon":5.41874,"is_reserved":false,"is_disabled":false,"rental_uris":{"android":"levelo://app?vid=a8d12792-a1b1-4944-8d9a-22f1d639a2b6","ios":"levelo://app?vid=a8d12792-a1b1-4944-8d9a-22f1d639a2b6"},"vehicle_type_id":"4","last_reported":1740748677,"current_range_meters":17600,"station_id":"ce4bhop2rcd13ifvqh7g","pricing_plan_id":"cebpf4jnsgd1na2vs0mg"},{"bike_id":"1c05c9eb-a923-464b-b8e2-a210bd9c428d","system_id":"levelo_inurba_marseille","lat":43.28416,"lon":5.34983,"is_reserved":false,"is_disabled":false,"rental_uris":{"android":"levelo://app?vid=1c05c9eb-a923-464b-b8e2-a210bd9c428d","ios":"levelo://app?vid=1c05c9eb-a923-464b-b8e2-a210bd9c428d"},"vehicle_type_id":"4","last_reported":1740748677,"current_range_meters":17200,"station_id":"ce4bhbh2rcd13ifvqepg","pricing_plan_id":"cebpf4jnsgd1na2vs0mg"},{"bike_id":"199f6953-90bf-452d-a70b-9790e3c9500e","system_id":"levelo_inurba_marseille","lat":43.28417,"lon":5.34978,"is_reserved":false,"is_disabled":false,"rental_uris":{"android":"levelo://app?vid=199f6953-90bf-452d-a70b-9790e3c9500e","ios":"levelo://app?vid=199f6953-90bf-452d-a70b-9790e3c9500e"},"vehicle_type_id":"4","last_reported":1740748677,"current_range_meters":17200,"station_id":"ce4bhbh2rcd13ifvqepg","pricing_plan_id":"cebpf4jnsgd1na2vs0mg"},{"bike_id":"2a88a5d5-485c-4d6b-8ae1-14a2e8299fd8","system_id":"levelo_inurba_marseille","lat":43.26121,"lon":5.41475,"is_reserved":false,"is_disabled":false,"rental_uris":{"android":"levelo://app?vid=2a88a5d5-485c-4d6b-8ae1-14a2e8299fd8","ios":"levelo://app?vid=2a88a5d5-485c-4d6b-8ae1-14a2e8299fd8"},"vehicle_type_id":"4","last_reported":1740748677,"current_range_meters":16400,"station_id":"","pricing_plan_id":"cebpf4jnsgd1na2vs0mg"},{"bike_id":"e3b9b7c4-e6c5-4fed-98fe-467d95aa23c6","system_id":"levelo_inurba_marseille","lat":43.22925,"lon":5.35375,"is_reserved":false,"is_disabled":true,"rental_uris":{"android":"levelo://app?vid=e3b9b7c4-e6c5-4fed-98fe-467d95aa23c6","ios":"levelo://app?vid=e3b9b7c4-e6c5-4fed-98fe-467d95aa23c6"},