{"last_updated":1752423113,"ttl":60,"version":"2.2","data":{"bikes":[{"bike_id":"bfa68e15-1cd1-41b3-94d5-a9b098f6979f","system_id":"levelo_inurba_marseille","lat":43.24892,"lon":5.38767,"is_reserved":false,"is_disabled":false,"rental_uris":{"android":"levelo://app?vid=bfa68e15-1cd1-41b3-94d5-a9b098f6979f","ios":"levelo://app?vid=bfa68e15-1cd1-41b3-94d5-a9b098f6979f"},"vehicle_type_id":"4","last_reported":1752423113,"current_range_meters":2800,"station_id":"","pricing_plan_id":"cebpf4jnsgd1na2vs0mg"},{"bike_id":"6f5e9084-558f-4d95-b458-678ee4399b06","system_id":"levelo_inurba_marseille","lat":43.25491,"lon":5.3764,"is_reserved":false,"is_disabled":true,"rental_uris":{"android":"levelo://app?vid=6f5e9084-558f-4d95-b458-678ee4399b06","ios":"levelo://app?vid=6f5e9084-558f-4d95-b458-678ee4399b06"},"vehicle_type_id":"4","last_reported":1752423113,"current_range_meters":3200,"station_id":"ce4bhh12rcd13ifvqff0","pricing_plan_id":"cebpf4jnsgd1na2vs0mg"},{"bike_id":"6f1bd72e-f14b-496f-ae76-1334dc7e3d2d","system_id":"levelo_inurba_marseille","lat":43.25721,"lon":5.41112,"is_reserved":false,"is_disabled":false,"rental_uris":{"android":"levelo://app?vid=6f1bd72e-f14b-496f-ae76-1334dc7e3d2d","ios":"levelo://app?vid=6f1bd72e-f14b-496f-ae76-1334dc7e3d2d"},"vehicle_type_id":"4","last_reported":1752423113,"current_range_meters":3200,"station_id":"ce4bhkp2rcd13ifvqgd0","pricing_plan_id":"cebpf4jnsgd1na2vs0mg"},{"bike_id":"b3e803bb-bbde-4f80-b1c4-a54e33533eba","system_id":"levelo_inurba_marseille","lat":43.27998,"lon":5.40017,"is_reserved":false,"is_disabled":false,"rental_uris":{"android":"levelo://app?vid=b3e803bb-bbde-4f80-b1c4-a54e33533eba","ios":"levelo://app?vid=b3e803bb-bbde-4f80-b1c4-a54e33533eba"},"vehicle_type_id":"4","last_reported":1752423113,"current_range_meters":3600,"station_id":"ce4bho92rcd13ifvqh4g","pricing_plan_id":"cebpf4jnsgd1na2vs0mg"},{"bike_id":"b33949bd-8d29-44e9-b60b-468b9de5c3a0","system_id":"levelo_inurba_marseille","lat":43.21743,"lon":5.34612,"is_reserved":false,"is_disabled":false,"rental_uris":{"android":"levelo://app?vid=b33949bd-8d29-44e9-b60b-468b9de5c3a0","ios":"levelo://app?vid=b33949bd-8d29-44e9-b60b-468b9de5c3a0"},"vehicle_type_id":"4","last_reported":1752423113,"current_range_meters":3600,"station_id":"st_cvj6r9ubvosntc0bgbag","pricing_plan_id":"cebpf4jnsgd1na2vs0mg"},{"bike_id":"0e5a4ccc-59a8-49ef-83ad-c6369569648b","system_id":"levelo_inurba_marseille","lat":43.25091,"lon":5.39526,"is_reserved":false,"is_disabled":false,"rental_uris":{"android":"levelo://app?vid=0e5a4ccc-59a8-49ef-83ad-c6369569648b","ios":"levelo://app?vid=0e5a4ccc-59a8-49ef-83ad-c6369569648b"},"vehicle_type_id":"4","last_reported":1752423113,"current_range_meters":3200,"station_id":"ce4bhm12rcd13ifvqgkg","pricing_plan_id":"cebpf4jnsgd1na2vs0mg"},{"bike_id":"e10eaf0e-7f3b-4b3f-88fa-31f32142aedc","system_id":"levelo_inurba_marseille","lat":43.260318,"lon":5.375444,"is_reserved":false,"is_disabled":false,"rental_uris":{"android":"levelo://app?vid=e10eaf0e-7f3b-4b3f-88fa-31f32142aedc","ios":"levelo://app?vid=e10eaf0e-7f3b-4b3f-88fa-31f32142aedc"},"vehicle_type_id":"4","last_reported":1752423113,"current_range_meters":4000,"station_id":"ce4bhgh2rcd13ifvqfa0","pricing_plan_id":"cebpf4jnsgd1na2vs0mg"},{"bike_id":"dd9dc32e-fade-4a31-914f-2fab4890137e","system_id":"levelo_inurba_marseille","lat":43.25725,"lon":5.4111,"is_reserved":false,"is_disabled":false,"rental_uris":{"android":"levelo://app?vid=dd9dc32e-fade-4a31-914f-2fab4890137e","ios":"levelo://app?vid=dd9dc32e-fade-4a31-914f-2fab4890137e"},"vehicle_type_id":"4","last_reported":1752423113,"current_range_meters":4000,"station_id":"ce4bhkp2rcd13ifvqgd0","pricing_plan_id":"cebpf4jnsgd1na2vs0mg"},{"bike_id":"3f6e1a3c-bee5-4eda-94ad-f2a8957b70c3","system_id":"levelo_inurba_marseille","lat":43.2977,"lon":5.37124,"is_reserved":false,"is_disabled":false,"rental_uris":{"android":"levelo://app?vid=3f6e1a3c-bee5-4eda-94ad-f2a8957b70c3","ios":"levelo://app?vid=3f6e1a3c-bee5-4eda-94ad-f2a8957b70c3"},"vehicle_type_id":"4","last_reported":1752423113,"current_range_meters":4000,"station_id":"ce4bgop2rcd13ifvqc1g","pricing_plan_id":"cebpf4jnsgd1na2vs0mg"},{"bike_id":"6c5acb26-eb20-4768-a462-292ac9767279","system_id":"levelo_inurba_marseille","lat":43.21761,"lon":5.34593,"is_reserved":false,"is_disabled":false,"rental_uris":{"android":"levelo://app?vid=6c5acb26-eb20-4768-a462-292ac9767279","ios":"levelo://app?vid=6c5acb26-eb20-4768-a462-292ac9767279"},"vehicle_type_id":"4","last_reported":1752423113,"current_range_meters":4400,"station_id":"st_cvj6r9ubvosntc0bgbag","pricing_plan_id":"cebpf4jnsgd1na2vs0mg"},{"bike_id":"2f0ba75c-aff3-43f4-857b-fc7c66f4e426","system_id":"levelo_inurba_marseille","lat":43.30965,"lon":5.39041,"is_reserved":false,"is_disabled":true,"rental_uris":{"android":"levelo://app?vid=2f0ba75c-aff3-43f4-857b-fc7c66f4e426","ios":"levelo://app?vid=2f0ba75c-aff3-43f4-857b-fc7c66f4e426"},"vehicle_type_id":"4","last_reported":1752423113,"current_range_meters":4400,"station_id":"ce4bgup2rcd13ifvqco0","pricing_plan_id":"cebpf4jnsgd1na2vs0mg"},{"bike_id":"5d091932-ee2a-470d-ad53-dadf6630ee59","system_id":"levelo_inurba_marseille","lat":43.29256,"lon":5.36129,"is_reserved":false,"is_disabled":false,"rental_uris":{"android":"levelo://app?vid=5d091932-ee2a-470d-ad53-dadf6630ee59","ios":"levelo://app?vid=5d091932-ee2a-470d-ad53-dadf6630ee59"},"vehicle_type_id":"4","last_reported":1752423113,"current_range_meters":4800,"station_id":"","pricing_plan_id":"cebpf4jnsgd1na2vs0mg"},{"bike_id":"e3a75ee9-c614-467b-8cc2-f813bcef2ab1","system_id":"levelo_inurba_marseille","lat":43.33743,"lon":5.3919,"is_reserved":false,"is_disabled":true,"rental_uris":{"android":"levelo://app?vid=e3a75ee9-c614-467b-8cc2-f813bcef2ab1","ios":"levelo://app?vid=e3a75ee9-c614-467b-8cc2-f813bcef2ab1"},"vehicle_type_id":"4","last_reported":1752423113,"current_range_meters":4800,"station_id":"ce4bhr92rcd13ifvqhsg","pricing_plan_id":"cebpf4jnsgd1na2vs0mg"},{"bike_id":"69a98ef8-9b4f-490a-b1e7-11ae49fc387b","system_id":"levelo_inurba_marseille","lat":43.21195,"lon":5.35067,"is_reserved":false,"is_disabled":false,"rental_uris":{"android":"levelo://app?vid=69a98ef8-9b4f-490a-b1e7-11ae49fc387b","ios":"levelo://app?vid=69a98ef8-9b4f-490a-b1e7-11ae49fc387b"},"vehicle_type_id":"4","last_reported":1752423113,"current_range_meters":5600,"station_id":"st_cvj6sg6p6f1abm77japg","pricing_plan_id":"cebpf4jnsgd1na2vs0mg"},{"bike_id":"df61839a-7a72-4634-9960-e8ea0d9a8d35","system_id":"levelo_inurba_marseille","lat":43.239474,"lon":5.366089,"is_reserved":false,"is_disabled":true,"rental_uris":{"android":"levelo://app?vid=df61839a-7a72-4634-9960-e8ea0d9a8d35","ios":"levelo://app?vid=df61839a-7a72-4634-9960-e8ea0d9a8d35"},"vehicle_type_id":"4","last_reported":1752423113,"current_range_meters":6000,"station_id":"","pricing_plan_id":"cebpf4jnsgd1na2vs0mg"},{"bike_id":"884708cc-4b4b-4d6a-81fd-3047466d64de","system_id":"levelo_inurba_marseille","lat":43.2175,"lon":5.34593,"is_reserved":false,"is_disabled":false,"rental_uris":{"android":"levelo://app?vid=884708cc-4b4b-4d6a-81fd-3047466d64de","ios":"levelo://app?vid=884708cc-4b4b-4d6a-81fd-3047466d64de"},"vehicle_type_id":"4","last_reported":1752423113,"current_range_meters":6400,"station_id":"st_cvj6r9ubvosntc0bgbag","pricing_plan_id":"cebpf4jnsgd1na2vs0mg"},{"bike_id":"f8da81ba-3f83-4c6a-aa66-56b2af71c6bb","system_id":"levelo_inurba_marseille","lat":43.30528,"lon":5.36689,"is_reserved":false,"is_disabled":false,"rental_uris":{"android":"levelo://app?vid=f8da81ba-3f83-4c6a-aa66-56b2af71c6bb","ios":"levelo://app?vid=f8da81ba-3f83-4c6a-aa66-56b2af71c6bb"},"vehicle_type_id":"4","last_reported":1752423113,"current_range_meters":6400,"station_id":"ce4bgrp2rcd13ifvqc9g","pricing_plan_id":"cebpf4jnsgd1na2vs0mg"},{"bike_id":"877abdda-66c1-434c-be95-9befe2a19698","system_id":"levelo_inurba_marseille","lat":43.28873,"lon":5.39316,"is_reserved":false,"is_disabled":true,"rental_uris":{"android":"levelo://app?vid=877abdda-66c1-434c-be95-9befe2a19698","ios":"levelo://app?vid=877abdda-66c1-434c-be95-9befe2a19698"},"vehicle_type_id":"4","last_reported":1752423113,"current_range_meters":6400,"station_id":"ce4bh2p2rcd13ifvqdi0","pricing_plan_id":"cebpf4jnsgd1na2vs0mg"},{"bike_id":"bffcb9b8-f0d2-4bce-947a-729d619957a5","system_id":"levelo_inurba_marseille","lat":43.23418,"lon":5.41275,"is_reserved":false,"is_disabled":false,"rental_uris":{"android":"levelo://app?vid=bffcb9b8-f0d2-4bce-947a-729d619957a5","ios":"levelo://app?vid=bffcb9b8-f0d2-4bce-947a-729d619957a5"},"vehicle_type_id":"4","last_reported":1752423113,"current_range_meters":6400,"station_id":"","pricing_plan_id":"cebpf4jnsgd1na2vs0mg"},{"bike_id":"516e9c50-a6b9-4ece-a716-612fc857349a","system_id":"levelo_inurba_marseille","lat":43.28659,"lon":5.36355,"is_reserved":false,"is_disabled":false,"rental_uris":{"android":"levelo://app?vid=516e9c50-a6b9-4ece-a716-612fc857349a","ios":"levelo://app?vid=516e9c50-a6b9-4ece-a716-612fc857349a"},"vehicle_type_id":"4","last_reported":1752423113,"current_range_meters":6400,"station_id":"ce4bhah2rcd13ifvqej0","pricing_plan_id":"cebpf4jnsgd1na2vs0mg"},{"bike_id":"d6acdb8f-ed75-4d37-a305-05c05db175ef","system_id":"levelo_inurba_marseille","lat":43.307869,"lon":5.376477,"is_reserved":false,"is_disabled":false,"rental_uris":{"android":"levelo://app?vid=d6acdb8f-ed75-4d37-a305-05c05db175ef","ios":"levelo://app?vid=d6acdb8f-ed75-4d37-a305-05c05db175ef"},"vehicle_type_id":"4","last_reported":1752423113,"current_range_meters":6400,"station_id":"ce4bgv92rcd13ifvqcq0","pricing_plan_id":"cebpf4jnsgd1na2vs0mg"},{"bike_id":"2abaf507-47c9-4dde-8f6b-10a8b3c454e6","system_id":"levelo_inurba_marseille","lat":43.28001,"lon":5.41669,"is_reserved":false,"is_disabled":false,"rental_uris":{"android":"levelo://app?vid=2abaf507-47c9-4dde-8f6b-10a8b3c454e6","ios":"levelo://app?vid=2abaf507-47c9-4dde-8f6b-10a8b3c454e6"},"vehicle_type_id":"4","last_reported":1752423113,"current_range_meters":6400,"station_id":"ce4bho12rcd13ifvqh1g","pricing_plan_id":"cebpf4jnsgd1na2vs0mg"},{"bike_id":"cb9282c9-0a04-426f-af4a-9dc494a82650","system_id":"levelo_inurba_marseille","lat":43.225,"lon":5.3478,"is_reserved":false,"is_disabled":false,"rental_uris":{"android":"levelo://app?vid=cb9282c9-0a04-426f-af4a-9dc494a82650","ios":"levelo://app?vid=cb9282c9-0a04-426f-af4a-9dc494a82650"},"vehicle_type_id":"4","last_reported":1752423113,"current_range_meters":6400,"station_id":"","pricing_plan_id":"cebpf4jnsgd1na2vs0mg"},{"bike_id":"797cea66-af8d-46ed-9528-80a2d52a1fed","system_id":"levelo_inurba_marseille","lat":43.21752,"lon":5.34597,"is_reserved":false,"is_disabled":false,"rental_uris":{"android":"levelo://app?vid=797cea66-af8d-46ed-9528-80a2d52a1fed","ios":"levelo://app?vid=797cea66-af8d-46ed-9528-80a2d52a1fed"},"vehicle_type_id":"4","last_reported":1752423113,"current_range_meters":6800,"station_id":"st_cvj6r9ubvosntc0bgbag","pricing_plan_id":"cebpf4jnsgd1na2vs0mg"},{"bike_id":"8929c1bf-fd4d-44e4-aa66-b3eb6538c998","system_id":"levelo_inurba_marseille","lat":43.285714,"lon":5.429654,"is_reserved":false,"is_disabled":false,"rental_uris":{"android":"levelo://app?vid=8929c1bf-fd4d-44e4-aa66-b3eb6538c998","ios":"levelo://app?vid=8929c1bf-fd4d-44e4-aa66-b3eb6538c998"},"vehicle_type_id":"4","last_reported":1752423113,"current_range_meters":6800,"station_id":"","pricing_plan_id":"cebpf4jnsgd1na2vs0mg"},{"bike_id":"302e5e3e-0082-4acb-b05c-702795c7eb68","system_id":"levelo_inurba_marseille","lat":43.2179,"lon":5.34548,"is_reserved":false,"is_disabled":false,"rental_uris":{"android":"levelo://app?vid=302e5e3e-0082-4acb-b05c-702795c7eb68","ios":"levelo://app?vid=302e5e3e-0082-4acb-b05c-702795c7eb68"},"vehicle_type_id":"4","last_reported":1752423113,"current_range_meters":6800,"station_id":"","pricing_plan_id":"cebpf4jnsgd1na2vs0mg"},{"bike_id":"2fc73e96-0fdf-4a17-8310-d52afb0fbab6","system_id":"levelo_inurba_marseille","lat":43.28937,"lon":5.36641,"is_reserved":false,"is_disabled":false,"rental_uris":{"android":"levelo://app?vid=2fc73e96-0fdf-4a17-8310-d52afb0fbab6","ios":"levelo://app?vid=2fc73e96-0fdf-4a17-8310-d52afb0fbab6"},"vehicle_type_id":"4","last_reported":1752423113,"current_range_meters":6800,"station_id":"ce4bhap2rcd13ifvqek0","pricing_plan_id":"cebpf4jnsgd1na2vs0mg"},{"bike_id":"5a71ab42-51f6-4d74-8942-e5c8339f2255","system_id":"levelo_inurba_marseille","lat":43.31761,"lon":5.390205,"is_reserved":false,"is_disabled":true,"rental_uris":{"android":"levelo://app?vid=5a71ab42-51f6-4d74-8942-e5c8339f2255","ios":"levelo://app?vid=5a71ab42-51f6-4d74-8942-e5c8339f2255"},"vehicle_type_id":"4","last_reported":1752423113,"current_range_meters":7200,"station_id":"ce4bhqp2rcd13ifvqhng","pricing_plan_id":"cebpf4jnsgd1na2vs0mg"},{"bike_id":"46a65e96-86cf-47e2-939f-b74dda756585","system_id":"levelo_inurba_marseille","lat":43.29529,"lon":5.39038,"is_reserved":false,"is_disabled":false,"rental_uris":{"android":"levelo://app?vid=46a65e96-86cf-47e2-939f-b74dda756585","ios":"levelo://app?vid=46a65e96-86cf-47e2-939f-b74dda756585"},"vehicle_type_id":"4","last_reported":1752423113,"current_range_meters":7200,"station_id":"ce4bh3p2rcd13ifvqdp0","pricing_plan_id":"cebpf4jnsgd1na2vs0mg"},{"bike_id":"78d1d158-9474-44e8-9d20-2b4eb13da9f4","system_id":"levelo_inurba_marseille","lat":43.2319,"lon":5.35559,"is_reserved":false,"is_disabled":false,"rental_uris":{"android":"levelo://app?vid=78d1d158-9474-44e8-9d20-2b4eb13da9f4","ios":"levelo://app?vid=78d1d158-9474-44e8-9d20-2b4eb13da9f4"},"vehicle_type_id":"4","last_reported":1752423113,"current_range_meters":7200,"station_id":"ce4bhu92rcd13ifvqi70","pricing_plan_id":"cebpf4jnsgd1na2vs0mg"},{"bike_id":"dbba3321-20c7-4989-a7b5-ea9ab2c4b3e8","system_id":"levelo_inurba_marseille","lat":43.261935,"lon":5.374477,"is_reserved":false,"is_disabled":true,"rental_uris":{"android":"levelo://app?vid=dbba3321-20c7-4989-a7b5-ea9ab2c4b3e8","ios":"levelo://app?vid=dbba3321-20c7-4989-a7b5-ea9ab2c4b3e8"},"vehicle_type_id":"4","last_reported":1752423113,"current_range_meters":7200,"station_id":"ce4bhgp2rcd13ifvqfc0","pricing_plan_id":"cebpf4jnsgd1na2vs0mg"},{"bike_id":"ae6b9bb3-31c8-4302-91c6-0e6b059eb0f3","system_id":"levelo_inurba_marseille","lat":43.33779,"lon":5.37424,"is_reserved":false,"is_disabled":true,"rental_uris":{"android":"levelo://app?vid=ae6b9bb3-31c8-4302-91c6-0e6b059eb0f3","ios":"levelo://app?vid=ae6b9bb3-31c8-4302-91c6-0e6b059eb0f3"},"vehicle_type_id":"4","last_reported":1752423113,"current_range_meters":8000,"station_id":"","pricing_plan_id":"cebpf4jnsgd1na2vs0mg"},{"bike_id":"55bc2d10-5532-4c61-b460-5b5f261cd080","system_id":"levelo_inurba_marseille","lat":43.21755,"lon":5.34597,"is_reserved":false,"is_disabled":false,"rental_uris":{"android":"levelo://app?vid=55bc2d10-5532-4c61-b460-5b5f261cd080","ios":"levelo://app?vid=55bc2d10-5532-4c61-b460-5b5f261cd080"},"vehicle_type_id":"4","last_reported":1752423113,"current_range_meters":8000,"station_id":"st_cvj6r9ubvosntc0bgbag","pricing_plan_id":"cebpf4jnsgd1na2vs0mg"},{"bike_id":"e47932bb-f223-4a28-b333-8591a952e1bc","system_id":"levelo_inurba_marseille","lat":43.29667,"lon":5.36071,"is_reserved":false,"is_disabled":false,"rental_uris":{"android":"levelo://app?vid=e47932bb-f223-4a28-b333-8591a952e1bc","ios":"levelo://app?vid=e47932bb-f223-4a28-b333-8591a952e1bc"},"vehicle_type_id":"4","last_reported":1752423113,"current_range_meters":8000,"station_id":"","pricing_plan_id":"cebpf4jnsgd1na2vs0mg"},{"bike_id":"f78f69e0-bd9a-4504-8491-5b47e560fcc5","system_id":"levelo_inurba_marseille","lat":43.29305,"lon":5.37181,"is_reserved":false,"is_disabled":false,"rental_uris":{"android":"levelo://app?vid=f78f69e0-bd9a-4504-8491-5b47e560fcc5","ios":"levelo://app?vid=f78f69e0-bd9a-4504-8491-5b47e560fcc5"},"vehicle_type_id":"4","last_reported":1752423113,"current_range_meters":8000,"station_id":"ce4bgh92rcd13ifvqb40","pricing_plan_id":"cebpf4jnsgd1na2vs0mg"},{"bike_id":"bef9931d-11cc-4e3c-8ddd-0a81d1e36a3e","system_id":"levelo_inurba_marseille","lat":43.29232,"lon":5.36317,"is_reserved":false,"is_disabled":false,"rental_uris":{"android":"levelo://app?vid=bef9931d-11cc-4e3c-8ddd-0a81d1e36a3e","ios":"levelo://app?vid=bef9931d-11cc-4e3c-8ddd-0a81d1e36a3e"},"vehicle_type_id":"4","last_reported":1752423113,"current_range_meters":8000,"station_id":"","pricing_plan_id":"cebpf4jnsgd1na2vs0mg"},{"bike_id":"02883b92-225f-428d-a8a6-4844ec1f2d26","system_id":"levelo_inurba_marseille","lat":43.30598,"lon":5.3723,"is_reserved":false,"is_disabled":true,"rental_uris":{"android":"levelo://app?vid=02883b92-225f-428d-a8a6-4844ec1f2d26","ios":"levelo://app?vid=02883b92-225f-428d-a8a6-4844ec1f2d26"},"vehicle_type_id":"4","last_reported":1752423113,"current_range_meters":8000,"station_id":"ce4bgqh2rcd13ifvqc4g","pricing_plan_id":"cebpf4jnsgd1na2vs0mg"},{"bike_id":"7168c900-a2cd-498f-902d-7db20c6d8874","system_id":"levelo_inurba_marseille","lat":43.29009,"lon":5.35616,"is_reserved":false,"is_disabled":false,"rental_uris":{"android":"levelo://app?vid=7168c900-a2cd-498f-902d-7db20c6d8874","ios":"levelo://app?vid=7168c900-a2cd-498f-902d-7db20c6d8874"},"vehicle_type_id":"4","last_reported":1752423113,"current_range_meters":8400,"station_id":"ce4bhb92rcd13ifvqen0","pricing_plan_id":"cebpf4jnsgd1na2vs0mg"},{"bike_id":"696aca5a-f985-42f2-b5f7-74ca3a442dcb","system_id":"levelo_inurba_marseille","lat":43.30957,"lon":5.37161,"is_reserved":false,"is_disabled":false,"rental_uris":{"android":"levelo://app?vid=696aca5a-f985-42f2-b5f7-74ca3a442dcb","ios":"levelo://app?vid=696aca5a-f985-42f2-b5f7-74ca3a442dcb"},"vehicle_type_id":"4","last_reported":1752423113,"current_range_meters":8400,"station_id":"","pricing_plan_id":"cebpf4jnsgd1na2vs0mg"},{"bike_id":"fe87f7a0-0c03-4cee-b72d-b5a1483225d9","system_id":"levelo_inurba_marseille","lat":43.2175,"lon":5.34608,"is_reserved":false,"is_disabled":false,"rental_uris":{"android":"levelo://app?vid=fe87f7a0-0c03-4cee-b72d-b5a1483225d9","ios":"levelo://app?vid=fe87f7a0-0c03-4cee-b72d-b5a1483225d9"},"vehicle_type_id":"4","last_reported":1752423113,"current_range_meters":8400,"station_id":"st_cvj6r9ubvosntc0bgbag","pricing_plan_id":"cebpf4jnsgd1na2vs0mg"},{"bike_id":"4e18f6a0-cf0a-4e54-823e-14d073e25d70","system_id":"levelo_inurba_marseille","lat":43.280355,"lon":5.369408,"is_reserved":false,"is_disabled":true,"rental_uris":{"android":"levelo://app?vid=4e18f6a0-cf0a-4e54-823e-14d073e25d70","ios":"levelo://app?vid=4e18f6a0-cf0a-4e54-823e-14d073e25d70"},"vehicle_type_id":"4","last_reported":1752423113,"current_range_meters":8400,"station_id":"ce4bha12rcd13ifvqef0","pricing_plan_id":"cebpf4jnsgd1na2vs0mg"},{"bike_id":"f394117a-b44e-4c74-8b35-95d56fe76d40","system_id":"levelo_inurba_marseille","lat":43.27618,"lon":5.36113,"is_reserved":false,"is_disabled":false,"rental_uris":{"android":"levelo://app?vid=f394117a-b44e-4c74-8b35-95d56fe76d40","ios":"levelo://app?vid=f394117a-b44e-4c74-8b35-95d56fe76d40"},"vehicle_type_id":"4","last_reported":1752423113,"current_range_meters":8800,"station_id":"ce4bgj92rcd13ifvqbe0","pricing_plan_id":"cebpf4jnsgd1na2vs0mg"},{"bike_id":"969b264d-0e08-4220-9a2a-6bfed5898d14","system_id":"levelo_inurba_marseille","lat":43.298,"lon":5.40403,"is_reserved":false,"is_disabled":false,"rental_uris":{"android":"levelo://app?vid=969b264d-0e08-4220-9a2a-6bfed5898d14","ios":"levelo://app?vid=969b264d-0e08-4220-9a2a-6bfed5898d14"},"vehicle_type_id":"4","last_reported":1752423113,"current_range_meters":8800,"station_id":"ce4bh112rcd13ifvqd90","pricing_plan_id":"cebpf4jnsgd1na2vs0mg"},{"bike_id":"b80809b0-6401-4321-8800-3aca98e69f2b","system_id":"levelo_inurba_marseille","lat":43.296465,"lon":5.373149,"is_reserved":false,"is_disabled":false,"rental_uris":{"android":"levelo://app?vid=b80809b0-6401-4321-8800-3aca98e69f2b","ios":"levelo://app?vid=b80809b0-6401-4321-8800-3aca98e69f2b"},"vehicle_type_id":"4","last_reported":1752423113,"current_range_meters":8800,"station_id":"ce4bgn12rcd13ifvqbt0","pricing_plan_id":"cebpf4jnsgd1na2vs0mg"},{"bike_id":"5f70c285-2093-41fa-a12d-dfd6a38e0a30","system_id":"levelo_inurba_marseille","lat":43.21756,"lon":5.34595,"is_reserved":false,"is_disabled":false,"rental_uris":{"android":"levelo://app?vid=5f70c285-2093-41fa-a12d-dfd6a38e0a30","ios":"levelo://app?vid=5f70c285-2093-41fa-a12d-dfd6a38e0a30"},"vehicle_type_id":"4","last_reported":1752423113,"current_range_meters":8800,"station_id":"st_cvj6r9ubvosntc0bgbag","pricing_plan_id":"cebpf4jnsgd1na2vs0mg"},{"bike_id":"f4fa78db-320a-4157-9a21-8041404012ea","system_id":"levelo_inurba_marseille","lat":43.26206,"lon":5.37933,"is_reserved":false,"is_disabled":false,"rental_uris":{"android":"levelo://app?vid=f4fa78db-320a-4157-9a21-8041404012ea","ios":"levelo://app?vid=f4fa78db-320a-4157-9a21-8041404012ea"},"vehicle_type_id":"4","last_reported":1752423113,"current_range_meters":8800,"station_id":"ce4bhjp2rcd13ifvqg90","pricing_plan_id":"cebpf4jnsgd1na2vs0mg"},{"bike_id":"ac2be194-a722-41ed-923f-6bf31f13d107","system_id":"levelo_inurba_marseille","lat":43.25119,"lon":5.395018,"is_reserved":false,"is_disabled":false,"rental_uris":{"android":"levelo://app?vid=ac2be194-a722-41ed-923f-6bf31f13d107","ios":"levelo://app?vid=ac2be194-a722-41ed-923f-6bf31f13d107"},"vehicle_type_id":"4","last_reported":1752423113,"current_range_meters":8800,"station_id":"ce4bhm12rcd13ifvqgkg","pricing_plan_id":"cebpf4jnsgd1na2vs0mg"},{"bike_id":"04e0798a-fb22-4193-b56b-31165c55b998","system_id":"levelo_inurba_marseille","lat":43.26032,"lon":5.37552,"is_reserved":false,"is_disabled":false,"rental_uris":{"android":"levelo://app?vid=04e0798a-fb22-4193-b56b-31165c55b998","ios":"levelo://app?vid=04e0798a-fb22-4193-b56b-31165c55b998"},"vehicle_type_id":"4","last_reported":1752423113,"current_range_meters":9200,"station_id":"ce4bhgh2rcd13ifvqfa0","pricing_plan_id":"cebpf4jnsgd1na2vs0mg"},{"bike_id":"cb258a70-e64f-4372-b576-92bca1a314ce","system_id":"levelo_inurba_marseille","lat":43.29265,"lon":5.40904,"is_reserved":false,"is_disabled":false,"rental_uris":{"android":"levelo://app?vid=cb258a70-e64f-4372-b576-92bca1a314ce","ios":"levelo://app?vid=cb258a70-e64f-4372-b576-92bca1a314ce"},"vehicle_type_id":"4","last_reported":1752423113,"current_range_meters":8800,"station_id":"ce4bh192rcd13ifvqdc0","pricing_plan_id":"cebpf4jnsgd1na2vs0mg"},{"bike_id":"ee5338dd-18a1-4b48-a5b0-f8c72f7b1319","system_id":"levelo_inurba_marseille","lat":43.31884,"lon":5.36786,"is_reserved":false,"is_disabled":false,"rental_uris":{"android":"levelo://app?vid=ee5338dd-18a1-4b48-a5b0-f8c72f7b1319","ios":"levelo://app?vid=ee5338dd-18a1-4b48-a5b0-f8c72f7b1319"},"vehicle_type_id":"4","last_reported":1752423113,"current_range_meters":9200,"station_id":"","pricing_plan_id":"cebpf4jnsgd1na2vs0mg"},{"bike_id":"2caceff6-b594-4ad8-bbed-bf0071f3e838","system_id":"levelo_inurba_marseille","lat":43.30639,"lon":5.40097,"is_reserved":false,"is_disabled":false,"rental_uris":{"android":"levelo://app?vid=2caceff6-b594-4ad8-bbed-bf0071f3e838","ios":"levelo://app?vid=2caceff6-b594-4ad8-bbed-bf0071f3e838"},"vehicle_type_id":"4","last_reported":1752423113,"current_range_meters":9200,"station_id":"ce4bh112rcd13ifvqda0","pricing_plan_id":"cebpf4jnsgd1na2vs0mg"},{"bike_id":"96d54fdb-5835-4cd8-9827-093c0b08e4ca","system_id":"levelo_inurba_marseille","lat":43.21186,"lon":5.35078,"is_reserved":false,"is_disabled":false,"rental_uris":{"android":"levelo://app?vid=96d54fdb-5835-4cd8-9827-093c0b08e4ca","ios":"levelo://app?vid=96d54fdb-5835-4cd8-9827-093c0b08e4ca"},"vehicle_type_id":"4","last_reported":1752423113,"current_range_meters":9200,"station_id":"st_cvj6sg6p6f1abm77japg","pricing_plan_id":"cebpf4jnsgd1na2vs0mg"},{"bike_id":"019c1750-df3d-4762-971b-2526d216bfd6","system_id":"levelo_inurba_marseille","lat":43.22939,"lon":5.3537,"is_reserved":false,"is_disabled":false,"rental_uris":{"android":"levelo://app?vid=019c1750-df3d-4762-971b-2526d216bfd6","ios":"levelo://app?vid=019c1750-df3d-4762-971b-2526d216bfd6"},"vehicle_type_id":"4","last_reported":1752423113,"current_range_meters":9200,"station_id":"cpo3532slgdg3j2ikp40","pricing_plan_id":"cebpf4jnsgd1na2vs0mg"},{"bike_id":"d5e129e3-707c-4b79-a8c0-87b29b485229","system_id":"levelo_inurba_marseille","lat":43.21742,"lon":5.34606,"is_reserved":false,"is_disabled":false,"rental_uris":{"android":"levelo://app?vid=d5e129e3-707c-4b79-a8c0-87b29b485229","ios":"levelo://app?vid=d5e129e3-707c-4b79-a8c0-87b29b485229"},"vehicle_type_id":"4","last_reported":1752423113,"current_range_meters":9200,"station_id":"st_cvj6r9ubvosntc0bgbag","pricing_plan_id":"cebpf4jnsgd1na2vs0mg"},{"bike_id":"7f02047d-a6cd-43f4-a617-996f2b9a8bc8","system_id":"levelo_inurba_marseille","lat":43.3237,"lon":5.36735,"is_reserved":false,"is_disabled":false,"rental_uris":{"android":"levelo://app?vid=7f02047d-a6cd-43f4-a617-996f2b9a8bc8","ios":"levelo://app?vid=7f02047d-a6cd-43f4-a617-996f2b9a8bc8"},"vehicle_type_id":"4","last_reported":1752423113,"current_range_meters":9600,"station_id":"ce4bhsh2rcd13ifvqi2g","pricing_plan_id":"cebpf4jnsgd1na2vs0mg"},{"bike_id":"383a2485-518e-4235-b1cd-0ebf65ba74a5","system_id":"levelo_inurba_marseille","lat":43.29562,"lon":5.38541,"is_reserved":false,"is_disabled":true,"rental_uris":{"android":"levelo://app?vid=383a2485-518e-4235-b1cd-0ebf65ba74a5","ios":"levelo://app?vid=383a2485-518e-4235-b1cd-0ebf65ba74a5"},"vehicle_type_id":"4","last_reported":1752423113,"current_range_meters":9600,"station_id":"ce4bgih2rcd13ifvqba0","pricing_plan_id":"cebpf4jnsgd1na2vs0mg"},{"bike_id":"470d1e9d-8c05-40b8-a6b2-039f183b9f6a","system_id":"levelo_inurba_marseille","lat":43.23194,"lon":5.35536,"is_reserved":false,"is_disabled":true,"rental_uris":{"android":"levelo://app?vid=470d1e9d-8c05-40b8-a6b2-039f183b9f6a","ios":"levelo://app?vid=470d1e9d-8c05-40b8-a6b2-039f183b9f6a"},"vehicle_type_id":"4","last_reported":1752423113,"current_range_meters":9600,"station_id":"ce4bhu92rcd13ifvqi70","pricing_plan_id":"cebpf4jnsgd1na2vs0mg"},{"bike_id":"fc564233-39fd-4858-9d21-6158c215b980","system_id":"levelo_inurba_marseille","lat":43.30336,"lon":5.40431,"is_reserved":false,"is_disabled":false,"rental_uris":{"android":"levelo://app?vid=fc564233-39fd-4858-9d21-6158c215b980","ios":"levelo://app?vid=fc564233-39fd-4858-9d21-6158c215b980"},"vehicle_type_id":"4","last_reported":1752423113,"current_range_meters":9600,"station_id":"ce4bh012rcd13ifvqd10","pricing_plan_id":"cebpf4jnsgd1na2vs0mg"},{"bike_id":"afb3e3b0-3b35-40a1-a3d9-2a416ca6d8c0","system_id":"levelo_inurba_marseille","lat":43.27386,"lon":5.36264,"is_reserved":false,"is_disabled":true,"rental_uris":{"android":"levelo://app?vid=afb3e3b0-3b35-40a1-a3d9-2a416ca6d8c0","ios":"levelo://app?vid=afb3e3b0-3b35-40a1-a3d9-2a416ca6d8c0"},"vehicle_type_id":"4","last_reported":1752423113,"current_range_meters":10000,"station_id":"ce4bhbh2rcd13ifvqeo0","pricing_plan_id":"cebpf4jnsgd1na2vs0mg"},{"bike_id":"1bfa1b76-fa6d-4cdd-aff5-612b86c512c4","system_id":"levelo_inurba_marseille","lat":43.26558,"lon":5.38999,"is_reserved":false,"is_disabled":true,"rental_uris":{"android":"levelo://app?vid=1bfa1b76-fa6d-4cdd-aff5-612b86c512c4","ios":"levelo://app?vid=1bfa1b76-fa6d-4cdd-aff5-612b86c512c4"},"vehicle_type_id":"4","last_reported":1752423113,"current_range_meters":10000,"station_id":"ce4bhe12rcd13ifvqf30","pricing_plan_id":"cebpf4jnsgd1na2vs0mg"},{"bike_id":"84c5d3ed-8d51-4cbf-84f5-01b4baf4c37f","system_id":"levelo_inurba_marseille","lat":43.286142,"lon":5.370665,"is_reserved":false,"is_disabled":false,"rental_uris":{"android":"levelo://app?vid=84c5d3ed-8d51-4cbf-84f5-01b4baf4c37f","ios":"levelo://app?vid=84c5d3ed-8d51-4cbf-84f5-01b4baf4c37f"},"vehicle_type_id":"4","last_reported":1752423113,"current_range_meters":10000,"station_id":"ce4bht12rcd13ifvqi60","pricing_plan_id":"cebpf4jnsgd1na2vs0mg"},{"bike_id":"ae930513-76b7-4f2a-81a8-a86f1d056024","system_id":"levelo_inurba_marseille","lat":43.29313,"lon":5.37195,"is_reserved":false,"is_disabled":false,"rental_uris":{"android":"levelo://app?vid=ae930513-76b7-4f2a-81a8-a86f1d056024","ios":"levelo://app?vid=ae930513-76b7-4f2a-81a8-a86f1d056024"},"vehicle_type_id":"4","last_reported":1752423113,"current_range_meters":10000,"station_id":"ce4bgh92rcd13ifvqb40","pricing_plan_id":"cebpf4jnsgd1na2vs0mg"},{"bike_id":"d637ae5f-571c-459a-aaca-024a76531440","system_id":"levelo_inurba_marseille","lat":43.21748,"lon":5.34609,"is_reserved":false,"is_disabled":false,"rental_uris":{"android":"levelo://app?vid=d637ae5f-571c-459a-aaca-024a76531440","ios":"levelo://app?vid=d637ae5f-571c-459a-aaca-024a76531440"},"vehicle_type_id":"4","last_reported":1752423113,"current_range_meters":10000,"station_id":"st_cvj6r9ubvosntc0bgbag","pricing_plan_id":"cebpf4jnsgd1na2vs0mg"},{"bike_id":"d2485e01-b6e0-4b12-83f4-c20ff8e8b741","system_id":"levelo_inurba_marseille","lat":43.30942,"lon":5.39021,"is_reserved":false,"is_disabled":false,"rental_uris":{"android":"levelo://app?vid=d2485e01-b6e0-4b12-83f4-c20ff8e8b741","ios":"levelo://app?vid=d2485e01-b6e0-4b12-83f4-c20ff8e8b741"},"vehicle_type_id":"4","last_reported":1752423113,"current_range_meters":10000,"station_id":"ce4bgup2rcd13ifvqco0","pricing_plan_id":"cebpf4jnsgd1na2vs0mg"},{"bike_id":"46ce7424-8151-41ba-a046-0c68273c2c8e","system_id":"levelo_inurba_marseille","lat":43.29254,"lon":5.36576,"is_reserved":false,"is_disabled":false,"rental_uris":{"android":"levelo://app?vid=46ce7424-8151-41ba-a046-0c68273c2c8e","ios":"levelo://app?vid=46ce7424-8151-41ba-a046-0c68273c2c8e"},"vehicle_type_id":"4","last_reported":1752423113,"current_range_meters":10800,"station_id":"","pricing_plan_id":"cebpf4jnsgd1na2vs0mg"},{"bike_id":"b591c992-1bb2-4acc-a344-628f4e2b2936","system_id":"levelo_inurba_marseille","lat":43.30211,"lon":5.39466,"is_reserved":false,"is_disabled":false,"rental_uris":{"android":"levelo://app?vid=b591c992-1bb2-4acc-a344-628f4e2b2936","ios":"levelo://app?vid=b591c992-1bb2-4acc-a344-628f4e2b2936"},"vehicle_type_id":"4","last_reported":1752423113,"current_range_meters":10800,"station_id":"ce4bh0p2rcd13ifvqd70","pricing_plan_id":"cebpf4jnsgd1na2vs0mg"},{"bike_id":"c01c4904-1153-4350-aeb6-6bb32ef3a530","system_id":"levelo_inurba_marseille","lat":43.27569,"lon":5.38447,"is_reserved":false,"is_disabled":false,"rental_uris":{"android":"levelo://app?vid=c01c4904-1153-4350-aeb6-6bb32ef3a530","ios":"levelo://app?vid=c01c4904-1153-4350-aeb6-6bb32ef3a530"},"vehicle_type_id":"4","last_reported":1752423113,"current_range_meters":10800,"station_id":"ce4bhh92rcd13ifvqfi0","pricing_plan_id":"cebpf4jnsgd1na2vs0mg"},{"bike_id":"cba69c4b-82ea-47f6-9a2a-97b8edac2968","system_id":"levelo_inurba_marseille","lat":43.27056,"lon":5.40263,"is_reserved":false,"is_disabled":false,"rental_uris":{"android":"levelo://app?vid=cba69c4b-82ea-47f6-9a2a-97b8edac2968","ios":"levelo://app?vid=cba69c4b-82ea-47f6-9a2a-97b8edac2968"},"vehicle_type_id":"4","last_reported":1752423113,"current_range_meters":10800,"station_id":"ce4bhk92rcd13ifvqgc0","pricing_plan_id":"cebpf4jnsgd1na2vs0mg"},{"bike_id":"49801dc2-618a-44b8-84ae-416cd87fdbe9","system_id":"levelo_inurba_marseille","lat":43.33789,"lon":5.37467,"is_reserved":false,"is_disabled":false,"rental_uris":{"android":"levelo://app?vid=49801dc2-618a-44b8-84ae-416cd87fdbe9","ios":"levelo://app?vid=49801dc2-618a-44b8-84ae-416cd87fdbe9"},"vehicle_type_id":"4","last_reported":1752423113,"current_range_meters":10800,"station_id":"","pricing_plan_id":"cebpf4jnsgd1na2vs0mg"},{"bike_id":"31f76825-7b9f-439a-a66c-521eb63e58c1","system_id":"levelo_inurba_marseille","lat":43.29461,"lon":5.43845,"is_reserved":false,"is_disabled":false,"rental_uris":{"android":"levelo://app?vid=31f76825-7b9f-439a-a66c-521eb63e58c1","ios":"levelo://app?vid=31f76825-7b9f-439a-a66c-521eb63e58c1"},"vehicle_type_id":"4","last_reported":1752423113,"current_range_meters":10800,"station_id":"","pricing_plan_id":"cebpf4jnsgd1na2vs0mg"},{"bike_id":"63063a21-aa23-4fc4-91ac-0a58f2ad7b79","system_id":"levelo_inurba_marseille","lat":43.305364,"lon":5.365467,"is_reserved":false,"is_disabled":false,"rental_uris":{"android":"levelo://app?vid=63063a21-aa23-4fc4-91ac-0a58f2ad7b79","ios":"levelo://app?vid=63063a21-aa23-4fc4-91ac-0a58f2ad7b79"},"vehicle_type_id":"4","last_reported":1752423113,"current_range_meters":11200,"station_id":"ce4bgs12rcd13ifvqcag","pricing_plan_id":"cebpf4jnsgd1na2vs0mg"},{"bike_id":"32886a1f-65a9-49be-81cf-6dd076494cc1","system_id":"levelo_inurba_marseille","lat":43.24071,"lon":5.37768,"is_reserved":false,"is_disabled":false,"rental_uris":{"android":"levelo://app?vid=32886a1f-65a9-49be-81cf-6dd076494cc1","ios":"levelo://app?vid=32886a1f-65a9-49be-81cf-6dd076494cc1"},"vehicle_type_id":"4","last_reported":1752423113,"current_range_meters":11600,"station_id":"ce4bhnp2rcd13ifvqgvg","pricing_plan_id":"cebpf4jnsgd1na2vs0mg"},{"bike_id":"92cdd186-1374-481c-b7ec-245329196ce9","system_id":"levelo_inurba_marseille","lat":43.23194,"lon":5.35551,"is_reserved":false,"is_disabled":false,"rental_uris":{"android":"levelo://app?vid=92cdd186-1374-481c-b7ec-245329196ce9","ios":"levelo://app?vid=92cdd186-1374-481c-b7ec-245329196ce9"},"vehicle_type_id":"4","last_reported":1752423113,"current_range_meters":11600,"station_id":"ce4bhu92rcd13ifvqi70","pricing_plan_id":"cebpf4jnsgd1na2vs0mg"},{"bike_id":"7422d39a-9e9c-41ca-ba33-a3880c1434d1","system_id":"levelo_inurba_marseille","lat":43.27379,"lon":5.36263,"is_reserved":false,"is_disabled":false,"rental_uris":{"android":"levelo://app?vid=7422d39a-9e9c-41ca-ba33-a3880c1434d1","ios":"levelo://app?vid=7422d39a-9e9c-41ca-ba33-a3880c1434d1"},"vehicle_type_id":"4","last_reported":1752423113,"current_range_meters":11600,"station_id":"ce4bhbh2rcd13ifvqeo0","pricing_plan_id":"cebpf4jnsgd1na2vs0mg"},{"bike_id":"9a72d1fd-ba0d-40b8-85c2-0a32bee82c5a","system_id":"levelo_inurba_marseille","lat":43.28577,"lon":5.40233,"is_reserved":false,"is_disabled":false,"rental_uris":{"android":"levelo://app?vid=9a72d1fd-ba0d-40b8-85c2-0a32bee82c5a","ios":"levelo://app?vid=9a72d1fd-ba0d-40b8-85c2-0a32bee82c5a"},"vehicle_type_id":"4","last_reported":1752423113,"current_range_meters":11600,"station_id":"","pricing_plan_id":"cebpf4jnsgd1na2vs0mg"},{"bike_id":"7a888645-4b0c-4379-98d8-380a5347b74c","system_id":"levelo_inurba_marseille","lat":43.27398,"lon":5.36263,"is_reserved":false,"is_disabled":true,"rental_uris":{"android":"levelo://app?vid=7a888645-4b0c-4379-98d8-380a5347b74c","ios":"levelo://app?vid=7a888645-4b0c-4379-98d8-380a5347b74c"},"vehicle_type_id":"4","last_reported":1752423113,"current_range_meters":12000,"station_id":"ce4bhbh2rcd13ifvqeo0","pricing_plan_id":"cebpf4jnsgd1na2vs0mg"},{"bike_id":"f70d4eb7-0483-4b22-b4af-6857c0805839","system_id":"levelo_inurba_marseille","lat":43.29915,"lon":5.38137,"is_reserved":false,"is_disabled":true,"rental_uris":{"android":"levelo://app?vid=f70d4eb7-0483-4b22-b4af-6857c0805839","ios":"levelo://app?vid=f70d4eb7-0483-4b22-b4af-6857c0805839"},"vehicle_type_id":"4","last_reported":1752423113,"current_range_meters":12000,"station_id":"ce4bgj12rcd13ifvqbc0","pricing_plan_id":"cebpf4jnsgd1na2vs0mg"},{"bike_id":"8b37f03f-f226-4bbc-8648-b109da7ba145","system_id":"levelo_inurba_marseille","lat":43.30536,"lon":5.366999,"is_reserved":false,"is_disabled":false,"rental_uris":{"android":"levelo://app?vid=8b37f03f-f226-4bbc-8648-b109da7ba145","ios":"levelo://app?vid=8b37f03f-f226-4bbc-8648-b109da7ba145"},"vehicle_type_id":"4","last_reported":1752423113,"current_range_meters":12000,"station_id":"","pricing_plan_id":"cebpf4jnsgd1na2vs0mg"},{"bike_id":"c88b9404-b85c-4806-9bb7-9f3e9f30a1c1","system_id":"levelo_inurba_marseille","lat":43.3014,"lon":5.38802,"is_reserved":false,"is_disabled":false,"rental_uris":{"android":"levelo://app?vid=c88b9404-b85c-4806-9bb7-9f3e9f30a1c1","ios":"levelo://app?vid=c88b9404-b85c-4806-9bb7-9f3e9f30a1c1"},"vehicle_type_id":"4","last_reported":1752423113,"current_range_meters":12000,"station_id":"ce4bghh2rcd13ifvqb60","pricing_plan_id":"cebpf4jnsgd1na2vs0mg"},{"bike_id":"936a4015-1f45-4731-9152-40b3a6fec0e6","system_id":"levelo_inurba_marseille","lat":43.30781,"lon":5.37654,"is_reserved":false,"is_disabled":false,"rental_uris":{"android":"levelo://app?vid=936a4015-1f45-4731-9152-40b3a6fec0e6","ios":"levelo://app?vid=936a4015-1f45-4731-9152-40b3a6fec0e6"},"vehicle_type_id":"4","last_reported":1752423113,"current_range_meters":11600,"station_id":"ce4bgv92rcd13ifvqcq0","pricing_plan_id":"cebpf4jnsgd1na2vs0mg"},{"bike_id":"f23760ff-ab61-4853-aa67-28aac93822c1","system_id":"levelo_inurba_marseille","lat":43.337444,"lon":5.374475,"is_reserved":false,"is_disabled":false,"rental_uris":{"android":"levelo://app?vid=f23760ff-ab61-4853-aa67-28aac93822c1","ios":"levelo://app?vid=f23760ff-ab61-4853-aa67-28aac93822c1"},"vehicle_type_id":"4","last_reported":1752423113,"current_range_meters":12000,"station_id":"","pricing_plan_id":"cebpf4jnsgd1na2vs0mg"},{"bike_id":"f17c947a-8a1b-42b0-a3d6-60286dc16ad2","system_id":"levelo_inurba_marseille","lat":43.2415,"lon":5.36418,"is_reserved":false,"is_disabled":false,"rental_uris":{"android":"levelo://app?vid=f17c947a-8a1b-42b0-a3d6-60286dc16ad2","ios":"levelo://app?vid=f17c947a-8a1b-42b0-a3d6-60286dc16ad2"},"vehicle_type_id":"4","last_reported":1752423113,"current_range_meters":12800,"station_id":"cpo36qri1sfpv3e86is0","pricing_plan_id":"cebpf4jnsgd1na2vs0mg"},{"bike_id":"6d3f299a-d341-49bc-a1f9-7534528d9b67","system_id":"levelo_inurba_marseille","lat":43.23192,"lon":5.35538,"is_reserved":false,"is_disabled":false,"rental_uris":{"android":"levelo://app?vid=6d3f299a-d341-49bc-a1f9-7534528d9b67","ios":"levelo://app?vid=6d3f299a-d341-49bc-a1f9-7534528d9b67"},"vehicle_type_id":"4","last_reported":1752423113,"current_range_meters":12400,"station_id":"ce4bhu92rcd13ifvqi70","pricing_plan_id":"cebpf4jnsgd1na2vs0mg"},{"bike_id":"835de00d-6cac-4fdb-9ecb-8c42876e564a","system_id":"levelo_inurba_marseille","lat":43.255786,"lon":5.382248,"is_reserved":false,"is_disabled":false,"rental_uris":{"android":"levelo://app?vid=835de00d-6cac-4fdb-9ecb-8c42876e564a","ios":"levelo://app?vid=835de00d-6cac-4fdb-9ecb-8c42876e564a"},"vehicle_type_id":"4","last_reported":1752423113,"current_range_meters":12400,"station_id":"ce4bhih2rcd13ifvqfs0","pricing_plan_id":"cebpf4jnsgd1na2vs0mg"},{"bike_id":"96d83a9f-21d9-4f35-b054-ba6b7b3cbd29","system_id":"levelo_inurba_marseille","lat":43.27376,"lon":5.36247,"is_reserved":false,"is_disabled":false,"rental_uris":{"android":"levelo://app?vid=96d83a9f-21d9-4f35-b054-ba6b7b3cbd29","ios":"levelo://app?vid=96d83a9f-21d9-4f35-b054-ba6b7b3cbd29"},"vehicle_type_id":"4","last_reported":1752423113,"current_range_meters":12400,"station_id":"ce4bhbh2rcd13ifvqeo0","pricing_plan_id":"cebpf4jnsgd1na2vs0mg"},{"bike_id":"335724c2-ae52-49a8-9891-67477ca225fd","system_id":"levelo_inurba_marseille","lat":43.22518,"lon":5.3478,"is_reserved":false,"is_disabled":false,"rental_uris":{"android":"levelo://app?vid=335724c2-ae52-49a8-9891-67477ca225fd","ios":"levelo://app?vid=335724c2-ae52-49a8-9891-67477ca225fd"},"vehicle_type_id":"4","last_reported":1752423113,"current_range_meters":12800,"station_id":"st_cvj5dfep6f1abm77gieg","pricing_plan_id":"cebpf4jnsgd1na2vs0mg"},{"bike_id":"33f66774-263d-42f8-bb82-9caf112c53e0","system_id":"levelo_inurba_marseille","lat":43.28432,"lon":5.34977,"is_reserved":false,"is_disabled":false,"rental_uris":{"android":"levelo://app?vid=33f66774-263d-42f8-bb82-9caf112c53e0","ios":"levelo://app?vid=33f66774-263d-42f8-bb82-9caf112c53e0"},"vehicle_type_id":"4","last_reported":1752423113,"current_range_meters":13600,"station_id":"ce4bhbh2rcd13ifvqepg","pricing_plan_id":"cebpf4jnsgd1na2vs0mg"},{"bike_id":"e2ce6e8a-ef9f-4211-8776-042780e4931d","system_id":"levelo_inurba_marseille","lat":43.284336,"lon":5.350033,"is_reserved":false,"is_disabled":true,"rental_uris":{"android":"levelo://app?vid=e2ce6e8a-ef9f-4211-8776-042780e4931d","ios":"levelo://app?vid=e2ce6e8a-ef9f-4211-8776-042780e4931d"},"vehicle_type_id":"4","last_reported":1752423113,"current_range_meters":13600,"station_id":"ce4bhbh2rcd13ifvqepg","pricing_plan_id":"cebpf4jnsgd1na2vs0mg"},{"bike_id":"2be203a4-9686-4653-a2e5-bdd96d0c4988","system_id":"levelo_inurba_marseille","lat":43.3234,"lon":5.40627,"is_reserved":false,"is_disabled":false,"rental_uris":{"android":"levelo://app?vid=2be203a4-9686-4653-a2e5-bdd96d0c4988","ios":"levelo://app?vid=2be203a4-9686-4653-a2e5-bdd96d0c4988"},"vehicle_type_id":"4","last_reported":1752423113,"current_range_meters":13600,"station_id":"ce4bhq92rcd13ifvqhjg","pricing_plan_id":"cebpf4jnsgd1na2vs0mg"},{"bike_id":"a44f68aa-b920-4eb6-845e-df1183944a6b","system_id":"levelo_inurba_marseille","lat":43.28576,"lon":5.35062,"is_reserved":false,"is_disabled":true,"rental_uris":{"android":"levelo://app?vid=a44f68aa-b920-4eb6-845e-df1183944a6b","ios":"levelo://app?vid=a44f68aa-b920-4eb6-845e-df1183944a6b"},"vehicle_type_id":"4","last_reported":1752423113,"current_range_meters":14000,"station_id":"","pricing_plan_id":"cebpf4jnsgd1na2vs0mg"},{"bike_id":"7048b274-bb73-4f78-bd84-2dffe4927289","system_id":"levelo_inurba_marseille","lat":43.297962,"lon":5.393534,"is_reserved":false,"is_disabled":true,"rental_uris":{"android":"levelo://app?vid=7048b274-bb73-4f78-bd84-2dffe4927289","ios":"levelo://app?vid=7048b274-bb73-4f78-bd84-2dffe4927289"},"vehicle_type_id":"4","last_reported":1752423113,"current_range_meters":14000,"station_id":"chh1huq6cuj3fo74tm60","pricing_plan_id":"cebpf4jnsgd1na2vs0mg"},{"bike_id":"59bd944e-8158-4d03-98d6-e97af0707782","system_id":"levelo_inurba_marseille","lat":43.21194,"lon":5.35075,"is_reserved":false,"is_disabled":false,"rental_uris":{"android":"levelo://app?vid=59bd944e-8158-4d03-98d6-e97af0707782","ios":"levelo://app?vid=59bd944e-8158-4d03-98d6-e97af0707782"},"vehicle_type_id":"4","last_reported":1752423113,"current_range_meters":14000,"station_id":"st_cvj6sg6p6f1abm77japg","pricing_plan_id":"cebpf4jnsgd1na2vs0mg"},{"bike_id":"1366d683-1ebd-44a1-9e66-5d68d4b85ee8","system_id":"levelo_inurba_marseille","lat":43.25723,"lon":5.41118,"is_reserved":false,"is_disabled":false,"rental_uris":{"android":"levelo://app?vid=1366d683-1ebd-44a1-9e66-5d68d4b85ee8","ios":"levelo://app?vid=1366d683-1ebd-44a1-9e66-5d68d4b85ee8"},"vehicle_type_id":"4","last_reported":1752423113,"current_range_meters":14400,"station_id":"ce4bhkp2rcd13ifvqgd0","pricing_plan_id":"cebpf4jnsgd1na2vs0mg"},{"bike_id":"e9bbd8d3-caad-4609-a312-7997513565b0","system_id":"levelo_inurba_marseille","lat":43.2841,"lon":5.34988,"is_reserved":false,"is_disabled":false,"rental_uris":{"android":"levelo://app?vid=e9bbd8d3-caad-4609-a312-7997513565b0","ios":"levelo://app?vid=e9bbd8d3-caad-4609-a312-7997513565b0"},"vehicle_type_id":"4","last_reported":1752423113,"current_range_meters":14400,"station_id":"ce4bhbh2rcd13ifvqepg","pricing_plan_id":"cebpf4jnsgd1na2vs0mg"},{"bike_id":"0d167da0-0981-4d06-83dc-640fe470d719","system_id":"levelo_inurba_marseille","lat":43.288501,"lon":5.393161,"is_reserved":false,"is_disabled":false,"rental_uris":{"android":"levelo://app?vid=0d167da0-0981-4d06-83dc-640fe470d719","ios":"levelo://app?vid=0d167da0-0981-4d06-83dc-640fe470d719"},"vehicle_type_id":"4","last_reported":1752423113,"current_range_meters":14000,"station_id":"ce4bh2p2rcd13ifvqdi0","pricing_plan_id":"cebpf4jnsgd1na2vs0mg"},{"bike_id":"7e767772-4ed1-450f-8d0e-cdfa4677ba74","system_id":"levelo_inurba_marseille","lat":43.27999,"lon":5.40019,"is_reserved":false,"is_disabled":false,"rental_uris":{"android":"levelo://app?vid=7e767772-4ed1-450f-8d0e-cdfa4677ba74","ios":"levelo://app?vid=7e767772-4ed1-450f-8d0e-cdfa4677ba74"},"vehicle_type_id":"4","last_reported":1752423113,"current_range_meters":14800,"station_id":"ce4bho92rcd13ifvqh4g","pricing_plan_id":"cebpf4jnsgd1na2vs0mg"},{"bike_id":"fcc7c770-1290-48e5-ac20-ca517f02ed88","system_id":"levelo_inurba_marseille","lat":43.24076,"lon":5.37763,"is_reserved":false,"is_disabled":false,"rental_uris":{"android":"levelo://app?vid=fcc7c770-1290-48e5-ac20-ca517f02ed88","ios":"levelo://app?vid=fcc7c770-1290-48e5-ac20-ca517f02ed88"},"vehicle_type_id":"4","last_reported":1752423113,"current_range_meters":14800,"station_id":"ce4bhnp2rcd13ifvqgvg","pricing_plan_id":"cebpf4jnsgd1na2vs0mg"},{"bike_id":"8af9c5b9-33c6-49f1-b28a-3e8284d3f332","system_id":"levelo_inurba_marseille","lat":43.282742,"lon":5.350839,"is_reserved":false,"is_disabled":false,"rental_uris":{"android":"levelo://app?vid=8af9c5b9-33c6-49f1-b28a-3e8284d3f332","ios":"levelo://app?vid=8af9c5b9-33c6-49f1-b28a-3e8284d3f332"},"vehicle_type_id":"4","last_reported":1752423113,"current_range_meters":15200,"station_id":"ce4bhbp2rcd13ifvqerg","pricing_plan_id":"cebpf4jnsgd1na2vs0mg"},{"bike_id":"121c9d46-bcce-4812-89e5-155e0793f5cf","system_id":"levelo_inurba_marseille","lat":43.27375,"lon":5.36261,"is_reserved":false,"is_disabled":false,"rental_uris":{"android":"levelo://app?vid=121c9d46-bcce-4812-89e5-155e0793f5cf","ios":"levelo://app?vid=121c9d46-bcce-4812-89e5-155e0793f5cf"},"vehicle_type_id":"4","last_reported":1752423113,"current_range_meters":15200,"station_id":"ce4bhbh2rcd13ifvqeo0","pricing_plan_id":"cebpf4jnsgd1na2vs0mg"},{"bike_id":"0e483935-2d83-4006-b98d-47da1e59091a","system_id":"levelo_inurba_marseille","lat":43.21193,"lon":5.35073,"is_reserved":false,"is_disabled":false,"rental_uris":{"android":"levelo://app?vid=0e483935-2d83-4006-b98d-47da1e59091a","ios":"levelo://app?vid=0e483935-2d83-4006-b98d-47da1e59091a"},"vehicle_type_id":"4","last_reported":1752423113,"current_range_meters":15200,"station_id":"st_cvj6sg6p6f1abm77japg","pricing_plan_id":"cebpf4jnsgd1na2vs0mg"},{"bike_id":"1a469edf-5352-481f-91e3-cfaef6ee1547","system_id":"levelo_inurba_marseille","lat":43.21195,"lon":5.35076,"is_reserved":false,"is_disabled":false,"rental_uris":{"android":"levelo://app?vid=1a469edf-5352-481f-91e3-cfaef6ee1547","ios":"levelo://app?vid=1a469edf-5352-481f-91e3-cfaef6ee1547"},"vehicle_type_id":"4","last_reported":1752423113,"current_range_meters":16000,"station_id":"st_cvj6sg6p6f1abm77japg","pricing_plan_id":"cebpf4jnsgd1na2vs0mg"},{"bike_id":"a7a99eea-be7d-4e82-bd62-17471838aa1b","system_id":"levelo_inurba_marseille","lat":43.25942,"lon":5.40908,"is_reserved":false,"is_disabled":false,"rental_uris":{"android":"levelo://app?vid=a7a99eea-be7d-4e82-bd62-17471838aa1b","ios":"levelo://app?vid=a7a99eea-be7d-4e82-bd62-17471838aa1b"},"vehicle_type_id":"4","last_reported":1752423113,"current_range_meters":16000,"station_id":"ce4bhm92rcd13ifvqglg","pricing_plan_id":"cebpf4jnsgd1na2vs0mg"},{"bike_id":"9a46b9ab-a60b-45fc-88a3-caad63ae5b94","system_id":"levelo_inurba_marseille","lat":43.30467,"lon":5.377183,"is_reserved":false,"is_disabled":true,"rental_uris":{"android":"levelo://app?vid=9a46b9ab-a60b-45fc-88a3-caad63ae5b94","ios":"levelo://app?vid=9a46b9ab-a60b-45fc-88a3-caad63ae5b94"},"vehicle_type_id":"4","last_reported":1752423113,"current_range_meters":16000,"station_id":"","pricing_plan_id":"cebpf4jnsgd1na2vs0mg"},{"bike_id":"ccaffb67-4e99-407b-b251-5f8503d308ed","system_id":"levelo_inurba_marseille","lat":43.28421,"lon":5.34983,"is_reserved":false,"is_disabled":false,"rental_uris":{"android":"levelo://app?vid=ccaffb67-4e99-407b-b251-5f8503d308ed","ios":"levelo://app?vid=ccaffb67-4e99-407b-b251-5f8503d308ed"},"vehicle_type_id":"4","last_reported":1752423113,"current_range_meters":16000,"station_id":"","pricing_plan_id":"cebpf4jnsgd1na2vs0mg"},{"bike_id":"d9f5802f-b85b-44ac-bb5d-e411c0bdfd0f","system_id":"levelo_inurba_marseille","lat":43.24172,"lon":5.36399,"is_reserved":false,"is_disabled":false,"rental_uris":{"android":"levelo://app?vid=d9f5802f-b85b-44ac-bb5d-e411c0bdfd0f","ios":"levelo://app?vid=d9f5802f-b85b-44ac-bb5d-e411c0bdfd0f"},"vehicle_type_id":"4","last_reported":1752423113,"current_range_meters":16000,"station_id":"cpo36qri1sfpv3e86is0","pricing_plan_id":"cebpf4jnsgd1na2vs0mg"},{"bike_id":"162ce9df-4c9f-40cd-bb86-4a8ca9d7a01d","system_id":"levelo_inurba_marseille","lat":43.25513,"lon":5.37634,"is_reserved":false,"is_disabled":false,"rental_uris":{"android":"levelo://app?vid=162ce9df-4c9f-40cd-bb86-4a8ca9d7a01d","ios":"levelo://app?vid=162ce9df-4c9f-40cd-bb86-4a8ca9d7a01d"},"vehicle_type_id":"4","last_reported":1752423113,"current_range_meters":16000,"station_id":"ce4bhh12rcd13ifvqff0","pricing_plan_id":"cebpf4jnsgd1na2vs0mg"},{"bike_id":"f0f1c0dc-74da-4fca-b28a-9600cee2ba1c","system_id":"levelo_inurba_marseille","lat":43.28416,"lon":5.34993,"is_reserved":false,"is_disabled":false,"rental_uris":{"android":"levelo://app?vid=f0f1c0dc-74da-4fca-b28a-9600cee2ba1c","ios":"levelo://app?vid=f0f1c0dc-74da-4fca-b28a-9600cee2ba1c"},"vehicle_type_id":"4","last_reported":1752423113,"current_range_meters":16400,"station_id":"ce4bhbh2rcd13ifvqepg","pricing_plan_id":"cebpf4jnsgd1na2vs0mg"},{"bike_id":"f2651651-1f0b-4800-a926-d3472449f0c3","system_id":"levelo_inurba_marseille","lat":43.30138,"lon":5.39866,"is_reserved":false,"is_disabled":false,"rental_uris":{"android":"levelo://app?vid=f2651651-1f0b-4800-a926-d3472449f0c3","ios":"levelo://app?vid=f2651651-1f0b-4800-a926-d3472449f0c3"},"vehicle_type_id":"4","last_reported":1752423113,"current_range_meters":16400,"station_id":"ce4bh0h2rcd13ifvqd40","pricing_plan_id":"cebpf4jnsgd1na2vs0mg"},{"bike_id":"c078f680-b722-4076-a9f9-b720acc6323c","system_id":"levelo_inurba_marseille","lat":43.28616,"lon":5.35096,"is_reserved":false,"is_disabled":false,"rental_uris":{"android":"levelo://app?vid=c078f680-b722-4076-a9f9-b720acc6323c","ios":"levelo://app?vid=c078f680-b722-4076-a9f9-b720acc6323c"},"vehicle_type_id":"4","last_reported":1752423113,"current_range_meters":16400,"station_id":"ce4bhch2rcd13ifvqeug","pricing_plan_id":"cebpf4jnsgd1na2vs0mg"},{"bike_id":"58375fde-ca97-4dab-be52-59caf98323d3","system_id":"levelo_inurba_marseille","lat":43.26589,"lon":5.37312,"is_reserved":false,"is_disabled":true,"rental_uris":{"android":"levelo://app?vid=58375fde-ca97-4dab-be52-59caf98323d3","ios":"levelo://app?vid=58375fde-ca97-4dab-be52-59caf98323d3"},"vehicle_type_id":"4","last_reported":1752423113,"current_range_meters":16400,"station_id":"ce4bhg12rcd13ifvqf70","pricing_plan_id":"cebpf4jnsgd1na2vs0mg"},{"bike_id":"79ac9d5c-87ca-42a3-a25e-34606432c125","system_id":"levelo_inurba_marseille","lat":43.21192,"lon":5.35069,"is_reserved":false,"is_disabled":false,"rental_uris":{"android":"levelo://app?vid=79ac9d5c-87ca-42a3-a25e-34606432c125","ios":"levelo://app?vid=79ac9d5c-87ca-42a3-a25e-34606432c125"},"vehicle_type_id":"4","last_reported":1752423113,"current_range_meters":16400,"station_id":"st_cvj6sg6p6f1abm77japg","pricing_plan_id":"cebpf4jnsgd1na2vs0mg"},{"bike_id":"ece9d047-dc12-4ce6-82bf-fc7ad56a230c","system_id":"levelo_inurba_marseille","lat":43.286205,"lon":5.350969,"is_reserved":false,"is_disabled":true,"rental_uris":{"android":"levelo://app?vid=ece9d047-dc12-4ce6-82bf-fc7ad56a230c","ios":"levelo://app?vid=ece9d047-dc12-4ce6-82bf-fc7ad56a230c"},"vehicle_type_id":"4","last_reported":1752423113,"current_range_meters":16400,"station_id":"ce4bhch2rcd13ifvqeug","pricing_plan_id":"cebpf4jnsgd1na2vs0mg"},{"bike_id":"80c33df7-dd9b-491a-8ebf-193781fea01d","system_id":"levelo_inurba_marseille","lat":43.27205,"lon":5.39187,"is_reserved":false,"is_disabled":false,"rental_uris":{"android":"levelo://app?vid=80c33df7-dd9b-491a-8ebf-193781fea01d","ios":"levelo://app?vid=80c33df7-dd9b-491a-8ebf-193781fea01d"},"vehicle_type_id":"4","last_reported":1752423113,"current_range_meters":16000,"station_id":"ce4bhhp2rcd13ifvqfm0","pricing_plan_id":"cebpf4jnsgd1na2vs0mg"},{"bike_id":"7b60e2b3-fe60-4caf-8d3e-4c917054d448","system_id":"levelo_inurba_marseille","lat":43.283901,"lon":5.349938,"is_reserved":false,"is_disabled":true,"rental_uris":{"android":"levelo://app?vid=7b60e2b3-fe60-4caf-8d3e-4c917054d448","ios":"levelo://app?vid=7b60e2b3-fe60-4caf-8d3e-4c917054d448"},"vehicle_type_id":"4","last_reported":1752423113,"current_range_meters":16800,"station_id":"ce4bhbh2rcd13ifvqepg","pricing_plan_id":"cebpf4jnsgd1na2vs0mg"},{"bike_id":"31c710b8-59c4-4592-9629-b8ad795fae60","system_id":"levelo_inurba_marseille","lat":43.30251,"lon":5.400673,"is_reserved":false,"is_disabled":true,"rental_uris":{"android":"levelo://app?vid=31c710b8-59c4-4592-9629-b8ad795fae60","ios":"levelo://app?vid=31c710b8-59c4-4592-9629-b8ad795fae60"},"vehicle_type_id":"4","last_reported":1752423113,"current_range_meters":16800,"station_id":"ce4bgvh2rcd13ifvqcs0","pricing_plan_id":"cebpf4jnsgd1na2vs0mg"},{"bike_id":"bbc4bb3b-9a5b-4e80-814f-6f774b422422","system_id":"levelo_inurba_marseille","lat":43.27392,"lon":5.36263,"is_reserved":false,"is_disabled":false,"rental_uris":{"android":"levelo://app?vid=bbc4bb3b-9a5b-4e80-814f-6f774b422422","ios":"levelo://app?vid=bbc4bb3b-9a5b-4e80-814f-6f774b422422"},"vehicle_type_id":"4","last_reported":1752423113,"current_range_meters":16800,"station_id":"ce4bhbh2rcd13ifvqeo0","pricing_plan_id":"cebpf4jnsgd1na2vs0mg"},{"bike_id":"21258374-af0f-4369-818b-4a964ef5fc40","system_id":"levelo_inurba_marseille","lat":43.262073,"lon":5.374447,"is_reserved":false,"is_disabled":false,"rental_uris":{"android":"levelo://app?vid=21258374-af0f-4369-818b-4a964ef5fc40","ios":"levelo://app?vid=21258374-af0f-4369-818b-4a964ef5fc40"},"vehicle_type_id":"4","last_reported":1752423113,"current_range_meters":16800,"station_id":"ce4bhgp2rcd13ifvqfc0","pricing_plan_id":"cebpf4jnsgd1na2vs0mg"},{"bike_id":"b053f929-7efb-49cd-9959-74ef096980bb","system_id":"levelo_inurba_marseille","lat":43.32192,"lon":5.38844,"is_reserved":false,"is_disabled":true,"rental_uris":{"android":"levelo://app?vid=b053f929-7efb-49cd-9959-74ef096980bb","ios":"levelo://app?vid=b053f929-7efb-49cd-9959-74ef096980bb"},"vehicle_type_id":"4","last_reported":1752423113,"current_range_meters":16800,"station_id":"","pricing_plan_id":"cebpf4jnsgd1na2vs0mg"},{"bike_id":"f2183f19-3763-4a25-8229-a828f773ef0d","system_id":"levelo_inurba_marseille","lat":43.2319,"lon":5.35556,"is_reserved":false,"is_disabled":false,"rental_uris":{"android":"levelo://app?vid=f2183f19-3763-4a25-8229-a828f773ef0d","ios":"levelo://app?vid=f2183f19-3763-4a25-8229-a828f773ef0d"},"vehicle_type_id":"4","last_reported":1752423113,"current_range_meters":16800,"station_id":"ce4bhu92rcd13ifvqi70","pricing_plan_id":"cebpf4jnsgd1na2vs0mg"},{"bike_id":"c1d0629c-eaee-41e7-8c10-68b0ec1b077d","system_id":"levelo_inurba_marseille","lat":43.32748,"lon":5.3913,"is_reserved":false,"is_disabled":true,"rental_uris":{"android":"levelo://app?vid=c1d0629c-eaee-41e7-8c10-68b0ec1b077d","ios":"levelo://app?vid=c1d0629c-eaee-41e7-8c10-68b0ec1b077d"},"vehicle_type_id":"4","last_reported":1752423113,"current_range_meters":16800,"station_id":"","pricing_plan_id":"cebpf4jnsgd1na2vs0mg"},{"bike_id":"38cab35c-f975-40f1-b19f-b9797ae6c532","system_id":"levelo_inurba_marseille","lat":43.28414,"lon":5.34993,"is_reserved":false,"is_disabled":false,"rental_uris":{"android":"levelo://app?vid=38cab35c-f975-40f1-b19f-b9797ae6c532","ios":"levelo://app?vid=38cab35c-f975-40f1-b19f-b9797ae6c532"},"vehicle_type_id":"4","last_reported":1752423113,"current_range_meters":16800,"station_id":"ce4bhbh2rcd13ifvqepg","pricing_plan_id":"cebpf4jnsgd1na2vs0mg"},{"bike_id":"e083971e-8892-4464-9f88-a7902557aa4d","system_id":"levelo_inurba_marseille","lat":43.231947,"lon":5.355433,"is_reserved":false,"is_disabled":false,"rental_uris":{"android":"levelo://app?vid=e083971e-8892-4464-9f88-a7902557aa4d","ios":"levelo://app?vid=e083971e-8892-4464-9f88-a7902557aa4d"},"vehicle_type_id":"4","last_reported":1752423113,"current_range_meters":16800,"station_id":"ce4bhu92rcd13ifvqi70","pricing_plan_id":"cebpf4jnsgd1na2vs0mg"},{"bike_id":"28f6661f-fa05-4b8f-8f5e-cb4158aac2c7","system_id":"levelo_inurba_marseille","lat":43.29395,"lon":5.37842,"is_reserved":false,"is_disabled":true,"rental_uris":{"android":"levelo://app?vid=28f6661f-fa05-4b8f-8f5e-cb4158aac2c7","ios":"levelo://app?vid=28f6661f-fa05-4b8f-8f5e-cb4158aac2c7"},"vehicle_type_id":"4","last_reported":1752423113,"current_range_meters":17200,"station_id":"ce4bgjh2rcd13ifvqbf0","pricing_plan_id":"cebpf4jnsgd1na2vs0mg"},{"bike_id":"bb68e361-ccb2-4aa0-bd09-4ec745912b77","system_id":"levelo_inurba_marseille","lat":43.25494,"lon":5.37649,"is_reserved":false,"is_disabled":false,"rental_uris":{"android":"levelo://app?vid=bb68e361-ccb2-4aa0-bd09-4ec745912b77","ios":"levelo://app?vid=bb68e361-ccb2-4aa0-bd09-4ec745912b77"},"vehicle_type_id":"4","last_reported":1752423113,"current_range_meters":17200,"station_id":"ce4bhh12rcd13ifvqff0","pricing_plan_id":"cebpf4jnsgd1na2vs0mg"},{"bike_id":"7d0b72e4-dbcc-4344-a7d9-02d350a1c10a","system_id":"levelo_inurba_marseille","lat":43.21748,"lon":5.34605,"is_reserved":false,"is_disabled":false,"rental_uris":{"android":"levelo://app?vid=7d0b72e4-dbcc-4344-a7d9-02d350a1c10a","ios":"levelo://app?vid=7d0b72e4-dbcc-4344-a7d9-02d350a1c10a"},"vehicle_type_id":"4","last_reported":1752423113,"current_range_meters":17200,"station_id":"st_cvj6r9ubvosntc0bgbag","pricing_plan_id":"cebpf4jnsgd1na2vs0mg"},{"bike_id":"99ea448e-0e48-41eb-8951-60df78bd7c9e","system_id":"levelo_inurba_marseille","lat":43.28421,"lon":5.34993,"is_reserved":false,"is_disabled":false,"rental_uris":{"android":"levelo://app?vid=99ea448e-0e48-41eb-8951-60df78bd7c9e","ios":"levelo://app?vid=99ea448e-0e48-41eb-8951-60df78bd7c9e"},"vehicle_type_id":"4","last_reported":1752423113,"current_range_meters":17200,"station_id":"ce4bhbh2rcd13ifvqepg","pricing_plan_id":"cebpf4jnsgd1na2vs0mg"},{"bike_id":"91e36618-f857-45af-ac89-91d909da2db3","system_id":"levelo_inurba_marseille","lat":43.29418,"lon":5.38611,"is_reserved":false,"is_disabled":true,"rental_uris":{"android":"levelo://app?vid=91e36618-f857-45af-ac89-91d909da2db3","ios":"levelo://app?vid=91e36618-f857-45af-ac89-91d909da2db3"},"vehicle_type_id":"4","last_reported":1752423113,"current_range_meters":17200,"station_id":"ce4bh2h2rcd13ifvqdh0","pricing_plan_id":"cebpf4jnsgd1na2vs0mg"},{"bike_id":"f5a47db5-6fb2-46bd-a2de-efa4ad13bf60","system_id":"levelo_inurba_marseille","lat":43.21196,"lon":5.35069,"is_reserved":false,"is_disabled":false,"rental_uris":{"android":"levelo://app?vid=f5a47db5-6fb2-46bd-a2de-efa4ad13bf60","ios":"levelo://app?vid=f5a47db5-6fb2-46bd-a2de-efa4ad13bf60"},"vehicle_type_id":"4","last_reported":1752423113,"current_range_meters":17200,"station_id":"st_cvj6sg6p6f1abm77japg","pricing_plan_id":"cebpf4jnsgd1na2vs0mg"},{"bike_id":"0387f48c-50d9-461a-a267-e66de4c2163c","system_id":"levelo_inurba_marseille","lat":43.31271,"lon":5.36851,"is_reserved":false,"is_disabled":false,"rental_uris":{"android":"levelo://app?vid=0387f48c-50d9-461a-a267-e66de4c2163c","ios":"levelo://app?vid=0387f48c-50d9-461a-a267-e66de4c2163c"},"vehicle_type_id":"4","last_reported":1752423113,"current_range_meters":17200,"station_id":"ce4bgl92rcd13ifvqbq0","pricing_plan_id":"cebpf4jnsgd1na2vs0mg"},{"bike_id":"a5dd5f98-e456-4bd9-aa7e-4ef6bcdcb956","system_id":"levelo_inurba_marseille","lat":43.23224,"lon":5.35557,"is_reserved":false,"is_disabled":false,"rental_uris":{"android":"levelo://app?vid=a5dd5f98-e456-4bd9-aa7e-4ef6bcdcb956","ios":"levelo://app?vid=a5dd5f98-e456-4bd9-aa7e-4ef6bcdcb956"},"vehicle_type_id":"4","last_reported":1752423113,"current_range_meters":17200,"station_id":"ce4bhu92rcd13ifvqi70","pricing_plan_id":"cebpf4jnsgd1na2vs0mg"},{"bike_id":"1aedaa42-1f03-48cc-8e38-d983e72f730b","system_id":"levelo_inurba_marseille","lat":43.27086,"lon":5.42279,"is_reserved":false,"is_disabled":false,"rental_uris":{"android":"levelo://app?vid=1aedaa42-1f03-48cc-8e38-d983e72f730b","ios":"levelo://app?vid=1aedaa42-1f03-48cc-8e38-d983e72f730b"},"vehicle_type_id":"4","last_reported":1752423113,"current_range_meters":17200,"station_id":"ce4bhk92rcd13ifvqgb0","pricing_plan_id":"cebpf4jnsgd1na2vs0mg"},{"bike_id":"8f4c9b5f-d3cd-4fa5-b414-62114c1a92d5","system_id":"levelo_inurba_marseille","lat":43.29242,"lon":5.36577,"is_reserved":false,"is_disabled":false,"rental_uris":{"android":"levelo://app?vid=8f4c9b5f-d3cd-4fa5-b414-62114c1a92d5","ios":"levelo://app?vid=8f4c9b5f-d3cd-4fa5-b414-62114c1a92d5"},"vehicle_type_id":"4","last_reported":1752423113,"current_range_meters":17200,"station_id":"","pricing_plan_id":"cebpf4jnsgd1na2vs0mg"},{"bike_id":"2ec427da-b403-4a7e-86be-3f48ba535d18","system_id":"levelo_inurba_marseille","lat":43.21202,"lon":5.35074,"is_reserved":false,"is_disabled":false,"rental_uris":{"android":"levelo://app?vid=2ec427da-b403-4a7e-86be-3f48ba535d18","ios":"levelo://app?vid=2ec427da-b403-4a7e-86be-3f48ba535d18"},"vehicle_type_id":"4","last_reported":1752423113,"current_range_meters":17600,"station_id":"st_cvj6sg6p6f1abm77japg","pricing_plan_id":"cebpf4jnsgd1na2vs0mg"},{"bike_id":"afb8fb59-f5dd-43bd-a743-a502df716008","system_id":"levelo_inurba_marseille","lat":43.28158,"lon":5.42646,"is_reserved":false,"is_disabled":false,"rental_uris":{"android":"levelo://app?vid=afb8fb59-f5dd-43bd-a743-a502df716008","ios":"levelo://app?vid=afb8fb59-f5dd-43bd-a743-a502df716008"},"vehicle_type_id":"4","last_reported":1752423113,"current_range_meters":17600,"station_id":"ce4bhnh2rcd13ifvqgug","pricing_plan_id":"cebpf4jnsgd1na2vs0mg"},{"bike_id":"c590f6fa-c782-4a91-9140-6eecda1ff2af","system_id":"levelo_inurba_marseille","lat":43.29973,"lon":5.38484,"is_reserved":false,"is_disabled":false,"rental_uris":{"android":"levelo://app?vid=c590f6fa-c782-4a91-9140-6eecda1ff2af","ios":"levelo://app?vid=c590f6fa-c782-4a91-9140-6eecda1ff2af"},"vehicle_type_id":"4","last_reported":1752423113,"current_range_meters":17600,"station_id":"ce4bgj92rcd13ifvqbd0","pricing_plan_id":"cebpf4jnsgd1na2vs0mg"},{"bike_id":"86ca4335-bceb-43c6-b0de-9edd12d9110d","system_id":"levelo_inurba_marseille","lat":43.29005,"lon":5.35612,"is_reserved":false,"is_disabled":false,"rental_uris":{"android":"levelo://app?vid=86ca4335-bceb-43c6-b0de-9edd12d9110d","ios":"levelo://app?vid=86ca4335-bceb-43c6-b0de-9edd12d9110d"},"vehicle_type_id":"4","last_reported":1752423113,"current_range_meters":17600,"station_id":"ce4bhb92rcd13ifvqen0","pricing_plan_id":"cebpf4jnsgd1na2vs0mg"},{"bike_id":"e91ced2f-2041-4b38-8446-0d5d97adec95","system_id":"levelo_inurba_marseille","lat":43.25585,"lon":5.38232,"is_reserved":false,"is_disabled":true,"rental_uris":{"android":"levelo://app?vid=e91ced2f-2041-4b38-8446-0d5d97adec95","ios":"levelo://app?vid=e91ced2f-2041-4b38-8446-0d5d97adec95"},"vehicle_type_id":"4","last_reported":1752423113,"current_range_meters":17600,"station_id":"ce4bhih2rcd13ifvqfs0","pricing_plan_id":"cebpf4jnsgd1na2vs0mg"},{"bike_id":"e83439d2-4642-48a2-8689-7a894582417f","system_id":"levelo_inurba_marseille","lat":43.212,"lon":5.35061,"is_reserved":false,"is_disabled":false,"rental_uris":{"android":"levelo://app?vid=e83439d2-4642-48a2-8689-7a894582417f","ios":"levelo://app?vid=e83439d2-4642-48a2-8689-7a894582417f"},"vehicle_type_id":"4","last_reported":1752423113,"current_range_meters":17600,"station_id":"st_cvj6sg6p6f1abm77japg","pricing_plan_id":"cebpf4jnsgd1na2vs0mg"},{"bike_id":"ab98a793-f87b-475a-a204-df6fc312a9ac","system_id":"levelo_inurba_marseille","lat":43.26209,"lon":5.37445,"is_reserved":false,"is_disabled":false,"rental_uris":{"android":"levelo://app?vid=ab98a793-f87b-475a-a204-df6fc312a9ac","ios":"levelo://app?vid=ab98a793-f87b-475a-a204-df6fc312a9ac"},"vehicle_type_id":"4","last_reported":1752423113,"current_range_meters":17600,"station_id":"ce4bhgp2rcd13ifvqfc0","pricing_plan_id":"cebpf4jnsgd1na2vs0mg"},{"bike_id":"c8c4de1a-846f-4f5b-aace-9fb14bf7ad52","system_id":"levelo_inurba_marseille","lat":43.21197,"lon":5.35079,"is_reserved":false,"is_disabled":false,"rental_uris":{"android":"levelo://app?vid=c8c4de1a-846f-4f5b-aace-9fb14bf7ad52","ios":"levelo://app?vid=c8c4de1a-846f-4f5b-aace-9fb14bf7ad52"},"vehicle_type_id":"4","last_reported":1752423113,"current_range_meters":17600,"station_id":"st_cvj6sg6p6f1abm77japg","pricing_plan_id":"cebpf4jnsgd1na2vs0mg"},{"bike_id":"415a44e7-ef58-4e01-a2ff-39f1005933c3","system_id":"levelo_inurba_marseille","lat":43.217457,"lon":5.34598,"is_reserved":false,"is_disabled":false,"rental_uris":{"android":"levelo://app?vid=415a44e7-ef58-4e01-a2ff-39f1005933c3","ios":"levelo://app?vid=415a44e7-ef58-4e01-a2ff-39f1005933c3"},"vehicle_type_id":"4","last_reported":1752423113,"current_range_meters":17600,"station_id":"st_cvj6r9ubvosntc0bgbag","pricing_plan_id":"cebpf4jnsgd1na2vs0mg"},{"bike_id":"153b3aa6-9a0e-41f0-a137-bb8d792ba06e","system_id":"levelo_inurba_marseille","lat":43.28413,"lon":5.34992,"is_reserved":false,"is_disabled":false,"rental_uris":{"android":"levelo://app?vid=153b3aa6-9a0e-41f0-a137-bb8d792ba06e","ios":"levelo://app?vid=153b3aa6-9a0e-41f0-a137-bb8d792ba06e"},"vehicle_type_id":"4","last_reported":1752423113,"current_range_meters":17600,"station_id":"ce4bhbh2rcd13ifvqepg","pricing_plan_id":"cebpf4jnsgd1na2vs0mg"},{"bike_id":"99ae43ef-9981-41ec-907c-f94f73cc9ad2","system_id":"levelo_inurba_marseille","lat":43.29985,"lon":5.38484,"is_reserved":false,"is_disabled":false,"rental_uris":{"android":"levelo://app?vid=99ae43ef-9981-41ec-907c-f94f73cc9ad2","ios":"levelo://app?vid=99ae43ef-9981-41ec-907c-f94f73cc9ad2"},"vehicle_type_id":"4","last_reported":1752423113,"current_range_meters":17600,"station_id":"ce4bgj92rcd13ifvqbd0","pricing_plan_id":"cebpf4jnsgd1na2vs0mg"},{"bike_id":"b524e842-b329-42db-a749-a8a0cb765b2b","system_id":"levelo_inurba_marseille","lat":43.288456,"lon":5.393132,"is_reserved":false,"is_disabled":false,"rental_uris":{"android":"levelo://app?vid=b524e842-b329-42db-a749-a8a0cb765b2b","ios":"levelo://app?vid=b524e842-b329-42db-a749-a8a0cb765b2b"},"vehicle_type_id":"4","last_reported":1752423113,"current_range_meters":18000,"station_id":"ce4bh2p2rcd13ifvqdi0","pricing_plan_id":"cebpf4jnsgd1na2vs0mg"},{"bike_id":"8ada9b16-3667-415d-8728-647a544e3bba","system_id":"levelo_inurba_marseille","lat":43.22663,"lon":5.34799,"is_reserved":false,"is_disabled":false,"rental_uris":{"android":"levelo://app?vid=8ada9b16-3667-415d-8728-647a544e3bba","ios":"levelo://app?vid=8ada9b16-3667-415d-8728-647a544e3bba"},"vehicle_type_id":"4","last_reported":1752423113,"current_range_meters":18000,"station_id":"","pricing_plan_id":"cebpf4jnsgd1na2vs0mg"},{"bike_id":"45583b9b-98ff-4d18-a778-0d792c89bae3","system_id":"levelo_inurba_marseille","lat":43.285679,"lon":5.395008,"is_reserved":false,"is_disabled":true,"rental_uris":{"android":"levelo://app?vid=45583b9b-98ff-4d18-a778-0d792c89bae3","ios":"levelo://app?vid=45583b9b-98ff-4d18-a778-0d792c89bae3"},"vehicle_type_id":"4","last_reported":1752423113,"current_range_meters":18000,"station_id":"ce4bh292rcd13ifvqdg0","pricing_plan_id":"cebpf4jnsgd1na2vs0mg"},{"bike_id":"b1f565f2-83c4-4631-9b4d-1d683a0261ef","system_id":"levelo_inurba_marseille","lat":43.2119,"lon":5.35072,"is_reserved":false,"is_disabled":false,"rental_uris":{"android":"levelo://app?vid=b1f565f2-83c4-4631-9b4d-1d683a0261ef","ios":"levelo://app?vid=b1f565f2-83c4-4631-9b4d-1d683a0261ef"},"vehicle_type_id":"4","last_reported":1752423113,"current_range_meters":18000,"station_id":"st_cvj6sg6p6f1abm77japg","pricing_plan_id":"cebpf4jnsgd1na2vs0mg"},{"bike_id":"80955d0f-8669-4c02-b90f-c6fe20790c37","system_id":"levelo_inurba_marseille","lat":43.231987,"lon":5.350566,"is_reserved":false,"is_disabled":false,"rental_uris":{"android":"levelo://app?vid=80955d0f-8669-4c02-b90f-c6fe20790c37","ios":"levelo://app?vid=80955d0f-8669-4c02-b90f-c6fe20790c37"},"vehicle_type_id":"4","last_reported":1752423113,"current_range_meters":18000,"station_id":"","pricing_plan_id":"cebpf4jnsgd1na2vs0mg"},{"bike_id":"406373a1-591f-45b4-988d-bb44263a4ad6","system_id":"levelo_inurba_marseille","lat":43.266733,"lon":5.382733,"is_reserved":false,"is_disabled":false,"rental_uris":{"android":"levelo://app?vid=406373a1-591f-45b4-988d-bb44263a4ad6","ios":"levelo://app?vid=406373a1-591f-45b4-988d-bb44263a4ad6"},"vehicle_type_id":"4","last_reported":1752423113,"current_range_meters":18000,"station_id":"ce4bhg92rcd13ifvqf90","pricing_plan_id":"cebpf4jnsgd1na2vs0mg"},{"bike_id":"23a0fc67-4c39-4b74-8a86-2903d79b1606","system_id":"levelo_inurba_marseille","lat":43.23206,"lon":5.35551,"is_reserved":false,"is_disabled":true,"rental_uris":{"android":"levelo://app?vid=23a0fc67-4c39-4b74-8a86-2903d79b1606","ios":"levelo://app?vid=23a0fc67-4c39-4b74-8a86-2903d79b1606"},"vehicle_type_id":"4","last_reported":1752423113,"current_range_meters":18000,"station_id":"ce4bhu92rcd13ifvqi70","pricing_plan_id":"cebpf4jnsgd1na2vs0mg"},{"bike_id":"0186202f-a6cc-437c-b373-407b57a8b334","system_id":"levelo_inurba_marseille","lat":43.22505,"lon":5.34771,"is_reserved":false,"is_disabled":false,"rental_uris":{"android":"levelo://app?vid=0186202f-a6cc-437c-b373-407b57a8b334","ios":"levelo://app?vid=0186202f-a6cc-437c-b373-407b57a8b334"},"vehicle_type_id":"4","last_reported":1752423113,"current_range_meters":18000,"station_id":"st_cvj5dfep6f1abm77gieg","pricing_plan_id":"cebpf4jnsgd1na2vs0mg"},{"bike_id":"8a6849c8-6036-477b-8d6b-9c57afabe799","system_id":"levelo_inurba_marseille","lat":43.3059,"lon":5.39351,"is_reserved":false,"is_disabled":false,"rental_uris":{"android":"levelo://app?vid=8a6849c8-6036-477b-8d6b-9c57afabe799","ios":"levelo://app?vid=8a6849c8-6036-477b-8d6b-9c57afabe799"},"vehicle_type_id":"4","last_reported":1752423113,"current_range_meters":18000,"station_id":"ce4bh0p2rcd13ifvqd80","pricing_plan_id":"cebpf4jnsgd1na2vs0mg"},{"bike_id":"f7cf9aab-0ed3-4931-a48c-8d0743d0c0b9","system_id":"levelo_inurba_marseille","lat":43.22929,"lon":5.35374,"is_reserved":false,"is_disabled":true,"rental_uris":{"android":"levelo://app?vid=f7cf9aab-0ed3-4931-a48c-8d0743d0c0b9","ios":"levelo://app?vid=f7cf9aab-0ed3-4931-a48c-8d0743d0c0b9"},"vehicle_type_id":"4","last_reported":1752423113,"current_range_meters":18000,"station_id":"cpo3532slgdg3j2ikp40","pricing_plan_id":"cebpf4jnsgd1na2vs0mg"},{"bike_id":"bf67854a-fc75-4bbe-84b3-70a770694533","system_id":"levelo_inurba_marseille","lat":43.289371,"lon":5.396304,"is_reserved":false,"is_disabled":true,"rental_uris":{"android":"levelo://app?vid=bf67854a-fc75-4bbe-84b3-70a770694533","ios":"levelo://app?vid=bf67854a-fc75-4bbe-84b3-70a770694533"},"vehicle_type_id":"4","last_reported":1752423113,"current_range_meters":18000,"station_id":"ce4bh3h2rcd13ifvqdn0","pricing_plan_id":"cebpf4jnsgd1na2vs0mg"},{"bike_id":"8a01e88a-8371-4085-9838-47ae11897cd3","system_id":"levelo_inurba_marseille","lat":43.28151,"lon":5.426404,"is_reserved":false,"is_disabled":true,"rental_uris":{"android":"levelo://app?vid=8a01e88a-8371-4085-9838-47ae11897cd3","ios":"levelo://app?vid=8a01e88a-8371-4085-9838-47ae11897cd3"},"vehicle_type_id":"4","last_reported":1752423113,"current_range_meters":18000,"station_id":"ce4bhnh2rcd13ifvqgug","pricing_plan_id":"cebpf4jnsgd1na2vs0mg"},{"bike_id":"1f8dd362-3a15-4198-8d19-1bcc36e39872","system_id":"levelo_inurba_marseille","lat":43.21761,"lon":5.34607,"is_reserved":false,"is_disabled":false,"rental_uris":{"android":"levelo://app?vid=1f8dd362-3a15-4198-8d19-1bcc36e39872","ios":"levelo://app?vid=1f8dd362-3a15-4198-8d19-1bcc36e39872"},"vehicle_type_id":"4","last_reported":1752423113,"current_range_meters":18000,"station_id":"st_cvj6r9ubvosntc0bgbag","pricing_plan_id":"cebpf4jnsgd1na2vs0mg"},{"bike_id":"d8d4cd6b-d88f-4cc5-971c-93348e88d768","system_id":"levelo_inurba_marseille","lat":43.321099,"lon":5.367909,"is_reserved":false,"is_disabled":false,"rental_uris":{"android":"levelo://app?vid=d8d4cd6b-d88f-4cc5-971c-93348e88d768","ios":"levelo://app?vid=d8d4cd6b-d88f-4cc5-971c-93348e88d768"},"vehicle_type_id":"4","last_reported":1752423113,"current_range_meters":18000,"station_id":"ce4bhrh2rcd13ifvqhug","pricing_plan_id":"cebpf4jnsgd1na2vs0mg"},{"bike_id":"c3e84698-a8cd-4d1b-a918-c5ad56d98c77","system_id":"levelo_inurba_marseille","lat":43.27922,"lon":5.39538,"is_reserved":false,"is_disabled":true,"rental_uris":{"android":"levelo://app?vid=c3e84698-a8cd-4d1b-a918-c5ad56d98c77","ios":"levelo://app?vid=c3e84698-a8cd-4d1b-a918-c5ad56d98c77"},"vehicle_type_id":"4","last_reported":1752423113,"current_range_meters":18000,"station_id":"ce4bhf92rcd13ifvqf40","pricing_plan_id":"cebpf4jnsgd1na2vs0mg"},{"bike_id":"697d5fc4-b988-4a4e-8323-c1ce5ed61a61","system_id":"levelo_inurba_marseille","lat":43.21191,"lon":5.350726,"is_reserved":false,"is_disabled":false,"rental_uris":{"android":"levelo://app?vid=697d5fc4-b988-4a4e-8323-c1ce5ed61a61","ios":"levelo://app?vid=697d5fc4-b988-4a4e-8323-c1ce5ed61a61"},"vehicle_type_id":"4","last_reported":1752423113,"current_range_meters":18800,"station_id":"st_cvj6sg6p6f1abm77japg","pricing_plan_id":"cebpf4jnsgd1na2vs0mg"},{"bike_id":"446c2d9b-1b9f-44ae-bbde-8b2ff44b950c","system_id":"levelo_inurba_marseille","lat":43.29871,"lon":5.3973,"is_reserved":false,"is_disabled":false,"rental_uris":{"android":"levelo://app?vid=446c2d9b-1b9f-44ae-bbde-8b2ff44b950c","ios":"levelo://app?vid=446c2d9b-1b9f-44ae-bbde-8b2ff44b950c"},"vehicle_type_id":"4","last_reported":1752423113,"current_range_meters":18800,"station_id":"ce4bh0h2rcd13ifvqd50","pricing_plan_id":"cebpf4jnsgd1na2vs0mg"},{"bike_id":"a78d43fa-bf1d-44e3-9c20-c26e29e21bac","system_id":"levelo_inurba_marseille","lat":43.28432,"lon":5.35,"is_reserved":false,"is_disabled":false,"rental_uris":{"android":"levelo://app?vid=a78d43fa-bf1d-44e3-9c20-c26e29e21bac","ios":"levelo://app?vid=a78d43fa-bf1d-44e3-9c20-c26e29e21bac"},"vehicle_type_id":"4","last_reported":1752423113,"current_range_meters":18800,"station_id":"ce4bhbh2rcd13ifvqepg","pricing_plan_id":"cebpf4jnsgd1na2vs0mg"},{"bike_id":"6ac174d4-75c5-4a9c-9699-97cd631c6e65","system_id":"levelo_inurba_marseille","lat":43.25448,"lon":5.39927,"is_reserved":false,"is_disabled":false,"rental_uris":{"android":"levelo://app?vid=6ac174d4-75c5-4a9c-9699-97cd631c6e65","ios":"levelo://app?vid=6ac174d4-75c5-4a9c-9699-97cd631c6e65"},"vehicle_type_id":"4","last_reported":1752423113,"current_range_meters":18800,"station_id":"","pricing_plan_id":"cebpf4jnsgd1na2vs0mg"},{"bike_id":"fdd7cc18-4ecf-4559-8f3e-afe36ab9ab23","system_id":"levelo_inurba_marseille","lat":43.28419,"lon":5.34983,"is_reserved":false,"is_disabled":false,"rental_uris":{"android":"levelo://app?vid=fdd7cc18-4ecf-4559-8f3e-afe36ab9ab23","ios":"levelo://app?vid=fdd7cc18-4ecf-4559-8f3e-afe36ab9ab23"},"vehicle_type_id":"4","last_reported":1752423113,"current_range_meters":18800,"station_id":"ce4bhbh2rcd13ifvqepg","pricing_plan_id":"cebpf4jnsgd1na2vs0mg"},{"bike_id":"a3169208-b5d8-4be2-9aea-ef4d23bc2a8d","system_id":"levelo_inurba_marseille","lat":43.21745,"lon":5.34601,"is_reserved":false,"is_disabled":false,"rental_uris":{"android":"levelo://app?vid=a3169208-b5d8-4be2-9aea-ef4d23bc2a8d","ios":"levelo://app?vid=a3169208-b5d8-4be2-9aea-ef4d23bc2a8d"},"vehicle_type_id":"4","last_reported":1752423113,"current_range_meters":18800,"station_id":"st_cvj6r9ubvosntc0bgbag","pricing_plan_id":"cebpf4jnsgd1na2vs0mg"},{"bike_id":"adfe8be3-1e95-4a39-ba2c-619c92879657","system_id":"levelo_inurba_marseille","lat":43.23185,"lon":5.3998,"is_reserved":false,"is_disabled":false,"rental_uris":{"android":"levelo://app?vid=adfe8be3-1e95-4a39-ba2c-619c92879657","ios":"levelo://app?vid=adfe8be3-1e95-4a39-ba2c-619c92879657"},"vehicle_type_id":"4","last_reported":1752423113,"current_range_meters":18800,"station_id":"ce4bhn12rcd13ifvqgqg","pricing_plan_id":"cebpf4jnsgd1na2vs0mg"},{"bike_id":"e32147e0-2c1a-4589-a67a-3853e29a2cab","system_id":"levelo_inurba_marseille","lat":43.28426,"lon":5.35006,"is_reserved":false,"is_disabled":false,"rental_uris":{"android":"levelo://app?vid=e32147e0-2c1a-4589-a67a-3853e29a2cab","ios":"levelo://app?vid=e32147e0-2c1a-4589-a67a-3853e29a2cab"},"vehicle_type_id":"4","last_reported":1752423113,"current_range_meters":18800,"station_id":"ce4bhbh2rcd13ifvqepg","pricing_plan_id":"cebpf4jnsgd1na2vs0mg"},{"bike_id":"f59f6657-f62a-42fc-a273-bf50a25645d6","system_id":"levelo_inurba_marseille","lat":43.27366,"lon":5.36274,"is_reserved":false,"is_disabled":false,"rental_uris":{"android":"levelo://app?vid=f59f6657-f62a-42fc-a273-bf50a25645d6","ios":"levelo://app?vid=f59f6657-f62a-42fc-a273-bf50a25645d6"},"vehicle_type_id":"4","last_reported":1752423113,"current_range_meters":18800,"station_id":"ce4bhbh2rcd13ifvqeo0","pricing_plan_id":"cebpf4jnsgd1na2vs0mg"},{"bike_id":"a4d07f45-19f9-4df9-9728-be6623530a64","system_id":"levelo_inurba_marseille","lat":43.23722,"lon":5.38858,"is_reserved":false,"is_disabled":false,"rental_uris":{"android":"levelo://app?vid=a4d07f45-19f9-4df9-9728-be6623530a64","ios":"levelo://app?vid=a4d07f45-19f9-4df9-9728-be6623530a64"},"vehicle_type_id":"4","last_reported":1752423113,"current_range_meters":18800,"station_id":"","pricing_plan_id":"cebpf4jnsgd1na2vs0mg"},{"bike_id":"6fc4ca69-8ba3-45de-8a20-ecd2e8a95a5f","system_id":"levelo_inurba_marseille","lat":43.29799,"lon":5.404,"is_reserved":false,"is_disabled":false,"rental_uris":{"android":"levelo://app?vid=6fc4ca69-8ba3-45de-8a20-ecd2e8a95a5f","ios":"levelo://app?vid=6fc4ca69-8ba3-45de-8a20-ecd2e8a95a5f"},"vehicle_type_id":"4","last_reported":1752423113,"current_range_meters":18800,"station_id":"ce4bh112rcd13ifvqd90","pricing_plan_id":"cebpf4jnsgd1na2vs0mg"},{"bike_id":"aa4d5bb2-3e2f-42f8-8f72-faa45dbf4683","system_id":"levelo_inurba_marseille","lat":43.28488,"lon":5.38412,"is_reserved":false,"is_disabled":false,"rental_uris":{"android":"levelo://app?vid=aa4d5bb2-3e2f-42f8-8f72-faa45dbf4683","ios":"levelo://app?vid=aa4d5bb2-3e2f-42f8-8f72-faa45dbf4683"},"vehicle_type_id":"4","last_reported":1752423113,"current_range_meters":18800,"station_id":"ce4bh512rcd13ifvqe3g","pricing_plan_id":"cebpf4jnsgd1na2vs0mg"},{"bike_id":"0b64e547-af82-4cf7-9505-e5c3a697d8a1","system_id":"levelo_inurba_marseille","lat":43.21753,"lon":5.34602,"is_reserved":false,"is_disabled":false,"rental_uris":{"android":"levelo://app?vid=0b64e547-af82-4cf7-9505-e5c3a697d8a1","ios":"levelo://app?vid=0b64e547-af82-4cf7-9505-e5c3a697d8a1"},"vehicle_type_id":"4","last_reported":1752423113,"current_range_meters":18800,"station_id":"st_cvj6r9ubvosntc0bgbag","pricing_plan_id":"cebpf4jnsgd1na2vs0mg"},{"bike_id":"b21602cd-ddef-483d-904d-d073c48e8624","system_id":"levelo_inurba_marseille","lat":43.26212,"lon":5.37448,"is_reserved":false,"is_disabled":false,"rental_uris":{"android":"levelo://app?vid=b21602cd-ddef-483d-904d-d073c48e8624","ios":"levelo://app?vid=b21602cd-ddef-483d-904d-d073c48e8624"},"vehicle_type_id":"4","last_reported":1752423113,"current_range_meters":18800,"station_id":"ce4bhgp2rcd13ifvqfc0","pricing_plan_id":"cebpf4jnsgd1na2vs0mg"},{"bike_id":"f8293e10-0a64-48db-ae97-2008c359dc00","system_id":"levelo_inurba_marseille","lat":43.21756,"lon":5.34606,"is_reserved":false,"is_disabled":false,"rental_uris":{"android":"levelo://app?vid=f8293e10-0a64-48db-ae97-2008c359dc00","ios":"levelo://app?vid=f8293e10-0a64-48db-ae97-2008c359dc00"},"vehicle_type_id":"4","last_reported":1752423113,"current_range_meters":18800,"station_id":"st_cvj6r9ubvosntc0bgbag","pricing_plan_id":"cebpf4jnsgd1na2vs0mg"},{"bike_id":"12d48e4d-a291-49bb-ab45-967804b53d7b","system_id":"levelo_inurba_marseille","lat":43.27607,"lon":5.36111,"is_reserved":false,"is_disabled":true,"rental_uris":{"android":"levelo://app?vid=12d48e4d-a291-49bb-ab45-967804b53d7b","ios":"levelo://app?vid=12d48e4d-a291-49bb-ab45-967804b53d7b"},"vehicle_type_id":"4","last_reported":1752423113,"current_range_meters":19200,"station_id":"ce4bgj92rcd13ifvqbe0","pricing_plan_id":"cebpf4jnsgd1na2vs0mg"},{"bike_id":"e1442ff3-c767-4bb3-901d-e5f60873ad13","system_id":"levelo_inurba_marseille","lat":43.23191,"lon":5.39991,"is_reserved":false,"is_disabled":false,"rental_uris":{"android":"levelo://app?vid=e1442ff3-c767-4bb3-901d-e5f60873ad13","ios":"levelo://app?vid=e1442ff3-c767-4bb3-901d-e5f60873ad13"},"vehicle_type_id":"4","last_reported":1752423113,"current_range_meters":19200,"station_id":"ce4bhn12rcd13ifvqgqg","pricing_plan_id":"cebpf4jnsgd1na2vs0mg"},{"bike_id":"fba1dab9-fae1-4585-b9dc-bbf5a4e01f27","system_id":"levelo_inurba_marseille","lat":43.26683,"lon":5.38259,"is_reserved":false,"is_disabled":false,"rental_uris":{"android":"levelo://app?vid=fba1dab9-fae1-4585-b9dc-bbf5a4e01f27","ios":"levelo://app?vid=fba1dab9-fae1-4585-b9dc-bbf5a4e01f27"},"vehicle_type_id":"4","last_reported":1752423113,"current_range_meters":19200,"station_id":"ce4bhg92rcd13ifvqf90","pricing_plan_id":"cebpf4jnsgd1na2vs0mg"},{"bike_id":"5f48d587-f9d0-43e5-b0b2-bf2fb17b1a3c","system_id":"levelo_inurba_marseille","lat":43.2941,"lon":5.3861,"is_reserved":false,"is_disabled":true,"rental_uris":{"android":"levelo://app?vid=5f48d587-f9d0-43e5-b0b2-bf2fb17b1a3c","ios":"levelo://app?vid=5f48d587-f9d0-43e5-b0b2-bf2fb17b1a3c"},"vehicle_type_id":"4","last_reported":1752423113,"current_range_meters":19200,"station_id":"ce4bh2h2rcd13ifvqdh0","pricing_plan_id":"cebpf4jnsgd1na2vs0mg"},{"bike_id":"fcee4ff7-4014-474c-800a-8f15d9b03af0","system_id":"levelo_inurba_marseille","lat":43.28442,"lon":5.34978,"is_reserved":false,"is_disabled":false,"rental_uris":{"android":"levelo://app?vid=fcee4ff7-4014-474c-800a-8f15d9b03af0","ios":"levelo://app?vid=fcee4ff7-4014-474c-800a-8f15d9b03af0"},"vehicle_type_id":"4","last_reported":1752423113,"current_range_meters":19200,"station_id":"ce4bhbh2rcd13ifvqepg","pricing_plan_id":"cebpf4jnsgd1na2vs0mg"},{"bike_id":"ac855dfc-683e-459a-940a-b11e6e920126","system_id":"levelo_inurba_marseille","lat":43.28426,"lon":5.34994,"is_reserved":false,"is_disabled":false,"rental_uris":{"android":"levelo://app?vid=ac855dfc-683e-459a-940a-b11e6e920126","ios":"levelo://app?vid=ac855dfc-683e-459a-940a-b11e6e920126"},"vehicle_type_id":"4","last_reported":1752423113,"current_range_meters":19200,"station_id":"ce4bhbh2rcd13ifvqepg","pricing_plan_id":"cebpf4jnsgd1na2vs0mg"},{"bike_id":"f731294a-2472-4939-b8b8-88103f7c569c","system_id":"levelo_inurba_marseille","lat":43.2175,"lon":5.34592,"is_reserved":false,"is_disabled":false,"rental_uris":{"android":"levelo://app?vid=f731294a-2472-4939-b8b8-88103f7c569c","ios":"levelo://app?vid=f731294a-2472-4939-b8b8-88103f7c569c"},"vehicle_type_id":"4","last_reported":1752423113,"current_range_meters":19200,"station_id":"st_cvj6r9ubvosntc0bgbag","pricing_plan_id":"cebpf4jnsgd1na2vs0mg"},{"bike_id":"e4f60a7e-d35f-404e-924f-8496bc4bb84b","system_id":"levelo_inurba_marseille","lat":43.23194,"lon":5.39982,"is_reserved":false,"is_disabled":false,"rental_uris":{"android":"levelo://app?vid=e4f60a7e-d35f-404e-924f-8496bc4bb84b","ios":"levelo://app?vid=e4f60a7e-d35f-404e-924f-8496bc4bb84b"},"vehicle_type_id":"4","last_reported":1752423113,"current_range_meters":19200,"station_id":"ce4bhn12rcd13ifvqgqg","pricing_plan_id":"cebpf4jnsgd1na2vs0mg"},{"bike_id":"ebdb4319-680e-4888-b587-82d17288be68","system_id":"levelo_inurba_marseille","lat":43.27375,"lon":5.36254,"is_reserved":false,"is_disabled":false,"rental_uris":{"android":"levelo://app?vid=ebdb4319-680e-4888-b587-82d17288be68","ios":"levelo://app?vid=ebdb4319-680e-4888-b587-82d17288be68"},"vehicle_type_id":"4","last_reported":1752423113,"current_range_meters":19200,"station_id":"ce4bhbh2rcd13ifvqeo0","pricing_plan_id":"cebpf4jnsgd1na2vs0mg"},{"bike_id":"574a470e-82c5-42cb-af5f-1c7461e039af","system_id":"levelo_inurba_marseille","lat":43.28419,"lon":5.34989,"is_reserved":false,"is_disabled":false,"rental_uris":{"android":"levelo://app?vid=574a470e-82c5-42cb-af5f-1c7461e039af","ios":"levelo://app?vid=574a470e-82c5-42cb-af5f-1c7461e039af"},"vehicle_type_id":"4","last_reported":1752423113,"current_range_meters":19200,"station_id":"ce4bhbh2rcd13ifvqepg","pricing_plan_id":"cebpf4jnsgd1na2vs0mg"},{"bike_id":"919b4891-9365-4fe3-8eb5-ac9fef5781cc","system_id":"levelo_inurba_marseille","lat":43.29187,"lon":5.36018,"is_reserved":false,"is_disabled":false,"rental_uris":{"android":"levelo://app?vid=919b4891-9365-4fe3-8eb5-ac9fef5781cc","ios":"levelo://app?vid=919b4891-9365-4fe3-8eb5-ac9fef5781cc"},"vehicle_type_id":"4","last_reported":1752423113,"current_range_meters":19600,"station_id":"","pricing_plan_id":"cebpf4jnsgd1na2vs0mg"},{"bike_id":"fdf41f87-deb0-46b3-9de1-6dd73b263487","system_id":"levelo_inurba_marseille","lat":43.25495,"lon":5.37662,"is_reserved":false,"is_disabled":true,"rental_uris":{"android":"levelo://app?vid=fdf41f87-deb0-46b3-9de1-6dd73b263487","ios":"levelo://app?vid=fdf41f87-deb0-46b3-9de1-6dd73b263487"},"vehicle_type_id":"4","last_reported":1752423113,"current_range_meters":19600,"station_id":"ce4bhh12rcd13ifvqff0","pricing_plan_id":"cebpf4jnsgd1na2vs0mg"},{"bike_id":"2c81c752-b139-48bc-a4ee-7fa7f8526278","system_id":"levelo_inurba_marseille","lat":43.21754,"lon":5.34596,"is_reserved":false,"is_disabled":true,"rental_uris":{"android":"levelo://app?vid=2c81c752-b139-48bc-a4ee-7fa7f8526278","ios":"levelo://app?vid=2c81c752-b139-48bc-a4ee-7fa7f8526278"},"vehicle_type_id":"4","last_reported":1752423113,"current_range_meters":19600,"station_id":"st_cvj6r9ubvosntc0bgbag","pricing_plan_id":"cebpf4jnsgd1na2vs0mg"},{"bike_id":"65779b1a-949d-462a-a181-850d4123044f","system_id":"levelo_inurba_marseille","lat":43.22966,"lon":5.3533,"is_reserved":false,"is_disabled":false,"rental_uris":{"android":"levelo://app?vid=65779b1a-949d-462a-a181-850d4123044f","ios":"levelo://app?vid=65779b1a-949d-462a-a181-850d4123044f"},"vehicle_type_id":"4","last_reported":1752423113,"current_range_meters":19600,"station_id":"cpo3532slgdg3j2ikp40","pricing_plan_id":"cebpf4jnsgd1na2vs0mg"},{"bike_id":"aa260077-cb0d-43c9-8e67-329c1b69779f","system_id":"levelo_inurba_marseille","lat":43.21194,"lon":5.35085,"is_reserved":false,"is_disabled":false,"rental_uris":{"android":"levelo://app?vid=aa260077-cb0d-43c9-8e67-329c1b69779f","ios":"levelo://app?vid=aa260077-cb0d-43c9-8e67-329c1b69779f"},"vehicle_type_id":"4","last_reported":1752423113,"current_range_meters":19600,"station_id":"st_cvj6sg6p6f1abm77japg","pricing_plan_id":"cebpf4jnsgd1na2vs0mg"},{"bike_id":"9f67740e-4d05-4ea2-ab58-11b9acc9faff","system_id":"levelo_inurba_marseille","lat":43.26584,"lon":5.39017,"is_reserved":false,"is_disabled":false,"rental_uris":{"android":"levelo://app?vid=9f67740e-4d05-4ea2-ab58-11b9acc9faff","ios":"levelo://app?vid=9f67740e-4d05-4ea2-ab58-11b9acc9faff"},"vehicle_type_id":"4","last_reported":1752423113,"current_range_meters":19600,"station_id":"ce4bhe12rcd13ifvqf30","pricing_plan_id":"cebpf4jnsgd1na2vs0mg"},{"bike_id":"08e67338-a2ff-42fc-a939-92ad435f118e","system_id":"levelo_inurba_marseille","lat":43.27674,"lon":5.35714,"is_reserved":false,"is_disabled":false,"rental_uris":{"android":"levelo://app?vid=08e67338-a2ff-42fc-a939-92ad435f118e","ios":"levelo://app?vid=08e67338-a2ff-42fc-a939-92ad435f118e"},"vehicle_type_id":"4","last_reported":1752423113,"current_range_meters":19600,"station_id":"","pricing_plan_id":"cebpf4jnsgd1na2vs0mg"},{"bike_id":"4c7f8a33-a59d-4676-b452-19c7337335c8","system_id":"levelo_inurba_marseille","lat":43.28856,"lon":5.39304,"is_reserved":false,"is_disabled":false,"rental_uris":{"android":"levelo://app?vid=4c7f8a33-a59d-4676-b452-19c7337335c8","ios":"levelo://app?vid=4c7f8a33-a59d-4676-b452-19c7337335c8"},"vehicle_type_id":"4","last_reported":1752423113,"current_range_meters":19600,"station_id":"ce4bh2p2rcd13ifvqdi0","pricing_plan_id":"cebpf4jnsgd1na2vs0mg"},{"bike_id":"cc40c06c-3cdf-462a-b74d-55fb4af16b04","system_id":"levelo_inurba_marseille","lat":43.28152,"lon":5.42634,"is_reserved":false,"is_disabled":false,"rental_uris":{"android":"levelo://app?vid=cc40c06c-3cdf-462a-b74d-55fb4af16b04","ios":"levelo://app?vid=cc40c06c-3cdf-462a-b74d-55fb4af16b04"},"vehicle_type_id":"4","last_reported":1752423113,"current_range_meters":19600,"station_id":"ce4bhnh2rcd13ifvqgug","pricing_plan_id":"cebpf4jnsgd1na2vs0mg"},{"bike_id":"26333ae4-2ca6-4315-9126-41f4031f1a5a","system_id":"levelo_inurba_marseille","lat":43.28424,"lon":5.34985,"is_reserved":false,"is_disabled":false,"rental_uris":{"android":"levelo://app?vid=26333ae4-2ca6-4315-9126-41f4031f1a5a","ios":"levelo://app?vid=26333ae4-2ca6-4315-9126-41f4031f1a5a"},"vehicle_type_id":"4","last_reported":1752423113,"current_range_meters":19600,"station_id":"ce4bhbh2rcd13ifvqepg","pricing_plan_id":"cebpf4jnsgd1na2vs0mg"},{"bike_id":"173a3567-8aea-49b1-98dc-03d706b2b861","system_id":"levelo_inurba_marseille","lat":43.32286,"lon":5.38275,"is_reserved":false,"is_disabled":false,"rental_uris":{"android":"levelo://app?vid=173a3567-8aea-49b1-98dc-03d706b2b861","ios":"levelo://app?vid=173a3567-8aea-49b1-98dc-03d706b2b861"},"vehicle_type_id":"4","last_reported":1752423113,"current_range_meters":19600,"station_id":"ce4bhr12rcd13ifvqhqg","pricing_plan_id":"cebpf4jnsgd1na2vs0mg"},{"bike_id":"661015c8-5a56-4bde-8f86-eb746530b608","system_id":"levelo_inurba_marseille","lat":43.21757,"lon":5.34601,"is_reserved":false,"is_disabled":false,"rental_uris":{"android":"levelo://app?vid=661015c8-5a56-4bde-8f86-eb746530b608","ios":"levelo://app?vid=661015c8-5a56-4bde-8f86-eb746530b608"},"vehicle_type_id":"4","last_reported":1752423113,"current_range_meters":19600,"station_id":"st_cvj6r9ubvosntc0bgbag","pricing_plan_id":"cebpf4jnsgd1na2vs0mg"},{"bike_id":"71e479f4-838c-44c9-a19e-d1950cd099a6","system_id":"levelo_inurba_marseille","lat":43.27635,"lon":5.42372,"is_reserved":false,"is_disabled":false,"rental_uris":{"android":"levelo://app?vid=71e479f4-838c-44c9-a19e-d1950cd099a6","ios":"levelo://app?vid=71e479f4-838c-44c9-a19e-d1950cd099a6"},"vehicle_type_id":"4","last_reported":1752423113,"current_range_meters":20000,"station_id":"","pricing_plan_id":"cebpf4jnsgd1na2vs0mg"},{"bike_id":"d7a76a84-719d-407c-913b-d340ac229333","system_id":"levelo_inurba_marseille","lat":43.2843,"lon":5.34997,"is_reserved":false,"is_disabled":false,"rental_uris":{"android":"levelo://app?vid=d7a76a84-719d-407c-913b-d340ac229333","ios":"levelo://app?vid=d7a76a84-719d-407c-913b-d340ac229333"},"vehicle_type_id":"4","last_reported":1752423113,"current_range_meters":20000,"station_id":"ce4bhbh2rcd13ifvqepg","pricing_plan_id":"cebpf4jnsgd1na2vs0mg"},{"bike_id":"45311e08-8eb0-43a2-b8a3-76cbe9328558","system_id":"levelo_inurba_marseille","lat":43.286197,"lon":5.351083,"is_reserved":false,"is_disabled":false,"rental_uris":{"android":"levelo://app?vid=45311e08-8eb0-43a2-b8a3-76cbe9328558","ios":"levelo://app?vid=45311e08-8eb0-43a2-b8a3-76cbe9328558"},"vehicle_type_id":"4","last_reported":1752423113,"current_range_meters":20000,"station_id":"ce4bhch2rcd13ifvqeug","pricing_plan_id":"cebpf4jnsgd1na2vs0mg"},{"bike_id":"0a36eb4e-864b-481e-a07f-54eb69e5afa7","system_id":"levelo_inurba_marseille","lat":43.26587,"lon":5.39483,"is_reserved":false,"is_disabled":false,"rental_uris":{"android":"levelo://app?vid=0a36eb4e-864b-481e-a07f-54eb69e5afa7","ios":"levelo://app?vid=0a36eb4e-864b-481e-a07f-54eb69e5afa7"},"vehicle_type_id":"4","last_reported":1752423113,"current_range_meters":20000,"station_id":"","pricing_plan_id":"cebpf4jnsgd1na2vs0mg"},{"bike_id":"e34a5410-f6be-4fa3-b6d0-ad4b1c7d2041","system_id":"levelo_inurba_marseille","lat":43.30311,"lon":5.36908,"is_reserved":false,"is_disabled":false,"rental_uris":{"android":"levelo://app?vid=e34a5410-f6be-4fa3-b6d0-ad4b1c7d2041","ios":"levelo://app?vid=e34a5410-f6be-4fa3-b6d0-ad4b1c7d2041"},"vehicle_type_id":"4","last_reported":1752423113,"current_range_meters":20000,"station_id":"ce4bgqh2rcd13ifvqc5g","pricing_plan_id":"cebpf4jnsgd1na2vs0mg"},{"bike_id":"152306af-4144-4e36-8d4a-a7994eaa2fbe","system_id":"levelo_inurba_marseille","lat":43.23073,"lon":5.35481,"is_reserved":false,"is_disabled":false,"rental_uris":{"android":"levelo://app?vid=152306af-4144-4e36-8d4a-a7994eaa2fbe","ios":"levelo://app?vid=152306af-4144-4e36-8d4a-a7994eaa2fbe"},"vehicle_type_id":"4","last_reported":1752423113,"current_range_meters":20000,"station_id":"cpo3342slgdg3j2ifvpg","pricing_plan_id":"cebpf4jnsgd1na2vs0mg"},{"bike_id":"32a2c848-3afe-491a-abec-bd18e43249b0","system_id":"levelo_inurba_marseille","lat":43.301385,"lon":5.387673,"is_reserved":false,"is_disabled":false,"rental_uris":{"android":"levelo://app?vid=32a2c848-3afe-491a-abec-bd18e43249b0","ios":"levelo://app?vid=32a2c848-3afe-491a-abec-bd18e43249b0"},"vehicle_type_id":"4","last_reported":1752423113,"current_range_meters":20000,"station_id":"","pricing_plan_id":"cebpf4jnsgd1na2vs0mg"},{"bike_id":"aedcefdc-6647-463e-888e-c5a8030f3382","system_id":"levelo_inurba_marseille","lat":43.286247,"lon":5.351097,"is_reserved":false,"is_disabled":false,"rental_uris":{"android":"levelo://app?vid=aedcefdc-6647-463e-888e-c5a8030f3382","ios":"levelo://app?vid=aedcefdc-6647-463e-888e-c5a8030f3382"},"vehicle_type_id":"4","last_reported":1752423113,"current_range_meters":20000,"station_id":"ce4bhch2rcd13ifvqeug","pricing_plan_id":"cebpf4jnsgd1na2vs0mg"},{"bike_id":"04b9bbde-a145-41e7-a7b0-cd8d25714b9e","system_id":"levelo_inurba_marseille","lat":43.29219,"lon":5.35826,"is_reserved":false,"is_disabled":false,"rental_uris":{"android":"levelo://app?vid=04b9bbde-a145-41e7-a7b0-cd8d25714b9e","ios":"levelo://app?vid=04b9bbde-a145-41e7-a7b0-cd8d25714b9e"},"vehicle_type_id":"4","last_reported":1752423113,"current_range_meters":20000,"station_id":"ce4bhb12rcd13ifvqel0","pricing_plan_id":"cebpf4jnsgd1na2vs0mg"},{"bike_id":"0327ba3d-56c5-40a2-9b87-fb20780bb2cf","system_id":"levelo_inurba_marseille","lat":43.28521,"lon":5.3846,"is_reserved":false,"is_disabled":true,"rental_uris":{"android":"levelo://app?vid=0327ba3d-56c5-40a2-9b87-fb20780bb2cf","ios":"levelo://app?vid=0327ba3d-56c5-40a2-9b87-fb20780bb2cf"},"vehicle_type_id":"4","last_reported":1752423113,"current_range_meters":20000,"station_id":"","pricing_plan_id":"cebpf4jnsgd1na2vs0mg"},{"bike_id":"c2857b8a-2544-48ae-936c-90bab1dd6ab6","system_id":"levelo_inurba_marseille","lat":43.21216,"lon":5.35072,"is_reserved":false,"is_disabled":false,"rental_uris":{"android":"levelo://app?vid=c2857b8a-2544-48ae-936c-90bab1dd6ab6","ios":"levelo://app?vid=c2857b8a-2544-48ae-936c-90bab1dd6ab6"},"vehicle_type_id":"4","last_reported":1752423113,"current_range_meters":20000,"station_id":"st_cvj6sg6p6f1abm77japg","pricing_plan_id":"cebpf4jnsgd1na2vs0mg"},{"bike_id":"0b14b0fc-7e6c-41a3-a94a-30291df383fb","system_id":"levelo_inurba_marseille","lat":43.25529,"lon":5.37644,"is_reserved":false,"is_disabled":false,"rental_uris":{"android":"levelo://app?vid=0b14b0fc-7e6c-41a3-a94a-30291df383fb","ios":"levelo://app?vid=0b14b0fc-7e6c-41a3-a94a-30291df383fb"},"vehicle_type_id":"4","last_reported":1752423113,"current_range_meters":20000,"station_id":"ce4bhh12rcd13ifvqff0","pricing_plan_id":"cebpf4jnsgd1na2vs0mg"},{"bike_id":"b641e4e0-38e8-4900-a70e-ec5d30a79e7d","system_id":"levelo_inurba_marseille","lat":43.29989,"lon":5.38508,"is_reserved":false,"is_disabled":true,"rental_uris":{"android":"levelo://app?vid=b641e4e0-38e8-4900-a70e-ec5d30a79e7d","ios":"levelo://app?vid=b641e4e0-38e8-4900-a70e-ec5d30a79e7d"},"vehicle_type_id":"4","last_reported":1752423113,"current_range_meters":20000,"station_id":"ce4bgj92rcd13ifvqbd0","pricing_plan_id":"cebpf4jnsgd1na2vs0mg"},{"bike_id":"fd45ce6f-4b8c-407a-91aa-8c33650e607a","system_id":"levelo_inurba_marseille","lat":43.28002,"lon":5.41675,"is_reserved":false,"is_disabled":false,"rental_uris":{"android":"levelo://app?vid=fd45ce6f-4b8c-407a-91aa-8c33650e607a","ios":"levelo://app?vid=fd45ce6f-4b8c-407a-91aa-8c33650e607a"},"vehicle_type_id":"4","last_reported":1752423113,"current_range_meters":20400,"station_id":"ce4bho12rcd13ifvqh1g","pricing_plan_id":"cebpf4jnsgd1na2vs0mg"},{"bike_id":"dbd7fe56-0203-46bf-b401-57ead6784732","system_id":"levelo_inurba_marseille","lat":43.25504,"lon":5.37653,"is_reserved":false,"is_disabled":false,"rental_uris":{"android":"levelo://app?vid=dbd7fe56-0203-46bf-b401-57ead6784732","ios":"levelo://app?vid=dbd7fe56-0203-46bf-b401-57ead6784732"},"vehicle_type_id":"4","last_reported":1752423113,"current_range_meters":20400,"station_id":"ce4bhh12rcd13ifvqff0","pricing_plan_id":"cebpf4jnsgd1na2vs0mg"},{"bike_id":"7596bf57-ab58-4a04-891f-12182ed6ce97","system_id":"levelo_inurba_marseille","lat":43.28149,"lon":5.42643,"is_reserved":false,"is_disabled":false,"rental_uris":{"android":"levelo://app?vid=7596bf57-ab58-4a04-891f-12182ed6ce97","ios":"levelo://app?vid=7596bf57-ab58-4a04-891f-12182ed6ce97"},"vehicle_type_id":"4","last_reported":1752423113,"current_range_meters":20400,"station_id":"ce4bhnh2rcd13ifvqgug","pricing_plan_id":"cebpf4jnsgd1na2vs0mg"},{"bike_id":"9af82aab-bd6f-4cb1-98ee-fcf78c92a3bf","system_id":"levelo_inurba_marseille","lat":43.30152,"lon":5.380811,"is_reserved":false,"is_disabled":false,"rental_uris":{"android":"levelo://app?vid=9af82aab-bd6f-4cb1-98ee-fcf78c92a3bf","ios":"levelo://app?vid=9af82aab-bd6f-4cb1-98ee-fcf78c92a3bf"},"vehicle_type_id":"4","last_reported":1752423113,"current_range_meters":20000,"station_id":"ce4bgjp2rcd13ifvqbh0","pricing_plan_id":"cebpf4jnsgd1na2vs0mg"},{"bike_id":"ba085aee-db44-4a91-bc16-ae3772b127c4","system_id":"levelo_inurba_marseille","lat":43.29927,"lon":5.37455,"is_reserved":false,"is_disabled":false,"rental_uris":{"android":"levelo://app?vid=ba085aee-db44-4a91-bc16-ae3772b127c4","ios":"levelo://app?vid=ba085aee-db44-4a91-bc16-ae3772b127c4"},"vehicle_type_id":"4","last_reported":1752423113,"current_range_meters":20000,"station_id":"ce4bgjh2rcd13ifvqbg0","pricing_plan_id":"cebpf4jnsgd1na2vs0mg"},{"bike_id":"47903685-e38d-4959-a43a-184ffb4fd0fa","system_id":"levelo_inurba_marseille","lat":43.21746,"lon":5.34605,"is_reserved":false,"is_disabled":false,"rental_uris":{"android":"levelo://app?vid=47903685-e38d-4959-a43a-184ffb4fd0fa","ios":"levelo://app?vid=47903685-e38d-4959-a43a-184ffb4fd0fa"},"vehicle_type_id":"4","last_reported":1752423113,"current_range_meters":20400,"station_id":"st_cvj6r9ubvosntc0bgbag","pricing_plan_id":"cebpf4jnsgd1na2vs0mg"},{"bike_id":"ebbb5ff3-2b38-4457-9077-5ca24176ca30","system_id":"levelo_inurba_marseille","lat":43.28416,"lon":5.34994,"is_reserved":false,"is_disabled":false,"rental_uris":{"android":"levelo://app?vid=ebbb5ff3-2b38-4457-9077-5ca24176ca30","ios":"levelo://app?vid=ebbb5ff3-2b38-4457-9077-5ca24176ca30"},"vehicle_type_id":"4","last_reported":1752423113,"current_range_meters":20400,"station_id":"ce4bhbh2rcd13ifvqepg","pricing_plan_id":"cebpf4jnsgd1na2vs0mg"},{"bike_id":"80d62ad3-26a9-4c1d-b183-d3804c4453bf","system_id":"levelo_inurba_marseille","lat":43.31502,"lon":5.37311,"is_reserved":false,"is_disabled":false,"rental_uris":{"android":"levelo://app?vid=80d62ad3-26a9-4c1d-b183-d3804c4453bf","ios":"levelo://app?vid=80d62ad3-26a9-4c1d-b183-d3804c4453bf"},"vehicle_type_id":"4","last_reported":1752423113,"current_range_meters":20800,"station_id":"ce4bgt12rcd13ifvqcd0","pricing_plan_id":"cebpf4jnsgd1na2vs0mg"},{"bike_id":"44e10618-e1b8-4569-bc24-980853c4bf04","system_id":"levelo_inurba_marseille","lat":43.229214,"lon":5.353758,"is_reserved":false,"is_disabled":true,"rental_uris":{"android":"levelo://app?vid=44e10618-e1b8-4569-bc24-980853c4bf04","ios":"levelo://app?vid=44e10618-e1b8-4569-bc24-980853c4bf04"},"vehicle_type_id":"4","last_reported":1752423113,"current_range_meters":20800,"station_id":"cpo3532slgdg3j2ikp40","pricing_plan_id":"cebpf4jnsgd1na2vs0mg"},{"bike_id":"b557b223-dad6-4fea-8f09-4a3a9f8b1c3a","system_id":"levelo_inurba_marseille","lat":43.30306,"lon":5.39209,"is_reserved":false,"is_disabled":true,"rental_uris":{"android":"levelo://app?vid=b557b223-dad6-4fea-8f09-4a3a9f8b1c3a","ios":"levelo://app?vid=b557b223-dad6-4fea-8f09-4a3a9f8b1c3a"},"vehicle_type_id":"4","last_reported":1752423113,"current_range_meters":20800,"station_id":"ce4bgkh2rcd13ifvqbk0","pricing_plan_id":"cebpf4jnsgd1na2vs0mg"},{"bike_id":"c76c8ff0-43c0-40a7-9b84-84c2c1d54c8e","system_id":"levelo_inurba_marseille","lat":43.294787,"lon":5.385398,"is_reserved":false,"is_disabled":false,"rental_uris":{"android":"levelo://app?vid=c76c8ff0-43c0-40a7-9b84-84c2c1d54c8e","ios":"levelo://app?vid=c76c8ff0-43c0-40a7-9b84-84c2c1d54c8e"},"vehicle_type_id":"4","last_reported":1752423113,"current_range_meters":20800,"station_id":"","pricing_plan_id":"cebpf4jnsgd1na2vs0mg"},{"bike_id":"7740b0eb-1c54-4cc6-8ce9-62c40526d386","system_id":"levelo_inurba_marseille","lat":43.276166,"lon":5.36111,"is_reserved":false,"is_disabled":false,"rental_uris":{"android":"levelo://app?vid=7740b0eb-1c54-4cc6-8ce9-62c40526d386","ios":"levelo://app?vid=7740b0eb-1c54-4cc6-8ce9-62c40526d386"},"vehicle_type_id":"4","last_reported":1752423113,"current_range_meters":20800,"station_id":"ce4bgj92rcd13ifvqbe0","pricing_plan_id":"cebpf4jnsgd1na2vs0mg"},