{"last_updated":1778399711,"ttl":60,"version":"2.2","data":{"bikes":[{"bike_id":"05a796eb-a8ec-4e46-8187-a0c871af4596","system_id":"levelo_inurba_marseille","lat":43.29567,"lon":5.39966,"is_reserved":false,"is_disabled":false,"rental_uris":{"android":"levelo://app?vid=05a796eb-a8ec-4e46-8187-a0c871af4596","ios":"levelo://app?vid=05a796eb-a8ec-4e46-8187-a0c871af4596"},"vehicle_type_id":"4","last_reported":1778399712,"current_range_meters":2800,"station_id":"ce4bh312rcd13ifvqdj0","pricing_plan_id":"cebpf4jnsgd1na2vs0mg"},{"bike_id":"906849b3-6da1-4b7f-8d4d-8bd0229d7298","system_id":"levelo_inurba_marseille","lat":43.25564,"lon":5.38233,"is_reserved":false,"is_disabled":false,"rental_uris":{"android":"levelo://app?vid=906849b3-6da1-4b7f-8d4d-8bd0229d7298","ios":"levelo://app?vid=906849b3-6da1-4b7f-8d4d-8bd0229d7298"},"vehicle_type_id":"4","last_reported":1778399712,"current_range_meters":2800,"station_id":"ce4bhih2rcd13ifvqfs0","pricing_plan_id":"cebpf4jnsgd1na2vs0mg"},{"bike_id":"93b04531-424f-4327-bf0d-4e3bfaedafc0","system_id":"levelo_inurba_marseille","lat":43.30643,"lon":5.40061,"is_reserved":false,"is_disabled":false,"rental_uris":{"android":"levelo://app?vid=93b04531-424f-4327-bf0d-4e3bfaedafc0","ios":"levelo://app?vid=93b04531-424f-4327-bf0d-4e3bfaedafc0"},"vehicle_type_id":"4","last_reported":1778399712,"current_range_meters":2800,"station_id":"ce4bh112rcd13ifvqda0","pricing_plan_id":"cebpf4jnsgd1na2vs0mg"},{"bike_id":"fc40015b-1aa0-4b8b-bc1c-c955776c87af","system_id":"levelo_inurba_marseille","lat":43.31459,"lon":5.39773,"is_reserved":false,"is_disabled":false,"rental_uris":{"android":"levelo://app?vid=fc40015b-1aa0-4b8b-bc1c-c955776c87af","ios":"levelo://app?vid=fc40015b-1aa0-4b8b-bc1c-c955776c87af"},"vehicle_type_id":"4","last_reported":1778399712,"current_range_meters":2800,"station_id":"","pricing_plan_id":"cebpf4jnsgd1na2vs0mg"},{"bike_id":"c8839437-c286-4318-b7be-1ada9dfcd256","system_id":"levelo_inurba_marseille","lat":43.26393,"lon":5.41059,"is_reserved":false,"is_disabled":false,"rental_uris":{"android":"levelo://app?vid=c8839437-c286-4318-b7be-1ada9dfcd256","ios":"levelo://app?vid=c8839437-c286-4318-b7be-1ada9dfcd256"},"vehicle_type_id":"4","last_reported":1778399712,"current_range_meters":2800,"station_id":"st_d4e5ca6na9uc73bfl5fg","pricing_plan_id":"cebpf4jnsgd1na2vs0mg"},{"bike_id":"cb80dcd4-b8aa-4227-bb2e-992cba79797d","system_id":"levelo_inurba_marseille","lat":43.23184,"lon":5.39986,"is_reserved":false,"is_disabled":false,"rental_uris":{"android":"levelo://app?vid=cb80dcd4-b8aa-4227-bb2e-992cba79797d","ios":"levelo://app?vid=cb80dcd4-b8aa-4227-bb2e-992cba79797d"},"vehicle_type_id":"4","last_reported":1778399712,"current_range_meters":2800,"station_id":"ce4bhn12rcd13ifvqgqg","pricing_plan_id":"cebpf4jnsgd1na2vs0mg"},{"bike_id":"e2d0e535-5d65-407c-997f-22612629ef39","system_id":"levelo_inurba_marseille","lat":43.28339,"lon":5.41446,"is_reserved":false,"is_disabled":false,"rental_uris":{"android":"levelo://app?vid=e2d0e535-5d65-407c-997f-22612629ef39","ios":"levelo://app?vid=e2d0e535-5d65-407c-997f-22612629ef39"},"vehicle_type_id":"4","last_reported":1778399712,"current_range_meters":2800,"station_id":"","pricing_plan_id":"cebpf4jnsgd1na2vs0mg"},{"bike_id":"62621d15-b4f4-4817-9a54-6236d8f83703","system_id":"levelo_inurba_marseille","lat":43.24617,"lon":5.41613,"is_reserved":false,"is_disabled":false,"rental_uris":{"android":"levelo://app?vid=62621d15-b4f4-4817-9a54-6236d8f83703","ios":"levelo://app?vid=62621d15-b4f4-4817-9a54-6236d8f83703"},"vehicle_type_id":"4","last_reported":1778399712,"current_range_meters":3200,"station_id":"","pricing_plan_id":"cebpf4jnsgd1na2vs0mg"},{"bike_id":"8127a179-0b6c-4390-978d-34e331e55652","system_id":"levelo_inurba_marseille","lat":43.31716,"lon":5.40458,"is_reserved":false,"is_disabled":false,"rental_uris":{"android":"levelo://app?vid=8127a179-0b6c-4390-978d-34e331e55652","ios":"levelo://app?vid=8127a179-0b6c-4390-978d-34e331e55652"},"vehicle_type_id":"4","last_reported":1778399712,"current_range_meters":3200,"station_id":"ce4bh012rcd13ifvqd00","pricing_plan_id":"cebpf4jnsgd1na2vs0mg"},{"bike_id":"8fdbe986-716a-4dce-a50d-3af695e9688c","system_id":"levelo_inurba_marseille","lat":43.33512,"lon":5.3745,"is_reserved":false,"is_disabled":false,"rental_uris":{"android":"levelo://app?vid=8fdbe986-716a-4dce-a50d-3af695e9688c","ios":"levelo://app?vid=8fdbe986-716a-4dce-a50d-3af695e9688c"},"vehicle_type_id":"4","last_reported":1778399712,"current_range_meters":3200,"station_id":"st_d46tts09ee8s73dlu43g","pricing_plan_id":"cebpf4jnsgd1na2vs0mg"},{"bike_id":"e2ec81ab-b1eb-4944-9ed1-a02dd3764e81","system_id":"levelo_inurba_marseille","lat":43.3041,"lon":5.42353,"is_reserved":false,"is_disabled":false,"rental_uris":{"android":"levelo://app?vid=e2ec81ab-b1eb-4944-9ed1-a02dd3764e81","ios":"levelo://app?vid=e2ec81ab-b1eb-4944-9ed1-a02dd3764e81"},"vehicle_type_id":"4","last_reported":1778399712,"current_range_meters":3200,"station_id":"","pricing_plan_id":"cebpf4jnsgd1na2vs0mg"},{"bike_id":"91ed674c-7c03-4023-884d-b5bd86b9af13","system_id":"levelo_inurba_marseille","lat":43.30933,"lon":5.40147,"is_reserved":false,"is_disabled":false,"rental_uris":{"android":"levelo://app?vid=91ed674c-7c03-4023-884d-b5bd86b9af13","ios":"levelo://app?vid=91ed674c-7c03-4023-884d-b5bd86b9af13"},"vehicle_type_id":"4","last_reported":1778399712,"current_range_meters":3200,"station_id":"ce4bgvp2rcd13ifvqct0","pricing_plan_id":"cebpf4jnsgd1na2vs0mg"},{"bike_id":"f43779d5-16c9-4f97-95b2-2f1f51b6ba6b","system_id":"levelo_inurba_marseille","lat":43.30862,"lon":5.37205,"is_reserved":false,"is_disabled":false,"rental_uris":{"android":"levelo://app?vid=f43779d5-16c9-4f97-95b2-2f1f51b6ba6b","ios":"levelo://app?vid=f43779d5-16c9-4f97-95b2-2f1f51b6ba6b"},"vehicle_type_id":"4","last_reported":1778399712,"current_range_meters":3200,"station_id":"","pricing_plan_id":"cebpf4jnsgd1na2vs0mg"},{"bike_id":"4e439951-b038-4836-9ad5-387115b4b494","system_id":"levelo_inurba_marseille","lat":43.31362,"lon":5.38485,"is_reserved":false,"is_disabled":false,"rental_uris":{"android":"levelo://app?vid=4e439951-b038-4836-9ad5-387115b4b494","ios":"levelo://app?vid=4e439951-b038-4836-9ad5-387115b4b494"},"vehicle_type_id":"4","last_reported":1778399712,"current_range_meters":3200,"station_id":"ce4bgt92rcd13ifvqcf0","pricing_plan_id":"cebpf4jnsgd1na2vs0mg"},{"bike_id":"07829fdc-c599-44a2-8a5d-d38b8b9f7bb8","system_id":"levelo_inurba_marseille","lat":43.30359,"lon":5.42478,"is_reserved":false,"is_disabled":true,"rental_uris":{"android":"levelo://app?vid=07829fdc-c599-44a2-8a5d-d38b8b9f7bb8","ios":"levelo://app?vid=07829fdc-c599-44a2-8a5d-d38b8b9f7bb8"},"vehicle_type_id":"4","last_reported":1778399712,"current_range_meters":3200,"station_id":"ce4bhoh2rcd13ifvqh6g","pricing_plan_id":"cebpf4jnsgd1na2vs0mg"},{"bike_id":"6084befa-84c6-4142-adec-b82f1677a0f1","system_id":"levelo_inurba_marseille","lat":43.26757,"lon":5.39449,"is_reserved":false,"is_disabled":false,"rental_uris":{"android":"levelo://app?vid=6084befa-84c6-4142-adec-b82f1677a0f1","ios":"levelo://app?vid=6084befa-84c6-4142-adec-b82f1677a0f1"},"vehicle_type_id":"4","last_reported":1778399712,"current_range_meters":3200,"station_id":"","pricing_plan_id":"cebpf4jnsgd1na2vs0mg"},{"bike_id":"edd39cc9-0ca9-4de9-bb9c-cdf6105a047f","system_id":"levelo_inurba_marseille","lat":43.29595,"lon":5.36744,"is_reserved":false,"is_disabled":true,"rental_uris":{"android":"levelo://app?vid=edd39cc9-0ca9-4de9-bb9c-cdf6105a047f","ios":"levelo://app?vid=edd39cc9-0ca9-4de9-bb9c-cdf6105a047f"},"vehicle_type_id":"4","last_reported":1778399712,"current_range_meters":3200,"station_id":"ce4bgph2rcd13ifvqc2g","pricing_plan_id":"cebpf4jnsgd1na2vs0mg"},{"bike_id":"82f3dce4-023a-4abe-867b-6c646f526377","system_id":"levelo_inurba_marseille","lat":43.3004,"lon":5.41982,"is_reserved":false,"is_disabled":false,"rental_uris":{"android":"levelo://app?vid=82f3dce4-023a-4abe-867b-6c646f526377","ios":"levelo://app?vid=82f3dce4-023a-4abe-867b-6c646f526377"},"vehicle_type_id":"4","last_reported":1778399712,"current_range_meters":3200,"station_id":"","pricing_plan_id":"cebpf4jnsgd1na2vs0mg"},{"bike_id":"077eda90-f897-47ce-b57e-e6028131f561","system_id":"levelo_inurba_marseille","lat":43.26212,"lon":5.37921,"is_reserved":false,"is_disabled":false,"rental_uris":{"android":"levelo://app?vid=077eda90-f897-47ce-b57e-e6028131f561","ios":"levelo://app?vid=077eda90-f897-47ce-b57e-e6028131f561"},"vehicle_type_id":"4","last_reported":1778399712,"current_range_meters":3200,"station_id":"ce4bhjp2rcd13ifvqg90","pricing_plan_id":"cebpf4jnsgd1na2vs0mg"},{"bike_id":"496d9d23-0758-4b07-831b-1c112b733a7b","system_id":"levelo_inurba_marseille","lat":43.28107,"lon":5.38383,"is_reserved":false,"is_disabled":false,"rental_uris":{"android":"levelo://app?vid=496d9d23-0758-4b07-831b-1c112b733a7b","ios":"levelo://app?vid=496d9d23-0758-4b07-831b-1c112b733a7b"},"vehicle_type_id":"4","last_reported":1778399712,"current_range_meters":3200,"station_id":"ce4bhf92rcd13ifvqf50","pricing_plan_id":"cebpf4jnsgd1na2vs0mg"},{"bike_id":"136865c1-861e-4808-bdd6-86bfc13f7ee6","system_id":"levelo_inurba_marseille","lat":43.24616,"lon":5.41804,"is_reserved":false,"is_disabled":false,"rental_uris":{"android":"levelo://app?vid=136865c1-861e-4808-bdd6-86bfc13f7ee6","ios":"levelo://app?vid=136865c1-861e-4808-bdd6-86bfc13f7ee6"},"vehicle_type_id":"4","last_reported":1778399712,"current_range_meters":3200,"station_id":"","pricing_plan_id":"cebpf4jnsgd1na2vs0mg"},{"bike_id":"ef4c0d2f-d37c-409b-be4c-7cceaa4aabfa","system_id":"levelo_inurba_marseille","lat":43.28475,"lon":5.48399,"is_reserved":false,"is_disabled":false,"rental_uris":{"android":"levelo://app?vid=ef4c0d2f-d37c-409b-be4c-7cceaa4aabfa","ios":"levelo://app?vid=ef4c0d2f-d37c-409b-be4c-7cceaa4aabfa"},"vehicle_type_id":"4","last_reported":1778399712,"current_range_meters":3600,"station_id":"","pricing_plan_id":"cebpf4jnsgd1na2vs0mg"},{"bike_id":"e6bd8138-3d56-4ae6-9878-8794caa087c5","system_id":"levelo_inurba_marseille","lat":43.24463,"lon":5.42532,"is_reserved":false,"is_disabled":true,"rental_uris":{"android":"levelo://app?vid=e6bd8138-3d56-4ae6-9878-8794caa087c5","ios":"levelo://app?vid=e6bd8138-3d56-4ae6-9878-8794caa087c5"},"vehicle_type_id":"4","last_reported":1778399712,"current_range_meters":3600,"station_id":"st_d4a3vfp97mjs738cd8kg","pricing_plan_id":"cebpf4jnsgd1na2vs0mg"},{"bike_id":"53d40486-d4e1-4a7a-9be4-1aa1d05220fd","system_id":"levelo_inurba_marseille","lat":43.29274,"lon":5.40112,"is_reserved":false,"is_disabled":false,"rental_uris":{"android":"levelo://app?vid=53d40486-d4e1-4a7a-9be4-1aa1d05220fd","ios":"levelo://app?vid=53d40486-d4e1-4a7a-9be4-1aa1d05220fd"},"vehicle_type_id":"4","last_reported":1778399712,"current_range_meters":3600,"station_id":"ce4bh312rcd13ifvqdk0","pricing_plan_id":"cebpf4jnsgd1na2vs0mg"},{"bike_id":"3fc15eeb-674b-46a4-b777-27c77480b25a","system_id":"levelo_inurba_marseille","lat":43.25867,"lon":5.3989,"is_reserved":false,"is_disabled":false,"rental_uris":{"android":"levelo://app?vid=3fc15eeb-674b-46a4-b777-27c77480b25a","ios":"levelo://app?vid=3fc15eeb-674b-46a4-b777-27c77480b25a"},"vehicle_type_id":"4","last_reported":1778399712,"current_range_meters":3600,"station_id":"ce4bhl92rcd13ifvqghg","pricing_plan_id":"cebpf4jnsgd1na2vs0mg"},{"bike_id":"e744fd51-d53a-4993-92a1-3a6752e7a33c","system_id":"levelo_inurba_marseille","lat":43.32111,"lon":5.3677,"is_reserved":false,"is_disabled":false,"rental_uris":{"android":"levelo://app?vid=e744fd51-d53a-4993-92a1-3a6752e7a33c","ios":"levelo://app?vid=e744fd51-d53a-4993-92a1-3a6752e7a33c"},"vehicle_type_id":"4","last_reported":1778399712,"current_range_meters":3600,"station_id":"ce4bhrh2rcd13ifvqhug","pricing_plan_id":"cebpf4jnsgd1na2vs0mg"},{"bike_id":"f39a2af6-0c6b-4898-bd2b-9249e381dcf4","system_id":"levelo_inurba_marseille","lat":43.28625,"lon":5.39885,"is_reserved":false,"is_disabled":false,"rental_uris":{"android":"levelo://app?vid=f39a2af6-0c6b-4898-bd2b-9249e381dcf4","ios":"levelo://app?vid=f39a2af6-0c6b-4898-bd2b-9249e381dcf4"},"vehicle_type_id":"4","last_reported":1778399712,"current_range_meters":3600,"station_id":"st_d4a7ka997mjs738ck50g","pricing_plan_id":"cebpf4jnsgd1na2vs0mg"},{"bike_id":"324d9f18-26a5-48ab-b643-73c629f9a746","system_id":"levelo_inurba_marseille","lat":43.29621,"lon":5.40615,"is_reserved":false,"is_disabled":false,"rental_uris":{"android":"levelo://app?vid=324d9f18-26a5-48ab-b643-73c629f9a746","ios":"levelo://app?vid=324d9f18-26a5-48ab-b643-73c629f9a746"},"vehicle_type_id":"4","last_reported":1778399712,"current_range_meters":3600,"station_id":"ce4bh0h2rcd13ifvqd60","pricing_plan_id":"cebpf4jnsgd1na2vs0mg"},{"bike_id":"c32661d8-2da8-4ddd-b087-54ab5080d50c","system_id":"levelo_inurba_marseille","lat":43.24971,"lon":5.40485,"is_reserved":false,"is_disabled":false,"rental_uris":{"android":"levelo://app?vid=c32661d8-2da8-4ddd-b087-54ab5080d50c","ios":"levelo://app?vid=c32661d8-2da8-4ddd-b087-54ab5080d50c"},"vehicle_type_id":"4","last_reported":1778399712,"current_range_meters":3600,"station_id":"st_d2ngiaodas8pm72gd1h0","pricing_plan_id":"cebpf4jnsgd1na2vs0mg"},{"bike_id":"b34e11b9-3c68-4409-b941-ded8e7d7974e","system_id":"levelo_inurba_marseille","lat":43.30196,"lon":5.39463,"is_reserved":false,"is_disabled":true,"rental_uris":{"android":"levelo://app?vid=b34e11b9-3c68-4409-b941-ded8e7d7974e","ios":"levelo://app?vid=b34e11b9-3c68-4409-b941-ded8e7d7974e"},"vehicle_type_id":"4","last_reported":1778399712,"current_range_meters":3600,"station_id":"ce4bh0p2rcd13ifvqd70","pricing_plan_id":"cebpf4jnsgd1na2vs0mg"},{"bike_id":"80ce62aa-95db-4134-a27f-af6f321881d8","system_id":"levelo_inurba_marseille","lat":43.3303,"lon":5.39033,"is_reserved":false,"is_disabled":false,"rental_uris":{"android":"levelo://app?vid=80ce62aa-95db-4134-a27f-af6f321881d8","ios":"levelo://app?vid=80ce62aa-95db-4134-a27f-af6f321881d8"},"vehicle_type_id":"4","last_reported":1778399712,"current_range_meters":3600,"station_id":"ce4bhr92rcd13ifvqhrg","pricing_plan_id":"cebpf4jnsgd1na2vs0mg"},{"bike_id":"b04be0b9-e1f1-4b3a-a624-da85cca3a01a","system_id":"levelo_inurba_marseille","lat":43.24694,"lon":5.38136,"is_reserved":false,"is_disabled":false,"rental_uris":{"android":"levelo://app?vid=b04be0b9-e1f1-4b3a-a624-da85cca3a01a","ios":"levelo://app?vid=b04be0b9-e1f1-4b3a-a624-da85cca3a01a"},"vehicle_type_id":"4","last_reported":1778399712,"current_range_meters":3600,"station_id":"ce4bhih2rcd13ifvqfr0","pricing_plan_id":"cebpf4jnsgd1na2vs0mg"},{"bike_id":"22734838-df81-491d-9e42-8951d7ea9f37","system_id":"levelo_inurba_marseille","lat":43.27067,"lon":5.42289,"is_reserved":false,"is_disabled":false,"rental_uris":{"android":"levelo://app?vid=22734838-df81-491d-9e42-8951d7ea9f37","ios":"levelo://app?vid=22734838-df81-491d-9e42-8951d7ea9f37"},"vehicle_type_id":"4","last_reported":1778399712,"current_range_meters":3600,"station_id":"ce4bhk92rcd13ifvqgb0","pricing_plan_id":"cebpf4jnsgd1na2vs0mg"},{"bike_id":"9ffca623-1a09-4c09-8698-04a1fe79a88c","system_id":"levelo_inurba_marseille","lat":43.25096,"lon":5.39529,"is_reserved":false,"is_disabled":false,"rental_uris":{"android":"levelo://app?vid=9ffca623-1a09-4c09-8698-04a1fe79a88c","ios":"levelo://app?vid=9ffca623-1a09-4c09-8698-04a1fe79a88c"},"vehicle_type_id":"4","last_reported":1778399712,"current_range_meters":4000,"station_id":"ce4bhm12rcd13ifvqgkg","pricing_plan_id":"cebpf4jnsgd1na2vs0mg"},{"bike_id":"0905bf26-d1df-4967-bcf7-a2c7f347956a","system_id":"levelo_inurba_marseille","lat":43.28942,"lon":5.3962,"is_reserved":false,"is_disabled":true,"rental_uris":{"android":"levelo://app?vid=0905bf26-d1df-4967-bcf7-a2c7f347956a","ios":"levelo://app?vid=0905bf26-d1df-4967-bcf7-a2c7f347956a"},"vehicle_type_id":"4","last_reported":1778399712,"current_range_meters":4000,"station_id":"ce4bh3h2rcd13ifvqdn0","pricing_plan_id":"cebpf4jnsgd1na2vs0mg"},{"bike_id":"586dfb79-4cfc-4e92-8ae2-1a53477e0f53","system_id":"levelo_inurba_marseille","lat":43.26218,"lon":5.37432,"is_reserved":false,"is_disabled":false,"rental_uris":{"android":"levelo://app?vid=586dfb79-4cfc-4e92-8ae2-1a53477e0f53","ios":"levelo://app?vid=586dfb79-4cfc-4e92-8ae2-1a53477e0f53"},"vehicle_type_id":"4","last_reported":1778399712,"current_range_meters":4000,"station_id":"ce4bhgp2rcd13ifvqfc0","pricing_plan_id":"cebpf4jnsgd1na2vs0mg"},{"bike_id":"f5c7ae53-9fe4-4121-b89f-3db103fbc501","system_id":"levelo_inurba_marseille","lat":43.31188,"lon":5.36852,"is_reserved":false,"is_disabled":false,"rental_uris":{"android":"levelo://app?vid=f5c7ae53-9fe4-4121-b89f-3db103fbc501","ios":"levelo://app?vid=f5c7ae53-9fe4-4121-b89f-3db103fbc501"},"vehicle_type_id":"4","last_reported":1778399712,"current_range_meters":4000,"station_id":"ce4bgl92rcd13ifvqbq0","pricing_plan_id":"cebpf4jnsgd1na2vs0mg"},{"bike_id":"678a30d2-248b-46db-8533-df98d2d1b864","system_id":"levelo_inurba_marseille","lat":43.29649,"lon":5.40579,"is_reserved":false,"is_disabled":false,"rental_uris":{"android":"levelo://app?vid=678a30d2-248b-46db-8533-df98d2d1b864","ios":"levelo://app?vid=678a30d2-248b-46db-8533-df98d2d1b864"},"vehicle_type_id":"4","last_reported":1778399712,"current_range_meters":4000,"station_id":"ce4bh0h2rcd13ifvqd60","pricing_plan_id":"cebpf4jnsgd1na2vs0mg"},{"bike_id":"ed48bdde-5fab-468a-9175-6b9f745e29ac","system_id":"levelo_inurba_marseille","lat":43.30838,"lon":5.38338,"is_reserved":false,"is_disabled":false,"rental_uris":{"android":"levelo://app?vid=ed48bdde-5fab-468a-9175-6b9f745e29ac","ios":"levelo://app?vid=ed48bdde-5fab-468a-9175-6b9f745e29ac"},"vehicle_type_id":"4","last_reported":1778399712,"current_range_meters":4000,"station_id":"","pricing_plan_id":"cebpf4jnsgd1na2vs0mg"},{"bike_id":"f1722020-c42c-46dc-a909-8c922d9433e3","system_id":"levelo_inurba_marseille","lat":43.23379,"lon":5.4123,"is_reserved":false,"is_disabled":false,"rental_uris":{"android":"levelo://app?vid=f1722020-c42c-46dc-a909-8c922d9433e3","ios":"levelo://app?vid=f1722020-c42c-46dc-a909-8c922d9433e3"},"vehicle_type_id":"4","last_reported":1778399712,"current_range_meters":4000,"station_id":"st_d75pvndhf9lc73cqq3eg","pricing_plan_id":"cebpf4jnsgd1na2vs0mg"},{"bike_id":"a30008ae-a2df-4129-8ea6-0f377536b8ba","system_id":"levelo_inurba_marseille","lat":43.3209,"lon":5.3678,"is_reserved":false,"is_disabled":false,"rental_uris":{"android":"levelo://app?vid=a30008ae-a2df-4129-8ea6-0f377536b8ba","ios":"levelo://app?vid=a30008ae-a2df-4129-8ea6-0f377536b8ba"},"vehicle_type_id":"4","last_reported":1778399712,"current_range_meters":4000,"station_id":"ce4bhrh2rcd13ifvqhug","pricing_plan_id":"cebpf4jnsgd1na2vs0mg"},{"bike_id":"f422b51e-1ef9-42a2-8365-1d33f807a8e0","system_id":"levelo_inurba_marseille","lat":43.23886,"lon":5.37474,"is_reserved":false,"is_disabled":true,"rental_uris":{"android":"levelo://app?vid=f422b51e-1ef9-42a2-8365-1d33f807a8e0","ios":"levelo://app?vid=f422b51e-1ef9-42a2-8365-1d33f807a8e0"},"vehicle_type_id":"4","last_reported":1778399712,"current_range_meters":4000,"station_id":"st_d6sm7csbq4hs73f8fpjg","pricing_plan_id":"cebpf4jnsgd1na2vs0mg"},{"bike_id":"7eb2b478-c255-4368-b1eb-66e0e2af9eed","system_id":"levelo_inurba_marseille","lat":43.29312,"lon":5.3713,"is_reserved":false,"is_disabled":true,"rental_uris":{"android":"levelo://app?vid=7eb2b478-c255-4368-b1eb-66e0e2af9eed","ios":"levelo://app?vid=7eb2b478-c255-4368-b1eb-66e0e2af9eed"},"vehicle_type_id":"4","last_reported":1778399712,"current_range_meters":4000,"station_id":"ce4bgh92rcd13ifvqb40","pricing_plan_id":"cebpf4jnsgd1na2vs0mg"},{"bike_id":"ef70437f-2d5f-4fc8-a57a-69ac63b0d2af","system_id":"levelo_inurba_marseille","lat":43.29243,"lon":5.4015,"is_reserved":false,"is_disabled":false,"rental_uris":{"android":"levelo://app?vid=ef70437f-2d5f-4fc8-a57a-69ac63b0d2af","ios":"levelo://app?vid=ef70437f-2d5f-4fc8-a57a-69ac63b0d2af"},"vehicle_type_id":"4","last_reported":1778399712,"current_range_meters":4000,"station_id":"ce4bh312rcd13ifvqdk0","pricing_plan_id":"cebpf4jnsgd1na2vs0mg"},{"bike_id":"b1eefa37-96ae-4f95-a344-438091e1d04d","system_id":"levelo_inurba_marseille","lat":43.31045,"lon":5.39366,"is_reserved":false,"is_disabled":false,"rental_uris":{"android":"levelo://app?vid=b1eefa37-96ae-4f95-a344-438091e1d04d","ios":"levelo://app?vid=b1eefa37-96ae-4f95-a344-438091e1d04d"},"vehicle_type_id":"4","last_reported":1778399712,"current_range_meters":4000,"station_id":"","pricing_plan_id":"cebpf4jnsgd1na2vs0mg"},{"bike_id":"23eb54a7-5e94-47a5-8e45-a7f0c0883c77","system_id":"levelo_inurba_marseille","lat":43.29532,"lon":5.37521,"is_reserved":false,"is_disabled":false,"rental_uris":{"android":"levelo://app?vid=23eb54a7-5e94-47a5-8e45-a7f0c0883c77","ios":"levelo://app?vid=23eb54a7-5e94-47a5-8e45-a7f0c0883c77"},"vehicle_type_id":"4","last_reported":1778399712,"current_range_meters":4000,"station_id":"ce4bgkp2rcd13ifvqbmg","pricing_plan_id":"cebpf4jnsgd1na2vs0mg"},{"bike_id":"434b844d-3701-4f6b-b586-f90d25e5d1f0","system_id":"levelo_inurba_marseille","lat":43.30084,"lon":5.37922,"is_reserved":false,"is_disabled":false,"rental_uris":{"android":"levelo://app?vid=434b844d-3701-4f6b-b586-f90d25e5d1f0","ios":"levelo://app?vid=434b844d-3701-4f6b-b586-f90d25e5d1f0"},"vehicle_type_id":"4","last_reported":1778399712,"current_range_meters":4000,"station_id":"","pricing_plan_id":"cebpf4jnsgd1na2vs0mg"},{"bike_id":"0259c7f9-4a67-468b-967d-555f1f780b18","system_id":"levelo_inurba_marseille","lat":43.24682,"lon":5.38134,"is_reserved":false,"is_disabled":false,"rental_uris":{"android":"levelo://app?vid=0259c7f9-4a67-468b-967d-555f1f780b18","ios":"levelo://app?vid=0259c7f9-4a67-468b-967d-555f1f780b18"},"vehicle_type_id":"4","last_reported":1778399712,"current_range_meters":4000,"station_id":"ce4bhih2rcd13ifvqfr0","pricing_plan_id":"cebpf4jnsgd1na2vs0mg"},{"bike_id":"d9bc5efb-4529-4c79-b551-213ef29ab0f9","system_id":"levelo_inurba_marseille","lat":43.30088,"lon":5.39071,"is_reserved":false,"is_disabled":false,"rental_uris":{"android":"levelo://app?vid=d9bc5efb-4529-4c79-b551-213ef29ab0f9","ios":"levelo://app?vid=d9bc5efb-4529-4c79-b551-213ef29ab0f9"},"vehicle_type_id":"4","last_reported":1778399712,"current_range_meters":4000,"station_id":"ce4bh192rcd13ifvqdb0","pricing_plan_id":"cebpf4jnsgd1na2vs0mg"},{"bike_id":"2c3a75d9-ed53-41ee-8d0e-f4809fc737c1","system_id":"levelo_inurba_marseille","lat":43.30879,"lon":5.39635,"is_reserved":false,"is_disabled":false,"rental_uris":{"android":"levelo://app?vid=2c3a75d9-ed53-41ee-8d0e-f4809fc737c1","ios":"levelo://app?vid=2c3a75d9-ed53-41ee-8d0e-f4809fc737c1"},"vehicle_type_id":"4","last_reported":1778399712,"current_range_meters":4000,"station_id":"ce4bh012rcd13ifvqcv0","pricing_plan_id":"cebpf4jnsgd1na2vs0mg"},{"bike_id":"627ea465-4e71-4046-a508-023e31352421","system_id":"levelo_inurba_marseille","lat":43.25062,"lon":5.40505,"is_reserved":false,"is_disabled":false,"rental_uris":{"android":"levelo://app?vid=627ea465-4e71-4046-a508-023e31352421","ios":"levelo://app?vid=627ea465-4e71-4046-a508-023e31352421"},"vehicle_type_id":"4","last_reported":1778399712,"current_range_meters":4000,"station_id":"","pricing_plan_id":"cebpf4jnsgd1na2vs0mg"},{"bike_id":"fdddcbda-c730-460d-b16e-02a9ff067573","system_id":"levelo_inurba_marseille","lat":43.26382,"lon":5.3778,"is_reserved":false,"is_disabled":false,"rental_uris":{"android":"levelo://app?vid=fdddcbda-c730-460d-b16e-02a9ff067573","ios":"levelo://app?vid=fdddcbda-c730-460d-b16e-02a9ff067573"},"vehicle_type_id":"4","last_reported":1778399712,"current_range_meters":4000,"station_id":"","pricing_plan_id":"cebpf4jnsgd1na2vs0mg"},{"bike_id":"4acb43ed-3642-4736-9baa-453b9005f3a4","system_id":"levelo_inurba_marseille","lat":43.29594,"lon":5.38652,"is_reserved":false,"is_disabled":false,"rental_uris":{"android":"levelo://app?vid=4acb43ed-3642-4736-9baa-453b9005f3a4","ios":"levelo://app?vid=4acb43ed-3642-4736-9baa-453b9005f3a4"},"vehicle_type_id":"4","last_reported":1778399712,"current_range_meters":4000,"station_id":"","pricing_plan_id":"cebpf4jnsgd1na2vs0mg"},{"bike_id":"f539bb17-16cf-4505-8a99-d64e79a69d9e","system_id":"levelo_inurba_marseille","lat":43.32109,"lon":5.36771,"is_reserved":false,"is_disabled":false,"rental_uris":{"android":"levelo://app?vid=f539bb17-16cf-4505-8a99-d64e79a69d9e","ios":"levelo://app?vid=f539bb17-16cf-4505-8a99-d64e79a69d9e"},"vehicle_type_id":"4","last_reported":1778399712,"current_range_meters":4400,"station_id":"ce4bhrh2rcd13ifvqhug","pricing_plan_id":"cebpf4jnsgd1na2vs0mg"},{"bike_id":"43dea4ec-9fc8-4cd2-aad0-262b724d16a4","system_id":"levelo_inurba_marseille","lat":43.29156,"lon":5.37287,"is_reserved":false,"is_disabled":false,"rental_uris":{"android":"levelo://app?vid=43dea4ec-9fc8-4cd2-aad0-262b724d16a4","ios":"levelo://app?vid=43dea4ec-9fc8-4cd2-aad0-262b724d16a4"},"vehicle_type_id":"4","last_reported":1778399712,"current_range_meters":4400,"station_id":"","pricing_plan_id":"cebpf4jnsgd1na2vs0mg"},{"bike_id":"234d937c-0a51-4b7b-a5da-54c58b1cfe2d","system_id":"levelo_inurba_marseille","lat":43.30531,"lon":5.36695,"is_reserved":false,"is_disabled":true,"rental_uris":{"android":"levelo://app?vid=234d937c-0a51-4b7b-a5da-54c58b1cfe2d","ios":"levelo://app?vid=234d937c-0a51-4b7b-a5da-54c58b1cfe2d"},"vehicle_type_id":"4","last_reported":1778399712,"current_range_meters":4400,"station_id":"ce4bgrp2rcd13ifvqc9g","pricing_plan_id":"cebpf4jnsgd1na2vs0mg"},{"bike_id":"cdd278be-6985-4e01-a1e8-4899861427d9","system_id":"levelo_inurba_marseille","lat":43.25832,"lon":5.39433,"is_reserved":false,"is_disabled":false,"rental_uris":{"android":"levelo://app?vid=cdd278be-6985-4e01-a1e8-4899861427d9","ios":"levelo://app?vid=cdd278be-6985-4e01-a1e8-4899861427d9"},"vehicle_type_id":"4","last_reported":1778399712,"current_range_meters":4400,"station_id":"ce4bhip2rcd13ifvqft0","pricing_plan_id":"cebpf4jnsgd1na2vs0mg"},{"bike_id":"74a938f2-f578-4294-9976-174677fe2f35","system_id":"levelo_inurba_marseille","lat":43.29487,"lon":5.43296,"is_reserved":false,"is_disabled":false,"rental_uris":{"android":"levelo://app?vid=74a938f2-f578-4294-9976-174677fe2f35","ios":"levelo://app?vid=74a938f2-f578-4294-9976-174677fe2f35"},"vehicle_type_id":"4","last_reported":1778399712,"current_range_meters":4400,"station_id":"st_d3j5ugp08ojc73fj9d10","pricing_plan_id":"cebpf4jnsgd1na2vs0mg"},{"bike_id":"f62f892b-35da-4575-91cd-6ff29b858255","system_id":"levelo_inurba_marseille","lat":43.29976,"lon":5.38478,"is_reserved":false,"is_disabled":true,"rental_uris":{"android":"levelo://app?vid=f62f892b-35da-4575-91cd-6ff29b858255","ios":"levelo://app?vid=f62f892b-35da-4575-91cd-6ff29b858255"},"vehicle_type_id":"4","last_reported":1778399712,"current_range_meters":4400,"station_id":"ce4bgj92rcd13ifvqbd0","pricing_plan_id":"cebpf4jnsgd1na2vs0mg"},{"bike_id":"d0422a3d-e193-4cef-8d02-e1260b86002b","system_id":"levelo_inurba_marseille","lat":43.29267,"lon":5.37605,"is_reserved":false,"is_disabled":false,"rental_uris":{"android":"levelo://app?vid=d0422a3d-e193-4cef-8d02-e1260b86002b","ios":"levelo://app?vid=d0422a3d-e193-4cef-8d02-e1260b86002b"},"vehicle_type_id":"4","last_reported":1778399712,"current_range_meters":4800,"station_id":"ce4bgi12rcd13ifvqb80","pricing_plan_id":"cebpf4jnsgd1na2vs0mg"},{"bike_id":"52e4b713-7692-46b7-9ae7-4435e94b9c49","system_id":"levelo_inurba_marseille","lat":43.24929,"lon":5.40501,"is_reserved":false,"is_disabled":false,"rental_uris":{"android":"levelo://app?vid=52e4b713-7692-46b7-9ae7-4435e94b9c49","ios":"levelo://app?vid=52e4b713-7692-46b7-9ae7-4435e94b9c49"},"vehicle_type_id":"4","last_reported":1778399712,"current_range_meters":4800,"station_id":"st_d2ngiaodas8pm72gd1h0","pricing_plan_id":"cebpf4jnsgd1na2vs0mg"},{"bike_id":"2a1755c6-621b-4ee0-b02e-fcd7e30106ff","system_id":"levelo_inurba_marseille","lat":43.29778,"lon":5.39363,"is_reserved":false,"is_disabled":true,"rental_uris":{"android":"levelo://app?vid=2a1755c6-621b-4ee0-b02e-fcd7e30106ff","ios":"levelo://app?vid=2a1755c6-621b-4ee0-b02e-fcd7e30106ff"},"vehicle_type_id":"4","last_reported":1778399712,"current_range_meters":4800,"station_id":"chh1huq6cuj3fo74tm60","pricing_plan_id":"cebpf4jnsgd1na2vs0mg"},{"bike_id":"6db9c57b-6677-4695-80b6-c7178c535653","system_id":"levelo_inurba_marseille","lat":43.28689,"lon":5.37934,"is_reserved":false,"is_disabled":false,"rental_uris":{"android":"levelo://app?vid=6db9c57b-6677-4695-80b6-c7178c535653","ios":"levelo://app?vid=6db9c57b-6677-4695-80b6-c7178c535653"},"vehicle_type_id":"4","last_reported":1778399712,"current_range_meters":4800,"station_id":"ce4bh9p2rcd13ifvqec0","pricing_plan_id":"cebpf4jnsgd1na2vs0mg"},{"bike_id":"264dd0a7-16d8-48c6-b8bf-1ef756773377","system_id":"levelo_inurba_marseille","lat":43.31906,"lon":5.36784,"is_reserved":false,"is_disabled":false,"rental_uris":{"android":"levelo://app?vid=264dd0a7-16d8-48c6-b8bf-1ef756773377","ios":"levelo://app?vid=264dd0a7-16d8-48c6-b8bf-1ef756773377"},"vehicle_type_id":"4","last_reported":1778399712,"current_range_meters":4800,"station_id":"st_d6o2h0d0559c73evc1b0","pricing_plan_id":"cebpf4jnsgd1na2vs0mg"},{"bike_id":"b8425fa1-a298-4679-ba8a-777546e14eca","system_id":"levelo_inurba_marseille","lat":43.33763,"lon":5.37421,"is_reserved":false,"is_disabled":false,"rental_uris":{"android":"levelo://app?vid=b8425fa1-a298-4679-ba8a-777546e14eca","ios":"levelo://app?vid=b8425fa1-a298-4679-ba8a-777546e14eca"},"vehicle_type_id":"4","last_reported":1778399712,"current_range_meters":4800,"station_id":"","pricing_plan_id":"cebpf4jnsgd1na2vs0mg"},{"bike_id":"4a241143-5357-4b30-a6b0-5b63f7bbfc1d","system_id":"levelo_inurba_marseille","lat":43.31373,"lon":5.36713,"is_reserved":false,"is_disabled":false,"rental_uris":{"android":"levelo://app?vid=4a241143-5357-4b30-a6b0-5b63f7bbfc1d","ios":"levelo://app?vid=4a241143-5357-4b30-a6b0-5b63f7bbfc1d"},"vehicle_type_id":"4","last_reported":1778399712,"current_range_meters":4800,"station_id":"ce4bgr92rcd13ifvqc6g","pricing_plan_id":"cebpf4jnsgd1na2vs0mg"},{"bike_id":"76645867-9226-4148-a6ac-b7d91fe256ae","system_id":"levelo_inurba_marseille","lat":43.299219,"lon":5.374608,"is_reserved":false,"is_disabled":true,"rental_uris":{"android":"levelo://app?vid=76645867-9226-4148-a6ac-b7d91fe256ae","ios":"levelo://app?vid=76645867-9226-4148-a6ac-b7d91fe256ae"},"vehicle_type_id":"4","last_reported":1778399712,"current_range_meters":4800,"station_id":"ce4bgjh2rcd13ifvqbg0","pricing_plan_id":"cebpf4jnsgd1na2vs0mg"},{"bike_id":"97f964d8-1b4e-4439-a5e5-5bf9eca1819d","system_id":"levelo_inurba_marseille","lat":43.26359,"lon":5.4106,"is_reserved":false,"is_disabled":false,"rental_uris":{"android":"levelo://app?vid=97f964d8-1b4e-4439-a5e5-5bf9eca1819d","ios":"levelo://app?vid=97f964d8-1b4e-4439-a5e5-5bf9eca1819d"},"vehicle_type_id":"4","last_reported":1778399712,"current_range_meters":5600,"station_id":"st_d4e5ca6na9uc73bfl5fg","pricing_plan_id":"cebpf4jnsgd1na2vs0mg"},{"bike_id":"004b19f5-bbf2-46bf-aeda-99d69f0bfa65","system_id":"levelo_inurba_marseille","lat":43.27369,"lon":5.3626,"is_reserved":false,"is_disabled":true,"rental_uris":{"android":"levelo://app?vid=004b19f5-bbf2-46bf-aeda-99d69f0bfa65","ios":"levelo://app?vid=004b19f5-bbf2-46bf-aeda-99d69f0bfa65"},"vehicle_type_id":"4","last_reported":1778399712,"current_range_meters":5600,"station_id":"ce4bhbh2rcd13ifvqeo0","pricing_plan_id":"cebpf4jnsgd1na2vs0mg"},{"bike_id":"959457cd-ffeb-435f-abd7-e609cfbc4e6a","system_id":"levelo_inurba_marseille","lat":43.27525,"lon":5.41561,"is_reserved":false,"is_disabled":false,"rental_uris":{"android":"levelo://app?vid=959457cd-ffeb-435f-abd7-e609cfbc4e6a","ios":"levelo://app?vid=959457cd-ffeb-435f-abd7-e609cfbc4e6a"},"vehicle_type_id":"4","last_reported":1778399712,"current_range_meters":5600,"station_id":"st_d6im8g6chgec73a5pndg","pricing_plan_id":"cebpf4jnsgd1na2vs0mg"},{"bike_id":"34c84195-4aae-442d-945e-b93b3ba7aa71","system_id":"levelo_inurba_marseille","lat":43.28842,"lon":5.3931,"is_reserved":false,"is_disabled":false,"rental_uris":{"android":"levelo://app?vid=34c84195-4aae-442d-945e-b93b3ba7aa71","ios":"levelo://app?vid=34c84195-4aae-442d-945e-b93b3ba7aa71"},"vehicle_type_id":"4","last_reported":1778399712,"current_range_meters":5600,"station_id":"ce4bh2p2rcd13ifvqdi0","pricing_plan_id":"cebpf4jnsgd1na2vs0mg"},{"bike_id":"a19ad78c-816e-4c8f-af79-6667d1168d43","system_id":"levelo_inurba_marseille","lat":43.30896,"lon":5.39655,"is_reserved":false,"is_disabled":false,"rental_uris":{"android":"levelo://app?vid=a19ad78c-816e-4c8f-af79-6667d1168d43","ios":"levelo://app?vid=a19ad78c-816e-4c8f-af79-6667d1168d43"},"vehicle_type_id":"4","last_reported":1778399712,"current_range_meters":5600,"station_id":"ce4bh012rcd13ifvqcv0","pricing_plan_id":"cebpf4jnsgd1na2vs0mg"},{"bike_id":"3c5f0f52-deec-4478-b1b8-43df5890b0b6","system_id":"levelo_inurba_marseille","lat":43.2397,"lon":5.36605,"is_reserved":false,"is_disabled":false,"rental_uris":{"android":"levelo://app?vid=3c5f0f52-deec-4478-b1b8-43df5890b0b6","ios":"levelo://app?vid=3c5f0f52-deec-4478-b1b8-43df5890b0b6"},"vehicle_type_id":"4","last_reported":1778399712,"current_range_meters":5600,"station_id":"ce4bhi12rcd13ifvqfp0","pricing_plan_id":"cebpf4jnsgd1na2vs0mg"},{"bike_id":"80b9e211-badd-4f7e-a66f-384437473295","system_id":"levelo_inurba_marseille","lat":43.24177,"lon":5.39711,"is_reserved":false,"is_disabled":false,"rental_uris":{"android":"levelo://app?vid=80b9e211-badd-4f7e-a66f-384437473295","ios":"levelo://app?vid=80b9e211-badd-4f7e-a66f-384437473295"},"vehicle_type_id":"4","last_reported":1778399712,"current_range_meters":5600,"station_id":"ce4bhn12rcd13ifvqgpg","pricing_plan_id":"cebpf4jnsgd1na2vs0mg"},{"bike_id":"8f11f2f5-aca5-44b4-8f27-7a2f4d869239","system_id":"levelo_inurba_marseille","lat":43.28418,"lon":5.37486,"is_reserved":false,"is_disabled":false,"rental_uris":{"android":"levelo://app?vid=8f11f2f5-aca5-44b4-8f27-7a2f4d869239","ios":"levelo://app?vid=8f11f2f5-aca5-44b4-8f27-7a2f4d869239"},"vehicle_type_id":"4","last_reported":1778399712,"current_range_meters":5600,"station_id":"ce4bh412rcd13ifvqds0","pricing_plan_id":"cebpf4jnsgd1na2vs0mg"},{"bike_id":"723180a2-46e6-40de-8f0a-9b3af8fce124","system_id":"levelo_inurba_marseille","lat":43.23776,"lon":5.3664,"is_reserved":false,"is_disabled":false,"rental_uris":{"android":"levelo://app?vid=723180a2-46e6-40de-8f0a-9b3af8fce124","ios":"levelo://app?vid=723180a2-46e6-40de-8f0a-9b3af8fce124"},"vehicle_type_id":"4","last_reported":1778399712,"current_range_meters":5600,"station_id":"st_d3nk18o9ro0c73en2l3g","pricing_plan_id":"cebpf4jnsgd1na2vs0mg"},{"bike_id":"8b44ba2e-1d6c-43b5-a876-15143d2a8370","system_id":"levelo_inurba_marseille","lat":43.2535,"lon":5.4217,"is_reserved":false,"is_disabled":false,"rental_uris":{"android":"levelo://app?vid=8b44ba2e-1d6c-43b5-a876-15143d2a8370","ios":"levelo://app?vid=8b44ba2e-1d6c-43b5-a876-15143d2a8370"},"vehicle_type_id":"4","last_reported":1778399712,"current_range_meters":6000,"station_id":"st_d2m65c5bi1j21697t3ng","pricing_plan_id":"cebpf4jnsgd1na2vs0mg"},{"bike_id":"fa017a23-1db6-4d4d-baae-c19ad69117bb","system_id":"levelo_inurba_marseille","lat":43.2884,"lon":5.39973,"is_reserved":false,"is_disabled":false,"rental_uris":{"android":"levelo://app?vid=fa017a23-1db6-4d4d-baae-c19ad69117bb","ios":"levelo://app?vid=fa017a23-1db6-4d4d-baae-c19ad69117bb"},"vehicle_type_id":"4","last_reported":1778399712,"current_range_meters":6000,"station_id":"ce4bh312rcd13ifvqdk0","pricing_plan_id":"cebpf4jnsgd1na2vs0mg"},{"bike_id":"8c36f14f-0ea0-4eaf-8ef4-0bf3049421ef","system_id":"levelo_inurba_marseille","lat":43.30198,"lon":5.39965,"is_reserved":false,"is_disabled":false,"rental_uris":{"android":"levelo://app?vid=8c36f14f-0ea0-4eaf-8ef4-0bf3049421ef","ios":"levelo://app?vid=8c36f14f-0ea0-4eaf-8ef4-0bf3049421ef"},"vehicle_type_id":"4","last_reported":1778399712,"current_range_meters":6000,"station_id":"","pricing_plan_id":"cebpf4jnsgd1na2vs0mg"},{"bike_id":"6185c6b4-782e-4ff8-b9f0-cc828921242d","system_id":"levelo_inurba_marseille","lat":43.27072,"lon":5.42273,"is_reserved":false,"is_disabled":false,"rental_uris":{"android":"levelo://app?vid=6185c6b4-782e-4ff8-b9f0-cc828921242d","ios":"levelo://app?vid=6185c6b4-782e-4ff8-b9f0-cc828921242d"},"vehicle_type_id":"4","last_reported":1778399712,"current_range_meters":6000,"station_id":"ce4bhk92rcd13ifvqgb0","pricing_plan_id":"cebpf4jnsgd1na2vs0mg"},{"bike_id":"c31f8dc1-48f0-4c4a-868e-cc2eddf36421","system_id":"levelo_inurba_marseille","lat":43.28927,"lon":5.38392,"is_reserved":false,"is_disabled":false,"rental_uris":{"android":"levelo://app?vid=c31f8dc1-48f0-4c4a-868e-cc2eddf36421","ios":"levelo://app?vid=c31f8dc1-48f0-4c4a-868e-cc2eddf36421"},"vehicle_type_id":"4","last_reported":1778399712,"current_range_meters":6000,"station_id":"ce4bh612rcd13ifvqe6g","pricing_plan_id":"cebpf4jnsgd1na2vs0mg"},{"bike_id":"532509ad-04df-4232-b479-d98aff489636","system_id":"levelo_inurba_marseille","lat":43.30874,"lon":5.3721,"is_reserved":false,"is_disabled":false,"rental_uris":{"android":"levelo://app?vid=532509ad-04df-4232-b479-d98aff489636","ios":"levelo://app?vid=532509ad-04df-4232-b479-d98aff489636"},"vehicle_type_id":"4","last_reported":1778399712,"current_range_meters":6000,"station_id":"ce4bguh2rcd13ifvqckg","pricing_plan_id":"cebpf4jnsgd1na2vs0mg"},{"bike_id":"32795945-afa6-4fab-a236-e6fc5b6d6f56","system_id":"levelo_inurba_marseille","lat":43.24204,"lon":5.39708,"is_reserved":false,"is_disabled":false,"rental_uris":{"android":"levelo://app?vid=32795945-afa6-4fab-a236-e6fc5b6d6f56","ios":"levelo://app?vid=32795945-afa6-4fab-a236-e6fc5b6d6f56"},"vehicle_type_id":"4","last_reported":1778399712,"current_range_meters":6000,"station_id":"ce4bhn12rcd13ifvqgpg","pricing_plan_id":"cebpf4jnsgd1na2vs0mg"},{"bike_id":"f1191823-cf25-43b9-95f9-17794f17bdb6","system_id":"levelo_inurba_marseille","lat":43.28152,"lon":5.42641,"is_reserved":false,"is_disabled":false,"rental_uris":{"android":"levelo://app?vid=f1191823-cf25-43b9-95f9-17794f17bdb6","ios":"levelo://app?vid=f1191823-cf25-43b9-95f9-17794f17bdb6"},"vehicle_type_id":"4","last_reported":1778399712,"current_range_meters":6000,"station_id":"ce4bhnh2rcd13ifvqgug","pricing_plan_id":"cebpf4jnsgd1na2vs0mg"},{"bike_id":"24b614b1-21fe-4a2b-a521-7a850622da21","system_id":"levelo_inurba_marseille","lat":43.23971,"lon":5.36611,"is_reserved":false,"is_disabled":false,"rental_uris":{"android":"levelo://app?vid=24b614b1-21fe-4a2b-a521-7a850622da21","ios":"levelo://app?vid=24b614b1-21fe-4a2b-a521-7a850622da21"},"vehicle_type_id":"4","last_reported":1778399712,"current_range_meters":6400,"station_id":"ce4bhi12rcd13ifvqfp0","pricing_plan_id":"cebpf4jnsgd1na2vs0mg"},{"bike_id":"02ff9fbc-bcee-4ec1-ba28-2ffabeaef12d","system_id":"levelo_inurba_marseille","lat":43.24475,"lon":5.42531,"is_reserved":false,"is_disabled":false,"rental_uris":{"android":"levelo://app?vid=02ff9fbc-bcee-4ec1-ba28-2ffabeaef12d","ios":"levelo://app?vid=02ff9fbc-bcee-4ec1-ba28-2ffabeaef12d"},"vehicle_type_id":"4","last_reported":1778399712,"current_range_meters":6400,"station_id":"st_d4a3vfp97mjs738cd8kg","pricing_plan_id":"cebpf4jnsgd1na2vs0mg"},{"bike_id":"0bff19b0-759c-4974-b971-6d7bfa56b685","system_id":"levelo_inurba_marseille","lat":43.2981,"lon":5.44055,"is_reserved":false,"is_disabled":false,"rental_uris":{"android":"levelo://app?vid=0bff19b0-759c-4974-b971-6d7bfa56b685","ios":"levelo://app?vid=0bff19b0-759c-4974-b971-6d7bfa56b685"},"vehicle_type_id":"4","last_reported":1778399712,"current_range_meters":6400,"station_id":"st_d3jp68qikq2c7381ktn0","pricing_plan_id":"cebpf4jnsgd1na2vs0mg"},{"bike_id":"58f02a01-2d6b-42fb-b6cf-a6eb2f8162a4","system_id":"levelo_inurba_marseille","lat":43.26082,"lon":5.39671,"is_reserved":false,"is_disabled":false,"rental_uris":{"android":"levelo://app?vid=58f02a01-2d6b-42fb-b6cf-a6eb2f8162a4","ios":"levelo://app?vid=58f02a01-2d6b-42fb-b6cf-a6eb2f8162a4"},"vehicle_type_id":"4","last_reported":1778399712,"current_range_meters":6400,"station_id":"","pricing_plan_id":"cebpf4jnsgd1na2vs0mg"},{"bike_id":"ad0b2aab-2f74-4520-8fd7-3b14417a3c91","system_id":"levelo_inurba_marseille","lat":43.27835,"lon":5.39214,"is_reserved":false,"is_disabled":false,"rental_uris":{"android":"levelo://app?vid=ad0b2aab-2f74-4520-8fd7-3b14417a3c91","ios":"levelo://app?vid=ad0b2aab-2f74-4520-8fd7-3b14417a3c91"},"vehicle_type_id":"4","last_reported":1778399712,"current_range_meters":6400,"station_id":"ce4bhjp2rcd13ifvqga0","pricing_plan_id":"cebpf4jnsgd1na2vs0mg"},{"bike_id":"d9ef7576-95cc-4eb4-afb7-35f5b4fefa6e","system_id":"levelo_inurba_marseille","lat":43.30607,"lon":5.39315,"is_reserved":false,"is_disabled":true,"rental_uris":{"android":"levelo://app?vid=d9ef7576-95cc-4eb4-afb7-35f5b4fefa6e","ios":"levelo://app?vid=d9ef7576-95cc-4eb4-afb7-35f5b4fefa6e"},"vehicle_type_id":"4","last_reported":1778399712,"current_range_meters":6400,"station_id":"ce4bh0p2rcd13ifvqd80","pricing_plan_id":"cebpf4jnsgd1na2vs0mg"},{"bike_id":"8d7833cc-79d1-4f73-a39a-5da68c83748e","system_id":"levelo_inurba_marseille","lat":43.29544,"lon":5.38529,"is_reserved":false,"is_disabled":false,"rental_uris":{"android":"levelo://app?vid=8d7833cc-79d1-4f73-a39a-5da68c83748e","ios":"levelo://app?vid=8d7833cc-79d1-4f73-a39a-5da68c83748e"},"vehicle_type_id":"4","last_reported":1778399712,"current_range_meters":6400,"station_id":"ce4bgih2rcd13ifvqba0","pricing_plan_id":"cebpf4jnsgd1na2vs0mg"},{"bike_id":"52521eda-b532-4988-863d-763e62874968","system_id":"levelo_inurba_marseille","lat":43.30545,"lon":5.36535,"is_reserved":false,"is_disabled":false,"rental_uris":{"android":"levelo://app?vid=52521eda-b532-4988-863d-763e62874968","ios":"levelo://app?vid=52521eda-b532-4988-863d-763e62874968"},"vehicle_type_id":"4","last_reported":1778399712,"current_range_meters":6400,"station_id":"ce4bgs12rcd13ifvqcag","pricing_plan_id":"cebpf4jnsgd1na2vs0mg"},{"bike_id":"2a10f88f-9d4c-47c3-8c89-9fe21d53aeab","system_id":"levelo_inurba_marseille","lat":43.28419,"lon":5.37519,"is_reserved":false,"is_disabled":true,"rental_uris":{"android":"levelo://app?vid=2a10f88f-9d4c-47c3-8c89-9fe21d53aeab","ios":"levelo://app?vid=2a10f88f-9d4c-47c3-8c89-9fe21d53aeab"},"vehicle_type_id":"4","last_reported":1778399712,"current_range_meters":6400,"station_id":"ce4bh412rcd13ifvqds0","pricing_plan_id":"cebpf4jnsgd1na2vs0mg"},{"bike_id":"21d54a23-f5a6-4470-993a-1d0aaef89cb7","system_id":"levelo_inurba_marseille","lat":43.23903,"lon":5.37439,"is_reserved":false,"is_disabled":false,"rental_uris":{"android":"levelo://app?vid=21d54a23-f5a6-4470-993a-1d0aaef89cb7","ios":"levelo://app?vid=21d54a23-f5a6-4470-993a-1d0aaef89cb7"},"vehicle_type_id":"4","last_reported":1778399712,"current_range_meters":6400,"station_id":"st_d6sm7csbq4hs73f8fpjg","pricing_plan_id":"cebpf4jnsgd1na2vs0mg"},{"bike_id":"d86a38cc-1870-4ff8-ac3a-3dc0dca3b277","system_id":"levelo_inurba_marseille","lat":43.29579,"lon":5.37523,"is_reserved":false,"is_disabled":false,"rental_uris":{"android":"levelo://app?vid=d86a38cc-1870-4ff8-ac3a-3dc0dca3b277","ios":"levelo://app?vid=d86a38cc-1870-4ff8-ac3a-3dc0dca3b277"},"vehicle_type_id":"4","last_reported":1778399712,"current_range_meters":6400,"station_id":"ce4bgh92rcd13ifvqb50","pricing_plan_id":"cebpf4jnsgd1na2vs0mg"},{"bike_id":"808c4ecd-9bba-4ef5-91dc-62b4109dcc93","system_id":"levelo_inurba_marseille","lat":43.29562,"lon":5.38563,"is_reserved":false,"is_disabled":true,"rental_uris":{"android":"levelo://app?vid=808c4ecd-9bba-4ef5-91dc-62b4109dcc93","ios":"levelo://app?vid=808c4ecd-9bba-4ef5-91dc-62b4109dcc93"},"vehicle_type_id":"4","last_reported":1778399712,"current_range_meters":6400,"station_id":"ce4bgih2rcd13ifvqba0","pricing_plan_id":"cebpf4jnsgd1na2vs0mg"},{"bike_id":"a6a60149-ea74-4dce-b409-ebc1a0b75a1f","system_id":"levelo_inurba_marseille","lat":43.30543,"lon":5.38439,"is_reserved":false,"is_disabled":true,"rental_uris":{"android":"levelo://app?vid=a6a60149-ea74-4dce-b409-ebc1a0b75a1f","ios":"levelo://app?vid=a6a60149-ea74-4dce-b409-ebc1a0b75a1f"},"vehicle_type_id":"4","last_reported":1778399712,"current_range_meters":6400,"station_id":"ce4bgg92rcd13ifvqb30","pricing_plan_id":"cebpf4jnsgd1na2vs0mg"},{"bike_id":"356d0e42-b55c-457d-ab9b-54ff4b66852d","system_id":"levelo_inurba_marseille","lat":43.28705,"lon":5.3793,"is_reserved":false,"is_disabled":true,"rental_uris":{"android":"levelo://app?vid=356d0e42-b55c-457d-ab9b-54ff4b66852d","ios":"levelo://app?vid=356d0e42-b55c-457d-ab9b-54ff4b66852d"},"vehicle_type_id":"4","last_reported":1778399712,"current_range_meters":6400,"station_id":"ce4bh9p2rcd13ifvqec0","pricing_plan_id":"cebpf4jnsgd1na2vs0mg"},{"bike_id":"3a7a6490-34c7-4e66-a967-52dc19722c9c","system_id":"levelo_inurba_marseille","lat":43.25388,"lon":5.39413,"is_reserved":false,"is_disabled":false,"rental_uris":{"android":"levelo://app?vid=3a7a6490-34c7-4e66-a967-52dc19722c9c","ios":"levelo://app?vid=3a7a6490-34c7-4e66-a967-52dc19722c9c"},"vehicle_type_id":"4","last_reported":1778399712,"current_range_meters":6400,"station_id":"","pricing_plan_id":"cebpf4jnsgd1na2vs0mg"},{"bike_id":"ecc1b93b-a121-40a6-a1a0-780ffc6b17a4","system_id":"levelo_inurba_marseille","lat":43.29045,"lon":5.39965,"is_reserved":false,"is_disabled":true,"rental_uris":{"android":"levelo://app?vid=ecc1b93b-a121-40a6-a1a0-780ffc6b17a4","ios":"levelo://app?vid=ecc1b93b-a121-40a6-a1a0-780ffc6b17a4"},"vehicle_type_id":"4","last_reported":1778399712,"current_range_meters":6400,"station_id":"ce4bh392rcd13ifvqdm0","pricing_plan_id":"cebpf4jnsgd1na2vs0mg"},{"bike_id":"8b2f527f-8def-4236-a93a-fafed41bb4fa","system_id":"levelo_inurba_marseille","lat":43.24076,"lon":5.3777,"is_reserved":false,"is_disabled":false,"rental_uris":{"android":"levelo://app?vid=8b2f527f-8def-4236-a93a-fafed41bb4fa","ios":"levelo://app?vid=8b2f527f-8def-4236-a93a-fafed41bb4fa"},"vehicle_type_id":"4","last_reported":1778399712,"current_range_meters":6800,"station_id":"ce4bhnp2rcd13ifvqgvg","pricing_plan_id":"cebpf4jnsgd1na2vs0mg"},{"bike_id":"8de89280-2a61-4268-b817-bf90021f9ced","system_id":"levelo_inurba_marseille","lat":43.32105,"lon":5.36767,"is_reserved":false,"is_disabled":false,"rental_uris":{"android":"levelo://app?vid=8de89280-2a61-4268-b817-bf90021f9ced","ios":"levelo://app?vid=8de89280-2a61-4268-b817-bf90021f9ced"},"vehicle_type_id":"4","last_reported":1778399712,"current_range_meters":6800,"station_id":"ce4bhrh2rcd13ifvqhug","pricing_plan_id":"cebpf4jnsgd1na2vs0mg"},{"bike_id":"d6aa3b2f-3029-4676-9089-14b4fb6bf286","system_id":"levelo_inurba_marseille","lat":43.28715,"lon":5.46677,"is_reserved":false,"is_disabled":false,"rental_uris":{"android":"levelo://app?vid=d6aa3b2f-3029-4676-9089-14b4fb6bf286","ios":"levelo://app?vid=d6aa3b2f-3029-4676-9089-14b4fb6bf286"},"vehicle_type_id":"4","last_reported":1778399712,"current_range_meters":6800,"station_id":"st_d6tc3vkotcvc738tfjhg","pricing_plan_id":"cebpf4jnsgd1na2vs0mg"},{"bike_id":"61150fb1-a71e-4bc6-b639-ba6f2a861eda","system_id":"levelo_inurba_marseille","lat":43.28617,"lon":5.35105,"is_reserved":false,"is_disabled":false,"rental_uris":{"android":"levelo://app?vid=61150fb1-a71e-4bc6-b639-ba6f2a861eda","ios":"levelo://app?vid=61150fb1-a71e-4bc6-b639-ba6f2a861eda"},"vehicle_type_id":"4","last_reported":1778399712,"current_range_meters":6800,"station_id":"ce4bhch2rcd13ifvqeug","pricing_plan_id":"cebpf4jnsgd1na2vs0mg"},{"bike_id":"e5f0fbb4-b8dc-4aa1-9466-61d5f4ac958f","system_id":"levelo_inurba_marseille","lat":43.29027,"lon":5.3811,"is_reserved":false,"is_disabled":true,"rental_uris":{"android":"levelo://app?vid=e5f0fbb4-b8dc-4aa1-9466-61d5f4ac958f","ios":"levelo://app?vid=e5f0fbb4-b8dc-4aa1-9466-61d5f4ac958f"},"vehicle_type_id":"4","last_reported":1778399712,"current_range_meters":6800,"station_id":"ce4bh4p2rcd13ifvqe1g","pricing_plan_id":"cebpf4jnsgd1na2vs0mg"},{"bike_id":"1a6c2568-b2fa-4c03-a8b7-04ff60ab04d0","system_id":"levelo_inurba_marseille","lat":43.30416,"lon":5.38891,"is_reserved":false,"is_disabled":true,"rental_uris":{"android":"levelo://app?vid=1a6c2568-b2fa-4c03-a8b7-04ff60ab04d0","ios":"levelo://app?vid=1a6c2568-b2fa-4c03-a8b7-04ff60ab04d0"},"vehicle_type_id":"4","last_reported":1778399712,"current_range_meters":6800,"station_id":"ce4bgk12rcd13ifvqbi0","pricing_plan_id":"cebpf4jnsgd1na2vs0mg"},{"bike_id":"7038e266-7dfa-42fa-8e91-50f179aa7f0e","system_id":"levelo_inurba_marseille","lat":43.33546,"lon":5.37473,"is_reserved":false,"is_disabled":false,"rental_uris":{"android":"levelo://app?vid=7038e266-7dfa-42fa-8e91-50f179aa7f0e","ios":"levelo://app?vid=7038e266-7dfa-42fa-8e91-50f179aa7f0e"},"vehicle_type_id":"4","last_reported":1778399712,"current_range_meters":6800,"station_id":"st_d46tts09ee8s73dlu43g","pricing_plan_id":"cebpf4jnsgd1na2vs0mg"},{"bike_id":"0995efab-767d-445b-9eb8-2b7662b1bd82","system_id":"levelo_inurba_marseille","lat":43.2756,"lon":5.3841,"is_reserved":false,"is_disabled":false,"rental_uris":{"android":"levelo://app?vid=0995efab-767d-445b-9eb8-2b7662b1bd82","ios":"levelo://app?vid=0995efab-767d-445b-9eb8-2b7662b1bd82"},"vehicle_type_id":"4","last_reported":1778399712,"current_range_meters":6800,"station_id":"ce4bhh92rcd13ifvqfi0","pricing_plan_id":"cebpf4jnsgd1na2vs0mg"},{"bike_id":"ff41f028-e74e-477a-8abb-51c0d2444223","system_id":"levelo_inurba_marseille","lat":43.25132,"lon":5.40306,"is_reserved":false,"is_disabled":false,"rental_uris":{"android":"levelo://app?vid=ff41f028-e74e-477a-8abb-51c0d2444223","ios":"levelo://app?vid=ff41f028-e74e-477a-8abb-51c0d2444223"},"vehicle_type_id":"4","last_reported":1778399712,"current_range_meters":6800,"station_id":"ce4bhlh2rcd13ifvqgig","pricing_plan_id":"cebpf4jnsgd1na2vs0mg"},{"bike_id":"5e1f5986-ff69-4a2b-bb48-a1076b1b32aa","system_id":"levelo_inurba_marseille","lat":43.29296,"lon":5.37456,"is_reserved":false,"is_disabled":false,"rental_uris":{"android":"levelo://app?vid=5e1f5986-ff69-4a2b-bb48-a1076b1b32aa","ios":"levelo://app?vid=5e1f5986-ff69-4a2b-bb48-a1076b1b32aa"},"vehicle_type_id":"4","last_reported":1778399712,"current_range_meters":6800,"station_id":"ce4bgi12rcd13ifvqb70","pricing_plan_id":"cebpf4jnsgd1na2vs0mg"},{"bike_id":"0152740e-06db-4ade-88eb-e3632fbb8a1f","system_id":"levelo_inurba_marseille","lat":43.28278,"lon":5.35064,"is_reserved":false,"is_disabled":true,"rental_uris":{"android":"levelo://app?vid=0152740e-06db-4ade-88eb-e3632fbb8a1f","ios":"levelo://app?vid=0152740e-06db-4ade-88eb-e3632fbb8a1f"},"vehicle_type_id":"4","last_reported":1778399712,"current_range_meters":6800,"station_id":"ce4bhbp2rcd13ifvqerg","pricing_plan_id":"cebpf4jnsgd1na2vs0mg"},{"bike_id":"d06e6514-5194-45cd-a949-df56c0e81140","system_id":"levelo_inurba_marseille","lat":43.299988,"lon":5.400455,"is_reserved":false,"is_disabled":false,"rental_uris":{"android":"levelo://app?vid=d06e6514-5194-45cd-a949-df56c0e81140","ios":"levelo://app?vid=d06e6514-5194-45cd-a949-df56c0e81140"},"vehicle_type_id":"4","last_reported":1778399712,"current_range_meters":6800,"station_id":"ce4bh0h2rcd13ifvqd40","pricing_plan_id":"cebpf4jnsgd1na2vs0mg"},{"bike_id":"b2b87723-405b-4ccb-86e7-70250bf2f147","system_id":"levelo_inurba_marseille","lat":43.295867,"lon":5.374971,"is_reserved":false,"is_disabled":false,"rental_uris":{"android":"levelo://app?vid=b2b87723-405b-4ccb-86e7-70250bf2f147","ios":"levelo://app?vid=b2b87723-405b-4ccb-86e7-70250bf2f147"},"vehicle_type_id":"4","last_reported":1778399712,"current_range_meters":6800,"station_id":"ce4bgh92rcd13ifvqb50","pricing_plan_id":"cebpf4jnsgd1na2vs0mg"},{"bike_id":"4473fefa-37fb-4318-9cab-19a4c78b6047","system_id":"levelo_inurba_marseille","lat":43.28701,"lon":5.39982,"is_reserved":false,"is_disabled":false,"rental_uris":{"android":"levelo://app?vid=4473fefa-37fb-4318-9cab-19a4c78b6047","ios":"levelo://app?vid=4473fefa-37fb-4318-9cab-19a4c78b6047"},"vehicle_type_id":"4","last_reported":1778399712,"current_range_meters":6800,"station_id":"ce4bho92rcd13ifvqh3g","pricing_plan_id":"cebpf4jnsgd1na2vs0mg"},{"bike_id":"d06695c1-93b8-40f2-b810-e605561895c5","system_id":"levelo_inurba_marseille","lat":43.29253,"lon":5.38451,"is_reserved":false,"is_disabled":false,"rental_uris":{"android":"levelo://app?vid=d06695c1-93b8-40f2-b810-e605561895c5","ios":"levelo://app?vid=d06695c1-93b8-40f2-b810-e605561895c5"},"vehicle_type_id":"4","last_reported":1778399712,"current_range_meters":6800,"station_id":"ce4bh692rcd13ifvqea0","pricing_plan_id":"cebpf4jnsgd1na2vs0mg"},{"bike_id":"45f8fdb7-2cb1-45b9-8a88-adeab1f325d7","system_id":"levelo_inurba_marseille","lat":43.29231,"lon":5.38344,"is_reserved":false,"is_disabled":false,"rental_uris":{"android":"levelo://app?vid=45f8fdb7-2cb1-45b9-8a88-adeab1f325d7","ios":"levelo://app?vid=45f8fdb7-2cb1-45b9-8a88-adeab1f325d7"},"vehicle_type_id":"4","last_reported":1778399712,"current_range_meters":6800,"station_id":"","pricing_plan_id":"cebpf4jnsgd1na2vs0mg"},{"bike_id":"8dfef1ab-0585-4b75-8504-d7d6a29af2d1","system_id":"levelo_inurba_marseille","lat":43.31682,"lon":5.40477,"is_reserved":false,"is_disabled":false,"rental_uris":{"android":"levelo://app?vid=8dfef1ab-0585-4b75-8504-d7d6a29af2d1","ios":"levelo://app?vid=8dfef1ab-0585-4b75-8504-d7d6a29af2d1"},"vehicle_type_id":"4","last_reported":1778399712,"current_range_meters":7200,"station_id":"ce4bh012rcd13ifvqd00","pricing_plan_id":"cebpf4jnsgd1na2vs0mg"},{"bike_id":"9dc61640-987a-437c-ada7-637d7471e1db","system_id":"levelo_inurba_marseille","lat":43.33171,"lon":5.37671,"is_reserved":false,"is_disabled":false,"rental_uris":{"android":"levelo://app?vid=9dc61640-987a-437c-ada7-637d7471e1db","ios":"levelo://app?vid=9dc61640-987a-437c-ada7-637d7471e1db"},"vehicle_type_id":"4","last_reported":1778399712,"current_range_meters":7200,"station_id":"st_d46cu089ee8s73dldbu0","pricing_plan_id":"cebpf4jnsgd1na2vs0mg"},{"bike_id":"a4a2cf48-aeb1-4682-8f92-0c9a633769a2","system_id":"levelo_inurba_marseille","lat":43.261859,"lon":5.374465,"is_reserved":false,"is_disabled":false,"rental_uris":{"android":"levelo://app?vid=a4a2cf48-aeb1-4682-8f92-0c9a633769a2","ios":"levelo://app?vid=a4a2cf48-aeb1-4682-8f92-0c9a633769a2"},"vehicle_type_id":"4","last_reported":1778399712,"current_range_meters":7200,"station_id":"ce4bhgp2rcd13ifvqfc0","pricing_plan_id":"cebpf4jnsgd1na2vs0mg"},{"bike_id":"6dec282d-38ec-4336-8ede-9a1772e1298f","system_id":"levelo_inurba_marseille","lat":43.29663,"lon":5.38024,"is_reserved":false,"is_disabled":false,"rental_uris":{"android":"levelo://app?vid=6dec282d-38ec-4336-8ede-9a1772e1298f","ios":"levelo://app?vid=6dec282d-38ec-4336-8ede-9a1772e1298f"},"vehicle_type_id":"4","last_reported":1778399712,"current_range_meters":7200,"station_id":"","pricing_plan_id":"cebpf4jnsgd1na2vs0mg"},{"bike_id":"0a517897-1481-464c-a297-fc37db476b67","system_id":"levelo_inurba_marseille","lat":43.32128,"lon":5.3676,"is_reserved":false,"is_disabled":false,"rental_uris":{"android":"levelo://app?vid=0a517897-1481-464c-a297-fc37db476b67","ios":"levelo://app?vid=0a517897-1481-464c-a297-fc37db476b67"},"vehicle_type_id":"4","last_reported":1778399712,"current_range_meters":7200,"station_id":"ce4bhrh2rcd13ifvqhug","pricing_plan_id":"cebpf4jnsgd1na2vs0mg"},{"bike_id":"d5f0dc25-4592-44f7-8db4-ee52a35f69ad","system_id":"levelo_inurba_marseille","lat":43.28511,"lon":5.4837,"is_reserved":false,"is_disabled":false,"rental_uris":{"android":"levelo://app?vid=d5f0dc25-4592-44f7-8db4-ee52a35f69ad","ios":"levelo://app?vid=d5f0dc25-4592-44f7-8db4-ee52a35f69ad"},"vehicle_type_id":"4","last_reported":1778399712,"current_range_meters":7200,"station_id":"","pricing_plan_id":"cebpf4jnsgd1na2vs0mg"},{"bike_id":"eacb7b92-6b7b-4d35-a248-3bcc1fda158e","system_id":"levelo_inurba_marseille","lat":43.28857,"lon":5.39301,"is_reserved":false,"is_disabled":false,"rental_uris":{"android":"levelo://app?vid=eacb7b92-6b7b-4d35-a248-3bcc1fda158e","ios":"levelo://app?vid=eacb7b92-6b7b-4d35-a248-3bcc1fda158e"},"vehicle_type_id":"4","last_reported":1778399712,"current_range_meters":7200,"station_id":"ce4bh2p2rcd13ifvqdi0","pricing_plan_id":"cebpf4jnsgd1na2vs0mg"},{"bike_id":"17cc4c0a-4b5f-4e18-aeb2-472d34557615","system_id":"levelo_inurba_marseille","lat":43.287,"lon":5.46683,"is_reserved":false,"is_disabled":false,"rental_uris":{"android":"levelo://app?vid=17cc4c0a-4b5f-4e18-aeb2-472d34557615","ios":"levelo://app?vid=17cc4c0a-4b5f-4e18-aeb2-472d34557615"},"vehicle_type_id":"4","last_reported":1778399712,"current_range_meters":7200,"station_id":"st_d6tc3vkotcvc738tfjhg","pricing_plan_id":"cebpf4jnsgd1na2vs0mg"},{"bike_id":"ad824b62-ba8d-40e6-a073-14a810f8f6bf","system_id":"levelo_inurba_marseille","lat":43.26077,"lon":5.39392,"is_reserved":false,"is_disabled":false,"rental_uris":{"android":"levelo://app?vid=ad824b62-ba8d-40e6-a073-14a810f8f6bf","ios":"levelo://app?vid=ad824b62-ba8d-40e6-a073-14a810f8f6bf"},"vehicle_type_id":"4","last_reported":1778399712,"current_range_meters":7200,"station_id":"ce4bhh92rcd13ifvqfj0","pricing_plan_id":"cebpf4jnsgd1na2vs0mg"},{"bike_id":"dec35e0a-b8aa-4da4-b573-abb2e84587d7","system_id":"levelo_inurba_marseille","lat":43.26189,"lon":5.37455,"is_reserved":false,"is_disabled":false,"rental_uris":{"android":"levelo://app?vid=dec35e0a-b8aa-4da4-b573-abb2e84587d7","ios":"levelo://app?vid=dec35e0a-b8aa-4da4-b573-abb2e84587d7"},"vehicle_type_id":"4","last_reported":1778399712,"current_range_meters":7200,"station_id":"ce4bhgp2rcd13ifvqfc0","pricing_plan_id":"cebpf4jnsgd1na2vs0mg"},{"bike_id":"9a1f8574-8e1d-406f-8cbe-db5fc10d7aee","system_id":"levelo_inurba_marseille","lat":43.29578,"lon":5.38122,"is_reserved":false,"is_disabled":false,"rental_uris":{"android":"levelo://app?vid=9a1f8574-8e1d-406f-8cbe-db5fc10d7aee","ios":"levelo://app?vid=9a1f8574-8e1d-406f-8cbe-db5fc10d7aee"},"vehicle_type_id":"4","last_reported":1778399712,"current_range_meters":7200,"station_id":"ce4bgl12rcd13ifvqbo0","pricing_plan_id":"cebpf4jnsgd1na2vs0mg"},{"bike_id":"147a4cde-83e7-4d1a-9487-5b4c45228b9b","system_id":"levelo_inurba_marseille","lat":43.33159,"lon":5.37682,"is_reserved":false,"is_disabled":false,"rental_uris":{"android":"levelo://app?vid=147a4cde-83e7-4d1a-9487-5b4c45228b9b","ios":"levelo://app?vid=147a4cde-83e7-4d1a-9487-5b4c45228b9b"},"vehicle_type_id":"4","last_reported":1778399712,"current_range_meters":7200,"station_id":"st_d46cu089ee8s73dldbu0","pricing_plan_id":"cebpf4jnsgd1na2vs0mg"},{"bike_id":"7017c387-278c-4b8c-9782-aa80dc34ecbe","system_id":"levelo_inurba_marseille","lat":43.23903,"lon":5.37466,"is_reserved":false,"is_disabled":true,"rental_uris":{"android":"levelo://app?vid=7017c387-278c-4b8c-9782-aa80dc34ecbe","ios":"levelo://app?vid=7017c387-278c-4b8c-9782-aa80dc34ecbe"},"vehicle_type_id":"4","last_reported":1778399712,"current_range_meters":7200,"station_id":"st_d6sm7csbq4hs73f8fpjg","pricing_plan_id":"cebpf4jnsgd1na2vs0mg"},{"bike_id":"49418f27-2245-41c7-aa42-c5fcf4bba315","system_id":"levelo_inurba_marseille","lat":43.26368,"lon":5.41045,"is_reserved":false,"is_disabled":false,"rental_uris":{"android":"levelo://app?vid=49418f27-2245-41c7-aa42-c5fcf4bba315","ios":"levelo://app?vid=49418f27-2245-41c7-aa42-c5fcf4bba315"},"vehicle_type_id":"4","last_reported":1778399712,"current_range_meters":8000,"station_id":"st_d4e5ca6na9uc73bfl5fg","pricing_plan_id":"cebpf4jnsgd1na2vs0mg"},{"bike_id":"5d33716e-5ee6-4385-b03b-431189cd1e85","system_id":"levelo_inurba_marseille","lat":43.31376,"lon":5.38495,"is_reserved":false,"is_disabled":false,"rental_uris":{"android":"levelo://app?vid=5d33716e-5ee6-4385-b03b-431189cd1e85","ios":"levelo://app?vid=5d33716e-5ee6-4385-b03b-431189cd1e85"},"vehicle_type_id":"4","last_reported":1778399712,"current_range_meters":8000,"station_id":"ce4bgt92rcd13ifvqcf0","pricing_plan_id":"cebpf4jnsgd1na2vs0mg"},{"bike_id":"66969438-299e-490d-ab31-e463b9efa104","system_id":"levelo_inurba_marseille","lat":43.28473,"lon":5.48394,"is_reserved":false,"is_disabled":false,"rental_uris":{"android":"levelo://app?vid=66969438-299e-490d-ab31-e463b9efa104","ios":"levelo://app?vid=66969438-299e-490d-ab31-e463b9efa104"},"vehicle_type_id":"4","last_reported":1778399712,"current_range_meters":8000,"station_id":"","pricing_plan_id":"cebpf4jnsgd1na2vs0mg"},{"bike_id":"51ac79da-73b8-40fe-8601-c8f3e1221081","system_id":"levelo_inurba_marseille","lat":43.29056,"lon":5.39944,"is_reserved":false,"is_disabled":false,"rental_uris":{"android":"levelo://app?vid=51ac79da-73b8-40fe-8601-c8f3e1221081","ios":"levelo://app?vid=51ac79da-73b8-40fe-8601-c8f3e1221081"},"vehicle_type_id":"4","last_reported":1778399712,"current_range_meters":8000,"station_id":"ce4bh392rcd13ifvqdm0","pricing_plan_id":"cebpf4jnsgd1na2vs0mg"},{"bike_id":"533e3419-bbc7-4ca7-b7fb-01dc0cfba791","system_id":"levelo_inurba_marseille","lat":43.26826,"lon":5.39384,"is_reserved":false,"is_disabled":false,"rental_uris":{"android":"levelo://app?vid=533e3419-bbc7-4ca7-b7fb-01dc0cfba791","ios":"levelo://app?vid=533e3419-bbc7-4ca7-b7fb-01dc0cfba791"},"vehicle_type_id":"4","last_reported":1778399712,"current_range_meters":8000,"station_id":"ce4bhh12rcd13ifvqfg0","pricing_plan_id":"cebpf4jnsgd1na2vs0mg"},{"bike_id":"d55796ed-4e9c-4094-8c61-04073e5fd354","system_id":"levelo_inurba_marseille","lat":43.2814,"lon":5.42603,"is_reserved":false,"is_disabled":false,"rental_uris":{"android":"levelo://app?vid=d55796ed-4e9c-4094-8c61-04073e5fd354","ios":"levelo://app?vid=d55796ed-4e9c-4094-8c61-04073e5fd354"},"vehicle_type_id":"4","last_reported":1778399712,"current_range_meters":8000,"station_id":"ce4bhnh2rcd13ifvqgug","pricing_plan_id":"cebpf4jnsgd1na2vs0mg"},{"bike_id":"f3663f60-dbbf-48c6-8470-0b2e2be6f100","system_id":"levelo_inurba_marseille","lat":43.26378,"lon":5.41059,"is_reserved":false,"is_disabled":false,"rental_uris":{"android":"levelo://app?vid=f3663f60-dbbf-48c6-8470-0b2e2be6f100","ios":"levelo://app?vid=f3663f60-dbbf-48c6-8470-0b2e2be6f100"},"vehicle_type_id":"4","last_reported":1778399712,"current_range_meters":8000,"station_id":"st_d4e5ca6na9uc73bfl5fg","pricing_plan_id":"cebpf4jnsgd1na2vs0mg"},{"bike_id":"6be1be21-8155-4845-b665-1dad8a6c6bf4","system_id":"levelo_inurba_marseille","lat":43.28622,"lon":5.35103,"is_reserved":false,"is_disabled":true,"rental_uris":{"android":"levelo://app?vid=6be1be21-8155-4845-b665-1dad8a6c6bf4","ios":"levelo://app?vid=6be1be21-8155-4845-b665-1dad8a6c6bf4"},"vehicle_type_id":"4","last_reported":1778399712,"current_range_meters":8000,"station_id":"ce4bhch2rcd13ifvqeug","pricing_plan_id":"cebpf4jnsgd1na2vs0mg"},{"bike_id":"64ee1d1b-107a-4763-9db4-d26752131c23","system_id":"levelo_inurba_marseille","lat":43.25092,"lon":5.39532,"is_reserved":false,"is_disabled":false,"rental_uris":{"android":"levelo://app?vid=64ee1d1b-107a-4763-9db4-d26752131c23","ios":"levelo://app?vid=64ee1d1b-107a-4763-9db4-d26752131c23"},"vehicle_type_id":"4","last_reported":1778399712,"current_range_meters":8000,"station_id":"ce4bhm12rcd13ifvqgkg","pricing_plan_id":"cebpf4jnsgd1na2vs0mg"},{"bike_id":"da99af1b-ad8f-44e8-a0f5-a40e4155a316","system_id":"levelo_inurba_marseille","lat":43.29297,"lon":5.40141,"is_reserved":false,"is_disabled":false,"rental_uris":{"android":"levelo://app?vid=da99af1b-ad8f-44e8-a0f5-a40e4155a316","ios":"levelo://app?vid=da99af1b-ad8f-44e8-a0f5-a40e4155a316"},"vehicle_type_id":"4","last_reported":1778399712,"current_range_meters":8000,"station_id":"ce4bh312rcd13ifvqdk0","pricing_plan_id":"cebpf4jnsgd1na2vs0mg"},{"bike_id":"9d551ecc-38fb-43f4-806b-e1d328a2af66","system_id":"levelo_inurba_marseille","lat":43.29529,"lon":5.39031,"is_reserved":false,"is_disabled":false,"rental_uris":{"android":"levelo://app?vid=9d551ecc-38fb-43f4-806b-e1d328a2af66","ios":"levelo://app?vid=9d551ecc-38fb-43f4-806b-e1d328a2af66"},"vehicle_type_id":"4","last_reported":1778399712,"current_range_meters":8000,"station_id":"ce4bh3p2rcd13ifvqdp0","pricing_plan_id":"cebpf4jnsgd1na2vs0mg"},{"bike_id":"f66d24f2-bc98-4d48-b2ac-6f874acf2979","system_id":"levelo_inurba_marseille","lat":43.27885,"lon":5.38273,"is_reserved":false,"is_disabled":false,"rental_uris":{"android":"levelo://app?vid=f66d24f2-bc98-4d48-b2ac-6f874acf2979","ios":"levelo://app?vid=f66d24f2-bc98-4d48-b2ac-6f874acf2979"},"vehicle_type_id":"4","last_reported":1778399712,"current_range_meters":8000,"station_id":"","pricing_plan_id":"cebpf4jnsgd1na2vs0mg"},{"bike_id":"e6752511-3e96-4c0a-9e61-ec643cdb2faa","system_id":"levelo_inurba_marseille","lat":43.26386,"lon":5.41288,"is_reserved":false,"is_disabled":false,"rental_uris":{"android":"levelo://app?vid=e6752511-3e96-4c0a-9e61-ec643cdb2faa","ios":"levelo://app?vid=e6752511-3e96-4c0a-9e61-ec643cdb2faa"},"vehicle_type_id":"4","last_reported":1778399712,"current_range_meters":8000,"station_id":"st_d4e5ca6na9uc73bfl5fg","pricing_plan_id":"cebpf4jnsgd1na2vs0mg"},{"bike_id":"5e506c32-8063-47a0-a03b-0e18aefd7f60","system_id":"levelo_inurba_marseille","lat":43.24065,"lon":5.37731,"is_reserved":false,"is_disabled":true,"rental_uris":{"android":"levelo://app?vid=5e506c32-8063-47a0-a03b-0e18aefd7f60","ios":"levelo://app?vid=5e506c32-8063-47a0-a03b-0e18aefd7f60"},"vehicle_type_id":"4","last_reported":1778399712,"current_range_meters":8400,"station_id":"ce4bhnp2rcd13ifvqgvg","pricing_plan_id":"cebpf4jnsgd1na2vs0mg"},{"bike_id":"1d0e6042-c720-473a-9519-69b15ea7d737","system_id":"levelo_inurba_marseille","lat":43.29572,"lon":5.39955,"is_reserved":false,"is_disabled":false,"rental_uris":{"android":"levelo://app?vid=1d0e6042-c720-473a-9519-69b15ea7d737","ios":"levelo://app?vid=1d0e6042-c720-473a-9519-69b15ea7d737"},"vehicle_type_id":"4","last_reported":1778399712,"current_range_meters":8400,"station_id":"ce4bh312rcd13ifvqdj0","pricing_plan_id":"cebpf4jnsgd1na2vs0mg"},{"bike_id":"9978bf29-8be4-416d-9e1c-7cc044f2b9f1","system_id":"levelo_inurba_marseille","lat":43.32763,"lon":5.37517,"is_reserved":false,"is_disabled":false,"rental_uris":{"android":"levelo://app?vid=9978bf29-8be4-416d-9e1c-7cc044f2b9f1","ios":"levelo://app?vid=9978bf29-8be4-416d-9e1c-7cc044f2b9f1"},"vehicle_type_id":"4","last_reported":1778399712,"current_range_meters":8400,"station_id":"","pricing_plan_id":"cebpf4jnsgd1na2vs0mg"},{"bike_id":"fce79078-48bc-4d3e-a1b0-a9eb686a3f15","system_id":"levelo_inurba_marseille","lat":43.29494,"lon":5.38425,"is_reserved":false,"is_disabled":false,"rental_uris":{"android":"levelo://app?vid=fce79078-48bc-4d3e-a1b0-a9eb686a3f15","ios":"levelo://app?vid=fce79078-48bc-4d3e-a1b0-a9eb686a3f15"},"vehicle_type_id":"4","last_reported":1778399712,"current_range_meters":8400,"station_id":"","pricing_plan_id":"cebpf4jnsgd1na2vs0mg"},{"bike_id":"b0924cdd-95f4-4ebb-bc68-4b287e16c53b","system_id":"levelo_inurba_marseille","lat":43.30948,"lon":5.40152,"is_reserved":false,"is_disabled":true,"rental_uris":{"android":"levelo://app?vid=b0924cdd-95f4-4ebb-bc68-4b287e16c53b","ios":"levelo://app?vid=b0924cdd-95f4-4ebb-bc68-4b287e16c53b"},"vehicle_type_id":"4","last_reported":1778399712,"current_range_meters":8400,"station_id":"ce4bgvp2rcd13ifvqct0","pricing_plan_id":"cebpf4jnsgd1na2vs0mg"},{"bike_id":"4b14a232-1575-4a0a-8ff0-92560192fe13","system_id":"levelo_inurba_marseille","lat":43.30316,"lon":5.36908,"is_reserved":false,"is_disabled":false,"rental_uris":{"android":"levelo://app?vid=4b14a232-1575-4a0a-8ff0-92560192fe13","ios":"levelo://app?vid=4b14a232-1575-4a0a-8ff0-92560192fe13"},"vehicle_type_id":"4","last_reported":1778399712,"current_range_meters":8400,"station_id":"ce4bgqh2rcd13ifvqc5g","pricing_plan_id":"cebpf4jnsgd1na2vs0mg"},{"bike_id":"f3e5f4c8-4e21-43e7-b783-e32e46d7b1d8","system_id":"levelo_inurba_marseille","lat":43.31236,"lon":5.37302,"is_reserved":false,"is_disabled":false,"rental_uris":{"android":"levelo://app?vid=f3e5f4c8-4e21-43e7-b783-e32e46d7b1d8","ios":"levelo://app?vid=f3e5f4c8-4e21-43e7-b783-e32e46d7b1d8"},"vehicle_type_id":"4","last_reported":1778399712,"current_range_meters":8400,"station_id":"","pricing_plan_id":"cebpf4jnsgd1na2vs0mg"},{"bike_id":"2506be62-85f3-41a6-b103-e5faab53b5ba","system_id":"levelo_inurba_marseille","lat":43.2758,"lon":5.38407,"is_reserved":false,"is_disabled":true,"rental_uris":{"android":"levelo://app?vid=2506be62-85f3-41a6-b103-e5faab53b5ba","ios":"levelo://app?vid=2506be62-85f3-41a6-b103-e5faab53b5ba"},"vehicle_type_id":"4","last_reported":1778399712,"current_range_meters":8400,"station_id":"ce4bhh92rcd13ifvqfi0","pricing_plan_id":"cebpf4jnsgd1na2vs0mg"},{"bike_id":"943cf82b-777f-474d-9abb-0bc061b7cd0c","system_id":"levelo_inurba_marseille","lat":43.29716,"lon":5.36603,"is_reserved":false,"is_disabled":true,"rental_uris":{"android":"levelo://app?vid=943cf82b-777f-474d-9abb-0bc061b7cd0c","ios":"levelo://app?vid=943cf82b-777f-474d-9abb-0bc061b7cd0c"},"vehicle_type_id":"4","last_reported":1778399712,"current_range_meters":8400,"station_id":"ce4bgn12rcd13ifvqbt0","pricing_plan_id":"cebpf4jnsgd1na2vs0mg"},{"bike_id":"fd218b19-8f33-4a74-8ae4-8251c7a63f98","system_id":"levelo_inurba_marseille","lat":43.24626,"lon":5.43155,"is_reserved":false,"is_disabled":false,"rental_uris":{"android":"levelo://app?vid=fd218b19-8f33-4a74-8ae4-8251c7a63f98","ios":"levelo://app?vid=fd218b19-8f33-4a74-8ae4-8251c7a63f98"},"vehicle_type_id":"4","last_reported":1778399712,"current_range_meters":8400,"station_id":"st_d2m6c4gdas8pm72e190g","pricing_plan_id":"cebpf4jnsgd1na2vs0mg"},{"bike_id":"8395579b-8f38-41a7-86cb-d8270590e280","system_id":"levelo_inurba_marseille","lat":43.25722,"lon":5.41101,"is_reserved":false,"is_disabled":false,"rental_uris":{"android":"levelo://app?vid=8395579b-8f38-41a7-86cb-d8270590e280","ios":"levelo://app?vid=8395579b-8f38-41a7-86cb-d8270590e280"},"vehicle_type_id":"4","last_reported":1778399712,"current_range_meters":8400,"station_id":"ce4bhkp2rcd13ifvqgd0","pricing_plan_id":"cebpf4jnsgd1na2vs0mg"},{"bike_id":"6e69119c-e4fc-49a8-b5c0-840533fdf37f","system_id":"levelo_inurba_marseille","lat":43.30088,"lon":5.39099,"is_reserved":false,"is_disabled":false,"rental_uris":{"android":"levelo://app?vid=6e69119c-e4fc-49a8-b5c0-840533fdf37f","ios":"levelo://app?vid=6e69119c-e4fc-49a8-b5c0-840533fdf37f"},"vehicle_type_id":"4","last_reported":1778399712,"current_range_meters":8400,"station_id":"ce4bh192rcd13ifvqdb0","pricing_plan_id":"cebpf4jnsgd1na2vs0mg"},{"bike_id":"21ef52c0-8db9-49ca-9e3a-c58f441774ac","system_id":"levelo_inurba_marseille","lat":43.2994,"lon":5.37462,"is_reserved":false,"is_disabled":false,"rental_uris":{"android":"levelo://app?vid=21ef52c0-8db9-49ca-9e3a-c58f441774ac","ios":"levelo://app?vid=21ef52c0-8db9-49ca-9e3a-c58f441774ac"},"vehicle_type_id":"4","last_reported":1778399712,"current_range_meters":8400,"station_id":"ce4bgjh2rcd13ifvqbg0","pricing_plan_id":"cebpf4jnsgd1na2vs0mg"},{"bike_id":"c0a1eed9-2be4-46d7-a44b-801697a97cee","system_id":"levelo_inurba_marseille","lat":43.28453,"lon":5.35893,"is_reserved":false,"is_disabled":false,"rental_uris":{"android":"levelo://app?vid=c0a1eed9-2be4-46d7-a44b-801697a97cee","ios":"levelo://app?vid=c0a1eed9-2be4-46d7-a44b-801697a97cee"},"vehicle_type_id":"4","last_reported":1778399712,"current_range_meters":8400,"station_id":"ce4bhah2rcd13ifvqei0","pricing_plan_id":"cebpf4jnsgd1na2vs0mg"},{"bike_id":"1d18ceb8-8246-4fa1-b8b0-48b436a72bf8","system_id":"levelo_inurba_marseille","lat":43.250857,"lon":5.395287,"is_reserved":false,"is_disabled":false,"rental_uris":{"android":"levelo://app?vid=1d18ceb8-8246-4fa1-b8b0-48b436a72bf8","ios":"levelo://app?vid=1d18ceb8-8246-4fa1-b8b0-48b436a72bf8"},"vehicle_type_id":"4","last_reported":1778399712,"current_range_meters":8400,"station_id":"ce4bhm12rcd13ifvqgkg","pricing_plan_id":"cebpf4jnsgd1na2vs0mg"},{"bike_id":"c639e12e-5922-4ca3-9c44-60abefd2e632","system_id":"levelo_inurba_marseille","lat":43.3063,"lon":5.40108,"is_reserved":false,"is_disabled":false,"rental_uris":{"android":"levelo://app?vid=c639e12e-5922-4ca3-9c44-60abefd2e632","ios":"levelo://app?vid=c639e12e-5922-4ca3-9c44-60abefd2e632"},"vehicle_type_id":"4","last_reported":1778399712,"current_range_meters":8400,"station_id":"ce4bh112rcd13ifvqda0","pricing_plan_id":"cebpf4jnsgd1na2vs0mg"},{"bike_id":"a2bc18bc-742d-49ea-bbf9-2554b9cd98da","system_id":"levelo_inurba_marseille","lat":43.26049,"lon":5.38632,"is_reserved":false,"is_disabled":false,"rental_uris":{"android":"levelo://app?vid=a2bc18bc-742d-49ea-bbf9-2554b9cd98da","ios":"levelo://app?vid=a2bc18bc-742d-49ea-bbf9-2554b9cd98da"},"vehicle_type_id":"4","last_reported":1778399712,"current_range_meters":8400,"station_id":"","pricing_plan_id":"cebpf4jnsgd1na2vs0mg"},{"bike_id":"02849ecd-84ae-4972-8247-931607cdaec0","system_id":"levelo_inurba_marseille","lat":43.28619,"lon":5.35101,"is_reserved":false,"is_disabled":false,"rental_uris":{"android":"levelo://app?vid=02849ecd-84ae-4972-8247-931607cdaec0","ios":"levelo://app?vid=02849ecd-84ae-4972-8247-931607cdaec0"},"vehicle_type_id":"4","last_reported":1778399712,"current_range_meters":8400,"station_id":"ce4bhch2rcd13ifvqeug","pricing_plan_id":"cebpf4jnsgd1na2vs0mg"},{"bike_id":"cccda472-7561-4978-9b74-a8c6197a578e","system_id":"levelo_inurba_marseille","lat":43.33168,"lon":5.37674,"is_reserved":false,"is_disabled":false,"rental_uris":{"android":"levelo://app?vid=cccda472-7561-4978-9b74-a8c6197a578e","ios":"levelo://app?vid=cccda472-7561-4978-9b74-a8c6197a578e"},"vehicle_type_id":"4","last_reported":1778399712,"current_range_meters":8400,"station_id":"st_d46cu089ee8s73dldbu0","pricing_plan_id":"cebpf4jnsgd1na2vs0mg"},{"bike_id":"ebb808f7-9f06-4a27-8342-6d6466c475f1","system_id":"levelo_inurba_marseille","lat":43.30813,"lon":5.38166,"is_reserved":false,"is_disabled":false,"rental_uris":{"android":"levelo://app?vid=ebb808f7-9f06-4a27-8342-6d6466c475f1","ios":"levelo://app?vid=ebb808f7-9f06-4a27-8342-6d6466c475f1"},"vehicle_type_id":"4","last_reported":1778399712,"current_range_meters":8400,"station_id":"ce4bgt12rcd13ifvqce0","pricing_plan_id":"cebpf4jnsgd1na2vs0mg"},{"bike_id":"e88067db-06e7-43fb-8b26-0f29cfb1ca74","system_id":"levelo_inurba_marseille","lat":43.28719,"lon":5.46679,"is_reserved":false,"is_disabled":false,"rental_uris":{"android":"levelo://app?vid=e88067db-06e7-43fb-8b26-0f29cfb1ca74","ios":"levelo://app?vid=e88067db-06e7-43fb-8b26-0f29cfb1ca74"},"vehicle_type_id":"4","last_reported":1778399712,"current_range_meters":8400,"station_id":"st_d6tc3vkotcvc738tfjhg","pricing_plan_id":"cebpf4jnsgd1na2vs0mg"},{"bike_id":"bd013f89-14e0-4bf4-b551-5f21536228af","system_id":"levelo_inurba_marseille","lat":43.26068,"lon":5.39383,"is_reserved":false,"is_disabled":false,"rental_uris":{"android":"levelo://app?vid=bd013f89-14e0-4bf4-b551-5f21536228af","ios":"levelo://app?vid=bd013f89-14e0-4bf4-b551-5f21536228af"},"vehicle_type_id":"4","last_reported":1778399712,"current_range_meters":8800,"station_id":"ce4bhh92rcd13ifvqfj0","pricing_plan_id":"cebpf4jnsgd1na2vs0mg"},{"bike_id":"84227581-1af7-4b5a-b29a-e2450261f3ff","system_id":"levelo_inurba_marseille","lat":43.24479,"lon":5.42525,"is_reserved":false,"is_disabled":false,"rental_uris":{"android":"levelo://app?vid=84227581-1af7-4b5a-b29a-e2450261f3ff","ios":"levelo://app?vid=84227581-1af7-4b5a-b29a-e2450261f3ff"},"vehicle_type_id":"4","last_reported":1778399712,"current_range_meters":8800,"station_id":"st_d4a3vfp97mjs738cd8kg","pricing_plan_id":"cebpf4jnsgd1na2vs0mg"},{"bike_id":"d6e11961-a2ee-4bd5-94e1-17a162f7b084","system_id":"levelo_inurba_marseille","lat":43.29602,"lon":5.38078,"is_reserved":false,"is_disabled":false,"rental_uris":{"android":"levelo://app?vid=d6e11961-a2ee-4bd5-94e1-17a162f7b084","ios":"levelo://app?vid=d6e11961-a2ee-4bd5-94e1-17a162f7b084"},"vehicle_type_id":"4","last_reported":1778399712,"current_range_meters":8800,"station_id":"ce4bgl12rcd13ifvqbo0","pricing_plan_id":"cebpf4jnsgd1na2vs0mg"},{"bike_id":"31398a4d-4b5e-484e-bd5a-d9f31bc295bd","system_id":"levelo_inurba_marseille","lat":43.25112,"lon":5.39525,"is_reserved":false,"is_disabled":false,"rental_uris":{"android":"levelo://app?vid=31398a4d-4b5e-484e-bd5a-d9f31bc295bd","ios":"levelo://app?vid=31398a4d-4b5e-484e-bd5a-d9f31bc295bd"},"vehicle_type_id":"4","last_reported":1778399712,"current_range_meters":8800,"station_id":"ce4bhm12rcd13ifvqgkg","pricing_plan_id":"cebpf4jnsgd1na2vs0mg"},{"bike_id":"16eab437-1b4d-450b-9a42-7bf3620c7694","system_id":"levelo_inurba_marseille","lat":43.290019,"lon":5.356235,"is_reserved":false,"is_disabled":true,"rental_uris":{"android":"levelo://app?vid=16eab437-1b4d-450b-9a42-7bf3620c7694","ios":"levelo://app?vid=16eab437-1b4d-450b-9a42-7bf3620c7694"},"vehicle_type_id":"4","last_reported":1778399712,"current_range_meters":8800,"station_id":"","pricing_plan_id":"cebpf4jnsgd1na2vs0mg"},{"bike_id":"1eaa8a9d-dfec-4534-8038-aaa7b3c7258c","system_id":"levelo_inurba_marseille","lat":43.29716,"lon":5.37706,"is_reserved":false,"is_disabled":false,"rental_uris":{"android":"levelo://app?vid=1eaa8a9d-dfec-4534-8038-aaa7b3c7258c","ios":"levelo://app?vid=1eaa8a9d-dfec-4534-8038-aaa7b3c7258c"},"vehicle_type_id":"4","last_reported":1778399712,"current_range_meters":8800,"station_id":"ce4bgkh2rcd13ifvqbl0","pricing_plan_id":"cebpf4jnsgd1na2vs0mg"},{"bike_id":"05873d3e-2f07-45ee-9c3a-8f47e65ca722","system_id":"levelo_inurba_marseille","lat":43.29866,"lon":5.39726,"is_reserved":false,"is_disabled":true,"rental_uris":{"android":"levelo://app?vid=05873d3e-2f07-45ee-9c3a-8f47e65ca722","ios":"levelo://app?vid=05873d3e-2f07-45ee-9c3a-8f47e65ca722"},"vehicle_type_id":"4","last_reported":1778399712,"current_range_meters":8800,"station_id":"ce4bh0h2rcd13ifvqd50","pricing_plan_id":"cebpf4jnsgd1na2vs0mg"},{"bike_id":"80386a2b-e970-41f0-870f-0b66294b34a1","system_id":"levelo_inurba_marseille","lat":43.26366,"lon":5.41015,"is_reserved":false,"is_disabled":false,"rental_uris":{"android":"levelo://app?vid=80386a2b-e970-41f0-870f-0b66294b34a1","ios":"levelo://app?vid=80386a2b-e970-41f0-870f-0b66294b34a1"},"vehicle_type_id":"4","last_reported":1778399712,"current_range_meters":8800,"station_id":"st_d4e5ca6na9uc73bfl5fg","pricing_plan_id":"cebpf4jnsgd1na2vs0mg"},{"bike_id":"523bae21-47ff-42d4-800f-6f372ba97d90","system_id":"levelo_inurba_marseille","lat":43.30923,"lon":5.40149,"is_reserved":false,"is_disabled":false,"rental_uris":{"android":"levelo://app?vid=523bae21-47ff-42d4-800f-6f372ba97d90","ios":"levelo://app?vid=523bae21-47ff-42d4-800f-6f372ba97d90"},"vehicle_type_id":"4","last_reported":1778399712,"current_range_meters":8800,"station_id":"ce4bgvp2rcd13ifvqct0","pricing_plan_id":"cebpf4jnsgd1na2vs0mg"},{"bike_id":"e16f3497-994b-4a5e-a623-feda354f6eb9","system_id":"levelo_inurba_marseille","lat":43.2947,"lon":5.43318,"is_reserved":false,"is_disabled":false,"rental_uris":{"android":"levelo://app?vid=e16f3497-994b-4a5e-a623-feda354f6eb9","ios":"levelo://app?vid=e16f3497-994b-4a5e-a623-feda354f6eb9"},"vehicle_type_id":"4","last_reported":1778399712,"current_range_meters":8800,"station_id":"st_d3j5ugp08ojc73fj9d10","pricing_plan_id":"cebpf4jnsgd1na2vs0mg"},{"bike_id":"dfa6dd59-77bd-4892-9b0a-54e6272c910a","system_id":"levelo_inurba_marseille","lat":43.26227,"lon":5.40445,"is_reserved":false,"is_disabled":false,"rental_uris":{"android":"levelo://app?vid=dfa6dd59-77bd-4892-9b0a-54e6272c910a","ios":"levelo://app?vid=dfa6dd59-77bd-4892-9b0a-54e6272c910a"},"vehicle_type_id":"4","last_reported":1778399712,"current_range_meters":8800,"station_id":"ce4bhmh2rcd13ifvqgmg","pricing_plan_id":"cebpf4jnsgd1na2vs0mg"},{"bike_id":"4516e97d-1ec7-4f67-bd2c-30129b674d6c","system_id":"levelo_inurba_marseille","lat":43.28598,"lon":5.35141,"is_reserved":false,"is_disabled":true,"rental_uris":{"android":"levelo://app?vid=4516e97d-1ec7-4f67-bd2c-30129b674d6c","ios":"levelo://app?vid=4516e97d-1ec7-4f67-bd2c-30129b674d6c"},"vehicle_type_id":"4","last_reported":1778399712,"current_range_meters":8800,"station_id":"ce4bhch2rcd13ifvqeug","pricing_plan_id":"cebpf4jnsgd1na2vs0mg"},{"bike_id":"829aeb58-c649-476d-904d-bd92827ec395","system_id":"levelo_inurba_marseille","lat":43.30874,"lon":5.41206,"is_reserved":false,"is_disabled":false,"rental_uris":{"android":"levelo://app?vid=829aeb58-c649-476d-904d-bd92827ec395","ios":"levelo://app?vid=829aeb58-c649-476d-904d-bd92827ec395"},"vehicle_type_id":"4","last_reported":1778399712,"current_range_meters":8800,"station_id":"","pricing_plan_id":"cebpf4jnsgd1na2vs0mg"},{"bike_id":"1e2a469b-08ae-4e44-a4f6-b18cdaa6d1ec","system_id":"levelo_inurba_marseille","lat":43.27335,"lon":5.39065,"is_reserved":false,"is_disabled":false,"rental_uris":{"android":"levelo://app?vid=1e2a469b-08ae-4e44-a4f6-b18cdaa6d1ec","ios":"levelo://app?vid=1e2a469b-08ae-4e44-a4f6-b18cdaa6d1ec"},"vehicle_type_id":"4","last_reported":1778399712,"current_range_meters":8800,"station_id":"ce4bhgp2rcd13ifvqfe0","pricing_plan_id":"cebpf4jnsgd1na2vs0mg"},{"bike_id":"9419e6b1-d07e-4865-bc84-49f308e929ec","system_id":"levelo_inurba_marseille","lat":43.2332,"lon":5.35784,"is_reserved":false,"is_disabled":false,"rental_uris":{"android":"levelo://app?vid=9419e6b1-d07e-4865-bc84-49f308e929ec","ios":"levelo://app?vid=9419e6b1-d07e-4865-bc84-49f308e929ec"},"vehicle_type_id":"4","last_reported":1778399712,"current_range_meters":8800,"station_id":"","pricing_plan_id":"cebpf4jnsgd1na2vs0mg"},{"bike_id":"90b935f7-9484-4e0c-abe3-8fc7dfec46f4","system_id":"levelo_inurba_marseille","lat":43.2953,"lon":5.38547,"is_reserved":false,"is_disabled":false,"rental_uris":{"android":"levelo://app?vid=90b935f7-9484-4e0c-abe3-8fc7dfec46f4","ios":"levelo://app?vid=90b935f7-9484-4e0c-abe3-8fc7dfec46f4"},"vehicle_type_id":"4","last_reported":1778399712,"current_range_meters":8800,"station_id":"ce4bgih2rcd13ifvqba0","pricing_plan_id":"cebpf4jnsgd1na2vs0mg"},{"bike_id":"118b1db6-26ad-4ce1-b432-2c1163c8ba76","system_id":"levelo_inurba_marseille","lat":43.26228,"lon":5.37414,"is_reserved":false,"is_disabled":false,"rental_uris":{"android":"levelo://app?vid=118b1db6-26ad-4ce1-b432-2c1163c8ba76","ios":"levelo://app?vid=118b1db6-26ad-4ce1-b432-2c1163c8ba76"},"vehicle_type_id":"4","last_reported":1778399712,"current_range_meters":8800,"station_id":"","pricing_plan_id":"cebpf4jnsgd1na2vs0mg"},{"bike_id":"fa0a207c-8b4e-4de0-b46b-f465395a517e","system_id":"levelo_inurba_marseille","lat":43.30462,"lon":5.37906,"is_reserved":false,"is_disabled":false,"rental_uris":{"android":"levelo://app?vid=fa0a207c-8b4e-4de0-b46b-f465395a517e","ios":"levelo://app?vid=fa0a207c-8b4e-4de0-b46b-f465395a517e"},"vehicle_type_id":"4","last_reported":1778399712,"current_range_meters":8800,"station_id":"ce4bgup2rcd13ifvqcn0","pricing_plan_id":"cebpf4jnsgd1na2vs0mg"},{"bike_id":"a1d66207-ff5d-4a71-b148-d595e314ee4a","system_id":"levelo_inurba_marseille","lat":43.28792,"lon":5.42419,"is_reserved":false,"is_disabled":false,"rental_uris":{"android":"levelo://app?vid=a1d66207-ff5d-4a71-b148-d595e314ee4a","ios":"levelo://app?vid=a1d66207-ff5d-4a71-b148-d595e314ee4a"},"vehicle_type_id":"4","last_reported":1778399712,"current_range_meters":8800,"station_id":"","pricing_plan_id":"cebpf4jnsgd1na2vs0mg"},{"bike_id":"7f14ac2a-95a1-4ff9-8272-a58b1f33bddd","system_id":"levelo_inurba_marseille","lat":43.32361,"lon":5.38881,"is_reserved":false,"is_disabled":false,"rental_uris":{"android":"levelo://app?vid=7f14ac2a-95a1-4ff9-8272-a58b1f33bddd","ios":"levelo://app?vid=7f14ac2a-95a1-4ff9-8272-a58b1f33bddd"},"vehicle_type_id":"4","last_reported":1778399712,"current_range_meters":9200,"station_id":"ce4bhqp2rcd13ifvqhog","pricing_plan_id":"cebpf4jnsgd1na2vs0mg"},{"bike_id":"3a4bb4b4-1621-4140-b074-79bb089190b9","system_id":"levelo_inurba_marseille","lat":43.33054,"lon":5.37578,"is_reserved":false,"is_disabled":false,"rental_uris":{"android":"levelo://app?vid=3a4bb4b4-1621-4140-b074-79bb089190b9","ios":"levelo://app?vid=3a4bb4b4-1621-4140-b074-79bb089190b9"},"vehicle_type_id":"4","last_reported":1778399712,"current_range_meters":9200,"station_id":"","pricing_plan_id":"cebpf4jnsgd1na2vs0mg"},{"bike_id":"3be48547-9755-4740-8c69-194d026c42aa","system_id":"levelo_inurba_marseille","lat":43.28421,"lon":5.37517,"is_reserved":false,"is_disabled":true,"rental_uris":{"android":"levelo://app?vid=3be48547-9755-4740-8c69-194d026c42aa","ios":"levelo://app?vid=3be48547-9755-4740-8c69-194d026c42aa"},"vehicle_type_id":"4","last_reported":1778399712,"current_range_meters":9200,"station_id":"ce4bh412rcd13ifvqds0","pricing_plan_id":"cebpf4jnsgd1na2vs0mg"},{"bike_id":"0fdd2634-3a09-446a-be37-6d2e2fa070de","system_id":"levelo_inurba_marseille","lat":43.28849,"lon":5.42523,"is_reserved":false,"is_disabled":false,"rental_uris":{"android":"levelo://app?vid=0fdd2634-3a09-446a-be37-6d2e2fa070de","ios":"levelo://app?vid=0fdd2634-3a09-446a-be37-6d2e2fa070de"},"vehicle_type_id":"4","last_reported":1778399712,"current_range_meters":9200,"station_id":"st_d3b462108ojc7389ooeg","pricing_plan_id":"cebpf4jnsgd1na2vs0mg"},{"bike_id":"444159f6-104e-4154-8676-04b8c81ae491","system_id":"levelo_inurba_marseille","lat":43.29269,"lon":5.3685,"is_reserved":false,"is_disabled":false,"rental_uris":{"android":"levelo://app?vid=444159f6-104e-4154-8676-04b8c81ae491","ios":"levelo://app?vid=444159f6-104e-4154-8676-04b8c81ae491"},"vehicle_type_id":"4","last_reported":1778399712,"current_range_meters":9200,"station_id":"ce4bhbp2rcd13ifvqesg","pricing_plan_id":"cebpf4jnsgd1na2vs0mg"},{"bike_id":"a80fe9c1-363e-4c76-b9ec-880c302511a7","system_id":"levelo_inurba_marseille","lat":43.30802,"lon":5.3816,"is_reserved":false,"is_disabled":false,"rental_uris":{"android":"levelo://app?vid=a80fe9c1-363e-4c76-b9ec-880c302511a7","ios":"levelo://app?vid=a80fe9c1-363e-4c76-b9ec-880c302511a7"},"vehicle_type_id":"4","last_reported":1778399712,"current_range_meters":9200,"station_id":"ce4bgt12rcd13ifvqce0","pricing_plan_id":"cebpf4jnsgd1na2vs0mg"},{"bike_id":"9e12314f-f3ca-442b-af95-f1db909f425b","system_id":"levelo_inurba_marseille","lat":43.26766,"lon":5.37189,"is_reserved":false,"is_disabled":false,"rental_uris":{"android":"levelo://app?vid=9e12314f-f3ca-442b-af95-f1db909f425b","ios":"levelo://app?vid=9e12314f-f3ca-442b-af95-f1db909f425b"},"vehicle_type_id":"4","last_reported":1778399712,"current_range_meters":9200,"station_id":"","pricing_plan_id":"cebpf4jnsgd1na2vs0mg"},{"bike_id":"ad206cfa-883b-417b-b1ab-804ae7af3a6b","system_id":"levelo_inurba_marseille","lat":43.31369,"lon":5.38503,"is_reserved":false,"is_disabled":false,"rental_uris":{"android":"levelo://app?vid=ad206cfa-883b-417b-b1ab-804ae7af3a6b","ios":"levelo://app?vid=ad206cfa-883b-417b-b1ab-804ae7af3a6b"},"vehicle_type_id":"4","last_reported":1778399712,"current_range_meters":9200,"station_id":"ce4bgt92rcd13ifvqcf0","pricing_plan_id":"cebpf4jnsgd1na2vs0mg"},{"bike_id":"4be48e83-9343-4c3a-b884-b414c3010644","system_id":"levelo_inurba_marseille","lat":43.25841,"lon":5.39936,"is_reserved":false,"is_disabled":true,"rental_uris":{"android":"levelo://app?vid=4be48e83-9343-4c3a-b884-b414c3010644","ios":"levelo://app?vid=4be48e83-9343-4c3a-b884-b414c3010644"},"vehicle_type_id":"4","last_reported":1778399712,"current_range_meters":9200,"station_id":"ce4bhl92rcd13ifvqghg","pricing_plan_id":"cebpf4jnsgd1na2vs0mg"},{"bike_id":"d35bb1e7-008c-4f1c-b27b-122e3a63c940","system_id":"levelo_inurba_marseille","lat":43.25335,"lon":5.42175,"is_reserved":false,"is_disabled":false,"rental_uris":{"android":"levelo://app?vid=d35bb1e7-008c-4f1c-b27b-122e3a63c940","ios":"levelo://app?vid=d35bb1e7-008c-4f1c-b27b-122e3a63c940"},"vehicle_type_id":"4","last_reported":1778399712,"current_range_meters":9200,"station_id":"st_d2m65c5bi1j21697t3ng","pricing_plan_id":"cebpf4jnsgd1na2vs0mg"},{"bike_id":"dfac2de4-d362-4feb-b799-9a59741ee828","system_id":"levelo_inurba_marseille","lat":43.22968,"lon":5.44521,"is_reserved":false,"is_disabled":false,"rental_uris":{"android":"levelo://app?vid=dfac2de4-d362-4feb-b799-9a59741ee828","ios":"levelo://app?vid=dfac2de4-d362-4feb-b799-9a59741ee828"},"vehicle_type_id":"4","last_reported":1778399712,"current_range_meters":9200,"station_id":"","pricing_plan_id":"cebpf4jnsgd1na2vs0mg"},{"bike_id":"f4a19dde-e4e0-4d27-9004-98553f2d57b5","system_id":"levelo_inurba_marseille","lat":43.33153,"lon":5.37689,"is_reserved":false,"is_disabled":false,"rental_uris":{"android":"levelo://app?vid=f4a19dde-e4e0-4d27-9004-98553f2d57b5","ios":"levelo://app?vid=f4a19dde-e4e0-4d27-9004-98553f2d57b5"},"vehicle_type_id":"4","last_reported":1778399712,"current_range_meters":9200,"station_id":"st_d46cu089ee8s73dldbu0","pricing_plan_id":"cebpf4jnsgd1na2vs0mg"},{"bike_id":"b19e3c7f-90ec-4ddf-9df4-a33e6ba2ce72","system_id":"levelo_inurba_marseille","lat":43.32357,"lon":5.38903,"is_reserved":false,"is_disabled":false,"rental_uris":{"android":"levelo://app?vid=b19e3c7f-90ec-4ddf-9df4-a33e6ba2ce72","ios":"levelo://app?vid=b19e3c7f-90ec-4ddf-9df4-a33e6ba2ce72"},"vehicle_type_id":"4","last_reported":1778399712,"current_range_meters":9200,"station_id":"ce4bhqp2rcd13ifvqhog","pricing_plan_id":"cebpf4jnsgd1na2vs0mg"},{"bike_id":"46cc058c-a76c-4631-af92-a7b830dcdc5b","system_id":"levelo_inurba_marseille","lat":43.32056,"lon":5.41547,"is_reserved":false,"is_disabled":false,"rental_uris":{"android":"levelo://app?vid=46cc058c-a76c-4631-af92-a7b830dcdc5b","ios":"levelo://app?vid=46cc058c-a76c-4631-af92-a7b830dcdc5b"},"vehicle_type_id":"4","last_reported":1778399712,"current_range_meters":9600,"station_id":"ce4bhq92rcd13ifvqhkg","pricing_plan_id":"cebpf4jnsgd1na2vs0mg"},{"bike_id":"b7c2af42-78c4-4806-a4a1-7824e5c5c28a","system_id":"levelo_inurba_marseille","lat":43.27212,"lon":5.39167,"is_reserved":false,"is_disabled":false,"rental_uris":{"android":"levelo://app?vid=b7c2af42-78c4-4806-a4a1-7824e5c5c28a","ios":"levelo://app?vid=b7c2af42-78c4-4806-a4a1-7824e5c5c28a"},"vehicle_type_id":"4","last_reported":1778399712,"current_range_meters":9600,"station_id":"ce4bhhp2rcd13ifvqfm0","pricing_plan_id":"cebpf4jnsgd1na2vs0mg"},{"bike_id":"439c580c-91fb-4f07-899b-17e34535b7cf","system_id":"levelo_inurba_marseille","lat":43.28714,"lon":5.37949,"is_reserved":false,"is_disabled":true,"rental_uris":{"android":"levelo://app?vid=439c580c-91fb-4f07-899b-17e34535b7cf","ios":"levelo://app?vid=439c580c-91fb-4f07-899b-17e34535b7cf"},"vehicle_type_id":"4","last_reported":1778399712,"current_range_meters":9600,"station_id":"ce4bh9p2rcd13ifvqec0","pricing_plan_id":"cebpf4jnsgd1na2vs0mg"},{"bike_id":"d8834e23-bf95-45b6-ba5a-8107772bf997","system_id":"levelo_inurba_marseille","lat":43.27832,"lon":5.40695,"is_reserved":false,"is_disabled":false,"rental_uris":{"android":"levelo://app?vid=d8834e23-bf95-45b6-ba5a-8107772bf997","ios":"levelo://app?vid=d8834e23-bf95-45b6-ba5a-8107772bf997"},"vehicle_type_id":"4","last_reported":1778399712,"current_range_meters":9600,"station_id":"ce4bhnh2rcd13ifvqgtg","pricing_plan_id":"cebpf4jnsgd1na2vs0mg"},{"bike_id":"5fc298b7-3edd-4cc8-bcce-5321f038232d","system_id":"levelo_inurba_marseille","lat":43.31168,"lon":5.38717,"is_reserved":false,"is_disabled":false,"rental_uris":{"android":"levelo://app?vid=5fc298b7-3edd-4cc8-bcce-5321f038232d","ios":"levelo://app?vid=5fc298b7-3edd-4cc8-bcce-5321f038232d"},"vehicle_type_id":"4","last_reported":1778399712,"current_range_meters":9600,"station_id":"ce4bgv12rcd13ifvqcp0","pricing_plan_id":"cebpf4jnsgd1na2vs0mg"},{"bike_id":"a7628563-6042-4b75-8cb9-b4afa4523e3b","system_id":"levelo_inurba_marseille","lat":43.25116,"lon":5.40313,"is_reserved":false,"is_disabled":false,"rental_uris":{"android":"levelo://app?vid=a7628563-6042-4b75-8cb9-b4afa4523e3b","ios":"levelo://app?vid=a7628563-6042-4b75-8cb9-b4afa4523e3b"},"vehicle_type_id":"4","last_reported":1778399712,"current_range_meters":9600,"station_id":"ce4bhlh2rcd13ifvqgig","pricing_plan_id":"cebpf4jnsgd1na2vs0mg"},{"bike_id":"9bb74d20-8aee-4a2e-996c-43ecf8d7375f","system_id":"levelo_inurba_marseille","lat":43.2469,"lon":5.38176,"is_reserved":false,"is_disabled":true,"rental_uris":{"android":"levelo://app?vid=9bb74d20-8aee-4a2e-996c-43ecf8d7375f","ios":"levelo://app?vid=9bb74d20-8aee-4a2e-996c-43ecf8d7375f"},"vehicle_type_id":"4","last_reported":1778399712,"current_range_meters":9600,"station_id":"ce4bhih2rcd13ifvqfr0","pricing_plan_id":"cebpf4jnsgd1na2vs0mg"},{"bike_id":"5c5f1b2c-364a-42ea-b18e-b314ba5bf6e3","system_id":"levelo_inurba_marseille","lat":43.28419,"lon":5.34985,"is_reserved":false,"is_disabled":true,"rental_uris":{"android":"levelo://app?vid=5c5f1b2c-364a-42ea-b18e-b314ba5bf6e3","ios":"levelo://app?vid=5c5f1b2c-364a-42ea-b18e-b314ba5bf6e3"},"vehicle_type_id":"4","last_reported":1778399712,"current_range_meters":9600,"station_id":"ce4bhbh2rcd13ifvqepg","pricing_plan_id":"cebpf4jnsgd1na2vs0mg"},{"bike_id":"682e80e1-ed9e-484c-a1ab-4ffeb06be217","system_id":"levelo_inurba_marseille","lat":43.28266,"lon":5.35092,"is_reserved":false,"is_disabled":false,"rental_uris":{"android":"levelo://app?vid=682e80e1-ed9e-484c-a1ab-4ffeb06be217","ios":"levelo://app?vid=682e80e1-ed9e-484c-a1ab-4ffeb06be217"},"vehicle_type_id":"4","last_reported":1778399712,"current_range_meters":9600,"station_id":"ce4bhbp2rcd13ifvqerg","pricing_plan_id":"cebpf4jnsgd1na2vs0mg"},{"bike_id":"f0727bb7-b933-4d55-a165-2af7c22b34c1","system_id":"levelo_inurba_marseille","lat":43.2259,"lon":5.41625,"is_reserved":false,"is_disabled":false,"rental_uris":{"android":"levelo://app?vid=f0727bb7-b933-4d55-a165-2af7c22b34c1","ios":"levelo://app?vid=f0727bb7-b933-4d55-a165-2af7c22b34c1"},"vehicle_type_id":"4","last_reported":1778399712,"current_range_meters":9600,"station_id":"st_d2o4gvlbi1j2169b742g","pricing_plan_id":"cebpf4jnsgd1na2vs0mg"},{"bike_id":"8a87fd28-2b34-4f41-bc5d-c682c1f5b7e2","system_id":"levelo_inurba_marseille","lat":43.24777,"lon":5.37459,"is_reserved":false,"is_disabled":false,"rental_uris":{"android":"levelo://app?vid=8a87fd28-2b34-4f41-bc5d-c682c1f5b7e2","ios":"levelo://app?vid=8a87fd28-2b34-4f41-bc5d-c682c1f5b7e2"},"vehicle_type_id":"4","last_reported":1778399712,"current_range_meters":9600,"station_id":"ce4bhgh2rcd13ifvqfb0","pricing_plan_id":"cebpf4jnsgd1na2vs0mg"},{"bike_id":"41ecb6d4-6eb0-4766-b142-ca32b6634c39","system_id":"levelo_inurba_marseille","lat":43.3318,"lon":5.37662,"is_reserved":false,"is_disabled":false,"rental_uris":{"android":"levelo://app?vid=41ecb6d4-6eb0-4766-b142-ca32b6634c39","ios":"levelo://app?vid=41ecb6d4-6eb0-4766-b142-ca32b6634c39"},"vehicle_type_id":"4","last_reported":1778399712,"current_range_meters":9600,"station_id":"st_d46cu089ee8s73dldbu0","pricing_plan_id":"cebpf4jnsgd1na2vs0mg"},{"bike_id":"2f67d82a-05a7-4f19-b149-74b7d88bd57c","system_id":"levelo_inurba_marseille","lat":43.30192,"lon":5.366,"is_reserved":false,"is_disabled":false,"rental_uris":{"android":"levelo://app?vid=2f67d82a-05a7-4f19-b149-74b7d88bd57c","ios":"levelo://app?vid=2f67d82a-05a7-4f19-b149-74b7d88bd57c"},"vehicle_type_id":"4","last_reported":1778399712,"current_range_meters":9600,"station_id":"ce4bgrh2rcd13ifvqc8g","pricing_plan_id":"cebpf4jnsgd1na2vs0mg"},{"bike_id":"ec9a38a6-e710-4a1d-b51f-f6da6b9a566f","system_id":"levelo_inurba_marseille","lat":43.29614,"lon":5.37733,"is_reserved":false,"is_disabled":false,"rental_uris":{"android":"levelo://app?vid=ec9a38a6-e710-4a1d-b51f-f6da6b9a566f","ios":"levelo://app?vid=ec9a38a6-e710-4a1d-b51f-f6da6b9a566f"},"vehicle_type_id":"4","last_reported":1778399712,"current_range_meters":9600,"station_id":"ce4bgi92rcd13ifvqb90","pricing_plan_id":"cebpf4jnsgd1na2vs0mg"},{"bike_id":"d12deafd-dd11-4d36-a217-2e938155034d","system_id":"levelo_inurba_marseille","lat":43.26676,"lon":5.38253,"is_reserved":false,"is_disabled":false,"rental_uris":{"android":"levelo://app?vid=d12deafd-dd11-4d36-a217-2e938155034d","ios":"levelo://app?vid=d12deafd-dd11-4d36-a217-2e938155034d"},"vehicle_type_id":"4","last_reported":1778399712,"current_range_meters":9600,"station_id":"ce4bhg92rcd13ifvqf90","pricing_plan_id":"cebpf4jnsgd1na2vs0mg"},{"bike_id":"1f120ac7-7ee8-43e5-8a49-7d8f26aa9f00","system_id":"levelo_inurba_marseille","lat":43.30195,"lon":5.39451,"is_reserved":false,"is_disabled":false,"rental_uris":{"android":"levelo://app?vid=1f120ac7-7ee8-43e5-8a49-7d8f26aa9f00","ios":"levelo://app?vid=1f120ac7-7ee8-43e5-8a49-7d8f26aa9f00"},"vehicle_type_id":"4","last_reported":1778399712,"current_range_meters":9600,"station_id":"ce4bh0p2rcd13ifvqd70","pricing_plan_id":"cebpf4jnsgd1na2vs0mg"},{"bike_id":"5fe6bd0a-be0b-49f2-bff2-4918b2b2bf23","system_id":"levelo_inurba_marseille","lat":43.30541,"lon":5.36538,"is_reserved":false,"is_disabled":true,"rental_uris":{"android":"levelo://app?vid=5fe6bd0a-be0b-49f2-bff2-4918b2b2bf23","ios":"levelo://app?vid=5fe6bd0a-be0b-49f2-bff2-4918b2b2bf23"},"vehicle_type_id":"4","last_reported":1778399712,"current_range_meters":9600,"station_id":"ce4bgs12rcd13ifvqcag","pricing_plan_id":"cebpf4jnsgd1na2vs0mg"},{"bike_id":"0e20409f-126f-499f-882f-c3ac5aee5a50","system_id":"levelo_inurba_marseille","lat":43.28924,"lon":5.38398,"is_reserved":false,"is_disabled":false,"rental_uris":{"android":"levelo://app?vid=0e20409f-126f-499f-882f-c3ac5aee5a50","ios":"levelo://app?vid=0e20409f-126f-499f-882f-c3ac5aee5a50"},"vehicle_type_id":"4","last_reported":1778399712,"current_range_meters":9600,"station_id":"ce4bh612rcd13ifvqe6g","pricing_plan_id":"cebpf4jnsgd1na2vs0mg"},{"bike_id":"4c6869b5-7c1a-4b6f-aa03-6eb7513874f1","system_id":"levelo_inurba_marseille","lat":43.30303,"lon":5.36902,"is_reserved":false,"is_disabled":false,"rental_uris":{"android":"levelo://app?vid=4c6869b5-7c1a-4b6f-aa03-6eb7513874f1","ios":"levelo://app?vid=4c6869b5-7c1a-4b6f-aa03-6eb7513874f1"},"vehicle_type_id":"4","last_reported":1778399712,"current_range_meters":9600,"station_id":"ce4bgqh2rcd13ifvqc5g","pricing_plan_id":"cebpf4jnsgd1na2vs0mg"},{"bike_id":"f6864f35-6bd1-4a6d-8ee2-a94e490210fd","system_id":"levelo_inurba_marseille","lat":43.31271,"lon":5.3679,"is_reserved":false,"is_disabled":false,"rental_uris":{"android":"levelo://app?vid=f6864f35-6bd1-4a6d-8ee2-a94e490210fd","ios":"levelo://app?vid=f6864f35-6bd1-4a6d-8ee2-a94e490210fd"},"vehicle_type_id":"4","last_reported":1778399712,"current_range_meters":10000,"station_id":"ce4bgl92rcd13ifvqbq0","pricing_plan_id":"cebpf4jnsgd1na2vs0mg"},{"bike_id":"680b6d6f-97fe-453c-83fc-f6305ceec7f5","system_id":"levelo_inurba_marseille","lat":43.28678,"lon":5.38669,"is_reserved":false,"is_disabled":false,"rental_uris":{"android":"levelo://app?vid=680b6d6f-97fe-453c-83fc-f6305ceec7f5","ios":"levelo://app?vid=680b6d6f-97fe-453c-83fc-f6305ceec7f5"},"vehicle_type_id":"4","last_reported":1778399712,"current_range_meters":10000,"station_id":"ce4bh492rcd13ifvqdug","pricing_plan_id":"cebpf4jnsgd1na2vs0mg"},{"bike_id":"95188749-0cfd-401c-9f6d-8bf0aecff24b","system_id":"levelo_inurba_marseille","lat":43.29004,"lon":5.35608,"is_reserved":false,"is_disabled":false,"rental_uris":{"android":"levelo://app?vid=95188749-0cfd-401c-9f6d-8bf0aecff24b","ios":"levelo://app?vid=95188749-0cfd-401c-9f6d-8bf0aecff24b"},"vehicle_type_id":"4","last_reported":1778399712,"current_range_meters":10000,"station_id":"ce4bhb92rcd13ifvqen0","pricing_plan_id":"cebpf4jnsgd1na2vs0mg"},{"bike_id":"09fa49d6-2f72-44fb-aecc-f42e40eb9080","system_id":"levelo_inurba_marseille","lat":43.25718,"lon":5.41091,"is_reserved":false,"is_disabled":false,"rental_uris":{"android":"levelo://app?vid=09fa49d6-2f72-44fb-aecc-f42e40eb9080","ios":"levelo://app?vid=09fa49d6-2f72-44fb-aecc-f42e40eb9080"},"vehicle_type_id":"4","last_reported":1778399712,"current_range_meters":10000,"station_id":"ce4bhkp2rcd13ifvqgd0","pricing_plan_id":"cebpf4jnsgd1na2vs0mg"},{"bike_id":"4c32ad07-663c-485f-82eb-d96acfe1fee5","system_id":"levelo_inurba_marseille","lat":43.32915,"lon":5.38283,"is_reserved":false,"is_disabled":false,"rental_uris":{"android":"levelo://app?vid=4c32ad07-663c-485f-82eb-d96acfe1fee5","ios":"levelo://app?vid=4c32ad07-663c-485f-82eb-d96acfe1fee5"},"vehicle_type_id":"4","last_reported":1778399712,"current_range_meters":10000,"station_id":"","pricing_plan_id":"cebpf4jnsgd1na2vs0mg"},{"bike_id":"9fb94e69-3038-4e70-b37c-9e41dddc049b","system_id":"levelo_inurba_marseille","lat":43.28311,"lon":5.38136,"is_reserved":false,"is_disabled":true,"rental_uris":{"android":"levelo://app?vid=9fb94e69-3038-4e70-b37c-9e41dddc049b","ios":"levelo://app?vid=9fb94e69-3038-4e70-b37c-9e41dddc049b"},"vehicle_type_id":"4","last_reported":1778399712,"current_range_meters":10000,"station_id":"ce4bh412rcd13ifvqdr0","pricing_plan_id":"cebpf4jnsgd1na2vs0mg"},{"bike_id":"00c98caf-a07e-4272-a33a-0f1634c2fc8f","system_id":"levelo_inurba_marseille","lat":43.27816,"lon":5.40707,"is_reserved":false,"is_disabled":false,"rental_uris":{"android":"levelo://app?vid=00c98caf-a07e-4272-a33a-0f1634c2fc8f","ios":"levelo://app?vid=00c98caf-a07e-4272-a33a-0f1634c2fc8f"},