{"last_updated":1691251620,"ttl":30,"version":"2.2","data":{"bikes":[{"bike_id":"964bd1ad-3b74-4968-adaf-519aedac0048","system_id":"levelo_inurba_marseille","lat":43.313391,"lon":5.36706,"is_reserved":false,"is_disabled":false,"rental_uris":{"android":"levelo://app?vid=964bd1ad-3b74-4968-adaf-519aedac0048","ios":"levelo://app?vid=964bd1ad-3b74-4968-adaf-519aedac0048"},"vehicle_type_id":"4","last_reported":1691251620,"current_range_meters":9600,"station_id":"ce4bgr92rcd13ifvqc6g","pricing_plan_id":"free"},{"bike_id":"3f9f44c5-19b8-4b87-b198-0c2a0309261b","system_id":"levelo_inurba_marseille","lat":43.313391,"lon":5.36706,"is_reserved":false,"is_disabled":false,"rental_uris":{"android":"levelo://app?vid=3f9f44c5-19b8-4b87-b198-0c2a0309261b","ios":"levelo://app?vid=3f9f44c5-19b8-4b87-b198-0c2a0309261b"},"vehicle_type_id":"4","last_reported":1691251620,"current_range_meters":30400,"station_id":"ce4bgr92rcd13ifvqc6g","pricing_plan_id":"free"},{"bike_id":"116a0558-1e52-40f1-84ab-89b8653dd881","system_id":"levelo_inurba_marseille","lat":43.31224,"lon":5.36856,"is_reserved":false,"is_disabled":false,"rental_uris":{"android":"levelo://app?vid=116a0558-1e52-40f1-84ab-89b8653dd881","ios":"levelo://app?vid=116a0558-1e52-40f1-84ab-89b8653dd881"},"vehicle_type_id":"4","last_reported":1691251620,"current_range_meters":400,"station_id":"ce4bgl92rcd13ifvqbq0","pricing_plan_id":"free"},{"bike_id":"f685fa6b-7958-45bb-a915-857e03c8a246","system_id":"levelo_inurba_marseille","lat":43.312239,"lon":5.368562,"is_reserved":false,"is_disabled":false,"rental_uris":{"android":"levelo://app?vid=f685fa6b-7958-45bb-a915-857e03c8a246","ios":"levelo://app?vid=f685fa6b-7958-45bb-a915-857e03c8a246"},"vehicle_type_id":"4","last_reported":1691251620,"current_range_meters":30000,"station_id":"ce4bgl92rcd13ifvqbq0","pricing_plan_id":"free"},{"bike_id":"2f6eb21f-7eeb-45c9-8836-8e3fa5c47e55","system_id":"levelo_inurba_marseille","lat":43.312239,"lon":5.368562,"is_reserved":false,"is_disabled":false,"rental_uris":{"android":"levelo://app?vid=2f6eb21f-7eeb-45c9-8836-8e3fa5c47e55","ios":"levelo://app?vid=2f6eb21f-7eeb-45c9-8836-8e3fa5c47e55"},"vehicle_type_id":"4","last_reported":1691251620,"current_range_meters":10800,"station_id":"ce4bgl92rcd13ifvqbq0","pricing_plan_id":"free"},{"bike_id":"6c412908-0044-4e9d-87e6-decbc7c1924a","system_id":"levelo_inurba_marseille","lat":43.3123,"lon":5.36866,"is_reserved":false,"is_disabled":false,"rental_uris":{"android":"levelo://app?vid=6c412908-0044-4e9d-87e6-decbc7c1924a","ios":"levelo://app?vid=6c412908-0044-4e9d-87e6-decbc7c1924a"},"vehicle_type_id":"4","last_reported":1691251620,"current_range_meters":30400,"station_id":"ce4bgl92rcd13ifvqbq0","pricing_plan_id":"free"},{"bike_id":"6763e042-4875-482c-bd25-c619a3e0d378","system_id":"levelo_inurba_marseille","lat":43.312239,"lon":5.368562,"is_reserved":false,"is_disabled":false,"rental_uris":{"android":"levelo://app?vid=6763e042-4875-482c-bd25-c619a3e0d378","ios":"levelo://app?vid=6763e042-4875-482c-bd25-c619a3e0d378"},"vehicle_type_id":"4","last_reported":1691251620,"current_range_meters":28800,"station_id":"ce4bgl92rcd13ifvqbq0","pricing_plan_id":"free"},{"bike_id":"8e22e495-1a2d-4828-9ff7-31167860e77c","system_id":"levelo_inurba_marseille","lat":43.312239,"lon":5.368562,"is_reserved":false,"is_disabled":false,"rental_uris":{"android":"levelo://app?vid=8e22e495-1a2d-4828-9ff7-31167860e77c","ios":"levelo://app?vid=8e22e495-1a2d-4828-9ff7-31167860e77c"},"vehicle_type_id":"4","last_reported":1691251620,"current_range_meters":18800,"station_id":"ce4bgl92rcd13ifvqbq0","pricing_plan_id":"free"},{"bike_id":"04689c81-7bb5-443c-b5bd-462b792f8694","system_id":"levelo_inurba_marseille","lat":43.312239,"lon":5.368562,"is_reserved":false,"is_disabled":false,"rental_uris":{"android":"levelo://app?vid=04689c81-7bb5-443c-b5bd-462b792f8694","ios":"levelo://app?vid=04689c81-7bb5-443c-b5bd-462b792f8694"},"vehicle_type_id":"4","last_reported":1691251620,"current_range_meters":30800,"station_id":"ce4bgl92rcd13ifvqbq0","pricing_plan_id":"free"},{"bike_id":"8b9a2637-4298-425e-9282-aa73f30aa01e","system_id":"levelo_inurba_marseille","lat":43.31208,"lon":5.36877,"is_reserved":false,"is_disabled":false,"rental_uris":{"android":"levelo://app?vid=8b9a2637-4298-425e-9282-aa73f30aa01e","ios":"levelo://app?vid=8b9a2637-4298-425e-9282-aa73f30aa01e"},"vehicle_type_id":"4","last_reported":1691251620,"current_range_meters":15200,"station_id":"ce4bgl92rcd13ifvqbq0","pricing_plan_id":"free"},{"bike_id":"b89b596b-28a7-48e8-8a21-e6acfb074156","system_id":"levelo_inurba_marseille","lat":43.31211,"lon":5.36881,"is_reserved":false,"is_disabled":false,"rental_uris":{"android":"levelo://app?vid=b89b596b-28a7-48e8-8a21-e6acfb074156","ios":"levelo://app?vid=b89b596b-28a7-48e8-8a21-e6acfb074156"},"vehicle_type_id":"4","last_reported":1691251620,"current_range_meters":11200,"station_id":"ce4bgl92rcd13ifvqbq0","pricing_plan_id":"free"},{"bike_id":"79c42ce6-52c9-48b8-a5aa-59e72c594458","system_id":"levelo_inurba_marseille","lat":43.31487,"lon":5.37303,"is_reserved":false,"is_disabled":false,"rental_uris":{"android":"levelo://app?vid=79c42ce6-52c9-48b8-a5aa-59e72c594458","ios":"levelo://app?vid=79c42ce6-52c9-48b8-a5aa-59e72c594458"},"vehicle_type_id":"4","last_reported":1691251620,"current_range_meters":30400,"station_id":"ce4bgt12rcd13ifvqcd0","pricing_plan_id":"free"},{"bike_id":"1c13d891-21d9-41b2-92da-7a15ad627ce6","system_id":"levelo_inurba_marseille","lat":43.31485,"lon":5.37307,"is_reserved":false,"is_disabled":false,"rental_uris":{"android":"levelo://app?vid=1c13d891-21d9-41b2-92da-7a15ad627ce6","ios":"levelo://app?vid=1c13d891-21d9-41b2-92da-7a15ad627ce6"},"vehicle_type_id":"4","last_reported":1691251620,"current_range_meters":24400,"station_id":"ce4bgt12rcd13ifvqcd0","pricing_plan_id":"free"},{"bike_id":"c757d31b-0229-444a-98a3-67f6cdfa5b68","system_id":"levelo_inurba_marseille","lat":43.314811,"lon":5.373104,"is_reserved":false,"is_disabled":false,"rental_uris":{"android":"levelo://app?vid=c757d31b-0229-444a-98a3-67f6cdfa5b68","ios":"levelo://app?vid=c757d31b-0229-444a-98a3-67f6cdfa5b68"},"vehicle_type_id":"4","last_reported":1691251620,"current_range_meters":24000,"station_id":"ce4bgt12rcd13ifvqcd0","pricing_plan_id":"free"},{"bike_id":"1e622266-44ae-4814-8719-e1f3c62c4815","system_id":"levelo_inurba_marseille","lat":43.314811,"lon":5.373103,"is_reserved":false,"is_disabled":false,"rental_uris":{"android":"levelo://app?vid=1e622266-44ae-4814-8719-e1f3c62c4815","ios":"levelo://app?vid=1e622266-44ae-4814-8719-e1f3c62c4815"},"vehicle_type_id":"4","last_reported":1691251620,"current_range_meters":27600,"station_id":"ce4bgt12rcd13ifvqcd0","pricing_plan_id":"free"},{"bike_id":"84c2a162-559a-4aef-854b-45ee046c39c1","system_id":"levelo_inurba_marseille","lat":43.314811,"lon":5.373104,"is_reserved":false,"is_disabled":false,"rental_uris":{"android":"levelo://app?vid=84c2a162-559a-4aef-854b-45ee046c39c1","ios":"levelo://app?vid=84c2a162-559a-4aef-854b-45ee046c39c1"},"vehicle_type_id":"4","last_reported":1691251620,"current_range_meters":31600,"station_id":"ce4bgt12rcd13ifvqcd0","pricing_plan_id":"free"},{"bike_id":"272591e7-b4f8-45cf-bfcc-93c2daea1e43","system_id":"levelo_inurba_marseille","lat":43.314811,"lon":5.373103,"is_reserved":false,"is_disabled":false,"rental_uris":{"android":"levelo://app?vid=272591e7-b4f8-45cf-bfcc-93c2daea1e43","ios":"levelo://app?vid=272591e7-b4f8-45cf-bfcc-93c2daea1e43"},"vehicle_type_id":"4","last_reported":1691251620,"current_range_meters":10000,"station_id":"ce4bgt12rcd13ifvqcd0","pricing_plan_id":"free"},{"bike_id":"9586ef62-9900-4983-94ba-42ca58ebb6ea","system_id":"levelo_inurba_marseille","lat":43.314811,"lon":5.373104,"is_reserved":false,"is_disabled":false,"rental_uris":{"android":"levelo://app?vid=9586ef62-9900-4983-94ba-42ca58ebb6ea","ios":"levelo://app?vid=9586ef62-9900-4983-94ba-42ca58ebb6ea"},"vehicle_type_id":"4","last_reported":1691251620,"current_range_meters":24800,"station_id":"ce4bgt12rcd13ifvqcd0","pricing_plan_id":"free"},{"bike_id":"1a33e612-d2d4-442a-a1c7-d4572a26a5ac","system_id":"levelo_inurba_marseille","lat":43.30884,"lon":5.37198,"is_reserved":false,"is_disabled":false,"rental_uris":{"android":"levelo://app?vid=1a33e612-d2d4-442a-a1c7-d4572a26a5ac","ios":"levelo://app?vid=1a33e612-d2d4-442a-a1c7-d4572a26a5ac"},"vehicle_type_id":"4","last_reported":1691251620,"current_range_meters":22400,"station_id":"ce4bguh2rcd13ifvqckg","pricing_plan_id":"free"},{"bike_id":"7cfb81a3-fd7f-41d1-987d-c1037b7c6b4a","system_id":"levelo_inurba_marseille","lat":43.31414,"lon":5.37437,"is_reserved":false,"is_disabled":false,"rental_uris":{"android":"levelo://app?vid=7cfb81a3-fd7f-41d1-987d-c1037b7c6b4a","ios":"levelo://app?vid=7cfb81a3-fd7f-41d1-987d-c1037b7c6b4a"},"vehicle_type_id":"4","last_reported":1691251620,"current_range_meters":12400,"station_id":"","pricing_plan_id":"free"},{"bike_id":"f35cd2a4-d86b-4de0-b058-3b034daf6163","system_id":"levelo_inurba_marseille","lat":43.30542,"lon":5.36712,"is_reserved":false,"is_disabled":false,"rental_uris":{"android":"levelo://app?vid=f35cd2a4-d86b-4de0-b058-3b034daf6163","ios":"levelo://app?vid=f35cd2a4-d86b-4de0-b058-3b034daf6163"},"vehicle_type_id":"4","last_reported":1691251620,"current_range_meters":10400,"station_id":"ce4bgrp2rcd13ifvqc9g","pricing_plan_id":"free"},{"bike_id":"beadd59f-6718-41c6-8b79-405b1c0e443d","system_id":"levelo_inurba_marseille","lat":43.30532,"lon":5.3671,"is_reserved":false,"is_disabled":false,"rental_uris":{"android":"levelo://app?vid=beadd59f-6718-41c6-8b79-405b1c0e443d","ios":"levelo://app?vid=beadd59f-6718-41c6-8b79-405b1c0e443d"},"vehicle_type_id":"4","last_reported":1691251620,"current_range_meters":2800,"station_id":"ce4bgrp2rcd13ifvqc9g","pricing_plan_id":"free"},{"bike_id":"ece69ec3-fb85-488f-a84c-700fde506e66","system_id":"levelo_inurba_marseille","lat":43.30532,"lon":5.3671,"is_reserved":false,"is_disabled":false,"rental_uris":{"android":"levelo://app?vid=ece69ec3-fb85-488f-a84c-700fde506e66","ios":"levelo://app?vid=ece69ec3-fb85-488f-a84c-700fde506e66"},"vehicle_type_id":"4","last_reported":1691251620,"current_range_meters":16800,"station_id":"ce4bgrp2rcd13ifvqc9g","pricing_plan_id":"free"},{"bike_id":"6d43c2a0-0899-43de-92ed-c66acb438229","system_id":"levelo_inurba_marseille","lat":43.30529,"lon":5.36711,"is_reserved":false,"is_disabled":false,"rental_uris":{"android":"levelo://app?vid=6d43c2a0-0899-43de-92ed-c66acb438229","ios":"levelo://app?vid=6d43c2a0-0899-43de-92ed-c66acb438229"},"vehicle_type_id":"4","last_reported":1691251620,"current_range_meters":21200,"station_id":"ce4bgrp2rcd13ifvqc9g","pricing_plan_id":"free"},{"bike_id":"388f2113-77c1-4721-94a7-1fc20de29570","system_id":"levelo_inurba_marseille","lat":43.305706,"lon":5.365654,"is_reserved":false,"is_disabled":false,"rental_uris":{"android":"levelo://app?vid=388f2113-77c1-4721-94a7-1fc20de29570","ios":"levelo://app?vid=388f2113-77c1-4721-94a7-1fc20de29570"},"vehicle_type_id":"4","last_reported":1691251620,"current_range_meters":29600,"station_id":"ce4bgs12rcd13ifvqcag","pricing_plan_id":"free"},{"bike_id":"f20ea888-8740-440b-bfeb-8eb2a7c1f652","system_id":"levelo_inurba_marseille","lat":43.305989,"lon":5.37225,"is_reserved":false,"is_disabled":false,"rental_uris":{"android":"levelo://app?vid=f20ea888-8740-440b-bfeb-8eb2a7c1f652","ios":"levelo://app?vid=f20ea888-8740-440b-bfeb-8eb2a7c1f652"},"vehicle_type_id":"4","last_reported":1691251620,"current_range_meters":31200,"station_id":"ce4bgqh2rcd13ifvqc4g","pricing_plan_id":"free"},{"bike_id":"41df7a79-2498-4acc-8a99-45ae9271232f","system_id":"levelo_inurba_marseille","lat":43.305989,"lon":5.37225,"is_reserved":false,"is_disabled":false,"rental_uris":{"android":"levelo://app?vid=41df7a79-2498-4acc-8a99-45ae9271232f","ios":"levelo://app?vid=41df7a79-2498-4acc-8a99-45ae9271232f"},"vehicle_type_id":"4","last_reported":1691251620,"current_range_meters":800,"station_id":"ce4bgqh2rcd13ifvqc4g","pricing_plan_id":"free"},{"bike_id":"a8bc48a0-d7ae-43da-98c8-54931b951ccb","system_id":"levelo_inurba_marseille","lat":43.30787,"lon":5.37661,"is_reserved":false,"is_disabled":false,"rental_uris":{"android":"levelo://app?vid=a8bc48a0-d7ae-43da-98c8-54931b951ccb","ios":"levelo://app?vid=a8bc48a0-d7ae-43da-98c8-54931b951ccb"},"vehicle_type_id":"4","last_reported":1691251620,"current_range_meters":6000,"station_id":"ce4bgv92rcd13ifvqcq0","pricing_plan_id":"free"},{"bike_id":"37194777-bae5-42ad-b5c4-c10badcaa9ea","system_id":"levelo_inurba_marseille","lat":43.303,"lon":5.36909,"is_reserved":false,"is_disabled":false,"rental_uris":{"android":"levelo://app?vid=37194777-bae5-42ad-b5c4-c10badcaa9ea","ios":"levelo://app?vid=37194777-bae5-42ad-b5c4-c10badcaa9ea"},"vehicle_type_id":"4","last_reported":1691251620,"current_range_meters":15600,"station_id":"ce4bgqh2rcd13ifvqc5g","pricing_plan_id":"free"},{"bike_id":"d49c6983-a3f4-4c23-b132-79b61e77b583","system_id":"levelo_inurba_marseille","lat":43.30141,"lon":5.37419,"is_reserved":false,"is_disabled":false,"rental_uris":{"android":"levelo://app?vid=d49c6983-a3f4-4c23-b132-79b61e77b583","ios":"levelo://app?vid=d49c6983-a3f4-4c23-b132-79b61e77b583"},"vehicle_type_id":"4","last_reported":1691251620,"current_range_meters":4400,"station_id":"ce4bgs92rcd13ifvqcc0","pricing_plan_id":"free"},{"bike_id":"baec24f4-9254-4e69-92b1-8e6f3a12b80d","system_id":"levelo_inurba_marseille","lat":43.302784,"lon":5.377158,"is_reserved":false,"is_disabled":false,"rental_uris":{"android":"levelo://app?vid=baec24f4-9254-4e69-92b1-8e6f3a12b80d","ios":"levelo://app?vid=baec24f4-9254-4e69-92b1-8e6f3a12b80d"},"vehicle_type_id":"4","last_reported":1691251620,"current_range_meters":31600,"station_id":"ce4bguh2rcd13ifvqcj0","pricing_plan_id":"free"},{"bike_id":"5f1cf5b4-274a-46d5-a786-050eea1b38b9","system_id":"levelo_inurba_marseille","lat":43.313571,"lon":5.384829,"is_reserved":false,"is_disabled":false,"rental_uris":{"android":"levelo://app?vid=5f1cf5b4-274a-46d5-a786-050eea1b38b9","ios":"levelo://app?vid=5f1cf5b4-274a-46d5-a786-050eea1b38b9"},"vehicle_type_id":"4","last_reported":1691251620,"current_range_meters":12400,"station_id":"ce4bgt92rcd13ifvqcf0","pricing_plan_id":"free"},{"bike_id":"3cb7fd70-121e-4eb5-9a01-ecc8718aa1bb","system_id":"levelo_inurba_marseille","lat":43.29941,"lon":5.36555,"is_reserved":false,"is_disabled":false,"rental_uris":{"android":"levelo://app?vid=3cb7fd70-121e-4eb5-9a01-ecc8718aa1bb","ios":"levelo://app?vid=3cb7fd70-121e-4eb5-9a01-ecc8718aa1bb"},"vehicle_type_id":"4","last_reported":1691251620,"current_range_meters":28800,"station_id":"ce4bgm92rcd13ifvqbr0","pricing_plan_id":"free"},{"bike_id":"e2362deb-c9be-4c8b-b34d-2e4ec5d6ac5b","system_id":"levelo_inurba_marseille","lat":43.298433,"lon":5.362774,"is_reserved":false,"is_disabled":false,"rental_uris":{"android":"levelo://app?vid=e2362deb-c9be-4c8b-b34d-2e4ec5d6ac5b","ios":"levelo://app?vid=e2362deb-c9be-4c8b-b34d-2e4ec5d6ac5b"},"vehicle_type_id":"4","last_reported":1691251620,"current_range_meters":18000,"station_id":"ce4bgpp2rcd13ifvqc3g","pricing_plan_id":"free"},{"bike_id":"cb049759-9c04-4744-8a81-ec080f96dc9a","system_id":"levelo_inurba_marseille","lat":43.30535,"lon":5.3842,"is_reserved":false,"is_disabled":false,"rental_uris":{"android":"levelo://app?vid=cb049759-9c04-4744-8a81-ec080f96dc9a","ios":"levelo://app?vid=cb049759-9c04-4744-8a81-ec080f96dc9a"},"vehicle_type_id":"4","last_reported":1691251620,"current_range_meters":22800,"station_id":"ce4bgg92rcd13ifvqb30","pricing_plan_id":"free"},{"bike_id":"30537d43-af02-4a10-b928-7b9b8cf633d2","system_id":"levelo_inurba_marseille","lat":43.30538,"lon":5.38432,"is_reserved":false,"is_disabled":false,"rental_uris":{"android":"levelo://app?vid=30537d43-af02-4a10-b928-7b9b8cf633d2","ios":"levelo://app?vid=30537d43-af02-4a10-b928-7b9b8cf633d2"},"vehicle_type_id":"4","last_reported":1691251620,"current_range_meters":29600,"station_id":"ce4bgg92rcd13ifvqb30","pricing_plan_id":"free"},{"bike_id":"e520471d-ebc4-4658-99d7-ae68ea0afef5","system_id":"levelo_inurba_marseille","lat":43.30532,"lon":5.38431,"is_reserved":false,"is_disabled":false,"rental_uris":{"android":"levelo://app?vid=e520471d-ebc4-4658-99d7-ae68ea0afef5","ios":"levelo://app?vid=e520471d-ebc4-4658-99d7-ae68ea0afef5"},"vehicle_type_id":"4","last_reported":1691251620,"current_range_meters":5600,"station_id":"ce4bgg92rcd13ifvqb30","pricing_plan_id":"free"},{"bike_id":"84bac260-3554-4d5f-aeac-0f90426cf213","system_id":"levelo_inurba_marseille","lat":43.30533,"lon":5.38432,"is_reserved":false,"is_disabled":false,"rental_uris":{"android":"levelo://app?vid=84bac260-3554-4d5f-aeac-0f90426cf213","ios":"levelo://app?vid=84bac260-3554-4d5f-aeac-0f90426cf213"},"vehicle_type_id":"4","last_reported":1691251620,"current_range_meters":23200,"station_id":"ce4bgg92rcd13ifvqb30","pricing_plan_id":"free"},{"bike_id":"532f4022-7d49-4970-9215-866e9a057859","system_id":"levelo_inurba_marseille","lat":43.311722,"lon":5.387247,"is_reserved":false,"is_disabled":false,"rental_uris":{"android":"levelo://app?vid=532f4022-7d49-4970-9215-866e9a057859","ios":"levelo://app?vid=532f4022-7d49-4970-9215-866e9a057859"},"vehicle_type_id":"4","last_reported":1691251620,"current_range_meters":13600,"station_id":"ce4bgv12rcd13ifvqcp0","pricing_plan_id":"free"},{"bike_id":"29a48bc4-3f67-4280-9c16-ec57d1e63454","system_id":"levelo_inurba_marseille","lat":43.299243,"lon":5.374807,"is_reserved":false,"is_disabled":false,"rental_uris":{"android":"levelo://app?vid=29a48bc4-3f67-4280-9c16-ec57d1e63454","ios":"levelo://app?vid=29a48bc4-3f67-4280-9c16-ec57d1e63454"},"vehicle_type_id":"4","last_reported":1691251620,"current_range_meters":29600,"station_id":"ce4bgjh2rcd13ifvqbg0","pricing_plan_id":"free"},{"bike_id":"c1c37747-4278-497c-9edc-da1c4ab8d86a","system_id":"levelo_inurba_marseille","lat":43.298433,"lon":5.362774,"is_reserved":false,"is_disabled":false,"rental_uris":{"android":"levelo://app?vid=c1c37747-4278-497c-9edc-da1c4ab8d86a","ios":"levelo://app?vid=c1c37747-4278-497c-9edc-da1c4ab8d86a"},"vehicle_type_id":"4","last_reported":1691251620,"current_range_meters":7200,"station_id":"ce4bgpp2rcd13ifvqc3g","pricing_plan_id":"free"},{"bike_id":"3235488a-5abe-4f27-a56a-50e7b9989127","system_id":"levelo_inurba_marseille","lat":43.322872,"lon":5.382756,"is_reserved":false,"is_disabled":false,"rental_uris":{"android":"levelo://app?vid=3235488a-5abe-4f27-a56a-50e7b9989127","ios":"levelo://app?vid=3235488a-5abe-4f27-a56a-50e7b9989127"},"vehicle_type_id":"4","last_reported":1691251620,"current_range_meters":30800,"station_id":"ce4bhr12rcd13ifvqhqg","pricing_plan_id":"free"},{"bike_id":"4ecda612-667a-4526-af51-d1a35f405474","system_id":"levelo_inurba_marseille","lat":43.32285,"lon":5.38272,"is_reserved":false,"is_disabled":false,"rental_uris":{"android":"levelo://app?vid=4ecda612-667a-4526-af51-d1a35f405474","ios":"levelo://app?vid=4ecda612-667a-4526-af51-d1a35f405474"},"vehicle_type_id":"4","last_reported":1691251620,"current_range_meters":25200,"station_id":"ce4bhr12rcd13ifvqhqg","pricing_plan_id":"free"},{"bike_id":"3bcda371-4f02-47e7-a7a2-e3d060d552b5","system_id":"levelo_inurba_marseille","lat":43.32284,"lon":5.38282,"is_reserved":false,"is_disabled":false,"rental_uris":{"android":"levelo://app?vid=3bcda371-4f02-47e7-a7a2-e3d060d552b5","ios":"levelo://app?vid=3bcda371-4f02-47e7-a7a2-e3d060d552b5"},"vehicle_type_id":"4","last_reported":1691251620,"current_range_meters":29200,"station_id":"ce4bhr12rcd13ifvqhqg","pricing_plan_id":"free"},{"bike_id":"4711f823-9a36-491d-a201-28215b8e5924","system_id":"levelo_inurba_marseille","lat":43.322872,"lon":5.382756,"is_reserved":false,"is_disabled":false,"rental_uris":{"android":"levelo://app?vid=4711f823-9a36-491d-a201-28215b8e5924","ios":"levelo://app?vid=4711f823-9a36-491d-a201-28215b8e5924"},"vehicle_type_id":"4","last_reported":1691251620,"current_range_meters":16400,"station_id":"ce4bhr12rcd13ifvqhqg","pricing_plan_id":"free"},{"bike_id":"1978f8e7-0ba9-4d32-8a0a-3849b4985817","system_id":"levelo_inurba_marseille","lat":43.328371,"lon":5.366912,"is_reserved":false,"is_disabled":false,"rental_uris":{"android":"levelo://app?vid=1978f8e7-0ba9-4d32-8a0a-3849b4985817","ios":"levelo://app?vid=1978f8e7-0ba9-4d32-8a0a-3849b4985817"},"vehicle_type_id":"4","last_reported":1691251620,"current_range_meters":9200,"station_id":"ce4bhs92rcd13ifvqi0g","pricing_plan_id":"free"},{"bike_id":"8ae2a292-4b68-4114-8267-e4d284ceb76e","system_id":"levelo_inurba_marseille","lat":43.328371,"lon":5.366912,"is_reserved":false,"is_disabled":false,"rental_uris":{"android":"levelo://app?vid=8ae2a292-4b68-4114-8267-e4d284ceb76e","ios":"levelo://app?vid=8ae2a292-4b68-4114-8267-e4d284ceb76e"},"vehicle_type_id":"4","last_reported":1691251620,"current_range_meters":22400,"station_id":"ce4bhs92rcd13ifvqi0g","pricing_plan_id":"free"},{"bike_id":"268db224-141b-439d-90ff-927b3c861c0e","system_id":"levelo_inurba_marseille","lat":43.32828,"lon":5.367,"is_reserved":false,"is_disabled":false,"rental_uris":{"android":"levelo://app?vid=268db224-141b-439d-90ff-927b3c861c0e","ios":"levelo://app?vid=268db224-141b-439d-90ff-927b3c861c0e"},"vehicle_type_id":"4","last_reported":1691251620,"current_range_meters":9200,"station_id":"ce4bhs92rcd13ifvqi0g","pricing_plan_id":"free"},{"bike_id":"0884aec9-4e00-44a8-b640-decaa344566b","system_id":"levelo_inurba_marseille","lat":43.328371,"lon":5.366912,"is_reserved":false,"is_disabled":false,"rental_uris":{"android":"levelo://app?vid=0884aec9-4e00-44a8-b640-decaa344566b","ios":"levelo://app?vid=0884aec9-4e00-44a8-b640-decaa344566b"},"vehicle_type_id":"4","last_reported":1691251620,"current_range_meters":10400,"station_id":"ce4bhs92rcd13ifvqi0g","pricing_plan_id":"free"},{"bike_id":"ea228b6e-f8bc-4c08-96bc-82754c202e9e","system_id":"levelo_inurba_marseille","lat":43.328371,"lon":5.366909,"is_reserved":false,"is_disabled":false,"rental_uris":{"android":"levelo://app?vid=ea228b6e-f8bc-4c08-96bc-82754c202e9e","ios":"levelo://app?vid=ea228b6e-f8bc-4c08-96bc-82754c202e9e"},"vehicle_type_id":"4","last_reported":1691251620,"current_range_meters":22000,"station_id":"ce4bhs92rcd13ifvqi0g","pricing_plan_id":"free"},{"bike_id":"0963bae3-5b20-4e80-bff4-aafb7af6f51f","system_id":"levelo_inurba_marseille","lat":43.3283,"lon":5.36691,"is_reserved":false,"is_disabled":false,"rental_uris":{"android":"levelo://app?vid=0963bae3-5b20-4e80-bff4-aafb7af6f51f","ios":"levelo://app?vid=0963bae3-5b20-4e80-bff4-aafb7af6f51f"},"vehicle_type_id":"4","last_reported":1691251620,"current_range_meters":11600,"station_id":"ce4bhs92rcd13ifvqi0g","pricing_plan_id":"free"},{"bike_id":"70df08ad-aacf-44be-9921-61b46d710b54","system_id":"levelo_inurba_marseille","lat":43.3283,"lon":5.36688,"is_reserved":false,"is_disabled":false,"rental_uris":{"android":"levelo://app?vid=70df08ad-aacf-44be-9921-61b46d710b54","ios":"levelo://app?vid=70df08ad-aacf-44be-9921-61b46d710b54"},"vehicle_type_id":"4","last_reported":1691251620,"current_range_meters":29200,"station_id":"ce4bhs92rcd13ifvqi0g","pricing_plan_id":"free"},{"bike_id":"b817d5ed-7bfc-4b4f-ab91-d197cc36525d","system_id":"levelo_inurba_marseille","lat":43.32831,"lon":5.36697,"is_reserved":false,"is_disabled":false,"rental_uris":{"android":"levelo://app?vid=b817d5ed-7bfc-4b4f-ab91-d197cc36525d","ios":"levelo://app?vid=b817d5ed-7bfc-4b4f-ab91-d197cc36525d"},"vehicle_type_id":"4","last_reported":1691251620,"current_range_meters":28000,"station_id":"ce4bhs92rcd13ifvqi0g","pricing_plan_id":"free"},{"bike_id":"bfcdc805-c177-4202-89f2-5e9744440523","system_id":"levelo_inurba_marseille","lat":43.328371,"lon":5.366909,"is_reserved":false,"is_disabled":false,"rental_uris":{"android":"levelo://app?vid=bfcdc805-c177-4202-89f2-5e9744440523","ios":"levelo://app?vid=bfcdc805-c177-4202-89f2-5e9744440523"},"vehicle_type_id":"4","last_reported":1691251620,"current_range_meters":30800,"station_id":"ce4bhs92rcd13ifvqi0g","pricing_plan_id":"free"},{"bike_id":"21123ab0-af94-4861-a373-dcbcf04105b5","system_id":"levelo_inurba_marseille","lat":43.32832,"lon":5.36683,"is_reserved":false,"is_disabled":false,"rental_uris":{"android":"levelo://app?vid=21123ab0-af94-4861-a373-dcbcf04105b5","ios":"levelo://app?vid=21123ab0-af94-4861-a373-dcbcf04105b5"},"vehicle_type_id":"4","last_reported":1691251620,"current_range_meters":30800,"station_id":"ce4bhs92rcd13ifvqi0g","pricing_plan_id":"free"},{"bike_id":"dc0d3889-70c4-4dba-8f83-071e4628efeb","system_id":"levelo_inurba_marseille","lat":43.328371,"lon":5.366909,"is_reserved":false,"is_disabled":false,"rental_uris":{"android":"levelo://app?vid=dc0d3889-70c4-4dba-8f83-071e4628efeb","ios":"levelo://app?vid=dc0d3889-70c4-4dba-8f83-071e4628efeb"},"vehicle_type_id":"4","last_reported":1691251620,"current_range_meters":30800,"station_id":"ce4bhs92rcd13ifvqi0g","pricing_plan_id":"free"},{"bike_id":"925d80fe-dd88-4a52-a938-71d3f7293e55","system_id":"levelo_inurba_marseille","lat":43.328371,"lon":5.366909,"is_reserved":false,"is_disabled":false,"rental_uris":{"android":"levelo://app?vid=925d80fe-dd88-4a52-a938-71d3f7293e55","ios":"levelo://app?vid=925d80fe-dd88-4a52-a938-71d3f7293e55"},"vehicle_type_id":"4","last_reported":1691251620,"current_range_meters":14400,"station_id":"ce4bhs92rcd13ifvqi0g","pricing_plan_id":"free"},{"bike_id":"e1a3435b-e305-4593-851e-1cb259e5f6f2","system_id":"levelo_inurba_marseille","lat":43.297163,"lon":5.365866,"is_reserved":false,"is_disabled":false,"rental_uris":{"android":"levelo://app?vid=e1a3435b-e305-4593-851e-1cb259e5f6f2","ios":"levelo://app?vid=e1a3435b-e305-4593-851e-1cb259e5f6f2"},"vehicle_type_id":"4","last_reported":1691251620,"current_range_meters":30000,"station_id":"ce4bgn12rcd13ifvqbt0","pricing_plan_id":"free"},{"bike_id":"dd789220-e7b5-42c1-b9dc-dc4243148021","system_id":"levelo_inurba_marseille","lat":43.297163,"lon":5.365866,"is_reserved":false,"is_disabled":false,"rental_uris":{"android":"levelo://app?vid=dd789220-e7b5-42c1-b9dc-dc4243148021","ios":"levelo://app?vid=dd789220-e7b5-42c1-b9dc-dc4243148021"},"vehicle_type_id":"4","last_reported":1691251620,"current_range_meters":31200,"station_id":"ce4bgn12rcd13ifvqbt0","pricing_plan_id":"free"},{"bike_id":"150d2b45-e17a-43ac-8f84-bed26be60ad5","system_id":"levelo_inurba_marseille","lat":43.297163,"lon":5.365866,"is_reserved":false,"is_disabled":false,"rental_uris":{"android":"levelo://app?vid=150d2b45-e17a-43ac-8f84-bed26be60ad5","ios":"levelo://app?vid=150d2b45-e17a-43ac-8f84-bed26be60ad5"},"vehicle_type_id":"4","last_reported":1691251620,"current_range_meters":20800,"station_id":"ce4bgn12rcd13ifvqbt0","pricing_plan_id":"free"},{"bike_id":"8c22ea31-c49f-4484-aee7-a88ddd05728d","system_id":"levelo_inurba_marseille","lat":43.2958,"lon":5.36754,"is_reserved":false,"is_disabled":false,"rental_uris":{"android":"levelo://app?vid=8c22ea31-c49f-4484-aee7-a88ddd05728d","ios":"levelo://app?vid=8c22ea31-c49f-4484-aee7-a88ddd05728d"},"vehicle_type_id":"4","last_reported":1691251620,"current_range_meters":9600,"station_id":"ce4bgph2rcd13ifvqc2g","pricing_plan_id":"free"},{"bike_id":"d7adedb3-c5f2-4ba7-856b-87a05b71cb12","system_id":"levelo_inurba_marseille","lat":43.29573,"lon":5.367355,"is_reserved":false,"is_disabled":false,"rental_uris":{"android":"levelo://app?vid=d7adedb3-c5f2-4ba7-856b-87a05b71cb12","ios":"levelo://app?vid=d7adedb3-c5f2-4ba7-856b-87a05b71cb12"},"vehicle_type_id":"4","last_reported":1691251620,"current_range_meters":6000,"station_id":"ce4bgph2rcd13ifvqc2g","pricing_plan_id":"free"},{"bike_id":"9722fc03-f215-4ba1-81bd-b2b6dd850578","system_id":"levelo_inurba_marseille","lat":43.29579,"lon":5.36753,"is_reserved":false,"is_disabled":false,"rental_uris":{"android":"levelo://app?vid=9722fc03-f215-4ba1-81bd-b2b6dd850578","ios":"levelo://app?vid=9722fc03-f215-4ba1-81bd-b2b6dd850578"},"vehicle_type_id":"4","last_reported":1691251620,"current_range_meters":18800,"station_id":"ce4bgph2rcd13ifvqc2g","pricing_plan_id":"free"},{"bike_id":"e76df456-05d7-4553-9d31-bb6c0eddcb3b","system_id":"levelo_inurba_marseille","lat":43.29573,"lon":5.367355,"is_reserved":false,"is_disabled":false,"rental_uris":{"android":"levelo://app?vid=e76df456-05d7-4553-9d31-bb6c0eddcb3b","ios":"levelo://app?vid=e76df456-05d7-4553-9d31-bb6c0eddcb3b"},"vehicle_type_id":"4","last_reported":1691251620,"current_range_meters":29600,"station_id":"ce4bgph2rcd13ifvqc2g","pricing_plan_id":"free"},{"bike_id":"f0b1921d-8fc5-42f6-8214-26455e772ce5","system_id":"levelo_inurba_marseille","lat":43.309589,"lon":5.390258,"is_reserved":false,"is_disabled":false,"rental_uris":{"android":"levelo://app?vid=f0b1921d-8fc5-42f6-8214-26455e772ce5","ios":"levelo://app?vid=f0b1921d-8fc5-42f6-8214-26455e772ce5"},"vehicle_type_id":"4","last_reported":1691251620,"current_range_meters":26000,"station_id":"ce4bgup2rcd13ifvqco0","pricing_plan_id":"free"},{"bike_id":"37440da6-a52c-4d8b-bad8-8479cc4c329c","system_id":"levelo_inurba_marseille","lat":43.317557,"lon":5.390173,"is_reserved":false,"is_disabled":false,"rental_uris":{"android":"levelo://app?vid=37440da6-a52c-4d8b-bad8-8479cc4c329c","ios":"levelo://app?vid=37440da6-a52c-4d8b-bad8-8479cc4c329c"},"vehicle_type_id":"4","last_reported":1691251620,"current_range_meters":30000,"station_id":"ce4bhqp2rcd13ifvqhng","pricing_plan_id":"free"},{"bike_id":"c070a522-6c17-4333-a9ee-bbef4dc643ed","system_id":"levelo_inurba_marseille","lat":43.317557,"lon":5.390173,"is_reserved":false,"is_disabled":false,"rental_uris":{"android":"levelo://app?vid=c070a522-6c17-4333-a9ee-bbef4dc643ed","ios":"levelo://app?vid=c070a522-6c17-4333-a9ee-bbef4dc643ed"},"vehicle_type_id":"4","last_reported":1691251620,"current_range_meters":32000,"station_id":"ce4bhqp2rcd13ifvqhng","pricing_plan_id":"free"},{"bike_id":"33289ce5-1059-4419-aac6-0b635209ed94","system_id":"levelo_inurba_marseille","lat":43.317557,"lon":5.390173,"is_reserved":false,"is_disabled":false,"rental_uris":{"android":"levelo://app?vid=33289ce5-1059-4419-aac6-0b635209ed94","ios":"levelo://app?vid=33289ce5-1059-4419-aac6-0b635209ed94"},"vehicle_type_id":"4","last_reported":1691251620,"current_range_meters":21200,"station_id":"ce4bhqp2rcd13ifvqhng","pricing_plan_id":"free"},{"bike_id":"ffe83563-fe7b-4abd-90a1-b737e09347c0","system_id":"levelo_inurba_marseille","lat":43.317557,"lon":5.390173,"is_reserved":false,"is_disabled":false,"rental_uris":{"android":"levelo://app?vid=ffe83563-fe7b-4abd-90a1-b737e09347c0","ios":"levelo://app?vid=ffe83563-fe7b-4abd-90a1-b737e09347c0"},"vehicle_type_id":"4","last_reported":1691251620,"current_range_meters":31200,"station_id":"ce4bhqp2rcd13ifvqhng","pricing_plan_id":"free"},{"bike_id":"ea01d5ca-46b8-4e12-9d73-863370000a06","system_id":"levelo_inurba_marseille","lat":43.317557,"lon":5.390173,"is_reserved":false,"is_disabled":false,"rental_uris":{"android":"levelo://app?vid=ea01d5ca-46b8-4e12-9d73-863370000a06","ios":"levelo://app?vid=ea01d5ca-46b8-4e12-9d73-863370000a06"},"vehicle_type_id":"4","last_reported":1691251620,"current_range_meters":31200,"station_id":"ce4bhqp2rcd13ifvqhng","pricing_plan_id":"free"},{"bike_id":"4879b09e-5533-49cc-808c-be115b214b19","system_id":"levelo_inurba_marseille","lat":43.317557,"lon":5.390173,"is_reserved":false,"is_disabled":false,"rental_uris":{"android":"levelo://app?vid=4879b09e-5533-49cc-808c-be115b214b19","ios":"levelo://app?vid=4879b09e-5533-49cc-808c-be115b214b19"},"vehicle_type_id":"4","last_reported":1691251620,"current_range_meters":31200,"station_id":"ce4bhqp2rcd13ifvqhng","pricing_plan_id":"free"},{"bike_id":"fb5d1b63-b2f2-4d34-b700-b062bf6b4e69","system_id":"levelo_inurba_marseille","lat":43.317557,"lon":5.390173,"is_reserved":false,"is_disabled":false,"rental_uris":{"android":"levelo://app?vid=fb5d1b63-b2f2-4d34-b700-b062bf6b4e69","ios":"levelo://app?vid=fb5d1b63-b2f2-4d34-b700-b062bf6b4e69"},"vehicle_type_id":"4","last_reported":1691251620,"current_range_meters":31200,"station_id":"ce4bhqp2rcd13ifvqhng","pricing_plan_id":"free"},{"bike_id":"b2f3081d-803f-4500-a8ce-732227ecc1a7","system_id":"levelo_inurba_marseille","lat":43.317557,"lon":5.390173,"is_reserved":false,"is_disabled":false,"rental_uris":{"android":"levelo://app?vid=b2f3081d-803f-4500-a8ce-732227ecc1a7","ios":"levelo://app?vid=b2f3081d-803f-4500-a8ce-732227ecc1a7"},"vehicle_type_id":"4","last_reported":1691251620,"current_range_meters":22800,"station_id":"ce4bhqp2rcd13ifvqhng","pricing_plan_id":"free"},{"bike_id":"90569ba5-8bb9-4d2d-b876-dc35e42f9a0c","system_id":"levelo_inurba_marseille","lat":43.317557,"lon":5.390173,"is_reserved":false,"is_disabled":false,"rental_uris":{"android":"levelo://app?vid=90569ba5-8bb9-4d2d-b876-dc35e42f9a0c","ios":"levelo://app?vid=90569ba5-8bb9-4d2d-b876-dc35e42f9a0c"},"vehicle_type_id":"4","last_reported":1691251620,"current_range_meters":31200,"station_id":"ce4bhqp2rcd13ifvqhng","pricing_plan_id":"free"},{"bike_id":"de266c1c-1b18-40a5-b255-3e16ecd1195b","system_id":"levelo_inurba_marseille","lat":43.295748,"lon":5.37522,"is_reserved":false,"is_disabled":false,"rental_uris":{"android":"levelo://app?vid=de266c1c-1b18-40a5-b255-3e16ecd1195b","ios":"levelo://app?vid=de266c1c-1b18-40a5-b255-3e16ecd1195b"},"vehicle_type_id":"4","last_reported":1691251620,"current_range_meters":23200,"station_id":"ce4bgh92rcd13ifvqb50","pricing_plan_id":"free"},{"bike_id":"a4df99ce-0488-49dd-a888-94686f562e88","system_id":"levelo_inurba_marseille","lat":43.29571,"lon":5.37507,"is_reserved":false,"is_disabled":false,"rental_uris":{"android":"levelo://app?vid=a4df99ce-0488-49dd-a888-94686f562e88","ios":"levelo://app?vid=a4df99ce-0488-49dd-a888-94686f562e88"},"vehicle_type_id":"4","last_reported":1691251620,"current_range_meters":23600,"station_id":"ce4bgh92rcd13ifvqb50","pricing_plan_id":"free"},{"bike_id":"87219efd-9833-47f1-afd2-46861854ae31","system_id":"levelo_inurba_marseille","lat":43.30448,"lon":5.38899,"is_reserved":false,"is_disabled":false,"rental_uris":{"android":"levelo://app?vid=87219efd-9833-47f1-afd2-46861854ae31","ios":"levelo://app?vid=87219efd-9833-47f1-afd2-46861854ae31"},"vehicle_type_id":"4","last_reported":1691251620,"current_range_meters":10000,"station_id":"ce4bgk12rcd13ifvqbi0","pricing_plan_id":"free"},{"bike_id":"e13f59ee-fa96-4bd0-a058-bf7aef7cc931","system_id":"levelo_inurba_marseille","lat":43.295279,"lon":5.375048,"is_reserved":false,"is_disabled":false,"rental_uris":{"android":"levelo://app?vid=e13f59ee-fa96-4bd0-a058-bf7aef7cc931","ios":"levelo://app?vid=e13f59ee-fa96-4bd0-a058-bf7aef7cc931"},"vehicle_type_id":"4","last_reported":1691251620,"current_range_meters":10000,"station_id":"ce4bgkp2rcd13ifvqbmg","pricing_plan_id":"free"},{"bike_id":"006e541a-688e-4c7d-a30a-f5086ab7d69b","system_id":"levelo_inurba_marseille","lat":43.299707,"lon":5.384859,"is_reserved":false,"is_disabled":false,"rental_uris":{"android":"levelo://app?vid=006e541a-688e-4c7d-a30a-f5086ab7d69b","ios":"levelo://app?vid=006e541a-688e-4c7d-a30a-f5086ab7d69b"},"vehicle_type_id":"4","last_reported":1691251620,"current_range_meters":13600,"station_id":"ce4bgj92rcd13ifvqbd0","pricing_plan_id":"free"},{"bike_id":"b32c4478-8c7b-4e29-b795-58daced05e2f","system_id":"levelo_inurba_marseille","lat":43.295279,"lon":5.375048,"is_reserved":false,"is_disabled":false,"rental_uris":{"android":"levelo://app?vid=b32c4478-8c7b-4e29-b795-58daced05e2f","ios":"levelo://app?vid=b32c4478-8c7b-4e29-b795-58daced05e2f"},"vehicle_type_id":"4","last_reported":1691251620,"current_range_meters":15600,"station_id":"ce4bgkp2rcd13ifvqbmg","pricing_plan_id":"free"},{"bike_id":"31c4ebe8-2a4f-41b7-966a-7ad502ff3d8a","system_id":"levelo_inurba_marseille","lat":43.32364,"lon":5.38879,"is_reserved":false,"is_disabled":false,"rental_uris":{"android":"levelo://app?vid=31c4ebe8-2a4f-41b7-966a-7ad502ff3d8a","ios":"levelo://app?vid=31c4ebe8-2a4f-41b7-966a-7ad502ff3d8a"},"vehicle_type_id":"4","last_reported":1691251620,"current_range_meters":19200,"station_id":"ce4bhqp2rcd13ifvqhog","pricing_plan_id":"free"},{"bike_id":"5f1c231d-5549-420b-a974-1b1406435a60","system_id":"levelo_inurba_marseille","lat":43.32367,"lon":5.388836,"is_reserved":false,"is_disabled":false,"rental_uris":{"android":"levelo://app?vid=5f1c231d-5549-420b-a974-1b1406435a60","ios":"levelo://app?vid=5f1c231d-5549-420b-a974-1b1406435a60"},"vehicle_type_id":"4","last_reported":1691251620,"current_range_meters":21200,"station_id":"ce4bhqp2rcd13ifvqhog","pricing_plan_id":"free"},{"bike_id":"bb5b0c1c-63be-40f0-8df3-c6cf5590d7ae","system_id":"levelo_inurba_marseille","lat":43.32367,"lon":5.388836,"is_reserved":false,"is_disabled":false,"rental_uris":{"android":"levelo://app?vid=bb5b0c1c-63be-40f0-8df3-c6cf5590d7ae","ios":"levelo://app?vid=bb5b0c1c-63be-40f0-8df3-c6cf5590d7ae"},"vehicle_type_id":"4","last_reported":1691251620,"current_range_meters":22000,"station_id":"ce4bhqp2rcd13ifvqhog","pricing_plan_id":"free"},{"bike_id":"ed5b971a-2b8a-4f89-9487-7e8342d0b66b","system_id":"levelo_inurba_marseille","lat":43.32365,"lon":5.38882,"is_reserved":false,"is_disabled":false,"rental_uris":{"android":"levelo://app?vid=ed5b971a-2b8a-4f89-9487-7e8342d0b66b","ios":"levelo://app?vid=ed5b971a-2b8a-4f89-9487-7e8342d0b66b"},"vehicle_type_id":"4","last_reported":1691251620,"current_range_meters":20800,"station_id":"ce4bhqp2rcd13ifvqhog","pricing_plan_id":"free"},{"bike_id":"5bdf8c20-9c72-47ab-afc6-2b84567e0617","system_id":"levelo_inurba_marseille","lat":43.32364,"lon":5.38883,"is_reserved":false,"is_disabled":false,"rental_uris":{"android":"levelo://app?vid=5bdf8c20-9c72-47ab-afc6-2b84567e0617","ios":"levelo://app?vid=5bdf8c20-9c72-47ab-afc6-2b84567e0617"},"vehicle_type_id":"4","last_reported":1691251620,"current_range_meters":18800,"station_id":"ce4bhqp2rcd13ifvqhog","pricing_plan_id":"free"},{"bike_id":"153806a9-c106-4acb-8efe-f81ba29b58d3","system_id":"levelo_inurba_marseille","lat":43.32366,"lon":5.38882,"is_reserved":false,"is_disabled":false,"rental_uris":{"android":"levelo://app?vid=153806a9-c106-4acb-8efe-f81ba29b58d3","ios":"levelo://app?vid=153806a9-c106-4acb-8efe-f81ba29b58d3"},"vehicle_type_id":"4","last_reported":1691251620,"current_range_meters":23200,"station_id":"ce4bhqp2rcd13ifvqhog","pricing_plan_id":"free"},{"bike_id":"34ef5601-8765-4b80-bdc1-e9818152ffab","system_id":"levelo_inurba_marseille","lat":43.32369,"lon":5.38881,"is_reserved":false,"is_disabled":false,"rental_uris":{"android":"levelo://app?vid=34ef5601-8765-4b80-bdc1-e9818152ffab","ios":"levelo://app?vid=34ef5601-8765-4b80-bdc1-e9818152ffab"},"vehicle_type_id":"4","last_reported":1691251620,"current_range_meters":24400,"station_id":"ce4bhqp2rcd13ifvqhog","pricing_plan_id":"free"},{"bike_id":"fbc3a92c-f948-48e9-a3fc-f0e8af1a9259","system_id":"levelo_inurba_marseille","lat":43.32367,"lon":5.388836,"is_reserved":false,"is_disabled":false,"rental_uris":{"android":"levelo://app?vid=fbc3a92c-f948-48e9-a3fc-f0e8af1a9259","ios":"levelo://app?vid=fbc3a92c-f948-48e9-a3fc-f0e8af1a9259"},"vehicle_type_id":"4","last_reported":1691251620,"current_range_meters":30000,"station_id":"ce4bhqp2rcd13ifvqhog","pricing_plan_id":"free"},{"bike_id":"51a94a8b-791c-4738-b220-ee8689f99230","system_id":"levelo_inurba_marseille","lat":43.32365,"lon":5.38885,"is_reserved":false,"is_disabled":false,"rental_uris":{"android":"levelo://app?vid=51a94a8b-791c-4738-b220-ee8689f99230","ios":"levelo://app?vid=51a94a8b-791c-4738-b220-ee8689f99230"},"vehicle_type_id":"4","last_reported":1691251620,"current_range_meters":2000,"station_id":"ce4bhqp2rcd13ifvqhog","pricing_plan_id":"free"},{"bike_id":"b47ca02a-40ba-4dc8-abeb-b1a2c4b62cd0","system_id":"levelo_inurba_marseille","lat":43.32367,"lon":5.388836,"is_reserved":false,"is_disabled":false,"rental_uris":{"android":"levelo://app?vid=b47ca02a-40ba-4dc8-abeb-b1a2c4b62cd0","ios":"levelo://app?vid=b47ca02a-40ba-4dc8-abeb-b1a2c4b62cd0"},"vehicle_type_id":"4","last_reported":1691251620,"current_range_meters":29600,"station_id":"ce4bhqp2rcd13ifvqhog","pricing_plan_id":"free"},{"bike_id":"6be534a9-96c6-4989-b3bb-e9dea76376c4","system_id":"levelo_inurba_marseille","lat":43.32367,"lon":5.388836,"is_reserved":false,"is_disabled":false,"rental_uris":{"android":"levelo://app?vid=6be534a9-96c6-4989-b3bb-e9dea76376c4","ios":"levelo://app?vid=6be534a9-96c6-4989-b3bb-e9dea76376c4"},"vehicle_type_id":"4","last_reported":1691251620,"current_range_meters":31200,"station_id":"ce4bhqp2rcd13ifvqhog","pricing_plan_id":"free"},{"bike_id":"696ed9b6-9beb-423c-9d06-defcf66f30b9","system_id":"levelo_inurba_marseille","lat":43.32367,"lon":5.388836,"is_reserved":false,"is_disabled":false,"rental_uris":{"android":"levelo://app?vid=696ed9b6-9beb-423c-9d06-defcf66f30b9","ios":"levelo://app?vid=696ed9b6-9beb-423c-9d06-defcf66f30b9"},"vehicle_type_id":"4","last_reported":1691251620,"current_range_meters":10400,"station_id":"ce4bhqp2rcd13ifvqhog","pricing_plan_id":"free"},{"bike_id":"04ce7204-785e-4650-8cdf-18d6e5890126","system_id":"levelo_inurba_marseille","lat":43.29273,"lon":5.36846,"is_reserved":false,"is_disabled":false,"rental_uris":{"android":"levelo://app?vid=04ce7204-785e-4650-8cdf-18d6e5890126","ios":"levelo://app?vid=04ce7204-785e-4650-8cdf-18d6e5890126"},"vehicle_type_id":"4","last_reported":1691251620,"current_range_meters":11600,"station_id":"ce4bhbp2rcd13ifvqesg","pricing_plan_id":"free"},{"bike_id":"6ac1ab49-78e4-49f6-8286-017901cccf19","system_id":"levelo_inurba_marseille","lat":43.293009,"lon":5.374584,"is_reserved":false,"is_disabled":false,"rental_uris":{"android":"levelo://app?vid=6ac1ab49-78e4-49f6-8286-017901cccf19","ios":"levelo://app?vid=6ac1ab49-78e4-49f6-8286-017901cccf19"},"vehicle_type_id":"4","last_reported":1691251620,"current_range_meters":16400,"station_id":"ce4bgi12rcd13ifvqb70","pricing_plan_id":"free"},{"bike_id":"b45f2df3-0342-45a2-9dd7-7d0d8eaccdea","system_id":"levelo_inurba_marseille","lat":43.300852,"lon":5.390859,"is_reserved":false,"is_disabled":false,"rental_uris":{"android":"levelo://app?vid=b45f2df3-0342-45a2-9dd7-7d0d8eaccdea","ios":"levelo://app?vid=b45f2df3-0342-45a2-9dd7-7d0d8eaccdea"},"vehicle_type_id":"4","last_reported":1691251620,"current_range_meters":12000,"station_id":"ce4bh192rcd13ifvqdb0","pricing_plan_id":"free"},{"bike_id":"7f41bdca-4d8a-433c-a5ce-126d87484244","system_id":"levelo_inurba_marseille","lat":43.293009,"lon":5.374584,"is_reserved":false,"is_disabled":false,"rental_uris":{"android":"levelo://app?vid=7f41bdca-4d8a-433c-a5ce-126d87484244","ios":"levelo://app?vid=7f41bdca-4d8a-433c-a5ce-126d87484244"},"vehicle_type_id":"4","last_reported":1691251620,"current_range_meters":16800,"station_id":"ce4bgi12rcd13ifvqb70","pricing_plan_id":"free"},{"bike_id":"e6bd4ed3-b497-47d4-8439-ec614aa30505","system_id":"levelo_inurba_marseille","lat":43.302992,"lon":5.392136,"is_reserved":false,"is_disabled":false,"rental_uris":{"android":"levelo://app?vid=e6bd4ed3-b497-47d4-8439-ec614aa30505","ios":"levelo://app?vid=e6bd4ed3-b497-47d4-8439-ec614aa30505"},"vehicle_type_id":"4","last_reported":1691251620,"current_range_meters":23200,"station_id":"ce4bgkh2rcd13ifvqbk0","pricing_plan_id":"free"},{"bike_id":"04236756-2af3-4faa-9697-03d878d60320","system_id":"levelo_inurba_marseille","lat":43.30299,"lon":5.39217,"is_reserved":false,"is_disabled":false,"rental_uris":{"android":"levelo://app?vid=04236756-2af3-4faa-9697-03d878d60320","ios":"levelo://app?vid=04236756-2af3-4faa-9697-03d878d60320"},"vehicle_type_id":"4","last_reported":1691251620,"current_range_meters":30400,"station_id":"ce4bgkh2rcd13ifvqbk0","pricing_plan_id":"free"},{"bike_id":"03c17cbb-088a-4c4f-bbf8-eb6b4f22a141","system_id":"levelo_inurba_marseille","lat":43.29362,"lon":5.37848,"is_reserved":false,"is_disabled":false,"rental_uris":{"android":"levelo://app?vid=03c17cbb-088a-4c4f-bbf8-eb6b4f22a141","ios":"levelo://app?vid=03c17cbb-088a-4c4f-bbf8-eb6b4f22a141"},"vehicle_type_id":"4","last_reported":1691251620,"current_range_meters":28000,"station_id":"ce4bgjh2rcd13ifvqbf0","pricing_plan_id":"free"},{"bike_id":"83a60e00-c00e-429f-8fab-8a2362288742","system_id":"levelo_inurba_marseille","lat":43.2936,"lon":5.37835,"is_reserved":false,"is_disabled":false,"rental_uris":{"android":"levelo://app?vid=83a60e00-c00e-429f-8fab-8a2362288742","ios":"levelo://app?vid=83a60e00-c00e-429f-8fab-8a2362288742"},"vehicle_type_id":"4","last_reported":1691251620,"current_range_meters":28400,"station_id":"ce4bgjh2rcd13ifvqbf0","pricing_plan_id":"free"},{"bike_id":"1dd54685-89df-426e-b9cb-81790b72867d","system_id":"levelo_inurba_marseille","lat":43.292311,"lon":5.360731,"is_reserved":false,"is_disabled":false,"rental_uris":{"android":"levelo://app?vid=1dd54685-89df-426e-b9cb-81790b72867d","ios":"levelo://app?vid=1dd54685-89df-426e-b9cb-81790b72867d"},"vehicle_type_id":"4","last_reported":1691251620,"current_range_meters":6000,"station_id":"ce4bhbh2rcd13ifvqeqg","pricing_plan_id":"free"},{"bike_id":"5096842d-0df7-4a6b-a1da-ca297e4b29e8","system_id":"levelo_inurba_marseille","lat":43.292663,"lon":5.376389,"is_reserved":false,"is_disabled":false,"rental_uris":{"android":"levelo://app?vid=5096842d-0df7-4a6b-a1da-ca297e4b29e8","ios":"levelo://app?vid=5096842d-0df7-4a6b-a1da-ca297e4b29e8"},"vehicle_type_id":"4","last_reported":1691251620,"current_range_meters":29600,"station_id":"ce4bgi12rcd13ifvqb80","pricing_plan_id":"free"},{"bike_id":"241110d4-1ffc-4913-8c3f-131bd13e9347","system_id":"levelo_inurba_marseille","lat":43.291675,"lon":5.371583,"is_reserved":false,"is_disabled":false,"rental_uris":{"android":"levelo://app?vid=241110d4-1ffc-4913-8c3f-131bd13e9347","ios":"levelo://app?vid=241110d4-1ffc-4913-8c3f-131bd13e9347"},"vehicle_type_id":"4","last_reported":1691251620,"current_range_meters":4400,"station_id":"ce4bha92rcd13ifvqeh0","pricing_plan_id":"free"},{"bike_id":"7ae09355-a7d6-4445-893c-3c76a50a8e97","system_id":"levelo_inurba_marseille","lat":43.291671,"lon":5.371575,"is_reserved":false,"is_disabled":false,"rental_uris":{"android":"levelo://app?vid=7ae09355-a7d6-4445-893c-3c76a50a8e97","ios":"levelo://app?vid=7ae09355-a7d6-4445-893c-3c76a50a8e97"},"vehicle_type_id":"4","last_reported":1691251620,"current_range_meters":16400,"station_id":"ce4bha92rcd13ifvqeh0","pricing_plan_id":"free"},{"bike_id":"93de8922-f01b-4ccd-9a58-7233a7310a4a","system_id":"levelo_inurba_marseille","lat":43.29196,"lon":5.35794,"is_reserved":false,"is_disabled":false,"rental_uris":{"android":"levelo://app?vid=93de8922-f01b-4ccd-9a58-7233a7310a4a","ios":"levelo://app?vid=93de8922-f01b-4ccd-9a58-7233a7310a4a"},"vehicle_type_id":"4","last_reported":1691251620,"current_range_meters":18400,"station_id":"ce4bhb12rcd13ifvqel0","pricing_plan_id":"free"},{"bike_id":"ebbf0889-294e-4a97-b816-80e14ee272d5","system_id":"levelo_inurba_marseille","lat":43.31327,"lon":5.39691,"is_reserved":false,"is_disabled":false,"rental_uris":{"android":"levelo://app?vid=ebbf0889-294e-4a97-b816-80e14ee272d5","ios":"levelo://app?vid=ebbf0889-294e-4a97-b816-80e14ee272d5"},"vehicle_type_id":"4","last_reported":1691251620,"current_range_meters":22800,"station_id":"ce4bgvp2rcd13ifvqcu0","pricing_plan_id":"free"},{"bike_id":"732d6916-7d23-4824-bd9d-f12772e1f638","system_id":"levelo_inurba_marseille","lat":43.31328,"lon":5.39691,"is_reserved":false,"is_disabled":false,"rental_uris":{"android":"levelo://app?vid=732d6916-7d23-4824-bd9d-f12772e1f638","ios":"levelo://app?vid=732d6916-7d23-4824-bd9d-f12772e1f638"},"vehicle_type_id":"4","last_reported":1691251620,"current_range_meters":25200,"station_id":"ce4bgvp2rcd13ifvqcu0","pricing_plan_id":"free"},{"bike_id":"68b7441d-e80f-43b2-ab3e-85bbc7f929bb","system_id":"levelo_inurba_marseille","lat":43.30888,"lon":5.39645,"is_reserved":false,"is_disabled":false,"rental_uris":{"android":"levelo://app?vid=68b7441d-e80f-43b2-ab3e-85bbc7f929bb","ios":"levelo://app?vid=68b7441d-e80f-43b2-ab3e-85bbc7f929bb"},"vehicle_type_id":"4","last_reported":1691251620,"current_range_meters":22000,"station_id":"ce4bh012rcd13ifvqcv0","pricing_plan_id":"free"},{"bike_id":"0288d276-f1da-474e-8992-fc865d32c018","system_id":"levelo_inurba_marseille","lat":43.31325,"lon":5.39693,"is_reserved":false,"is_disabled":false,"rental_uris":{"android":"levelo://app?vid=0288d276-f1da-474e-8992-fc865d32c018","ios":"levelo://app?vid=0288d276-f1da-474e-8992-fc865d32c018"},"vehicle_type_id":"4","last_reported":1691251620,"current_range_meters":25600,"station_id":"ce4bgvp2rcd13ifvqcu0","pricing_plan_id":"free"},{"bike_id":"af9ed230-1b46-455e-978a-bcb043082fdc","system_id":"levelo_inurba_marseille","lat":43.31323,"lon":5.39694,"is_reserved":false,"is_disabled":false,"rental_uris":{"android":"levelo://app?vid=af9ed230-1b46-455e-978a-bcb043082fdc","ios":"levelo://app?vid=af9ed230-1b46-455e-978a-bcb043082fdc"},"vehicle_type_id":"4","last_reported":1691251620,"current_range_meters":1600,"station_id":"ce4bgvp2rcd13ifvqcu0","pricing_plan_id":"free"},{"bike_id":"40b0dbf0-87f6-4363-b8e9-d1cac15b6861","system_id":"levelo_inurba_marseille","lat":43.31324,"lon":5.39697,"is_reserved":false,"is_disabled":false,"rental_uris":{"android":"levelo://app?vid=40b0dbf0-87f6-4363-b8e9-d1cac15b6861","ios":"levelo://app?vid=40b0dbf0-87f6-4363-b8e9-d1cac15b6861"},"vehicle_type_id":"4","last_reported":1691251620,"current_range_meters":25200,"station_id":"ce4bgvp2rcd13ifvqcu0","pricing_plan_id":"free"},{"bike_id":"65650c79-122d-4a42-912a-025712d0cb39","system_id":"levelo_inurba_marseille","lat":43.31319,"lon":5.39699,"is_reserved":false,"is_disabled":false,"rental_uris":{"android":"levelo://app?vid=65650c79-122d-4a42-912a-025712d0cb39","ios":"levelo://app?vid=65650c79-122d-4a42-912a-025712d0cb39"},"vehicle_type_id":"4","last_reported":1691251620,"current_range_meters":24800,"station_id":"ce4bgvp2rcd13ifvqcu0","pricing_plan_id":"free"},{"bike_id":"6bf6bfc6-351a-4103-82bc-0b9e0e553956","system_id":"levelo_inurba_marseille","lat":43.31332,"lon":5.39699,"is_reserved":false,"is_disabled":false,"rental_uris":{"android":"levelo://app?vid=6bf6bfc6-351a-4103-82bc-0b9e0e553956","ios":"levelo://app?vid=6bf6bfc6-351a-4103-82bc-0b9e0e553956"},"vehicle_type_id":"4","last_reported":1691251620,"current_range_meters":18800,"station_id":"ce4bgvp2rcd13ifvqcu0","pricing_plan_id":"free"},{"bike_id":"693f8412-bade-46f5-8268-9cd9f6135c13","system_id":"levelo_inurba_marseille","lat":43.30878,"lon":5.39662,"is_reserved":false,"is_disabled":false,"rental_uris":{"android":"levelo://app?vid=693f8412-bade-46f5-8268-9cd9f6135c13","ios":"levelo://app?vid=693f8412-bade-46f5-8268-9cd9f6135c13"},"vehicle_type_id":"4","last_reported":1691251620,"current_range_meters":22400,"station_id":"ce4bh012rcd13ifvqcv0","pricing_plan_id":"free"},{"bike_id":"7bd1f088-c37a-4b2e-ac1f-24d7bbdcd81b","system_id":"levelo_inurba_marseille","lat":43.29529,"lon":5.385581,"is_reserved":false,"is_disabled":false,"rental_uris":{"android":"levelo://app?vid=7bd1f088-c37a-4b2e-ac1f-24d7bbdcd81b","ios":"levelo://app?vid=7bd1f088-c37a-4b2e-ac1f-24d7bbdcd81b"},"vehicle_type_id":"4","last_reported":1691251620,"current_range_meters":9600,"station_id":"ce4bgih2rcd13ifvqba0","pricing_plan_id":"free"},{"bike_id":"81457b97-0652-4889-a785-b00c9dd9b654","system_id":"levelo_inurba_marseille","lat":43.290779,"lon":5.371482,"is_reserved":false,"is_disabled":false,"rental_uris":{"android":"levelo://app?vid=81457b97-0652-4889-a785-b00c9dd9b654","ios":"levelo://app?vid=81457b97-0652-4889-a785-b00c9dd9b654"},"vehicle_type_id":"4","last_reported":1691251620,"current_range_meters":9600,"station_id":"ce4bh5p2rcd13ifvqe4g","pricing_plan_id":"free"},{"bike_id":"2002118c-e982-4f94-b32b-e690f4b55a88","system_id":"levelo_inurba_marseille","lat":43.302008,"lon":5.394694,"is_reserved":false,"is_disabled":false,"rental_uris":{"android":"levelo://app?vid=2002118c-e982-4f94-b32b-e690f4b55a88","ios":"levelo://app?vid=2002118c-e982-4f94-b32b-e690f4b55a88"},"vehicle_type_id":"4","last_reported":1691251620,"current_range_meters":20000,"station_id":"ce4bh0p2rcd13ifvqd70","pricing_plan_id":"free"},{"bike_id":"aed3a5c3-bee0-4147-a50f-45d266ddac66","system_id":"levelo_inurba_marseille","lat":43.290631,"lon":5.359244,"is_reserved":false,"is_disabled":false,"rental_uris":{"android":"levelo://app?vid=aed3a5c3-bee0-4147-a50f-45d266ddac66","ios":"levelo://app?vid=aed3a5c3-bee0-4147-a50f-45d266ddac66"},"vehicle_type_id":"4","last_reported":1691251620,"current_range_meters":22000,"station_id":"ce4bha92rcd13ifvqeg0","pricing_plan_id":"free"},{"bike_id":"f2da44ba-b469-470b-b320-82158941e492","system_id":"levelo_inurba_marseille","lat":43.290624,"lon":5.359245,"is_reserved":false,"is_disabled":false,"rental_uris":{"android":"levelo://app?vid=f2da44ba-b469-470b-b320-82158941e492","ios":"levelo://app?vid=f2da44ba-b469-470b-b320-82158941e492"},"vehicle_type_id":"4","last_reported":1691251620,"current_range_meters":26000,"station_id":"ce4bha92rcd13ifvqeg0","pricing_plan_id":"free"},{"bike_id":"8b8ac84a-ba99-47aa-8563-6dc4f559e6d2","system_id":"levelo_inurba_marseille","lat":43.294153,"lon":5.386305,"is_reserved":false,"is_disabled":false,"rental_uris":{"android":"levelo://app?vid=8b8ac84a-ba99-47aa-8563-6dc4f559e6d2","ios":"levelo://app?vid=8b8ac84a-ba99-47aa-8563-6dc4f559e6d2"},"vehicle_type_id":"4","last_reported":1691251620,"current_range_meters":30000,"station_id":"ce4bh2h2rcd13ifvqdh0","pricing_plan_id":"free"},{"bike_id":"65391ef6-f39b-48ee-8524-56cefbeca83e","system_id":"levelo_inurba_marseille","lat":43.294153,"lon":5.386305,"is_reserved":false,"is_disabled":false,"rental_uris":{"android":"levelo://app?vid=65391ef6-f39b-48ee-8524-56cefbeca83e","ios":"levelo://app?vid=65391ef6-f39b-48ee-8524-56cefbeca83e"},"vehicle_type_id":"4","last_reported":1691251620,"current_range_meters":8000,"station_id":"ce4bh2h2rcd13ifvqdh0","pricing_plan_id":"free"},{"bike_id":"ba18b1cf-bd3c-4ad8-b0f2-3003c14c69b6","system_id":"levelo_inurba_marseille","lat":43.294153,"lon":5.386305,"is_reserved":false,"is_disabled":false,"rental_uris":{"android":"levelo://app?vid=ba18b1cf-bd3c-4ad8-b0f2-3003c14c69b6","ios":"levelo://app?vid=ba18b1cf-bd3c-4ad8-b0f2-3003c14c69b6"},"vehicle_type_id":"4","last_reported":1691251620,"current_range_meters":30400,"station_id":"ce4bh2h2rcd13ifvqdh0","pricing_plan_id":"free"},{"bike_id":"f55823b4-a49d-4dc2-8611-56172dca9d34","system_id":"levelo_inurba_marseille","lat":43.29416,"lon":5.38619,"is_reserved":false,"is_disabled":false,"rental_uris":{"android":"levelo://app?vid=f55823b4-a49d-4dc2-8611-56172dca9d34","ios":"levelo://app?vid=f55823b4-a49d-4dc2-8611-56172dca9d34"},"vehicle_type_id":"4","last_reported":1691251620,"current_range_meters":17600,"station_id":"ce4bh2h2rcd13ifvqdh0","pricing_plan_id":"free"},{"bike_id":"aad7b833-d053-427d-b2c8-a439233e0b51","system_id":"levelo_inurba_marseille","lat":43.294162,"lon":5.386292,"is_reserved":false,"is_disabled":false,"rental_uris":{"android":"levelo://app?vid=aad7b833-d053-427d-b2c8-a439233e0b51","ios":"levelo://app?vid=aad7b833-d053-427d-b2c8-a439233e0b51"},"vehicle_type_id":"4","last_reported":1691251620,"current_range_meters":30800,"station_id":"ce4bh2h2rcd13ifvqdh0","pricing_plan_id":"free"},{"bike_id":"679bab89-e709-4894-a67a-f0926672deb5","system_id":"levelo_inurba_marseille","lat":43.289184,"lon":5.366408,"is_reserved":false,"is_disabled":false,"rental_uris":{"android":"levelo://app?vid=679bab89-e709-4894-a67a-f0926672deb5","ios":"levelo://app?vid=679bab89-e709-4894-a67a-f0926672deb5"},"vehicle_type_id":"4","last_reported":1691251620,"current_range_meters":20400,"station_id":"ce4bhap2rcd13ifvqek0","pricing_plan_id":"free"},{"bike_id":"783d756d-ba4f-4f30-9352-4f77a32d81de","system_id":"levelo_inurba_marseille","lat":43.289468,"lon":5.363719,"is_reserved":false,"is_disabled":false,"rental_uris":{"android":"levelo://app?vid=783d756d-ba4f-4f30-9352-4f77a32d81de","ios":"levelo://app?vid=783d756d-ba4f-4f30-9352-4f77a32d81de"},"vehicle_type_id":"4","last_reported":1691251620,"current_range_meters":12000,"station_id":"ce4bhc92rcd13ifvqetg","pricing_plan_id":"free"},{"bike_id":"0b596cab-a8a9-4588-a069-95ada80e8d42","system_id":"levelo_inurba_marseille","lat":43.287184,"lon":5.37937,"is_reserved":false,"is_disabled":false,"rental_uris":{"android":"levelo://app?vid=0b596cab-a8a9-4588-a069-95ada80e8d42","ios":"levelo://app?vid=0b596cab-a8a9-4588-a069-95ada80e8d42"},"vehicle_type_id":"4","last_reported":1691251620,"current_range_meters":28800,"station_id":"ce4bh9p2rcd13ifvqec0","pricing_plan_id":"free"},{"bike_id":"79a68400-afa6-48b2-bd4b-45482a6d1675","system_id":"levelo_inurba_marseille","lat":43.292642,"lon":5.384254,"is_reserved":false,"is_disabled":false,"rental_uris":{"android":"levelo://app?vid=79a68400-afa6-48b2-bd4b-45482a6d1675","ios":"levelo://app?vid=79a68400-afa6-48b2-bd4b-45482a6d1675"},"vehicle_type_id":"4","last_reported":1691251620,"current_range_meters":2400,"station_id":"ce4bh692rcd13ifvqea0","pricing_plan_id":"free"},{"bike_id":"5e8cae48-20b3-4410-8a22-d5d21db9347c","system_id":"levelo_inurba_marseille","lat":43.30429,"lon":5.39745,"is_reserved":false,"is_disabled":false,"rental_uris":{"android":"levelo://app?vid=5e8cae48-20b3-4410-8a22-d5d21db9347c","ios":"levelo://app?vid=5e8cae48-20b3-4410-8a22-d5d21db9347c"},"vehicle_type_id":"4","last_reported":1691251620,"current_range_meters":0,"station_id":"","pricing_plan_id":"free"},{"bike_id":"2dba05d3-f7a4-4dcc-9133-7e306f42ddbb","system_id":"levelo_inurba_marseille","lat":43.3304,"lon":5.38912,"is_reserved":false,"is_disabled":false,"rental_uris":{"android":"levelo://app?vid=2dba05d3-f7a4-4dcc-9133-7e306f42ddbb","ios":"levelo://app?vid=2dba05d3-f7a4-4dcc-9133-7e306f42ddbb"},"vehicle_type_id":"4","last_reported":1691251620,"current_range_meters":30400,"station_id":"ce4bhr92rcd13ifvqhrg","pricing_plan_id":"free"},{"bike_id":"e6c6e4e8-edee-449e-8936-76c8ef3752c4","system_id":"levelo_inurba_marseille","lat":43.33041,"lon":5.38916,"is_reserved":false,"is_disabled":false,"rental_uris":{"android":"levelo://app?vid=e6c6e4e8-edee-449e-8936-76c8ef3752c4","ios":"levelo://app?vid=e6c6e4e8-edee-449e-8936-76c8ef3752c4"},"vehicle_type_id":"4","last_reported":1691251620,"current_range_meters":19200,"station_id":"ce4bhr92rcd13ifvqhrg","pricing_plan_id":"free"},{"bike_id":"98f910d2-52f4-4465-977e-10142d8cca43","system_id":"levelo_inurba_marseille","lat":43.3304,"lon":5.38918,"is_reserved":false,"is_disabled":false,"rental_uris":{"android":"levelo://app?vid=98f910d2-52f4-4465-977e-10142d8cca43","ios":"levelo://app?vid=98f910d2-52f4-4465-977e-10142d8cca43"},"vehicle_type_id":"4","last_reported":1691251620,"current_range_meters":16400,"station_id":"ce4bhr92rcd13ifvqhrg","pricing_plan_id":"free"},{"bike_id":"20cf3f6d-acf4-4653-bf24-baa04253f77a","system_id":"levelo_inurba_marseille","lat":43.33043,"lon":5.38915,"is_reserved":false,"is_disabled":false,"rental_uris":{"android":"levelo://app?vid=20cf3f6d-acf4-4653-bf24-baa04253f77a","ios":"levelo://app?vid=20cf3f6d-acf4-4653-bf24-baa04253f77a"},"vehicle_type_id":"4","last_reported":1691251620,"current_range_meters":14000,"station_id":"ce4bhr92rcd13ifvqhrg","pricing_plan_id":"free"},{"bike_id":"cedbc9c4-3cd8-4974-be60-104359550a71","system_id":"levelo_inurba_marseille","lat":43.33048,"lon":5.3891,"is_reserved":false,"is_disabled":false,"rental_uris":{"android":"levelo://app?vid=cedbc9c4-3cd8-4974-be60-104359550a71","ios":"levelo://app?vid=cedbc9c4-3cd8-4974-be60-104359550a71"},"vehicle_type_id":"4","last_reported":1691251620,"current_range_meters":30800,"station_id":"ce4bhr92rcd13ifvqhrg","pricing_plan_id":"free"},{"bike_id":"3468d6ee-41ad-4796-b726-52055f3c03fd","system_id":"levelo_inurba_marseille","lat":43.33045,"lon":5.38915,"is_reserved":false,"is_disabled":false,"rental_uris":{"android":"levelo://app?vid=3468d6ee-41ad-4796-b726-52055f3c03fd","ios":"levelo://app?vid=3468d6ee-41ad-4796-b726-52055f3c03fd"},"vehicle_type_id":"4","last_reported":1691251620,"current_range_meters":27200,"station_id":"ce4bhr92rcd13ifvqhrg","pricing_plan_id":"free"},{"bike_id":"976f718a-bfdb-4480-a757-e5b9a5d1a5d6","system_id":"levelo_inurba_marseille","lat":43.33045,"lon":5.38916,"is_reserved":false,"is_disabled":false,"rental_uris":{"android":"levelo://app?vid=976f718a-bfdb-4480-a757-e5b9a5d1a5d6","ios":"levelo://app?vid=976f718a-bfdb-4480-a757-e5b9a5d1a5d6"},"vehicle_type_id":"4","last_reported":1691251620,"current_range_meters":24800,"station_id":"ce4bhr92rcd13ifvqhrg","pricing_plan_id":"free"},{"bike_id":"f67edc25-bcc7-41fb-8431-1add679b0933","system_id":"levelo_inurba_marseille","lat":43.33045,"lon":5.38918,"is_reserved":false,"is_disabled":false,"rental_uris":{"android":"levelo://app?vid=f67edc25-bcc7-41fb-8431-1add679b0933","ios":"levelo://app?vid=f67edc25-bcc7-41fb-8431-1add679b0933"},"vehicle_type_id":"4","last_reported":1691251620,"current_range_meters":15600,"station_id":"ce4bhr92rcd13ifvqhrg","pricing_plan_id":"free"},{"bike_id":"38c1adea-6867-4940-9699-a628b1958570","system_id":"levelo_inurba_marseille","lat":43.33047,"lon":5.38915,"is_reserved":false,"is_disabled":false,"rental_uris":{"android":"levelo://app?vid=38c1adea-6867-4940-9699-a628b1958570","ios":"levelo://app?vid=38c1adea-6867-4940-9699-a628b1958570"},"vehicle_type_id":"4","last_reported":1691251620,"current_range_meters":28000,"station_id":"ce4bhr92rcd13ifvqhrg","pricing_plan_id":"free"},{"bike_id":"2f2d42a2-8de0-405f-9429-d3eae654394c","system_id":"levelo_inurba_marseille","lat":43.33045,"lon":5.38919,"is_reserved":false,"is_disabled":false,"rental_uris":{"android":"levelo://app?vid=2f2d42a2-8de0-405f-9429-d3eae654394c","ios":"levelo://app?vid=2f2d42a2-8de0-405f-9429-d3eae654394c"},"vehicle_type_id":"4","last_reported":1691251620,"current_range_meters":16400,"station_id":"ce4bhr92rcd13ifvqhrg","pricing_plan_id":"free"},{"bike_id":"34fc0bae-b089-42d1-99d0-10d5b39f2b41","system_id":"levelo_inurba_marseille","lat":43.33048,"lon":5.38915,"is_reserved":false,"is_disabled":false,"rental_uris":{"android":"levelo://app?vid=34fc0bae-b089-42d1-99d0-10d5b39f2b41","ios":"levelo://app?vid=34fc0bae-b089-42d1-99d0-10d5b39f2b41"},"vehicle_type_id":"4","last_reported":1691251620,"current_range_meters":21600,"station_id":"ce4bhr92rcd13ifvqhrg","pricing_plan_id":"free"},{"bike_id":"37fde894-3336-4087-bf88-b0989bbc514a","system_id":"levelo_inurba_marseille","lat":43.33047,"lon":5.38917,"is_reserved":false,"is_disabled":false,"rental_uris":{"android":"levelo://app?vid=37fde894-3336-4087-bf88-b0989bbc514a","ios":"levelo://app?vid=37fde894-3336-4087-bf88-b0989bbc514a"},"vehicle_type_id":"4","last_reported":1691251620,"current_range_meters":30800,"station_id":"ce4bhr92rcd13ifvqhrg","pricing_plan_id":"free"},{"bike_id":"00b2dcdc-2882-40a1-9132-89c3ec15cf18","system_id":"levelo_inurba_marseille","lat":43.33046,"lon":5.38919,"is_reserved":false,"is_disabled":false,"rental_uris":{"android":"levelo://app?vid=00b2dcdc-2882-40a1-9132-89c3ec15cf18","ios":"levelo://app?vid=00b2dcdc-2882-40a1-9132-89c3ec15cf18"},"vehicle_type_id":"4","last_reported":1691251620,"current_range_meters":14000,"station_id":"ce4bhr92rcd13ifvqhrg","pricing_plan_id":"free"},{"bike_id":"ad620b6f-813d-4144-95ba-f0686e973f86","system_id":"levelo_inurba_marseille","lat":43.290103,"lon":5.356114,"is_reserved":false,"is_disabled":false,"rental_uris":{"android":"levelo://app?vid=ad620b6f-813d-4144-95ba-f0686e973f86","ios":"levelo://app?vid=ad620b6f-813d-4144-95ba-f0686e973f86"},"vehicle_type_id":"4","last_reported":1691251620,"current_range_meters":2800,"station_id":"ce4bhb92rcd13ifvqen0","pricing_plan_id":"free"},{"bike_id":"9ce62819-7d94-47c9-aff2-f56e39f0ba59","system_id":"levelo_inurba_marseille","lat":43.33046,"lon":5.38928,"is_reserved":false,"is_disabled":false,"rental_uris":{"android":"levelo://app?vid=9ce62819-7d94-47c9-aff2-f56e39f0ba59","ios":"levelo://app?vid=9ce62819-7d94-47c9-aff2-f56e39f0ba59"},"vehicle_type_id":"4","last_reported":1691251620,"current_range_meters":27200,"station_id":"ce4bhr92rcd13ifvqhrg","pricing_plan_id":"free"},{"bike_id":"58d9daa4-9c4c-4dbc-a91c-3eee752552f5","system_id":"levelo_inurba_marseille","lat":43.30468,"lon":5.39808,"is_reserved":false,"is_disabled":false,"rental_uris":{"android":"levelo://app?vid=58d9daa4-9c4c-4dbc-a91c-3eee752552f5","ios":"levelo://app?vid=58d9daa4-9c4c-4dbc-a91c-3eee752552f5"},"vehicle_type_id":"4","last_reported":1691251620,"current_range_meters":17200,"station_id":"","pricing_plan_id":"free"},{"bike_id":"05bf2cc0-c80b-4d3b-9303-5cea93148e89","system_id":"levelo_inurba_marseille","lat":43.290995,"lon":5.381361,"is_reserved":false,"is_disabled":false,"rental_uris":{"android":"levelo://app?vid=05bf2cc0-c80b-4d3b-9303-5cea93148e89","ios":"levelo://app?vid=05bf2cc0-c80b-4d3b-9303-5cea93148e89"},"vehicle_type_id":"4","last_reported":1691251620,"current_range_meters":28800,"station_id":"ce4bh512rcd13ifvqe2g","pricing_plan_id":"free"},{"bike_id":"36274bb8-6fab-48e0-ad87-f67448bd8fa3","system_id":"levelo_inurba_marseille","lat":43.295169,"lon":5.390426,"is_reserved":false,"is_disabled":false,"rental_uris":{"android":"levelo://app?vid=36274bb8-6fab-48e0-ad87-f67448bd8fa3","ios":"levelo://app?vid=36274bb8-6fab-48e0-ad87-f67448bd8fa3"},"vehicle_type_id":"4","last_reported":1691251620,"current_range_meters":4400,"station_id":"ce4bh3p2rcd13ifvqdp0","pricing_plan_id":"free"},{"bike_id":"acbf4240-7437-4793-b7c5-cb2873c5bab8","system_id":"levelo_inurba_marseille","lat":43.29031,"lon":5.38129,"is_reserved":false,"is_disabled":false,"rental_uris":{"android":"levelo://app?vid=acbf4240-7437-4793-b7c5-cb2873c5bab8","ios":"levelo://app?vid=acbf4240-7437-4793-b7c5-cb2873c5bab8"},"vehicle_type_id":"4","last_reported":1691251620,"current_range_meters":24000,"station_id":"ce4bh4p2rcd13ifvqe1g","pricing_plan_id":"free"},{"bike_id":"e18b7869-93b0-4417-b9a7-b39f150b4ea6","system_id":"levelo_inurba_marseille","lat":43.312609,"lon":5.401662,"is_reserved":false,"is_disabled":false,"rental_uris":{"android":"levelo://app?vid=e18b7869-93b0-4417-b9a7-b39f150b4ea6","ios":"levelo://app?vid=e18b7869-93b0-4417-b9a7-b39f150b4ea6"},"vehicle_type_id":"4","last_reported":1691251620,"current_range_meters":24400,"station_id":"ce4bh092rcd13ifvqd30","pricing_plan_id":"free"},{"bike_id":"8c6f0bb9-fd92-422e-baff-0bb812929630","system_id":"levelo_inurba_marseille","lat":43.3092,"lon":5.40138,"is_reserved":false,"is_disabled":false,"rental_uris":{"android":"levelo://app?vid=8c6f0bb9-fd92-422e-baff-0bb812929630","ios":"levelo://app?vid=8c6f0bb9-fd92-422e-baff-0bb812929630"},"vehicle_type_id":"4","last_reported":1691251620,"current_range_meters":14000,"station_id":"ce4bgvp2rcd13ifvqct0","pricing_plan_id":"free"},{"bike_id":"c1899598-acff-4cca-b369-c0dcbdf0f5c6","system_id":"levelo_inurba_marseille","lat":43.31269,"lon":5.40173,"is_reserved":false,"is_disabled":false,"rental_uris":{"android":"levelo://app?vid=c1899598-acff-4cca-b369-c0dcbdf0f5c6","ios":"levelo://app?vid=c1899598-acff-4cca-b369-c0dcbdf0f5c6"},"vehicle_type_id":"4","last_reported":1691251620,"current_range_meters":6000,"station_id":"ce4bh092rcd13ifvqd30","pricing_plan_id":"free"},{"bike_id":"1e920841-0f40-4f31-ab58-077784025117","system_id":"levelo_inurba_marseille","lat":43.3094,"lon":5.401444,"is_reserved":false,"is_disabled":false,"rental_uris":{"android":"levelo://app?vid=1e920841-0f40-4f31-ab58-077784025117","ios":"levelo://app?vid=1e920841-0f40-4f31-ab58-077784025117"},"vehicle_type_id":"4","last_reported":1691251620,"current_range_meters":26400,"station_id":"","pricing_plan_id":"free"},{"bike_id":"e05c8673-5290-4205-865e-44db8907b0d6","system_id":"levelo_inurba_marseille","lat":43.30925,"lon":5.40144,"is_reserved":false,"is_disabled":false,"rental_uris":{"android":"levelo://app?vid=e05c8673-5290-4205-865e-44db8907b0d6","ios":"levelo://app?vid=e05c8673-5290-4205-865e-44db8907b0d6"},"vehicle_type_id":"4","last_reported":1691251620,"current_range_meters":7200,"station_id":"ce4bgvp2rcd13ifvqct0","pricing_plan_id":"free"},{"bike_id":"ca3636d8-e5e5-4431-86a4-6cdf2899d559","system_id":"levelo_inurba_marseille","lat":43.301117,"lon":5.398795,"is_reserved":false,"is_disabled":false,"rental_uris":{"android":"levelo://app?vid=ca3636d8-e5e5-4431-86a4-6cdf2899d559","ios":"levelo://app?vid=ca3636d8-e5e5-4431-86a4-6cdf2899d559"},"vehicle_type_id":"4","last_reported":1691251620,"current_range_meters":4400,"station_id":"ce4bh0h2rcd13ifvqd40","pricing_plan_id":"free"},{"bike_id":"563a145d-8b15-45d6-af23-50d63e7bfb30","system_id":"levelo_inurba_marseille","lat":43.298681,"lon":5.397225,"is_reserved":false,"is_disabled":false,"rental_uris":{"android":"levelo://app?vid=563a145d-8b15-45d6-af23-50d63e7bfb30","ios":"levelo://app?vid=563a145d-8b15-45d6-af23-50d63e7bfb30"},"vehicle_type_id":"4","last_reported":1691251620,"current_range_meters":2000,"station_id":"ce4bh0h2rcd13ifvqd50","pricing_plan_id":"free"},{"bike_id":"21e804fd-f7b4-4423-8d39-6a4e4f5d0c5d","system_id":"levelo_inurba_marseille","lat":43.298681,"lon":5.397225,"is_reserved":false,"is_disabled":false,"rental_uris":{"android":"levelo://app?vid=21e804fd-f7b4-4423-8d39-6a4e4f5d0c5d","ios":"levelo://app?vid=21e804fd-f7b4-4423-8d39-6a4e4f5d0c5d"},"vehicle_type_id":"4","last_reported":1691251620,"current_range_meters":22000,"station_id":"ce4bh0h2rcd13ifvqd50","pricing_plan_id":"free"},{"bike_id":"75199276-b705-4ad7-b6a9-49aeaa84628a","system_id":"levelo_inurba_marseille","lat":43.286591,"lon":5.363346,"is_reserved":false,"is_disabled":false,"rental_uris":{"android":"levelo://app?vid=75199276-b705-4ad7-b6a9-49aeaa84628a","ios":"levelo://app?vid=75199276-b705-4ad7-b6a9-49aeaa84628a"},"vehicle_type_id":"4","last_reported":1691251620,"current_range_meters":32000,"station_id":"ce4bhah2rcd13ifvqej0","pricing_plan_id":"free"},{"bike_id":"4e073345-b5c4-4af0-8794-af573969c396","system_id":"levelo_inurba_marseille","lat":43.286591,"lon":5.363346,"is_reserved":false,"is_disabled":false,"rental_uris":{"android":"levelo://app?vid=4e073345-b5c4-4af0-8794-af573969c396","ios":"levelo://app?vid=4e073345-b5c4-4af0-8794-af573969c396"},"vehicle_type_id":"4","last_reported":1691251620,"current_range_meters":17600,"station_id":"ce4bhah2rcd13ifvqej0","pricing_plan_id":"free"},{"bike_id":"edddba57-ed1b-449e-8372-be513d8f3715","system_id":"levelo_inurba_marseille","lat":43.286593,"lon":5.363346,"is_reserved":false,"is_disabled":false,"rental_uris":{"android":"levelo://app?vid=edddba57-ed1b-449e-8372-be513d8f3715","ios":"levelo://app?vid=edddba57-ed1b-449e-8372-be513d8f3715"},"vehicle_type_id":"4","last_reported":1691251620,"current_range_meters":27600,"station_id":"ce4bhah2rcd13ifvqej0","pricing_plan_id":"free"},{"bike_id":"5c375dc2-21ca-4370-9b41-516033c01c96","system_id":"levelo_inurba_marseille","lat":43.286591,"lon":5.363346,"is_reserved":false,"is_disabled":false,"rental_uris":{"android":"levelo://app?vid=5c375dc2-21ca-4370-9b41-516033c01c96","ios":"levelo://app?vid=5c375dc2-21ca-4370-9b41-516033c01c96"},"vehicle_type_id":"4","last_reported":1691251620,"current_range_meters":5600,"station_id":"ce4bhah2rcd13ifvqej0","pricing_plan_id":"free"},{"bike_id":"57c38b64-251b-4739-83c9-7b7a858d8798","system_id":"levelo_inurba_marseille","lat":43.295196,"lon":5.39397,"is_reserved":false,"is_disabled":false,"rental_uris":{"android":"levelo://app?vid=57c38b64-251b-4739-83c9-7b7a858d8798","ios":"levelo://app?vid=57c38b64-251b-4739-83c9-7b7a858d8798"},"vehicle_type_id":"4","last_reported":1691251620,"current_range_meters":16000,"station_id":"ce4bh292rcd13ifvqdf0","pricing_plan_id":"free"},{"bike_id":"aeabdbfa-b323-46d6-b7dc-a37c94a280b2","system_id":"levelo_inurba_marseille","lat":43.29513,"lon":5.39397,"is_reserved":false,"is_disabled":false,"rental_uris":{"android":"levelo://app?vid=aeabdbfa-b323-46d6-b7dc-a37c94a280b2","ios":"levelo://app?vid=aeabdbfa-b323-46d6-b7dc-a37c94a280b2"},"vehicle_type_id":"4","last_reported":1691251620,"current_range_meters":14400,"station_id":"ce4bh292rcd13ifvqdf0","pricing_plan_id":"free"},{"bike_id":"7b9e2d57-7c2f-4652-8ec0-ee4d147afe24","system_id":"levelo_inurba_marseille","lat":43.302548,"lon":5.400568,"is_reserved":false,"is_disabled":false,"rental_uris":{"android":"levelo://app?vid=7b9e2d57-7c2f-4652-8ec0-ee4d147afe24","ios":"levelo://app?vid=7b9e2d57-7c2f-4652-8ec0-ee4d147afe24"},"vehicle_type_id":"4","last_reported":1691251620,"current_range_meters":10400,"station_id":"","pricing_plan_id":"free"},{"bike_id":"fbf7b980-1739-4218-9347-5e9d2f11b81e","system_id":"levelo_inurba_marseille","lat":43.290292,"lon":5.386391,"is_reserved":false,"is_disabled":false,"rental_uris":{"android":"levelo://app?vid=fbf7b980-1739-4218-9347-5e9d2f11b81e","ios":"levelo://app?vid=fbf7b980-1739-4218-9347-5e9d2f11b81e"},"vehicle_type_id":"4","last_reported":1691251620,"current_range_meters":24000,"station_id":"","pricing_plan_id":"free"},{"bike_id":"63a0b6df-d3a5-4579-beea-da9364c6954c","system_id":"levelo_inurba_marseille","lat":43.29028,"lon":5.38638,"is_reserved":false,"is_disabled":false,"rental_uris":{"android":"levelo://app?vid=63a0b6df-d3a5-4579-beea-da9364c6954c","ios":"levelo://app?vid=63a0b6df-d3a5-4579-beea-da9364c6954c"},"vehicle_type_id":"4","last_reported":1691251620,"current_range_meters":4800,"station_id":"ce4bh4p2rcd13ifvqe0g","pricing_plan_id":"free"},{"bike_id":"e390a0d3-8f05-40bc-b47b-87a85559742c","system_id":"levelo_inurba_marseille","lat":43.29027,"lon":5.38641,"is_reserved":false,"is_disabled":false,"rental_uris":{"android":"levelo://app?vid=e390a0d3-8f05-40bc-b47b-87a85559742c","ios":"levelo://app?vid=e390a0d3-8f05-40bc-b47b-87a85559742c"},"vehicle_type_id":"4","last_reported":1691251620,"current_range_meters":16800,"station_id":"ce4bh4p2rcd13ifvqe0g","pricing_plan_id":"free"},{"bike_id":"0aa44a0e-9ba4-40b0-b959-690120d75cc2","system_id":"levelo_inurba_marseille","lat":43.290306,"lon":5.386557,"is_reserved":false,"is_disabled":false,"rental_uris":{"android":"levelo://app?vid=0aa44a0e-9ba4-40b0-b959-690120d75cc2","ios":"levelo://app?vid=0aa44a0e-9ba4-40b0-b959-690120d75cc2"},"vehicle_type_id":"4","last_reported":1691251620,"current_range_meters":25600,"station_id":"ce4bh4p2rcd13ifvqe0g","pricing_plan_id":"free"},{"bike_id":"6f55646d-c5a1-40ed-8c7b-27081eb80385","system_id":"levelo_inurba_marseille","lat":43.29356,"lon":5.39302,"is_reserved":false,"is_disabled":false,"rental_uris":{"android":"levelo://app?vid=6f55646d-c5a1-40ed-8c7b-27081eb80385","ios":"levelo://app?vid=6f55646d-c5a1-40ed-8c7b-27081eb80385"},"vehicle_type_id":"4","last_reported":1691251620,"current_range_meters":18000,"station_id":"","pricing_plan_id":"free"},{"bike_id":"1b882a1a-7990-4775-b442-ed9e4f6a8731","system_id":"levelo_inurba_marseille","lat":43.287184,"lon":5.37937,"is_reserved":false,"is_disabled":false,"rental_uris":{"android":"levelo://app?vid=1b882a1a-7990-4775-b442-ed9e4f6a8731","ios":"levelo://app?vid=1b882a1a-7990-4775-b442-ed9e4f6a8731"},"vehicle_type_id":"4","last_reported":1691251620,"current_range_meters":22400,"station_id":"ce4bh9p2rcd13ifvqec0","pricing_plan_id":"free"},{"bike_id":"89971848-475d-42c3-a290-8763ea6e6dab","system_id":"levelo_inurba_marseille","lat":43.287184,"lon":5.37937,"is_reserved":false,"is_disabled":false,"rental_uris":{"android":"levelo://app?vid=89971848-475d-42c3-a290-8763ea6e6dab","ios":"levelo://app?vid=89971848-475d-42c3-a290-8763ea6e6dab"},"vehicle_type_id":"4","last_reported":1691251620,"current_range_meters":20800,"station_id":"ce4bh9p2rcd13ifvqec0","pricing_plan_id":"free"},{"bike_id":"0bde4f9c-ddd5-4862-9af5-4d49f667821c","system_id":"levelo_inurba_marseille","lat":43.287184,"lon":5.37937,"is_reserved":false,"is_disabled":false,"rental_uris":{"android":"levelo://app?vid=0bde4f9c-ddd5-4862-9af5-4d49f667821c","ios":"levelo://app?vid=0bde4f9c-ddd5-4862-9af5-4d49f667821c"},"vehicle_type_id":"4","last_reported":1691251620,"current_range_meters":800,"station_id":"ce4bh9p2rcd13ifvqec0","pricing_plan_id":"free"},{"bike_id":"bed13a94-cd59-4c15-a147-62e73286fb27","system_id":"levelo_inurba_marseille","lat":43.3165,"lon":5.40439,"is_reserved":false,"is_disabled":false,"rental_uris":{"android":"levelo://app?vid=bed13a94-cd59-4c15-a147-62e73286fb27","ios":"levelo://app?vid=bed13a94-cd59-4c15-a147-62e73286fb27"},"vehicle_type_id":"4","last_reported":1691251620,"current_range_meters":29600,"station_id":"ce4bh012rcd13ifvqd00","pricing_plan_id":"free"},{"bike_id":"7df8fdb5-62c5-49f7-ad18-1dee7eb3a2bf","system_id":"levelo_inurba_marseille","lat":43.31645,"lon":5.40443,"is_reserved":false,"is_disabled":false,"rental_uris":{"android":"levelo://app?vid=7df8fdb5-62c5-49f7-ad18-1dee7eb3a2bf","ios":"levelo://app?vid=7df8fdb5-62c5-49f7-ad18-1dee7eb3a2bf"},"vehicle_type_id":"4","last_reported":1691251620,"current_range_meters":21600,"station_id":"ce4bh012rcd13ifvqd00","pricing_plan_id":"free"},{"bike_id":"7b78d55e-e99c-4fa7-968a-c672d6912f00","system_id":"levelo_inurba_marseille","lat":43.284534,"lon":5.358662,"is_reserved":false,"is_disabled":false,"rental_uris":{"android":"levelo://app?vid=7b78d55e-e99c-4fa7-968a-c672d6912f00","ios":"levelo://app?vid=7b78d55e-e99c-4fa7-968a-c672d6912f00"},"vehicle_type_id":"4","last_reported":1691251620,"current_range_meters":31200,"station_id":"ce4bhah2rcd13ifvqei0","pricing_plan_id":"free"},{"bike_id":"daabc7da-57dd-4649-a754-5c9076f425d0","system_id":"levelo_inurba_marseille","lat":43.28622,"lon":5.35104,"is_reserved":false,"is_disabled":false,"rental_uris":{"android":"levelo://app?vid=daabc7da-57dd-4649-a754-5c9076f425d0","ios":"levelo://app?vid=daabc7da-57dd-4649-a754-5c9076f425d0"},"vehicle_type_id":"4","last_reported":1691251620,"current_range_meters":28000,"station_id":"ce4bhch2rcd13ifvqeug","pricing_plan_id":"free"},{"bike_id":"d7c750dc-4241-4adc-a615-ebf6445b8a77","system_id":"levelo_inurba_marseille","lat":43.28617,"lon":5.35109,"is_reserved":false,"is_disabled":false,"rental_uris":{"android":"levelo://app?vid=d7c750dc-4241-4adc-a615-ebf6445b8a77","ios":"levelo://app?vid=d7c750dc-4241-4adc-a615-ebf6445b8a77"},"vehicle_type_id":"4","last_reported":1691251620,"current_range_meters":11200,"station_id":"ce4bhch2rcd13ifvqeug","pricing_plan_id":"free"},{"bike_id":"f80bbad8-768e-44af-8ba2-36fdb3a38e19","system_id":"levelo_inurba_marseille","lat":43.28616,"lon":5.35105,"is_reserved":false,"is_disabled":false,"rental_uris":{"android":"levelo://app?vid=f80bbad8-768e-44af-8ba2-36fdb3a38e19","ios":"levelo://app?vid=f80bbad8-768e-44af-8ba2-36fdb3a38e19"},"vehicle_type_id":"4","last_reported":1691251620,"current_range_meters":6800,"station_id":"ce4bhch2rcd13ifvqeug","pricing_plan_id":"free"},{"bike_id":"cdf78fbc-b727-4350-8c01-23b712e8faf2","system_id":"levelo_inurba_marseille","lat":43.28613,"lon":5.35112,"is_reserved":false,"is_disabled":false,"rental_uris":{"android":"levelo://app?vid=cdf78fbc-b727-4350-8c01-23b712e8faf2","ios":"levelo://app?vid=cdf78fbc-b727-4350-8c01-23b712e8faf2"},"vehicle_type_id":"4","last_reported":1691251620,"current_range_meters":10400,"station_id":"ce4bhch2rcd13ifvqeug","pricing_plan_id":"free"},{"bike_id":"c5b7fca3-e3d2-48c7-9a26-207f07189c9f","system_id":"levelo_inurba_marseille","lat":43.28616,"lon":5.35102,"is_reserved":false,"is_disabled":false,"rental_uris":{"android":"levelo://app?vid=c5b7fca3-e3d2-48c7-9a26-207f07189c9f","ios":"levelo://app?vid=c5b7fca3-e3d2-48c7-9a26-207f07189c9f"},"vehicle_type_id":"4","last_reported":1691251620,"current_range_meters":0,"station_id":"ce4bhch2rcd13ifvqeug","pricing_plan_id":"free"},{"bike_id":"ad856b7e-7032-4470-8b6a-1638c1127339","system_id":"levelo_inurba_marseille","lat":43.286132,"lon":5.351101,"is_reserved":false,"is_disabled":false,"rental_uris":{"android":"levelo://app?vid=ad856b7e-7032-4470-8b6a-1638c1127339","ios":"levelo://app?vid=ad856b7e-7032-4470-8b6a-1638c1127339"},"vehicle_type_id":"4","last_reported":1691251620,"current_range_meters":5200,"station_id":"ce4bhch2rcd13ifvqeug","pricing_plan_id":"free"},{"bike_id":"e2f9ea48-4b09-469e-b882-0bdd2ad3f522","system_id":"levelo_inurba_marseille","lat":43.28615,"lon":5.35104,"is_reserved":false,"is_disabled":false,"rental_uris":{"android":"levelo://app?vid=e2f9ea48-4b09-469e-b882-0bdd2ad3f522","ios":"levelo://app?vid=e2f9ea48-4b09-469e-b882-0bdd2ad3f522"},"vehicle_type_id":"4","last_reported":1691251620,"current_range_meters":13200,"station_id":"ce4bhch2rcd13ifvqeug","pricing_plan_id":"free"},{"bike_id":"efb7bb83-0753-4dfa-9a3c-2608729d76b0","system_id":"levelo_inurba_marseille","lat":43.286109,"lon":5.35114,"is_reserved":false,"is_disabled":false,"rental_uris":{"android":"levelo://app?vid=efb7bb83-0753-4dfa-9a3c-2608729d76b0","ios":"levelo://app?vid=efb7bb83-0753-4dfa-9a3c-2608729d76b0"},"vehicle_type_id":"4","last_reported":1691251620,"current_range_meters":15600,"station_id":"ce4bhch2rcd13ifvqeug","pricing_plan_id":"free"},{"bike_id":"db503c4a-a327-402c-94f4-b83fa9ca57a7","system_id":"levelo_inurba_marseille","lat":43.28614,"lon":5.35103,"is_reserved":false,"is_disabled":false,"rental_uris":{"android":"levelo://app?vid=db503c4a-a327-402c-94f4-b83fa9ca57a7","ios":"levelo://app?vid=db503c4a-a327-402c-94f4-b83fa9ca57a7"},"vehicle_type_id":"4","last_reported":1691251620,"current_range_meters":27200,"station_id":"ce4bhch2rcd13ifvqeug","pricing_plan_id":"free"},{"bike_id":"9de85def-13fe-454c-a86e-67c49fad86de","system_id":"levelo_inurba_marseille","lat":43.28614,"lon":5.35103,"is_reserved":false,"is_disabled":false,"rental_uris":{"android":"levelo://app?vid=9de85def-13fe-454c-a86e-67c49fad86de","ios":"levelo://app?vid=9de85def-13fe-454c-a86e-67c49fad86de"},"vehicle_type_id":"4","last_reported":1691251620,"current_range_meters":25600,"station_id":"ce4bhch2rcd13ifvqeug","pricing_plan_id":"free"},{"bike_id":"0dd6cd48-c9ad-4924-b4ff-44d4aa4e5529","system_id":"levelo_inurba_marseille","lat":43.28613,"lon":5.35106,"is_reserved":false,"is_disabled":false,"rental_uris":{"android":"levelo://app?vid=0dd6cd48-c9ad-4924-b4ff-44d4aa4e5529","ios":"levelo://app?vid=0dd6cd48-c9ad-4924-b4ff-44d4aa4e5529"},"vehicle_type_id":"4","last_reported":1691251620,"current_range_meters":22400,"station_id":"ce4bhch2rcd13ifvqeug","pricing_plan_id":"free"},{"bike_id":"e431f523-df62-41e2-bd37-dfc917fd59a0","system_id":"levelo_inurba_marseille","lat":43.285856,"lon":5.350771,"is_reserved":false,"is_disabled":false,"rental_uris":{"android":"levelo://app?vid=e431f523-df62-41e2-bd37-dfc917fd59a0","ios":"levelo://app?vid=e431f523-df62-41e2-bd37-dfc917fd59a0"},"vehicle_type_id":"4","last_reported":1691251620,"current_range_meters":22400,"station_id":"ce4bhch2rcd13ifvqeug","pricing_plan_id":"free"},{"bike_id":"a12f67b3-18b9-4ce0-9fd8-4b38a910537f","system_id":"levelo_inurba_marseille","lat":43.28612,"lon":5.35106,"is_reserved":false,"is_disabled":false,"rental_uris":{"android":"levelo://app?vid=a12f67b3-18b9-4ce0-9fd8-4b38a910537f","ios":"levelo://app?vid=a12f67b3-18b9-4ce0-9fd8-4b38a910537f"},"vehicle_type_id":"4","last_reported":1691251620,"current_range_meters":12800,"station_id":"ce4bhch2rcd13ifvqeug","pricing_plan_id":"free"},{"bike_id":"aa61612a-3c27-4121-a389-0d66f08dad55","system_id":"levelo_inurba_marseille","lat":43.285856,"lon":5.350771,"is_reserved":false,"is_disabled":false,"rental_uris":{"android":"levelo://app?vid=aa61612a-3c27-4121-a389-0d66f08dad55","ios":"levelo://app?vid=aa61612a-3c27-4121-a389-0d66f08dad55"},"vehicle_type_id":"4","last_reported":1691251620,"current_range_meters":11200,"station_id":"ce4bhch2rcd13ifvqeug","pricing_plan_id":"free"},{"bike_id":"f162fc97-e5ad-4213-bf2d-00f486fc23a4","system_id":"levelo_inurba_marseille","lat":43.28614,"lon":5.35099,"is_reserved":false,"is_disabled":false,"rental_uris":{"android":"levelo://app?vid=f162fc97-e5ad-4213-bf2d-00f486fc23a4","ios":"levelo://app?vid=f162fc97-e5ad-4213-bf2d-00f486fc23a4"},"vehicle_type_id":"4","last_reported":1691251620,"current_range_meters":25200,"station_id":"ce4bhch2rcd13ifvqeug","pricing_plan_id":"free"},{"bike_id":"c6076a00-007e-445d-a238-41d464260c23","system_id":"levelo_inurba_marseille","lat":43.2861,"lon":5.35108,"is_reserved":false,"is_disabled":false,"rental_uris":{"android":"levelo://app?vid=c6076a00-007e-445d-a238-41d464260c23","ios":"levelo://app?vid=c6076a00-007e-445d-a238-41d464260c23"},"vehicle_type_id":"4","last_reported":1691251620,"current_range_meters":17600,"station_id":"ce4bhch2rcd13ifvqeug","pricing_plan_id":"free"},{"bike_id":"bbd13f55-12c2-40b4-90d3-ce7dc7beb321","system_id":"levelo_inurba_marseille","lat":43.285856,"lon":5.350771,"is_reserved":false,"is_disabled":false,"rental_uris":{"android":"levelo://app?vid=bbd13f55-12c2-40b4-90d3-ce7dc7beb321","ios":"levelo://app?vid=bbd13f55-12c2-40b4-90d3-ce7dc7beb321"},"vehicle_type_id":"4","last_reported":1691251620,"current_range_meters":29200,"station_id":"ce4bhch2rcd13ifvqeug","pricing_plan_id":"free"},{"bike_id":"095911da-4ce8-4e6d-bdba-81c7247c01a4","system_id":"levelo_inurba_marseille","lat":43.28611,"lon":5.351,"is_reserved":false,"is_disabled":false,"rental_uris":{"android":"levelo://app?vid=095911da-4ce8-4e6d-bdba-81c7247c01a4","ios":"levelo://app?vid=095911da-4ce8-4e6d-bdba-81c7247c01a4"},"vehicle_type_id":"4","last_reported":1691251620,"current_range_meters":24800,"station_id":"ce4bhch2rcd13ifvqeug","pricing_plan_id":"free"},{"bike_id":"e4376a78-032d-42f5-ab9e-b72f8c47cba5","system_id":"levelo_inurba_marseille","lat":43.28609,"lon":5.35101,"is_reserved":false,"is_disabled":false,"rental_uris":{"android":"levelo://app?vid=e4376a78-032d-42f5-ab9e-b72f8c47cba5","ios":"levelo://app?vid=e4376a78-032d-42f5-ab9e-b72f8c47cba5"},"vehicle_type_id":"4","last_reported":1691251620,"current_range_meters":21600,"station_id":"ce4bhch2rcd13ifvqeug","pricing_plan_id":"free"},{"bike_id":"851a729d-3e87-4cb2-9af2-978116fdf7c0","system_id":"levelo_inurba_marseille","lat":43.283998,"lon":5.375062,"is_reserved":false,"is_disabled":false,"rental_uris":{"android":"levelo://app?vid=851a729d-3e87-4cb2-9af2-978116fdf7c0","ios":"levelo://app?vid=851a729d-3e87-4cb2-9af2-978116fdf7c0"},"vehicle_type_id":"4","last_reported":1691251620,"current_range_meters":30800,"station_id":"ce4bh412rcd13ifvqds0","pricing_plan_id":"free"},{"bike_id":"2ea6657b-88e0-4490-82c9-09eb5391100d","system_id":"levelo_inurba_marseille","lat":43.283998,"lon":5.375062,"is_reserved":false,"is_disabled":false,"rental_uris":{"android":"levelo://app?vid=2ea6657b-88e0-4490-82c9-09eb5391100d","ios":"levelo://app?vid=2ea6657b-88e0-4490-82c9-09eb5391100d"},"vehicle_type_id":"4","last_reported":1691251620,"current_range_meters":11600,"station_id":"ce4bh412rcd13ifvqds0","pricing_plan_id":"free"},{"bike_id":"a2989afd-34dc-47c7-8e05-80d48dccf8c6","system_id":"levelo_inurba_marseille","lat":43.283998,"lon":5.375062,"is_reserved":false,"is_disabled":false,"rental_uris":{"android":"levelo://app?vid=a2989afd-34dc-47c7-8e05-80d48dccf8c6","ios":"levelo://app?vid=a2989afd-34dc-47c7-8e05-80d48dccf8c6"},"vehicle_type_id":"4","last_reported":1691251620,"current_range_meters":16400,"station_id":"ce4bh412rcd13ifvqds0","pricing_plan_id":"free"},{"bike_id":"34e9bb9b-e3fc-4e7c-8345-5a981c021ccd","system_id":"levelo_inurba_marseille","lat":43.283998,"lon":5.375062,"is_reserved":false,"is_disabled":false,"rental_uris":{"android":"levelo://app?vid=34e9bb9b-e3fc-4e7c-8345-5a981c021ccd","ios":"levelo://app?vid=34e9bb9b-e3fc-4e7c-8345-5a981c021ccd"},"vehicle_type_id":"4","last_reported":1691251620,"current_range_meters":24800,"station_id":"ce4bh412rcd13ifvqds0","pricing_plan_id":"free"},{"bike_id":"d62b6948-879e-42a6-b3eb-91506246adfd","system_id":"levelo_inurba_marseille","lat":43.283998,"lon":5.375062,"is_reserved":false,"is_disabled":false,"rental_uris":{"android":"levelo://app?vid=d62b6948-879e-42a6-b3eb-91506246adfd","ios":"levelo://app?vid=d62b6948-879e-42a6-b3eb-91506246adfd"},"vehicle_type_id":"4","last_reported":1691251620,"current_range_meters":13200,"station_id":"ce4bh412rcd13ifvqds0","pricing_plan_id":"free"},{"bike_id":"8a68b422-727e-4822-aaae-cc830c57c7e3","system_id":"levelo_inurba_marseille","lat":43.31881,"lon":5.40737,"is_reserved":false,"is_disabled":false,"rental_uris":{"android":"levelo://app?vid=8a68b422-727e-4822-aaae-cc830c57c7e3","ios":"levelo://app?vid=8a68b422-727e-4822-aaae-cc830c57c7e3"},"vehicle_type_id":"4","last_reported":1691251620,"current_range_meters":12400,"station_id":"","pricing_plan_id":"free"},{"bike_id":"d057f1ed-fd7e-4919-854d-d1ada14fd7ea","system_id":"levelo_inurba_marseille","lat":43.31877,"lon":5.40742,"is_reserved":false,"is_disabled":false,"rental_uris":{"android":"levelo://app?vid=d057f1ed-fd7e-4919-854d-d1ada14fd7ea","ios":"levelo://app?vid=d057f1ed-fd7e-4919-854d-d1ada14fd7ea"},"vehicle_type_id":"4","last_reported":1691251620,"current_range_meters":0,"station_id":"","pricing_plan_id":"free"},{"bike_id":"20e5ff7d-d1b7-4401-904d-11d20fee18d1","system_id":"levelo_inurba_marseille","lat":43.284151,"lon":5.3809,"is_reserved":false,"is_disabled":false,"rental_uris":{"android":"levelo://app?vid=20e5ff7d-d1b7-4401-904d-11d20fee18d1","ios":"levelo://app?vid=20e5ff7d-d1b7-4401-904d-11d20fee18d1"},"vehicle_type_id":"4","last_reported":1691251620,"current_range_meters":24800,"station_id":"ce4bhbp2rcd13ifvqerg","pricing_plan_id":"free"},{"bike_id":"1734c803-66fa-4cc6-9565-a569a3227bf7","system_id":"levelo_inurba_marseille","lat":43.323464,"lon":5.406297,"is_reserved":false,"is_disabled":false,"rental_uris":{"android":"levelo://app?vid=1734c803-66fa-4cc6-9565-a569a3227bf7","ios":"levelo://app?vid=1734c803-66fa-4cc6-9565-a569a3227bf7"},"vehicle_type_id":"4","last_reported":1691251620,"current_range_meters":5200,"station_id":"ce4bhq92rcd13ifvqhjg","pricing_plan_id":"free"},{"bike_id":"a9671d69-2a62-4abb-9d98-78ee12b6b2d8","system_id":"levelo_inurba_marseille","lat":43.33721,"lon":5.39177,"is_reserved":false,"is_disabled":false,"rental_uris":{"android":"levelo://app?vid=a9671d69-2a62-4abb-9d98-78ee12b6b2d8","ios":"levelo://app?vid=a9671d69-2a62-4abb-9d98-78ee12b6b2d8"},"vehicle_type_id":"4","last_reported":1691251620,"current_range_meters":29200,"station_id":"ce4bhr92rcd13ifvqhsg","pricing_plan_id":"free"},{"bike_id":"1f5722b0-5667-43f6-9dad-3a3b818c5a69","system_id":"levelo_inurba_marseille","lat":43.337168,"lon":5.391825,"is_reserved":false,"is_disabled":false,"rental_uris":{"android":"levelo://app?vid=1f5722b0-5667-43f6-9dad-3a3b818c5a69","ios":"levelo://app?vid=1f5722b0-5667-43f6-9dad-3a3b818c5a69"},"vehicle_type_id":"4","last_reported":1691251620,"current_range_meters":26800,"station_id":"ce4bhr92rcd13ifvqhsg","pricing_plan_id":"free"},{"bike_id":"c09b5daa-f708-45a8-b32c-23101564ac3a","system_id":"levelo_inurba_marseille","lat":43.33721,"lon":5.39182,"is_reserved":false,"is_disabled":false,"rental_uris":{"android":"levelo://app?vid=c09b5daa-f708-45a8-b32c-23101564ac3a","ios":"levelo://app?vid=c09b5daa-f708-45a8-b32c-23101564ac3a"},"vehicle_type_id":"4","last_reported":1691251620,"current_range_meters":30400,"station_id":"ce4bhr92rcd13ifvqhsg","pricing_plan_id":"free"},{"bike_id":"3e563380-a985-451c-801d-2783d7714294","system_id":"levelo_inurba_marseille","lat":43.33724,"lon":5.39181,"is_reserved":false,"is_disabled":false,"rental_uris":{"android":"levelo://app?vid=3e563380-a985-451c-801d-2783d7714294","ios":"levelo://app?vid=3e563380-a985-451c-801d-2783d7714294"},"vehicle_type_id":"4","last_reported":1691251620,"current_range_meters":30400,"station_id":"ce4bhr92rcd13ifvqhsg","pricing_plan_id":"free"},{"bike_id":"9d8dc018-8295-487e-aae9-79ce0f469cdf","system_id":"levelo_inurba_marseille","lat":43.3373,"lon":5.39174,"is_reserved":false,"is_disabled":false,"rental_uris":{"android":"levelo://app?vid=9d8dc018-8295-487e-aae9-79ce0f469cdf","ios":"levelo://app?vid=9d8dc018-8295-487e-aae9-79ce0f469cdf"},"vehicle_type_id":"4","last_reported":1691251620,"current_range_meters":20000,"station_id":"ce4bhr92rcd13ifvqhsg","pricing_plan_id":"free"},{"bike_id":"df82d2f9-f688-4670-ac84-3e543122cedb","system_id":"levelo_inurba_marseille","lat":43.33727,"lon":5.3918,"is_reserved":false,"is_disabled":false,"rental_uris":{"android":"levelo://app?vid=df82d2f9-f688-4670-ac84-3e543122cedb","ios":"levelo://app?vid=df82d2f9-f688-4670-ac84-3e543122cedb"},"vehicle_type_id":"4","last_reported":1691251620,"current_range_meters":28000,"station_id":"ce4bhr92rcd13ifvqhsg","pricing_plan_id":"free"},{"bike_id":"c59f30af-b7c9-4762-b544-56156d6a8a97","system_id":"levelo_inurba_marseille","lat":43.33725,"lon":5.39184,"is_reserved":false,"is_disabled":false,"rental_uris":{"android":"levelo://app?vid=c59f30af-b7c9-4762-b544-56156d6a8a97","ios":"levelo://app?vid=c59f30af-b7c9-4762-b544-56156d6a8a97"},"vehicle_type_id":"4","last_reported":1691251620,"current_range_meters":16000,"station_id":"ce4bhr92rcd13ifvqhsg","pricing_plan_id":"free"},{"bike_id":"fd53760a-588f-4760-9d7f-55ef57100aaa","system_id":"levelo_inurba_marseille","lat":43.33728,"lon":5.39179,"is_reserved":false,"is_disabled":false,"rental_uris":{"android":"levelo://app?vid=fd53760a-588f-4760-9d7f-55ef57100aaa","ios":"levelo://app?vid=fd53760a-588f-4760-9d7f-55ef57100aaa"},"vehicle_type_id":"4","last_reported":1691251620,"current_range_meters":30800,"station_id":"ce4bhr92rcd13ifvqhsg","pricing_plan_id":"free"},{"bike_id":"f18b4051-8145-4f33-aee1-6f539e29d721","system_id":"levelo_inurba_marseille","lat":43.33729,"lon":5.39178,"is_reserved":false,"is_disabled":false,"rental_uris":{"android":"levelo://app?vid=f18b4051-8145-4f33-aee1-6f539e29d721","ios":"levelo://app?vid=f18b4051-8145-4f33-aee1-6f539e29d721"},"vehicle_type_id":"4","last_reported":1691251620,"current_range_meters":30000,"station_id":"ce4bhr92rcd13ifvqhsg","pricing_plan_id":"free"},{"bike_id":"e738aeff-38af-43b6-b02b-eeb93b6490b5","system_id":"levelo_inurba_marseille","lat":43.323464,"lon":5.406297,"is_reserved":false,"is_disabled":false,"rental_uris":{"android":"levelo://app?vid=e738aeff-38af-43b6-b02b-eeb93b6490b5","ios":"levelo://app?vid=e738aeff-38af-43b6-b02b-eeb93b6490b5"},"vehicle_type_id":"4","last_reported":1691251620,"current_range_meters":28800,"station_id":"ce4bhq92rcd13ifvqhjg","pricing_plan_id":"free"},{"bike_id":"099dab48-d62e-478f-b2f9-87c50aba59e7","system_id":"levelo_inurba_marseille","lat":43.323464,"lon":5.406297,"is_reserved":false,"is_disabled":false,"rental_uris":{"android":"levelo://app?vid=099dab48-d62e-478f-b2f9-87c50aba59e7","ios":"levelo://app?vid=099dab48-d62e-478f-b2f9-87c50aba59e7"},"vehicle_type_id":"4","last_reported":1691251620,"current_range_meters":26000,"station_id":"ce4bhq92rcd13ifvqhjg","pricing_plan_id":"free"},{"bike_id":"939edbe6-adcc-4f97-ad69-99748df4073d","system_id":"levelo_inurba_marseille","lat":43.33727,"lon":5.39186,"is_reserved":false,"is_disabled":false,"rental_uris":{"android":"levelo://app?vid=939edbe6-adcc-4f97-ad69-99748df4073d","ios":"levelo://app?vid=939edbe6-adcc-4f97-ad69-99748df4073d"},"vehicle_type_id":"4","last_reported":1691251620,"current_range_meters":20000,"station_id":"ce4bhr92rcd13ifvqhsg","pricing_plan_id":"free"},{"bike_id":"65e7209e-43de-4472-85bf-edccad84c81f","system_id":"levelo_inurba_marseille","lat":43.33727,"lon":5.39188,"is_reserved":false,"is_disabled":false,"rental_uris":{"android":"levelo://app?vid=65e7209e-43de-4472-85bf-edccad84c81f","ios":"levelo://app?vid=65e7209e-43de-4472-85bf-edccad84c81f"},"vehicle_type_id":"4","last_reported":1691251620,"current_range_meters":21600,"station_id":"ce4bhr92rcd13ifvqhsg","pricing_plan_id":"free"},{"bike_id":"c18f778a-412b-4e65-93bd-c84b43f31b06","system_id":"levelo_inurba_marseille","lat":43.33732,"lon":5.39179,"is_reserved":false,"is_disabled":false,"rental_uris":{"android":"levelo://app?vid=c18f778a-412b-4e65-93bd-c84b43f31b06","ios":"levelo://app?vid=c18f778a-412b-4e65-93bd-c84b43f31b06"},"vehicle_type_id":"4","last_reported":1691251620,"current_range_meters":30400,"station_id":"ce4bhr92rcd13ifvqhsg","pricing_plan_id":"free"},{"bike_id":"8e4ab4c7-b2dc-4e74-b07d-1ff49a416721","system_id":"levelo_inurba_marseille","lat":43.3373,"lon":5.39183,"is_reserved":false,"is_disabled":false,"rental_uris":{"android":"levelo://app?vid=8e4ab4c7-b2dc-4e74-b07d-1ff49a416721","ios":"levelo://app?vid=8e4ab4c7-b2dc-4e74-b07d-1ff49a416721"},"vehicle_type_id":"4","last_reported":1691251620,"current_range_meters":14000,"station_id":"ce4bhr92rcd13ifvqhsg","pricing_plan_id":"free"},{"bike_id":"e65494e0-d3c7-4810-9c29-a550d7a2a693","system_id":"levelo_inurba_marseille","lat":43.323464,"lon":5.406297,"is_reserved":false,"is_disabled":false,"rental_uris":{"android":"levelo://app?vid=e65494e0-d3c7-4810-9c29-a550d7a2a693","ios":"levelo://app?vid=e65494e0-d3c7-4810-9c29-a550d7a2a693"},"vehicle_type_id":"4","last_reported":1691251620,"current_range_meters":31200,"station_id":"ce4bhq92rcd13ifvqhjg","pricing_plan_id":"free"},{"bike_id":"9ed5c8cd-5716-467d-9a0b-e5002dcb5a2c","system_id":"levelo_inurba_marseille","lat":43.33729,"lon":5.3919,"is_reserved":false,"is_disabled":false,"rental_uris":{"android":"levelo://app?vid=9ed5c8cd-5716-467d-9a0b-e5002dcb5a2c","ios":"levelo://app?vid=9ed5c8cd-5716-467d-9a0b-e5002dcb5a2c"},"vehicle_type_id":"4","last_reported":1691251620,"current_range_meters":25200,"station_id":"ce4bhr92rcd13ifvqhsg","pricing_plan_id":"free"},{"bike_id":"dbada9f9-e33c-4a7d-ab43-1cac4e571e70","system_id":"levelo_inurba_marseille","lat":43.28483,"lon":5.38437,"is_reserved":false,"is_disabled":false,"rental_uris":{"android":"levelo://app?vid=dbada9f9-e33c-4a7d-ab43-1cac4e571e70","ios":"levelo://app?vid=dbada9f9-e33c-4a7d-ab43-1cac4e571e70"},"vehicle_type_id":"4","last_reported":1691251620,"current_range_meters":28800,"station_id":"ce4bh512rcd13ifvqe3g","pricing_plan_id":"free"},{"bike_id":"1c1cba68-ad85-4b9d-af7e-bd244f8256f6","system_id":"levelo_inurba_marseille","lat":43.28352,"lon":5.38106,"is_reserved":false,"is_disabled":false,"rental_uris":{"android":"levelo://app?vid=1c1cba68-ad85-4b9d-af7e-bd244f8256f6","ios":"levelo://app?vid=1c1cba68-ad85-4b9d-af7e-bd244f8256f6"},"vehicle_type_id":"4","last_reported":1691251620,"current_range_meters":6400,"station_id":"ce4bh412rcd13ifvqdr0","pricing_plan_id":"free"},{"bike_id":"791dfaf5-b3ae-41ac-b25c-b6bc81f73bf2","system_id":"levelo_inurba_marseille","lat":43.283498,"lon":5.380948,"is_reserved":false,"is_disabled":false,"rental_uris":{"android":"levelo://app?vid=791dfaf5-b3ae-41ac-b25c-b6bc81f73bf2","ios":"levelo://app?vid=791dfaf5-b3ae-41ac-b25c-b6bc81f73bf2"},"vehicle_type_id":"4","last_reported":1691251620,"current_range_meters":8800,"station_id":"ce4bh412rcd13ifvqdr0","pricing_plan_id":"free"},{"bike_id":"8a3ed4a5-cfab-4c6b-bcae-b177b4aaa18d","system_id":"levelo_inurba_marseille","lat":43.284219,"lon":5.3497,"is_reserved":false,"is_disabled":false,"rental_uris":{"android":"levelo://app?vid=8a3ed4a5-cfab-4c6b-bcae-b177b4aaa18d","ios":"levelo://app?vid=8a3ed4a5-cfab-4c6b-bcae-b177b4aaa18d"},"vehicle_type_id":"4","last_reported":1691251620,"current_range_meters":31200,"station_id":"ce4bhbh2rcd13ifvqepg","pricing_plan_id":"free"},{"bike_id":"7d9b7f3c-dd42-47d5-85ac-128083f141b9","system_id":"levelo_inurba_marseille","lat":43.284219,"lon":5.3497,"is_reserved":false,"is_disabled":false,"rental_uris":{"android":"levelo://app?vid=7d9b7f3c-dd42-47d5-85ac-128083f141b9","ios":"levelo://app?vid=7d9b7f3c-dd42-47d5-85ac-128083f141b9"},"vehicle_type_id":"4","last_reported":1691251620,"current_range_meters":21600,"station_id":"ce4bhbh2rcd13ifvqepg","pricing_plan_id":"free"},{"bike_id":"21b385bf-7ed2-436d-9ee2-503c808501cd","system_id":"levelo_inurba_marseille","lat":43.28419,"lon":5.34994,"is_reserved":false,"is_disabled":false,"rental_uris":{"android":"levelo://app?vid=21b385bf-7ed2-436d-9ee2-503c808501cd","ios":"levelo://app?vid=21b385bf-7ed2-436d-9ee2-503c808501cd"},"vehicle_type_id":"4","last_reported":1691251620,"current_range_meters":31200,"station_id":"ce4bhbh2rcd13ifvqepg","pricing_plan_id":"free"},{"bike_id":"7675f8bc-0ad5-45b3-8a5b-963834173dc3","system_id":"levelo_inurba_marseille","lat":43.284219,"lon":5.3497,"is_reserved":false,"is_disabled":false,"rental_uris":{"android":"levelo://app?vid=7675f8bc-0ad5-45b3-8a5b-963834173dc3","ios":"levelo://app?vid=7675f8bc-0ad5-45b3-8a5b-963834173dc3"},"vehicle_type_id":"4","last_reported":1691251620,"current_range_meters":30000,"station_id":"ce4bhbh2rcd13ifvqepg","pricing_plan_id":"free"},{"bike_id":"40dfc828-d728-41dc-a62b-bc78bc08390e","system_id":"levelo_inurba_marseille","lat":43.284219,"lon":5.3497,"is_reserved":false,"is_disabled":false,"rental_uris":{"android":"levelo://app?vid=40dfc828-d728-41dc-a62b-bc78bc08390e","ios":"levelo://app?vid=40dfc828-d728-41dc-a62b-bc78bc08390e"},