{"last_updated":1759090173,"ttl":60,"version":"2.2","data":{"bikes":[{"bike_id":"3e7089ac-3286-406f-8a55-e37ea8bc8f76","system_id":"levelo_inurba_marseille","lat":43.30894,"lon":5.3965,"is_reserved":false,"is_disabled":false,"rental_uris":{"android":"levelo://app?vid=3e7089ac-3286-406f-8a55-e37ea8bc8f76","ios":"levelo://app?vid=3e7089ac-3286-406f-8a55-e37ea8bc8f76"},"vehicle_type_id":"4","last_reported":1759090174,"current_range_meters":2800,"station_id":"ce4bh012rcd13ifvqcv0","pricing_plan_id":"cebpf4jnsgd1na2vs0mg"},{"bike_id":"2336a081-3301-4818-b498-4e2b16a6631f","system_id":"levelo_inurba_marseille","lat":43.323386,"lon":5.440325,"is_reserved":false,"is_disabled":false,"rental_uris":{"android":"levelo://app?vid=2336a081-3301-4818-b498-4e2b16a6631f","ios":"levelo://app?vid=2336a081-3301-4818-b498-4e2b16a6631f"},"vehicle_type_id":"4","last_reported":1759090174,"current_range_meters":3200,"station_id":"","pricing_plan_id":"cebpf4jnsgd1na2vs0mg"},{"bike_id":"514c5e68-8b75-4593-ac80-48723518c487","system_id":"levelo_inurba_marseille","lat":43.23154,"lon":5.43721,"is_reserved":false,"is_disabled":false,"rental_uris":{"android":"levelo://app?vid=514c5e68-8b75-4593-ac80-48723518c487","ios":"levelo://app?vid=514c5e68-8b75-4593-ac80-48723518c487"},"vehicle_type_id":"4","last_reported":1759090174,"current_range_meters":3200,"station_id":"ce4bhmp2rcd13ifvqgog","pricing_plan_id":"cebpf4jnsgd1na2vs0mg"},{"bike_id":"f8723556-6224-46a2-bbbb-f7110f35c59f","system_id":"levelo_inurba_marseille","lat":43.33773,"lon":5.37477,"is_reserved":false,"is_disabled":true,"rental_uris":{"android":"levelo://app?vid=f8723556-6224-46a2-bbbb-f7110f35c59f","ios":"levelo://app?vid=f8723556-6224-46a2-bbbb-f7110f35c59f"},"vehicle_type_id":"4","last_reported":1759090174,"current_range_meters":3200,"station_id":"","pricing_plan_id":"cebpf4jnsgd1na2vs0mg"},{"bike_id":"bdfc4850-de3f-42e0-b27a-b1a610372266","system_id":"levelo_inurba_marseille","lat":43.296324,"lon":5.374101,"is_reserved":false,"is_disabled":false,"rental_uris":{"android":"levelo://app?vid=bdfc4850-de3f-42e0-b27a-b1a610372266","ios":"levelo://app?vid=bdfc4850-de3f-42e0-b27a-b1a610372266"},"vehicle_type_id":"4","last_reported":1759090174,"current_range_meters":3200,"station_id":"","pricing_plan_id":"cebpf4jnsgd1na2vs0mg"},{"bike_id":"e3671bdf-0af0-431c-8f9e-6715f170afda","system_id":"levelo_inurba_marseille","lat":43.30948,"lon":5.39034,"is_reserved":false,"is_disabled":false,"rental_uris":{"android":"levelo://app?vid=e3671bdf-0af0-431c-8f9e-6715f170afda","ios":"levelo://app?vid=e3671bdf-0af0-431c-8f9e-6715f170afda"},"vehicle_type_id":"4","last_reported":1759090174,"current_range_meters":3200,"station_id":"ce4bgup2rcd13ifvqco0","pricing_plan_id":"cebpf4jnsgd1na2vs0mg"},{"bike_id":"9a819dc8-447d-4df7-8b5f-0b18332a26a7","system_id":"levelo_inurba_marseille","lat":43.32948,"lon":5.37629,"is_reserved":false,"is_disabled":true,"rental_uris":{"android":"levelo://app?vid=9a819dc8-447d-4df7-8b5f-0b18332a26a7","ios":"levelo://app?vid=9a819dc8-447d-4df7-8b5f-0b18332a26a7"},"vehicle_type_id":"4","last_reported":1759090174,"current_range_meters":3200,"station_id":"","pricing_plan_id":"cebpf4jnsgd1na2vs0mg"},{"bike_id":"2e6c2599-e8fb-45c6-8b6e-e267d88b1005","system_id":"levelo_inurba_marseille","lat":43.27066,"lon":5.4228,"is_reserved":false,"is_disabled":false,"rental_uris":{"android":"levelo://app?vid=2e6c2599-e8fb-45c6-8b6e-e267d88b1005","ios":"levelo://app?vid=2e6c2599-e8fb-45c6-8b6e-e267d88b1005"},"vehicle_type_id":"4","last_reported":1759090174,"current_range_meters":3600,"station_id":"ce4bhk92rcd13ifvqgb0","pricing_plan_id":"cebpf4jnsgd1na2vs0mg"},{"bike_id":"fee74e98-eb52-4f66-a612-109c75f34aa6","system_id":"levelo_inurba_marseille","lat":43.296,"lon":5.37963,"is_reserved":false,"is_disabled":false,"rental_uris":{"android":"levelo://app?vid=fee74e98-eb52-4f66-a612-109c75f34aa6","ios":"levelo://app?vid=fee74e98-eb52-4f66-a612-109c75f34aa6"},"vehicle_type_id":"4","last_reported":1759090174,"current_range_meters":3600,"station_id":"","pricing_plan_id":"cebpf4jnsgd1na2vs0mg"},{"bike_id":"5279259c-45ab-425c-adc7-05d3e3b83f65","system_id":"levelo_inurba_marseille","lat":43.29916,"lon":5.38511,"is_reserved":false,"is_disabled":false,"rental_uris":{"android":"levelo://app?vid=5279259c-45ab-425c-adc7-05d3e3b83f65","ios":"levelo://app?vid=5279259c-45ab-425c-adc7-05d3e3b83f65"},"vehicle_type_id":"4","last_reported":1759090174,"current_range_meters":4000,"station_id":"","pricing_plan_id":"cebpf4jnsgd1na2vs0mg"},{"bike_id":"c1c02d94-3f85-4eb8-9fb2-f4c54a4f18bb","system_id":"levelo_inurba_marseille","lat":43.27625,"lon":5.3611,"is_reserved":false,"is_disabled":false,"rental_uris":{"android":"levelo://app?vid=c1c02d94-3f85-4eb8-9fb2-f4c54a4f18bb","ios":"levelo://app?vid=c1c02d94-3f85-4eb8-9fb2-f4c54a4f18bb"},"vehicle_type_id":"4","last_reported":1759090174,"current_range_meters":4000,"station_id":"ce4bgj92rcd13ifvqbe0","pricing_plan_id":"cebpf4jnsgd1na2vs0mg"},{"bike_id":"8e78403c-35b9-4a8e-b685-df3d3f9c384d","system_id":"levelo_inurba_marseille","lat":43.22521,"lon":5.3485,"is_reserved":false,"is_disabled":false,"rental_uris":{"android":"levelo://app?vid=8e78403c-35b9-4a8e-b685-df3d3f9c384d","ios":"levelo://app?vid=8e78403c-35b9-4a8e-b685-df3d3f9c384d"},"vehicle_type_id":"4","last_reported":1759090174,"current_range_meters":4400,"station_id":"","pricing_plan_id":"cebpf4jnsgd1na2vs0mg"},{"bike_id":"51a82f0d-3d25-4b20-95bb-0326837ed417","system_id":"levelo_inurba_marseille","lat":43.31994,"lon":5.38142,"is_reserved":false,"is_disabled":false,"rental_uris":{"android":"levelo://app?vid=51a82f0d-3d25-4b20-95bb-0326837ed417","ios":"levelo://app?vid=51a82f0d-3d25-4b20-95bb-0326837ed417"},"vehicle_type_id":"4","last_reported":1759090174,"current_range_meters":4400,"station_id":"ce4bhr12rcd13ifvqhpg","pricing_plan_id":"cebpf4jnsgd1na2vs0mg"},{"bike_id":"0d00a62e-8308-4ca0-af6d-0903355fa1d4","system_id":"levelo_inurba_marseille","lat":43.36863,"lon":5.36307,"is_reserved":false,"is_disabled":false,"rental_uris":{"android":"levelo://app?vid=0d00a62e-8308-4ca0-af6d-0903355fa1d4","ios":"levelo://app?vid=0d00a62e-8308-4ca0-af6d-0903355fa1d4"},"vehicle_type_id":"4","last_reported":1759090174,"current_range_meters":4800,"station_id":"","pricing_plan_id":"cebpf4jnsgd1na2vs0mg"},{"bike_id":"232cb343-546b-434a-abc1-f1ad000083f1","system_id":"levelo_inurba_marseille","lat":43.31056,"lon":5.40091,"is_reserved":false,"is_disabled":false,"rental_uris":{"android":"levelo://app?vid=232cb343-546b-434a-abc1-f1ad000083f1","ios":"levelo://app?vid=232cb343-546b-434a-abc1-f1ad000083f1"},"vehicle_type_id":"4","last_reported":1759090174,"current_range_meters":4800,"station_id":"","pricing_plan_id":"cebpf4jnsgd1na2vs0mg"},{"bike_id":"aaea33e7-1c45-4329-a89d-2cf308055113","system_id":"levelo_inurba_marseille","lat":43.25717,"lon":5.41119,"is_reserved":false,"is_disabled":false,"rental_uris":{"android":"levelo://app?vid=aaea33e7-1c45-4329-a89d-2cf308055113","ios":"levelo://app?vid=aaea33e7-1c45-4329-a89d-2cf308055113"},"vehicle_type_id":"4","last_reported":1759090174,"current_range_meters":4800,"station_id":"","pricing_plan_id":"cebpf4jnsgd1na2vs0mg"},{"bike_id":"eab6a1c1-a9a3-4cee-980d-418e7fd1f606","system_id":"levelo_inurba_marseille","lat":43.30598,"lon":5.3937,"is_reserved":false,"is_disabled":false,"rental_uris":{"android":"levelo://app?vid=eab6a1c1-a9a3-4cee-980d-418e7fd1f606","ios":"levelo://app?vid=eab6a1c1-a9a3-4cee-980d-418e7fd1f606"},"vehicle_type_id":"4","last_reported":1759090174,"current_range_meters":5600,"station_id":"ce4bh0p2rcd13ifvqd80","pricing_plan_id":"cebpf4jnsgd1na2vs0mg"},{"bike_id":"fbef676b-8f42-450e-b448-da45ad596c28","system_id":"levelo_inurba_marseille","lat":43.28379,"lon":5.36325,"is_reserved":false,"is_disabled":false,"rental_uris":{"android":"levelo://app?vid=fbef676b-8f42-450e-b448-da45ad596c28","ios":"levelo://app?vid=fbef676b-8f42-450e-b448-da45ad596c28"},"vehicle_type_id":"4","last_reported":1759090174,"current_range_meters":5600,"station_id":"","pricing_plan_id":"cebpf4jnsgd1na2vs0mg"},{"bike_id":"56ba27e9-f807-4c73-b6fe-eecab67b0eaf","system_id":"levelo_inurba_marseille","lat":43.30891,"lon":5.37199,"is_reserved":false,"is_disabled":false,"rental_uris":{"android":"levelo://app?vid=56ba27e9-f807-4c73-b6fe-eecab67b0eaf","ios":"levelo://app?vid=56ba27e9-f807-4c73-b6fe-eecab67b0eaf"},"vehicle_type_id":"4","last_reported":1759090174,"current_range_meters":5600,"station_id":"ce4bguh2rcd13ifvqckg","pricing_plan_id":"cebpf4jnsgd1na2vs0mg"},{"bike_id":"9bb4db31-0bf9-4171-bca1-76cb045f53a3","system_id":"levelo_inurba_marseille","lat":43.26924,"lon":5.389081,"is_reserved":false,"is_disabled":true,"rental_uris":{"android":"levelo://app?vid=9bb4db31-0bf9-4171-bca1-76cb045f53a3","ios":"levelo://app?vid=9bb4db31-0bf9-4171-bca1-76cb045f53a3"},"vehicle_type_id":"4","last_reported":1759090174,"current_range_meters":5600,"station_id":"ce4bhhh2rcd13ifvqfl0","pricing_plan_id":"cebpf4jnsgd1na2vs0mg"},{"bike_id":"526ff56e-4133-4e6a-ab7c-157894ef219a","system_id":"levelo_inurba_marseille","lat":43.21204,"lon":5.35077,"is_reserved":false,"is_disabled":true,"rental_uris":{"android":"levelo://app?vid=526ff56e-4133-4e6a-ab7c-157894ef219a","ios":"levelo://app?vid=526ff56e-4133-4e6a-ab7c-157894ef219a"},"vehicle_type_id":"4","last_reported":1759090174,"current_range_meters":5600,"station_id":"st_cvj6sg6p6f1abm77japg","pricing_plan_id":"cebpf4jnsgd1na2vs0mg"},{"bike_id":"1cda9ce5-0ae6-414a-9759-0978b2bc1f8b","system_id":"levelo_inurba_marseille","lat":43.2512,"lon":5.40334,"is_reserved":false,"is_disabled":true,"rental_uris":{"android":"levelo://app?vid=1cda9ce5-0ae6-414a-9759-0978b2bc1f8b","ios":"levelo://app?vid=1cda9ce5-0ae6-414a-9759-0978b2bc1f8b"},"vehicle_type_id":"4","last_reported":1759090174,"current_range_meters":5600,"station_id":"ce4bhlh2rcd13ifvqgig","pricing_plan_id":"cebpf4jnsgd1na2vs0mg"},{"bike_id":"1fe44ba1-3d92-424b-9e42-34c947824d4a","system_id":"levelo_inurba_marseille","lat":43.31646,"lon":5.42391,"is_reserved":false,"is_disabled":false,"rental_uris":{"android":"levelo://app?vid=1fe44ba1-3d92-424b-9e42-34c947824d4a","ios":"levelo://app?vid=1fe44ba1-3d92-424b-9e42-34c947824d4a"},"vehicle_type_id":"4","last_reported":1759090174,"current_range_meters":6000,"station_id":"","pricing_plan_id":"cebpf4jnsgd1na2vs0mg"},{"bike_id":"1bed8bc8-841a-427b-b031-e19e03dd34d7","system_id":"levelo_inurba_marseille","lat":43.31074,"lon":5.38354,"is_reserved":false,"is_disabled":false,"rental_uris":{"android":"levelo://app?vid=1bed8bc8-841a-427b-b031-e19e03dd34d7","ios":"levelo://app?vid=1bed8bc8-841a-427b-b031-e19e03dd34d7"},"vehicle_type_id":"4","last_reported":1759090174,"current_range_meters":6000,"station_id":"ce4bgv92rcd13ifvqcr0","pricing_plan_id":"cebpf4jnsgd1na2vs0mg"},{"bike_id":"5365e873-98ea-45e2-9689-7e119051f22e","system_id":"levelo_inurba_marseille","lat":43.33115,"lon":5.35519,"is_reserved":false,"is_disabled":true,"rental_uris":{"android":"levelo://app?vid=5365e873-98ea-45e2-9689-7e119051f22e","ios":"levelo://app?vid=5365e873-98ea-45e2-9689-7e119051f22e"},"vehicle_type_id":"4","last_reported":1759090174,"current_range_meters":6000,"station_id":"","pricing_plan_id":"cebpf4jnsgd1na2vs0mg"},{"bike_id":"28072a77-eefd-4cfa-bd68-7696e02f507d","system_id":"levelo_inurba_marseille","lat":43.325112,"lon":5.368869,"is_reserved":false,"is_disabled":false,"rental_uris":{"android":"levelo://app?vid=28072a77-eefd-4cfa-bd68-7696e02f507d","ios":"levelo://app?vid=28072a77-eefd-4cfa-bd68-7696e02f507d"},"vehicle_type_id":"4","last_reported":1759090174,"current_range_meters":6000,"station_id":"","pricing_plan_id":"cebpf4jnsgd1na2vs0mg"},{"bike_id":"f3fa21e9-c527-4c18-bde5-c3a1a82bcf72","system_id":"levelo_inurba_marseille","lat":43.25727,"lon":5.41111,"is_reserved":false,"is_disabled":false,"rental_uris":{"android":"levelo://app?vid=f3fa21e9-c527-4c18-bde5-c3a1a82bcf72","ios":"levelo://app?vid=f3fa21e9-c527-4c18-bde5-c3a1a82bcf72"},"vehicle_type_id":"4","last_reported":1759090174,"current_range_meters":6000,"station_id":"ce4bhkp2rcd13ifvqgd0","pricing_plan_id":"cebpf4jnsgd1na2vs0mg"},{"bike_id":"01bf55f2-4ac6-46f6-8504-3267bf31e1a6","system_id":"levelo_inurba_marseille","lat":43.2973,"lon":5.381787,"is_reserved":false,"is_disabled":false,"rental_uris":{"android":"levelo://app?vid=01bf55f2-4ac6-46f6-8504-3267bf31e1a6","ios":"levelo://app?vid=01bf55f2-4ac6-46f6-8504-3267bf31e1a6"},"vehicle_type_id":"4","last_reported":1759090174,"current_range_meters":6000,"station_id":"","pricing_plan_id":"cebpf4jnsgd1na2vs0mg"},{"bike_id":"ee96a502-9b76-492e-840a-498b02aefe72","system_id":"levelo_inurba_marseille","lat":43.323531,"lon":5.392201,"is_reserved":false,"is_disabled":false,"rental_uris":{"android":"levelo://app?vid=ee96a502-9b76-492e-840a-498b02aefe72","ios":"levelo://app?vid=ee96a502-9b76-492e-840a-498b02aefe72"},"vehicle_type_id":"4","last_reported":1759090174,"current_range_meters":6000,"station_id":"","pricing_plan_id":"cebpf4jnsgd1na2vs0mg"},{"bike_id":"3f51e03c-3abb-4dde-8cdd-da596aa3252f","system_id":"levelo_inurba_marseille","lat":43.27733,"lon":5.38851,"is_reserved":false,"is_disabled":true,"rental_uris":{"android":"levelo://app?vid=3f51e03c-3abb-4dde-8cdd-da596aa3252f","ios":"levelo://app?vid=3f51e03c-3abb-4dde-8cdd-da596aa3252f"},"vehicle_type_id":"4","last_reported":1759090174,"current_range_meters":6400,"station_id":"","pricing_plan_id":"cebpf4jnsgd1na2vs0mg"},{"bike_id":"68fac8e7-77c7-4b11-8389-36bfa5dc6460","system_id":"levelo_inurba_marseille","lat":43.27493,"lon":5.42451,"is_reserved":false,"is_disabled":false,"rental_uris":{"android":"levelo://app?vid=68fac8e7-77c7-4b11-8389-36bfa5dc6460","ios":"levelo://app?vid=68fac8e7-77c7-4b11-8389-36bfa5dc6460"},"vehicle_type_id":"4","last_reported":1759090174,"current_range_meters":6800,"station_id":"ce4bhn92rcd13ifvqgrg","pricing_plan_id":"cebpf4jnsgd1na2vs0mg"},{"bike_id":"934ea1ec-b7f6-49a1-9efa-287317d4eb22","system_id":"levelo_inurba_marseille","lat":43.29048,"lon":5.35914,"is_reserved":false,"is_disabled":false,"rental_uris":{"android":"levelo://app?vid=934ea1ec-b7f6-49a1-9efa-287317d4eb22","ios":"levelo://app?vid=934ea1ec-b7f6-49a1-9efa-287317d4eb22"},"vehicle_type_id":"4","last_reported":1759090174,"current_range_meters":6800,"station_id":"","pricing_plan_id":"cebpf4jnsgd1na2vs0mg"},{"bike_id":"8360fe96-8a6b-4a67-9ba4-0ef948b002e1","system_id":"levelo_inurba_marseille","lat":43.25017,"lon":5.38916,"is_reserved":false,"is_disabled":true,"rental_uris":{"android":"levelo://app?vid=8360fe96-8a6b-4a67-9ba4-0ef948b002e1","ios":"levelo://app?vid=8360fe96-8a6b-4a67-9ba4-0ef948b002e1"},"vehicle_type_id":"4","last_reported":1759090174,"current_range_meters":6800,"station_id":"ce4bhgp2rcd13ifvqfd0","pricing_plan_id":"cebpf4jnsgd1na2vs0mg"},{"bike_id":"4431cbb7-14bd-49b3-b2b3-a9c49182888a","system_id":"levelo_inurba_marseille","lat":43.29734,"lon":5.38039,"is_reserved":false,"is_disabled":false,"rental_uris":{"android":"levelo://app?vid=4431cbb7-14bd-49b3-b2b3-a9c49182888a","ios":"levelo://app?vid=4431cbb7-14bd-49b3-b2b3-a9c49182888a"},"vehicle_type_id":"4","last_reported":1759090174,"current_range_meters":7200,"station_id":"","pricing_plan_id":"cebpf4jnsgd1na2vs0mg"},{"bike_id":"a1ef6fbd-5d93-4faf-8886-89cb924a179b","system_id":"levelo_inurba_marseille","lat":43.29626,"lon":5.40604,"is_reserved":false,"is_disabled":false,"rental_uris":{"android":"levelo://app?vid=a1ef6fbd-5d93-4faf-8886-89cb924a179b","ios":"levelo://app?vid=a1ef6fbd-5d93-4faf-8886-89cb924a179b"},"vehicle_type_id":"4","last_reported":1759090174,"current_range_meters":7200,"station_id":"ce4bh0h2rcd13ifvqd60","pricing_plan_id":"cebpf4jnsgd1na2vs0mg"},{"bike_id":"f2fd2284-837d-45c8-8a92-163c2aa30979","system_id":"levelo_inurba_marseille","lat":43.26942,"lon":5.38929,"is_reserved":false,"is_disabled":true,"rental_uris":{"android":"levelo://app?vid=f2fd2284-837d-45c8-8a92-163c2aa30979","ios":"levelo://app?vid=f2fd2284-837d-45c8-8a92-163c2aa30979"},"vehicle_type_id":"4","last_reported":1759090174,"current_range_meters":8000,"station_id":"ce4bhhh2rcd13ifvqfl0","pricing_plan_id":"cebpf4jnsgd1na2vs0mg"},{"bike_id":"720623f7-9148-4a0e-ade4-a205c6fa44f0","system_id":"levelo_inurba_marseille","lat":43.2897,"lon":5.42903,"is_reserved":false,"is_disabled":false,"rental_uris":{"android":"levelo://app?vid=720623f7-9148-4a0e-ade4-a205c6fa44f0","ios":"levelo://app?vid=720623f7-9148-4a0e-ade4-a205c6fa44f0"},"vehicle_type_id":"4","last_reported":1759090174,"current_range_meters":8000,"station_id":"","pricing_plan_id":"cebpf4jnsgd1na2vs0mg"},{"bike_id":"3fd7c937-a838-4d6f-932e-9e3bccbc6d3b","system_id":"levelo_inurba_marseille","lat":43.298944,"lon":5.382176,"is_reserved":false,"is_disabled":false,"rental_uris":{"android":"levelo://app?vid=3fd7c937-a838-4d6f-932e-9e3bccbc6d3b","ios":"levelo://app?vid=3fd7c937-a838-4d6f-932e-9e3bccbc6d3b"},"vehicle_type_id":"4","last_reported":1759090174,"current_range_meters":8000,"station_id":"","pricing_plan_id":"cebpf4jnsgd1na2vs0mg"},{"bike_id":"3b01e214-ddb1-46c7-a006-a2907e8d78ce","system_id":"levelo_inurba_marseille","lat":43.30312,"lon":5.40448,"is_reserved":false,"is_disabled":false,"rental_uris":{"android":"levelo://app?vid=3b01e214-ddb1-46c7-a006-a2907e8d78ce","ios":"levelo://app?vid=3b01e214-ddb1-46c7-a006-a2907e8d78ce"},"vehicle_type_id":"4","last_reported":1759090174,"current_range_meters":8000,"station_id":"ce4bh012rcd13ifvqd10","pricing_plan_id":"cebpf4jnsgd1na2vs0mg"},{"bike_id":"73b3665a-57bf-434c-89c5-90454bbc00d6","system_id":"levelo_inurba_marseille","lat":43.31325,"lon":5.39741,"is_reserved":false,"is_disabled":true,"rental_uris":{"android":"levelo://app?vid=73b3665a-57bf-434c-89c5-90454bbc00d6","ios":"levelo://app?vid=73b3665a-57bf-434c-89c5-90454bbc00d6"},"vehicle_type_id":"4","last_reported":1759090174,"current_range_meters":8400,"station_id":"ce4bgvp2rcd13ifvqcu0","pricing_plan_id":"cebpf4jnsgd1na2vs0mg"},{"bike_id":"0b10856b-3dad-4052-bc3a-2c17e6f16e23","system_id":"levelo_inurba_marseille","lat":43.27566,"lon":5.38425,"is_reserved":false,"is_disabled":true,"rental_uris":{"android":"levelo://app?vid=0b10856b-3dad-4052-bc3a-2c17e6f16e23","ios":"levelo://app?vid=0b10856b-3dad-4052-bc3a-2c17e6f16e23"},"vehicle_type_id":"4","last_reported":1759090174,"current_range_meters":8400,"station_id":"ce4bhh92rcd13ifvqfi0","pricing_plan_id":"cebpf4jnsgd1na2vs0mg"},{"bike_id":"579526e6-1a96-4dcb-9bab-181bf678c4cb","system_id":"levelo_inurba_marseille","lat":43.24176,"lon":5.39662,"is_reserved":false,"is_disabled":true,"rental_uris":{"android":"levelo://app?vid=579526e6-1a96-4dcb-9bab-181bf678c4cb","ios":"levelo://app?vid=579526e6-1a96-4dcb-9bab-181bf678c4cb"},"vehicle_type_id":"4","last_reported":1759090174,"current_range_meters":8400,"station_id":"ce4bhn12rcd13ifvqgpg","pricing_plan_id":"cebpf4jnsgd1na2vs0mg"},{"bike_id":"846b9ad1-a37c-4e96-83a1-cfe56d80f0d2","system_id":"levelo_inurba_marseille","lat":43.26275,"lon":5.39882,"is_reserved":false,"is_disabled":false,"rental_uris":{"android":"levelo://app?vid=846b9ad1-a37c-4e96-83a1-cfe56d80f0d2","ios":"levelo://app?vid=846b9ad1-a37c-4e96-83a1-cfe56d80f0d2"},"vehicle_type_id":"4","last_reported":1759090174,"current_range_meters":8400,"station_id":"","pricing_plan_id":"cebpf4jnsgd1na2vs0mg"},{"bike_id":"695662ab-65fe-4c59-81b6-3dceb9f5066d","system_id":"levelo_inurba_marseille","lat":43.25588,"lon":5.38251,"is_reserved":false,"is_disabled":true,"rental_uris":{"android":"levelo://app?vid=695662ab-65fe-4c59-81b6-3dceb9f5066d","ios":"levelo://app?vid=695662ab-65fe-4c59-81b6-3dceb9f5066d"},"vehicle_type_id":"4","last_reported":1759090174,"current_range_meters":8400,"station_id":"ce4bhih2rcd13ifvqfs0","pricing_plan_id":"cebpf4jnsgd1na2vs0mg"},{"bike_id":"03350417-1098-4d6c-b8fe-9e64358744bf","system_id":"levelo_inurba_marseille","lat":43.33282,"lon":5.41265,"is_reserved":false,"is_disabled":false,"rental_uris":{"android":"levelo://app?vid=03350417-1098-4d6c-b8fe-9e64358744bf","ios":"levelo://app?vid=03350417-1098-4d6c-b8fe-9e64358744bf"},"vehicle_type_id":"4","last_reported":1759090174,"current_range_meters":8400,"station_id":"","pricing_plan_id":"cebpf4jnsgd1na2vs0mg"},{"bike_id":"ddb6d8b2-8177-4102-9053-9e47caeb33b7","system_id":"levelo_inurba_marseille","lat":43.31324,"lon":5.39693,"is_reserved":false,"is_disabled":false,"rental_uris":{"android":"levelo://app?vid=ddb6d8b2-8177-4102-9053-9e47caeb33b7","ios":"levelo://app?vid=ddb6d8b2-8177-4102-9053-9e47caeb33b7"},"vehicle_type_id":"4","last_reported":1759090174,"current_range_meters":8800,"station_id":"ce4bgvp2rcd13ifvqcu0","pricing_plan_id":"cebpf4jnsgd1na2vs0mg"},{"bike_id":"dc4883ea-8f06-44d1-8b3d-6660e39a87ec","system_id":"levelo_inurba_marseille","lat":43.22938,"lon":5.35398,"is_reserved":false,"is_disabled":true,"rental_uris":{"android":"levelo://app?vid=dc4883ea-8f06-44d1-8b3d-6660e39a87ec","ios":"levelo://app?vid=dc4883ea-8f06-44d1-8b3d-6660e39a87ec"},"vehicle_type_id":"4","last_reported":1759090174,"current_range_meters":8800,"station_id":"cpo3532slgdg3j2ikp40","pricing_plan_id":"cebpf4jnsgd1na2vs0mg"},{"bike_id":"315e6848-5829-4b94-8d71-81dd49f33e5b","system_id":"levelo_inurba_marseille","lat":43.30088,"lon":5.39081,"is_reserved":false,"is_disabled":false,"rental_uris":{"android":"levelo://app?vid=315e6848-5829-4b94-8d71-81dd49f33e5b","ios":"levelo://app?vid=315e6848-5829-4b94-8d71-81dd49f33e5b"},"vehicle_type_id":"4","last_reported":1759090174,"current_range_meters":8800,"station_id":"ce4bh192rcd13ifvqdb0","pricing_plan_id":"cebpf4jnsgd1na2vs0mg"},{"bike_id":"4f718842-fb00-42a3-b314-e0ea514cd70f","system_id":"levelo_inurba_marseille","lat":43.31538,"lon":5.38031,"is_reserved":false,"is_disabled":false,"rental_uris":{"android":"levelo://app?vid=4f718842-fb00-42a3-b314-e0ea514cd70f","ios":"levelo://app?vid=4f718842-fb00-42a3-b314-e0ea514cd70f"},"vehicle_type_id":"4","last_reported":1759090174,"current_range_meters":8800,"station_id":"ce4bhsp2rcd13ifvqi50","pricing_plan_id":"cebpf4jnsgd1na2vs0mg"},{"bike_id":"c16b33eb-8029-4228-918c-ff445e09df15","system_id":"levelo_inurba_marseille","lat":43.27251,"lon":5.38967,"is_reserved":false,"is_disabled":false,"rental_uris":{"android":"levelo://app?vid=c16b33eb-8029-4228-918c-ff445e09df15","ios":"levelo://app?vid=c16b33eb-8029-4228-918c-ff445e09df15"},"vehicle_type_id":"4","last_reported":1759090174,"current_range_meters":9200,"station_id":"","pricing_plan_id":"cebpf4jnsgd1na2vs0mg"},{"bike_id":"096c311a-e31f-4e60-ab8c-de0b76354103","system_id":"levelo_inurba_marseille","lat":43.27187,"lon":5.40992,"is_reserved":false,"is_disabled":true,"rental_uris":{"android":"levelo://app?vid=096c311a-e31f-4e60-ab8c-de0b76354103","ios":"levelo://app?vid=096c311a-e31f-4e60-ab8c-de0b76354103"},"vehicle_type_id":"4","last_reported":1759090174,"current_range_meters":9200,"station_id":"ce4bhl12rcd13ifvqgf0","pricing_plan_id":"cebpf4jnsgd1na2vs0mg"},{"bike_id":"ac1aa1a8-7c6e-4fb7-a9e6-c374e5efeec5","system_id":"levelo_inurba_marseille","lat":43.26224,"lon":5.40417,"is_reserved":false,"is_disabled":false,"rental_uris":{"android":"levelo://app?vid=ac1aa1a8-7c6e-4fb7-a9e6-c374e5efeec5","ios":"levelo://app?vid=ac1aa1a8-7c6e-4fb7-a9e6-c374e5efeec5"},"vehicle_type_id":"4","last_reported":1759090174,"current_range_meters":9200,"station_id":"ce4bhmh2rcd13ifvqgmg","pricing_plan_id":"cebpf4jnsgd1na2vs0mg"},{"bike_id":"6d98ab21-1faa-4b15-97b2-a1dd6f53a5a7","system_id":"levelo_inurba_marseille","lat":43.27435,"lon":5.39394,"is_reserved":false,"is_disabled":true,"rental_uris":{"android":"levelo://app?vid=6d98ab21-1faa-4b15-97b2-a1dd6f53a5a7","ios":"levelo://app?vid=6d98ab21-1faa-4b15-97b2-a1dd6f53a5a7"},"vehicle_type_id":"4","last_reported":1759090174,"current_range_meters":9600,"station_id":"ce4bhdp2rcd13ifvqf20","pricing_plan_id":"cebpf4jnsgd1na2vs0mg"},{"bike_id":"e17d8f41-c4c3-4237-b00b-00bb81ac11d6","system_id":"levelo_inurba_marseille","lat":43.28841,"lon":5.35856,"is_reserved":false,"is_disabled":false,"rental_uris":{"android":"levelo://app?vid=e17d8f41-c4c3-4237-b00b-00bb81ac11d6","ios":"levelo://app?vid=e17d8f41-c4c3-4237-b00b-00bb81ac11d6"},"vehicle_type_id":"4","last_reported":1759090174,"current_range_meters":10000,"station_id":"ce4bhb12rcd13ifvqem0","pricing_plan_id":"cebpf4jnsgd1na2vs0mg"},{"bike_id":"025b296f-af8b-43be-b106-7d6120ef8f07","system_id":"levelo_inurba_marseille","lat":43.317,"lon":5.37725,"is_reserved":false,"is_disabled":false,"rental_uris":{"android":"levelo://app?vid=025b296f-af8b-43be-b106-7d6120ef8f07","ios":"levelo://app?vid=025b296f-af8b-43be-b106-7d6120ef8f07"},"vehicle_type_id":"4","last_reported":1759090174,"current_range_meters":10000,"station_id":"ce4bgth2rcd13ifvqch0","pricing_plan_id":"cebpf4jnsgd1na2vs0mg"},{"bike_id":"4c02c545-ad59-45b1-9b9c-d3678a5922c7","system_id":"levelo_inurba_marseille","lat":43.337444,"lon":5.374475,"is_reserved":false,"is_disabled":false,"rental_uris":{"android":"levelo://app?vid=4c02c545-ad59-45b1-9b9c-d3678a5922c7","ios":"levelo://app?vid=4c02c545-ad59-45b1-9b9c-d3678a5922c7"},"vehicle_type_id":"4","last_reported":1759090174,"current_range_meters":10000,"station_id":"","pricing_plan_id":"cebpf4jnsgd1na2vs0mg"},{"bike_id":"c097f066-7651-435e-913f-a8a7838aba88","system_id":"levelo_inurba_marseille","lat":43.33722,"lon":5.37459,"is_reserved":false,"is_disabled":false,"rental_uris":{"android":"levelo://app?vid=c097f066-7651-435e-913f-a8a7838aba88","ios":"levelo://app?vid=c097f066-7651-435e-913f-a8a7838aba88"},"vehicle_type_id":"4","last_reported":1759090174,"current_range_meters":10000,"station_id":"","pricing_plan_id":"cebpf4jnsgd1na2vs0mg"},{"bike_id":"f62fe733-90ac-444a-a20a-73d227678ff7","system_id":"levelo_inurba_marseille","lat":43.29612,"lon":5.37714,"is_reserved":false,"is_disabled":true,"rental_uris":{"android":"levelo://app?vid=f62fe733-90ac-444a-a20a-73d227678ff7","ios":"levelo://app?vid=f62fe733-90ac-444a-a20a-73d227678ff7"},"vehicle_type_id":"4","last_reported":1759090174,"current_range_meters":10800,"station_id":"ce4bgi92rcd13ifvqb90","pricing_plan_id":"cebpf4jnsgd1na2vs0mg"},{"bike_id":"c9916796-5f07-4d22-aceb-87882fb08ac5","system_id":"levelo_inurba_marseille","lat":43.30599,"lon":5.36578,"is_reserved":false,"is_disabled":false,"rental_uris":{"android":"levelo://app?vid=c9916796-5f07-4d22-aceb-87882fb08ac5","ios":"levelo://app?vid=c9916796-5f07-4d22-aceb-87882fb08ac5"},"vehicle_type_id":"4","last_reported":1759090174,"current_range_meters":10800,"station_id":"ce4bgs12rcd13ifvqcag","pricing_plan_id":"cebpf4jnsgd1na2vs0mg"},{"bike_id":"72c47d07-f4a8-4f58-b6bc-b8c6013ac540","system_id":"levelo_inurba_marseille","lat":43.31406,"lon":5.39136,"is_reserved":false,"is_disabled":false,"rental_uris":{"android":"levelo://app?vid=72c47d07-f4a8-4f58-b6bc-b8c6013ac540","ios":"levelo://app?vid=72c47d07-f4a8-4f58-b6bc-b8c6013ac540"},"vehicle_type_id":"4","last_reported":1759090174,"current_range_meters":10800,"station_id":"","pricing_plan_id":"cebpf4jnsgd1na2vs0mg"},{"bike_id":"99f8e706-cfb0-4eb6-929e-527298f2a0db","system_id":"levelo_inurba_marseille","lat":43.28349,"lon":5.37664,"is_reserved":false,"is_disabled":false,"rental_uris":{"android":"levelo://app?vid=99f8e706-cfb0-4eb6-929e-527298f2a0db","ios":"levelo://app?vid=99f8e706-cfb0-4eb6-929e-527298f2a0db"},"vehicle_type_id":"4","last_reported":1759090174,"current_range_meters":10800,"station_id":"","pricing_plan_id":"cebpf4jnsgd1na2vs0mg"},{"bike_id":"d16f46f5-3d43-4933-b088-bc397093924a","system_id":"levelo_inurba_marseille","lat":43.29843,"lon":5.36293,"is_reserved":false,"is_disabled":true,"rental_uris":{"android":"levelo://app?vid=d16f46f5-3d43-4933-b088-bc397093924a","ios":"levelo://app?vid=d16f46f5-3d43-4933-b088-bc397093924a"},"vehicle_type_id":"4","last_reported":1759090174,"current_range_meters":10800,"station_id":"ce4bgpp2rcd13ifvqc3g","pricing_plan_id":"cebpf4jnsgd1na2vs0mg"},{"bike_id":"7ac81eae-aed2-4f3f-a100-b35f399befc9","system_id":"levelo_inurba_marseille","lat":43.251077,"lon":5.403218,"is_reserved":false,"is_disabled":false,"rental_uris":{"android":"levelo://app?vid=7ac81eae-aed2-4f3f-a100-b35f399befc9","ios":"levelo://app?vid=7ac81eae-aed2-4f3f-a100-b35f399befc9"},"vehicle_type_id":"4","last_reported":1759090174,"current_range_meters":10800,"station_id":"ce4bhlh2rcd13ifvqgig","pricing_plan_id":"cebpf4jnsgd1na2vs0mg"},{"bike_id":"0c1b4f9e-a8b3-49ca-9c30-10a751563074","system_id":"levelo_inurba_marseille","lat":43.29192,"lon":5.39333,"is_reserved":false,"is_disabled":false,"rental_uris":{"android":"levelo://app?vid=0c1b4f9e-a8b3-49ca-9c30-10a751563074","ios":"levelo://app?vid=0c1b4f9e-a8b3-49ca-9c30-10a751563074"},"vehicle_type_id":"4","last_reported":1759090174,"current_range_meters":10800,"station_id":"ce4bh192rcd13ifvqdd0","pricing_plan_id":"cebpf4jnsgd1na2vs0mg"},{"bike_id":"710dfcf0-04c4-4704-89b7-56dbb8103e66","system_id":"levelo_inurba_marseille","lat":43.29068,"lon":5.37153,"is_reserved":false,"is_disabled":true,"rental_uris":{"android":"levelo://app?vid=710dfcf0-04c4-4704-89b7-56dbb8103e66","ios":"levelo://app?vid=710dfcf0-04c4-4704-89b7-56dbb8103e66"},"vehicle_type_id":"4","last_reported":1759090174,"current_range_meters":10800,"station_id":"ce4bh5p2rcd13ifvqe4g","pricing_plan_id":"cebpf4jnsgd1na2vs0mg"},{"bike_id":"95bafeb0-6c7b-407a-a73b-a6569ff5cb66","system_id":"levelo_inurba_marseille","lat":43.33774,"lon":5.37473,"is_reserved":false,"is_disabled":false,"rental_uris":{"android":"levelo://app?vid=95bafeb0-6c7b-407a-a73b-a6569ff5cb66","ios":"levelo://app?vid=95bafeb0-6c7b-407a-a73b-a6569ff5cb66"},"vehicle_type_id":"4","last_reported":1759090174,"current_range_meters":11200,"station_id":"","pricing_plan_id":"cebpf4jnsgd1na2vs0mg"},{"bike_id":"f4c53ff4-73a4-4134-bb3f-bbf464878afb","system_id":"levelo_inurba_marseille","lat":43.24167,"lon":5.36397,"is_reserved":false,"is_disabled":true,"rental_uris":{"android":"levelo://app?vid=f4c53ff4-73a4-4134-bb3f-bbf464878afb","ios":"levelo://app?vid=f4c53ff4-73a4-4134-bb3f-bbf464878afb"},"vehicle_type_id":"4","last_reported":1759090174,"current_range_meters":11200,"station_id":"cpo36qri1sfpv3e86is0","pricing_plan_id":"cebpf4jnsgd1na2vs0mg"},{"bike_id":"c1da1d0f-3e3f-401f-b6dd-8d59e3a9a159","system_id":"levelo_inurba_marseille","lat":43.29897,"lon":5.43646,"is_reserved":false,"is_disabled":false,"rental_uris":{"android":"levelo://app?vid=c1da1d0f-3e3f-401f-b6dd-8d59e3a9a159","ios":"levelo://app?vid=c1da1d0f-3e3f-401f-b6dd-8d59e3a9a159"},"vehicle_type_id":"4","last_reported":1759090174,"current_range_meters":11200,"station_id":"ce4bhpp2rcd13ifvqhfg","pricing_plan_id":"cebpf4jnsgd1na2vs0mg"},{"bike_id":"b6520a8a-87c7-450e-8fe5-e793b0c332b7","system_id":"levelo_inurba_marseille","lat":43.29001,"lon":5.35621,"is_reserved":false,"is_disabled":false,"rental_uris":{"android":"levelo://app?vid=b6520a8a-87c7-450e-8fe5-e793b0c332b7","ios":"levelo://app?vid=b6520a8a-87c7-450e-8fe5-e793b0c332b7"},"vehicle_type_id":"4","last_reported":1759090174,"current_range_meters":11200,"station_id":"ce4bhb92rcd13ifvqen0","pricing_plan_id":"cebpf4jnsgd1na2vs0mg"},{"bike_id":"672b05ff-7b9a-4af8-8a76-0f818048fa1d","system_id":"levelo_inurba_marseille","lat":43.2925,"lon":5.40921,"is_reserved":false,"is_disabled":false,"rental_uris":{"android":"levelo://app?vid=672b05ff-7b9a-4af8-8a76-0f818048fa1d","ios":"levelo://app?vid=672b05ff-7b9a-4af8-8a76-0f818048fa1d"},"vehicle_type_id":"4","last_reported":1759090174,"current_range_meters":11200,"station_id":"ce4bh192rcd13ifvqdc0","pricing_plan_id":"cebpf4jnsgd1na2vs0mg"},{"bike_id":"a2a842f6-fc46-40d7-b7a6-d9d5a8c99dfa","system_id":"levelo_inurba_marseille","lat":43.32001,"lon":5.3814,"is_reserved":false,"is_disabled":true,"rental_uris":{"android":"levelo://app?vid=a2a842f6-fc46-40d7-b7a6-d9d5a8c99dfa","ios":"levelo://app?vid=a2a842f6-fc46-40d7-b7a6-d9d5a8c99dfa"},"vehicle_type_id":"4","last_reported":1759090174,"current_range_meters":11200,"station_id":"ce4bhr12rcd13ifvqhpg","pricing_plan_id":"cebpf4jnsgd1na2vs0mg"},{"bike_id":"afb3a0b1-c807-4eff-8fb4-4964910f49c8","system_id":"levelo_inurba_marseille","lat":43.21741,"lon":5.34611,"is_reserved":false,"is_disabled":true,"rental_uris":{"android":"levelo://app?vid=afb3a0b1-c807-4eff-8fb4-4964910f49c8","ios":"levelo://app?vid=afb3a0b1-c807-4eff-8fb4-4964910f49c8"},"vehicle_type_id":"4","last_reported":1759090174,"current_range_meters":11200,"station_id":"st_cvj6r9ubvosntc0bgbag","pricing_plan_id":"cebpf4jnsgd1na2vs0mg"},{"bike_id":"b8ab9e70-8d97-43e2-b0eb-bf353e8646f8","system_id":"levelo_inurba_marseille","lat":43.26237,"lon":5.40418,"is_reserved":false,"is_disabled":false,"rental_uris":{"android":"levelo://app?vid=b8ab9e70-8d97-43e2-b0eb-bf353e8646f8","ios":"levelo://app?vid=b8ab9e70-8d97-43e2-b0eb-bf353e8646f8"},"vehicle_type_id":"4","last_reported":1759090174,"current_range_meters":11200,"station_id":"ce4bhmh2rcd13ifvqgmg","pricing_plan_id":"cebpf4jnsgd1na2vs0mg"},{"bike_id":"818f8e2b-b8b6-48e8-8505-72a6d8e9a5f7","system_id":"levelo_inurba_marseille","lat":43.30261,"lon":5.40048,"is_reserved":false,"is_disabled":false,"rental_uris":{"android":"levelo://app?vid=818f8e2b-b8b6-48e8-8505-72a6d8e9a5f7","ios":"levelo://app?vid=818f8e2b-b8b6-48e8-8505-72a6d8e9a5f7"},"vehicle_type_id":"4","last_reported":1759090174,"current_range_meters":11200,"station_id":"ce4bgvh2rcd13ifvqcs0","pricing_plan_id":"cebpf4jnsgd1na2vs0mg"},{"bike_id":"258ab053-1083-4ca9-a32a-1e85f085fc22","system_id":"levelo_inurba_marseille","lat":43.337444,"lon":5.374475,"is_reserved":false,"is_disabled":false,"rental_uris":{"android":"levelo://app?vid=258ab053-1083-4ca9-a32a-1e85f085fc22","ios":"levelo://app?vid=258ab053-1083-4ca9-a32a-1e85f085fc22"},"vehicle_type_id":"4","last_reported":1759090174,"current_range_meters":11200,"station_id":"","pricing_plan_id":"cebpf4jnsgd1na2vs0mg"},{"bike_id":"6962806f-5502-4a1f-9709-5ea60b1910fe","system_id":"levelo_inurba_marseille","lat":43.25821,"lon":5.39436,"is_reserved":false,"is_disabled":false,"rental_uris":{"android":"levelo://app?vid=6962806f-5502-4a1f-9709-5ea60b1910fe","ios":"levelo://app?vid=6962806f-5502-4a1f-9709-5ea60b1910fe"},"vehicle_type_id":"4","last_reported":1759090174,"current_range_meters":11600,"station_id":"ce4bhip2rcd13ifvqft0","pricing_plan_id":"cebpf4jnsgd1na2vs0mg"},{"bike_id":"dafbf689-a513-42ec-9ec6-4abecd3bdf78","system_id":"levelo_inurba_marseille","lat":43.24178,"lon":5.39726,"is_reserved":false,"is_disabled":false,"rental_uris":{"android":"levelo://app?vid=dafbf689-a513-42ec-9ec6-4abecd3bdf78","ios":"levelo://app?vid=dafbf689-a513-42ec-9ec6-4abecd3bdf78"},"vehicle_type_id":"4","last_reported":1759090174,"current_range_meters":11600,"station_id":"ce4bhn12rcd13ifvqgpg","pricing_plan_id":"cebpf4jnsgd1na2vs0mg"},{"bike_id":"0475f79c-656d-48ef-a917-f0763e08bff1","system_id":"levelo_inurba_marseille","lat":43.29879,"lon":5.39755,"is_reserved":false,"is_disabled":false,"rental_uris":{"android":"levelo://app?vid=0475f79c-656d-48ef-a917-f0763e08bff1","ios":"levelo://app?vid=0475f79c-656d-48ef-a917-f0763e08bff1"},"vehicle_type_id":"4","last_reported":1759090174,"current_range_meters":11600,"station_id":"ce4bh0h2rcd13ifvqd50","pricing_plan_id":"cebpf4jnsgd1na2vs0mg"},{"bike_id":"360c0746-c854-4629-884f-7c911de53d9d","system_id":"levelo_inurba_marseille","lat":43.32084,"lon":5.38588,"is_reserved":false,"is_disabled":true,"rental_uris":{"android":"levelo://app?vid=360c0746-c854-4629-884f-7c911de53d9d","ios":"levelo://app?vid=360c0746-c854-4629-884f-7c911de53d9d"},"vehicle_type_id":"4","last_reported":1759090174,"current_range_meters":11600,"station_id":"","pricing_plan_id":"cebpf4jnsgd1na2vs0mg"},{"bike_id":"5714f7ab-6932-4f9f-98d4-e0d81d9a0b30","system_id":"levelo_inurba_marseille","lat":43.24658,"lon":5.38165,"is_reserved":false,"is_disabled":false,"rental_uris":{"android":"levelo://app?vid=5714f7ab-6932-4f9f-98d4-e0d81d9a0b30","ios":"levelo://app?vid=5714f7ab-6932-4f9f-98d4-e0d81d9a0b30"},"vehicle_type_id":"4","last_reported":1759090174,"current_range_meters":11600,"station_id":"ce4bhih2rcd13ifvqfr0","pricing_plan_id":"cebpf4jnsgd1na2vs0mg"},{"bike_id":"7554dcd6-05e3-45f1-abe8-c38857bfd06b","system_id":"levelo_inurba_marseille","lat":43.29599,"lon":5.38104,"is_reserved":false,"is_disabled":false,"rental_uris":{"android":"levelo://app?vid=7554dcd6-05e3-45f1-abe8-c38857bfd06b","ios":"levelo://app?vid=7554dcd6-05e3-45f1-abe8-c38857bfd06b"},"vehicle_type_id":"4","last_reported":1759090174,"current_range_meters":11600,"station_id":"ce4bgl12rcd13ifvqbo0","pricing_plan_id":"cebpf4jnsgd1na2vs0mg"},{"bike_id":"b0cbb6fa-8f02-4cac-b727-23382a233f31","system_id":"levelo_inurba_marseille","lat":43.30304,"lon":5.3689,"is_reserved":false,"is_disabled":false,"rental_uris":{"android":"levelo://app?vid=b0cbb6fa-8f02-4cac-b727-23382a233f31","ios":"levelo://app?vid=b0cbb6fa-8f02-4cac-b727-23382a233f31"},"vehicle_type_id":"4","last_reported":1759090174,"current_range_meters":11600,"station_id":"ce4bgqh2rcd13ifvqc5g","pricing_plan_id":"cebpf4jnsgd1na2vs0mg"},{"bike_id":"e3fe1c25-77d6-4c99-a172-35c670f24da9","system_id":"levelo_inurba_marseille","lat":43.28614,"lon":5.35109,"is_reserved":false,"is_disabled":true,"rental_uris":{"android":"levelo://app?vid=e3fe1c25-77d6-4c99-a172-35c670f24da9","ios":"levelo://app?vid=e3fe1c25-77d6-4c99-a172-35c670f24da9"},"vehicle_type_id":"4","last_reported":1759090174,"current_range_meters":11600,"station_id":"ce4bhch2rcd13ifvqeug","pricing_plan_id":"cebpf4jnsgd1na2vs0mg"},{"bike_id":"f12c1c9a-5ec0-4d16-b161-288c3eaaa062","system_id":"levelo_inurba_marseille","lat":43.25326,"lon":5.42182,"is_reserved":false,"is_disabled":false,"rental_uris":{"android":"levelo://app?vid=f12c1c9a-5ec0-4d16-b161-288c3eaaa062","ios":"levelo://app?vid=f12c1c9a-5ec0-4d16-b161-288c3eaaa062"},"vehicle_type_id":"4","last_reported":1759090174,"current_range_meters":11600,"station_id":"st_d2m65c5bi1j21697t3ng","pricing_plan_id":"cebpf4jnsgd1na2vs0mg"},{"bike_id":"84d84f4a-29f2-45a5-878f-bb4fd9d1de8b","system_id":"levelo_inurba_marseille","lat":43.30252,"lon":5.40035,"is_reserved":false,"is_disabled":false,"rental_uris":{"android":"levelo://app?vid=84d84f4a-29f2-45a5-878f-bb4fd9d1de8b","ios":"levelo://app?vid=84d84f4a-29f2-45a5-878f-bb4fd9d1de8b"},"vehicle_type_id":"4","last_reported":1759090174,"current_range_meters":12000,"station_id":"ce4bgvh2rcd13ifvqcs0","pricing_plan_id":"cebpf4jnsgd1na2vs0mg"},{"bike_id":"2c6518be-b3f0-42d2-93c9-c1de9e54885f","system_id":"levelo_inurba_marseille","lat":43.29227,"lon":5.38219,"is_reserved":false,"is_disabled":false,"rental_uris":{"android":"levelo://app?vid=2c6518be-b3f0-42d2-93c9-c1de9e54885f","ios":"levelo://app?vid=2c6518be-b3f0-42d2-93c9-c1de9e54885f"},"vehicle_type_id":"4","last_reported":1759090174,"current_range_meters":12000,"station_id":"","pricing_plan_id":"cebpf4jnsgd1na2vs0mg"},{"bike_id":"454e363a-ae22-4379-b9c1-b61cbf2024fa","system_id":"levelo_inurba_marseille","lat":43.29186,"lon":5.39335,"is_reserved":false,"is_disabled":false,"rental_uris":{"android":"levelo://app?vid=454e363a-ae22-4379-b9c1-b61cbf2024fa","ios":"levelo://app?vid=454e363a-ae22-4379-b9c1-b61cbf2024fa"},"vehicle_type_id":"4","last_reported":1759090174,"current_range_meters":12000,"station_id":"ce4bh192rcd13ifvqdd0","pricing_plan_id":"cebpf4jnsgd1na2vs0mg"},{"bike_id":"d58ddcbe-70d7-4259-abad-73cc43b8b8b9","system_id":"levelo_inurba_marseille","lat":43.230477,"lon":5.355,"is_reserved":false,"is_disabled":true,"rental_uris":{"android":"levelo://app?vid=d58ddcbe-70d7-4259-abad-73cc43b8b8b9","ios":"levelo://app?vid=d58ddcbe-70d7-4259-abad-73cc43b8b8b9"},"vehicle_type_id":"4","last_reported":1759090174,"current_range_meters":12000,"station_id":"cpo3342slgdg3j2ifvpg","pricing_plan_id":"cebpf4jnsgd1na2vs0mg"},{"bike_id":"83bacdaa-72b6-4f6c-bddd-a7ce01145202","system_id":"levelo_inurba_marseille","lat":43.31325,"lon":5.39688,"is_reserved":false,"is_disabled":false,"rental_uris":{"android":"levelo://app?vid=83bacdaa-72b6-4f6c-bddd-a7ce01145202","ios":"levelo://app?vid=83bacdaa-72b6-4f6c-bddd-a7ce01145202"},"vehicle_type_id":"4","last_reported":1759090174,"current_range_meters":12000,"station_id":"ce4bgvp2rcd13ifvqcu0","pricing_plan_id":"cebpf4jnsgd1na2vs0mg"},{"bike_id":"5fe7f407-3191-4d84-bcf8-5bce6d58e56d","system_id":"levelo_inurba_marseille","lat":43.22923,"lon":5.35378,"is_reserved":false,"is_disabled":false,"rental_uris":{"android":"levelo://app?vid=5fe7f407-3191-4d84-bcf8-5bce6d58e56d","ios":"levelo://app?vid=5fe7f407-3191-4d84-bcf8-5bce6d58e56d"},"vehicle_type_id":"4","last_reported":1759090174,"current_range_meters":12000,"station_id":"cpo3532slgdg3j2ikp40","pricing_plan_id":"cebpf4jnsgd1na2vs0mg"},{"bike_id":"644cffef-bd0f-4766-aee1-2f6e9e0483da","system_id":"levelo_inurba_marseille","lat":43.3094,"lon":5.40142,"is_reserved":false,"is_disabled":false,"rental_uris":{"android":"levelo://app?vid=644cffef-bd0f-4766-aee1-2f6e9e0483da","ios":"levelo://app?vid=644cffef-bd0f-4766-aee1-2f6e9e0483da"},"vehicle_type_id":"4","last_reported":1759090174,"current_range_meters":12000,"station_id":"ce4bgvp2rcd13ifvqct0","pricing_plan_id":"cebpf4jnsgd1na2vs0mg"},{"bike_id":"06ea213b-16ca-4b22-b5dc-210c35e2204b","system_id":"levelo_inurba_marseille","lat":43.30138,"lon":5.387831,"is_reserved":false,"is_disabled":false,"rental_uris":{"android":"levelo://app?vid=06ea213b-16ca-4b22-b5dc-210c35e2204b","ios":"levelo://app?vid=06ea213b-16ca-4b22-b5dc-210c35e2204b"},"vehicle_type_id":"4","last_reported":1759090174,"current_range_meters":12000,"station_id":"ce4bghh2rcd13ifvqb60","pricing_plan_id":"cebpf4jnsgd1na2vs0mg"},{"bike_id":"1dad2113-89e2-44fc-a0b6-ddd6a09baff1","system_id":"levelo_inurba_marseille","lat":43.337444,"lon":5.374475,"is_reserved":false,"is_disabled":false,"rental_uris":{"android":"levelo://app?vid=1dad2113-89e2-44fc-a0b6-ddd6a09baff1","ios":"levelo://app?vid=1dad2113-89e2-44fc-a0b6-ddd6a09baff1"},"vehicle_type_id":"4","last_reported":1759090174,"current_range_meters":12000,"station_id":"","pricing_plan_id":"cebpf4jnsgd1na2vs0mg"},{"bike_id":"3cb1dae7-6bcd-41e5-b1b7-c1d25c751a99","system_id":"levelo_inurba_marseille","lat":43.337635,"lon":5.374385,"is_reserved":false,"is_disabled":false,"rental_uris":{"android":"levelo://app?vid=3cb1dae7-6bcd-41e5-b1b7-c1d25c751a99","ios":"levelo://app?vid=3cb1dae7-6bcd-41e5-b1b7-c1d25c751a99"},"vehicle_type_id":"4","last_reported":1759090174,"current_range_meters":12400,"station_id":"","pricing_plan_id":"cebpf4jnsgd1na2vs0mg"},{"bike_id":"0c38051c-a803-44c4-90a1-151a4109583c","system_id":"levelo_inurba_marseille","lat":43.28683,"lon":5.38667,"is_reserved":false,"is_disabled":true,"rental_uris":{"android":"levelo://app?vid=0c38051c-a803-44c4-90a1-151a4109583c","ios":"levelo://app?vid=0c38051c-a803-44c4-90a1-151a4109583c"},"vehicle_type_id":"4","last_reported":1759090174,"current_range_meters":12400,"station_id":"ce4bh492rcd13ifvqdug","pricing_plan_id":"cebpf4jnsgd1na2vs0mg"},{"bike_id":"b0878050-adec-497d-9054-1ddfac7f9fda","system_id":"levelo_inurba_marseille","lat":43.29248,"lon":5.4091,"is_reserved":false,"is_disabled":false,"rental_uris":{"android":"levelo://app?vid=b0878050-adec-497d-9054-1ddfac7f9fda","ios":"levelo://app?vid=b0878050-adec-497d-9054-1ddfac7f9fda"},"vehicle_type_id":"4","last_reported":1759090174,"current_range_meters":12000,"station_id":"ce4bh192rcd13ifvqdc0","pricing_plan_id":"cebpf4jnsgd1na2vs0mg"},{"bike_id":"79a5192a-a4a4-4f3f-bf10-cd478ca195ef","system_id":"levelo_inurba_marseille","lat":43.25832,"lon":5.39421,"is_reserved":false,"is_disabled":false,"rental_uris":{"android":"levelo://app?vid=79a5192a-a4a4-4f3f-bf10-cd478ca195ef","ios":"levelo://app?vid=79a5192a-a4a4-4f3f-bf10-cd478ca195ef"},"vehicle_type_id":"4","last_reported":1759090174,"current_range_meters":12400,"station_id":"ce4bhip2rcd13ifvqft0","pricing_plan_id":"cebpf4jnsgd1na2vs0mg"},{"bike_id":"6f0c1749-517c-4897-91c9-50c589e202de","system_id":"levelo_inurba_marseille","lat":43.34148,"lon":5.4093,"is_reserved":false,"is_disabled":true,"rental_uris":{"android":"levelo://app?vid=6f0c1749-517c-4897-91c9-50c589e202de","ios":"levelo://app?vid=6f0c1749-517c-4897-91c9-50c589e202de"},"vehicle_type_id":"4","last_reported":1759090174,"current_range_meters":12800,"station_id":"ce4bhqh2rcd13ifvqhlg","pricing_plan_id":"cebpf4jnsgd1na2vs0mg"},{"bike_id":"20c1c77a-f4d0-45da-bf37-9dfdc8268d18","system_id":"levelo_inurba_marseille","lat":43.32002,"lon":5.38138,"is_reserved":false,"is_disabled":false,"rental_uris":{"android":"levelo://app?vid=20c1c77a-f4d0-45da-bf37-9dfdc8268d18","ios":"levelo://app?vid=20c1c77a-f4d0-45da-bf37-9dfdc8268d18"},"vehicle_type_id":"4","last_reported":1759090174,"current_range_meters":12800,"station_id":"ce4bhr12rcd13ifvqhpg","pricing_plan_id":"cebpf4jnsgd1na2vs0mg"},{"bike_id":"151d75a0-434c-41d6-a3a8-42bc6a9a604c","system_id":"levelo_inurba_marseille","lat":43.31757,"lon":5.39017,"is_reserved":false,"is_disabled":false,"rental_uris":{"android":"levelo://app?vid=151d75a0-434c-41d6-a3a8-42bc6a9a604c","ios":"levelo://app?vid=151d75a0-434c-41d6-a3a8-42bc6a9a604c"},"vehicle_type_id":"4","last_reported":1759090174,"current_range_meters":12800,"station_id":"ce4bgt92rcd13ifvqcf0","pricing_plan_id":"cebpf4jnsgd1na2vs0mg"},{"bike_id":"01e260f5-828c-4df2-9bc4-ca80e799f979","system_id":"levelo_inurba_marseille","lat":43.2417,"lon":5.36399,"is_reserved":false,"is_disabled":true,"rental_uris":{"android":"levelo://app?vid=01e260f5-828c-4df2-9bc4-ca80e799f979","ios":"levelo://app?vid=01e260f5-828c-4df2-9bc4-ca80e799f979"},"vehicle_type_id":"4","last_reported":1759090174,"current_range_meters":12800,"station_id":"cpo36qri1sfpv3e86is0","pricing_plan_id":"cebpf4jnsgd1na2vs0mg"},{"bike_id":"946fa785-ee55-4fe8-a3f0-8dc88b65a494","system_id":"levelo_inurba_marseille","lat":43.30953,"lon":5.39054,"is_reserved":false,"is_disabled":false,"rental_uris":{"android":"levelo://app?vid=946fa785-ee55-4fe8-a3f0-8dc88b65a494","ios":"levelo://app?vid=946fa785-ee55-4fe8-a3f0-8dc88b65a494"},"vehicle_type_id":"4","last_reported":1759090174,"current_range_meters":12800,"station_id":"ce4bgup2rcd13ifvqco0","pricing_plan_id":"cebpf4jnsgd1na2vs0mg"},{"bike_id":"e7a07ee7-ff27-4e97-adec-6f7b9b9085bf","system_id":"levelo_inurba_marseille","lat":43.28869,"lon":5.42517,"is_reserved":false,"is_disabled":false,"rental_uris":{"android":"levelo://app?vid=e7a07ee7-ff27-4e97-adec-6f7b9b9085bf","ios":"levelo://app?vid=e7a07ee7-ff27-4e97-adec-6f7b9b9085bf"},"vehicle_type_id":"4","last_reported":1759090174,"current_range_meters":12800,"station_id":"st_d3b462108ojc7389ooeg","pricing_plan_id":"cebpf4jnsgd1na2vs0mg"},{"bike_id":"d7d09523-34bb-44d2-9695-02f0abea9b47","system_id":"levelo_inurba_marseille","lat":43.29731,"lon":5.37923,"is_reserved":false,"is_disabled":false,"rental_uris":{"android":"levelo://app?vid=d7d09523-34bb-44d2-9695-02f0abea9b47","ios":"levelo://app?vid=d7d09523-34bb-44d2-9695-02f0abea9b47"},"vehicle_type_id":"4","last_reported":1759090174,"current_range_meters":12800,"station_id":"","pricing_plan_id":"cebpf4jnsgd1na2vs0mg"},{"bike_id":"0ba74de0-ecf2-426c-a16f-6ff84f030f1a","system_id":"levelo_inurba_marseille","lat":43.29028,"lon":5.38142,"is_reserved":false,"is_disabled":false,"rental_uris":{"android":"levelo://app?vid=0ba74de0-ecf2-426c-a16f-6ff84f030f1a","ios":"levelo://app?vid=0ba74de0-ecf2-426c-a16f-6ff84f030f1a"},"vehicle_type_id":"4","last_reported":1759090174,"current_range_meters":13600,"station_id":"ce4bh4p2rcd13ifvqe1g","pricing_plan_id":"cebpf4jnsgd1na2vs0mg"},{"bike_id":"35e8f722-b82a-4247-beb8-7e2827829ce6","system_id":"levelo_inurba_marseille","lat":43.32405,"lon":5.3911,"is_reserved":false,"is_disabled":false,"rental_uris":{"android":"levelo://app?vid=35e8f722-b82a-4247-beb8-7e2827829ce6","ios":"levelo://app?vid=35e8f722-b82a-4247-beb8-7e2827829ce6"},"vehicle_type_id":"4","last_reported":1759090174,"current_range_meters":13600,"station_id":"","pricing_plan_id":"cebpf4jnsgd1na2vs0mg"},{"bike_id":"a6cee7c9-3a1e-422b-9783-73986398ebf4","system_id":"levelo_inurba_marseille","lat":43.30932,"lon":5.37167,"is_reserved":false,"is_disabled":false,"rental_uris":{"android":"levelo://app?vid=a6cee7c9-3a1e-422b-9783-73986398ebf4","ios":"levelo://app?vid=a6cee7c9-3a1e-422b-9783-73986398ebf4"},"vehicle_type_id":"4","last_reported":1759090174,"current_range_meters":13600,"station_id":"ce4bguh2rcd13ifvqckg","pricing_plan_id":"cebpf4jnsgd1na2vs0mg"},{"bike_id":"e5cca1d3-7b83-4815-adc1-45ead40eb28d","system_id":"levelo_inurba_marseille","lat":43.32098,"lon":5.36789,"is_reserved":false,"is_disabled":false,"rental_uris":{"android":"levelo://app?vid=e5cca1d3-7b83-4815-adc1-45ead40eb28d","ios":"levelo://app?vid=e5cca1d3-7b83-4815-adc1-45ead40eb28d"},"vehicle_type_id":"4","last_reported":1759090174,"current_range_meters":13600,"station_id":"ce4bhrh2rcd13ifvqhug","pricing_plan_id":"cebpf4jnsgd1na2vs0mg"},{"bike_id":"635071ed-02d3-4b01-8c73-ee2bb364e406","system_id":"levelo_inurba_marseille","lat":43.29249,"lon":5.38448,"is_reserved":false,"is_disabled":false,"rental_uris":{"android":"levelo://app?vid=635071ed-02d3-4b01-8c73-ee2bb364e406","ios":"levelo://app?vid=635071ed-02d3-4b01-8c73-ee2bb364e406"},"vehicle_type_id":"4","last_reported":1759090174,"current_range_meters":13600,"station_id":"ce4bh692rcd13ifvqea0","pricing_plan_id":"cebpf4jnsgd1na2vs0mg"},{"bike_id":"e5378695-fba9-432a-9cfb-3b5b05e40fec","system_id":"levelo_inurba_marseille","lat":43.337986,"lon":5.374304,"is_reserved":false,"is_disabled":false,"rental_uris":{"android":"levelo://app?vid=e5378695-fba9-432a-9cfb-3b5b05e40fec","ios":"levelo://app?vid=e5378695-fba9-432a-9cfb-3b5b05e40fec"},"vehicle_type_id":"4","last_reported":1759090174,"current_range_meters":13600,"station_id":"","pricing_plan_id":"cebpf4jnsgd1na2vs0mg"},{"bike_id":"aef170f6-3306-46fe-9dab-25f26114ab13","system_id":"levelo_inurba_marseille","lat":43.32355,"lon":5.36779,"is_reserved":false,"is_disabled":false,"rental_uris":{"android":"levelo://app?vid=aef170f6-3306-46fe-9dab-25f26114ab13","ios":"levelo://app?vid=aef170f6-3306-46fe-9dab-25f26114ab13"},"vehicle_type_id":"4","last_reported":1759090174,"current_range_meters":14000,"station_id":"ce4bhsh2rcd13ifvqi2g","pricing_plan_id":"cebpf4jnsgd1na2vs0mg"},{"bike_id":"843ad08f-1105-4165-945b-fad85146cb63","system_id":"levelo_inurba_marseille","lat":43.29572,"lon":5.39972,"is_reserved":false,"is_disabled":false,"rental_uris":{"android":"levelo://app?vid=843ad08f-1105-4165-945b-fad85146cb63","ios":"levelo://app?vid=843ad08f-1105-4165-945b-fad85146cb63"},"vehicle_type_id":"4","last_reported":1759090174,"current_range_meters":14000,"station_id":"ce4bh312rcd13ifvqdj0","pricing_plan_id":"cebpf4jnsgd1na2vs0mg"},{"bike_id":"d3d81408-5ed0-4ea5-932d-25be4585d0a2","system_id":"levelo_inurba_marseille","lat":43.30794,"lon":5.38158,"is_reserved":false,"is_disabled":false,"rental_uris":{"android":"levelo://app?vid=d3d81408-5ed0-4ea5-932d-25be4585d0a2","ios":"levelo://app?vid=d3d81408-5ed0-4ea5-932d-25be4585d0a2"},"vehicle_type_id":"4","last_reported":1759090174,"current_range_meters":14000,"station_id":"ce4bgt12rcd13ifvqce0","pricing_plan_id":"cebpf4jnsgd1na2vs0mg"},{"bike_id":"c9b2b6fb-5c53-4453-a146-51be25fe07e4","system_id":"levelo_inurba_marseille","lat":43.21746,"lon":5.34596,"is_reserved":false,"is_disabled":false,"rental_uris":{"android":"levelo://app?vid=c9b2b6fb-5c53-4453-a146-51be25fe07e4","ios":"levelo://app?vid=c9b2b6fb-5c53-4453-a146-51be25fe07e4"},"vehicle_type_id":"4","last_reported":1759090174,"current_range_meters":14000,"station_id":"st_cvj6r9ubvosntc0bgbag","pricing_plan_id":"cebpf4jnsgd1na2vs0mg"},{"bike_id":"4822dd99-56ec-44f6-a9b9-ee0ae5dcc1bf","system_id":"levelo_inurba_marseille","lat":43.30009,"lon":5.39994,"is_reserved":false,"is_disabled":false,"rental_uris":{"android":"levelo://app?vid=4822dd99-56ec-44f6-a9b9-ee0ae5dcc1bf","ios":"levelo://app?vid=4822dd99-56ec-44f6-a9b9-ee0ae5dcc1bf"},"vehicle_type_id":"4","last_reported":1759090174,"current_range_meters":14000,"station_id":"ce4bh0h2rcd13ifvqd40","pricing_plan_id":"cebpf4jnsgd1na2vs0mg"},{"bike_id":"91483b5e-55c6-480b-b8a1-0036bb9da59a","system_id":"levelo_inurba_marseille","lat":43.28079,"lon":5.39664,"is_reserved":false,"is_disabled":false,"rental_uris":{"android":"levelo://app?vid=91483b5e-55c6-480b-b8a1-0036bb9da59a","ios":"levelo://app?vid=91483b5e-55c6-480b-b8a1-0036bb9da59a"},"vehicle_type_id":"4","last_reported":1759090174,"current_range_meters":14000,"station_id":"ce4bho12rcd13ifvqh2g","pricing_plan_id":"cebpf4jnsgd1na2vs0mg"},{"bike_id":"02fb4eb6-9203-431e-bd5c-fe9dd3847cf2","system_id":"levelo_inurba_marseille","lat":43.24172,"lon":5.36383,"is_reserved":false,"is_disabled":false,"rental_uris":{"android":"levelo://app?vid=02fb4eb6-9203-431e-bd5c-fe9dd3847cf2","ios":"levelo://app?vid=02fb4eb6-9203-431e-bd5c-fe9dd3847cf2"},"vehicle_type_id":"4","last_reported":1759090174,"current_range_meters":14000,"station_id":"cpo36qri1sfpv3e86is0","pricing_plan_id":"cebpf4jnsgd1na2vs0mg"},{"bike_id":"0656741e-4baa-4804-921b-3ed5233045aa","system_id":"levelo_inurba_marseille","lat":43.24633,"lon":5.4315,"is_reserved":false,"is_disabled":false,"rental_uris":{"android":"levelo://app?vid=0656741e-4baa-4804-921b-3ed5233045aa","ios":"levelo://app?vid=0656741e-4baa-4804-921b-3ed5233045aa"},"vehicle_type_id":"4","last_reported":1759090174,"current_range_meters":14000,"station_id":"st_d2m6c4gdas8pm72e190g","pricing_plan_id":"cebpf4jnsgd1na2vs0mg"},{"bike_id":"73e0877c-52aa-4d1a-8169-83c3ea6a2c95","system_id":"levelo_inurba_marseille","lat":43.30787,"lon":5.38152,"is_reserved":false,"is_disabled":false,"rental_uris":{"android":"levelo://app?vid=73e0877c-52aa-4d1a-8169-83c3ea6a2c95","ios":"levelo://app?vid=73e0877c-52aa-4d1a-8169-83c3ea6a2c95"},"vehicle_type_id":"4","last_reported":1759090174,"current_range_meters":14000,"station_id":"ce4bgt12rcd13ifvqce0","pricing_plan_id":"cebpf4jnsgd1na2vs0mg"},{"bike_id":"327c041e-5c9e-4b0d-a97c-a2dbaab036ae","system_id":"levelo_inurba_marseille","lat":43.32813,"lon":5.4113,"is_reserved":false,"is_disabled":false,"rental_uris":{"android":"levelo://app?vid=327c041e-5c9e-4b0d-a97c-a2dbaab036ae","ios":"levelo://app?vid=327c041e-5c9e-4b0d-a97c-a2dbaab036ae"},"vehicle_type_id":"4","last_reported":1759090174,"current_range_meters":14400,"station_id":"","pricing_plan_id":"cebpf4jnsgd1na2vs0mg"},{"bike_id":"c4752af8-c6d6-4504-b7e4-77fcff288a7d","system_id":"levelo_inurba_marseille","lat":43.30326,"lon":5.40442,"is_reserved":false,"is_disabled":false,"rental_uris":{"android":"levelo://app?vid=c4752af8-c6d6-4504-b7e4-77fcff288a7d","ios":"levelo://app?vid=c4752af8-c6d6-4504-b7e4-77fcff288a7d"},"vehicle_type_id":"4","last_reported":1759090174,"current_range_meters":14400,"station_id":"ce4bh012rcd13ifvqd10","pricing_plan_id":"cebpf4jnsgd1na2vs0mg"},{"bike_id":"677a0b1c-d5ca-4154-a464-cd0c0a8279d2","system_id":"levelo_inurba_marseille","lat":43.29006,"lon":5.35647,"is_reserved":false,"is_disabled":true,"rental_uris":{"android":"levelo://app?vid=677a0b1c-d5ca-4154-a464-cd0c0a8279d2","ios":"levelo://app?vid=677a0b1c-d5ca-4154-a464-cd0c0a8279d2"},"vehicle_type_id":"4","last_reported":1759090174,"current_range_meters":14400,"station_id":"ce4bhb92rcd13ifvqen0","pricing_plan_id":"cebpf4jnsgd1na2vs0mg"},{"bike_id":"01d71389-0b80-4650-affd-c19dc5c27b50","system_id":"levelo_inurba_marseille","lat":43.23958,"lon":5.36636,"is_reserved":false,"is_disabled":true,"rental_uris":{"android":"levelo://app?vid=01d71389-0b80-4650-affd-c19dc5c27b50","ios":"levelo://app?vid=01d71389-0b80-4650-affd-c19dc5c27b50"},"vehicle_type_id":"4","last_reported":1759090174,"current_range_meters":14400,"station_id":"ce4bhi12rcd13ifvqfp0","pricing_plan_id":"cebpf4jnsgd1na2vs0mg"},{"bike_id":"a1e2b7f3-f53e-4b6a-b8f1-27b0fbf9634d","system_id":"levelo_inurba_marseille","lat":43.31875,"lon":5.37317,"is_reserved":false,"is_disabled":false,"rental_uris":{"android":"levelo://app?vid=a1e2b7f3-f53e-4b6a-b8f1-27b0fbf9634d","ios":"levelo://app?vid=a1e2b7f3-f53e-4b6a-b8f1-27b0fbf9634d"},"vehicle_type_id":"4","last_reported":1759090174,"current_range_meters":15200,"station_id":"","pricing_plan_id":"cebpf4jnsgd1na2vs0mg"},{"bike_id":"e0e9194b-710d-4981-ad65-ba5929d7512b","system_id":"levelo_inurba_marseille","lat":43.306022,"lon":5.384559,"is_reserved":false,"is_disabled":false,"rental_uris":{"android":"levelo://app?vid=e0e9194b-710d-4981-ad65-ba5929d7512b","ios":"levelo://app?vid=e0e9194b-710d-4981-ad65-ba5929d7512b"},"vehicle_type_id":"4","last_reported":1759090174,"current_range_meters":14800,"station_id":"","pricing_plan_id":"cebpf4jnsgd1na2vs0mg"},{"bike_id":"73bbd8a8-62e4-4a7e-9641-f59dbff0423a","system_id":"levelo_inurba_marseille","lat":43.30204,"lon":5.39472,"is_reserved":false,"is_disabled":true,"rental_uris":{"android":"levelo://app?vid=73bbd8a8-62e4-4a7e-9641-f59dbff0423a","ios":"levelo://app?vid=73bbd8a8-62e4-4a7e-9641-f59dbff0423a"},"vehicle_type_id":"4","last_reported":1759090174,"current_range_meters":14800,"station_id":"ce4bh0p2rcd13ifvqd70","pricing_plan_id":"cebpf4jnsgd1na2vs0mg"},{"bike_id":"c8eb7660-6046-4e9c-8c85-8306cbdbfdf8","system_id":"levelo_inurba_marseille","lat":43.24621,"lon":5.43157,"is_reserved":false,"is_disabled":false,"rental_uris":{"android":"levelo://app?vid=c8eb7660-6046-4e9c-8c85-8306cbdbfdf8","ios":"levelo://app?vid=c8eb7660-6046-4e9c-8c85-8306cbdbfdf8"},"vehicle_type_id":"4","last_reported":1759090174,"current_range_meters":14800,"station_id":"st_d2m6c4gdas8pm72e190g","pricing_plan_id":"cebpf4jnsgd1na2vs0mg"},{"bike_id":"3b530333-201c-4f53-a98d-ce6c8fa2e551","system_id":"levelo_inurba_marseille","lat":43.260279,"lon":5.375515,"is_reserved":false,"is_disabled":true,"rental_uris":{"android":"levelo://app?vid=3b530333-201c-4f53-a98d-ce6c8fa2e551","ios":"levelo://app?vid=3b530333-201c-4f53-a98d-ce6c8fa2e551"},"vehicle_type_id":"4","last_reported":1759090174,"current_range_meters":14800,"station_id":"ce4bhgh2rcd13ifvqfa0","pricing_plan_id":"cebpf4jnsgd1na2vs0mg"},{"bike_id":"f4bc1f7f-7210-48f7-a6c2-5bb4941ac693","system_id":"levelo_inurba_marseille","lat":43.27218,"lon":5.39194,"is_reserved":false,"is_disabled":true,"rental_uris":{"android":"levelo://app?vid=f4bc1f7f-7210-48f7-a6c2-5bb4941ac693","ios":"levelo://app?vid=f4bc1f7f-7210-48f7-a6c2-5bb4941ac693"},"vehicle_type_id":"4","last_reported":1759090174,"current_range_meters":14800,"station_id":"ce4bhhp2rcd13ifvqfm0","pricing_plan_id":"cebpf4jnsgd1na2vs0mg"},{"bike_id":"80b98ce0-3233-47ce-84db-722943723d1e","system_id":"levelo_inurba_marseille","lat":43.269329,"lon":5.38928,"is_reserved":false,"is_disabled":false,"rental_uris":{"android":"levelo://app?vid=80b98ce0-3233-47ce-84db-722943723d1e","ios":"levelo://app?vid=80b98ce0-3233-47ce-84db-722943723d1e"},"vehicle_type_id":"4","last_reported":1759090174,"current_range_meters":14800,"station_id":"","pricing_plan_id":"cebpf4jnsgd1na2vs0mg"},{"bike_id":"f060d515-f268-4371-95a2-f04eea0ad05f","system_id":"levelo_inurba_marseille","lat":43.24642,"lon":5.43159,"is_reserved":false,"is_disabled":false,"rental_uris":{"android":"levelo://app?vid=f060d515-f268-4371-95a2-f04eea0ad05f","ios":"levelo://app?vid=f060d515-f268-4371-95a2-f04eea0ad05f"},"vehicle_type_id":"4","last_reported":1759090174,"current_range_meters":14800,"station_id":"st_d2m6c4gdas8pm72e190g","pricing_plan_id":"cebpf4jnsgd1na2vs0mg"},{"bike_id":"aa7d2eaa-bfeb-429a-b32b-cc2bdf2c4d69","system_id":"levelo_inurba_marseille","lat":43.23172,"lon":5.39991,"is_reserved":false,"is_disabled":false,"rental_uris":{"android":"levelo://app?vid=aa7d2eaa-bfeb-429a-b32b-cc2bdf2c4d69","ios":"levelo://app?vid=aa7d2eaa-bfeb-429a-b32b-cc2bdf2c4d69"},"vehicle_type_id":"4","last_reported":1759090174,"current_range_meters":14800,"station_id":"ce4bhn12rcd13ifvqgqg","pricing_plan_id":"cebpf4jnsgd1na2vs0mg"},{"bike_id":"098460e9-6b11-4f84-8036-b4cbefbd5d3c","system_id":"levelo_inurba_marseille","lat":43.25704,"lon":5.41112,"is_reserved":false,"is_disabled":false,"rental_uris":{"android":"levelo://app?vid=098460e9-6b11-4f84-8036-b4cbefbd5d3c","ios":"levelo://app?vid=098460e9-6b11-4f84-8036-b4cbefbd5d3c"},"vehicle_type_id":"4","last_reported":1759090174,"current_range_meters":14800,"station_id":"ce4bhkp2rcd13ifvqgd0","pricing_plan_id":"cebpf4jnsgd1na2vs0mg"},{"bike_id":"3f41da30-b5ae-4692-961a-f99fb698483a","system_id":"levelo_inurba_marseille","lat":43.28084,"lon":5.3966,"is_reserved":false,"is_disabled":false,"rental_uris":{"android":"levelo://app?vid=3f41da30-b5ae-4692-961a-f99fb698483a","ios":"levelo://app?vid=3f41da30-b5ae-4692-961a-f99fb698483a"},"vehicle_type_id":"4","last_reported":1759090174,"current_range_meters":14800,"station_id":"ce4bho12rcd13ifvqh2g","pricing_plan_id":"cebpf4jnsgd1na2vs0mg"},{"bike_id":"5d6d4640-7f2f-420b-80ae-7bde5d3c05f6","system_id":"levelo_inurba_marseille","lat":43.252844,"lon":5.39459,"is_reserved":false,"is_disabled":false,"rental_uris":{"android":"levelo://app?vid=5d6d4640-7f2f-420b-80ae-7bde5d3c05f6","ios":"levelo://app?vid=5d6d4640-7f2f-420b-80ae-7bde5d3c05f6"},"vehicle_type_id":"4","last_reported":1759090174,"current_range_meters":15200,"station_id":"ce4bhm12rcd13ifvqgkg","pricing_plan_id":"cebpf4jnsgd1na2vs0mg"},{"bike_id":"524c905d-ec3d-4df5-a3ef-3e1d5936bf6d","system_id":"levelo_inurba_marseille","lat":43.29947,"lon":5.41318,"is_reserved":false,"is_disabled":false,"rental_uris":{"android":"levelo://app?vid=524c905d-ec3d-4df5-a3ef-3e1d5936bf6d","ios":"levelo://app?vid=524c905d-ec3d-4df5-a3ef-3e1d5936bf6d"},"vehicle_type_id":"4","last_reported":1759090174,"current_range_meters":15200,"station_id":"ce4bhp12rcd13ifvqh9g","pricing_plan_id":"cebpf4jnsgd1na2vs0mg"},{"bike_id":"1d65299e-cf34-435b-a60a-0ba0d66bcde6","system_id":"levelo_inurba_marseille","lat":43.28414,"lon":5.37525,"is_reserved":false,"is_disabled":true,"rental_uris":{"android":"levelo://app?vid=1d65299e-cf34-435b-a60a-0ba0d66bcde6","ios":"levelo://app?vid=1d65299e-cf34-435b-a60a-0ba0d66bcde6"},"vehicle_type_id":"4","last_reported":1759090174,"current_range_meters":15200,"station_id":"ce4bh412rcd13ifvqds0","pricing_plan_id":"cebpf4jnsgd1na2vs0mg"},{"bike_id":"25c434a4-2d78-4622-948f-1ba3f4bce0ee","system_id":"levelo_inurba_marseille","lat":43.30929,"lon":5.4015,"is_reserved":false,"is_disabled":false,"rental_uris":{"android":"levelo://app?vid=25c434a4-2d78-4622-948f-1ba3f4bce0ee","ios":"levelo://app?vid=25c434a4-2d78-4622-948f-1ba3f4bce0ee"},"vehicle_type_id":"4","last_reported":1759090174,"current_range_meters":15200,"station_id":"ce4bgvp2rcd13ifvqct0","pricing_plan_id":"cebpf4jnsgd1na2vs0mg"},{"bike_id":"f08b3f9e-b3c8-4abf-a756-acd732503f08","system_id":"levelo_inurba_marseille","lat":43.2903,"lon":5.38716,"is_reserved":false,"is_disabled":false,"rental_uris":{"android":"levelo://app?vid=f08b3f9e-b3c8-4abf-a756-acd732503f08","ios":"levelo://app?vid=f08b3f9e-b3c8-4abf-a756-acd732503f08"},"vehicle_type_id":"4","last_reported":1759090174,"current_range_meters":15200,"station_id":"","pricing_plan_id":"cebpf4jnsgd1na2vs0mg"},{"bike_id":"9c4235da-d3d0-4056-aa6b-c6aa6e8e7367","system_id":"levelo_inurba_marseille","lat":43.30689,"lon":5.37533,"is_reserved":false,"is_disabled":false,"rental_uris":{"android":"levelo://app?vid=9c4235da-d3d0-4056-aa6b-c6aa6e8e7367","ios":"levelo://app?vid=9c4235da-d3d0-4056-aa6b-c6aa6e8e7367"},"vehicle_type_id":"4","last_reported":1759090174,"current_range_meters":15200,"station_id":"","pricing_plan_id":"cebpf4jnsgd1na2vs0mg"},{"bike_id":"db54ae1e-766a-4881-94b4-a4cf26d411ba","system_id":"levelo_inurba_marseille","lat":43.29245,"lon":5.38452,"is_reserved":false,"is_disabled":true,"rental_uris":{"android":"levelo://app?vid=db54ae1e-766a-4881-94b4-a4cf26d411ba","ios":"levelo://app?vid=db54ae1e-766a-4881-94b4-a4cf26d411ba"},"vehicle_type_id":"4","last_reported":1759090174,"current_range_meters":16000,"station_id":"ce4bh692rcd13ifvqea0","pricing_plan_id":"cebpf4jnsgd1na2vs0mg"},{"bike_id":"481da168-c5dc-457e-946f-e123ccedeec2","system_id":"levelo_inurba_marseille","lat":43.29784,"lon":5.3937,"is_reserved":false,"is_disabled":false,"rental_uris":{"android":"levelo://app?vid=481da168-c5dc-457e-946f-e123ccedeec2","ios":"levelo://app?vid=481da168-c5dc-457e-946f-e123ccedeec2"},"vehicle_type_id":"4","last_reported":1759090174,"current_range_meters":16000,"station_id":"chh1huq6cuj3fo74tm60","pricing_plan_id":"cebpf4jnsgd1na2vs0mg"},{"bike_id":"62810932-265b-456b-9454-3ac7d1b4ee8d","system_id":"levelo_inurba_marseille","lat":43.30081,"lon":5.39086,"is_reserved":false,"is_disabled":false,"rental_uris":{"android":"levelo://app?vid=62810932-265b-456b-9454-3ac7d1b4ee8d","ios":"levelo://app?vid=62810932-265b-456b-9454-3ac7d1b4ee8d"},"vehicle_type_id":"4","last_reported":1759090174,"current_range_meters":16000,"station_id":"ce4bh192rcd13ifvqdb0","pricing_plan_id":"cebpf4jnsgd1na2vs0mg"},{"bike_id":"89fe513c-a434-4cf8-a56c-ee0844b2f3be","system_id":"levelo_inurba_marseille","lat":43.29964,"lon":5.38492,"is_reserved":false,"is_disabled":true,"rental_uris":{"android":"levelo://app?vid=89fe513c-a434-4cf8-a56c-ee0844b2f3be","ios":"levelo://app?vid=89fe513c-a434-4cf8-a56c-ee0844b2f3be"},"vehicle_type_id":"4","last_reported":1759090174,"current_range_meters":16000,"station_id":"ce4bgj92rcd13ifvqbd0","pricing_plan_id":"cebpf4jnsgd1na2vs0mg"},{"bike_id":"e694ec9a-4640-4113-81c3-c54c68649b69","system_id":"levelo_inurba_marseille","lat":43.29599,"lon":5.38073,"is_reserved":false,"is_disabled":false,"rental_uris":{"android":"levelo://app?vid=e694ec9a-4640-4113-81c3-c54c68649b69","ios":"levelo://app?vid=e694ec9a-4640-4113-81c3-c54c68649b69"},"vehicle_type_id":"4","last_reported":1759090174,"current_range_meters":16000,"station_id":"ce4bgl12rcd13ifvqbo0","pricing_plan_id":"cebpf4jnsgd1na2vs0mg"},{"bike_id":"61c0094b-5f09-42e7-8b5a-c23013fadb5a","system_id":"levelo_inurba_marseille","lat":43.31115,"lon":5.37767,"is_reserved":false,"is_disabled":false,"rental_uris":{"android":"levelo://app?vid=61c0094b-5f09-42e7-8b5a-c23013fadb5a","ios":"levelo://app?vid=61c0094b-5f09-42e7-8b5a-c23013fadb5a"},"vehicle_type_id":"4","last_reported":1759090174,"current_range_meters":16000,"station_id":"ce4bgt92rcd13ifvqcg0","pricing_plan_id":"cebpf4jnsgd1na2vs0mg"},{"bike_id":"9aecb222-b733-42e5-bd09-5f6539da0b7e","system_id":"levelo_inurba_marseille","lat":43.29512,"lon":5.39379,"is_reserved":false,"is_disabled":false,"rental_uris":{"android":"levelo://app?vid=9aecb222-b733-42e5-bd09-5f6539da0b7e","ios":"levelo://app?vid=9aecb222-b733-42e5-bd09-5f6539da0b7e"},"vehicle_type_id":"4","last_reported":1759090174,"current_range_meters":16400,"station_id":"ce4bh292rcd13ifvqdf0","pricing_plan_id":"cebpf4jnsgd1na2vs0mg"},{"bike_id":"72dfe78c-7413-46c8-9431-20c14760210e","system_id":"levelo_inurba_marseille","lat":43.25713,"lon":5.41121,"is_reserved":false,"is_disabled":false,"rental_uris":{"android":"levelo://app?vid=72dfe78c-7413-46c8-9431-20c14760210e","ios":"levelo://app?vid=72dfe78c-7413-46c8-9431-20c14760210e"},"vehicle_type_id":"4","last_reported":1759090174,"current_range_meters":16400,"station_id":"ce4bhkp2rcd13ifvqgd0","pricing_plan_id":"cebpf4jnsgd1na2vs0mg"},{"bike_id":"b2a1aa6e-b2b9-4978-afe1-de5d46989748","system_id":"levelo_inurba_marseille","lat":43.26548,"lon":5.40338,"is_reserved":false,"is_disabled":false,"rental_uris":{"android":"levelo://app?vid=b2a1aa6e-b2b9-4978-afe1-de5d46989748","ios":"levelo://app?vid=b2a1aa6e-b2b9-4978-afe1-de5d46989748"},"vehicle_type_id":"4","last_reported":1759090174,"current_range_meters":16400,"station_id":"ce4bhmp2rcd13ifvqgng","pricing_plan_id":"cebpf4jnsgd1na2vs0mg"},{"bike_id":"7a4dab58-c692-43c3-8b02-8f27222046f9","system_id":"levelo_inurba_marseille","lat":43.29624,"lon":5.40604,"is_reserved":false,"is_disabled":false,"rental_uris":{"android":"levelo://app?vid=7a4dab58-c692-43c3-8b02-8f27222046f9","ios":"levelo://app?vid=7a4dab58-c692-43c3-8b02-8f27222046f9"},"vehicle_type_id":"4","last_reported":1759090174,"current_range_meters":16400,"station_id":"ce4bh0h2rcd13ifvqd60","pricing_plan_id":"cebpf4jnsgd1na2vs0mg"},{"bike_id":"c473828e-5955-4ace-bf13-885f4280b1e5","system_id":"levelo_inurba_marseille","lat":43.29611,"lon":5.38085,"is_reserved":false,"is_disabled":false,"rental_uris":{"android":"levelo://app?vid=c473828e-5955-4ace-bf13-885f4280b1e5","ios":"levelo://app?vid=c473828e-5955-4ace-bf13-885f4280b1e5"},"vehicle_type_id":"4","last_reported":1759090174,"current_range_meters":16400,"station_id":"ce4bgl12rcd13ifvqbo0","pricing_plan_id":"cebpf4jnsgd1na2vs0mg"},{"bike_id":"79aa4b7c-20ba-45aa-b771-ac95e6f9fdeb","system_id":"levelo_inurba_marseille","lat":43.29252,"lon":5.40917,"is_reserved":false,"is_disabled":false,"rental_uris":{"android":"levelo://app?vid=79aa4b7c-20ba-45aa-b771-ac95e6f9fdeb","ios":"levelo://app?vid=79aa4b7c-20ba-45aa-b771-ac95e6f9fdeb"},"vehicle_type_id":"4","last_reported":1759090174,"current_range_meters":16400,"station_id":"ce4bh192rcd13ifvqdc0","pricing_plan_id":"cebpf4jnsgd1na2vs0mg"},{"bike_id":"a07a513e-e5a9-4481-8592-d991379bc662","system_id":"levelo_inurba_marseille","lat":43.33735,"lon":5.37481,"is_reserved":false,"is_disabled":false,"rental_uris":{"android":"levelo://app?vid=a07a513e-e5a9-4481-8592-d991379bc662","ios":"levelo://app?vid=a07a513e-e5a9-4481-8592-d991379bc662"},"vehicle_type_id":"4","last_reported":1759090174,"current_range_meters":16400,"station_id":"","pricing_plan_id":"cebpf4jnsgd1na2vs0mg"},{"bike_id":"71b2b05c-9ff1-4d57-a8f6-d481051c9a72","system_id":"levelo_inurba_marseille","lat":43.29519,"lon":5.38551,"is_reserved":false,"is_disabled":true,"rental_uris":{"android":"levelo://app?vid=71b2b05c-9ff1-4d57-a8f6-d481051c9a72","ios":"levelo://app?vid=71b2b05c-9ff1-4d57-a8f6-d481051c9a72"},"vehicle_type_id":"4","last_reported":1759090174,"current_range_meters":16800,"station_id":"ce4bgih2rcd13ifvqba0","pricing_plan_id":"cebpf4jnsgd1na2vs0mg"},{"bike_id":"8c9ca173-ca7b-4a93-9cfd-f56d64d6e6f2","system_id":"levelo_inurba_marseille","lat":43.2843,"lon":5.39186,"is_reserved":false,"is_disabled":false,"rental_uris":{"android":"levelo://app?vid=8c9ca173-ca7b-4a93-9cfd-f56d64d6e6f2","ios":"levelo://app?vid=8c9ca173-ca7b-4a93-9cfd-f56d64d6e6f2"},"vehicle_type_id":"4","last_reported":1759090174,"current_range_meters":16800,"station_id":"ce4bhoh2rcd13ifvqh5g","pricing_plan_id":"cebpf4jnsgd1na2vs0mg"},{"bike_id":"5184bf5b-3cc8-4111-8b99-b9c4fcc9d2b3","system_id":"levelo_inurba_marseille","lat":43.24174,"lon":5.39734,"is_reserved":false,"is_disabled":false,"rental_uris":{"android":"levelo://app?vid=5184bf5b-3cc8-4111-8b99-b9c4fcc9d2b3","ios":"levelo://app?vid=5184bf5b-3cc8-4111-8b99-b9c4fcc9d2b3"},"vehicle_type_id":"4","last_reported":1759090174,"current_range_meters":16800,"station_id":"ce4bhn12rcd13ifvqgpg","pricing_plan_id":"cebpf4jnsgd1na2vs0mg"},{"bike_id":"00330f80-eb21-4540-b39b-27e6dea1ab55","system_id":"levelo_inurba_marseille","lat":43.26238,"lon":5.40437,"is_reserved":false,"is_disabled":false,"rental_uris":{"android":"levelo://app?vid=00330f80-eb21-4540-b39b-27e6dea1ab55","ios":"levelo://app?vid=00330f80-eb21-4540-b39b-27e6dea1ab55"},"vehicle_type_id":"4","last_reported":1759090174,"current_range_meters":16800,"station_id":"ce4bhmh2rcd13ifvqgmg","pricing_plan_id":"cebpf4jnsgd1na2vs0mg"},{"bike_id":"7dc10ae7-7366-4aef-afb3-946c513f88ef","system_id":"levelo_inurba_marseille","lat":43.27989,"lon":5.36402,"is_reserved":false,"is_disabled":false,"rental_uris":{"android":"levelo://app?vid=7dc10ae7-7366-4aef-afb3-946c513f88ef","ios":"levelo://app?vid=7dc10ae7-7366-4aef-afb3-946c513f88ef"},"vehicle_type_id":"4","last_reported":1759090174,"current_range_meters":16800,"station_id":"ce4bha12rcd13ifvqef0","pricing_plan_id":"cebpf4jnsgd1na2vs0mg"},{"bike_id":"e48eb6de-f069-4709-924c-08384c1f854e","system_id":"levelo_inurba_marseille","lat":43.28358,"lon":5.38108,"is_reserved":false,"is_disabled":false,"rental_uris":{"android":"levelo://app?vid=e48eb6de-f069-4709-924c-08384c1f854e","ios":"levelo://app?vid=e48eb6de-f069-4709-924c-08384c1f854e"},"vehicle_type_id":"4","last_reported":1759090174,"current_range_meters":16800,"station_id":"ce4bh412rcd13ifvqdr0","pricing_plan_id":"cebpf4jnsgd1na2vs0mg"},{"bike_id":"96d753a3-f35e-4904-b1bb-0ffbe41cce59","system_id":"levelo_inurba_marseille","lat":43.29027,"lon":5.38659,"is_reserved":false,"is_disabled":false,"rental_uris":{"android":"levelo://app?vid=96d753a3-f35e-4904-b1bb-0ffbe41cce59","ios":"levelo://app?vid=96d753a3-f35e-4904-b1bb-0ffbe41cce59"},"vehicle_type_id":"4","last_reported":1759090174,"current_range_meters":16800,"station_id":"ce4bh4p2rcd13ifvqe0g","pricing_plan_id":"cebpf4jnsgd1na2vs0mg"},{"bike_id":"bbe6bb4c-94f0-4fe6-9812-efd2e0a0407d","system_id":"levelo_inurba_marseille","lat":43.28727,"lon":5.37383,"is_reserved":false,"is_disabled":false,"rental_uris":{"android":"levelo://app?vid=bbe6bb4c-94f0-4fe6-9812-efd2e0a0407d","ios":"levelo://app?vid=bbe6bb4c-94f0-4fe6-9812-efd2e0a0407d"},"vehicle_type_id":"4","last_reported":1759090174,"current_range_meters":16800,"station_id":"ce4bh3p2rcd13ifvqdq0","pricing_plan_id":"cebpf4jnsgd1na2vs0mg"},{"bike_id":"8c986307-df22-41f8-9c2d-42ccabc665aa","system_id":"levelo_inurba_marseille","lat":43.30213,"lon":5.36624,"is_reserved":false,"is_disabled":false,"rental_uris":{"android":"levelo://app?vid=8c986307-df22-41f8-9c2d-42ccabc665aa","ios":"levelo://app?vid=8c986307-df22-41f8-9c2d-42ccabc665aa"},"vehicle_type_id":"4","last_reported":1759090174,"current_range_meters":16800,"station_id":"ce4bgrh2rcd13ifvqc8g","pricing_plan_id":"cebpf4jnsgd1na2vs0mg"},{"bike_id":"9e50a7a8-3461-435f-a364-2bec8eda7805","system_id":"levelo_inurba_marseille","lat":43.29187,"lon":5.39315,"is_reserved":false,"is_disabled":false,"rental_uris":{"android":"levelo://app?vid=9e50a7a8-3461-435f-a364-2bec8eda7805","ios":"levelo://app?vid=9e50a7a8-3461-435f-a364-2bec8eda7805"},"vehicle_type_id":"4","last_reported":1759090174,"current_range_meters":16800,"station_id":"ce4bh192rcd13ifvqdd0","pricing_plan_id":"cebpf4jnsgd1na2vs0mg"},{"bike_id":"d42b5804-5f36-42b6-93da-0777870cd7f6","system_id":"levelo_inurba_marseille","lat":43.31325,"lon":5.39707,"is_reserved":false,"is_disabled":false,"rental_uris":{"android":"levelo://app?vid=d42b5804-5f36-42b6-93da-0777870cd7f6","ios":"levelo://app?vid=d42b5804-5f36-42b6-93da-0777870cd7f6"},"vehicle_type_id":"4","last_reported":1759090174,"current_range_meters":16800,"station_id":"ce4bgvp2rcd13ifvqcu0","pricing_plan_id":"cebpf4jnsgd1na2vs0mg"},{"bike_id":"ea59b303-6900-42ad-9e79-5b0f95bedd6c","system_id":"levelo_inurba_marseille","lat":43.30425,"lon":5.36916,"is_reserved":false,"is_disabled":false,"rental_uris":{"android":"levelo://app?vid=ea59b303-6900-42ad-9e79-5b0f95bedd6c","ios":"levelo://app?vid=ea59b303-6900-42ad-9e79-5b0f95bedd6c"},"vehicle_type_id":"4","last_reported":1759090174,"current_range_meters":16800,"station_id":"","pricing_plan_id":"cebpf4jnsgd1na2vs0mg"},{"bike_id":"a63906d9-70e3-4694-a19f-f783d775e9bb","system_id":"levelo_inurba_marseille","lat":43.31284,"lon":5.37395,"is_reserved":false,"is_disabled":false,"rental_uris":{"android":"levelo://app?vid=a63906d9-70e3-4694-a19f-f783d775e9bb","ios":"levelo://app?vid=a63906d9-70e3-4694-a19f-f783d775e9bb"},"vehicle_type_id":"4","last_reported":1759090174,"current_range_meters":16800,"station_id":"","pricing_plan_id":"cebpf4jnsgd1na2vs0mg"},{"bike_id":"876569c1-3c48-44d5-944b-d269a39dae22","system_id":"levelo_inurba_marseille","lat":43.310852,"lon":5.387667,"is_reserved":false,"is_disabled":false,"rental_uris":{"android":"levelo://app?vid=876569c1-3c48-44d5-944b-d269a39dae22","ios":"levelo://app?vid=876569c1-3c48-44d5-944b-d269a39dae22"},"vehicle_type_id":"4","last_reported":1759090174,"current_range_meters":16800,"station_id":"ce4bgv12rcd13ifvqcp0","pricing_plan_id":"cebpf4jnsgd1na2vs0mg"},{"bike_id":"c8d7f4fe-be5b-447b-ba1b-2244460fc221","system_id":"levelo_inurba_marseille","lat":43.2466,"lon":5.38904,"is_reserved":false,"is_disabled":false,"rental_uris":{"android":"levelo://app?vid=c8d7f4fe-be5b-447b-ba1b-2244460fc221","ios":"levelo://app?vid=c8d7f4fe-be5b-447b-ba1b-2244460fc221"},"vehicle_type_id":"4","last_reported":1759090174,"current_range_meters":16800,"station_id":"ce4bhg12rcd13ifvqf60","pricing_plan_id":"cebpf4jnsgd1na2vs0mg"},{"bike_id":"8b353c9e-13c5-42ee-a76f-ccbd6269a3dc","system_id":"levelo_inurba_marseille","lat":43.29899,"lon":5.37492,"is_reserved":false,"is_disabled":false,"rental_uris":{"android":"levelo://app?vid=8b353c9e-13c5-42ee-a76f-ccbd6269a3dc","ios":"levelo://app?vid=8b353c9e-13c5-42ee-a76f-ccbd6269a3dc"},"vehicle_type_id":"4","last_reported":1759090174,"current_range_meters":17200,"station_id":"","pricing_plan_id":"cebpf4jnsgd1na2vs0mg"},{"bike_id":"25cbe832-db8b-48c0-95c6-fe4fed7b48f7","system_id":"levelo_inurba_marseille","lat":43.28931,"lon":5.39631,"is_reserved":false,"is_disabled":false,"rental_uris":{"android":"levelo://app?vid=25cbe832-db8b-48c0-95c6-fe4fed7b48f7","ios":"levelo://app?vid=25cbe832-db8b-48c0-95c6-fe4fed7b48f7"},"vehicle_type_id":"4","last_reported":1759090174,"current_range_meters":17200,"station_id":"ce4bh3h2rcd13ifvqdn0","pricing_plan_id":"cebpf4jnsgd1na2vs0mg"},{"bike_id":"6c30424b-5a06-41a7-a88c-da4170a4607f","system_id":"levelo_inurba_marseille","lat":43.28666,"lon":5.38668,"is_reserved":false,"is_disabled":false,"rental_uris":{"android":"levelo://app?vid=6c30424b-5a06-41a7-a88c-da4170a4607f","ios":"levelo://app?vid=6c30424b-5a06-41a7-a88c-da4170a4607f"},"vehicle_type_id":"4","last_reported":1759090174,"current_range_meters":17200,"station_id":"ce4bh492rcd13ifvqdug","pricing_plan_id":"cebpf4jnsgd1na2vs0mg"},{"bike_id":"88bab79e-f428-48c7-9fe8-35fa768316c1","system_id":"levelo_inurba_marseille","lat":43.32362,"lon":5.38203,"is_reserved":false,"is_disabled":false,"rental_uris":{"android":"levelo://app?vid=88bab79e-f428-48c7-9fe8-35fa768316c1","ios":"levelo://app?vid=88bab79e-f428-48c7-9fe8-35fa768316c1"},"vehicle_type_id":"4","last_reported":1759090174,"current_range_meters":17200,"station_id":"","pricing_plan_id":"cebpf4jnsgd1na2vs0mg"},{"bike_id":"899af826-7c5d-4a2b-b0fd-d061ab2a7573","system_id":"levelo_inurba_marseille","lat":43.25694,"lon":5.41125,"is_reserved":false,"is_disabled":false,"rental_uris":{"android":"levelo://app?vid=899af826-7c5d-4a2b-b0fd-d061ab2a7573","ios":"levelo://app?vid=899af826-7c5d-4a2b-b0fd-d061ab2a7573"},"vehicle_type_id":"4","last_reported":1759090174,"current_range_meters":17200,"station_id":"ce4bhkp2rcd13ifvqgd0","pricing_plan_id":"cebpf4jnsgd1na2vs0mg"},{"bike_id":"8ffac578-131d-4171-941b-d073a175c44c","system_id":"levelo_inurba_marseille","lat":43.26214,"lon":5.37435,"is_reserved":false,"is_disabled":true,"rental_uris":{"android":"levelo://app?vid=8ffac578-131d-4171-941b-d073a175c44c","ios":"levelo://app?vid=8ffac578-131d-4171-941b-d073a175c44c"},"vehicle_type_id":"4","last_reported":1759090174,"current_range_meters":17200,"station_id":"ce4bhgp2rcd13ifvqfc0","pricing_plan_id":"cebpf4jnsgd1na2vs0mg"},{"bike_id":"c627b34a-8e81-4438-af3b-4fd0aab1c160","system_id":"levelo_inurba_marseille","lat":43.29667,"lon":5.3603,"is_reserved":false,"is_disabled":false,"rental_uris":{"android":"levelo://app?vid=c627b34a-8e81-4438-af3b-4fd0aab1c160","ios":"levelo://app?vid=c627b34a-8e81-4438-af3b-4fd0aab1c160"},"vehicle_type_id":"4","last_reported":1759090174,"current_range_meters":17200,"station_id":"","pricing_plan_id":"cebpf4jnsgd1na2vs0mg"},{"bike_id":"0f1defd6-28dc-482d-bd65-8b7088004c74","system_id":"levelo_inurba_marseille","lat":43.32339,"lon":5.40624,"is_reserved":false,"is_disabled":false,"rental_uris":{"android":"levelo://app?vid=0f1defd6-28dc-482d-bd65-8b7088004c74","ios":"levelo://app?vid=0f1defd6-28dc-482d-bd65-8b7088004c74"},"vehicle_type_id":"4","last_reported":1759090174,"current_range_meters":17200,"station_id":"ce4bhq92rcd13ifvqhjg","pricing_plan_id":"cebpf4jnsgd1na2vs0mg"},{"bike_id":"8c0227e3-55e8-4994-aa0c-9b6ee99b7e26","system_id":"levelo_inurba_marseille","lat":43.23055,"lon":5.35496,"is_reserved":false,"is_disabled":false,"rental_uris":{"android":"levelo://app?vid=8c0227e3-55e8-4994-aa0c-9b6ee99b7e26","ios":"levelo://app?vid=8c0227e3-55e8-4994-aa0c-9b6ee99b7e26"},"vehicle_type_id":"4","last_reported":1759090174,"current_range_meters":18000,"station_id":"cpo3342slgdg3j2ifvpg","pricing_plan_id":"cebpf4jnsgd1na2vs0mg"},{"bike_id":"be49b4e1-1b0d-4000-9f8f-90d9172d05d1","system_id":"levelo_inurba_marseille","lat":43.29801,"lon":5.39332,"is_reserved":false,"is_disabled":false,"rental_uris":{"android":"levelo://app?vid=be49b4e1-1b0d-4000-9f8f-90d9172d05d1","ios":"levelo://app?vid=be49b4e1-1b0d-4000-9f8f-90d9172d05d1"},"vehicle_type_id":"4","last_reported":1759090174,"current_range_meters":17600,"station_id":"chh1huq6cuj3fo74tm60","pricing_plan_id":"cebpf4jnsgd1na2vs0mg"},{"bike_id":"385fa573-6758-43e7-a2f4-f27be30ea572","system_id":"levelo_inurba_marseille","lat":43.32094,"lon":5.36778,"is_reserved":false,"is_disabled":false,"rental_uris":{"android":"levelo://app?vid=385fa573-6758-43e7-a2f4-f27be30ea572","ios":"levelo://app?vid=385fa573-6758-43e7-a2f4-f27be30ea572"},"vehicle_type_id":"4","last_reported":1759090174,"current_range_meters":17600,"station_id":"ce4bhrh2rcd13ifvqhug","pricing_plan_id":"cebpf4jnsgd1na2vs0mg"},{"bike_id":"f4700d7c-c4f4-4346-88f1-31c5451190d1","system_id":"levelo_inurba_marseille","lat":43.29318,"lon":5.37193,"is_reserved":false,"is_disabled":true,"rental_uris":{"android":"levelo://app?vid=f4700d7c-c4f4-4346-88f1-31c5451190d1","ios":"levelo://app?vid=f4700d7c-c4f4-4346-88f1-31c5451190d1"},"vehicle_type_id":"4","last_reported":1759090174,"current_range_meters":17600,"station_id":"ce4bgh92rcd13ifvqb40","pricing_plan_id":"cebpf4jnsgd1na2vs0mg"},{"bike_id":"74898dc7-8c2d-4900-a548-e66777267953","system_id":"levelo_inurba_marseille","lat":43.265525,"lon":5.372856,"is_reserved":false,"is_disabled":false,"rental_uris":{"android":"levelo://app?vid=74898dc7-8c2d-4900-a548-e66777267953","ios":"levelo://app?vid=74898dc7-8c2d-4900-a548-e66777267953"},"vehicle_type_id":"4","last_reported":1759090174,"current_range_meters":17600,"station_id":"","pricing_plan_id":"cebpf4jnsgd1na2vs0mg"},{"bike_id":"74740c07-c316-42fc-a49a-9ccd15d77945","system_id":"levelo_inurba_marseille","lat":43.31536,"lon":5.38023,"is_reserved":false,"is_disabled":false,"rental_uris":{"android":"levelo://app?vid=74740c07-c316-42fc-a49a-9ccd15d77945","ios":"levelo://app?vid=74740c07-c316-42fc-a49a-9ccd15d77945"},"vehicle_type_id":"4","last_reported":1759090174,"current_range_meters":17600,"station_id":"ce4bhsp2rcd13ifvqi50","pricing_plan_id":"cebpf4jnsgd1na2vs0mg"},{"bike_id":"96476bc7-8ab4-4b06-8ea1-2b3b7afcb622","system_id":"levelo_inurba_marseille","lat":43.23965,"lon":5.36638,"is_reserved":false,"is_disabled":false,"rental_uris":{"android":"levelo://app?vid=96476bc7-8ab4-4b06-8ea1-2b3b7afcb622","ios":"levelo://app?vid=96476bc7-8ab4-4b06-8ea1-2b3b7afcb622"},"vehicle_type_id":"4","last_reported":1759090174,"current_range_meters":17600,"station_id":"ce4bhi12rcd13ifvqfp0","pricing_plan_id":"cebpf4jnsgd1na2vs0mg"},{"bike_id":"aa123961-c527-4db0-9350-7d548f67905a","system_id":"levelo_inurba_marseille","lat":43.27946,"lon":5.38753,"is_reserved":false,"is_disabled":false,"rental_uris":{"android":"levelo://app?vid=aa123961-c527-4db0-9350-7d548f67905a","ios":"levelo://app?vid=aa123961-c527-4db0-9350-7d548f67905a"},"vehicle_type_id":"4","last_reported":1759090174,"current_range_meters":17600,"station_id":"ce4bh492rcd13ifvqdvg","pricing_plan_id":"cebpf4jnsgd1na2vs0mg"},{"bike_id":"ba1cfbb3-555c-4e6c-85db-b50e9395062e","system_id":"levelo_inurba_marseille","lat":43.246877,"lon":5.381936,"is_reserved":false,"is_disabled":false,"rental_uris":{"android":"levelo://app?vid=ba1cfbb3-555c-4e6c-85db-b50e9395062e","ios":"levelo://app?vid=ba1cfbb3-555c-4e6c-85db-b50e9395062e"},"vehicle_type_id":"4","last_reported":1759090174,"current_range_meters":17600,"station_id":"","pricing_plan_id":"cebpf4jnsgd1na2vs0mg"},{"bike_id":"d0cde996-d8fd-4985-97ed-e8d61198abb1","system_id":"levelo_inurba_marseille","lat":43.319956,"lon":5.381484,"is_reserved":false,"is_disabled":true,"rental_uris":{"android":"levelo://app?vid=d0cde996-d8fd-4985-97ed-e8d61198abb1","ios":"levelo://app?vid=d0cde996-d8fd-4985-97ed-e8d61198abb1"},"vehicle_type_id":"4","last_reported":1759090174,"current_range_meters":17600,"station_id":"ce4bhr12rcd13ifvqhpg","pricing_plan_id":"cebpf4jnsgd1na2vs0mg"},{"bike_id":"59329793-70d7-4d38-8dc3-648c05dc1b0b","system_id":"levelo_inurba_marseille","lat":43.276772,"lon":5.388975,"is_reserved":false,"is_disabled":true,"rental_uris":{"android":"levelo://app?vid=59329793-70d7-4d38-8dc3-648c05dc1b0b","ios":"levelo://app?vid=59329793-70d7-4d38-8dc3-648c05dc1b0b"},"vehicle_type_id":"4","last_reported":1759090174,"current_range_meters":17600,"station_id":"ce4bhi12rcd13ifvqfo0","pricing_plan_id":"cebpf4jnsgd1na2vs0mg"},{"bike_id":"2c6c6f0f-0246-4f04-9f70-834792a2a1db","system_id":"levelo_inurba_marseille","lat":43.24682,"lon":5.3813,"is_reserved":false,"is_disabled":false,"rental_uris":{"android":"levelo://app?vid=2c6c6f0f-0246-4f04-9f70-834792a2a1db","ios":"levelo://app?vid=2c6c6f0f-0246-4f04-9f70-834792a2a1db"},"vehicle_type_id":"4","last_reported":1759090174,"current_range_meters":17600,"station_id":"ce4bhih2rcd13ifvqfr0","pricing_plan_id":"cebpf4jnsgd1na2vs0mg"},{"bike_id":"7f46228e-4ed4-4fb2-9b7c-2773cead13c2","system_id":"levelo_inurba_marseille","lat":43.240174,"lon":5.362763,"is_reserved":false,"is_disabled":true,"rental_uris":{"android":"levelo://app?vid=7f46228e-4ed4-4fb2-9b7c-2773cead13c2","ios":"levelo://app?vid=7f46228e-4ed4-4fb2-9b7c-2773cead13c2"},"vehicle_type_id":"4","last_reported":1759090174,"current_range_meters":17600,"station_id":"","pricing_plan_id":"cebpf4jnsgd1na2vs0mg"},{"bike_id":"10baf174-97c7-4514-95bf-33ba4deb3e4f","system_id":"levelo_inurba_marseille","lat":43.21208,"lon":5.35092,"is_reserved":false,"is_disabled":true,"rental_uris":{"android":"levelo://app?vid=10baf174-97c7-4514-95bf-33ba4deb3e4f","ios":"levelo://app?vid=10baf174-97c7-4514-95bf-33ba4deb3e4f"},"vehicle_type_id":"4","last_reported":1759090174,"current_range_meters":17600,"station_id":"st_cvj6sg6p6f1abm77japg","pricing_plan_id":"cebpf4jnsgd1na2vs0mg"},{"bike_id":"ce5e157e-4ef2-4c41-9b3b-54d3eecbfa45","system_id":"levelo_inurba_marseille","lat":43.225355,"lon":5.348444,"is_reserved":false,"is_disabled":false,"rental_uris":{"android":"levelo://app?vid=ce5e157e-4ef2-4c41-9b3b-54d3eecbfa45","ios":"levelo://app?vid=ce5e157e-4ef2-4c41-9b3b-54d3eecbfa45"},"vehicle_type_id":"4","last_reported":1759090174,"current_range_meters":17600,"station_id":"","pricing_plan_id":"cebpf4jnsgd1na2vs0mg"},{"bike_id":"aebf0e68-ba27-412a-9ce2-11cc42127dee","system_id":"levelo_inurba_marseille","lat":43.337444,"lon":5.374475,"is_reserved":false,"is_disabled":false,"rental_uris":{"android":"levelo://app?vid=aebf0e68-ba27-412a-9ce2-11cc42127dee","ios":"levelo://app?vid=aebf0e68-ba27-412a-9ce2-11cc42127dee"},"vehicle_type_id":"4","last_reported":1759090174,"current_range_meters":17600,"station_id":"","pricing_plan_id":"cebpf4jnsgd1na2vs0mg"},{"bike_id":"17acd36b-922d-41f1-92bd-e7371f34ed7b","system_id":"levelo_inurba_marseille","lat":43.27982,"lon":5.41641,"is_reserved":false,"is_disabled":false,"rental_uris":{"android":"levelo://app?vid=17acd36b-922d-41f1-92bd-e7371f34ed7b","ios":"levelo://app?vid=17acd36b-922d-41f1-92bd-e7371f34ed7b"},"vehicle_type_id":"4","last_reported":1759090174,"current_range_meters":18000,"station_id":"ce4bho12rcd13ifvqh1g","pricing_plan_id":"cebpf4jnsgd1na2vs0mg"},{"bike_id":"827282d4-045f-4fe0-9292-bc599fbf5e4c","system_id":"levelo_inurba_marseille","lat":43.337444,"lon":5.374475,"is_reserved":false,"is_disabled":false,"rental_uris":{"android":"levelo://app?vid=827282d4-045f-4fe0-9292-bc599fbf5e4c","ios":"levelo://app?vid=827282d4-045f-4fe0-9292-bc599fbf5e4c"},"vehicle_type_id":"4","last_reported":1759090174,"current_range_meters":18000,"station_id":"","pricing_plan_id":"cebpf4jnsgd1na2vs0mg"},{"bike_id":"09f62ba6-af65-412e-aa52-83df4d376991","system_id":"levelo_inurba_marseille","lat":43.33773,"lon":5.374765,"is_reserved":false,"is_disabled":false,"rental_uris":{"android":"levelo://app?vid=09f62ba6-af65-412e-aa52-83df4d376991","ios":"levelo://app?vid=09f62ba6-af65-412e-aa52-83df4d376991"},"vehicle_type_id":"4","last_reported":1759090174,"current_range_meters":18000,"station_id":"","pricing_plan_id":"cebpf4jnsgd1na2vs0mg"},{"bike_id":"c747aa9f-2bd0-4390-9203-f22831559292","system_id":"levelo_inurba_marseille","lat":43.30787,"lon":5.3765,"is_reserved":false,"is_disabled":false,"rental_uris":{"android":"levelo://app?vid=c747aa9f-2bd0-4390-9203-f22831559292","ios":"levelo://app?vid=c747aa9f-2bd0-4390-9203-f22831559292"},"vehicle_type_id":"4","last_reported":1759090174,"current_range_meters":18000,"station_id":"ce4bgv92rcd13ifvqcq0","pricing_plan_id":"cebpf4jnsgd1na2vs0mg"},{"bike_id":"1a04738a-bd05-4e7f-b716-ba8d78a51904","system_id":"levelo_inurba_marseille","lat":43.28687,"lon":5.39304,"is_reserved":false,"is_disabled":false,"rental_uris":{"android":"levelo://app?vid=1a04738a-bd05-4e7f-b716-ba8d78a51904","ios":"levelo://app?vid=1a04738a-bd05-4e7f-b716-ba8d78a51904"},"vehicle_type_id":"4","last_reported":1759090174,"current_range_meters":18000,"station_id":"","pricing_plan_id":"cebpf4jnsgd1na2vs0mg"},{"bike_id":"50ca908d-e7e1-42d9-bd51-7899c211d657","system_id":"levelo_inurba_marseille","lat":43.258204,"lon":5.394233,"is_reserved":false,"is_disabled":false,"rental_uris":{"android":"levelo://app?vid=50ca908d-e7e1-42d9-bd51-7899c211d657","ios":"levelo://app?vid=50ca908d-e7e1-42d9-bd51-7899c211d657"},"vehicle_type_id":"4","last_reported":1759090174,"current_range_meters":18000,"station_id":"ce4bhip2rcd13ifvqft0","pricing_plan_id":"cebpf4jnsgd1na2vs0mg"},{"bike_id":"8cbcf5e7-b804-4925-bbed-5f57e8580ccf","system_id":"levelo_inurba_marseille","lat":43.31519,"lon":5.36803,"is_reserved":false,"is_disabled":false,"rental_uris":{"android":"levelo://app?vid=8cbcf5e7-b804-4925-bbed-5f57e8580ccf","ios":"levelo://app?vid=8cbcf5e7-b804-4925-bbed-5f57e8580ccf"},"vehicle_type_id":"4","last_reported":1759090174,"current_range_meters":18000,"station_id":"","pricing_plan_id":"cebpf4jnsgd1na2vs0mg"},{"bike_id":"56d6a008-a903-4bd5-8ee3-1cec5d05c634","system_id":"levelo_inurba_marseille","lat":43.31749,"lon":5.39024,"is_reserved":false,"is_disabled":false,"rental_uris":{"android":"levelo://app?vid=56d6a008-a903-4bd5-8ee3-1cec5d05c634","ios":"levelo://app?vid=56d6a008-a903-4bd5-8ee3-1cec5d05c634"},"vehicle_type_id":"4","last_reported":1759090174,"current_range_meters":18000,"station_id":"ce4bhqp2rcd13ifvqhng","pricing_plan_id":"cebpf4jnsgd1na2vs0mg"},{"bike_id":"b90badd7-dcca-4568-a4d5-8c2465d93ad8","system_id":"levelo_inurba_marseille","lat":43.292,"lon":5.39312,"is_reserved":false,"is_disabled":false,"rental_uris":{"android":"levelo://app?vid=b90badd7-dcca-4568-a4d5-8c2465d93ad8","ios":"levelo://app?vid=b90badd7-dcca-4568-a4d5-8c2465d93ad8"},"vehicle_type_id":"4","last_reported":1759090174,"current_range_meters":18000,"station_id":"ce4bh192rcd13ifvqdd0","pricing_plan_id":"cebpf4jnsgd1na2vs0mg"},{"bike_id":"0bde17af-7284-432d-babb-bd2b1d71fa51","system_id":"levelo_inurba_marseille","lat":43.30873,"lon":5.39646,"is_reserved":false,"is_disabled":false,"rental_uris":{"android":"levelo://app?vid=0bde17af-7284-432d-babb-bd2b1d71fa51","ios":"levelo://app?vid=0bde17af-7284-432d-babb-bd2b1d71fa51"},"vehicle_type_id":"4","last_reported":1759090174,"current_range_meters":18000,"station_id":"ce4bh012rcd13ifvqcv0","pricing_plan_id":"cebpf4jnsgd1na2vs0mg"},{"bike_id":"be6842e4-afec-49b0-8b18-5f49c39fadf9","system_id":"levelo_inurba_marseille","lat":43.29911,"lon":5.3747,"is_reserved":false,"is_disabled":false,"rental_uris":{"android":"levelo://app?vid=be6842e4-afec-49b0-8b18-5f49c39fadf9","ios":"levelo://app?vid=be6842e4-afec-49b0-8b18-5f49c39fadf9"},"vehicle_type_id":"4","last_reported":1759090174,"current_range_meters":18000,"station_id":"ce4bgjh2rcd13ifvqbg0","pricing_plan_id":"cebpf4jnsgd1na2vs0mg"},{"bike_id":"53e445d8-a3f1-42c4-9c47-70f78f8c528f","system_id":"levelo_inurba_marseille","lat":43.29253,"lon":5.36784,"is_reserved":false,"is_disabled":true,"rental_uris":{"android":"levelo://app?vid=53e445d8-a3f1-42c4-9c47-70f78f8c528f","ios":"levelo://app?vid=53e445d8-a3f1-42c4-9c47-70f78f8c528f"},"vehicle_type_id":"4","last_reported":1759090174,"current_range_meters":18800,"station_id":"","pricing_plan_id":"cebpf4jnsgd1na2vs0mg"},{"bike_id":"051eb41f-71c0-452f-8a8e-387b983bfecf","system_id":"levelo_inurba_marseille","lat":43.322164,"lon":5.369118,"is_reserved":false,"is_disabled":false,"rental_uris":{"android":"levelo://app?vid=051eb41f-71c0-452f-8a8e-387b983bfecf","ios":"levelo://app?vid=051eb41f-71c0-452f-8a8e-387b983bfecf"},"vehicle_type_id":"4","last_reported":1759090174,"current_range_meters":18800,"station_id":"","pricing_plan_id":"cebpf4jnsgd1na2vs0mg"},{"bike_id":"ef283424-eb2d-486a-bb66-daba5845aaac","system_id":"levelo_inurba_marseille","lat":43.30132,"lon":5.38782,"is_reserved":false,"is_disabled":true,"rental_uris":{"android":"levelo://app?vid=ef283424-eb2d-486a-bb66-daba5845aaac","ios":"levelo://app?vid=ef283424-eb2d-486a-bb66-daba5845aaac"},"vehicle_type_id":"4","last_reported":1759090174,"current_range_meters":18800,"station_id":"ce4bghh2rcd13ifvqb60","pricing_plan_id":"cebpf4jnsgd1na2vs0mg"},{"bike_id":"0b228ae1-a233-4edc-a739-700c62a5dad9","system_id":"levelo_inurba_marseille","lat":43.30245,"lon":5.40071,"is_reserved":false,"is_disabled":true,"rental_uris":{"android":"levelo://app?vid=0b228ae1-a233-4edc-a739-700c62a5dad9","ios":"levelo://app?vid=0b228ae1-a233-4edc-a739-700c62a5dad9"},"vehicle_type_id":"4","last_reported":1759090174,"current_range_meters":18800,"station_id":"ce4bgvh2rcd13ifvqcs0","pricing_plan_id":"cebpf4jnsgd1na2vs0mg"},{"bike_id":"9d8177be-90ed-47e5-909a-5bc2c311df21","system_id":"levelo_inurba_marseille","lat":43.3054,"lon":5.38424,"is_reserved":false,"is_disabled":false,"rental_uris":{"android":"levelo://app?vid=9d8177be-90ed-47e5-909a-5bc2c311df21","ios":"levelo://app?vid=9d8177be-90ed-47e5-909a-5bc2c311df21"},"vehicle_type_id":"4","last_reported":1759090174,"current_range_meters":18800,"station_id":"ce4bgg92rcd13ifvqb30","pricing_plan_id":"cebpf4jnsgd1na2vs0mg"},{"bike_id":"4066d7ec-fa0b-489f-983a-e34bc8d89709","system_id":"levelo_inurba_marseille","lat":43.29986,"lon":5.37176,"is_reserved":false,"is_disabled":false,"rental_uris":{"android":"levelo://app?vid=4066d7ec-fa0b-489f-983a-e34bc8d89709","ios":"levelo://app?vid=4066d7ec-fa0b-489f-983a-e34bc8d89709"},"vehicle_type_id":"4","last_reported":1759090174,"current_range_meters":18800,"station_id":"ce4bgr92rcd13ifvqc7g","pricing_plan_id":"cebpf4jnsgd1na2vs0mg"},{"bike_id":"f8a96ee1-8d2d-48d0-a95e-027d16e747d8","system_id":"levelo_inurba_marseille","lat":43.27063,"lon":5.42275,"is_reserved":false,"is_disabled":false,"rental_uris":{"android":"levelo://app?vid=f8a96ee1-8d2d-48d0-a95e-027d16e747d8","ios":"levelo://app?vid=f8a96ee1-8d2d-48d0-a95e-027d16e747d8"},"vehicle_type_id":"4","last_reported":1759090174,"current_range_meters":18800,"station_id":"ce4bhk92rcd13ifvqgb0","pricing_plan_id":"cebpf4jnsgd1na2vs0mg"},{"bike_id":"b36e134f-99a2-4be0-930e-a235acadfe82","system_id":"levelo_inurba_marseille","lat":43.29559,"lon":5.37536,"is_reserved":false,"is_disabled":false,"rental_uris":{"android":"levelo://app?vid=b36e134f-99a2-4be0-930e-a235acadfe82","ios":"levelo://app?vid=b36e134f-99a2-4be0-930e-a235acadfe82"},"vehicle_type_id":"4","last_reported":1759090174,"current_range_meters":18800,"station_id":"ce4bgh92rcd13ifvqb50","pricing_plan_id":"cebpf4jnsgd1na2vs0mg"},{"bike_id":"99ce2063-5dfb-4ed3-a4a6-8fc3a54c4890","system_id":"levelo_inurba_marseille","lat":43.337444,"lon":5.374475,"is_reserved":false,"is_disabled":false,"rental_uris":{"android":"levelo://app?vid=99ce2063-5dfb-4ed3-a4a6-8fc3a54c4890","ios":"levelo://app?vid=99ce2063-5dfb-4ed3-a4a6-8fc3a54c4890"},"vehicle_type_id":"4","last_reported":1759090174,"current_range_meters":18800,"station_id":"","pricing_plan_id":"cebpf4jnsgd1na2vs0mg"},{"bike_id":"e0c9644a-986d-48a4-b36f-34154318bed9","system_id":"levelo_inurba_marseille","lat":43.29804,"lon":5.39341,"is_reserved":false,"is_disabled":false,"rental_uris":{"android":"levelo://app?vid=e0c9644a-986d-48a4-b36f-34154318bed9","ios":"levelo://app?vid=e0c9644a-986d-48a4-b36f-34154318bed9"},"vehicle_type_id":"4","last_reported":1759090174,"current_range_meters":19200,"station_id":"chh1huq6cuj3fo74tm60","pricing_plan_id":"cebpf4jnsgd1na2vs0mg"},{"bike_id":"d3bb5c85-465c-46af-97e6-7e40fe2aa116","system_id":"levelo_inurba_marseille","lat":43.337444,"lon":5.374475,"is_reserved":false,"is_disabled":false,"rental_uris":{"android":"levelo://app?vid=d3bb5c85-465c-46af-97e6-7e40fe2aa116","ios":"levelo://app?vid=d3bb5c85-465c-46af-97e6-7e40fe2aa116"},"vehicle_type_id":"4","last_reported":1759090174,"current_range_meters":19200,"station_id":"ce4bh092rcd13ifvqd20","pricing_plan_id":"cebpf4jnsgd1na2vs0mg"},{"bike_id":"777803dd-4b15-4bdb-932a-3f546bf56b35","system_id":"levelo_inurba_marseille","lat":43.2909,"lon":5.3814,"is_reserved":false,"is_disabled":false,"rental_uris":{"android":"levelo://app?vid=777803dd-4b15-4bdb-932a-3f546bf56b35","ios":"levelo://app?vid=777803dd-4b15-4bdb-932a-3f546bf56b35"},"vehicle_type_id":"4","last_reported":1759090174,"current_range_meters":19200,"station_id":"ce4bh512rcd13ifvqe2g","pricing_plan_id":"cebpf4jnsgd1na2vs0mg"},{"bike_id":"9021c48d-20c7-41f8-acdf-417a11bf5344","system_id":"levelo_inurba_marseille","lat":43.30891,"lon":5.39634,"is_reserved":false,"is_disabled":false,"rental_uris":{"android":"levelo://app?vid=9021c48d-20c7-41f8-acdf-417a11bf5344","ios":"levelo://app?vid=9021c48d-20c7-41f8-acdf-417a11bf5344"},"vehicle_type_id":"4","last_reported":1759090174,"current_range_meters":19200,"station_id":"ce4bh012rcd13ifvqcv0","pricing_plan_id":"cebpf4jnsgd1na2vs0mg"},{"bike_id":"1a8b372c-1d39-42d7-b89f-f7b43216ccd7","system_id":"levelo_inurba_marseille","lat":43.31414,"lon":5.38445,"is_reserved":false,"is_disabled":false,"rental_uris":{"android":"levelo://app?vid=1a8b372c-1d39-42d7-b89f-f7b43216ccd7","ios":"levelo://app?vid=1a8b372c-1d39-42d7-b89f-f7b43216ccd7"},"vehicle_type_id":"4","last_reported":1759090174,"current_range_meters":19200,"station_id":"","pricing_plan_id":"cebpf4jnsgd1na2vs0mg"},{"bike_id":"c622f243-50cc-4435-98ad-aaac51ff224a","system_id":"levelo_inurba_marseille","lat":43.337681,"lon":5.374399,"is_reserved":false,"is_disabled":false,"rental_uris":{"android":"levelo://app?vid=c622f243-50cc-4435-98ad-aaac51ff224a","ios":"levelo://app?vid=c622f243-50cc-4435-98ad-aaac51ff224a"},"vehicle_type_id":"4","last_reported":1759090174,"current_range_meters":19200,"station_id":"","pricing_plan_id":"cebpf4jnsgd1na2vs0mg"},{"bike_id":"196c7042-595c-4d52-898c-16ecaecb31aa","system_id":"levelo_inurba_marseille","lat":43.2481,"lon":5.3746,"is_reserved":false,"is_disabled":false,"rental_uris":{"android":"levelo://app?vid=196c7042-595c-4d52-898c-16ecaecb31aa","ios":"levelo://app?vid=196c7042-595c-4d52-898c-16ecaecb31aa"},"vehicle_type_id":"4","last_reported":1759090174,"current_range_meters":19200,"station_id":"ce4bhgh2rcd13ifvqfb0","pricing_plan_id":"cebpf4jnsgd1na2vs0mg"},{"bike_id":"5a915109-04f7-4d8f-a4b5-d66c9c44b349","system_id":"levelo_inurba_marseille","lat":43.296067,"lon":5.377174,"is_reserved":false,"is_disabled":true,"rental_uris":{"android":"levelo://app?vid=5a915109-04f7-4d8f-a4b5-d66c9c44b349","ios":"levelo://app?vid=5a915109-04f7-4d8f-a4b5-d66c9c44b349"},"vehicle_type_id":"4","last_reported":1759090174,"current_range_meters":19200,"station_id":"ce4bgi92rcd13ifvqb90","pricing_plan_id":"cebpf4jnsgd1na2vs0mg"},{"bike_id":"f1dcce9c-2101-4453-b623-2ae74537708d","system_id":"levelo_inurba_marseille","lat":43.27209,"lon":5.39178,"is_reserved":false,"is_disabled":true,"rental_uris":{"android":"levelo://app?vid=f1dcce9c-2101-4453-b623-2ae74537708d","ios":"levelo://app?vid=f1dcce9c-2101-4453-b623-2ae74537708d"},"vehicle_type_id":"4","last_reported":1759090174,"current_range_meters":19200,"station_id":"ce4bhhp2rcd13ifvqfm0","pricing_plan_id":"cebpf4jnsgd1na2vs0mg"},