{"last_updated":1730880746,"ttl":60,"version":"2.2","data":{"bikes":[{"bike_id":"2c6d37af-5ea3-4ddf-be47-a75a1bd77530","system_id":"levelo_inurba_marseille","lat":43.32549,"lon":5.41454,"is_reserved":false,"is_disabled":false,"rental_uris":{"android":"levelo://app?vid=2c6d37af-5ea3-4ddf-be47-a75a1bd77530","ios":"levelo://app?vid=2c6d37af-5ea3-4ddf-be47-a75a1bd77530"},"vehicle_type_id":"4","last_reported":1730880746,"current_range_meters":34000,"station_id":"ce4bhq12rcd13ifvqhhg","pricing_plan_id":"cebpf4jnsgd1na2vs0mg"},{"bike_id":"d024ca49-630e-4344-9dc4-2694c875c1b5","system_id":"levelo_inurba_marseille","lat":43.31084,"lon":5.42432,"is_reserved":false,"is_disabled":false,"rental_uris":{"android":"levelo://app?vid=d024ca49-630e-4344-9dc4-2694c875c1b5","ios":"levelo://app?vid=d024ca49-630e-4344-9dc4-2694c875c1b5"},"vehicle_type_id":"4","last_reported":1730880746,"current_range_meters":10000,"station_id":"ce4bhp92rcd13ifvqhag","pricing_plan_id":"cebpf4jnsgd1na2vs0mg"},{"bike_id":"e983a3a2-b468-48ef-a374-a54128068ac7","system_id":"levelo_inurba_marseille","lat":43.33029,"lon":5.39036,"is_reserved":false,"is_disabled":false,"rental_uris":{"android":"levelo://app?vid=e983a3a2-b468-48ef-a374-a54128068ac7","ios":"levelo://app?vid=e983a3a2-b468-48ef-a374-a54128068ac7"},"vehicle_type_id":"4","last_reported":1730880746,"current_range_meters":26800,"station_id":"ce4bhr92rcd13ifvqhrg","pricing_plan_id":"cebpf4jnsgd1na2vs0mg"},{"bike_id":"bc869811-1aad-4ece-b858-9965c373b037","system_id":"levelo_inurba_marseille","lat":43.2316,"lon":5.4371,"is_reserved":false,"is_disabled":false,"rental_uris":{"android":"levelo://app?vid=bc869811-1aad-4ece-b858-9965c373b037","ios":"levelo://app?vid=bc869811-1aad-4ece-b858-9965c373b037"},"vehicle_type_id":"4","last_reported":1730880746,"current_range_meters":37600,"station_id":"ce4bhmp2rcd13ifvqgog","pricing_plan_id":"cebpf4jnsgd1na2vs0mg"},{"bike_id":"6ec4e730-c54a-4330-8601-6a8d69259da3","system_id":"levelo_inurba_marseille","lat":43.24072,"lon":5.37758,"is_reserved":false,"is_disabled":false,"rental_uris":{"android":"levelo://app?vid=6ec4e730-c54a-4330-8601-6a8d69259da3","ios":"levelo://app?vid=6ec4e730-c54a-4330-8601-6a8d69259da3"},"vehicle_type_id":"4","last_reported":1730880746,"current_range_meters":14400,"station_id":"ce4bhnp2rcd13ifvqgvg","pricing_plan_id":"cebpf4jnsgd1na2vs0mg"},{"bike_id":"803e5e3a-3dab-431a-ab1b-30ccc9ea4965","system_id":"levelo_inurba_marseille","lat":43.27496,"lon":5.42453,"is_reserved":false,"is_disabled":false,"rental_uris":{"android":"levelo://app?vid=803e5e3a-3dab-431a-ab1b-30ccc9ea4965","ios":"levelo://app?vid=803e5e3a-3dab-431a-ab1b-30ccc9ea4965"},"vehicle_type_id":"4","last_reported":1730880746,"current_range_meters":25600,"station_id":"ce4bhn92rcd13ifvqgrg","pricing_plan_id":"cebpf4jnsgd1na2vs0mg"},{"bike_id":"eee6a210-68ad-4c56-881c-8e3a55c4368c","system_id":"levelo_inurba_marseille","lat":43.30598,"lon":5.39354,"is_reserved":false,"is_disabled":false,"rental_uris":{"android":"levelo://app?vid=eee6a210-68ad-4c56-881c-8e3a55c4368c","ios":"levelo://app?vid=eee6a210-68ad-4c56-881c-8e3a55c4368c"},"vehicle_type_id":"4","last_reported":1730880746,"current_range_meters":32800,"station_id":"ce4bh0p2rcd13ifvqd80","pricing_plan_id":"cebpf4jnsgd1na2vs0mg"},{"bike_id":"6f24135f-ffef-4131-8fbb-c2a781cf1a6b","system_id":"levelo_inurba_marseille","lat":43.26561,"lon":5.37292,"is_reserved":false,"is_disabled":false,"rental_uris":{"android":"levelo://app?vid=6f24135f-ffef-4131-8fbb-c2a781cf1a6b","ios":"levelo://app?vid=6f24135f-ffef-4131-8fbb-c2a781cf1a6b"},"vehicle_type_id":"4","last_reported":1730880746,"current_range_meters":38000,"station_id":"ce4bhg12rcd13ifvqf70","pricing_plan_id":"cebpf4jnsgd1na2vs0mg"},{"bike_id":"aaf896be-23fc-4cde-b212-d643c208e7c1","system_id":"levelo_inurba_marseille","lat":43.3043,"lon":5.41294,"is_reserved":false,"is_disabled":false,"rental_uris":{"android":"levelo://app?vid=aaf896be-23fc-4cde-b212-d643c208e7c1","ios":"levelo://app?vid=aaf896be-23fc-4cde-b212-d643c208e7c1"},"vehicle_type_id":"4","last_reported":1730880746,"current_range_meters":38400,"station_id":"ce4bhop2rcd13ifvqh8g","pricing_plan_id":"cebpf4jnsgd1na2vs0mg"},{"bike_id":"ee568b50-afdd-4d58-8ccb-365cca32f8ef","system_id":"levelo_inurba_marseille","lat":43.28378,"lon":5.38639,"is_reserved":false,"is_disabled":false,"rental_uris":{"android":"levelo://app?vid=ee568b50-afdd-4d58-8ccb-365cca32f8ef","ios":"levelo://app?vid=ee568b50-afdd-4d58-8ccb-365cca32f8ef"},"vehicle_type_id":"4","last_reported":1730880746,"current_range_meters":6000,"station_id":"ce4bh492rcd13ifvqdvg","pricing_plan_id":"cebpf4jnsgd1na2vs0mg"},{"bike_id":"9c6e2c30-6d75-4d4b-a699-ed2b15c692ca","system_id":"levelo_inurba_marseille","lat":43.30157,"lon":5.38084,"is_reserved":false,"is_disabled":false,"rental_uris":{"android":"levelo://app?vid=9c6e2c30-6d75-4d4b-a699-ed2b15c692ca","ios":"levelo://app?vid=9c6e2c30-6d75-4d4b-a699-ed2b15c692ca"},"vehicle_type_id":"4","last_reported":1730880746,"current_range_meters":28000,"station_id":"ce4bgjp2rcd13ifvqbh0","pricing_plan_id":"cebpf4jnsgd1na2vs0mg"},{"bike_id":"53e4a266-9666-4231-847d-f773fcfaddcb","system_id":"levelo_inurba_marseille","lat":43.30799,"lon":5.38152,"is_reserved":false,"is_disabled":false,"rental_uris":{"android":"levelo://app?vid=53e4a266-9666-4231-847d-f773fcfaddcb","ios":"levelo://app?vid=53e4a266-9666-4231-847d-f773fcfaddcb"},"vehicle_type_id":"4","last_reported":1730880746,"current_range_meters":38000,"station_id":"ce4bgt12rcd13ifvqce0","pricing_plan_id":"cebpf4jnsgd1na2vs0mg"},{"bike_id":"87e70852-b10c-42b4-b24b-6df1e0b92e8a","system_id":"levelo_inurba_marseille","lat":43.293179,"lon":5.371725,"is_reserved":false,"is_disabled":false,"rental_uris":{"android":"levelo://app?vid=87e70852-b10c-42b4-b24b-6df1e0b92e8a","ios":"levelo://app?vid=87e70852-b10c-42b4-b24b-6df1e0b92e8a"},"vehicle_type_id":"4","last_reported":1730880746,"current_range_meters":36000,"station_id":"ce4bgh92rcd13ifvqb40","pricing_plan_id":"cebpf4jnsgd1na2vs0mg"},{"bike_id":"70c444c7-7bb1-4608-b126-9e87f526f4b3","system_id":"levelo_inurba_marseille","lat":43.30788,"lon":5.37647,"is_reserved":false,"is_disabled":false,"rental_uris":{"android":"levelo://app?vid=70c444c7-7bb1-4608-b126-9e87f526f4b3","ios":"levelo://app?vid=70c444c7-7bb1-4608-b126-9e87f526f4b3"},"vehicle_type_id":"4","last_reported":1730880746,"current_range_meters":38800,"station_id":"ce4bgv92rcd13ifvqcq0","pricing_plan_id":"cebpf4jnsgd1na2vs0mg"},{"bike_id":"85f503ad-daf5-438f-8a7b-f9ece8793a06","system_id":"levelo_inurba_marseille","lat":43.30468,"lon":5.37909,"is_reserved":false,"is_disabled":false,"rental_uris":{"android":"levelo://app?vid=85f503ad-daf5-438f-8a7b-f9ece8793a06","ios":"levelo://app?vid=85f503ad-daf5-438f-8a7b-f9ece8793a06"},"vehicle_type_id":"4","last_reported":1730880746,"current_range_meters":26800,"station_id":"ce4bgup2rcd13ifvqcn0","pricing_plan_id":"cebpf4jnsgd1na2vs0mg"},{"bike_id":"c4c19a0c-8d82-42b0-9ed3-22a2537291ef","system_id":"levelo_inurba_marseille","lat":43.28855,"lon":5.35855,"is_reserved":false,"is_disabled":false,"rental_uris":{"android":"levelo://app?vid=c4c19a0c-8d82-42b0-9ed3-22a2537291ef","ios":"levelo://app?vid=c4c19a0c-8d82-42b0-9ed3-22a2537291ef"},"vehicle_type_id":"4","last_reported":1730880746,"current_range_meters":38800,"station_id":"ce4bhb12rcd13ifvqem0","pricing_plan_id":"cebpf4jnsgd1na2vs0mg"},{"bike_id":"6f599842-e836-493e-a1a5-8c3de731283e","system_id":"levelo_inurba_marseille","lat":43.33613,"lon":5.41032,"is_reserved":false,"is_disabled":false,"rental_uris":{"android":"levelo://app?vid=6f599842-e836-493e-a1a5-8c3de731283e","ios":"levelo://app?vid=6f599842-e836-493e-a1a5-8c3de731283e"},"vehicle_type_id":"4","last_reported":1730880746,"current_range_meters":32000,"station_id":"ce4bhqh2rcd13ifvqhmg","pricing_plan_id":"cebpf4jnsgd1na2vs0mg"},{"bike_id":"b8d9b873-53c4-4592-85ca-ed6f5a7e6300","system_id":"levelo_inurba_marseille","lat":43.29633,"lon":5.40602,"is_reserved":false,"is_disabled":false,"rental_uris":{"android":"levelo://app?vid=b8d9b873-53c4-4592-85ca-ed6f5a7e6300","ios":"levelo://app?vid=b8d9b873-53c4-4592-85ca-ed6f5a7e6300"},"vehicle_type_id":"4","last_reported":1730880746,"current_range_meters":22400,"station_id":"ce4bh0h2rcd13ifvqd60","pricing_plan_id":"cebpf4jnsgd1na2vs0mg"},{"bike_id":"48639b0d-c6f1-436b-8e50-ca07d1a11722","system_id":"levelo_inurba_marseille","lat":43.30179,"lon":5.36623,"is_reserved":false,"is_disabled":false,"rental_uris":{"android":"levelo://app?vid=48639b0d-c6f1-436b-8e50-ca07d1a11722","ios":"levelo://app?vid=48639b0d-c6f1-436b-8e50-ca07d1a11722"},"vehicle_type_id":"4","last_reported":1730880746,"current_range_meters":11600,"station_id":"ce4bgrh2rcd13ifvqc8g","pricing_plan_id":"cebpf4jnsgd1na2vs0mg"},{"bike_id":"464e1bdb-dbdc-4b9e-a9e9-e601b7206a5d","system_id":"levelo_inurba_marseille","lat":43.28471,"lon":5.38408,"is_reserved":false,"is_disabled":false,"rental_uris":{"android":"levelo://app?vid=464e1bdb-dbdc-4b9e-a9e9-e601b7206a5d","ios":"levelo://app?vid=464e1bdb-dbdc-4b9e-a9e9-e601b7206a5d"},"vehicle_type_id":"4","last_reported":1730880746,"current_range_meters":38800,"station_id":"ce4bh512rcd13ifvqe3g","pricing_plan_id":"cebpf4jnsgd1na2vs0mg"},{"bike_id":"9ed341e7-8dd8-4a79-bad4-560fb0374227","system_id":"levelo_inurba_marseille","lat":43.28445,"lon":5.39191,"is_reserved":false,"is_disabled":false,"rental_uris":{"android":"levelo://app?vid=9ed341e7-8dd8-4a79-bad4-560fb0374227","ios":"levelo://app?vid=9ed341e7-8dd8-4a79-bad4-560fb0374227"},"vehicle_type_id":"4","last_reported":1730880746,"current_range_meters":38000,"station_id":"ce4bhoh2rcd13ifvqh5g","pricing_plan_id":"cebpf4jnsgd1na2vs0mg"},{"bike_id":"35cf71f5-f37e-4bbb-b151-04fa72375f7a","system_id":"levelo_inurba_marseille","lat":43.23151,"lon":5.43717,"is_reserved":false,"is_disabled":false,"rental_uris":{"android":"levelo://app?vid=35cf71f5-f37e-4bbb-b151-04fa72375f7a","ios":"levelo://app?vid=35cf71f5-f37e-4bbb-b151-04fa72375f7a"},"vehicle_type_id":"4","last_reported":1730880746,"current_range_meters":38000,"station_id":"ce4bhmp2rcd13ifvqgog","pricing_plan_id":"cebpf4jnsgd1na2vs0mg"},{"bike_id":"4147bbfb-4b14-4aca-b782-8ec6c0473609","system_id":"levelo_inurba_marseille","lat":43.23604,"lon":5.40347,"is_reserved":false,"is_disabled":false,"rental_uris":{"android":"levelo://app?vid=4147bbfb-4b14-4aca-b782-8ec6c0473609","ios":"levelo://app?vid=4147bbfb-4b14-4aca-b782-8ec6c0473609"},"vehicle_type_id":"4","last_reported":1730880746,"current_range_meters":3200,"station_id":"","pricing_plan_id":"cebpf4jnsgd1na2vs0mg"},{"bike_id":"5c958c05-0b36-4b44-b755-410a66f37e37","system_id":"levelo_inurba_marseille","lat":43.30312,"lon":5.36894,"is_reserved":false,"is_disabled":false,"rental_uris":{"android":"levelo://app?vid=5c958c05-0b36-4b44-b755-410a66f37e37","ios":"levelo://app?vid=5c958c05-0b36-4b44-b755-410a66f37e37"},"vehicle_type_id":"4","last_reported":1730880746,"current_range_meters":38800,"station_id":"ce4bgqh2rcd13ifvqc5g","pricing_plan_id":"cebpf4jnsgd1na2vs0mg"},{"bike_id":"fc976422-c91b-4413-b730-cd137b9739ad","system_id":"levelo_inurba_marseille","lat":43.251108,"lon":5.403163,"is_reserved":false,"is_disabled":false,"rental_uris":{"android":"levelo://app?vid=fc976422-c91b-4413-b730-cd137b9739ad","ios":"levelo://app?vid=fc976422-c91b-4413-b730-cd137b9739ad"},"vehicle_type_id":"4","last_reported":1730880746,"current_range_meters":38800,"station_id":"ce4bhlh2rcd13ifvqgig","pricing_plan_id":"cebpf4jnsgd1na2vs0mg"},{"bike_id":"1d491791-5542-4048-86b6-7bf02306c9ed","system_id":"levelo_inurba_marseille","lat":43.29031,"lon":5.38638,"is_reserved":false,"is_disabled":false,"rental_uris":{"android":"levelo://app?vid=1d491791-5542-4048-86b6-7bf02306c9ed","ios":"levelo://app?vid=1d491791-5542-4048-86b6-7bf02306c9ed"},"vehicle_type_id":"4","last_reported":1730880746,"current_range_meters":4800,"station_id":"ce4bh4p2rcd13ifvqe0g","pricing_plan_id":"cebpf4jnsgd1na2vs0mg"},{"bike_id":"89a236d1-987b-4c7b-9c47-43289fbc7b83","system_id":"levelo_inurba_marseille","lat":43.24659,"lon":5.38165,"is_reserved":false,"is_disabled":false,"rental_uris":{"android":"levelo://app?vid=89a236d1-987b-4c7b-9c47-43289fbc7b83","ios":"levelo://app?vid=89a236d1-987b-4c7b-9c47-43289fbc7b83"},"vehicle_type_id":"4","last_reported":1730880746,"current_range_meters":30000,"station_id":"ce4bhih2rcd13ifvqfr0","pricing_plan_id":"cebpf4jnsgd1na2vs0mg"},{"bike_id":"ba77ec3c-7f8c-401e-8066-2df3fb20a76b","system_id":"levelo_inurba_marseille","lat":43.27816,"lon":5.40706,"is_reserved":false,"is_disabled":false,"rental_uris":{"android":"levelo://app?vid=ba77ec3c-7f8c-401e-8066-2df3fb20a76b","ios":"levelo://app?vid=ba77ec3c-7f8c-401e-8066-2df3fb20a76b"},"vehicle_type_id":"4","last_reported":1730880746,"current_range_meters":36400,"station_id":"ce4bhnh2rcd13ifvqgtg","pricing_plan_id":"cebpf4jnsgd1na2vs0mg"},{"bike_id":"f332f2c6-d7f0-43b2-9e74-e9b3bdc2c8e9","system_id":"levelo_inurba_marseille","lat":43.30419,"lon":5.39749,"is_reserved":false,"is_disabled":false,"rental_uris":{"android":"levelo://app?vid=f332f2c6-d7f0-43b2-9e74-e9b3bdc2c8e9","ios":"levelo://app?vid=f332f2c6-d7f0-43b2-9e74-e9b3bdc2c8e9"},"vehicle_type_id":"4","last_reported":1730880746,"current_range_meters":38800,"station_id":"ce4bh092rcd13ifvqd20","pricing_plan_id":"cebpf4jnsgd1na2vs0mg"},{"bike_id":"b9d75ba0-0e16-4754-87bd-ba18c1335a33","system_id":"levelo_inurba_marseille","lat":43.29846,"lon":5.36264,"is_reserved":false,"is_disabled":false,"rental_uris":{"android":"levelo://app?vid=b9d75ba0-0e16-4754-87bd-ba18c1335a33","ios":"levelo://app?vid=b9d75ba0-0e16-4754-87bd-ba18c1335a33"},"vehicle_type_id":"4","last_reported":1730880746,"current_range_meters":27200,"station_id":"ce4bgpp2rcd13ifvqc3g","pricing_plan_id":"cebpf4jnsgd1na2vs0mg"},{"bike_id":"694b5faf-6062-4eca-ae9a-2b0a0220025a","system_id":"levelo_inurba_marseille","lat":43.30152,"lon":5.38084,"is_reserved":false,"is_disabled":false,"rental_uris":{"android":"levelo://app?vid=694b5faf-6062-4eca-ae9a-2b0a0220025a","ios":"levelo://app?vid=694b5faf-6062-4eca-ae9a-2b0a0220025a"},"vehicle_type_id":"4","last_reported":1730880746,"current_range_meters":18000,"station_id":"ce4bgjp2rcd13ifvqbh0","pricing_plan_id":"cebpf4jnsgd1na2vs0mg"},{"bike_id":"094b2a52-abe0-47c2-968a-f4cd277f2d85","system_id":"levelo_inurba_marseille","lat":43.292702,"lon":5.368431,"is_reserved":false,"is_disabled":false,"rental_uris":{"android":"levelo://app?vid=094b2a52-abe0-47c2-968a-f4cd277f2d85","ios":"levelo://app?vid=094b2a52-abe0-47c2-968a-f4cd277f2d85"},"vehicle_type_id":"4","last_reported":1730880746,"current_range_meters":24000,"station_id":"ce4bhbp2rcd13ifvqesg","pricing_plan_id":"cebpf4jnsgd1na2vs0mg"},{"bike_id":"35d46972-faca-4525-a2d2-3f928f24f16c","system_id":"levelo_inurba_marseille","lat":43.24171,"lon":5.364,"is_reserved":false,"is_disabled":false,"rental_uris":{"android":"levelo://app?vid=35d46972-faca-4525-a2d2-3f928f24f16c","ios":"levelo://app?vid=35d46972-faca-4525-a2d2-3f928f24f16c"},"vehicle_type_id":"4","last_reported":1730880746,"current_range_meters":33200,"station_id":"cpo36qri1sfpv3e86is0","pricing_plan_id":"cebpf4jnsgd1na2vs0mg"},{"bike_id":"a2d6ba2e-ecc4-4b23-b54a-5dadb637f3d2","system_id":"levelo_inurba_marseille","lat":43.27213,"lon":5.39179,"is_reserved":false,"is_disabled":false,"rental_uris":{"android":"levelo://app?vid=a2d6ba2e-ecc4-4b23-b54a-5dadb637f3d2","ios":"levelo://app?vid=a2d6ba2e-ecc4-4b23-b54a-5dadb637f3d2"},"vehicle_type_id":"4","last_reported":1730880746,"current_range_meters":38000,"station_id":"ce4bhhp2rcd13ifvqfm0","pricing_plan_id":"cebpf4jnsgd1na2vs0mg"},{"bike_id":"bfdb4a4c-d325-4880-bf39-cf7fbe034e87","system_id":"levelo_inurba_marseille","lat":43.29877,"lon":5.3972,"is_reserved":false,"is_disabled":false,"rental_uris":{"android":"levelo://app?vid=bfdb4a4c-d325-4880-bf39-cf7fbe034e87","ios":"levelo://app?vid=bfdb4a4c-d325-4880-bf39-cf7fbe034e87"},"vehicle_type_id":"4","last_reported":1730880746,"current_range_meters":35200,"station_id":"ce4bh0h2rcd13ifvqd50","pricing_plan_id":"cebpf4jnsgd1na2vs0mg"},{"bike_id":"96b6c566-d2a6-4c57-acf7-e1e62783be68","system_id":"levelo_inurba_marseille","lat":43.3031,"lon":5.36902,"is_reserved":false,"is_disabled":false,"rental_uris":{"android":"levelo://app?vid=96b6c566-d2a6-4c57-acf7-e1e62783be68","ios":"levelo://app?vid=96b6c566-d2a6-4c57-acf7-e1e62783be68"},"vehicle_type_id":"4","last_reported":1730880746,"current_range_meters":38800,"station_id":"ce4bgqh2rcd13ifvqc5g","pricing_plan_id":"cebpf4jnsgd1na2vs0mg"},{"bike_id":"692f31da-ed64-4e18-b7cc-350f01a2fb79","system_id":"levelo_inurba_marseille","lat":43.29897,"lon":5.43663,"is_reserved":false,"is_disabled":false,"rental_uris":{"android":"levelo://app?vid=692f31da-ed64-4e18-b7cc-350f01a2fb79","ios":"levelo://app?vid=692f31da-ed64-4e18-b7cc-350f01a2fb79"},"vehicle_type_id":"4","last_reported":1730880746,"current_range_meters":20800,"station_id":"ce4bhpp2rcd13ifvqhfg","pricing_plan_id":"cebpf4jnsgd1na2vs0mg"},{"bike_id":"e7d558c9-f445-4b6b-b4ff-e395839b1d11","system_id":"levelo_inurba_marseille","lat":43.28717,"lon":5.36084,"is_reserved":false,"is_disabled":false,"rental_uris":{"android":"levelo://app?vid=e7d558c9-f445-4b6b-b4ff-e395839b1d11","ios":"levelo://app?vid=e7d558c9-f445-4b6b-b4ff-e395839b1d11"},"vehicle_type_id":"4","last_reported":1730880746,"current_range_meters":26800,"station_id":"cki0cbj6b192h4jlfktg","pricing_plan_id":"cebpf4jnsgd1na2vs0mg"},{"bike_id":"1524b6a5-be73-4a83-8e58-56d66d018bea","system_id":"levelo_inurba_marseille","lat":43.30665,"lon":5.4008,"is_reserved":false,"is_disabled":false,"rental_uris":{"android":"levelo://app?vid=1524b6a5-be73-4a83-8e58-56d66d018bea","ios":"levelo://app?vid=1524b6a5-be73-4a83-8e58-56d66d018bea"},"vehicle_type_id":"4","last_reported":1730880746,"current_range_meters":30400,"station_id":"ce4bh112rcd13ifvqda0","pricing_plan_id":"cebpf4jnsgd1na2vs0mg"},{"bike_id":"8c5b125d-c230-4147-a876-d95fb25a451f","system_id":"levelo_inurba_marseille","lat":43.306,"lon":5.39355,"is_reserved":false,"is_disabled":false,"rental_uris":{"android":"levelo://app?vid=8c5b125d-c230-4147-a876-d95fb25a451f","ios":"levelo://app?vid=8c5b125d-c230-4147-a876-d95fb25a451f"},"vehicle_type_id":"4","last_reported":1730880746,"current_range_meters":27600,"station_id":"ce4bh0p2rcd13ifvqd80","pricing_plan_id":"cebpf4jnsgd1na2vs0mg"},{"bike_id":"cee811de-d4e8-455f-88e8-6a2c711d77d4","system_id":"levelo_inurba_marseille","lat":43.27216,"lon":5.39187,"is_reserved":false,"is_disabled":false,"rental_uris":{"android":"levelo://app?vid=cee811de-d4e8-455f-88e8-6a2c711d77d4","ios":"levelo://app?vid=cee811de-d4e8-455f-88e8-6a2c711d77d4"},"vehicle_type_id":"4","last_reported":1730880746,"current_range_meters":8400,"station_id":"ce4bhhp2rcd13ifvqfm0","pricing_plan_id":"cebpf4jnsgd1na2vs0mg"},{"bike_id":"587e2033-43ab-44e0-a4f4-b4fc67d83408","system_id":"levelo_inurba_marseille","lat":43.3055,"lon":5.36714,"is_reserved":false,"is_disabled":false,"rental_uris":{"android":"levelo://app?vid=587e2033-43ab-44e0-a4f4-b4fc67d83408","ios":"levelo://app?vid=587e2033-43ab-44e0-a4f4-b4fc67d83408"},"vehicle_type_id":"4","last_reported":1730880746,"current_range_meters":32000,"station_id":"ce4bgrp2rcd13ifvqc9g","pricing_plan_id":"cebpf4jnsgd1na2vs0mg"},{"bike_id":"84212993-9a74-42e2-8712-74ee60bec761","system_id":"levelo_inurba_marseille","lat":43.30655,"lon":5.39462,"is_reserved":false,"is_disabled":false,"rental_uris":{"android":"levelo://app?vid=84212993-9a74-42e2-8712-74ee60bec761","ios":"levelo://app?vid=84212993-9a74-42e2-8712-74ee60bec761"},"vehicle_type_id":"4","last_reported":1730880746,"current_range_meters":5600,"station_id":"ce4bgup2rcd13ifvqco0","pricing_plan_id":"cebpf4jnsgd1na2vs0mg"},{"bike_id":"82412be0-8468-468d-8e41-7e76a324b8ef","system_id":"levelo_inurba_marseille","lat":43.28044,"lon":5.36968,"is_reserved":false,"is_disabled":false,"rental_uris":{"android":"levelo://app?vid=82412be0-8468-468d-8e41-7e76a324b8ef","ios":"levelo://app?vid=82412be0-8468-468d-8e41-7e76a324b8ef"},"vehicle_type_id":"4","last_reported":1730880746,"current_range_meters":32800,"station_id":"ce4bha12rcd13ifvqef0","pricing_plan_id":"cebpf4jnsgd1na2vs0mg"},{"bike_id":"ad92d505-e54c-4fbd-9b19-09a8a7fd07da","system_id":"levelo_inurba_marseille","lat":43.31345,"lon":5.36698,"is_reserved":false,"is_disabled":false,"rental_uris":{"android":"levelo://app?vid=ad92d505-e54c-4fbd-9b19-09a8a7fd07da","ios":"levelo://app?vid=ad92d505-e54c-4fbd-9b19-09a8a7fd07da"},"vehicle_type_id":"4","last_reported":1730880746,"current_range_meters":39200,"station_id":"ce4bgr92rcd13ifvqc6g","pricing_plan_id":"cebpf4jnsgd1na2vs0mg"},{"bike_id":"0ce0cab4-6ddd-45f7-bd58-c069460a03fa","system_id":"levelo_inurba_marseille","lat":43.27495,"lon":5.42446,"is_reserved":false,"is_disabled":false,"rental_uris":{"android":"levelo://app?vid=0ce0cab4-6ddd-45f7-bd58-c069460a03fa","ios":"levelo://app?vid=0ce0cab4-6ddd-45f7-bd58-c069460a03fa"},"vehicle_type_id":"4","last_reported":1730880746,"current_range_meters":28000,"station_id":"ce4bhn92rcd13ifvqgrg","pricing_plan_id":"cebpf4jnsgd1na2vs0mg"},{"bike_id":"08989d35-26bb-49ea-9006-39fc216cfb17","system_id":"levelo_inurba_marseille","lat":43.29035,"lon":5.37562,"is_reserved":false,"is_disabled":false,"rental_uris":{"android":"levelo://app?vid=08989d35-26bb-49ea-9006-39fc216cfb17","ios":"levelo://app?vid=08989d35-26bb-49ea-9006-39fc216cfb17"},"vehicle_type_id":"4","last_reported":1730880746,"current_range_meters":37600,"station_id":"ce4bh692rcd13ifvqe90","pricing_plan_id":"cebpf4jnsgd1na2vs0mg"},{"bike_id":"8b42a84e-96a4-424f-a19b-7de792d2502a","system_id":"levelo_inurba_marseille","lat":43.29054,"lon":5.35916,"is_reserved":false,"is_disabled":false,"rental_uris":{"android":"levelo://app?vid=8b42a84e-96a4-424f-a19b-7de792d2502a","ios":"levelo://app?vid=8b42a84e-96a4-424f-a19b-7de792d2502a"},"vehicle_type_id":"4","last_reported":1730880746,"current_range_meters":37600,"station_id":"ce4bha92rcd13ifvqeg0","pricing_plan_id":"cebpf4jnsgd1na2vs0mg"},{"bike_id":"0675f465-1f18-4ae0-8e41-e9ba0961036b","system_id":"levelo_inurba_marseille","lat":43.337444,"lon":5.374475,"is_reserved":false,"is_disabled":false,"rental_uris":{"android":"levelo://app?vid=0675f465-1f18-4ae0-8e41-e9ba0961036b","ios":"levelo://app?vid=0675f465-1f18-4ae0-8e41-e9ba0961036b"},"vehicle_type_id":"4","last_reported":1730880746,"current_range_meters":10800,"station_id":"","pricing_plan_id":"cebpf4jnsgd1na2vs0mg"},{"bike_id":"bb8df6f6-3d8e-4412-a64f-44381ac62a61","system_id":"levelo_inurba_marseille","lat":43.24546,"lon":5.39524,"is_reserved":false,"is_disabled":false,"rental_uris":{"android":"levelo://app?vid=bb8df6f6-3d8e-4412-a64f-44381ac62a61","ios":"levelo://app?vid=bb8df6f6-3d8e-4412-a64f-44381ac62a61"},"vehicle_type_id":"4","last_reported":1730880746,"current_range_meters":36400,"station_id":"ce4bhlp2rcd13ifvqgjg","pricing_plan_id":"cebpf4jnsgd1na2vs0mg"},{"bike_id":"8fa098e3-63b5-4289-9e37-6aadd8d2edc5","system_id":"levelo_inurba_marseille","lat":43.2417,"lon":5.364,"is_reserved":false,"is_disabled":false,"rental_uris":{"android":"levelo://app?vid=8fa098e3-63b5-4289-9e37-6aadd8d2edc5","ios":"levelo://app?vid=8fa098e3-63b5-4289-9e37-6aadd8d2edc5"},"vehicle_type_id":"4","last_reported":1730880746,"current_range_meters":35600,"station_id":"cpo36qri1sfpv3e86is0","pricing_plan_id":"cebpf4jnsgd1na2vs0mg"},{"bike_id":"54c3c44c-4060-4019-acbd-7cfd4886fd11","system_id":"levelo_inurba_marseille","lat":43.2963,"lon":5.37161,"is_reserved":false,"is_disabled":false,"rental_uris":{"android":"levelo://app?vid=54c3c44c-4060-4019-acbd-7cfd4886fd11","ios":"levelo://app?vid=54c3c44c-4060-4019-acbd-7cfd4886fd11"},"vehicle_type_id":"4","last_reported":1730880746,"current_range_meters":3600,"station_id":"ce4bgnh2rcd13ifvqc0g","pricing_plan_id":"cebpf4jnsgd1na2vs0mg"},{"bike_id":"504a2677-e7f9-490d-8752-2a9c4e557185","system_id":"levelo_inurba_marseille","lat":43.271882,"lon":5.409948,"is_reserved":false,"is_disabled":false,"rental_uris":{"android":"levelo://app?vid=504a2677-e7f9-490d-8752-2a9c4e557185","ios":"levelo://app?vid=504a2677-e7f9-490d-8752-2a9c4e557185"},"vehicle_type_id":"4","last_reported":1730880746,"current_range_meters":30800,"station_id":"ce4bhl12rcd13ifvqgf0","pricing_plan_id":"cebpf4jnsgd1na2vs0mg"},{"bike_id":"c4b3f95c-19ce-41e7-bb2a-9483ff7ff452","system_id":"levelo_inurba_marseille","lat":43.30605,"lon":5.39353,"is_reserved":false,"is_disabled":false,"rental_uris":{"android":"levelo://app?vid=c4b3f95c-19ce-41e7-bb2a-9483ff7ff452","ios":"levelo://app?vid=c4b3f95c-19ce-41e7-bb2a-9483ff7ff452"},"vehicle_type_id":"4","last_reported":1730880746,"current_range_meters":26000,"station_id":"ce4bh0p2rcd13ifvqd80","pricing_plan_id":"cebpf4jnsgd1na2vs0mg"},{"bike_id":"ba315d37-50f3-416d-b0a6-a79062e18ac8","system_id":"levelo_inurba_marseille","lat":43.25932,"lon":5.40909,"is_reserved":false,"is_disabled":false,"rental_uris":{"android":"levelo://app?vid=ba315d37-50f3-416d-b0a6-a79062e18ac8","ios":"levelo://app?vid=ba315d37-50f3-416d-b0a6-a79062e18ac8"},"vehicle_type_id":"4","last_reported":1730880746,"current_range_meters":21600,"station_id":"ce4bhm92rcd13ifvqglg","pricing_plan_id":"cebpf4jnsgd1na2vs0mg"},{"bike_id":"59c1a355-094c-4c66-95ef-62fcfe2a35e1","system_id":"levelo_inurba_marseille","lat":43.29527,"lon":5.37502,"is_reserved":false,"is_disabled":false,"rental_uris":{"android":"levelo://app?vid=59c1a355-094c-4c66-95ef-62fcfe2a35e1","ios":"levelo://app?vid=59c1a355-094c-4c66-95ef-62fcfe2a35e1"},"vehicle_type_id":"4","last_reported":1730880746,"current_range_meters":38000,"station_id":"ce4bgkp2rcd13ifvqbmg","pricing_plan_id":"cebpf4jnsgd1na2vs0mg"},{"bike_id":"899809c8-f3c7-49ad-a7a7-52ddb5c2503f","system_id":"levelo_inurba_marseille","lat":43.2315,"lon":5.43726,"is_reserved":false,"is_disabled":false,"rental_uris":{"android":"levelo://app?vid=899809c8-f3c7-49ad-a7a7-52ddb5c2503f","ios":"levelo://app?vid=899809c8-f3c7-49ad-a7a7-52ddb5c2503f"},"vehicle_type_id":"4","last_reported":1730880746,"current_range_meters":29600,"station_id":"ce4bhmp2rcd13ifvqgog","pricing_plan_id":"cebpf4jnsgd1na2vs0mg"},{"bike_id":"ebffee7c-cae5-47c5-9bdb-6d314ad8c91e","system_id":"levelo_inurba_marseille","lat":43.33026,"lon":5.39041,"is_reserved":false,"is_disabled":false,"rental_uris":{"android":"levelo://app?vid=ebffee7c-cae5-47c5-9bdb-6d314ad8c91e","ios":"levelo://app?vid=ebffee7c-cae5-47c5-9bdb-6d314ad8c91e"},"vehicle_type_id":"4","last_reported":1730880746,"current_range_meters":36800,"station_id":"ce4bhr92rcd13ifvqhrg","pricing_plan_id":"cebpf4jnsgd1na2vs0mg"},{"bike_id":"515813cc-41f8-4bca-a4af-e5cb686a2815","system_id":"levelo_inurba_marseille","lat":43.24083,"lon":5.37752,"is_reserved":false,"is_disabled":false,"rental_uris":{"android":"levelo://app?vid=515813cc-41f8-4bca-a4af-e5cb686a2815","ios":"levelo://app?vid=515813cc-41f8-4bca-a4af-e5cb686a2815"},"vehicle_type_id":"4","last_reported":1730880746,"current_range_meters":30800,"station_id":"ce4bhnp2rcd13ifvqgvg","pricing_plan_id":"cebpf4jnsgd1na2vs0mg"},{"bike_id":"b0dca977-f0ed-40db-b0e7-249207743a3d","system_id":"levelo_inurba_marseille","lat":43.24078,"lon":5.37751,"is_reserved":false,"is_disabled":false,"rental_uris":{"android":"levelo://app?vid=b0dca977-f0ed-40db-b0e7-249207743a3d","ios":"levelo://app?vid=b0dca977-f0ed-40db-b0e7-249207743a3d"},"vehicle_type_id":"4","last_reported":1730880746,"current_range_meters":8400,"station_id":"ce4bhnp2rcd13ifvqgvg","pricing_plan_id":"cebpf4jnsgd1na2vs0mg"},{"bike_id":"42163e3e-5009-401f-a1ce-f09eb7e2a510","system_id":"levelo_inurba_marseille","lat":43.31331,"lon":5.39693,"is_reserved":false,"is_disabled":false,"rental_uris":{"android":"levelo://app?vid=42163e3e-5009-401f-a1ce-f09eb7e2a510","ios":"levelo://app?vid=42163e3e-5009-401f-a1ce-f09eb7e2a510"},"vehicle_type_id":"4","last_reported":1730880746,"current_range_meters":38800,"station_id":"ce4bgvp2rcd13ifvqcu0","pricing_plan_id":"cebpf4jnsgd1na2vs0mg"},{"bike_id":"01602f26-99d5-4713-8831-c5313453dcba","system_id":"levelo_inurba_marseille","lat":43.24082,"lon":5.37755,"is_reserved":false,"is_disabled":false,"rental_uris":{"android":"levelo://app?vid=01602f26-99d5-4713-8831-c5313453dcba","ios":"levelo://app?vid=01602f26-99d5-4713-8831-c5313453dcba"},"vehicle_type_id":"4","last_reported":1730880746,"current_range_meters":38000,"station_id":"ce4bhnp2rcd13ifvqgvg","pricing_plan_id":"cebpf4jnsgd1na2vs0mg"},{"bike_id":"f8e36bb3-1c29-434d-8fb4-0b28142e9a02","system_id":"levelo_inurba_marseille","lat":43.29625,"lon":5.37161,"is_reserved":false,"is_disabled":false,"rental_uris":{"android":"levelo://app?vid=f8e36bb3-1c29-434d-8fb4-0b28142e9a02","ios":"levelo://app?vid=f8e36bb3-1c29-434d-8fb4-0b28142e9a02"},"vehicle_type_id":"4","last_reported":1730880746,"current_range_meters":36800,"station_id":"ce4bgnh2rcd13ifvqc0g","pricing_plan_id":"cebpf4jnsgd1na2vs0mg"},{"bike_id":"679768bc-ebe5-47e4-8e67-960726d0f63f","system_id":"levelo_inurba_marseille","lat":43.30891,"lon":5.39654,"is_reserved":false,"is_disabled":false,"rental_uris":{"android":"levelo://app?vid=679768bc-ebe5-47e4-8e67-960726d0f63f","ios":"levelo://app?vid=679768bc-ebe5-47e4-8e67-960726d0f63f"},"vehicle_type_id":"4","last_reported":1730880746,"current_range_meters":38800,"station_id":"ce4bh012rcd13ifvqcv0","pricing_plan_id":"cebpf4jnsgd1na2vs0mg"},{"bike_id":"1c0c5e65-624c-494b-8cd0-eff292050400","system_id":"levelo_inurba_marseille","lat":43.30599,"lon":5.3936,"is_reserved":false,"is_disabled":false,"rental_uris":{"android":"levelo://app?vid=1c0c5e65-624c-494b-8cd0-eff292050400","ios":"levelo://app?vid=1c0c5e65-624c-494b-8cd0-eff292050400"},"vehicle_type_id":"4","last_reported":1730880746,"current_range_meters":28000,"station_id":"ce4bh0p2rcd13ifvqd80","pricing_plan_id":"cebpf4jnsgd1na2vs0mg"},{"bike_id":"3f4b2fe9-92d0-4c51-99b2-3568b1500db4","system_id":"levelo_inurba_marseille","lat":43.2594,"lon":5.40902,"is_reserved":false,"is_disabled":false,"rental_uris":{"android":"levelo://app?vid=3f4b2fe9-92d0-4c51-99b2-3568b1500db4","ios":"levelo://app?vid=3f4b2fe9-92d0-4c51-99b2-3568b1500db4"},"vehicle_type_id":"4","last_reported":1730880746,"current_range_meters":35200,"station_id":"ce4bhm92rcd13ifvqglg","pricing_plan_id":"cebpf4jnsgd1na2vs0mg"},{"bike_id":"58dbcfe7-8396-4727-bcd9-e808db0688de","system_id":"levelo_inurba_marseille","lat":43.29625,"lon":5.37171,"is_reserved":false,"is_disabled":false,"rental_uris":{"android":"levelo://app?vid=58dbcfe7-8396-4727-bcd9-e808db0688de","ios":"levelo://app?vid=58dbcfe7-8396-4727-bcd9-e808db0688de"},"vehicle_type_id":"4","last_reported":1730880746,"current_range_meters":38800,"station_id":"ce4bgnh2rcd13ifvqc0g","pricing_plan_id":"cebpf4jnsgd1na2vs0mg"},{"bike_id":"5fde73d2-0a67-4f49-9e45-9db14b3519cc","system_id":"levelo_inurba_marseille","lat":43.24075,"lon":5.37757,"is_reserved":false,"is_disabled":false,"rental_uris":{"android":"levelo://app?vid=5fde73d2-0a67-4f49-9e45-9db14b3519cc","ios":"levelo://app?vid=5fde73d2-0a67-4f49-9e45-9db14b3519cc"},"vehicle_type_id":"4","last_reported":1730880746,"current_range_meters":28800,"station_id":"ce4bhnp2rcd13ifvqgvg","pricing_plan_id":"cebpf4jnsgd1na2vs0mg"},{"bike_id":"2be58595-1ee4-4e97-90d2-c6d933b5e1c7","system_id":"levelo_inurba_marseille","lat":43.29902,"lon":5.43678,"is_reserved":false,"is_disabled":false,"rental_uris":{"android":"levelo://app?vid=2be58595-1ee4-4e97-90d2-c6d933b5e1c7","ios":"levelo://app?vid=2be58595-1ee4-4e97-90d2-c6d933b5e1c7"},"vehicle_type_id":"4","last_reported":1730880746,"current_range_meters":22400,"station_id":"ce4bhpp2rcd13ifvqhfg","pricing_plan_id":"cebpf4jnsgd1na2vs0mg"},{"bike_id":"0ab2d0fb-4558-435e-8a7a-e5e54e69a749","system_id":"levelo_inurba_marseille","lat":43.30419,"lon":5.4128,"is_reserved":false,"is_disabled":false,"rental_uris":{"android":"levelo://app?vid=0ab2d0fb-4558-435e-8a7a-e5e54e69a749","ios":"levelo://app?vid=0ab2d0fb-4558-435e-8a7a-e5e54e69a749"},"vehicle_type_id":"4","last_reported":1730880746,"current_range_meters":30400,"station_id":"ce4bhop2rcd13ifvqh8g","pricing_plan_id":"cebpf4jnsgd1na2vs0mg"},{"bike_id":"b1c3d1ad-c315-4033-9b59-42e5bd0c2059","system_id":"levelo_inurba_marseille","lat":43.26561,"lon":5.37282,"is_reserved":false,"is_disabled":false,"rental_uris":{"android":"levelo://app?vid=b1c3d1ad-c315-4033-9b59-42e5bd0c2059","ios":"levelo://app?vid=b1c3d1ad-c315-4033-9b59-42e5bd0c2059"},"vehicle_type_id":"4","last_reported":1730880746,"current_range_meters":26800,"station_id":"ce4bhg12rcd13ifvqf70","pricing_plan_id":"cebpf4jnsgd1na2vs0mg"},{"bike_id":"2675b414-6165-4354-b61f-2c02775fbd58","system_id":"levelo_inurba_marseille","lat":43.28941,"lon":5.3663,"is_reserved":false,"is_disabled":false,"rental_uris":{"android":"levelo://app?vid=2675b414-6165-4354-b61f-2c02775fbd58","ios":"levelo://app?vid=2675b414-6165-4354-b61f-2c02775fbd58"},"vehicle_type_id":"4","last_reported":1730880746,"current_range_meters":38000,"station_id":"ce4bhap2rcd13ifvqek0","pricing_plan_id":"cebpf4jnsgd1na2vs0mg"},{"bike_id":"656f0d4a-7420-4ffe-a8bd-6108953a494d","system_id":"levelo_inurba_marseille","lat":43.29873,"lon":5.39722,"is_reserved":false,"is_disabled":false,"rental_uris":{"android":"levelo://app?vid=656f0d4a-7420-4ffe-a8bd-6108953a494d","ios":"levelo://app?vid=656f0d4a-7420-4ffe-a8bd-6108953a494d"},"vehicle_type_id":"4","last_reported":1730880746,"current_range_meters":38000,"station_id":"ce4bh0h2rcd13ifvqd50","pricing_plan_id":"cebpf4jnsgd1na2vs0mg"},{"bike_id":"1d564d50-2498-44d2-a1c8-c92d258f88c1","system_id":"levelo_inurba_marseille","lat":43.26954,"lon":5.38625,"is_reserved":false,"is_disabled":false,"rental_uris":{"android":"levelo://app?vid=1d564d50-2498-44d2-a1c8-c92d258f88c1","ios":"levelo://app?vid=1d564d50-2498-44d2-a1c8-c92d258f88c1"},"vehicle_type_id":"4","last_reported":1730880746,"current_range_meters":36400,"station_id":"ce4bhh92rcd13ifvqfh0","pricing_plan_id":"cebpf4jnsgd1na2vs0mg"},{"bike_id":"2f64c830-8cd5-40b1-8f50-2ad4c0b7a230","system_id":"levelo_inurba_marseille","lat":43.29037,"lon":5.3756,"is_reserved":false,"is_disabled":false,"rental_uris":{"android":"levelo://app?vid=2f64c830-8cd5-40b1-8f50-2ad4c0b7a230","ios":"levelo://app?vid=2f64c830-8cd5-40b1-8f50-2ad4c0b7a230"},"vehicle_type_id":"4","last_reported":1730880746,"current_range_meters":38400,"station_id":"ce4bh692rcd13ifvqe90","pricing_plan_id":"cebpf4jnsgd1na2vs0mg"},{"bike_id":"af40c465-3c25-4b8b-95c5-982f2fde9235","system_id":"levelo_inurba_marseille","lat":43.278072,"lon":5.407073,"is_reserved":false,"is_disabled":false,"rental_uris":{"android":"levelo://app?vid=af40c465-3c25-4b8b-95c5-982f2fde9235","ios":"levelo://app?vid=af40c465-3c25-4b8b-95c5-982f2fde9235"},"vehicle_type_id":"4","last_reported":1730880746,"current_range_meters":19600,"station_id":"ce4bhnh2rcd13ifvqgtg","pricing_plan_id":"cebpf4jnsgd1na2vs0mg"},{"bike_id":"1dafc3c8-1077-44b3-aea7-a66bf4d6f2cd","system_id":"levelo_inurba_marseille","lat":43.30931,"lon":5.39045,"is_reserved":false,"is_disabled":false,"rental_uris":{"android":"levelo://app?vid=1dafc3c8-1077-44b3-aea7-a66bf4d6f2cd","ios":"levelo://app?vid=1dafc3c8-1077-44b3-aea7-a66bf4d6f2cd"},"vehicle_type_id":"4","last_reported":1730880746,"current_range_meters":10000,"station_id":"ce4bgup2rcd13ifvqco0","pricing_plan_id":"cebpf4jnsgd1na2vs0mg"},{"bike_id":"f348c9f4-9a66-4443-89e4-59eadd84ea52","system_id":"levelo_inurba_marseille","lat":43.31541,"lon":5.37245,"is_reserved":false,"is_disabled":false,"rental_uris":{"android":"levelo://app?vid=f348c9f4-9a66-4443-89e4-59eadd84ea52","ios":"levelo://app?vid=f348c9f4-9a66-4443-89e4-59eadd84ea52"},"vehicle_type_id":"4","last_reported":1730880746,"current_range_meters":8400,"station_id":"","pricing_plan_id":"cebpf4jnsgd1na2vs0mg"},{"bike_id":"411f36a1-cd9c-4457-8868-0572c9ab2863","system_id":"levelo_inurba_marseille","lat":43.29802,"lon":5.38096,"is_reserved":false,"is_disabled":false,"rental_uris":{"android":"levelo://app?vid=411f36a1-cd9c-4457-8868-0572c9ab2863","ios":"levelo://app?vid=411f36a1-cd9c-4457-8868-0572c9ab2863"},"vehicle_type_id":"4","last_reported":1730880746,"current_range_meters":33600,"station_id":"ce4bgip2rcd13ifvqbb0","pricing_plan_id":"cebpf4jnsgd1na2vs0mg"},{"bike_id":"cb4447bc-2cb7-46b3-aa86-abc4ccde4149","system_id":"levelo_inurba_marseille","lat":43.2408,"lon":5.37755,"is_reserved":false,"is_disabled":false,"rental_uris":{"android":"levelo://app?vid=cb4447bc-2cb7-46b3-aa86-abc4ccde4149","ios":"levelo://app?vid=cb4447bc-2cb7-46b3-aa86-abc4ccde4149"},"vehicle_type_id":"4","last_reported":1730880746,"current_range_meters":26000,"station_id":"ce4bhnp2rcd13ifvqgvg","pricing_plan_id":"cebpf4jnsgd1na2vs0mg"},{"bike_id":"da96c2be-ffe8-410e-b05f-bd4285b4e703","system_id":"levelo_inurba_marseille","lat":43.23157,"lon":5.43716,"is_reserved":false,"is_disabled":false,"rental_uris":{"android":"levelo://app?vid=da96c2be-ffe8-410e-b05f-bd4285b4e703","ios":"levelo://app?vid=da96c2be-ffe8-410e-b05f-bd4285b4e703"},"vehicle_type_id":"4","last_reported":1730880746,"current_range_meters":20800,"station_id":"ce4bhmp2rcd13ifvqgog","pricing_plan_id":"cebpf4jnsgd1na2vs0mg"},{"bike_id":"07b32d1e-1dd4-4029-b11e-bddc1e81d2f6","system_id":"levelo_inurba_marseille","lat":43.30435,"lon":5.38883,"is_reserved":false,"is_disabled":false,"rental_uris":{"android":"levelo://app?vid=07b32d1e-1dd4-4029-b11e-bddc1e81d2f6","ios":"levelo://app?vid=07b32d1e-1dd4-4029-b11e-bddc1e81d2f6"},"vehicle_type_id":"4","last_reported":1730880746,"current_range_meters":36800,"station_id":"ce4bgk12rcd13ifvqbi0","pricing_plan_id":"cebpf4jnsgd1na2vs0mg"},{"bike_id":"7d1cc712-4f0a-4d7c-a84c-f84148ad4c46","system_id":"levelo_inurba_marseille","lat":43.23155,"lon":5.43697,"is_reserved":false,"is_disabled":false,"rental_uris":{"android":"levelo://app?vid=7d1cc712-4f0a-4d7c-a84c-f84148ad4c46","ios":"levelo://app?vid=7d1cc712-4f0a-4d7c-a84c-f84148ad4c46"},"vehicle_type_id":"4","last_reported":1730880746,"current_range_meters":5600,"station_id":"ce4bhmp2rcd13ifvqgog","pricing_plan_id":"cebpf4jnsgd1na2vs0mg"},{"bike_id":"ed4deddd-3d17-4098-b217-6cb278a9499a","system_id":"levelo_inurba_marseille","lat":43.30796,"lon":5.38164,"is_reserved":false,"is_disabled":false,"rental_uris":{"android":"levelo://app?vid=ed4deddd-3d17-4098-b217-6cb278a9499a","ios":"levelo://app?vid=ed4deddd-3d17-4098-b217-6cb278a9499a"},"vehicle_type_id":"4","last_reported":1730880746,"current_range_meters":38400,"station_id":"ce4bgt12rcd13ifvqce0","pricing_plan_id":"cebpf4jnsgd1na2vs0mg"},{"bike_id":"9a9a9628-1137-4ccb-944f-6c30884c7222","system_id":"levelo_inurba_marseille","lat":43.30603,"lon":5.39364,"is_reserved":false,"is_disabled":false,"rental_uris":{"android":"levelo://app?vid=9a9a9628-1137-4ccb-944f-6c30884c7222","ios":"levelo://app?vid=9a9a9628-1137-4ccb-944f-6c30884c7222"},"vehicle_type_id":"4","last_reported":1730880746,"current_range_meters":22400,"station_id":"ce4bh0p2rcd13ifvqd80","pricing_plan_id":"cebpf4jnsgd1na2vs0mg"},{"bike_id":"786c2260-120f-4fc0-9c0d-2115a70756da","system_id":"levelo_inurba_marseille","lat":43.24078,"lon":5.37757,"is_reserved":false,"is_disabled":false,"rental_uris":{"android":"levelo://app?vid=786c2260-120f-4fc0-9c0d-2115a70756da","ios":"levelo://app?vid=786c2260-120f-4fc0-9c0d-2115a70756da"},"vehicle_type_id":"4","last_reported":1730880746,"current_range_meters":36000,"station_id":"ce4bhnp2rcd13ifvqgvg","pricing_plan_id":"cebpf4jnsgd1na2vs0mg"},{"bike_id":"ce2fb28c-ad6a-4ba1-baf0-cc04e75bf748","system_id":"levelo_inurba_marseille","lat":43.29225,"lon":5.36063,"is_reserved":false,"is_disabled":false,"rental_uris":{"android":"levelo://app?vid=ce2fb28c-ad6a-4ba1-baf0-cc04e75bf748","ios":"levelo://app?vid=ce2fb28c-ad6a-4ba1-baf0-cc04e75bf748"},"vehicle_type_id":"4","last_reported":1730880746,"current_range_meters":38000,"station_id":"ce4bhbh2rcd13ifvqeqg","pricing_plan_id":"cebpf4jnsgd1na2vs0mg"},{"bike_id":"f8097ea0-0db7-43f4-99f3-8a879a368103","system_id":"levelo_inurba_marseille","lat":43.24083,"lon":5.37753,"is_reserved":false,"is_disabled":false,"rental_uris":{"android":"levelo://app?vid=f8097ea0-0db7-43f4-99f3-8a879a368103","ios":"levelo://app?vid=f8097ea0-0db7-43f4-99f3-8a879a368103"},"vehicle_type_id":"4","last_reported":1730880746,"current_range_meters":32000,"station_id":"ce4bhnp2rcd13ifvqgvg","pricing_plan_id":"cebpf4jnsgd1na2vs0mg"},{"bike_id":"5cb640fa-2eb7-44cf-8de4-a3b43f3ed145","system_id":"levelo_inurba_marseille","lat":43.30788,"lon":5.37648,"is_reserved":false,"is_disabled":false,"rental_uris":{"android":"levelo://app?vid=5cb640fa-2eb7-44cf-8de4-a3b43f3ed145","ios":"levelo://app?vid=5cb640fa-2eb7-44cf-8de4-a3b43f3ed145"},"vehicle_type_id":"4","last_reported":1730880746,"current_range_meters":33600,"station_id":"ce4bgv92rcd13ifvqcq0","pricing_plan_id":"cebpf4jnsgd1na2vs0mg"},{"bike_id":"c18e3377-4dcd-4010-86ae-a2cf9f144b20","system_id":"levelo_inurba_marseille","lat":43.26558,"lon":5.372837,"is_reserved":false,"is_disabled":false,"rental_uris":{"android":"levelo://app?vid=c18e3377-4dcd-4010-86ae-a2cf9f144b20","ios":"levelo://app?vid=c18e3377-4dcd-4010-86ae-a2cf9f144b20"},"vehicle_type_id":"4","last_reported":1730880746,"current_range_meters":35200,"station_id":"ce4bhg12rcd13ifvqf70","pricing_plan_id":"cebpf4jnsgd1na2vs0mg"},{"bike_id":"04e46d3e-fe4a-4d06-87b6-07c7c32678c6","system_id":"levelo_inurba_marseille","lat":43.2841,"lon":5.37537,"is_reserved":false,"is_disabled":false,"rental_uris":{"android":"levelo://app?vid=04e46d3e-fe4a-4d06-87b6-07c7c32678c6","ios":"levelo://app?vid=04e46d3e-fe4a-4d06-87b6-07c7c32678c6"},"vehicle_type_id":"4","last_reported":1730880746,"current_range_meters":4800,"station_id":"ce4bh412rcd13ifvqds0","pricing_plan_id":"cebpf4jnsgd1na2vs0mg"},{"bike_id":"6edcb5d2-dbf0-49f4-9f8b-5d93ccae943e","system_id":"levelo_inurba_marseille","lat":43.27913,"lon":5.38014,"is_reserved":false,"is_disabled":false,"rental_uris":{"android":"levelo://app?vid=6edcb5d2-dbf0-49f4-9f8b-5d93ccae943e","ios":"levelo://app?vid=6edcb5d2-dbf0-49f4-9f8b-5d93ccae943e"},"vehicle_type_id":"4","last_reported":1730880746,"current_range_meters":24800,"station_id":"ce4bhf92rcd13ifvqf50","pricing_plan_id":"cebpf4jnsgd1na2vs0mg"},{"bike_id":"f134a36c-da7a-4ca9-aa39-cfe49d7fbeef","system_id":"levelo_inurba_marseille","lat":43.265852,"lon":5.390122,"is_reserved":false,"is_disabled":false,"rental_uris":{"android":"levelo://app?vid=f134a36c-da7a-4ca9-aa39-cfe49d7fbeef","ios":"levelo://app?vid=f134a36c-da7a-4ca9-aa39-cfe49d7fbeef"},"vehicle_type_id":"4","last_reported":1730880746,"current_range_meters":32800,"station_id":"ce4bhe12rcd13ifvqf30","pricing_plan_id":"cebpf4jnsgd1na2vs0mg"},{"bike_id":"340ee037-c5f9-4ff6-a16b-0e0f3098fa79","system_id":"levelo_inurba_marseille","lat":43.31453,"lon":5.37376,"is_reserved":false,"is_disabled":false,"rental_uris":{"android":"levelo://app?vid=340ee037-c5f9-4ff6-a16b-0e0f3098fa79","ios":"levelo://app?vid=340ee037-c5f9-4ff6-a16b-0e0f3098fa79"},"vehicle_type_id":"4","last_reported":1730880746,"current_range_meters":25200,"station_id":"","pricing_plan_id":"cebpf4jnsgd1na2vs0mg"},{"bike_id":"3dcf2084-d2c1-4451-a57c-61086d241ea9","system_id":"levelo_inurba_marseille","lat":43.28378,"lon":5.38632,"is_reserved":false,"is_disabled":false,"rental_uris":{"android":"levelo://app?vid=3dcf2084-d2c1-4451-a57c-61086d241ea9","ios":"levelo://app?vid=3dcf2084-d2c1-4451-a57c-61086d241ea9"},"vehicle_type_id":"4","last_reported":1730880746,"current_range_meters":36800,"station_id":"ce4bh492rcd13ifvqdvg","pricing_plan_id":"cebpf4jnsgd1na2vs0mg"},{"bike_id":"715c1317-ee4d-472b-aa04-0e62a6a67784","system_id":"levelo_inurba_marseille","lat":43.25938,"lon":5.4091,"is_reserved":false,"is_disabled":false,"rental_uris":{"android":"levelo://app?vid=715c1317-ee4d-472b-aa04-0e62a6a67784","ios":"levelo://app?vid=715c1317-ee4d-472b-aa04-0e62a6a67784"},"vehicle_type_id":"4","last_reported":1730880746,"current_range_meters":22800,"station_id":"ce4bhm92rcd13ifvqglg","pricing_plan_id":"cebpf4jnsgd1na2vs0mg"},{"bike_id":"cde33d01-4fdf-4588-9993-50576e545d63","system_id":"levelo_inurba_marseille","lat":43.29908,"lon":5.43679,"is_reserved":false,"is_disabled":false,"rental_uris":{"android":"levelo://app?vid=cde33d01-4fdf-4588-9993-50576e545d63","ios":"levelo://app?vid=cde33d01-4fdf-4588-9993-50576e545d63"},"vehicle_type_id":"4","last_reported":1730880746,"current_range_meters":38400,"station_id":"ce4bhpp2rcd13ifvqhfg","pricing_plan_id":"cebpf4jnsgd1na2vs0mg"},{"bike_id":"4843f2c5-daa2-4a50-a0e1-201b9893080b","system_id":"levelo_inurba_marseille","lat":43.24076,"lon":5.37758,"is_reserved":false,"is_disabled":false,"rental_uris":{"android":"levelo://app?vid=4843f2c5-daa2-4a50-a0e1-201b9893080b","ios":"levelo://app?vid=4843f2c5-daa2-4a50-a0e1-201b9893080b"},"vehicle_type_id":"4","last_reported":1730880746,"current_range_meters":36400,"station_id":"ce4bhnp2rcd13ifvqgvg","pricing_plan_id":"cebpf4jnsgd1na2vs0mg"},{"bike_id":"639bfd3b-5031-4259-9e04-535d59524414","system_id":"levelo_inurba_marseille","lat":43.27945,"lon":5.41062,"is_reserved":false,"is_disabled":false,"rental_uris":{"android":"levelo://app?vid=639bfd3b-5031-4259-9e04-535d59524414","ios":"levelo://app?vid=639bfd3b-5031-4259-9e04-535d59524414"},"vehicle_type_id":"4","last_reported":1730880746,"current_range_meters":37600,"station_id":"","pricing_plan_id":"cebpf4jnsgd1na2vs0mg"},{"bike_id":"28e4885d-9200-4e60-96af-eaca8769468c","system_id":"levelo_inurba_marseille","lat":43.31273,"lon":5.4017,"is_reserved":false,"is_disabled":false,"rental_uris":{"android":"levelo://app?vid=28e4885d-9200-4e60-96af-eaca8769468c","ios":"levelo://app?vid=28e4885d-9200-4e60-96af-eaca8769468c"},"vehicle_type_id":"4","last_reported":1730880746,"current_range_meters":31200,"station_id":"ce4bh092rcd13ifvqd30","pricing_plan_id":"cebpf4jnsgd1na2vs0mg"},{"bike_id":"c0668dc4-3e49-4fc6-b1fd-bbc8e891499e","system_id":"levelo_inurba_marseille","lat":43.30309,"lon":5.36886,"is_reserved":false,"is_disabled":false,"rental_uris":{"android":"levelo://app?vid=c0668dc4-3e49-4fc6-b1fd-bbc8e891499e","ios":"levelo://app?vid=c0668dc4-3e49-4fc6-b1fd-bbc8e891499e"},"vehicle_type_id":"4","last_reported":1730880746,"current_range_meters":22800,"station_id":"ce4bgqh2rcd13ifvqc5g","pricing_plan_id":"cebpf4jnsgd1na2vs0mg"},{"bike_id":"2d965f9c-7972-408e-95bf-f3b6b511b891","system_id":"levelo_inurba_marseille","lat":43.30658,"lon":5.40072,"is_reserved":false,"is_disabled":false,"rental_uris":{"android":"levelo://app?vid=2d965f9c-7972-408e-95bf-f3b6b511b891","ios":"levelo://app?vid=2d965f9c-7972-408e-95bf-f3b6b511b891"},"vehicle_type_id":"4","last_reported":1730880746,"current_range_meters":11600,"station_id":"ce4bh112rcd13ifvqda0","pricing_plan_id":"cebpf4jnsgd1na2vs0mg"},{"bike_id":"9d9dc117-b422-4432-b305-2ee17862cef6","system_id":"levelo_inurba_marseille","lat":43.31225,"lon":5.369,"is_reserved":false,"is_disabled":false,"rental_uris":{"android":"levelo://app?vid=9d9dc117-b422-4432-b305-2ee17862cef6","ios":"levelo://app?vid=9d9dc117-b422-4432-b305-2ee17862cef6"},"vehicle_type_id":"4","last_reported":1730880746,"current_range_meters":30800,"station_id":"ce4bgl92rcd13ifvqbq0","pricing_plan_id":"cebpf4jnsgd1na2vs0mg"},{"bike_id":"b6610bdf-8909-491b-82af-22d5ec18a8c3","system_id":"levelo_inurba_marseille","lat":43.30954,"lon":5.39037,"is_reserved":false,"is_disabled":false,"rental_uris":{"android":"levelo://app?vid=b6610bdf-8909-491b-82af-22d5ec18a8c3","ios":"levelo://app?vid=b6610bdf-8909-491b-82af-22d5ec18a8c3"},"vehicle_type_id":"4","last_reported":1730880746,"current_range_meters":11200,"station_id":"ce4bgup2rcd13ifvqco0","pricing_plan_id":"cebpf4jnsgd1na2vs0mg"},{"bike_id":"2ae3e76c-8e86-4cd2-8ef2-a10e00da5882","system_id":"levelo_inurba_marseille","lat":43.28356,"lon":5.38122,"is_reserved":false,"is_disabled":false,"rental_uris":{"android":"levelo://app?vid=2ae3e76c-8e86-4cd2-8ef2-a10e00da5882","ios":"levelo://app?vid=2ae3e76c-8e86-4cd2-8ef2-a10e00da5882"},"vehicle_type_id":"4","last_reported":1730880746,"current_range_meters":36000,"station_id":"ce4bh412rcd13ifvqdr0","pricing_plan_id":"cebpf4jnsgd1na2vs0mg"},{"bike_id":"f33a9ea1-2002-4491-a7fc-b550eb5b4427","system_id":"levelo_inurba_marseille","lat":43.30168,"lon":5.38072,"is_reserved":false,"is_disabled":false,"rental_uris":{"android":"levelo://app?vid=f33a9ea1-2002-4491-a7fc-b550eb5b4427","ios":"levelo://app?vid=f33a9ea1-2002-4491-a7fc-b550eb5b4427"},"vehicle_type_id":"4","last_reported":1730880746,"current_range_meters":6000,"station_id":"ce4bgjp2rcd13ifvqbh0","pricing_plan_id":"cebpf4jnsgd1na2vs0mg"},{"bike_id":"0def7150-f76b-4a86-9d02-f7b51c4d526f","system_id":"levelo_inurba_marseille","lat":43.291995,"lon":5.393278,"is_reserved":false,"is_disabled":false,"rental_uris":{"android":"levelo://app?vid=0def7150-f76b-4a86-9d02-f7b51c4d526f","ios":"levelo://app?vid=0def7150-f76b-4a86-9d02-f7b51c4d526f"},"vehicle_type_id":"4","last_reported":1730880746,"current_range_meters":28800,"station_id":"ce4bh192rcd13ifvqdd0","pricing_plan_id":"cebpf4jnsgd1na2vs0mg"},{"bike_id":"5174ae6b-73b7-4eb9-b82e-9c61c1f78ce8","system_id":"levelo_inurba_marseille","lat":43.312135,"lon":5.406369,"is_reserved":false,"is_disabled":false,"rental_uris":{"android":"levelo://app?vid=5174ae6b-73b7-4eb9-b82e-9c61c1f78ce8","ios":"levelo://app?vid=5174ae6b-73b7-4eb9-b82e-9c61c1f78ce8"},"vehicle_type_id":"4","last_reported":1730880746,"current_range_meters":24000,"station_id":"","pricing_plan_id":"cebpf4jnsgd1na2vs0mg"},{"bike_id":"37982f48-4ba8-4e30-9b15-5885be8b812d","system_id":"levelo_inurba_marseille","lat":43.30426,"lon":5.39751,"is_reserved":false,"is_disabled":false,"rental_uris":{"android":"levelo://app?vid=37982f48-4ba8-4e30-9b15-5885be8b812d","ios":"levelo://app?vid=37982f48-4ba8-4e30-9b15-5885be8b812d"},"vehicle_type_id":"4","last_reported":1730880746,"current_range_meters":39200,"station_id":"ce4bh092rcd13ifvqd20","pricing_plan_id":"cebpf4jnsgd1na2vs0mg"},{"bike_id":"4be0cd5b-7c87-462c-8efd-57c846a67364","system_id":"levelo_inurba_marseille","lat":43.27428,"lon":5.39404,"is_reserved":false,"is_disabled":false,"rental_uris":{"android":"levelo://app?vid=4be0cd5b-7c87-462c-8efd-57c846a67364","ios":"levelo://app?vid=4be0cd5b-7c87-462c-8efd-57c846a67364"},"vehicle_type_id":"4","last_reported":1730880746,"current_range_meters":20400,"station_id":"ce4bhdp2rcd13ifvqf20","pricing_plan_id":"cebpf4jnsgd1na2vs0mg"},{"bike_id":"dea323ac-5b80-43e7-a88e-a81ff66e67db","system_id":"levelo_inurba_marseille","lat":43.2895,"lon":5.36409,"is_reserved":false,"is_disabled":false,"rental_uris":{"android":"levelo://app?vid=dea323ac-5b80-43e7-a88e-a81ff66e67db","ios":"levelo://app?vid=dea323ac-5b80-43e7-a88e-a81ff66e67db"},"vehicle_type_id":"4","last_reported":1730880746,"current_range_meters":30800,"station_id":"ce4bhc92rcd13ifvqetg","pricing_plan_id":"cebpf4jnsgd1na2vs0mg"},{"bike_id":"ff404c7f-7bb7-463d-8520-cba3fe0d0b9a","system_id":"levelo_inurba_marseille","lat":43.30811,"lon":5.37652,"is_reserved":false,"is_disabled":false,"rental_uris":{"android":"levelo://app?vid=ff404c7f-7bb7-463d-8520-cba3fe0d0b9a","ios":"levelo://app?vid=ff404c7f-7bb7-463d-8520-cba3fe0d0b9a"},"vehicle_type_id":"4","last_reported":1730880746,"current_range_meters":38800,"station_id":"ce4bgv92rcd13ifvqcq0","pricing_plan_id":"cebpf4jnsgd1na2vs0mg"},{"bike_id":"09ae89aa-d8fd-468f-94dc-9a05a884115a","system_id":"levelo_inurba_marseille","lat":43.24073,"lon":5.37767,"is_reserved":false,"is_disabled":false,"rental_uris":{"android":"levelo://app?vid=09ae89aa-d8fd-468f-94dc-9a05a884115a","ios":"levelo://app?vid=09ae89aa-d8fd-468f-94dc-9a05a884115a"},"vehicle_type_id":"4","last_reported":1730880746,"current_range_meters":39200,"station_id":"ce4bhnp2rcd13ifvqgvg","pricing_plan_id":"cebpf4jnsgd1na2vs0mg"},{"bike_id":"11056bab-e9aa-4beb-a25d-8ef9194fd983","system_id":"levelo_inurba_marseille","lat":43.25939,"lon":5.40897,"is_reserved":false,"is_disabled":false,"rental_uris":{"android":"levelo://app?vid=11056bab-e9aa-4beb-a25d-8ef9194fd983","ios":"levelo://app?vid=11056bab-e9aa-4beb-a25d-8ef9194fd983"},"vehicle_type_id":"4","last_reported":1730880746,"current_range_meters":36000,"station_id":"ce4bhm92rcd13ifvqglg","pricing_plan_id":"cebpf4jnsgd1na2vs0mg"},{"bike_id":"f5acfd03-13df-4c06-89c5-c74982d20b61","system_id":"levelo_inurba_marseille","lat":43.27496,"lon":5.42452,"is_reserved":false,"is_disabled":false,"rental_uris":{"android":"levelo://app?vid=f5acfd03-13df-4c06-89c5-c74982d20b61","ios":"levelo://app?vid=f5acfd03-13df-4c06-89c5-c74982d20b61"},"vehicle_type_id":"4","last_reported":1730880746,"current_range_meters":33600,"station_id":"ce4bhn92rcd13ifvqgrg","pricing_plan_id":"cebpf4jnsgd1na2vs0mg"},{"bike_id":"bbd4f1c3-6c49-491f-a534-d139b293df35","system_id":"levelo_inurba_marseille","lat":43.31692,"lon":5.40474,"is_reserved":false,"is_disabled":false,"rental_uris":{"android":"levelo://app?vid=bbd4f1c3-6c49-491f-a534-d139b293df35","ios":"levelo://app?vid=bbd4f1c3-6c49-491f-a534-d139b293df35"},"vehicle_type_id":"4","last_reported":1730880746,"current_range_meters":38800,"station_id":"ce4bh012rcd13ifvqd00","pricing_plan_id":"cebpf4jnsgd1na2vs0mg"},{"bike_id":"0ed737ce-537e-4cb7-a1b6-4e75fd718d9d","system_id":"levelo_inurba_marseille","lat":43.2987,"lon":5.40292,"is_reserved":false,"is_disabled":false,"rental_uris":{"android":"levelo://app?vid=0ed737ce-537e-4cb7-a1b6-4e75fd718d9d","ios":"levelo://app?vid=0ed737ce-537e-4cb7-a1b6-4e75fd718d9d"},"vehicle_type_id":"4","last_reported":1730880746,"current_range_meters":25200,"station_id":"","pricing_plan_id":"cebpf4jnsgd1na2vs0mg"},{"bike_id":"b44b0b48-9a85-405c-b983-dc9cb4802105","system_id":"levelo_inurba_marseille","lat":43.28564,"lon":5.39505,"is_reserved":false,"is_disabled":false,"rental_uris":{"android":"levelo://app?vid=b44b0b48-9a85-405c-b983-dc9cb4802105","ios":"levelo://app?vid=b44b0b48-9a85-405c-b983-dc9cb4802105"},"vehicle_type_id":"4","last_reported":1730880746,"current_range_meters":38000,"station_id":"ce4bh292rcd13ifvqdg0","pricing_plan_id":"cebpf4jnsgd1na2vs0mg"},{"bike_id":"7c50d45d-3aa8-4d32-94c9-37fa72322474","system_id":"levelo_inurba_marseille","lat":43.30354,"lon":5.41875,"is_reserved":false,"is_disabled":false,"rental_uris":{"android":"levelo://app?vid=7c50d45d-3aa8-4d32-94c9-37fa72322474","ios":"levelo://app?vid=7c50d45d-3aa8-4d32-94c9-37fa72322474"},"vehicle_type_id":"4","last_reported":1730880746,"current_range_meters":28000,"station_id":"ce4bhop2rcd13ifvqh7g","pricing_plan_id":"cebpf4jnsgd1na2vs0mg"},{"bike_id":"af718280-b086-4319-bbe7-652eee922bd5","system_id":"levelo_inurba_marseille","lat":43.29286,"lon":5.36849,"is_reserved":false,"is_disabled":false,"rental_uris":{"android":"levelo://app?vid=af718280-b086-4319-bbe7-652eee922bd5","ios":"levelo://app?vid=af718280-b086-4319-bbe7-652eee922bd5"},"vehicle_type_id":"4","last_reported":1730880746,"current_range_meters":22000,"station_id":"ce4bhbp2rcd13ifvqesg","pricing_plan_id":"cebpf4jnsgd1na2vs0mg"},{"bike_id":"75a66e42-e2d9-4ee5-8715-e07279d44299","system_id":"levelo_inurba_marseille","lat":43.26955,"lon":5.38642,"is_reserved":false,"is_disabled":false,"rental_uris":{"android":"levelo://app?vid=75a66e42-e2d9-4ee5-8715-e07279d44299","ios":"levelo://app?vid=75a66e42-e2d9-4ee5-8715-e07279d44299"},"vehicle_type_id":"4","last_reported":1730880746,"current_range_meters":36400,"station_id":"ce4bhh92rcd13ifvqfh0","pricing_plan_id":"cebpf4jnsgd1na2vs0mg"},{"bike_id":"6fae6e5f-9d0e-4534-92ef-65be97ca1377","system_id":"levelo_inurba_marseille","lat":43.3149,"lon":5.37302,"is_reserved":false,"is_disabled":false,"rental_uris":{"android":"levelo://app?vid=6fae6e5f-9d0e-4534-92ef-65be97ca1377","ios":"levelo://app?vid=6fae6e5f-9d0e-4534-92ef-65be97ca1377"},"vehicle_type_id":"4","last_reported":1730880746,"current_range_meters":16800,"station_id":"ce4bgt12rcd13ifvqcd0","pricing_plan_id":"cebpf4jnsgd1na2vs0mg"},{"bike_id":"56b49be5-b797-49bb-b140-1be2d4f27e3e","system_id":"levelo_inurba_marseille","lat":43.30601,"lon":5.39339,"is_reserved":false,"is_disabled":false,"rental_uris":{"android":"levelo://app?vid=56b49be5-b797-49bb-b140-1be2d4f27e3e","ios":"levelo://app?vid=56b49be5-b797-49bb-b140-1be2d4f27e3e"},"vehicle_type_id":"4","last_reported":1730880746,"current_range_meters":34000,"station_id":"ce4bh0p2rcd13ifvqd80","pricing_plan_id":"cebpf4jnsgd1na2vs0mg"},{"bike_id":"debab972-7698-49d4-b0bd-deb26e613fbf","system_id":"levelo_inurba_marseille","lat":43.3015,"lon":5.39868,"is_reserved":false,"is_disabled":false,"rental_uris":{"android":"levelo://app?vid=debab972-7698-49d4-b0bd-deb26e613fbf","ios":"levelo://app?vid=debab972-7698-49d4-b0bd-deb26e613fbf"},"vehicle_type_id":"4","last_reported":1730880746,"current_range_meters":38800,"station_id":"ce4bh0h2rcd13ifvqd40","pricing_plan_id":"cebpf4jnsgd1na2vs0mg"},{"bike_id":"437037e9-de2d-4c1f-b6d8-074d1c9b96f5","system_id":"levelo_inurba_marseille","lat":43.3081,"lon":5.38145,"is_reserved":false,"is_disabled":false,"rental_uris":{"android":"levelo://app?vid=437037e9-de2d-4c1f-b6d8-074d1c9b96f5","ios":"levelo://app?vid=437037e9-de2d-4c1f-b6d8-074d1c9b96f5"},"vehicle_type_id":"4","last_reported":1730880746,"current_range_meters":9600,"station_id":"ce4bgt12rcd13ifvqce0","pricing_plan_id":"cebpf4jnsgd1na2vs0mg"},{"bike_id":"996c7f06-4347-4470-acb1-ab8e718df16a","system_id":"levelo_inurba_marseille","lat":43.3028,"lon":5.37705,"is_reserved":false,"is_disabled":false,"rental_uris":{"android":"levelo://app?vid=996c7f06-4347-4470-acb1-ab8e718df16a","ios":"levelo://app?vid=996c7f06-4347-4470-acb1-ab8e718df16a"},"vehicle_type_id":"4","last_reported":1730880746,"current_range_meters":38800,"station_id":"ce4bguh2rcd13ifvqcj0","pricing_plan_id":"cebpf4jnsgd1na2vs0mg"},{"bike_id":"da35fddd-6cbb-4e6c-9f9d-fb571fd29e9d","system_id":"levelo_inurba_marseille","lat":43.31074,"lon":5.3835,"is_reserved":false,"is_disabled":false,"rental_uris":{"android":"levelo://app?vid=da35fddd-6cbb-4e6c-9f9d-fb571fd29e9d","ios":"levelo://app?vid=da35fddd-6cbb-4e6c-9f9d-fb571fd29e9d"},"vehicle_type_id":"4","last_reported":1730880746,"current_range_meters":8000,"station_id":"ce4bgv92rcd13ifvqcr0","pricing_plan_id":"cebpf4jnsgd1na2vs0mg"},{"bike_id":"b43851ef-1c07-42cf-aee4-301658fbdbd3","system_id":"levelo_inurba_marseille","lat":43.25,"lon":5.3894,"is_reserved":false,"is_disabled":false,"rental_uris":{"android":"levelo://app?vid=b43851ef-1c07-42cf-aee4-301658fbdbd3","ios":"levelo://app?vid=b43851ef-1c07-42cf-aee4-301658fbdbd3"},"vehicle_type_id":"4","last_reported":1730880746,"current_range_meters":26000,"station_id":"ce4bhgp2rcd13ifvqfd0","pricing_plan_id":"cebpf4jnsgd1na2vs0mg"},{"bike_id":"8ba9bdd7-2fbb-4057-9790-39e8b8c10d48","system_id":"levelo_inurba_marseille","lat":43.2841,"lon":5.37908,"is_reserved":false,"is_disabled":false,"rental_uris":{"android":"levelo://app?vid=8ba9bdd7-2fbb-4057-9790-39e8b8c10d48","ios":"levelo://app?vid=8ba9bdd7-2fbb-4057-9790-39e8b8c10d48"},"vehicle_type_id":"4","last_reported":1730880746,"current_range_meters":16800,"station_id":"","pricing_plan_id":"cebpf4jnsgd1na2vs0mg"},{"bike_id":"bb10a7e5-28ee-4ce5-959a-fb4e69a519f8","system_id":"levelo_inurba_marseille","lat":43.28151,"lon":5.42643,"is_reserved":false,"is_disabled":false,"rental_uris":{"android":"levelo://app?vid=bb10a7e5-28ee-4ce5-959a-fb4e69a519f8","ios":"levelo://app?vid=bb10a7e5-28ee-4ce5-959a-fb4e69a519f8"},"vehicle_type_id":"4","last_reported":1730880746,"current_range_meters":38800,"station_id":"ce4bhnh2rcd13ifvqgug","pricing_plan_id":"cebpf4jnsgd1na2vs0mg"},{"bike_id":"2787fadf-896a-40f9-8795-f2535a51f4b6","system_id":"levelo_inurba_marseille","lat":43.30161,"lon":5.38088,"is_reserved":false,"is_disabled":false,"rental_uris":{"android":"levelo://app?vid=2787fadf-896a-40f9-8795-f2535a51f4b6","ios":"levelo://app?vid=2787fadf-896a-40f9-8795-f2535a51f4b6"},"vehicle_type_id":"4","last_reported":1730880746,"current_range_meters":28800,"station_id":"ce4bgjp2rcd13ifvqbh0","pricing_plan_id":"cebpf4jnsgd1na2vs0mg"},{"bike_id":"58263ee4-9a5a-4a8c-8c60-695da5055e79","system_id":"levelo_inurba_marseille","lat":43.29533,"lon":5.39051,"is_reserved":false,"is_disabled":false,"rental_uris":{"android":"levelo://app?vid=58263ee4-9a5a-4a8c-8c60-695da5055e79","ios":"levelo://app?vid=58263ee4-9a5a-4a8c-8c60-695da5055e79"},"vehicle_type_id":"4","last_reported":1730880746,"current_range_meters":35200,"station_id":"ce4bh3p2rcd13ifvqdp0","pricing_plan_id":"cebpf4jnsgd1na2vs0mg"},{"bike_id":"ba141181-7760-4f01-b5cb-6647f70de3b3","system_id":"levelo_inurba_marseille","lat":43.31683,"lon":5.4047,"is_reserved":false,"is_disabled":false,"rental_uris":{"android":"levelo://app?vid=ba141181-7760-4f01-b5cb-6647f70de3b3","ios":"levelo://app?vid=ba141181-7760-4f01-b5cb-6647f70de3b3"},"vehicle_type_id":"4","last_reported":1730880746,"current_range_meters":38400,"station_id":"ce4bh012rcd13ifvqd00","pricing_plan_id":"cebpf4jnsgd1na2vs0mg"},{"bike_id":"2c4af81a-61a4-4b7d-9737-a21161e3b7d5","system_id":"levelo_inurba_marseille","lat":43.3056,"lon":5.36537,"is_reserved":false,"is_disabled":false,"rental_uris":{"android":"levelo://app?vid=2c4af81a-61a4-4b7d-9737-a21161e3b7d5","ios":"levelo://app?vid=2c4af81a-61a4-4b7d-9737-a21161e3b7d5"},"vehicle_type_id":"4","last_reported":1730880746,"current_range_meters":32000,"station_id":"ce4bgs12rcd13ifvqcag","pricing_plan_id":"cebpf4jnsgd1na2vs0mg"},{"bike_id":"0e9afae3-b99d-4f9e-b645-f5dd000bfb81","system_id":"levelo_inurba_marseille","lat":43.30944,"lon":5.39037,"is_reserved":false,"is_disabled":false,"rental_uris":{"android":"levelo://app?vid=0e9afae3-b99d-4f9e-b645-f5dd000bfb81","ios":"levelo://app?vid=0e9afae3-b99d-4f9e-b645-f5dd000bfb81"},"vehicle_type_id":"4","last_reported":1730880746,"current_range_meters":16400,"station_id":"ce4bgup2rcd13ifvqco0","pricing_plan_id":"cebpf4jnsgd1na2vs0mg"},{"bike_id":"b8d968c2-430e-4297-9b22-19cd8c0f916d","system_id":"levelo_inurba_marseille","lat":43.23153,"lon":5.43699,"is_reserved":false,"is_disabled":false,"rental_uris":{"android":"levelo://app?vid=b8d968c2-430e-4297-9b22-19cd8c0f916d","ios":"levelo://app?vid=b8d968c2-430e-4297-9b22-19cd8c0f916d"},"vehicle_type_id":"4","last_reported":1730880746,"current_range_meters":38400,"station_id":"ce4bhmp2rcd13ifvqgog","pricing_plan_id":"cebpf4jnsgd1na2vs0mg"},{"bike_id":"13ed2874-639f-4107-a5aa-29bce14bc633","system_id":"levelo_inurba_marseille","lat":43.2928,"lon":5.3685,"is_reserved":false,"is_disabled":false,"rental_uris":{"android":"levelo://app?vid=13ed2874-639f-4107-a5aa-29bce14bc633","ios":"levelo://app?vid=13ed2874-639f-4107-a5aa-29bce14bc633"},"vehicle_type_id":"4","last_reported":1730880746,"current_range_meters":25200,"station_id":"ce4bhbp2rcd13ifvqesg","pricing_plan_id":"cebpf4jnsgd1na2vs0mg"},{"bike_id":"79081f43-3cf1-4924-8c5b-46fba5f65f32","system_id":"levelo_inurba_marseille","lat":43.323434,"lon":5.406252,"is_reserved":false,"is_disabled":false,"rental_uris":{"android":"levelo://app?vid=79081f43-3cf1-4924-8c5b-46fba5f65f32","ios":"levelo://app?vid=79081f43-3cf1-4924-8c5b-46fba5f65f32"},"vehicle_type_id":"4","last_reported":1730880746,"current_range_meters":35600,"station_id":"ce4bhq92rcd13ifvqhjg","pricing_plan_id":"cebpf4jnsgd1na2vs0mg"},{"bike_id":"597b74d7-5fba-452b-a0b9-168e38ee85ca","system_id":"levelo_inurba_marseille","lat":43.30157,"lon":5.38092,"is_reserved":false,"is_disabled":false,"rental_uris":{"android":"levelo://app?vid=597b74d7-5fba-452b-a0b9-168e38ee85ca","ios":"levelo://app?vid=597b74d7-5fba-452b-a0b9-168e38ee85ca"},"vehicle_type_id":"4","last_reported":1730880746,"current_range_meters":20800,"station_id":"ce4bgjp2rcd13ifvqbh0","pricing_plan_id":"cebpf4jnsgd1na2vs0mg"},{"bike_id":"42348bb2-ee59-487b-af78-19ccbd003c7f","system_id":"levelo_inurba_marseille","lat":43.291626,"lon":5.382921,"is_reserved":false,"is_disabled":false,"rental_uris":{"android":"levelo://app?vid=42348bb2-ee59-487b-af78-19ccbd003c7f","ios":"levelo://app?vid=42348bb2-ee59-487b-af78-19ccbd003c7f"},"vehicle_type_id":"4","last_reported":1730880746,"current_range_meters":30000,"station_id":"ce4bhh92rcd13ifvqfj0","pricing_plan_id":"cebpf4jnsgd1na2vs0mg"},{"bike_id":"5d5df8cd-1e52-4c79-9e88-c08e2600eae7","system_id":"levelo_inurba_marseille","lat":43.31885,"lon":5.40731,"is_reserved":false,"is_disabled":false,"rental_uris":{"android":"levelo://app?vid=5d5df8cd-1e52-4c79-9e88-c08e2600eae7","ios":"levelo://app?vid=5d5df8cd-1e52-4c79-9e88-c08e2600eae7"},"vehicle_type_id":"4","last_reported":1730880746,"current_range_meters":12800,"station_id":"ce4bhq12rcd13ifvqhig","pricing_plan_id":"cebpf4jnsgd1na2vs0mg"},{"bike_id":"1f768fd0-94df-4eb2-b3a6-4bfbcfe21fa5","system_id":"levelo_inurba_marseille","lat":43.33604,"lon":5.41034,"is_reserved":false,"is_disabled":false,"rental_uris":{"android":"levelo://app?vid=1f768fd0-94df-4eb2-b3a6-4bfbcfe21fa5","ios":"levelo://app?vid=1f768fd0-94df-4eb2-b3a6-4bfbcfe21fa5"},"vehicle_type_id":"4","last_reported":1730880746,"current_range_meters":24800,"station_id":"ce4bhqh2rcd13ifvqhmg","pricing_plan_id":"cebpf4jnsgd1na2vs0mg"},{"bike_id":"a42ecc90-5ef6-4c1d-bd04-5bc5ecf8a4d2","system_id":"levelo_inurba_marseille","lat":43.30558,"lon":5.36698,"is_reserved":false,"is_disabled":false,"rental_uris":{"android":"levelo://app?vid=a42ecc90-5ef6-4c1d-bd04-5bc5ecf8a4d2","ios":"levelo://app?vid=a42ecc90-5ef6-4c1d-bd04-5bc5ecf8a4d2"},"vehicle_type_id":"4","last_reported":1730880746,"current_range_meters":38400,"station_id":"ce4bgrp2rcd13ifvqc9g","pricing_plan_id":"cebpf4jnsgd1na2vs0mg"},{"bike_id":"77f0f942-cc19-4114-9693-f96851c5cf8b","system_id":"levelo_inurba_marseille","lat":43.31075,"lon":5.38346,"is_reserved":false,"is_disabled":false,"rental_uris":{"android":"levelo://app?vid=77f0f942-cc19-4114-9693-f96851c5cf8b","ios":"levelo://app?vid=77f0f942-cc19-4114-9693-f96851c5cf8b"},"vehicle_type_id":"4","last_reported":1730880746,"current_range_meters":10800,"station_id":"ce4bgv92rcd13ifvqcr0","pricing_plan_id":"cebpf4jnsgd1na2vs0mg"},{"bike_id":"1600515d-2cf9-44bb-9b6a-9c97b427f289","system_id":"levelo_inurba_marseille","lat":43.31073,"lon":5.38354,"is_reserved":false,"is_disabled":false,"rental_uris":{"android":"levelo://app?vid=1600515d-2cf9-44bb-9b6a-9c97b427f289","ios":"levelo://app?vid=1600515d-2cf9-44bb-9b6a-9c97b427f289"},"vehicle_type_id":"4","last_reported":1730880746,"current_range_meters":27600,"station_id":"ce4bgv92rcd13ifvqcr0","pricing_plan_id":"cebpf4jnsgd1na2vs0mg"},{"bike_id":"7d9772b3-5026-405b-b858-d313524ececb","system_id":"levelo_inurba_marseille","lat":43.2396,"lon":5.36624,"is_reserved":false,"is_disabled":false,"rental_uris":{"android":"levelo://app?vid=7d9772b3-5026-405b-b858-d313524ececb","ios":"levelo://app?vid=7d9772b3-5026-405b-b858-d313524ececb"},"vehicle_type_id":"4","last_reported":1730880746,"current_range_meters":38000,"station_id":"ce4bhi12rcd13ifvqfp0","pricing_plan_id":"cebpf4jnsgd1na2vs0mg"},{"bike_id":"3249afd4-6825-4a97-ac62-b58b88ddcba3","system_id":"levelo_inurba_marseille","lat":43.27966,"lon":5.38727,"is_reserved":false,"is_disabled":false,"rental_uris":{"android":"levelo://app?vid=3249afd4-6825-4a97-ac62-b58b88ddcba3","ios":"levelo://app?vid=3249afd4-6825-4a97-ac62-b58b88ddcba3"},"vehicle_type_id":"4","last_reported":1730880746,"current_range_meters":38000,"station_id":"ce4bhg12rcd13ifvqf80","pricing_plan_id":"cebpf4jnsgd1na2vs0mg"},{"bike_id":"3fef0275-39c0-4f94-ae7f-88662db53436","system_id":"levelo_inurba_marseille","lat":43.28475,"lon":5.38411,"is_reserved":false,"is_disabled":false,"rental_uris":{"android":"levelo://app?vid=3fef0275-39c0-4f94-ae7f-88662db53436","ios":"levelo://app?vid=3fef0275-39c0-4f94-ae7f-88662db53436"},"vehicle_type_id":"4","last_reported":1730880746,"current_range_meters":38800,"station_id":"ce4bh512rcd13ifvqe3g","pricing_plan_id":"cebpf4jnsgd1na2vs0mg"},{"bike_id":"f4c234ac-1c6d-4637-a08a-9c4e0b023878","system_id":"levelo_inurba_marseille","lat":43.24079,"lon":5.37754,"is_reserved":false,"is_disabled":false,"rental_uris":{"android":"levelo://app?vid=f4c234ac-1c6d-4637-a08a-9c4e0b023878","ios":"levelo://app?vid=f4c234ac-1c6d-4637-a08a-9c4e0b023878"},"vehicle_type_id":"4","last_reported":1730880746,"current_range_meters":36800,"station_id":"ce4bhnp2rcd13ifvqgvg","pricing_plan_id":"cebpf4jnsgd1na2vs0mg"},{"bike_id":"753f4c78-4df7-4ca5-b561-7ed7a8eca1d9","system_id":"levelo_inurba_marseille","lat":43.24073,"lon":5.37765,"is_reserved":false,"is_disabled":false,"rental_uris":{"android":"levelo://app?vid=753f4c78-4df7-4ca5-b561-7ed7a8eca1d9","ios":"levelo://app?vid=753f4c78-4df7-4ca5-b561-7ed7a8eca1d9"},"vehicle_type_id":"4","last_reported":1730880746,"current_range_meters":38000,"station_id":"ce4bhnp2rcd13ifvqgvg","pricing_plan_id":"cebpf4jnsgd1na2vs0mg"},{"bike_id":"695384f7-cca1-48e5-896c-611014b9bafc","system_id":"levelo_inurba_marseille","lat":43.28946,"lon":5.36631,"is_reserved":false,"is_disabled":false,"rental_uris":{"android":"levelo://app?vid=695384f7-cca1-48e5-896c-611014b9bafc","ios":"levelo://app?vid=695384f7-cca1-48e5-896c-611014b9bafc"},"vehicle_type_id":"4","last_reported":1730880746,"current_range_meters":30000,"station_id":"ce4bhap2rcd13ifvqek0","pricing_plan_id":"cebpf4jnsgd1na2vs0mg"},{"bike_id":"6a1ff42f-e89f-495d-8c70-9d353ff7b464","system_id":"levelo_inurba_marseille","lat":43.30359,"lon":5.4188,"is_reserved":false,"is_disabled":false,"rental_uris":{"android":"levelo://app?vid=6a1ff42f-e89f-495d-8c70-9d353ff7b464","ios":"levelo://app?vid=6a1ff42f-e89f-495d-8c70-9d353ff7b464"},"vehicle_type_id":"4","last_reported":1730880746,"current_range_meters":38800,"station_id":"ce4bhop2rcd13ifvqh7g","pricing_plan_id":"cebpf4jnsgd1na2vs0mg"},{"bike_id":"6fe4bc2e-51f4-4940-a67c-15377a8954c3","system_id":"levelo_inurba_marseille","lat":43.29904,"lon":5.4367,"is_reserved":false,"is_disabled":false,"rental_uris":{"android":"levelo://app?vid=6fe4bc2e-51f4-4940-a67c-15377a8954c3","ios":"levelo://app?vid=6fe4bc2e-51f4-4940-a67c-15377a8954c3"},"vehicle_type_id":"4","last_reported":1730880746,"current_range_meters":38400,"station_id":"ce4bhpp2rcd13ifvqhfg","pricing_plan_id":"cebpf4jnsgd1na2vs0mg"},{"bike_id":"e6b0c7ca-c52f-45c7-91dd-de4d4061964e","system_id":"levelo_inurba_marseille","lat":43.30799,"lon":5.38152,"is_reserved":false,"is_disabled":false,"rental_uris":{"android":"levelo://app?vid=e6b0c7ca-c52f-45c7-91dd-de4d4061964e","ios":"levelo://app?vid=e6b0c7ca-c52f-45c7-91dd-de4d4061964e"},"vehicle_type_id":"4","last_reported":1730880746,"current_range_meters":23200,"station_id":"ce4bgt12rcd13ifvqce0","pricing_plan_id":"cebpf4jnsgd1na2vs0mg"},{"bike_id":"5de772a5-b658-4969-98c1-ee6c4c9027e2","system_id":"levelo_inurba_marseille","lat":43.30498,"lon":5.37899,"is_reserved":false,"is_disabled":false,"rental_uris":{"android":"levelo://app?vid=5de772a5-b658-4969-98c1-ee6c4c9027e2","ios":"levelo://app?vid=5de772a5-b658-4969-98c1-ee6c4c9027e2"},"vehicle_type_id":"4","last_reported":1730880746,"current_range_meters":36000,"station_id":"ce4bgup2rcd13ifvqcn0","pricing_plan_id":"cebpf4jnsgd1na2vs0mg"},{"bike_id":"88b98dba-2073-4983-9539-ecdaff941dda","system_id":"levelo_inurba_marseille","lat":43.30541,"lon":5.36561,"is_reserved":false,"is_disabled":false,"rental_uris":{"android":"levelo://app?vid=88b98dba-2073-4983-9539-ecdaff941dda","ios":"levelo://app?vid=88b98dba-2073-4983-9539-ecdaff941dda"},"vehicle_type_id":"4","last_reported":1730880746,"current_range_meters":30000,"station_id":"ce4bgs12rcd13ifvqcag","pricing_plan_id":"cebpf4jnsgd1na2vs0mg"},{"bike_id":"629128e4-65d9-4142-998e-61ed5502b899","system_id":"levelo_inurba_marseille","lat":43.28157,"lon":5.42647,"is_reserved":false,"is_disabled":false,"rental_uris":{"android":"levelo://app?vid=629128e4-65d9-4142-998e-61ed5502b899","ios":"levelo://app?vid=629128e4-65d9-4142-998e-61ed5502b899"},"vehicle_type_id":"4","last_reported":1730880746,"current_range_meters":35600,"station_id":"ce4bhnh2rcd13ifvqgug","pricing_plan_id":"cebpf4jnsgd1na2vs0mg"},{"bike_id":"35b06bc8-da46-4ba5-8c07-e31dde1f57ed","system_id":"levelo_inurba_marseille","lat":43.30325,"lon":5.40453,"is_reserved":false,"is_disabled":false,"rental_uris":{"android":"levelo://app?vid=35b06bc8-da46-4ba5-8c07-e31dde1f57ed","ios":"levelo://app?vid=35b06bc8-da46-4ba5-8c07-e31dde1f57ed"},"vehicle_type_id":"4","last_reported":1730880746,"current_range_meters":33600,"station_id":"ce4bh012rcd13ifvqd10","pricing_plan_id":"cebpf4jnsgd1na2vs0mg"},{"bike_id":"dcadec12-5513-4113-b931-5e34a2ff37f4","system_id":"levelo_inurba_marseille","lat":43.27498,"lon":5.42451,"is_reserved":false,"is_disabled":false,"rental_uris":{"android":"levelo://app?vid=dcadec12-5513-4113-b931-5e34a2ff37f4","ios":"levelo://app?vid=dcadec12-5513-4113-b931-5e34a2ff37f4"},"vehicle_type_id":"4","last_reported":1730880746,"current_range_meters":29600,"station_id":"ce4bhn92rcd13ifvqgrg","pricing_plan_id":"cebpf4jnsgd1na2vs0mg"},{"bike_id":"d93afc99-340e-485a-80e1-9ea107d87999","system_id":"levelo_inurba_marseille","lat":43.28082,"lon":5.39662,"is_reserved":false,"is_disabled":false,"rental_uris":{"android":"levelo://app?vid=d93afc99-340e-485a-80e1-9ea107d87999","ios":"levelo://app?vid=d93afc99-340e-485a-80e1-9ea107d87999"},"vehicle_type_id":"4","last_reported":1730880746,"current_range_meters":4400,"station_id":"ce4bho12rcd13ifvqh2g","pricing_plan_id":"cebpf4jnsgd1na2vs0mg"},{"bike_id":"d016b93e-5594-41e4-bde2-25ccecc90321","system_id":"levelo_inurba_marseille","lat":43.27813,"lon":5.40704,"is_reserved":false,"is_disabled":false,"rental_uris":{"android":"levelo://app?vid=d016b93e-5594-41e4-bde2-25ccecc90321","ios":"levelo://app?vid=d016b93e-5594-41e4-bde2-25ccecc90321"},"vehicle_type_id":"4","last_reported":1730880746,"current_range_meters":35600,"station_id":"ce4bhnh2rcd13ifvqgtg","pricing_plan_id":"cebpf4jnsgd1na2vs0mg"},{"bike_id":"1f611a08-abe9-4f91-a7bd-5bbe4c291e90","system_id":"levelo_inurba_marseille","lat":43.29057,"lon":5.37048,"is_reserved":false,"is_disabled":false,"rental_uris":{"android":"levelo://app?vid=1f611a08-abe9-4f91-a7bd-5bbe4c291e90","ios":"levelo://app?vid=1f611a08-abe9-4f91-a7bd-5bbe4c291e90"},"vehicle_type_id":"4","last_reported":1730880746,"current_range_meters":29600,"station_id":"ce4bgr92rcd13ifvqc6g","pricing_plan_id":"cebpf4jnsgd1na2vs0mg"},{"bike_id":"e1464bb6-808d-4946-800d-e3d0b4d9c6b4","system_id":"levelo_inurba_marseille","lat":43.26568,"lon":5.39013,"is_reserved":false,"is_disabled":false,"rental_uris":{"android":"levelo://app?vid=e1464bb6-808d-4946-800d-e3d0b4d9c6b4","ios":"levelo://app?vid=e1464bb6-808d-4946-800d-e3d0b4d9c6b4"},"vehicle_type_id":"4","last_reported":1730880746,"current_range_meters":30800,"station_id":"ce4bhe12rcd13ifvqf30","pricing_plan_id":"cebpf4jnsgd1na2vs0mg"},{"bike_id":"48901b5c-0f44-4ec8-8cdc-912a05779ffd","system_id":"levelo_inurba_marseille","lat":43.30601,"lon":5.39355,"is_reserved":false,"is_disabled":false,"rental_uris":{"android":"levelo://app?vid=48901b5c-0f44-4ec8-8cdc-912a05779ffd","ios":"levelo://app?vid=48901b5c-0f44-4ec8-8cdc-912a05779ffd"},"vehicle_type_id":"4","last_reported":1730880746,"current_range_meters":28000,"station_id":"ce4bh0p2rcd13ifvqd80","pricing_plan_id":"cebpf4jnsgd1na2vs0mg"},{"bike_id":"c3cc4d3c-939d-4f3c-b1cc-4aa798cb58cc","system_id":"levelo_inurba_marseille","lat":43.2884,"lon":5.35851,"is_reserved":false,"is_disabled":false,"rental_uris":{"android":"levelo://app?vid=c3cc4d3c-939d-4f3c-b1cc-4aa798cb58cc","ios":"levelo://app?vid=c3cc4d3c-939d-4f3c-b1cc-4aa798cb58cc"},"vehicle_type_id":"4","last_reported":1730880746,"current_range_meters":38800,"station_id":"ce4bhb12rcd13ifvqem0","pricing_plan_id":"cebpf4jnsgd1na2vs0mg"},{"bike_id":"dacb3127-cf48-43ba-ac28-e87e8fb962d2","system_id":"levelo_inurba_marseille","lat":43.240736,"lon":5.377552,"is_reserved":false,"is_disabled":false,"rental_uris":{"android":"levelo://app?vid=dacb3127-cf48-43ba-ac28-e87e8fb962d2","ios":"levelo://app?vid=dacb3127-cf48-43ba-ac28-e87e8fb962d2"},"vehicle_type_id":"4","last_reported":1730880746,"current_range_meters":8400,"station_id":"ce4bhnp2rcd13ifvqgvg","pricing_plan_id":"cebpf4jnsgd1na2vs0mg"},{"bike_id":"b79641a5-1d0f-4656-b650-42807985f0b1","system_id":"levelo_inurba_marseille","lat":43.26949,"lon":5.40248,"is_reserved":false,"is_disabled":false,"rental_uris":{"android":"levelo://app?vid=b79641a5-1d0f-4656-b650-42807985f0b1","ios":"levelo://app?vid=b79641a5-1d0f-4656-b650-42807985f0b1"},"vehicle_type_id":"4","last_reported":1730880746,"current_range_meters":30400,"station_id":"cjm6bp8fraef2m0cb0m0","pricing_plan_id":"cebpf4jnsgd1na2vs0mg"},{"bike_id":"83c477a4-4eb7-416a-a5f1-380f0fe5c742","system_id":"levelo_inurba_marseille","lat":43.30324,"lon":5.4045,"is_reserved":false,"is_disabled":false,"rental_uris":{"android":"levelo://app?vid=83c477a4-4eb7-416a-a5f1-380f0fe5c742","ios":"levelo://app?vid=83c477a4-4eb7-416a-a5f1-380f0fe5c742"},"vehicle_type_id":"4","last_reported":1730880746,"current_range_meters":18800,"station_id":"ce4bh012rcd13ifvqd10","pricing_plan_id":"cebpf4jnsgd1na2vs0mg"},{"bike_id":"a98c4e4f-9217-4cbd-ad2d-c176a4698d4a","system_id":"levelo_inurba_marseille","lat":43.30536,"lon":5.36703,"is_reserved":false,"is_disabled":false,"rental_uris":{"android":"levelo://app?vid=a98c4e4f-9217-4cbd-ad2d-c176a4698d4a","ios":"levelo://app?vid=a98c4e4f-9217-4cbd-ad2d-c176a4698d4a"},"vehicle_type_id":"4","last_reported":1730880746,"current_range_meters":35200,"station_id":"ce4bgrp2rcd13ifvqc9g","pricing_plan_id":"cebpf4jnsgd1na2vs0mg"},{"bike_id":"afce958e-c83c-4b70-a2e0-54c65d8b1ce1","system_id":"levelo_inurba_marseille","lat":43.314955,"lon":5.37293,"is_reserved":false,"is_disabled":false,"rental_uris":{"android":"levelo://app?vid=afce958e-c83c-4b70-a2e0-54c65d8b1ce1","ios":"levelo://app?vid=afce958e-c83c-4b70-a2e0-54c65d8b1ce1"},"vehicle_type_id":"4","last_reported":1730880746,"current_range_meters":17600,"station_id":"ce4bgt12rcd13ifvqcd0","pricing_plan_id":"cebpf4jnsgd1na2vs0mg"},{"bike_id":"e3d501b9-90bc-452a-b88f-9503a8d05948","system_id":"levelo_inurba_marseille","lat":43.30916,"lon":5.36847,"is_reserved":false,"is_disabled":false,"rental_uris":{"android":"levelo://app?vid=e3d501b9-90bc-452a-b88f-9503a8d05948","ios":"levelo://app?vid=e3d501b9-90bc-452a-b88f-9503a8d05948"},"vehicle_type_id":"4","last_reported":1730880746,"current_range_meters":3200,"station_id":"ce4bgn92rcd13ifvqbvg","pricing_plan_id":"cebpf4jnsgd1na2vs0mg"},{"bike_id":"cbd720c1-9bfc-4724-bfe2-e2a61db6af65","system_id":"levelo_inurba_marseille","lat":43.28697,"lon":5.39983,"is_reserved":false,"is_disabled":false,"rental_uris":{"android":"levelo://app?vid=cbd720c1-9bfc-4724-bfe2-e2a61db6af65","ios":"levelo://app?vid=cbd720c1-9bfc-4724-bfe2-e2a61db6af65"},"vehicle_type_id":"4","last_reported":1730880746,"current_range_meters":35600,"station_id":"ce4bho92rcd13ifvqh3g","pricing_plan_id":"cebpf4jnsgd1na2vs0mg"},{"bike_id":"0a3c1a6b-eadc-4e53-adb5-ce60bbc39060","system_id":"levelo_inurba_marseille","lat":43.33023,"lon":5.3903,"is_reserved":false,"is_disabled":false,"rental_uris":{"android":"levelo://app?vid=0a3c1a6b-eadc-4e53-adb5-ce60bbc39060","ios":"levelo://app?vid=0a3c1a6b-eadc-4e53-adb5-ce60bbc39060"},"vehicle_type_id":"4","last_reported":1730880746,"current_range_meters":37600,"station_id":"ce4bhr92rcd13ifvqhrg","pricing_plan_id":"cebpf4jnsgd1na2vs0mg"},{"bike_id":"9f3b6265-125c-4f8e-b982-8c5009df44db","system_id":"levelo_inurba_marseille","lat":43.2847,"lon":5.38407,"is_reserved":false,"is_disabled":false,"rental_uris":{"android":"levelo://app?vid=9f3b6265-125c-4f8e-b982-8c5009df44db","ios":"levelo://app?vid=9f3b6265-125c-4f8e-b982-8c5009df44db"},"vehicle_type_id":"4","last_reported":1730880746,"current_range_meters":31200,"station_id":"ce4bh512rcd13ifvqe3g","pricing_plan_id":"cebpf4jnsgd1na2vs0mg"},{"bike_id":"c2c93739-ff49-408f-9874-4a8fe44cfdbc","system_id":"levelo_inurba_marseille","lat":43.27817,"lon":5.40703,"is_reserved":false,"is_disabled":false,"rental_uris":{"android":"levelo://app?vid=c2c93739-ff49-408f-9874-4a8fe44cfdbc","ios":"levelo://app?vid=c2c93739-ff49-408f-9874-4a8fe44cfdbc"},"vehicle_type_id":"4","last_reported":1730880746,"current_range_meters":38400,"station_id":"ce4bhnh2rcd13ifvqgtg","pricing_plan_id":"cebpf4jnsgd1na2vs0mg"},{"bike_id":"06ccd9a5-8761-4e33-9065-4da50197b1a3","system_id":"levelo_inurba_marseille","lat":43.28944,"lon":5.39625,"is_reserved":false,"is_disabled":false,"rental_uris":{"android":"levelo://app?vid=06ccd9a5-8761-4e33-9065-4da50197b1a3","ios":"levelo://app?vid=06ccd9a5-8761-4e33-9065-4da50197b1a3"},"vehicle_type_id":"4","last_reported":1730880746,"current_range_meters":15200,"station_id":"ce4bh3h2rcd13ifvqdn0","pricing_plan_id":"cebpf4jnsgd1na2vs0mg"},{"bike_id":"ac3085be-2aba-453a-b37c-d1057ee9d66b","system_id":"levelo_inurba_marseille","lat":43.31277,"lon":5.40171,"is_reserved":false,"is_disabled":false,"rental_uris":{"android":"levelo://app?vid=ac3085be-2aba-453a-b37c-d1057ee9d66b","ios":"levelo://app?vid=ac3085be-2aba-453a-b37c-d1057ee9d66b"},"vehicle_type_id":"4","last_reported":1730880746,"current_range_meters":7200,"station_id":"ce4bh092rcd13ifvqd30","pricing_plan_id":"cebpf4jnsgd1na2vs0mg"},{"bike_id":"4ccd91e8-89a4-4d8c-9650-4ef81af46814","system_id":"levelo_inurba_marseille","lat":43.27501,"lon":5.42444,"is_reserved":false,"is_disabled":false,"rental_uris":{"android":"levelo://app?vid=4ccd91e8-89a4-4d8c-9650-4ef81af46814","ios":"levelo://app?vid=4ccd91e8-89a4-4d8c-9650-4ef81af46814"},"vehicle_type_id":"4","last_reported":1730880746,"current_range_meters":29600,"station_id":"ce4bhn92rcd13ifvqgrg","pricing_plan_id":"cebpf4jnsgd1na2vs0mg"},{"bike_id":"d0fca2c2-e3e0-46d7-9d53-d05a52921f38","system_id":"levelo_inurba_marseille","lat":43.27495,"lon":5.42456,"is_reserved":false,"is_disabled":false,"rental_uris":{"android":"levelo://app?vid=d0fca2c2-e3e0-46d7-9d53-d05a52921f38","ios":"levelo://app?vid=d0fca2c2-e3e0-46d7-9d53-d05a52921f38"},"vehicle_type_id":"4","last_reported":1730880746,"current_range_meters":21600,"station_id":"ce4bhn92rcd13ifvqgrg","pricing_plan_id":"cebpf4jnsgd1na2vs0mg"},{"bike_id":"82f5c55c-8fe7-4521-a75c-179bf85b9ff8","system_id":"levelo_inurba_marseille","lat":43.32656,"lon":5.40995,"is_reserved":false,"is_disabled":false,"rental_uris":{"android":"levelo://app?vid=82f5c55c-8fe7-4521-a75c-179bf85b9ff8","ios":"levelo://app?vid=82f5c55c-8fe7-4521-a75c-179bf85b9ff8"},"vehicle_type_id":"4","last_reported":1730880746,"current_range_meters":38800,"station_id":"ce4bhpp2rcd13ifvqhgg","pricing_plan_id":"cebpf4jnsgd1na2vs0mg"},{"bike_id":"818f01a2-70c1-4282-8f3e-a5df75b74421","system_id":"levelo_inurba_marseille","lat":43.23153,"lon":5.43702,"is_reserved":false,"is_disabled":false,"rental_uris":{"android":"levelo://app?vid=818f01a2-70c1-4282-8f3e-a5df75b74421","ios":"levelo://app?vid=818f01a2-70c1-4282-8f3e-a5df75b74421"},"vehicle_type_id":"4","last_reported":1730880746,"current_range_meters":36000,"station_id":"ce4bhmp2rcd13ifvqgog","pricing_plan_id":"cebpf4jnsgd1na2vs0mg"},{"bike_id":"65fc5769-d693-4d47-b081-3a1d2d9e3401","system_id":"levelo_inurba_marseille","lat":43.2963,"lon":5.406,"is_reserved":false,"is_disabled":false,"rental_uris":{"android":"levelo://app?vid=65fc5769-d693-4d47-b081-3a1d2d9e3401","ios":"levelo://app?vid=65fc5769-d693-4d47-b081-3a1d2d9e3401"},"vehicle_type_id":"4","last_reported":1730880746,"current_range_meters":38800,"station_id":"ce4bh0h2rcd13ifvqd60","pricing_plan_id":"cebpf4jnsgd1na2vs0mg"},{"bike_id":"efd26c9a-dd6f-4f73-a77c-afa0a7fa58e7","system_id":"levelo_inurba_marseille","lat":43.337444,"lon":5.374475,"is_reserved":false,"is_disabled":false,"rental_uris":{"android":"levelo://app?vid=efd26c9a-dd6f-4f73-a77c-afa0a7fa58e7","ios":"levelo://app?vid=efd26c9a-dd6f-4f73-a77c-afa0a7fa58e7"},"vehicle_type_id":"4","last_reported":1730880746,"current_range_meters":35200,"station_id":"ce4bh3p2rcd13ifvqdp0","pricing_plan_id":"cebpf4jnsgd1na2vs0mg"},{"bike_id":"333b0aae-276c-4843-ac1a-6be197ab7b09","system_id":"levelo_inurba_marseille","lat":43.28349,"lon":5.38111,"is_reserved":false,"is_disabled":false,"rental_uris":{"android":"levelo://app?vid=333b0aae-276c-4843-ac1a-6be197ab7b09","ios":"levelo://app?vid=333b0aae-276c-4843-ac1a-6be197ab7b09"},"vehicle_type_id":"4","last_reported":1730880746,"current_range_meters":38400,"station_id":"ce4bh412rcd13ifvqdr0","pricing_plan_id":"cebpf4jnsgd1na2vs0mg"},{"bike_id":"aff4cc40-c923-4034-be9c-e88ce8ea159c","system_id":"levelo_inurba_marseille","lat":43.30907,"lon":5.36859,"is_reserved":false,"is_disabled":false,"rental_uris":{"android":"levelo://app?vid=aff4cc40-c923-4034-be9c-e88ce8ea159c","ios":"levelo://app?vid=aff4cc40-c923-4034-be9c-e88ce8ea159c"},"vehicle_type_id":"4","last_reported":1730880746,"current_range_meters":36000,"station_id":"ce4bgn92rcd13ifvqbvg","pricing_plan_id":"cebpf4jnsgd1na2vs0mg"},{"bike_id":"9d3d6aac-ae92-4938-b44d-7a31517f4a57","system_id":"levelo_inurba_marseille","lat":43.29798,"lon":5.38095,"is_reserved":false,"is_disabled":false,"rental_uris":{"android":"levelo://app?vid=9d3d6aac-ae92-4938-b44d-7a31517f4a57","ios":"levelo://app?vid=9d3d6aac-ae92-4938-b44d-7a31517f4a57"},"vehicle_type_id":"4","last_reported":1730880746,"current_range_meters":39200,"station_id":"ce4bgip2rcd13ifvqbb0","pricing_plan_id":"cebpf4jnsgd1na2vs0mg"},{"bike_id":"5d3ba61e-1ebf-4b8e-bb97-302fb4bfb6b6","system_id":"levelo_inurba_marseille","lat":43.30656,"lon":5.40087,"is_reserved":false,"is_disabled":false,"rental_uris":{"android":"levelo://app?vid=5d3ba61e-1ebf-4b8e-bb97-302fb4bfb6b6","ios":"levelo://app?vid=5d3ba61e-1ebf-4b8e-bb97-302fb4bfb6b6"},"vehicle_type_id":"4","last_reported":1730880746,"current_range_meters":31200,"station_id":"ce4bh112rcd13ifvqda0","pricing_plan_id":"cebpf4jnsgd1na2vs0mg"},{"bike_id":"ecb92602-9aa2-40a0-8917-6a5ab616b471","system_id":"levelo_inurba_marseille","lat":43.30178,"lon":5.36632,"is_reserved":false,"is_disabled":false,"rental_uris":{"android":"levelo://app?vid=ecb92602-9aa2-40a0-8917-6a5ab616b471","ios":"levelo://app?vid=ecb92602-9aa2-40a0-8917-6a5ab616b471"},"vehicle_type_id":"4","last_reported":1730880746,"current_range_meters":37600,"station_id":"ce4bgrh2rcd13ifvqc8g","pricing_plan_id":"cebpf4jnsgd1na2vs0mg"},{"bike_id":"83675056-f7fe-445c-8154-3884f1a3657c","system_id":"levelo_inurba_marseille","lat":43.24074,"lon":5.37758,"is_reserved":false,"is_disabled":false,"rental_uris":{"android":"levelo://app?vid=83675056-f7fe-445c-8154-3884f1a3657c","ios":"levelo://app?vid=83675056-f7fe-445c-8154-3884f1a3657c"},"vehicle_type_id":"4","last_reported":1730880746,"current_range_meters":30400,"station_id":"ce4bhnp2rcd13ifvqgvg","pricing_plan_id":"cebpf4jnsgd1na2vs0mg"},{"bike_id":"abf426d6-a335-4e13-a0b7-37aaac295133","system_id":"levelo_inurba_marseille","lat":43.28348,"lon":5.38115,"is_reserved":false,"is_disabled":false,"rental_uris":{"android":"levelo://app?vid=abf426d6-a335-4e13-a0b7-37aaac295133","ios":"levelo://app?vid=abf426d6-a335-4e13-a0b7-37aaac295133"},"vehicle_type_id":"4","last_reported":1730880746,"current_range_meters":36800,"station_id":"ce4bh412rcd13ifvqdr0","pricing_plan_id":"cebpf4jnsgd1na2vs0mg"},{"bike_id":"57ed353f-5b28-436d-8b6f-4ad55584253a","system_id":"levelo_inurba_marseille","lat":43.28037,"lon":5.36957,"is_reserved":false,"is_disabled":false,"rental_uris":{"android":"levelo://app?vid=57ed353f-5b28-436d-8b6f-4ad55584253a","ios":"levelo://app?vid=57ed353f-5b28-436d-8b6f-4ad55584253a"},"vehicle_type_id":"4","last_reported":1730880746,"current_range_meters":16800,"station_id":"ce4bha12rcd13ifvqef0","pricing_plan_id":"cebpf4jnsgd1na2vs0mg"},{"bike_id":"9d28d609-b9e8-4ad0-924a-bd27835b3034","system_id":"levelo_inurba_marseille","lat":43.28047,"lon":5.36952,"is_reserved":false,"is_disabled":false,"rental_uris":{"android":"levelo://app?vid=9d28d609-b9e8-4ad0-924a-bd27835b3034","ios":"levelo://app?vid=9d28d609-b9e8-4ad0-924a-bd27835b3034"},"vehicle_type_id":"4","last_reported":1730880746,"current_range_meters":33200,"station_id":"ce4bha12rcd13ifvqef0","pricing_plan_id":"cebpf4jnsgd1na2vs0mg"},{"bike_id":"878d907b-00e7-4742-bff4-0294b4cce6c6","system_id":"levelo_inurba_marseille","lat":43.28475,"lon":5.3841,"is_reserved":false,"is_disabled":false,"rental_uris":{"android":"levelo://app?vid=878d907b-00e7-4742-bff4-0294b4cce6c6","ios":"levelo://app?vid=878d907b-00e7-4742-bff4-0294b4cce6c6"},"vehicle_type_id":"4","last_reported":1730880746,"current_range_meters":38800,"station_id":"ce4bh512rcd13ifvqe3g","pricing_plan_id":"cebpf4jnsgd1na2vs0mg"},{"bike_id":"3af3bb0a-380f-4bfc-a809-a271e78a1e00","system_id":"levelo_inurba_marseille","lat":43.30477,"lon":5.37904,"is_reserved":false,"is_disabled":false,"rental_uris":{"android":"levelo://app?vid=3af3bb0a-380f-4bfc-a809-a271e78a1e00","ios":"levelo://app?vid=3af3bb0a-380f-4bfc-a809-a271e78a1e00"},"vehicle_type_id":"4","last_reported":1730880746,"current_range_meters":35200,"station_id":"ce4bgup2rcd13ifvqcn0","pricing_plan_id":"cebpf4jnsgd1na2vs0mg"},{"bike_id":"9048ebe6-0239-470a-af7d-c5634530ba1b","system_id":"levelo_inurba_marseille","lat":43.33025,"lon":5.39029,"is_reserved":false,"is_disabled":false,"rental_uris":{"android":"levelo://app?vid=9048ebe6-0239-470a-af7d-c5634530ba1b","ios":"levelo://app?vid=9048ebe6-0239-470a-af7d-c5634530ba1b"},"vehicle_type_id":"4","last_reported":1730880746,"current_range_meters":22000,"station_id":"ce4bhr92rcd13ifvqhrg","pricing_plan_id":"cebpf4jnsgd1na2vs0mg"},{"bike_id":"ce1990ac-3390-413c-9a93-5d1336a43aa1","system_id":"levelo_inurba_marseille","lat":43.27384,"lon":5.3626,"is_reserved":false,"is_disabled":false,"rental_uris":{"android":"levelo://app?vid=ce1990ac-3390-413c-9a93-5d1336a43aa1","ios":"levelo://app?vid=ce1990ac-3390-413c-9a93-5d1336a43aa1"},"vehicle_type_id":"4","last_reported":1730880746,"current_range_meters":36800,"station_id":"ce4bhbh2rcd13ifvqeo0","pricing_plan_id":"cebpf4jnsgd1na2vs0mg"},{"bike_id":"74695514-743b-4a43-8a3c-3ee8c9a28175","system_id":"levelo_inurba_marseille","lat":43.23196,"lon":5.35554,"is_reserved":false,"is_disabled":false,"rental_uris":{"android":"levelo://app?vid=74695514-743b-4a43-8a3c-3ee8c9a28175","ios":"levelo://app?vid=74695514-743b-4a43-8a3c-3ee8c9a28175"},"vehicle_type_id":"4","last_reported":1730880746,"current_range_meters":38800,"station_id":"ce4bhu92rcd13ifvqi70","pricing_plan_id":"cebpf4jnsgd1na2vs0mg"},{"bike_id":"3f3041da-8424-4cc3-a139-fd8a99ad9a6c","system_id":"levelo_inurba_marseille","lat":43.33614,"lon":5.41035,"is_reserved":false,"is_disabled":false,"rental_uris":{"android":"levelo://app?vid=3f3041da-8424-4cc3-a139-fd8a99ad9a6c","ios":"levelo://app?vid=3f3041da-8424-4cc3-a139-fd8a99ad9a6c"},"vehicle_type_id":"4","last_reported":1730880746,"current_range_meters":14000,"station_id":"ce4bhqh2rcd13ifvqhmg","pricing_plan_id":"cebpf4jnsgd1na2vs0mg"},{"bike_id":"21ada0ba-3690-4b1c-9dd6-116e87f878cc","system_id":"levelo_inurba_marseille","lat":43.29691,"lon":5.39141,"is_reserved":false,"is_disabled":false,"rental_uris":{"android":"levelo://app?vid=21ada0ba-3690-4b1c-9dd6-116e87f878cc","ios":"levelo://app?vid=21ada0ba-3690-4b1c-9dd6-116e87f878cc"},"vehicle_type_id":"4","last_reported":1730880746,"current_range_meters":30800,"station_id":"","pricing_plan_id":"cebpf4jnsgd1na2vs0mg"},{"bike_id":"cb87361d-d664-4f06-9d00-79de4d552fc1","system_id":"levelo_inurba_marseille","lat":43.2407,"lon":5.37754,"is_reserved":false,"is_disabled":false,"rental_uris":{"android":"levelo://app?vid=cb87361d-d664-4f06-9d00-79de4d552fc1","ios":"levelo://app?vid=cb87361d-d664-4f06-9d00-79de4d552fc1"},"vehicle_type_id":"4","last_reported":1730880746,"current_range_meters":38000,"station_id":"ce4bhnp2rcd13ifvqgvg","pricing_plan_id":"cebpf4jnsgd1na2vs0mg"},{"bike_id":"a5e35101-38e2-445c-a820-4ae76e0bb71f","system_id":"levelo_inurba_marseille","lat":43.28356,"lon":5.3811,"is_reserved":false,"is_disabled":false,"rental_uris":{"android":"levelo://app?vid=a5e35101-38e2-445c-a820-4ae76e0bb71f","ios":"levelo://app?vid=a5e35101-38e2-445c-a820-4ae76e0bb71f"},"vehicle_type_id":"4","last_reported":1730880746,"current_range_meters":38800,"station_id":"ce4bh412rcd13ifvqdr0","pricing_plan_id":"cebpf4jnsgd1na2vs0mg"},{"bike_id":"5a21dff0-5257-44a0-8628-b52b6f2dcfaa","system_id":"levelo_inurba_marseille","lat":43.30801,"lon":5.38147,"is_reserved":false,"is_disabled":false,"rental_uris":{"android":"levelo://app?vid=5a21dff0-5257-44a0-8628-b52b6f2dcfaa","ios":"levelo://app?vid=5a21dff0-5257-44a0-8628-b52b6f2dcfaa"},"vehicle_type_id":"4","last_reported":1730880746,"current_range_meters":17200,"station_id":"ce4bgt12rcd13ifvqce0","pricing_plan_id":"cebpf4jnsgd1na2vs0mg"},{"bike_id":"f9a8c473-50f6-461e-98fa-f58e5ab7fcbc","system_id":"levelo_inurba_marseille","lat":43.30914,"lon":5.36844,"is_reserved":false,"is_disabled":false,"rental_uris":{"android":"levelo://app?vid=f9a8c473-50f6-461e-98fa-f58e5ab7fcbc","ios":"levelo://app?vid=f9a8c473-50f6-461e-98fa-f58e5ab7fcbc"},"vehicle_type_id":"4","last_reported":1730880746,"current_range_meters":38000,"station_id":"ce4bgn92rcd13ifvqbvg","pricing_plan_id":"cebpf4jnsgd1na2vs0mg"},{"bike_id":"b35cf98f-ea48-4ff0-a3fc-897a6b501646","system_id":"levelo_inurba_marseille","lat":43.28352,"lon":5.38116,"is_reserved":false,"is_disabled":false,"rental_uris":{"android":"levelo://app?vid=b35cf98f-ea48-4ff0-a3fc-897a6b501646","ios":"levelo://app?vid=b35cf98f-ea48-4ff0-a3fc-897a6b501646"},"vehicle_type_id":"4","last_reported":1730880746,"current_range_meters":27600,"station_id":"ce4bh412rcd13ifvqdr0","pricing_plan_id":"cebpf4jnsgd1na2vs0mg"},{"bike_id":"891b63ae-eb77-4dae-85e1-2c16ae2137b9","system_id":"levelo_inurba_marseille","lat":43.31271,"lon":5.40176,"is_reserved":false,"is_disabled":false,"rental_uris":{"android":"levelo://app?vid=891b63ae-eb77-4dae-85e1-2c16ae2137b9","ios":"levelo://app?vid=891b63ae-eb77-4dae-85e1-2c16ae2137b9"},"vehicle_type_id":"4","last_reported":1730880746,"current_range_meters":32000,"station_id":"ce4bh092rcd13ifvqd30","pricing_plan_id":"cebpf4jnsgd1na2vs0mg"},{"bike_id":"9c07c115-8458-42eb-a90e-dec43e520f3f","system_id":"levelo_inurba_marseille","lat":43.26028,"lon":5.37559,"is_reserved":false,"is_disabled":false,"rental_uris":{"android":"levelo://app?vid=9c07c115-8458-42eb-a90e-dec43e520f3f","ios":"levelo://app?vid=9c07c115-8458-42eb-a90e-dec43e520f3f"},"vehicle_type_id":"4","last_reported":1730880746,"current_range_meters":38400,"station_id":"ce4bhgh2rcd13ifvqfa0","pricing_plan_id":"cebpf4jnsgd1na2vs0mg"},{"bike_id":"ac03a311-6f6f-4c90-a81a-5b451856dd6f","system_id":"levelo_inurba_marseille","lat":43.27195,"lon":5.40995,"is_reserved":false,"is_disabled":false,"rental_uris":{"android":"levelo://app?vid=ac03a311-6f6f-4c90-a81a-5b451856dd6f","ios":"levelo://app?vid=ac03a311-6f6f-4c90-a81a-5b451856dd6f"},"vehicle_type_id":"4","last_reported":1730880746,"current_range_meters":30000,"station_id":"ce4bhl12rcd13ifvqgf0","pricing_plan_id":"cebpf4jnsgd1na2vs0mg"},{"bike_id":"e7874ce2-f692-46c5-87b4-56890b100158","system_id":"levelo_inurba_marseille","lat":43.23066,"lon":5.3549,"is_reserved":false,"is_disabled":false,"rental_uris":{"android":"levelo://app?vid=e7874ce2-f692-46c5-87b4-56890b100158","ios":"levelo://app?vid=e7874ce2-f692-46c5-87b4-56890b100158"},"vehicle_type_id":"4","last_reported":1730880746,"current_range_meters":37600,"station_id":"cpo3342slgdg3j2ifvpg","pricing_plan_id":"cebpf4jnsgd1na2vs0mg"},{"bike_id":"4f5dd26a-53d2-41d9-9750-359fa2101d6a","system_id":"levelo_inurba_marseille","lat":43.24079,"lon":5.37748,"is_reserved":false,"is_disabled":false,"rental_uris":{"android":"levelo://app?vid=4f5dd26a-53d2-41d9-9750-359fa2101d6a","ios":"levelo://app?vid=4f5dd26a-53d2-41d9-9750-359fa2101d6a"},"vehicle_type_id":"4","last_reported":1730880746,"current_range_meters":25200,"station_id":"ce4bhnp2rcd13ifvqgvg","pricing_plan_id":"cebpf4jnsgd1na2vs0mg"},{"bike_id":"5762ed2d-019a-4513-8343-3f40a713eb9c","system_id":"levelo_inurba_marseille","lat":43.31695,"lon":5.40468,"is_reserved":false,"is_disabled":false,"rental_uris":{"android":"levelo://app?vid=5762ed2d-019a-4513-8343-3f40a713eb9c","ios":"levelo://app?vid=5762ed2d-019a-4513-8343-3f40a713eb9c"},"vehicle_type_id":"4","last_reported":1730880746,"current_range_meters":38800,"station_id":"ce4bh012rcd13ifvqd00","pricing_plan_id":"cebpf4jnsgd1na2vs0mg"},{"bike_id":"b19bc3e4-8d0b-4d44-8d1b-f2a0e72dd29b","system_id":"levelo_inurba_marseille","lat":43.31275,"lon":5.40169,"is_reserved":false,"is_disabled":false,"rental_uris":{"android":"levelo://app?vid=b19bc3e4-8d0b-4d44-8d1b-f2a0e72dd29b","ios":"levelo://app?vid=b19bc3e4-8d0b-4d44-8d1b-f2a0e72dd29b"},"vehicle_type_id":"4","last_reported":1730880746,"current_range_meters":22400,"station_id":"ce4bh092rcd13ifvqd30","pricing_plan_id":"cebpf4jnsgd1na2vs0mg"},{"bike_id":"66c86b3c-9169-469d-a2db-a1c38c38f50d","system_id":"levelo_inurba_marseille","lat":43.30151,"lon":5.38084,"is_reserved":false,"is_disabled":false,"rental_uris":{"android":"levelo://app?vid=66c86b3c-9169-469d-a2db-a1c38c38f50d","ios":"levelo://app?vid=66c86b3c-9169-469d-a2db-a1c38c38f50d"},"vehicle_type_id":"4","last_reported":1730880746,"current_range_meters":36400,"station_id":"ce4bgjp2rcd13ifvqbh0","pricing_plan_id":"cebpf4jnsgd1na2vs0mg"},{"bike_id":"b1f1675c-c836-4ddc-a803-ede5bb859ded","system_id":"levelo_inurba_marseille","lat":43.25939,"lon":5.40903,"is_reserved":false,"is_disabled":false,"rental_uris":{"android":"levelo://app?vid=b1f1675c-c836-4ddc-a803-ede5bb859ded","ios":"levelo://app?vid=b1f1675c-c836-4ddc-a803-ede5bb859ded"},"vehicle_type_id":"4","last_reported":1730880746,"current_range_meters":4800,"station_id":"ce4bhm92rcd13ifvqglg","pricing_plan_id":"cebpf4jnsgd1na2vs0mg"},{"bike_id":"af8bcc5e-8b79-4aed-93c7-f1a512d82a0b","system_id":"levelo_inurba_marseille","lat":43.30162,"lon":5.3809,"is_reserved":false,"is_disabled":false,"rental_uris":{"android":"levelo://app?vid=af8bcc5e-8b79-4aed-93c7-f1a512d82a0b","ios":"levelo://app?vid=af8bcc5e-8b79-4aed-93c7-f1a512d82a0b"},"vehicle_type_id":"4","last_reported":1730880746,"current_range_meters":32000,"station_id":"ce4bgjp2rcd13ifvqbh0","pricing_plan_id":"cebpf4jnsgd1na2vs0mg"},{"bike_id":"09da8668-6acc-4d53-9735-aa8db2a197c9","system_id":"levelo_inurba_marseille","lat":43.27498,"lon":5.42447,"is_reserved":false,"is_disabled":false,"rental_uris":{"android":"levelo://app?vid=09da8668-6acc-4d53-9735-aa8db2a197c9","ios":"levelo://app?vid=09da8668-6acc-4d53-9735-aa8db2a197c9"},"vehicle_type_id":"4","last_reported":1730880746,"current_range_meters":30800,"station_id":"ce4bhn92rcd13ifvqgrg","pricing_plan_id":"cebpf4jnsgd1na2vs0mg"},{"bike_id":"5e374225-de3c-423e-abe4-d9ab4e18c8c7","system_id":"levelo_inurba_marseille","lat":43.29039,"lon":5.39959,"is_reserved":false,"is_disabled":false,"rental_uris":{"android":"levelo://app?vid=5e374225-de3c-423e-abe4-d9ab4e18c8c7","ios":"levelo://app?vid=5e374225-de3c-423e-abe4-d9ab4e18c8c7"},"vehicle_type_id":"4","last_reported":1730880746,"current_range_meters":38800,"station_id":"ce4bh392rcd13ifvqdm0","pricing_plan_id":"cebpf4jnsgd1na2vs0mg"},{"bike_id":"9bf51cfd-59f7-461a-a1ce-1f518512b7ef","system_id":"levelo_inurba_marseille","lat":43.23964,"lon":5.36631,"is_reserved":false,"is_disabled":false,"rental_uris":{"android":"levelo://app?vid=9bf51cfd-59f7-461a-a1ce-1f518512b7ef","ios":"levelo://app?vid=9bf51cfd-59f7-461a-a1ce-1f518512b7ef"},"vehicle_type_id":"4","last_reported":1730880746,"current_range_meters":10800,"station_id":"ce4bhi12rcd13ifvqfp0","pricing_plan_id":"cebpf4jnsgd1na2vs0mg"},{"bike_id":"90437c6c-cb89-4738-bdb2-3870d3269420","system_id":"levelo_inurba_marseille","lat":43.29277,"lon":5.40122,"is_reserved":false,"is_disabled":false,"rental_uris":{"android":"levelo://app?vid=90437c6c-cb89-4738-bdb2-3870d3269420","ios":"levelo://app?vid=90437c6c-cb89-4738-bdb2-3870d3269420"},"vehicle_type_id":"4","last_reported":1730880746,"current_range_meters":14000,"station_id":"ce4bh312rcd13ifvqdk0","pricing_plan_id":"cebpf4jnsgd1na2vs0mg"},{"bike_id":"59d3e678-58ae-4351-9685-f38022734cd7","system_id":"levelo_inurba_marseille","lat":43.26957,"lon":5.38628,"is_reserved":false,"is_disabled":false,"rental_uris":{"android":"levelo://app?vid=59d3e678-58ae-4351-9685-f38022734cd7","ios":"levelo://app?vid=59d3e678-58ae-4351-9685-f38022734cd7"},"vehicle_type_id":"4","last_reported":1730880746,"current_range_meters":30000,"station_id":"ce4bhh92rcd13ifvqfh0","pricing_plan_id":"cebpf4jnsgd1na2vs0mg"},